Time (sec),Pitch (deg),Roll (deg),Yaw(deg),X-Acceleration (g),Y-Acceleration (g),Z-Acceleration (g),Pitch Rate (deg/sec),Roll Rate (deg/sec),Yaw Rate (deg/sec),Magnetic Field in X direction (uT),Magnetic Field in Y direction (uT),Magnetic Field in Z Direction (uT),Latitude (deg),Longitude (deg),Altitude (m)
729605562.07393,1.237032,1.058412,39.355339,-0.007736,0.01712,1.005325,0.005265,0.047533,-0.02105,63.774506,18.771362,-147.43399,,,
729605562.077243,1.235865,1.066087,39.348149,-0.016235,0.017151,0.996338,-0.002628,0.025321,-0.027497,63.774506,18.771362,-147.43399,,,
729605562.080649,1.235865,1.066087,39.348149,-0.016235,0.017151,0.996338,-0.002628,0.025321,-0.027497,63.774506,18.771362,-147.43399,,,
729605562.083924,1.235733,1.066514,39.341338,-0.016235,0.017151,0.996338,-0.002628,0.025321,-0.027497,63.774506,18.771362,-147.43399,,,
729605562.087332,1.232841,1.067073,39.335443,-0.026398,0.013824,0.989777,-0.011721,0.001619,-0.020259,63.774506,18.771362,-147.43399,,,
729605562.090585,1.232841,1.067073,39.335443,-0.026398,0.013824,0.989777,-0.011721,0.001619,-0.020259,63.774506,18.771362,-147.43399,,,
729605562.093976,1.230238,1.060634,39.331051,-0.026398,0.013824,0.989777,-0.011721,0.001619,-0.020259,63.774506,18.771362,-147.43399,,,
729605562.097244,1.225896,1.055439,39.32746,-0.026978,0.012192,0.982422,-0.012703,-0.019442,-0.016119,63.774506,18.771362,-147.43399,,,
729605562.100605,1.225896,1.055439,39.32746,-0.026978,0.012192,0.982422,-0.012703,-0.019442,-0.016119,63.774506,18.771362,-147.43399,,,
729605562.103933,1.221688,1.046664,39.323851,-0.026978,0.012192,0.982422,-0.012703,-0.019442,-0.016119,63.753586,19.014832,-147.958893,,,
729605562.107257,1.220748,1.039279,39.320897,-0.023727,0.011276,0.989334,-0.001505,-0.024496,-0.01027,63.753586,19.014832,-147.958893,,,
729605562.110593,1.220748,1.039279,39.320897,-0.023727,0.011276,0.989334,-0.001505,-0.024496,-0.01027,63.753586,19.014832,-147.958893,,,
729605562.113928,1.219549,1.03002,39.319067,-0.023727,0.011276,0.989334,-0.001505,-0.024496,-0.01027,63.753586,19.014832,-147.958893,,,
729605562.117286,1.224226,1.022273,39.317681,-0.023865,0.011581,0.997498,0.016865,-0.023132,-0.004711,63.753586,19.014832,-147.958893,,,
729605562.120651,1.224226,1.022273,39.317681,-0.023865,0.011581,0.997498,0.016865,-0.023132,-0.004711,63.753586,19.014832,-147.958893,,,
729605562.123928,1.22784,1.013445,39.316564,-0.023865,0.011581,0.997498,0.016865,-0.023132,-0.004711,63.753586,19.014832,-147.958893,,,
729605562.127251,1.234412,1.008334,39.315538,-0.020996,0.01059,1.000092,0.020836,-0.01534,-0.000704,63.753586,19.014832,-147.958893,,,
729605562.130621,1.234412,1.008334,39.315538,-0.020996,0.01059,1.000092,0.020836,-0.01534,-0.000704,63.753586,19.014832,-147.958893,,,
729605562.133904,1.238101,1.001724,39.314585,-0.020996,0.01059,1.000092,0.020836,-0.01534,-0.000704,63.753586,19.014832,-147.958893,,,
729605562.137248,1.240238,1.000216,39.313091,-0.015305,0.014206,0.992508,0.006195,-0.00354,-0.007197,63.753586,19.014832,-147.958893,,,
729605562.140587,1.240238,1.000216,39.313091,-0.015305,0.014206,0.992508,0.006195,-0.00354,-0.007197,63.753586,19.014832,-147.958893,,,
729605562.143909,1.239087,0.998485,39.310441,-0.015305,0.014206,0.992508,0.006195,-0.00354,-0.007197,63.66832,18.93512,-147.33847,,,
729605562.147277,1.23652,1.001177,39.306396,-0.014343,0.016861,0.986633,-0.012536,0.015766,-0.014,63.66832,18.93512,-147.33847,,,
729605562.150628,1.23652,1.001177,39.306396,-0.014343,0.016861,0.986633,-0.012536,0.015766,-0.014,63.66832,18.93512,-147.33847,,,
729605562.153917,1.230552,1.004072,39.301993,-0.014343,0.016861,0.986633,-0.012536,0.015766,-0.014,63.66832,18.93512,-147.33847,,,
729605562.15725,1.222907,1.009488,39.297534,-0.014343,0.016861,0.986633,-0.029023,0.02315,-0.017745,63.66832,18.93512,-147.33847,,,
729605562.160618,1.222907,1.009488,39.297534,-0.018082,0.018417,0.980988,-0.029023,0.02315,-0.017745,63.66832,18.93512,-147.33847,,,
729605562.163957,1.212489,1.01632,39.292622,-0.018082,0.018417,0.980988,-0.029023,0.02315,-0.017745,63.66832,18.93512,-147.33847,,,
729605562.167278,1.201043,1.022273,39.287515,-0.018082,0.018417,0.980988,-0.029023,0.02315,-0.017745,63.66832,18.93512,-147.33847,,,
729605562.170592,1.201043,1.022273,39.287515,-0.018204,0.020615,0.975113,-0.040958,0.023342,-0.019996,63.66832,18.93512,-147.33847,,,
729605562.174021,1.186618,1.029404,39.28238,-0.018204,0.020615,0.975113,-0.040958,0.023342,-0.019996,63.66832,18.93512,-147.33847,,,
729605562.177237,1.186618,1.029404,39.28238,-0.018204,0.020615,0.975113,-0.040958,0.023342,-0.019996,63.66832,18.93512,-147.33847,,,
729605562.180594,1.171871,1.033196,39.277146,-0.019226,0.023468,0.974442,-0.053422,0.013498,-0.019156,63.66832,18.93512,-147.33847,,,
729605562.183911,1.153423,1.03689,39.27218,-0.019226,0.023468,0.974442,-0.053422,0.013498,-0.019156,63.782776,18.935898,-147.679626,,,
729605562.187339,1.134355,1.038206,39.2672,-0.019226,0.023468,0.974442,-0.068448,0.00575,-0.019663,63.782776,18.935898,-147.679626,,,
729605562.190588,1.134355,1.038206,39.2672,-0.022003,0.021713,0.973312,-0.068448,0.00575,-0.019663,63.782776,18.935898,-147.679626,,,
729605562.19392,1.111753,1.039885,39.26193,-0.022003,0.021713,0.973312,-0.068448,0.00575,-0.019663,63.782776,18.935898,-147.679626,,,
729605562.197271,1.111753,1.039885,39.26193,-0.022003,0.021713,0.973312,-0.079372,0.001755,-0.022003,63.782776,18.935898,-147.679626,,,
729605562.200594,1.088981,1.039608,39.256181,-0.02478,0.019547,0.977173,-0.079372,0.001755,-0.022003,63.782776,18.935898,-147.679626,,,
729605562.203927,1.064524,1.039283,39.249742,-0.02478,0.019547,0.977173,-0.079372,0.001755,-0.022003,63.782776,18.935898,-147.679626,,,
729605562.207264,1.064524,1.039283,39.249742,-0.02478,0.019547,0.977173,-0.070449,-0.007484,-0.026719,63.782776,18.935898,-147.679626,,,
729605562.210645,1.043006,1.036922,39.242887,-0.021408,0.01973,0.984543,-0.070449,-0.007484,-0.026719,63.782776,18.935898,-147.679626,,,
729605562.213912,1.022613,1.034491,39.236012,-0.021408,0.01973,0.984543,-0.070449,-0.007484,-0.026719,63.782776,18.935898,-147.679626,,,
729605562.217243,1.022613,1.034491,39.236012,-0.021408,0.01973,0.984543,-0.070449,-0.007484,-0.026719,63.782776,18.935898,-147.679626,,,
729605562.22061,1.005575,1.032146,39.229425,-0.025558,0.014816,0.999771,-0.056382,-0.005302,-0.024342,63.782776,18.935898,-147.679626,,,
729605562.22397,0.990856,1.029351,39.22386,-0.025558,0.014816,0.999771,-0.056382,-0.005302,-0.024342,63.782776,18.935898,-147.679626,,,
729605562.227247,0.990856,1.029351,39.22386,-0.025558,0.014816,0.999771,-0.056382,-0.005302,-0.015238,63.932816,19.179733,-147.669479,,,
729605562.230586,0.979279,1.026424,39.220047,-0.031693,0.008698,1.009781,-0.035393,-0.008786,-0.015238,63.932816,19.179733,-147.669479,,,
729605562.23392,0.969752,1.023131,39.217117,-0.031693,0.008698,1.009781,-0.035393,-0.008786,-0.015238,63.932816,19.179733,-147.669479,,,
729605562.237285,0.969752,1.023131,39.217117,-0.031693,0.008698,1.009781,-0.031328,-0.001339,-0.012541,63.932816,19.179733,-147.669479,,,
729605562.240588,0.960932,1.021632,39.214253,-0.026993,0.01152,1.011307,-0.031328,-0.001339,-0.012541,63.932816,19.179733,-147.669479,,,
729605562.243916,0.951982,1.022661,39.211247,-0.026993,0.01152,1.011307,-0.031328,-0.001339,-0.012541,63.932816,19.179733,-147.669479,,,
729605562.247313,0.951982,1.022661,39.211247,-0.026993,0.01152,1.011307,-0.031328,-0.001339,-0.012541,63.932816,19.179733,-147.669479,,,
729605562.250637,0.940941,1.025889,39.207814,-0.021652,0.016312,1.009369,-0.039922,0.016694,-0.012763,63.932816,19.179733,-147.669479,,,
729605562.253923,0.929453,1.029638,39.203721,-0.021652,0.016312,1.009369,-0.039922,0.016694,-0.012763,63.932816,19.179733,-147.669479,,,
729605562.257289,0.929453,1.029638,39.203721,-0.021652,0.016312,1.009369,-0.039922,0.016694,-0.012763,63.932816,19.179733,-147.669479,,,
729605562.260583,0.915806,1.032786,39.199189,-0.018311,0.020386,1.00206,-0.048184,0.014395,-0.017727,63.932816,19.179733,-147.669479,,,
729605562.263912,0.902383,1.036767,39.194207,-0.018311,0.020386,1.00206,-0.048184,0.014395,-0.017727,63.932816,19.179733,-147.669479,,,
729605562.26727,0.902383,1.036767,39.194207,-0.018311,0.020386,1.00206,-0.048184,0.014395,-0.017727,64.007599,19.4142,-147.876343,,,
729605562.270602,0.886886,1.039577,39.189144,-0.020218,0.023422,1.000961,-0.05242,0.013633,-0.020683,64.007599,19.4142,-147.876343,,,
729605562.273928,0.87335,1.041353,39.183703,-0.020218,0.023422,1.000961,-0.05242,0.013633,-0.020683,64.007599,19.4142,-147.876343,,,
729605562.277308,0.87335,1.041353,39.183703,-0.020218,0.023422,1.000961,-0.05242,0.013633,-0.020683,64.007599,19.4142,-147.876343,,,
729605562.280587,0.860208,1.038935,39.176817,-0.019119,0.023209,1.003525,-0.042226,-0.009533,-0.028476,64.007599,19.4142,-147.876343,,,
729605562.283931,0.848984,1.034122,39.168213,-0.019119,0.023209,1.003525,-0.042226,-0.009533,-0.028476,64.007599,19.4142,-147.876343,,,
729605562.28732,0.848984,1.034122,39.168213,-0.019119,0.023209,1.003525,-0.042226,-0.009533,-0.028476,64.007599,19.4142,-147.876343,,,
729605562.290596,0.836972,1.024985,39.158496,-0.015091,0.025085,1.00351,-0.040245,-0.03157,-0.037313,64.007599,19.4142,-147.876343,,,
729605562.293934,0.826301,1.01412,39.148011,-0.015091,0.025085,1.00351,-0.040245,-0.03157,-0.037313,64.007599,19.4142,-147.876343,,,
729605562.297319,0.826301,1.01412,39.148011,-0.015091,0.025085,1.00351,-0.040245,-0.03157,-0.037313,64.007599,19.4142,-147.876343,,,
729605562.300671,0.816546,1.000795,39.13701,-0.021286,0.019943,1.004959,-0.031214,-0.045532,-0.040723,64.007599,19.4142,-147.876343,,,
729605562.303922,0.807417,0.98842,39.126891,-0.021286,0.019943,1.004959,-0.031214,-0.045532,-0.040723,64.007599,19.4142,-147.876343,,,
729605562.307302,0.807417,0.98842,39.126891,-0.021286,0.019943,1.004959,-0.031214,-0.045532,-0.040723,63.839584,19.156845,-147.763885,,,
729605562.310605,0.800195,0.974049,39.11795,-0.023087,0.014587,1.011993,-0.020616,-0.045932,-0.034646,63.839584,19.156845,-147.763885,,,
729605562.313919,0.793992,0.963669,39.110042,-0.023087,0.014587,1.011993,-0.020616,-0.045932,-0.034646,63.839584,19.156845,-147.763885,,,
729605562.317287,0.793992,0.963669,39.110042,-0.023087,0.014587,1.011993,-0.020616,-0.045932,-0.034646,63.839584,19.156845,-147.763885,,,
729605562.32057,0.790823,0.953342,39.103225,-0.019028,0.013901,1.018616,-0.005862,-0.031638,-0.02335,63.839584,19.156845,-147.763885,,,
729605562.323926,0.79036,0.9477,39.097748,-0.019028,0.013901,1.018616,-0.005862,-0.031638,-0.02335,63.839584,19.156845,-147.763885,,,
729605562.327394,0.79036,0.9477,39.097748,-0.019028,0.013901,1.018616,-0.005862,-0.031638,-0.02335,63.839584,19.156845,-147.763885,,,
729605562.330571,0.79372,0.94491,39.094416,-0.018921,0.013611,1.026932,0.016553,-0.002307,-0.011751,63.839584,19.156845,-147.763885,,,
729605562.333952,0.801229,0.947984,39.09237,-0.018921,0.013611,1.026932,0.016553,-0.002307,-0.011751,63.839584,19.156845,-147.763885,,,
729605562.337299,0.801229,0.947984,39.09237,-0.018921,0.013611,1.026932,0.016553,-0.002307,-0.011751,63.839584,19.156845,-147.763885,,,
729605562.340627,0.811052,0.954656,39.09096,-0.019623,0.015411,1.033737,0.038422,0.032645,-0.003386,63.839584,19.156845,-147.763885,,,
729605562.343958,0.823132,0.964576,39.090476,-0.019623,0.015411,1.033737,0.038422,0.032645,-0.003386,63.839584,19.156845,-147.763885,,,
729605562.347239,0.823132,0.964576,39.090476,-0.019623,0.015411,1.033737,0.038422,0.032645,-0.003386,63.810715,19.097244,-147.409103,,,
729605562.350636,0.833079,0.975762,39.091024,-0.019257,0.019455,1.019363,0.035687,0.044387,0.000726,63.810715,19.097244,-147.409103,,,
729605562.353927,0.843688,0.988263,39.092153,-0.019257,0.019455,1.019363,0.035687,0.044387,0.000726,63.810715,19.097244,-147.409103,,,
729605562.357293,0.843688,0.988263,39.092153,-0.019257,0.019455,1.019363,0.035687,0.044387,0.000726,63.810715,19.097244,-147.409103,,,
729605562.360568,0.851369,0.998552,39.093481,-0.023987,0.022995,1.002304,0.026899,0.037738,0.003838,63.810715,19.097244,-147.409103,,,
729605562.363677,0.859482,1.004982,39.093855,-0.023987,0.022995,1.002304,0.026899,0.037738,0.003838,63.810715,19.097244,-147.409103,,,
729605562.367284,0.859482,1.004982,39.093855,-0.023987,0.022995,1.002304,0.026899,0.037738,0.003838,63.810715,19.097244,-147.409103,,,
729605562.370634,0.865103,1.006346,39.092375,-0.021255,0.024261,0.993652,0.021465,0.002929,-0.00885,63.810715,19.097244,-147.409103,,,
729605562.373986,0.872481,1.001289,39.088653,-0.021255,0.024261,0.993652,0.021465,0.002929,-0.00885,63.810715,19.097244,-147.409103,,,
729605562.377347,0.872481,1.001289,39.088653,-0.021255,0.024261,0.993652,0.021465,0.002929,-0.00885,63.810715,19.097244,-147.409103,,,
729605562.380596,0.878623,0.990918,39.082637,-0.018936,0.02626,0.990128,0.021252,-0.035895,-0.026185,63.810715,19.097244,-147.409103,,,
729605562.38392,0.885432,0.976771,39.07433,-0.018936,0.02626,0.990128,0.021252,-0.035895,-0.026185,63.810715,19.097244,-147.409103,,,
729605562.38725,0.885432,0.976771,39.07433,-0.018936,0.02626,0.990128,0.021252,-0.035895,-0.026185,63.810715,19.097244,-147.409103,,,
729605562.390593,0.892758,0.958433,39.063843,-0.017761,0.025253,0.995392,0.026391,-0.065687,-0.040644,63.867584,19.144348,-147.617783,,,
729605562.393912,0.900924,0.940523,39.051858,-0.017761,0.025253,0.995392,0.026391,-0.065687,-0.040644,63.867584,19.144348,-147.617783,,,
729605562.397261,0.900924,0.940523,39.051858,-0.017761,0.025253,0.995392,0.026391,-0.065687,-0.040644,63.867584,19.144348,-147.617783,,,
729605562.400591,0.909867,0.923611,39.039931,-0.01857,0.02211,1.001862,0.033185,-0.051161,-0.041554,63.867584,19.144348,-147.617783,,,
729605562.403952,0.91858,0.91098,39.030084,-0.01857,0.02211,1.001862,0.033185,-0.051161,-0.041554,63.867584,19.144348,-147.617783,,,
729605562.407255,0.91858,0.91098,39.030084,-0.01857,0.02211,1.001862,0.033185,-0.051161,-0.041554,63.867584,19.144348,-147.617783,,,
729605562.410606,0.928167,0.903217,39.023072,-0.017502,0.018082,1.005035,0.034581,-0.020779,-0.025586,63.867584,19.144348,-147.617783,,,
729605562.413998,0.938175,0.901666,39.018715,-0.017502,0.018082,1.005035,0.034581,-0.020779,-0.025586,63.867584,19.144348,-147.617783,,,
729605562.417256,0.938175,0.901666,39.018715,-0.017502,0.018082,1.005035,0.034581,-0.020779,-0.025586,63.867584,19.144348,-147.617783,,,
729605562.420589,0.950183,0.904554,39.017361,-0.015274,0.016586,1.01001,0.043716,0.018362,-0.002453,63.867584,19.144348,-147.617783,,,
729605562.423917,0.963548,0.912196,39.019072,-0.015274,0.016586,1.01001,0.043716,0.018362,-0.002453,63.867584,19.144348,-147.617783,,,
729605562.427315,0.963548,0.912196,39.019072,-0.015274,0.016586,1.01001,0.043716,0.018362,-0.002453,63.867584,19.144348,-147.617783,,,
729605562.430568,0.97778,0.921763,39.023389,-0.020798,0.014816,1.00798,0.050289,0.0401,0.01753,63.886169,18.995346,-147.568634,,,
729605562.433918,0.992091,0.932982,39.029528,-0.020798,0.014816,1.00798,0.050289,0.0401,0.01753,63.886169,18.995346,-147.568634,,,
729605562.437264,0.992091,0.932982,39.029528,-0.020798,0.014816,1.00798,0.050289,0.0401,0.01753,63.886169,18.995346,-147.568634,,,
729605562.440636,1.005089,0.94347,39.036654,-0.026901,0.014343,0.997406,0.042327,0.040148,0.023195,63.886169,18.995346,-147.568634,,,
729605562.443917,1.018317,0.954223,39.043644,-0.026901,0.014343,0.997406,0.042327,0.040148,0.023195,63.886169,18.995346,-147.568634,,,
729605562.447249,1.018317,0.954223,39.043644,-0.026901,0.014343,0.997406,0.042327,0.040148,0.023195,63.886169,18.995346,-147.568634,,,
729605562.450593,1.027245,0.96122,39.049204,-0.02327,0.019592,0.990067,0.026682,0.025819,0.017124,63.886169,18.995346,-147.568634,,,
729605562.453966,1.033957,0.964622,39.053053,-0.02327,0.019592,0.990067,0.026682,0.025819,0.017124,63.886169,18.995346,-147.568634,,,
729605562.457245,1.033957,0.964622,39.053053,-0.02327,0.019592,0.990067,0.026682,0.025819,0.017124,63.886169,18.995346,-147.568634,,,
729605562.460593,1.036356,0.961805,39.055775,-0.023605,0.023666,0.978149,0.006428,-0.009726,0.007535,63.886169,18.995346,-147.568634,,,
729605562.463927,1.036794,0.954185,39.057035,-0.023605,0.023666,0.978149,0.006428,-0.009726,0.007535,63.886169,18.995346,-147.568634,,,
729605562.467306,1.036794,0.954185,39.057035,-0.023605,0.023666,0.978149,0.006428,-0.009726,0.007535,63.886169,18.995346,-147.568634,,,
729605562.470588,1.033408,0.94175,39.05661,-0.018936,0.022324,0.978271,-0.011331,-0.042656,-0.003592,63.566757,18.943893,-147.247955,,,
729605562.47393,1.030476,0.925304,39.054204,-0.018936,0.022324,0.978271,-0.011331,-0.042656,-0.003592,63.566757,18.943893,-147.247955,,,
729605562.477261,1.030476,0.925304,39.054204,-0.018936,0.022324,0.978271,-0.011331,-0.042656,-0.003592,63.566757,18.943893,-147.247955,,,
729605562.480661,1.025746,0.905521,39.050471,-0.011276,0.017776,0.986771,-0.018698,-0.06885,-0.01516,63.566757,18.943893,-147.247955,,,
729605562.483901,1.021325,0.884858,39.046359,-0.011276,0.017776,0.986771,-0.018698,-0.06885,-0.01516,63.566757,18.943893,-147.247955,,,
729605562.487258,1.021325,0.884858,39.046359,-0.011276,0.017776,0.986771,-0.018698,-0.06885,-0.01516,63.566757,18.943893,-147.247955,,,
729605562.490602,1.017674,0.864513,39.042173,-0.006805,0.013138,0.995544,-0.011359,-0.066157,-0.017878,63.566757,18.943893,-147.247955,,,
729605562.494001,1.014744,0.84761,39.038353,-0.006805,0.013138,0.995544,-0.011359,-0.066157,-0.017878,63.566757,18.943893,-147.247955,,,
729605562.497255,1.014744,0.84761,39.038353,-0.006805,0.013138,0.995544,-0.011359,-0.066157,-0.017878,63.566757,18.943893,-147.247955,,,
729605562.500594,1.012353,0.834892,39.034855,-0.006638,0.008957,1.007553,-0.007981,-0.035828,-0.011157,63.566757,18.943893,-147.247955,,,
729605562.503913,1.010088,0.826958,39.032519,-0.006638,0.008957,1.007553,-0.007981,-0.035828,-0.011157,63.566757,18.943893,-147.247955,,,
729605562.507326,1.010088,0.826958,39.032519,-0.006638,0.008957,1.007553,-0.007981,-0.035828,-0.011157,63.566757,18.943893,-147.247955,,,
729605562.510645,1.007791,0.823299,39.031406,-0.005585,0.007904,1.005737,-0.007271,-0.002705,-0.006638,63.631821,18.9189,-147.418411,,,
729605562.513912,1.004233,0.826448,39.031117,-0.005585,0.007904,1.005737,-0.007271,-0.002705,-0.006638,63.631821,18.9189,-147.418411,,,
729605562.517257,1.004233,0.826448,39.031117,-0.005585,0.007904,1.005737,-0.007271,-0.002705,-0.006638,63.631821,18.9189,-147.418411,,,
729605562.520657,1.001485,0.83208,39.032602,-0.011719,0.005417,1.006119,-0.006009,0.025139,0.005126,63.631821,18.9189,-147.418411,,,
729605562.523988,0.999241,0.842469,39.036446,-0.011719,0.005417,1.006119,-0.006009,0.025139,0.005126,63.631821,18.9189,-147.418411,,,
729605562.527253,0.999241,0.842469,39.036446,-0.011719,0.005417,1.006119,-0.006009,0.025139,0.005126,63.631821,18.9189,-147.418411,,,
729605562.530583,0.998351,0.851772,39.042697,-0.022125,0.001236,1.004349,-0.002304,0.039932,0.021179,63.631821,18.9189,-147.418411,,,
729605562.53397,0.999932,0.861343,39.050528,-0.022125,0.001236,1.004349,-0.002304,0.039932,0.021179,63.631821,18.9189,-147.418411,,,
729605562.537239,0.999932,0.861343,39.050528,-0.022125,0.001236,1.004349,-0.002304,0.039932,0.021179,63.631821,18.9189,-147.418411,,,
729605562.540579,1.002759,0.866763,39.05865,-0.024734,0.001862,1.000427,0.009823,0.019315,0.026404,63.631821,18.9189,-147.418411,,,
729605562.54392,1.009126,0.870596,39.065808,-0.024734,0.001862,1.000427,0.009823,0.019315,0.026404,63.631821,18.9189,-147.418411,,,
729605562.547303,1.009126,0.870596,39.065808,-0.024734,0.001862,1.000427,0.009823,0.019315,0.026404,63.631821,18.9189,-147.418411,,,
729605562.550594,1.016332,0.869091,39.070782,-0.01944,0.008026,1.002991,0.028403,-0.0031,0.015407,63.631821,18.9189,-147.418411,,,
729605562.553918,1.025496,0.864542,39.072897,-0.01944,0.008026,1.002991,0.028403,-0.0031,0.015407,63.660309,18.961685,-147.250046,,,
729605562.55725,1.025496,0.864542,39.072897,-0.01944,0.008026,1.002991,0.028403,-0.0031,0.015407,63.660309,18.961685,-147.250046,,,
729605562.560644,1.034732,0.855545,39.072578,-0.015198,0.01355,0.996445,0.034232,-0.032421,-0.006214,63.660309,18.961685,-147.250046,,,
729605562.563897,1.043427,0.841703,39.070364,-0.015198,0.01355,0.996445,0.034232,-0.032421,-0.006214,63.660309,18.961685,-147.250046,,,
729605562.567305,1.043427,0.841703,39.070364,-0.015198,0.01355,0.996445,0.034232,-0.032421,-0.006214,63.660309,18.961685,-147.250046,,,
729605562.570596,1.051261,0.826829,39.066883,-0.01593,0.013809,0.987091,0.028363,-0.049478,-0.014847,63.660309,18.961685,-147.250046,,,
729605562.573978,1.05601,0.808889,39.063379,-0.01593,0.013809,0.987091,0.028363,-0.049478,-0.014847,63.660309,18.961685,-147.250046,,,
729605562.577248,1.05601,0.808889,39.063379,-0.01593,0.013809,0.987091,0.028363,-0.049478,-0.014847,63.660309,18.961685,-147.250046,,,
729605562.580583,1.059858,0.790644,39.06032,-0.011719,0.0159,0.983124,0.014066,-0.062175,-0.01099,63.660309,18.961685,-147.250046,,,
729605562.583928,1.060077,0.770305,39.05742,-0.011719,0.0159,0.983124,0.014066,-0.062175,-0.01099,63.660309,18.961685,-147.250046,,,
729605562.587283,1.060077,0.770305,39.05742,-0.011719,0.0159,0.983124,0.014066,-0.062175,-0.01099,63.660309,18.961685,-147.250046,,,
729605562.590592,1.060309,0.753115,39.054283,-0.001923,0.01886,0.980072,-0.001129,-0.054138,-0.010995,63.660309,18.961685,-147.250046,,,
729605562.593922,1.056096,0.738591,39.05077,-0.001923,0.01886,0.980072,-0.001129,-0.054138,-0.010995,63.650391,18.833954,-147.53038,,,
729605562.597294,1.056096,0.738591,39.05077,-0.001923,0.01886,0.980072,-0.001129,-0.054138,-0.010995,63.650391,18.833954,-147.53038,,,
729605562.60064,1.051964,0.729766,39.046602,0.003647,0.025696,0.987976,-0.01421,-0.024228,-0.016918,63.650391,18.833954,-147.53038,,,
729605562.603953,1.043423,0.725839,39.04187,0.003647,0.025696,0.987976,-0.01421,-0.024228,-0.016918,63.650391,18.833954,-147.53038,,,
729605562.607253,1.043423,0.725839,39.04187,0.003647,0.025696,0.987976,-0.01421,-0.024228,-0.016918,63.650391,18.833954,-147.53038,,,
729605562.610595,1.036113,0.725278,39.036832,0.00415,0.027893,0.989395,-0.026167,0.003226,-0.01906,63.650391,18.833954,-147.53038,,,
729605562.613966,1.025032,0.729715,39.031213,0.00415,0.027893,0.989395,-0.026167,0.003226,-0.01906,63.650391,18.833954,-147.53038,,,
729605562.617245,1.025032,0.729715,39.031213,0.00415,0.027893,0.989395,-0.026167,0.003226,-0.01906,63.650391,18.833954,-147.53038,,,
729605562.620594,1.017722,0.733689,39.025888,0.001068,0.025696,0.990448,-0.024957,0.020788,-0.020847,63.650391,18.833954,-147.53038,,,
729605562.623913,1.008454,0.740197,39.021238,0.001068,0.025696,0.990448,-0.024957,0.020788,-0.020847,63.650391,18.833954,-147.53038,,,
729605562.627339,1.008454,0.740197,39.021238,0.001068,0.025696,0.990448,-0.024957,0.020788,-0.020847,63.650391,18.833954,-147.53038,,,
729605562.630605,1.002738,0.744333,39.017148,-0.005386,0.021698,0.988327,-0.016999,0.017392,-0.015421,63.650391,18.833954,-147.53038,,,
729605562.633915,0.997702,0.749814,39.013688,-0.005386,0.021698,0.988327,-0.016999,0.017392,-0.015421,63.429688,18.967102,-147.327911,,,
729605562.63727,0.997702,0.749814,39.013688,-0.005386,0.021698,0.988327,-0.016999,0.017392,-0.015421,63.429688,18.967102,-147.327911,,,
729605562.640654,0.995774,0.755422,39.011101,-0.013184,0.018723,0.99353,-0.005194,0.02428,-0.011099,63.429688,18.967102,-147.327911,,,
729605562.643908,0.994137,0.760969,39.008526,-0.013184,0.018723,0.99353,-0.005194,0.02428,-0.011099,63.429688,18.967102,-147.327911,,,
729605562.647252,0.994137,0.760969,39.008526,-0.013184,0.018723,0.99353,-0.005194,0.02428,-0.011099,63.429688,18.967102,-147.327911,,,
729605562.650598,0.993488,0.764192,39.005539,-0.017029,0.018784,0.994766,-0.001321,0.011637,-0.011241,63.429688,18.967102,-147.327911,,,
729605562.653964,0.991694,0.765556,39.002582,-0.017029,0.018784,0.994766,-0.001321,0.011637,-0.011241,63.429688,18.967102,-147.327911,,,
729605562.657291,0.991694,0.765556,39.002582,-0.017029,0.018784,0.994766,-0.001321,0.011637,-0.011241,63.429688,18.967102,-147.327911,,,
729605562.660626,0.98926,0.764215,38.998923,-0.01857,0.020828,0.983948,-0.009579,-0.002854,-0.013685,63.429688,18.967102,-147.327911,,,
729605562.663967,0.985807,0.760041,38.994709,-0.01857,0.020828,0.983948,-0.009579,-0.002854,-0.013685,63.429688,18.967102,-147.327911,,,
729605562.66735,0.985807,0.760041,38.994709,-0.01857,0.020828,0.983948,-0.009579,-0.002854,-0.013685,63.429688,18.967102,-147.327911,,,
729605562.67058,0.980964,0.755757,38.989659,-0.019135,0.020096,0.989624,-0.017371,-0.011456,-0.021271,63.429688,18.967102,-147.327911,,,
729605562.67394,0.975392,0.748497,38.983465,-0.019135,0.020096,0.989624,-0.017371,-0.011456,-0.021271,63.429688,18.967102,-147.327911,,,
729605562.677239,0.975392,0.748497,38.983465,-0.019135,0.020096,0.989624,-0.017371,-0.011456,-0.021271,63.615829,18.932632,-147.15123,,,
729605562.680572,0.968053,0.743307,38.976824,-0.018433,0.021454,0.993652,-0.025134,-0.015537,-0.024694,63.615829,18.932632,-147.15123,,,
729605562.683925,0.962194,0.73395,38.970444,-0.018433,0.021454,0.993652,-0.025134,-0.015537,-0.024694,63.615829,18.932632,-147.15123,,,
729605562.687258,0.962194,0.73395,38.970444,-0.018433,0.021454,0.993652,-0.025134,-0.015537,-0.024694,63.615829,18.932632,-147.15123,,,
729605562.690572,0.9549,0.726564,38.96443,-0.018066,0.022186,0.999908,-0.02373,-0.023462,-0.024503,63.615829,18.932632,-147.15123,,,
729605562.693919,0.950733,0.715299,38.958121,-0.018066,0.022186,0.999908,-0.02373,-0.023462,-0.024503,63.615829,18.932632,-147.15123,,,
729605562.697263,0.950733,0.715299,38.958121,-0.018066,0.022186,0.999908,-0.02373,-0.023462,-0.024503,63.615829,18.932632,-147.15123,,,
729605562.700583,0.945927,0.70753,38.951368,-0.015442,0.022797,1.008026,-0.015234,-0.024343,-0.02558,63.615829,18.932632,-147.15123,,,
729605562.703974,0.944004,0.698363,38.944997,-0.015442,0.022797,1.008026,-0.015234,-0.024343,-0.02558,63.615829,18.932632,-147.15123,,,
729605562.707244,0.944004,0.698363,38.944997,-0.015442,0.022797,1.008026,-0.015234,-0.024343,-0.02558,63.615829,18.932632,-147.15123,,,
729605562.710587,0.941726,0.692243,38.939528,-0.015915,0.020905,1.010468,-0.006363,-0.016408,-0.018113,63.615829,18.932632,-147.15123,,,
729605562.713914,0.94061,0.685901,38.935261,-0.015915,0.020905,1.010468,-0.006363,-0.016408,-0.018113,63.615829,18.932632,-147.15123,,,
729605562.717303,0.94061,0.685901,38.935261,-0.015915,0.020905,1.010468,-0.006363,-0.016408,-0.018113,63.507492,18.941681,-147.212433,,,
729605562.720576,0.939471,0.681026,38.932152,-0.017532,0.018448,1.009491,-0.001334,-0.012777,-0.009803,63.507492,18.941681,-147.212433,,,
729605562.723916,0.939224,0.677504,38.930222,-0.017532,0.018448,1.009491,-0.001334,-0.012777,-0.009803,63.507492,18.941681,-147.212433,,,
729605562.727238,0.939224,0.677504,38.930222,-0.017532,0.018448,1.009491,-0.001334,-0.012777,-0.009803,63.507492,18.941681,-147.212433,,,
729605562.730671,0.938709,0.673162,38.928387,-0.011307,0.022476,1.003769,-0.000503,-0.011406,-0.009619,63.507492,18.941681,-147.212433,,,
729605562.733927,0.939346,0.670519,38.925774,-0.011307,0.022476,1.003769,-0.000503,-0.011406,-0.009619,63.507492,18.941681,-147.212433,,,
729605562.737251,0.939346,0.670519,38.925774,-0.011307,0.022476,1.003769,-0.000503,-0.011406,-0.009619,63.507492,18.941681,-147.212433,,,
729605562.740599,0.940658,0.668217,38.922166,-0.009613,0.025101,1.005569,0.006212,-0.005482,-0.014339,63.507492,18.941681,-147.212433,,,
729605562.743986,0.944258,0.669169,38.917992,-0.009613,0.025101,1.005569,0.006212,-0.005482,-0.014339,63.507492,18.941681,-147.212433,,,
729605562.74724,0.944258,0.669169,38.917992,-0.009613,0.025101,1.005569,0.006212,-0.005482,-0.014339,63.507492,18.941681,-147.212433,,,
729605562.750595,0.948622,0.669302,38.913796,-0.010529,0.026077,1.015564,0.018193,0.004151,-0.017417,63.507492,18.941681,-147.212433,,,
729605562.75393,0.955967,0.670212,38.909631,-0.010529,0.026077,1.015564,0.018193,0.004151,-0.017417,63.507492,18.941681,-147.212433,,,
729605562.75724,0.955967,0.670212,38.909631,-0.010529,0.026077,1.015564,0.018193,0.004151,-0.017417,63.668823,18.962128,-147.160599,,,
729605562.760581,0.963882,0.669009,38.906215,-0.013763,0.022186,1.010529,0.027159,-0.001201,-0.011433,63.668823,18.962128,-147.160599,,,
729605562.763922,0.973191,0.669335,38.904023,-0.013763,0.022186,1.010529,0.027159,-0.001201,-0.011433,63.668823,18.962128,-147.160599,,,
729605562.76713,0.973191,0.669335,38.904023,-0.013763,0.022186,1.010529,0.027159,-0.001201,-0.011433,63.668823,18.962128,-147.160599,,,
729605562.770621,0.981671,0.668866,38.902994,-0.018784,0.017838,1.010223,0.031556,0.000287,-0.000686,63.668823,18.962128,-147.160599,,,
729605562.773996,0.990544,0.668612,38.902317,-0.018784,0.017838,1.010223,0.031556,0.000287,-0.000686,63.668823,18.962128,-147.160599,,,
729605562.777266,0.990544,0.668612,38.902317,-0.018784,0.017838,1.010223,0.031556,0.000287,-0.000686,63.668823,18.962128,-147.160599,,,
729605562.780652,0.997501,0.665548,38.902229,-0.017212,0.014786,1.004593,0.027406,-0.009444,-0.00018,63.668823,18.962128,-147.160599,,,
729605562.783922,1.004107,0.662362,38.902067,-0.017212,0.014786,1.004593,0.027406,-0.009444,-0.00018,63.668823,18.962128,-147.160599,,,
729605562.787255,1.004107,0.662362,38.902067,-0.017212,0.014786,1.004593,0.027406,-0.009444,-0.00018,63.668823,18.962128,-147.160599,,,
729605562.790686,1.008776,0.65882,38.900933,-0.013763,0.017548,1.002884,0.016672,-0.00867,-0.005724,63.668823,18.962128,-147.160599,,,
729605562.793938,1.013736,0.655634,38.89898,-0.013763,0.017548,1.002884,0.016672,-0.00867,-0.005724,63.668823,18.962128,-147.160599,,,
729605562.797353,1.013736,0.655634,38.89898,-0.013763,0.017548,1.002884,0.016672,-0.00867,-0.005724,63.668823,18.962128,-147.160599,,,
729605562.800579,1.018793,0.649496,38.89598,-0.010757,0.019348,1.004959,0.017925,-0.019746,-0.012785,63.721558,18.983017,-147.314011,,,
729605562.804013,1.024581,0.642243,38.891749,-0.010757,0.019348,1.004959,0.017925,-0.019746,-0.012785,63.721558,18.983017,-147.314011,,,
729605562.807251,1.024581,0.642243,38.891749,-0.010757,0.019348,1.004959,0.017925,-0.019746,-0.012785,63.721558,18.983017,-147.314011,,,
729605562.810598,1.03119,0.633151,38.886445,-0.00647,0.020218,1.004974,0.025197,-0.029146,-0.019378,63.721558,18.983017,-147.314011,,,
729605562.813918,1.040344,0.624145,38.880239,-0.00647,0.020218,1.004974,0.025197,-0.029146,-0.019378,63.721558,18.983017,-147.314011,,,
729605562.817242,1.040344,0.624145,38.880239,-0.00647,0.020218,1.004974,0.025197,-0.029146,-0.019378,63.721558,18.983017,-147.314011,,,
729605562.820612,1.049615,0.616261,38.872894,-0.003265,0.020279,1.011963,0.034029,-0.024543,-0.025814,63.721558,18.983017,-147.314011,,,
729605562.823921,1.060496,0.609233,38.865265,-0.003265,0.020279,1.011963,0.034029,-0.024543,-0.025814,63.721558,18.983017,-147.314011,,,
729605562.827266,1.060496,0.609233,38.865265,-0.003265,0.020279,1.011963,0.034029,-0.024543,-0.025814,63.721558,18.983017,-147.314011,,,
729605562.830642,1.07066,0.603641,38.858167,-0.001846,0.018982,1.009079,0.035177,-0.015035,-0.025921,63.721558,18.983017,-147.314011,,,
729605562.833911,1.082453,0.599209,38.852166,-0.001846,0.018982,1.009079,0.035177,-0.015035,-0.025921,63.721558,18.983017,-147.314011,,,
729605562.837259,1.082453,0.599209,38.852166,-0.001846,0.018982,1.009079,0.035177,-0.015035,-0.025921,63.721558,18.983017,-147.314011,,,
729605562.840589,1.093117,0.596212,38.847496,-0.006973,0.017212,1.010086,0.040549,-0.006532,-0.01921,63.377869,18.817917,-147.260971,,,
729605562.843965,1.104149,0.596186,38.843505,-0.006973,0.017212,1.010086,0.040549,-0.006532,-0.01921,63.377869,18.817917,-147.260971,,,
729605562.84725,1.104149,0.596186,38.843505,-0.006973,0.017212,1.010086,0.040549,-0.006532,-0.01921,63.377869,18.817917,-147.260971,,,
729605562.850583,1.115042,0.596003,38.84126,-0.01268,0.01358,1.011185,0.037871,0.004851,-0.007811,63.377869,18.817917,-147.260971,,,
729605562.853919,1.124822,0.597573,38.840589,-0.01268,0.01358,1.011185,0.037871,0.004851,-0.007811,63.377869,18.817917,-147.260971,,,
729605562.857327,1.124822,0.597573,38.840589,-0.01268,0.01358,1.011185,0.037871,0.004851,-0.007811,63.377869,18.817917,-147.260971,,,
729605562.860579,1.134575,0.598374,38.839949,-0.013535,0.009888,1.006165,0.033546,0.004038,-0.003887,63.377869,18.817917,-147.260971,,,
729605562.863926,1.143279,0.600471,38.838657,-0.013535,0.009888,1.006165,0.033546,0.004038,-0.003887,63.377869,18.817917,-147.260971,,,
729605562.867251,1.143279,0.600471,38.838657,-0.013535,0.009888,1.006165,0.033546,0.004038,-0.003887,63.377869,18.817917,-147.260971,,,
729605562.870653,1.151548,0.601997,38.835994,-0.013428,0.012054,1.004517,0.025839,0.00899,-0.012044,63.377869,18.817917,-147.260971,,,
729605562.873922,1.158196,0.604522,38.832411,-0.013428,0.012054,1.004517,0.025839,0.00899,-0.012044,63.377869,18.817917,-147.260971,,,
729605562.877247,1.158196,0.604522,38.832411,-0.013428,0.012054,1.004517,0.025839,0.00899,-0.012044,63.377869,18.817917,-147.260971,,,
729605562.880589,1.164627,0.60635,38.828768,-0.0159,0.01442,0.994766,0.023768,0.007495,-0.014229,63.442017,18.823425,-148.004288,,,
729605562.883987,1.17065,0.606841,38.825224,-0.0159,0.01442,0.994766,0.023768,0.007495,-0.014229,63.442017,18.823425,-148.004288,,,
729605562.887251,1.17065,0.606841,38.825224,-0.0159,0.01442,0.994766,0.023768,0.007495,-0.014229,63.442017,18.823425,-148.004288,,,
729605562.890596,1.176681,0.605879,38.822034,-0.018753,0.015442,0.990891,0.022247,-0.000567,-0.013422,63.442017,18.823425,-148.004288,,,
729605562.894004,1.183219,0.601628,38.81969,-0.018753,0.015442,0.990891,0.022247,-0.000567,-0.013422,63.442017,18.823425,-148.004288,,,
729605562.897293,1.183219,0.601628,38.81969,-0.018753,0.015442,0.990891,0.022247,-0.000567,-0.013422,63.442017,18.823425,-148.004288,,,
729605562.900578,1.189981,0.596316,38.818268,-0.016525,0.013199,0.988907,0.026558,-0.019311,-0.005981,63.442017,18.823425,-148.004288,,,
729605562.903927,1.196994,0.587187,38.817654,-0.016525,0.013199,0.988907,0.026558,-0.019311,-0.005981,63.442017,18.823425,-148.004288,,,
729605562.907244,1.196994,0.587187,38.817654,-0.016525,0.013199,0.988907,0.026558,-0.019311,-0.005981,63.442017,18.823425,-148.004288,,,
729605562.910661,1.204824,0.577212,38.81762,-0.016434,0.014893,0.984344,0.026746,-0.034147,-0.002096,63.442017,18.823425,-148.004288,,,
729605562.913909,1.21233,0.564771,38.817301,-0.016434,0.014893,0.984344,0.026746,-0.034147,-0.002096,63.442017,18.823425,-148.004288,,,
729605562.917255,1.21233,0.564771,38.817301,-0.016434,0.014893,0.984344,0.026746,-0.034147,-0.002096,63.442017,18.823425,-148.004288,,,
729605562.920581,1.22,0.552634,38.816126,-0.011047,0.017212,0.983917,0.026715,-0.040817,-0.006108,63.365067,18.521194,-147.339096,,,
729605562.923972,1.226076,0.53987,38.814403,-0.011047,0.017212,0.983917,0.026715,-0.040817,-0.006108,63.365067,18.521194,-147.339096,,,
729605562.927236,1.226076,0.53987,38.814403,-0.011047,0.017212,0.983917,0.026715,-0.040817,-0.006108,63.365067,18.521194,-147.339096,,,
729605562.93059,1.231385,0.527815,38.811451,-0.001007,0.022308,0.979797,0.016135,-0.035748,-0.014186,63.365067,18.521194,-147.339096,,,
729605562.933905,1.231946,0.518545,38.807221,-0.001007,0.022308,0.979797,0.016135,-0.035748,-0.014186,63.365067,18.521194,-147.339096,,,
729605562.937281,1.231946,0.518545,38.807221,-0.001007,0.022308,0.979797,0.016135,-0.035748,-0.014186,63.365067,18.521194,-147.339096,,,
729605562.940582,1.230811,0.510882,38.803125,0.001678,0.026657,0.978546,-0.005896,-0.023098,-0.01573,63.365067,18.521194,-147.339096,,,
729605562.94393,1.224528,0.506103,38.799534,0.001678,0.026657,0.978546,-0.005896,-0.023098,-0.01573,63.365067,18.521194,-147.339096,,,
729605562.947251,1.224528,0.506103,38.799534,0.001678,0.026657,0.978546,-0.005896,-0.023098,-0.01573,63.365067,18.521194,-147.339096,,,
729605562.950632,1.217414,0.502131,38.795804,-0.002762,0.025024,0.973831,-0.026389,-0.010877,-0.015903,63.365067,18.521194,-147.339096,,,
729605562.953918,1.206147,0.501158,38.791662,-0.002762,0.025024,0.973831,-0.026389,-0.010877,-0.015903,63.365067,18.521194,-147.339096,,,
729605562.957247,1.206147,0.501158,38.791662,-0.002762,0.025024,0.973831,-0.026389,-0.010877,-0.015903,63.365067,18.521194,-147.339096,,,
729605562.960581,1.195012,0.501101,38.787406,-0.003387,0.02359,0.974457,-0.038217,0.005164,-0.017528,63.470047,18.658279,-147.463577,,,
729605562.964008,1.182408,0.504526,38.783273,-0.003387,0.02359,0.974457,-0.038217,0.005164,-0.017528,63.470047,18.658279,-147.463577,,,
729605562.967252,1.182408,0.504526,38.783273,-0.003387,0.02359,0.974457,-0.038217,0.005164,-0.017528,63.470047,18.658279,-147.463577,,,
729605562.970582,1.171737,0.507725,38.779338,-0.009155,0.019653,0.983063,-0.03717,0.014335,-0.013578,63.470047,18.658279,-147.463577,,,
729605562.973911,1.171737,0.507725,38.779338,-0.009155,0.019653,0.983063,-0.03717,0.014335,-0.013578,63.470047,18.658279,-147.463577,,,
729605562.977302,1.16151,0.51215,38.775792,-0.009155,0.019653,0.983063,-0.03717,0.014335,-0.013578,63.470047,18.658279,-147.463577,,,
729605562.98064,1.154608,0.513022,38.772899,-0.013229,0.014389,0.990555,-0.017844,0.004742,-0.01164,63.470047,18.658279,-147.463577,,,
729605562.983947,1.148638,0.513862,38.770343,-0.013229,0.014389,0.990555,-0.017844,0.004742,-0.01164,63.470047,18.658279,-147.463577,,,
729605562.987256,1.148638,0.513862,38.770343,-0.013229,0.014389,0.990555,-0.017844,0.004742,-0.01164,63.470047,18.658279,-147.463577,,,
729605562.990574,1.145006,0.511562,38.768493,-0.01445,0.009659,0.987823,-0.010163,-0.004985,-0.007854,63.470047,18.658279,-147.463577,,,
729605562.993917,1.145006,0.511562,38.768493,-0.01445,0.009659,0.987823,-0.010163,-0.004985,-0.007854,63.470047,18.658279,-147.463577,,,
729605562.997264,1.142123,0.509374,38.766975,-0.01445,0.009659,0.987823,-0.010163,-0.004985,-0.007854,63.470047,18.658279,-147.463577,,,
729605563.000568,1.141381,0.505755,38.765856,-0.014862,0.01091,0.991959,-0.001207,-0.008985,-0.004019,63.470047,18.658279,-147.463577,,,
729605563.004004,1.141523,0.501413,38.764682,-0.014862,0.01091,0.991959,-0.001207,-0.008985,-0.004019,63.328949,18.730988,-147.346542,,,
729605563.007244,1.141523,0.501413,38.764682,-0.014862,0.01091,0.991959,-0.001207,-0.008985,-0.004019,63.328949,18.730988,-147.346542,,,
729605563.010581,1.142153,0.497272,38.762724,-0.005768,0.015671,0.995483,0.002078,-0.011214,-0.007978,63.328949,18.730988,-147.346542,,,
729605563.013903,1.142153,0.497272,38.762724,-0.005768,0.015671,0.995483,0.002078,-0.011214,-0.007978,63.328949,18.730988,-147.346542,,,
729605563.017306,1.142971,0.492495,38.760301,-0.005768,0.015671,0.995483,0.002078,-0.011214,-0.007978,63.328949,18.730988,-147.346542,,,
729605563.020574,1.142495,0.490522,38.757175,-0.001251,0.021118,0.993881,-0.001155,-0.002369,-0.013181,63.328949,18.730988,-147.346542,,,
729605563.023999,1.142495,0.489006,38.753084,-0.001251,0.021118,0.993881,-0.001155,-0.002369,-0.013181,63.328949,18.730988,-147.346542,,,
729605563.027228,1.142076,0.489006,38.753084,-0.001251,0.021118,0.993881,-0.001155,-0.002369,-0.013181,63.328949,18.730988,-147.346542,,,
729605563.03058,1.139948,0.490247,38.748021,-0.000458,0.02272,0.99559,-0.006323,0.008122,-0.017748,63.328949,18.730988,-147.346542,,,
729605563.033922,1.139948,0.490247,38.748021,-0.000458,0.02272,0.99559,-0.006323,0.008122,-0.017748,63.328949,18.730988,-147.346542,,,
729605563.037256,1.138188,0.49179,38.742229,-0.000458,0.02272,0.99559,-0.006323,0.008122,-0.017748,63.328949,18.730988,-147.346542,,,
729605563.040578,1.135034,0.495224,38.735462,0.00148,0.024918,0.992599,-0.011119,0.018349,-0.02703,63.328949,18.730988,-147.346542,,,
729605563.043905,1.135034,0.495224,38.735462,0.00148,0.024918,0.992599,-0.011119,0.018349,-0.02703,63.311661,18.773499,-147.343048,,,
729605563.047351,1.131361,0.499852,38.727771,0.00148,0.024918,0.992599,-0.011119,0.018349,-0.02703,63.311661,18.773499,-147.343048,,,
729605563.05057,1.127306,0.506665,38.719346,-0.001999,0.025177,0.992889,-0.009476,0.028627,-0.030629,63.311661,18.773499,-147.343048,,,
729605563.053974,1.127306,0.506665,38.719346,-0.001999,0.025177,0.992889,-0.009476,0.028627,-0.030629,63.311661,18.773499,-147.343048,,,
729605563.057265,1.123179,0.515192,38.710875,-0.001999,0.025177,0.992889,-0.009476,0.028627,-0.030629,63.311661,18.773499,-147.343048,,,
729605563.060577,1.119074,0.523701,38.702253,-0.002884,0.027573,0.990723,-0.013117,0.030977,-0.030104,63.311661,18.773499,-147.343048,,,
729605563.063918,1.119074,0.523701,38.702253,-0.002884,0.027573,0.990723,-0.013117,0.030977,-0.030104,63.311661,18.773499,-147.343048,,,
729605563.067317,1.113116,0.531593,38.693587,-0.002884,0.027573,0.990723,-0.013117,0.030977,-0.030104,63.311661,18.773499,-147.343048,,,
729605563.070572,1.107746,0.537112,38.685778,-0.00528,0.03067,0.985062,-0.019628,0.021547,-0.029051,63.311661,18.773499,-147.343048,,,
729605563.073923,1.107746,0.537112,38.685778,-0.00528,0.03067,0.985062,-0.019628,0.021547,-0.029051,63.311661,18.773499,-147.343048,,,
729605563.077259,1.100351,0.542863,38.678061,-0.00528,0.03067,0.985062,-0.019628,0.021547,-0.029051,63.311661,18.773499,-147.343048,,,
729605563.080582,1.092745,0.547943,38.669696,-0.007141,0.035751,0.983978,-0.027644,0.023072,-0.031755,63.311661,18.773499,-147.343048,,,
729605563.083911,1.092745,0.547943,38.669696,-0.007141,0.035751,0.983978,-0.027644,0.023072,-0.031755,63.37146,18.748947,-147.580383,,,
729605563.087265,1.082693,0.555088,38.660912,-0.007141,0.035751,0.983978,-0.027644,0.023072,-0.031755,63.37146,18.748947,-147.580383,,,
729605563.090579,1.071751,0.564067,38.652484,-0.007324,0.038956,0.990097,-0.037788,0.033001,-0.031841,63.37146,18.748947,-147.580383,,,
729605563.093971,1.071751,0.564067,38.652484,-0.007324,0.038956,0.990097,-0.037788,0.033001,-0.031841,63.37146,18.748947,-147.580383,,,
729605563.097237,1.059892,0.572887,38.645018,-0.007324,0.038956,0.990097,-0.037788,0.033001,-0.031841,63.37146,18.748947,-147.580383,,,
729605563.100584,1.047372,0.583043,38.639417,-0.015305,0.032867,0.993576,-0.046852,0.03906,-0.022314,63.37146,18.748947,-147.580383,,,
729605563.103915,1.047372,0.583043,38.639417,-0.015305,0.032867,0.993576,-0.046852,0.03906,-0.022314,63.37146,18.748947,-147.580383,,,
729605563.107299,1.034966,0.592162,38.636036,-0.015305,0.032867,0.993576,-0.046852,0.03906,-0.022314,63.37146,18.748947,-147.580383,,,
729605563.110573,1.022388,0.603528,38.634166,-0.021622,0.023697,1.001419,-0.042778,0.046059,-0.0057,63.37146,18.748947,-147.580383,,,
729605563.113923,1.022388,0.603528,38.634166,-0.021622,0.023697,1.001419,-0.042778,0.046059,-0.0057,63.37146,18.748947,-147.580383,,,
729605563.117236,1.01269,0.612328,38.632869,-0.021622,0.023697,1.001419,-0.042778,0.046059,-0.0057,63.37146,18.748947,-147.580383,,,
729605563.12058,1.004802,0.621442,38.631408,-0.018097,0.022659,1.006363,-0.023527,0.032664,-0.007292,63.37146,18.748947,-147.580383,,,
729605563.123907,1.004802,0.621442,38.631408,-0.018097,0.022659,1.006363,-0.023527,0.032664,-0.007292,63.583878,18.753525,-147.471039,,,
729605563.127245,1.001218,0.625907,38.629667,-0.018097,0.022659,1.006363,-0.023527,0.032664,-0.007292,63.583878,18.753525,-147.471039,,,
729605563.130602,0.999105,0.630548,38.627625,-0.019379,0.023468,1.011124,-0.004253,0.021768,-0.009007,63.583878,18.753525,-147.471039,,,
729605563.133962,0.999105,0.630548,38.627625,-0.019379,0.023468,1.011124,-0.004253,0.021768,-0.009007,63.583878,18.753525,-147.471039,,,
729605563.137239,1.000817,0.632319,38.625854,-0.019379,0.023468,1.011124,-0.004253,0.021768,-0.009007,63.583878,18.753525,-147.471039,,,
729605563.140579,1.00385,0.633733,38.625256,-0.024536,0.019989,1.016388,0.014251,0.007741,-0.002281,63.583878,18.753525,-147.471039,,,
729605563.143914,1.00385,0.633733,38.625256,-0.024536,0.019989,1.016388,0.014251,0.007741,-0.002281,63.583878,18.753525,-147.471039,,,
729605563.147325,1.011567,0.631891,38.626639,-0.024536,0.019989,1.016388,0.014251,0.007741,-0.002281,63.583878,18.753525,-147.471039,,,
729605563.150571,1.019286,0.6298,38.629705,-0.026199,0.013916,1.018066,0.02916,-0.006977,0.009692,63.583878,18.753525,-147.471039,,,
729605563.153922,1.019286,0.6298,38.629705,-0.026199,0.013916,1.018066,0.02916,-0.006977,0.009692,63.583878,18.753525,-147.471039,,,
729605563.157248,1.031534,0.625465,38.633643,-0.026199,0.013916,1.018066,0.02916,-0.006977,0.009692,63.583878,18.753525,-147.471039,,,
729605563.1606,1.042692,0.621781,38.638275,-0.024017,0.015091,1.018677,0.040803,-0.008271,0.015683,63.583878,18.753525,-147.471039,,,
729605563.163903,1.042692,0.621781,38.638275,-0.024017,0.015091,1.018677,0.040803,-0.008271,0.015683,63.583878,18.753525,-147.471039,,,
729605563.16724,1.059975,0.618228,38.643612,-0.024017,0.015091,1.018677,0.040803,-0.008271,0.015683,63.424637,18.870438,-147.662064,,,
729605563.170573,1.075879,0.617509,38.649355,-0.021667,0.017349,1.021744,0.058673,0.003536,0.017723,63.424637,18.870438,-147.662064,,,
729605563.173916,1.075879,0.617509,38.649355,-0.021667,0.017349,1.021744,0.058673,0.003536,0.017723,63.424637,18.870438,-147.662064,,,
729605563.177243,1.096505,0.618928,38.655223,-0.021667,0.017349,1.021744,0.058673,0.003536,0.017723,63.424637,18.870438,-147.662064,,,
729605563.18058,1.114559,0.623184,38.661262,-0.018066,0.019806,1.021362,0.065211,0.020339,0.022076,63.424637,18.870438,-147.662064,,,
729605563.183957,1.114559,0.623184,38.661262,-0.018066,0.019806,1.021362,0.065211,0.020339,0.022076,63.424637,18.870438,-147.662064,,,
729605563.18724,1.134689,0.630447,38.667319,-0.018066,0.019806,1.021362,0.065211,0.020339,0.022076,63.424637,18.870438,-147.662064,,,
729605563.190569,1.152674,0.636836,38.672862,-0.012909,0.024323,1.008865,0.06413,0.026171,0.01939,63.424637,18.870438,-147.662064,,,
729605563.193935,1.152674,0.636836,38.672862,-0.012909,0.024323,1.008865,0.06413,0.026171,0.01939,63.424637,18.870438,-147.662064,,,
729605563.19731,1.170244,0.645953,38.67799,-0.012909,0.024323,1.008865,0.06413,0.026171,0.01939,63.424637,18.870438,-147.662064,,,
729605563.200572,1.186715,0.654896,38.682835,-0.009781,0.027496,1.000046,0.056513,0.036034,0.013304,63.424637,18.870438,-147.662064,,,
729605563.203901,1.186715,0.654896,38.682835,-0.009781,0.027496,1.000046,0.056513,0.036034,0.013304,63.424637,18.870438,-147.662064,,,
729605563.207256,1.202892,0.666551,38.687293,-0.009781,0.027496,1.000046,0.056513,0.036034,0.013304,63.364761,18.62471,-147.644287,,,
729605563.210572,1.217747,0.677898,38.691717,-0.010117,0.028946,0.999207,0.052417,0.043231,0.013272,63.364761,18.62471,-147.644287,,,
729605563.21392,1.217747,0.677898,38.691717,-0.010117,0.028946,0.999207,0.052417,0.043231,0.013272,63.364761,18.62471,-147.644287,,,
729605563.217244,1.232091,0.690641,38.696688,-0.010117,0.028946,0.999207,0.052417,0.043231,0.013272,63.364761,18.62471,-147.644287,,,
729605563.220566,1.245483,0.700274,38.703059,-0.014542,0.025589,0.992874,0.047484,0.034687,0.022264,63.364761,18.62471,-147.644287,,,
729605563.223997,1.245483,0.700274,38.703059,-0.014542,0.025589,0.992874,0.047484,0.034687,0.022264,63.364761,18.62471,-147.644287,,,
729605563.22725,1.25875,0.710244,38.710581,-0.014542,0.025589,0.992874,0.047484,0.034687,0.022264,63.364761,18.62471,-147.644287,,,
729605563.230581,1.274722,0.715146,38.718394,-0.015656,0.022919,0.989777,0.056754,0.020017,0.025529,63.364761,18.62471,-147.644287,,,
729605563.233919,1.274722,0.715146,38.718394,-0.015656,0.022919,0.989777,0.056754,0.020017,0.025529,63.364761,18.62471,-147.644287,,,
729605563.237308,1.289984,0.719957,38.725754,-0.015656,0.022919,0.989777,0.056754,0.020017,0.025529,63.364761,18.62471,-147.644287,,,
729605563.24057,1.306693,0.720723,38.732559,-0.012207,0.026459,0.988861,0.056736,0.006772,0.023783,63.364761,18.62471,-147.644287,,,
729605563.243919,1.306693,0.720723,38.732559,-0.012207,0.026459,0.988861,0.056736,0.006772,0.023783,63.364761,18.62471,-147.644287,,,
729605563.247235,1.320785,0.721128,38.738278,-0.012207,0.026459,0.988861,0.056736,0.006772,0.023783,63.604202,18.693497,-147.347656,,,
729605563.250571,1.333268,0.718317,38.742648,-0.010605,0.0289,0.979218,0.041873,-0.007701,0.012687,63.604202,18.693497,-147.347656,,,
729605563.253912,1.333268,0.718317,38.742648,-0.010605,0.0289,0.979218,0.041873,-0.007701,0.012687,63.604202,18.693497,-147.347656,,,
729605563.257246,1.341629,0.716572,38.745468,-0.010605,0.0289,0.979218,0.041873,-0.007701,0.012687,63.604202,18.693497,-147.347656,,,
729605563.260567,1.348153,0.713654,38.747196,-0.008804,0.029938,0.976517,0.022998,-0.00731,0.005411,63.604202,18.693497,-147.347656,,,
729605563.264009,1.348153,0.713654,38.747196,-0.008804,0.029938,0.976517,0.022998,-0.00731,0.005411,63.604202,18.693497,-147.347656,,,
729605563.267264,1.351997,0.712288,38.748359,-0.008804,0.029938,0.976517,0.022998,-0.00731,0.005411,63.604202,18.693497,-147.347656,,,
729605563.270575,1.354999,0.710226,38.74873,-0.006271,0.027084,0.978577,0.010328,-0.003883,0.001296,63.604202,18.693497,-147.347656,,,
729605563.273932,1.354999,0.710226,38.74873,-0.006271,0.027084,0.978577,0.010328,-0.003883,0.001296,63.604202,18.693497,-147.347656,,,
729605563.277273,1.357691,0.707872,38.749198,-0.006271,0.027084,0.978577,0.010328,-0.003883,0.001296,63.604202,18.693497,-147.347656,,,
729605563.280575,1.360214,0.705739,38.750648,-0.007538,0.023849,0.981186,0.011639,-0.004394,0.004683,63.604202,18.693497,-147.347656,,,
729605563.283933,1.360214,0.705739,38.750648,-0.007538,0.023849,0.981186,0.011639,-0.004394,0.004683,63.604202,18.693497,-147.347656,,,
729605563.287317,1.364241,0.703689,38.753021,-0.007538,0.023849,0.981186,0.011639,-0.004394,0.004683,63.606552,18.675766,-148.074326,,,
729605563.29057,1.368276,0.702963,38.755827,-0.010605,0.021835,0.990097,0.01495,0.001086,0.007317,63.606552,18.675766,-148.074326,,,
729605563.293918,1.368276,0.702963,38.755827,-0.010605,0.021835,0.990097,0.01495,0.001086,0.007317,63.606552,18.675766,-148.074326,,,
729605563.297244,1.373405,0.702593,38.758525,-0.010605,0.021835,0.990097,0.01495,0.001086,0.007317,63.606552,18.675766,-148.074326,,,
729605563.30057,1.377739,0.702205,38.761882,-0.010239,0.019516,0.989822,0.015933,0.003409,0.013228,63.606552,18.675766,-148.074326,,,
729605563.303908,1.377739,0.702205,38.761882,-0.010239,0.019516,0.989822,0.015933,0.003409,0.013228,63.606552,18.675766,-148.074326,,,
729605563.30726,1.381659,0.703011,38.765781,-0.010239,0.019516,0.989822,0.015933,0.003409,0.013228,63.606552,18.675766,-148.074326,,,
729605563.310565,1.38446,0.703789,38.769565,-0.011322,0.020874,0.987564,0.011162,0.008509,0.013192,63.606552,18.675766,-148.074326,,,
729605563.313986,1.38446,0.703789,38.769565,-0.011322,0.020874,0.987564,0.011162,0.008509,0.013192,63.606552,18.675766,-148.074326,,,
729605563.317246,1.386137,0.705253,38.773642,-0.011322,0.020874,0.987564,0.011162,0.008509,0.013192,63.606552,18.675766,-148.074326,,,
729605563.32058,1.386479,0.706202,38.777425,-0.00943,0.025497,0.988434,0.001901,0.004227,0.010531,63.606552,18.675766,-148.074326,,,
729605563.323933,1.386479,0.706202,38.777425,-0.00943,0.025497,0.988434,0.001901,0.004227,0.010531,63.606552,18.675766,-148.074326,,,
729605563.327302,1.385513,0.706897,38.781048,-0.00943,0.025497,0.988434,0.001901,0.004227,0.010531,63.606552,18.675766,-148.074326,,,
729605563.330576,1.382218,0.707771,38.784803,-0.009567,0.023193,0.984848,-0.011509,0.009015,0.00961,63.348358,18.688889,-147.446686,,,
729605563.333922,1.382218,0.707771,38.784803,-0.009567,0.023193,0.984848,-0.011509,0.009015,0.00961,63.348358,18.688889,-147.446686,,,
729605563.337269,1.379268,0.709453,38.787985,-0.009567,0.023193,0.984848,-0.011509,0.009015,0.00961,63.348358,18.688889,-147.446686,,,
729605563.340577,1.375052,0.712557,38.790743,-0.012482,0.020157,0.991745,-0.012626,0.015209,0.005933,63.348358,18.688889,-147.446686,,,
729605563.343921,1.375052,0.712557,38.790743,-0.012482,0.020157,0.991745,-0.012626,0.015209,0.005933,63.348358,18.688889,-147.446686,,,
729605563.3473,1.372572,0.715347,38.793419,-0.012482,0.020157,0.991745,-0.012626,0.015209,0.005933,63.348358,18.688889,-147.446686,,,
729605563.350668,1.36994,0.719575,38.796128,-0.009277,0.017776,1.000977,-0.007823,0.01819,0.009772,63.348358,18.688889,-147.446686,,,
729605563.35393,1.36994,0.719575,38.796128,-0.009277,0.017776,1.000977,-0.007823,0.01819,0.009772,63.348358,18.688889,-147.446686,,,
729605563.357256,1.368696,0.723308,38.799371,-0.009277,0.017776,1.000977,-0.007823,0.01819,0.009772,63.348358,18.688889,-147.446686,,,
729605563.360581,1.368111,0.728528,38.803127,-0.009888,0.019714,1.001434,-0.002878,0.020654,0.012786,63.348358,18.688889,-147.446686,,,
729605563.363968,1.368111,0.728528,38.803127,-0.009888,0.019714,1.001434,-0.002878,0.020654,0.012786,63.348358,18.688889,-147.446686,,,
729605563.367251,1.367335,0.733522,38.806994,-0.009888,0.019714,1.001434,-0.002878,0.020654,0.012786,63.348358,18.688889,-147.446686,,,
729605563.370581,1.365833,0.739908,38.810633,-0.009232,0.020828,0.999298,-0.007879,0.025489,0.012622,63.595505,18.567902,-147.70723,,,
729605563.373903,1.365833,0.739908,38.810633,-0.009232,0.020828,0.999298,-0.007879,0.025489,0.012622,63.595505,18.567902,-147.70723,,,
729605563.377304,1.363648,0.746139,38.813382,-0.009232,0.020828,0.999298,-0.007879,0.025489,0.012622,63.595505,18.567902,-147.70723,,,
729605563.38057,1.361974,0.751738,38.814987,-0.008453,0.02066,0.997604,-0.004801,0.022288,0.002715,63.595505,18.567902,-147.70723,,,
729605563.38392,1.361974,0.751738,38.814987,-0.008453,0.02066,0.997604,-0.004801,0.022288,0.002715,63.595505,18.567902,-147.70723,,,
729605563.387256,1.359394,0.754901,38.81646,-0.008453,0.02066,0.997604,-0.004801,0.022288,0.002715,63.595505,18.567902,-147.70723,,,
729605563.390579,1.357627,0.756644,38.817768,-0.012558,0.02211,0.996063,-0.005997,0.005982,0.001492,63.595505,18.567902,-147.70723,,,
729605563.393919,1.357627,0.756644,38.817768,-0.012558,0.02211,0.996063,-0.005997,0.005982,0.001492,63.595505,18.567902,-147.70723,,,
729605563.397256,1.355464,0.755873,38.818824,-0.012558,0.02211,0.996063,-0.005997,0.005982,0.001492,63.595505,18.567902,-147.70723,,,
729605563.400578,1.35336,0.753779,38.820112,-0.015747,0.020233,0.994843,-0.007601,-0.005219,0.003756,63.595505,18.567902,-147.70723,,,
729605563.403912,1.35336,0.753779,38.820112,-0.015747,0.020233,0.994843,-0.007601,-0.005219,0.003756,63.595505,18.567902,-147.70723,,,
729605563.407289,1.350496,0.749955,38.82117,-0.015747,0.020233,0.994843,-0.007601,-0.005219,0.003756,63.595505,18.567902,-147.70723,,,
729605563.410575,1.345774,0.746481,38.821923,-0.015579,0.02179,1.000183,-0.016682,-0.008073,0.000349,63.626068,18.607666,-147.629181,,,
729605563.413916,1.345774,0.746481,38.821923,-0.015579,0.02179,1.000183,-0.016682,-0.008073,0.000349,63.626068,18.607666,-147.629181,,,
729605563.417305,1.340721,0.743863,38.822643,-0.015579,0.02179,1.000183,-0.016682,-0.008073,0.000349,63.626068,18.607666,-147.629181,,,
729605563.420572,1.335508,0.743144,38.823562,-0.014267,0.020523,1.004929,-0.018472,0.002043,0.001072,63.626068,18.607666,-147.629181,,,
729605563.42392,1.335508,0.743144,38.823562,-0.014267,0.020523,1.004929,-0.018472,0.002043,0.001072,63.626068,18.607666,-147.629181,,,
729605563.427255,1.329663,0.744214,38.825378,-0.014267,0.020523,1.004929,-0.018472,0.002043,0.001072,63.626068,18.607666,-147.629181,,,
729605563.430576,1.325936,0.747885,38.828396,-0.015839,0.018509,1.010025,-0.010498,0.019247,0.010272,63.626068,18.607666,-147.629181,,,
729605563.433934,1.325936,0.747885,38.828396,-0.015839,0.018509,1.010025,-0.010498,0.019247,0.010272,63.626068,18.607666,-147.629181,,,
729605563.43725,1.322616,0.753176,38.832348,-0.015839,0.018509,1.010025,-0.010498,0.019247,0.010272,63.626068,18.607666,-147.629181,,,
729605563.440577,1.321721,0.760802,38.836831,-0.011459,0.018753,1.015335,-0.000553,0.031094,0.015055,63.626068,18.607666,-147.629181,,,
729605563.443976,1.321721,0.760802,38.836831,-0.011459,0.018753,1.015335,-0.000553,0.031094,0.015055,63.626068,18.607666,-147.629181,,,
729605563.447262,1.32164,0.767563,38.84191,-0.011459,0.018753,1.015335,-0.000553,0.031094,0.015055,63.626068,18.607666,-147.629181,,,
729605563.450575,1.322687,0.774602,38.847284,-0.01149,0.022034,1.005875,0.00427,0.027027,0.015773,63.626068,18.607666,-147.629181,,,
729605563.453932,1.322687,0.774602,38.847284,-0.01149,0.022034,1.005875,0.00427,0.027027,0.015773,63.763474,18.563171,-147.329926,,,
729605563.457338,1.323413,0.780506,38.852552,-0.01149,0.022034,1.005875,0.00427,0.027027,0.015773,63.763474,18.563171,-147.329926,,,
729605563.460563,1.323902,0.78607,38.85788,-0.016953,0.020309,1.003113,0.000282,0.022632,0.015696,63.763474,18.563171,-147.329926,,,
729605563.463924,1.323902,0.78607,38.85788,-0.016953,0.020309,1.003113,0.000282,0.022632,0.015696,63.763474,18.563171,-147.329926,,,
729605563.467277,1.322774,0.789074,38.863225,-0.016953,0.020309,1.003113,0.000282,0.022632,0.015696,63.763474,18.563171,-147.329926,,,
729605563.470567,1.320581,0.790707,38.868228,-0.016632,0.021545,0.998138,-0.011095,0.008387,0.014643,63.763474,18.563171,-147.329926,,,
729605563.473901,1.320581,0.790707,38.868228,-0.016632,0.021545,0.998138,-0.011095,0.008387,0.014643,63.763474,18.563171,-147.329926,,,
729605563.47724,1.317216,0.790631,38.87292,-0.016632,0.021545,0.998138,-0.011095,0.008387,0.014643,63.763474,18.563171,-147.329926,,,
729605563.480569,1.313715,0.788818,38.877464,-0.014877,0.021606,0.997833,-0.013392,-0.005084,0.014577,63.763474,18.563171,-147.329926,,,
729605563.483941,1.313715,0.788818,38.877464,-0.014877,0.021606,0.997833,-0.013392,-0.005084,0.014577,63.763474,18.563171,-147.329926,,,
729605563.487257,1.309916,0.786131,38.881467,-0.014877,0.021606,0.997833,-0.013392,-0.005084,0.014577,63.763474,18.563171,-147.329926,,,
729605563.490571,1.306932,0.782272,38.884311,-0.00975,0.023727,1.006119,-0.008833,-0.012883,0.006116,63.763474,18.563171,-147.329926,,,
729605563.493985,1.306932,0.782272,38.884311,-0.00975,0.023727,1.006119,-0.008833,-0.012883,0.006116,63.586105,18.624115,-147.444977,,,
729605563.497245,1.304169,0.778067,38.885799,-0.00975,0.023727,1.006119,-0.008833,-0.012883,0.006116,63.586105,18.624115,-147.444977,,,
729605563.500642,1.302016,0.77326,38.886493,-0.006729,0.027847,1.001465,-0.007677,-0.013763,-0.00096,63.586105,18.624115,-147.444977,,,
729605563.503903,1.302016,0.77326,38.886493,-0.006729,0.027847,1.001465,-0.007677,-0.013763,-0.00096,63.586105,18.624115,-147.444977,,,
729605563.507297,1.299044,0.768676,38.88686,-0.006729,0.027847,1.001465,-0.007677,-0.013763,-0.00096,63.586105,18.624115,-147.444977,,,
729605563.510568,1.297178,0.764427,38.887367,-0.008499,0.025314,0.999771,-0.004347,-0.009462,0.000811,63.586105,18.624115,-147.444977,,,
729605563.513899,1.297178,0.764427,38.887367,-0.008499,0.025314,0.999771,-0.004347,-0.009462,0.000811,63.586105,18.624115,-147.444977,,,
729605563.517253,1.295881,0.761898,38.888598,-0.008499,0.025314,0.999771,-0.004347,-0.009462,0.000811,63.586105,18.624115,-147.444977,,,
729605563.520574,1.296949,0.760352,38.890838,-0.010239,0.019882,1.004791,0.006373,0.000272,0.007669,63.586105,18.624115,-147.444977,,,
729605563.52376,1.296949,0.760352,38.890838,-0.010239,0.019882,1.004791,0.006373,0.000272,0.007669,63.586105,18.624115,-147.444977,,,
729605563.527278,1.298492,0.759036,38.893806,-0.010239,0.019882,1.004791,0.006373,0.000272,0.007669,63.586105,18.624115,-147.444977,,,
729605563.530563,1.300789,0.759431,38.897687,-0.011368,0.017868,1.001419,0.007257,0.005377,0.0141,63.586105,18.624115,-147.444977,,,
729605563.533901,1.300789,0.759431,38.897687,-0.011368,0.017868,1.001419,0.007257,0.005377,0.0141,63.662369,18.551865,-147.851456,,,
729605563.537253,1.302966,0.761769,38.902748,-0.011368,0.017868,1.001419,0.007257,0.005377,0.0141,63.662369,18.551865,-147.851456,,,
729605563.540574,1.305166,0.766033,38.908174,-0.012955,0.022003,0.997849,0.008282,0.01982,0.019033,63.662369,18.551865,-147.851456,,,
