Time (sec),Pitch (deg),Roll (deg),Yaw(deg),X-Acceleration (g),Y-Acceleration (g),Z-Acceleration (g),Pitch Rate (deg/sec),Roll Rate (deg/sec),Yaw Rate (deg/sec),Magnetic Field in X direction (uT),Magnetic Field in Y direction (uT),Magnetic Field in Z Direction (uT),Latitude (deg),Longitude (deg),Altitude (m)
729606806.932958,2.288509,0.603617,57.533902,-0.014084,0.037933,0.994522,0.005283,0.011387,-0.009034,62.189651,21.360031,-147.43457,,,
729606806.936367,2.289624,0.601725,57.532006,-0.014084,0.037933,0.994522,0.00405,-0.001062,-0.007029,62.189651,21.360031,-147.43457,,,
729606806.939375,2.289624,0.601725,57.532006,-0.014084,0.037933,0.994522,0.00405,-0.001062,-0.007029,62.189651,21.360031,-147.43457,,,
729606806.943003,2.290464,0.599435,57.530616,-0.02063,0.035141,0.992188,0.00405,-0.001062,-0.007029,62.189651,21.360031,-147.43457,,,
729606806.946279,2.290464,0.596926,57.530315,-0.02063,0.035141,0.992188,0.000548,-0.007275,-0.00196,62.120773,21.455032,-147.265045,,,
729606806.949628,2.292223,0.596926,57.530315,-0.02063,0.035141,0.992188,0.000548,-0.007275,-0.00196,62.120773,21.455032,-147.265045,,,
729606806.953038,2.293806,0.591607,57.531639,-0.022247,0.03476,0.998001,0.000548,-0.007275,-0.00196,62.120773,21.455032,-147.265045,,,
729606806.95608,2.293806,0.591607,57.531639,-0.022247,0.03476,0.998001,0.007165,-0.022566,0.009301,62.120773,21.455032,-147.265045,,,
729606806.959674,2.295836,0.587312,57.53422,-0.022247,0.03476,0.998001,0.007165,-0.022566,0.009301,62.120773,21.455032,-147.265045,,,
729606806.962812,2.297568,0.579846,57.538368,-0.022018,0.031891,0.995941,0.007165,-0.022566,0.009301,62.120773,21.455032,-147.265045,,,
729606806.966302,2.297568,0.579846,57.538368,-0.022018,0.031891,0.995941,0.007678,-0.017164,0.018934,62.120773,21.455032,-147.265045,,,
729606806.969695,2.298544,0.578243,57.543301,-0.022018,0.031891,0.995941,0.007678,-0.017164,0.018934,62.120773,21.455032,-147.265045,,,
729606806.972735,2.300506,0.576742,57.54925,-0.017471,0.032791,1.002518,0.007678,-0.017164,0.018934,62.120773,21.455032,-147.265045,,,
729606806.976314,2.300506,0.576742,57.54925,-0.017471,0.032791,1.002518,0.007759,0.013175,0.020998,62.120773,21.455032,-147.265045,,,
729606806.979624,2.300741,0.582932,57.555996,-0.017471,0.032791,1.002518,0.007759,0.013175,0.020998,62.120773,21.455032,-147.265045,,,
729606806.982953,2.301193,0.588521,57.563054,-0.009552,0.036163,1.004547,0.007759,0.013175,0.020998,62.120773,21.455032,-147.265045,,,
729606806.986337,2.301193,0.588521,57.563054,-0.009552,0.036163,1.004547,0.002529,0.030621,0.029074,62.120773,21.455032,-147.265045,,,
729606806.989393,2.300896,0.598252,57.570648,-0.009552,0.036163,1.004547,0.002529,0.030621,0.029074,61.980057,21.484238,-147.272842,,,
729606806.993007,2.300002,0.608786,57.579221,-0.00885,0.036011,0.994415,0.002529,0.030621,0.029074,61.980057,21.484238,-147.272842,,,
729606806.996356,2.300002,0.608786,57.579221,-0.00885,0.036011,0.994415,0.002529,0.030621,0.029069,61.980057,21.484238,-147.272842,,,
729606806.9997,2.298438,0.619983,57.588314,-0.00885,0.036011,0.994415,-0.00687,0.046157,0.029069,61.980057,21.484238,-147.272842,,,
729606807.003012,2.294645,0.630864,57.597956,-0.009079,0.035522,0.989441,-0.00687,0.046157,0.029069,61.980057,21.484238,-147.272842,,,
729606807.006114,2.294645,0.630864,57.597956,-0.009079,0.035522,0.989441,-0.00687,0.046157,0.029069,61.980057,21.484238,-147.272842,,,
729606807.009661,2.290173,0.640654,57.607499,-0.009079,0.035522,0.989441,-0.01415,0.037938,0.034011,61.980057,21.484238,-147.272842,,,
729606807.01294,2.285678,0.649495,57.616641,-0.014282,0.039093,0.98259,-0.01415,0.037938,0.034011,61.980057,21.484238,-147.272842,,,
729606807.016291,2.285678,0.649495,57.616641,-0.014282,0.039093,0.98259,-0.01415,0.037938,0.034011,61.980057,21.484238,-147.272842,,,
729606807.019699,2.280045,0.659118,57.625705,-0.014282,0.039093,0.98259,-0.017093,0.029497,0.031031,61.980057,21.484238,-147.272842,,,
729606807.022736,2.2746,0.664352,57.635035,-0.016647,0.041702,0.980225,-0.017093,0.029497,0.031031,61.980057,21.484238,-147.272842,,,
729606807.026358,2.2746,0.664352,57.635035,-0.016647,0.041702,0.980225,-0.019973,0.015686,0.029524,61.980057,21.484238,-147.272842,,,
729606807.029646,2.267537,0.67208,57.644165,-0.016647,0.041702,0.980225,-0.019973,0.015686,0.029524,62.104538,21.622299,-147.09848,,,
729606807.032949,2.261013,0.674768,57.653506,-0.01503,0.046677,0.976364,-0.019973,0.015686,0.029524,62.104538,21.622299,-147.09848,,,
729606807.036355,2.261013,0.674768,57.653506,-0.01503,0.046677,0.976364,-0.019973,0.015686,0.029524,62.104538,21.622299,-147.09848,,,
729606807.039389,2.252481,0.682932,57.662715,-0.01503,0.046677,0.976364,-0.026769,0.016925,0.030337,62.104538,21.622299,-147.09848,,,
729606807.042993,2.24409,0.688565,57.672655,-0.017776,0.049347,0.983521,-0.026769,0.016925,0.030337,62.104538,21.622299,-147.09848,,,
729606807.046324,2.24409,0.688565,57.672655,-0.017776,0.049347,0.983521,-0.026769,0.016925,0.030337,62.104538,21.622299,-147.09848,,,
729606807.049692,2.23295,0.699015,57.684029,-0.017776,0.049347,0.983521,-0.033255,0.02759,0.036486,62.104538,21.622299,-147.09848,,,
729606807.053013,2.222211,0.70528,57.697459,-0.023148,0.045456,0.982376,-0.033255,0.02759,0.036486,62.104538,21.622299,-147.09848,,,
729606807.056048,2.222211,0.70528,57.697459,-0.023148,0.045456,0.982376,-0.033255,0.02759,0.036486,62.104538,21.622299,-147.09848,,,
729606807.05967,2.209012,0.711913,57.712778,-0.023148,0.045456,0.982376,-0.042645,0.023797,0.050976,62.104538,21.622299,-147.09848,,,
729606807.062952,2.195086,0.717248,57.729283,-0.026581,0.043167,0.977585,-0.042645,0.023797,0.050976,62.104538,21.622299,-147.09848,,,
729606807.0663,2.195086,0.717248,57.729283,-0.026581,0.043167,0.977585,-0.042645,0.023797,0.050976,62.104538,21.622299,-147.09848,,,
729606807.069697,2.178971,0.721002,57.746025,-0.026581,0.043167,0.977585,-0.054583,0.02481,0.056533,62.144821,21.731888,-147.230865,,,
729606807.072721,2.162152,0.725868,57.76194,-0.017319,0.047119,0.984131,-0.054583,0.02481,0.056533,62.144821,21.731888,-147.230865,,,
729606807.076368,2.162152,0.725868,57.76194,-0.017319,0.047119,0.984131,-0.054583,0.02481,0.056533,62.144821,21.731888,-147.230865,,,
729606807.079612,2.143617,0.728017,57.776703,-0.017319,0.047119,0.984131,-0.062276,0.017197,0.04944,62.144821,21.731888,-147.230865,,,
729606807.082952,2.12509,0.731117,57.790697,-0.012802,0.051239,0.986893,-0.062276,0.017197,0.04944,62.144821,21.731888,-147.230865,,,
729606807.086237,2.12509,0.731117,57.790697,-0.012802,0.051239,0.986893,-0.062276,0.017197,0.04944,62.144821,21.731888,-147.230865,,,
729606807.089369,2.1066,0.733838,57.805095,-0.012802,0.051239,0.986893,-0.067035,0.016012,0.048237,62.144821,21.731888,-147.230865,,,
729606807.092991,2.087249,0.737235,57.821077,-0.020477,0.042618,0.998978,-0.067035,0.016012,0.048237,62.144821,21.731888,-147.230865,,,
729606807.096434,2.087249,0.737235,57.821077,-0.020477,0.042618,0.998978,-0.067035,0.016012,0.048237,62.144821,21.731888,-147.230865,,,
729606807.09962,2.069154,0.740679,57.838868,-0.020477,0.042618,0.998978,-0.067517,0.012236,0.060724,62.144821,21.731888,-147.230865,,,
729606807.103041,2.051118,0.742578,57.858009,-0.021637,0.032761,1.00412,-0.067517,0.012236,0.060724,62.144821,21.731888,-147.230865,,,
729606807.106066,2.051118,0.742578,57.858009,-0.021637,0.032761,1.00412,-0.067517,0.012236,0.060724,62.144821,21.731888,-147.230865,,,
729606807.109656,2.037462,0.745873,57.877796,-0.021637,0.032761,1.00412,-0.053845,0.010409,0.068096,62.196182,21.865021,-147.055695,,,
729606807.112946,2.024409,0.748167,57.897698,-0.012512,0.029449,1.013336,-0.053845,0.010409,0.068096,62.196182,21.865021,-147.055695,,,
729606807.116322,2.024409,0.748167,57.897698,-0.012512,0.029449,1.013336,-0.053845,0.010409,0.068096,62.196182,21.865021,-147.055695,,,
729606807.119711,2.016478,0.752707,57.917292,-0.012512,0.029449,1.013336,-0.037407,0.017116,0.0663,62.196182,21.865021,-147.055695,,,
729606807.122709,2.008341,0.758178,57.93715,-0.002594,0.031158,1.021667,-0.037407,0.017116,0.0663,62.196182,21.865021,-147.055695,,,
729606807.126372,2.008341,0.758178,57.93715,-0.002594,0.031158,1.021667,-0.037407,0.017116,0.0663,62.196182,21.865021,-147.055695,,,
729606807.12961,2.005811,0.768929,57.957153,-0.002594,0.031158,1.021667,-0.020716,0.033694,0.067002,62.196182,21.865021,-147.055695,,,
729606807.133033,2.002303,0.778702,57.978096,0.001938,0.02919,1.025833,-0.020716,0.033694,0.067002,62.196182,21.865021,-147.055695,,,
729606807.136309,2.002303,0.778702,57.978096,0.001938,0.02919,1.025833,-0.020716,0.033694,0.067002,62.196182,21.865021,-147.055695,,,
729606807.139346,2.003379,0.794569,57.99978,0.001938,0.02919,1.025833,-0.00407,0.044974,0.074231,62.196182,21.865021,-147.055695,,,
729606807.14303,2.004086,0.807277,58.021504,0.008804,0.026062,1.021088,-0.00407,0.044974,0.074231,62.196182,21.865021,-147.055695,,,
729606807.146445,2.004086,0.807277,58.021504,0.008804,0.026062,1.021088,-0.00407,0.044974,0.074231,62.196182,21.865021,-147.055695,,,
729606807.149634,2.009333,0.826462,58.04188,0.008804,0.026062,1.021088,0.01013,0.056121,0.069652,62.196182,21.865021,-147.055695,,,
729606807.153047,2.014706,0.84244,58.060442,0.021484,0.030701,1.023727,0.01013,0.056121,0.069652,62.273834,21.945389,-147.386169,,,
729606807.156073,2.014706,0.84244,58.060442,0.021484,0.030701,1.023727,0.01013,0.056121,0.069652,62.273834,21.945389,-147.386169,,,
729606807.159716,2.025071,0.859145,58.07584,0.021484,0.030701,1.023727,0.024815,0.06217,0.052641,62.273834,21.945389,-147.386169,,,
729606807.162945,2.033934,0.877464,58.087077,0.033081,0.041061,1.014664,0.024815,0.06217,0.052641,62.273834,21.945389,-147.386169,,,
729606807.1663,2.033934,0.877464,58.087077,0.033081,0.041061,1.014664,0.024815,0.06217,0.052641,62.273834,21.945389,-147.386169,,,
729606807.169611,2.046936,0.898265,58.094612,0.033081,0.041061,1.014664,0.033071,0.075164,0.024378,62.273834,21.945389,-147.386169,,,
729606807.172713,2.057131,0.921106,58.098834,0.029297,0.048019,1.008377,0.033071,0.075164,0.024378,62.273834,21.945389,-147.386169,,,
729606807.176319,2.057131,0.921106,58.098834,0.029297,0.048019,1.008377,0.033071,0.075164,0.024378,62.273834,21.945389,-147.386169,,,
729606807.179616,2.067309,0.947753,58.101399,0.029297,0.048019,1.008377,0.034981,0.08512,0.00865,62.273834,21.945389,-147.386169,,,
729606807.18295,2.075296,0.97175,58.103706,0.010376,0.043411,0.995178,0.034981,0.08512,0.00865,62.273834,21.945389,-147.386169,,,
729606807.186356,2.075296,0.97175,58.103706,0.010376,0.043411,0.995178,0.034981,0.08512,0.00865,62.273834,21.945389,-147.386169,,,
729606807.189646,2.078973,0.994513,58.106148,0.010376,0.043411,0.995178,0.017701,0.078874,0.007706,62.273834,21.945389,-147.386169,,,
729606807.19295,2.080682,1.012296,58.109272,-0.007568,0.035126,0.981262,0.017701,0.078874,0.007706,62.488708,21.735977,-147.029251,,,
729606807.196284,2.080682,1.012296,58.109272,-0.007568,0.035126,0.981262,0.017701,0.078874,0.007706,62.488708,21.735977,-147.029251,,,
729606807.199695,2.077269,1.020902,58.111798,-0.007568,0.035126,0.981262,-0.004227,0.049113,0.007536,62.488708,21.735977,-147.029251,,,
729606807.203014,2.07312,1.028277,58.111831,-0.01297,0.033524,0.974167,-0.004227,0.049113,0.007536,62.488708,21.735977,-147.029251,,,
729606807.206031,2.07312,1.028277,58.111831,-0.01297,0.033524,0.974167,-0.004227,0.049113,0.007536,62.488708,21.735977,-147.029251,,,
729606807.209697,2.066645,1.024065,58.109294,-0.01297,0.033524,0.974167,-0.01787,0.012218,-0.01374,62.488708,21.735977,-147.029251,,,
729606807.212946,2.060605,1.023598,58.104047,-0.018005,0.0327,0.986404,-0.01787,0.012218,-0.01374,62.488708,21.735977,-147.029251,,,
729606807.216301,2.060605,1.023598,58.104047,-0.018005,0.0327,0.986404,-0.01787,0.012218,-0.01374,62.488708,21.735977,-147.029251,,,
729606807.219659,2.052619,1.012068,58.0979,-0.018005,0.0327,0.986404,-0.019819,-0.007752,-0.026898,62.488708,21.735977,-147.029251,,,
729606807.222728,2.048208,1.008225,58.091505,-0.029602,0.023529,1.000504,-0.019819,-0.007752,-0.026898,62.488708,21.735977,-147.029251,,,
729606807.226321,2.048208,1.008225,58.091505,-0.029602,0.023529,1.000504,-0.019819,-0.007752,-0.026898,62.488708,21.735977,-147.029251,,,
729606807.229518,2.043249,0.991776,58.086842,-0.029602,0.023529,1.000504,-0.010893,-0.012855,-0.019973,62.488708,21.735977,-147.029251,,,
729606807.232951,2.042382,0.988229,58.083739,-0.039322,0.014435,1.013977,-0.010893,-0.012855,-0.019973,62.469696,21.770981,-147.945969,,,
729606807.236274,2.042382,0.988229,58.083739,-0.039322,0.014435,1.013977,-0.010893,-0.012855,-0.019973,62.469696,21.770981,-147.945969,,,
729606807.239346,2.043153,0.968483,58.083486,-0.039322,0.014435,1.013977,0.005571,-0.005702,-0.002203,62.469696,21.770981,-147.945969,,,
729606807.242979,2.046265,0.968066,58.084711,-0.038803,0.014465,1.016632,0.005571,-0.005702,-0.002203,62.469696,21.770981,-147.945969,,,
729606807.246266,2.046265,0.968066,58.084711,-0.038803,0.014465,1.016632,0.005571,-0.005702,-0.002203,62.469696,21.770981,-147.945969,,,
729606807.249679,2.052786,0.953449,58.088235,-0.038803,0.014465,1.016632,0.018637,0.012856,0.006789,62.469696,21.770981,-147.945969,,,
729606807.253016,2.058694,0.959928,58.092072,-0.034149,0.02002,1.017593,0.018637,0.012856,0.006789,62.469696,21.770981,-147.945969,,,
729606807.256045,2.058694,0.959928,58.092072,-0.034149,0.02002,1.017593,0.018637,0.012856,0.006789,62.469696,21.770981,-147.945969,,,
729606807.259689,2.067557,0.955966,58.095089,-0.034149,0.02002,1.017593,0.0245,0.033305,0.009721,62.469696,21.770981,-147.945969,,,
729606807.262936,2.075091,0.965348,58.095529,-0.026718,0.026184,1.011551,0.0245,0.033305,0.009721,62.469696,21.770981,-147.945969,,,
729606807.266302,2.075091,0.965348,58.095529,-0.026718,0.026184,1.011551,0.0245,0.033305,0.009721,62.469696,21.770981,-147.945969,,,
729606807.269607,2.082978,0.967601,58.094969,-0.026718,0.026184,1.011551,0.026806,0.035266,-0.003303,62.469696,21.770981,-147.945969,,,
729606807.272729,2.090435,0.975032,58.092897,-0.025757,0.029846,0.999817,0.026806,0.035266,-0.003303,62.469696,21.770981,-147.945969,,,
729606807.276389,2.090435,0.975032,58.092897,-0.025757,0.029846,0.999817,0.026806,0.035266,-0.003303,62.56311,21.77832,-147.632278,,,
729606807.279623,2.097192,0.97879,58.090177,-0.025757,0.029846,0.999817,0.024652,0.022752,-0.01142,62.56311,21.77832,-147.632278,,,
729606807.282949,2.103401,0.982601,58.0878,-0.029861,0.026566,0.992432,0.024652,0.022752,-0.01142,62.56311,21.77832,-147.632278,,,
729606807.286278,2.103401,0.982601,58.0878,-0.029861,0.026566,0.992432,0.024652,0.022752,-0.01142,62.56311,21.77832,-147.632278,,,
729606807.289343,2.107944,0.98369,58.086573,-0.029861,0.026566,0.992432,0.018638,0.009115,-0.004463,62.56311,21.77832,-147.632278,,,
729606807.293018,2.111574,0.983402,58.087072,-0.033188,0.02597,0.986145,0.018638,0.009115,-0.004463,62.56311,21.77832,-147.632278,,,
729606807.296146,2.111574,0.983402,58.087072,-0.033188,0.02597,0.986145,0.018638,0.009115,-0.004463,62.56311,21.77832,-147.632278,,,
729606807.299684,2.113525,0.982517,58.088869,-0.033188,0.02597,0.986145,0.009877,-0.002344,0.002372,62.56311,21.77832,-147.632278,,,
729606807.302935,2.115029,0.980103,58.091307,-0.030594,0.027451,0.985992,0.009877,-0.002344,0.002372,62.56311,21.77832,-147.632278,,,
729606807.306034,2.115029,0.980103,58.091307,-0.030594,0.027451,0.985992,0.009877,-0.002344,0.002372,62.56311,21.77832,-147.632278,,,
729606807.309659,2.111986,0.983382,58.094222,-0.030594,0.027451,0.985992,0.001039,-0.00153,0.009726,62.56311,21.77832,-147.632278,,,
729606807.312761,2.110916,0.981679,58.0981,-0.027023,0.032959,0.984665,0.001039,-0.00153,0.009726,62.56311,21.77832,-147.632278,,,
729606807.316322,2.110916,0.981679,58.0981,-0.027023,0.032959,0.984665,0.001039,-0.00153,0.009726,62.45723,21.588531,-147.575317,,,
729606807.319605,2.104124,0.988208,58.102091,-0.027023,0.032959,0.984665,-0.006136,-0.005367,0.013314,62.45723,21.588531,-147.575317,,,
729606807.322668,2.101971,0.984967,58.106052,-0.018631,0.039642,0.983032,-0.006136,-0.005367,0.013314,62.45723,21.588531,-147.575317,,,
729606807.326385,2.101971,0.984967,58.106052,-0.018631,0.039642,0.983032,-0.006136,-0.005367,0.013314,62.45723,21.588531,-147.575317,,,
729606807.329612,2.093645,0.989815,58.108793,-0.018631,0.039642,0.983032,-0.012241,-0.007126,0.011191,62.45723,21.588531,-147.575317,,,
729606807.332943,2.088372,0.986879,58.110903,-0.011841,0.042313,0.981979,-0.012241,-0.007126,0.011191,62.45723,21.588531,-147.575317,,,
729606807.336302,2.088372,0.986879,58.110903,-0.011841,0.042313,0.981979,-0.012241,-0.007126,0.011191,62.45723,21.588531,-147.575317,,,
729606807.33934,2.079219,0.989578,58.112288,-0.011841,0.042313,0.981979,-0.021474,-0.006592,0.004724,62.45723,21.588531,-147.575317,,,
729606807.342979,2.073039,0.98746,58.113669,-0.006104,0.044113,0.984222,-0.021474,-0.006592,0.004724,62.45723,21.588531,-147.575317,,,
729606807.346285,2.073039,0.98746,58.113669,-0.006104,0.044113,0.984222,-0.021474,-0.006592,0.004724,62.45723,21.588531,-147.575317,,,
729606807.349621,2.065587,0.989331,58.114828,-0.006104,0.044113,0.984222,-0.019655,-0.002235,0.004172,62.45723,21.588531,-147.575317,,,
729606807.35295,2.060697,0.988356,58.116292,-0.005402,0.04155,0.991058,-0.019655,-0.002235,0.004172,62.45723,21.588531,-147.575317,,,
729606807.356023,2.060697,0.988356,58.116292,-0.005402,0.04155,0.991058,-0.019655,-0.002235,0.004172,62.375549,21.790009,-147.35173,,,
729606807.359656,2.054349,0.991233,58.117934,-0.005402,0.04155,0.991058,-0.015864,-0.000127,0.004377,62.375549,21.790009,-147.35173,,,
729606807.362941,2.049843,0.9892,58.119781,-0.00383,0.039536,0.988998,-0.015864,-0.000127,0.004377,62.375549,21.790009,-147.35173,,,
729606807.366341,2.049843,0.9892,58.119781,-0.00383,0.039536,0.988998,-0.015864,-0.000127,0.004377,62.375549,21.790009,-147.35173,,,
729606807.369621,2.043758,0.992732,58.121136,-0.00383,0.039536,0.988998,-0.015039,-0.005767,0.002551,62.375549,21.790009,-147.35173,,,
729606807.37267,2.040477,0.989541,58.121596,-0.001511,0.042038,0.990082,-0.015039,-0.005767,0.002551,62.375549,21.790009,-147.35173,,,
729606807.376328,2.040477,0.989541,58.121596,-0.001511,0.042038,0.990082,-0.015039,-0.005767,0.002551,62.375549,21.790009,-147.35173,,,
729606807.379669,2.035734,0.991846,58.120606,-0.001511,0.042038,0.990082,-0.007044,-0.011811,-0.004228,62.375549,21.790009,-147.35173,,,
729606807.382941,2.033113,0.987891,58.118966,-0.004227,0.039383,0.993164,-0.007044,-0.011811,-0.004228,62.375549,21.790009,-147.35173,,,
729606807.386289,2.033113,0.987891,58.118966,-0.004227,0.039383,0.993164,-0.007044,-0.011811,-0.004228,62.375549,21.790009,-147.35173,,,
729606807.389349,2.029758,0.990955,58.11601,-0.004227,0.039383,0.993164,-0.003952,-0.005287,-0.011219,62.375549,21.790009,-147.35173,,,
729606807.392975,2.028498,0.991227,58.112798,-0.009491,0.036179,1.002686,-0.003952,-0.005287,-0.011219,62.375549,21.790009,-147.35173,,,
729606807.396267,2.028498,0.991227,58.112798,-0.009491,0.036179,1.002686,-0.003952,-0.005287,-0.011219,62.36731,21.722122,-147.37764,,,
729606807.399626,2.02787,0.997734,58.109989,-0.009491,0.036179,1.002686,2.3e-05,0.015281,-0.013006,62.36731,21.722122,-147.37764,,,
729606807.402946,2.028104,1.004116,58.10784,-0.011795,0.032883,1.009445,2.3e-05,0.015281,-0.013006,62.36731,21.722122,-147.37764,,,
729606807.406057,2.028104,1.004116,58.10784,-0.011795,0.032883,1.009445,2.3e-05,0.015281,-0.013006,62.36731,21.722122,-147.37764,,,
729606807.409662,2.030523,1.013594,58.106129,-0.011795,0.032883,1.009445,0.003609,0.038214,-0.006327,62.36731,21.722122,-147.37764,,,
729606807.412941,2.03207,1.027736,58.10455,-0.011536,0.032516,1.009384,0.003609,0.038214,-0.006327,62.36731,21.722122,-147.37764,,,
729606807.416285,2.03207,1.027736,58.10455,-0.011536,0.032516,1.009384,0.003609,0.038214,-0.006327,62.36731,21.722122,-147.37764,,,
729606807.419675,2.036777,1.040543,58.103218,-0.011536,0.032516,1.009384,0.012466,0.060556,-0.003429,62.36731,21.722122,-147.37764,,,
729606807.422667,2.040606,1.057279,58.101766,-0.014893,0.03241,1.013107,0.012466,0.060556,-0.003429,62.36731,21.722122,-147.37764,,,
729606807.426323,2.040606,1.057279,58.101766,-0.014893,0.03241,1.013107,0.012466,0.060556,-0.003429,62.36731,21.722122,-147.37764,,,
729606807.429379,2.047962,1.068032,58.100321,-0.014893,0.03241,1.013107,0.018519,0.060353,-0.00742,62.36731,21.722122,-147.37764,,,
729606807.432974,2.05495,1.081804,58.098375,-0.019897,0.035034,1.00412,0.018519,0.060353,-0.00742,62.36731,21.722122,-147.37764,,,
729606807.436353,2.05495,1.081804,58.098375,-0.019897,0.035034,1.00412,0.018519,0.060353,-0.00742,62.36731,21.722122,-147.37764,,,
729606807.439337,2.064058,1.086825,58.095977,-0.019897,0.035034,1.00412,0.029136,0.04017,-0.010545,62.545486,21.863617,-147.675964,,,
729606807.442982,2.072636,1.093517,58.0934,-0.028427,0.035828,0.996429,0.029136,0.04017,-0.010545,62.545486,21.863617,-147.675964,,,
729606807.44635,2.072636,1.093517,58.0934,-0.028427,0.035828,0.996429,0.029136,0.04017,-0.010545,62.545486,21.863617,-147.675964,,,
729606807.44962,2.082577,1.088915,58.091355,-0.028427,0.035828,0.996429,0.030245,0.012799,-0.01046,62.545486,21.863617,-147.675964,,,
729606807.453018,2.090981,1.088208,58.088296,-0.031204,0.038345,0.987152,0.030245,0.012799,-0.01046,62.545486,21.863617,-147.675964,,,
729606807.456015,2.090981,1.088208,58.088296,-0.031204,0.038345,0.987152,0.030245,0.012799,-0.01046,62.545486,21.863617,-147.675964,,,
729606807.459753,2.099082,1.07847,58.084571,-0.031204,0.038345,0.987152,0.02683,-0.006942,-0.013468,62.545486,21.863617,-147.675964,,,
729606807.462932,2.104763,1.074196,58.0804,-0.031036,0.038666,0.985321,0.02683,-0.006942,-0.013468,62.545486,21.863617,-147.675964,,,
729606807.466297,2.104763,1.074196,58.0804,-0.031036,0.038666,0.985321,0.02683,-0.006942,-0.013468,62.545486,21.863617,-147.675964,,,
729606807.469621,2.109522,1.06389,58.076478,-0.031036,0.038666,0.985321,0.017423,-0.011554,-0.016067,62.545486,21.863617,-147.675964,,,
729606807.472674,2.112438,1.059299,58.073169,-0.031052,0.038895,0.983063,0.017423,-0.011554,-0.016067,62.545486,21.863617,-147.675964,,,
729606807.476329,2.112438,1.059299,58.073169,-0.031052,0.038895,0.983063,0.017423,-0.011554,-0.016067,62.545486,21.863617,-147.675964,,,
729606807.479617,2.113332,1.053248,58.071038,-0.031052,0.038895,0.983063,0.007312,-0.009469,-0.009428,62.43335,21.904099,-147.467072,,,
729606807.482935,2.113508,1.05253,58.069831,-0.035004,0.035065,0.990021,0.007312,-0.009469,-0.009428,62.43335,21.904099,-147.467072,,,
729606807.486358,2.113508,1.05253,58.069831,-0.035004,0.035065,0.990021,0.007312,-0.009469,-0.009428,62.43335,21.904099,-147.467072,,,
729606807.489354,2.11203,1.051525,58.069971,-0.035004,0.035065,0.990021,-0.001282,0.008079,-0.000438,62.43335,21.904099,-147.467072,,,
729606807.492975,2.11268,1.056222,58.071201,-0.036224,0.029755,1.001312,-0.001282,0.008079,-0.000438,62.43335,21.904099,-147.467072,,,
729606807.496279,2.11268,1.056222,58.071201,-0.036224,0.029755,1.001312,-0.001282,0.008079,-0.000438,62.43335,21.904099,-147.467072,,,
729606807.499684,2.113115,1.061059,58.073633,-0.036224,0.029755,1.001312,0.002994,0.029429,0.006196,62.43335,21.904099,-147.467072,,,
729606807.502936,2.115399,1.069898,58.076957,-0.039429,0.032181,1.005112,0.002994,0.029429,0.006196,62.43335,21.904099,-147.467072,,,
729606807.506003,2.115399,1.069898,58.076957,-0.039429,0.032181,1.005112,0.002994,0.029429,0.006196,62.43335,21.904099,-147.467072,,,
729606807.509661,2.117655,1.077055,58.081044,-0.039429,0.032181,1.005112,0.01177,0.030776,0.014143,62.43335,21.904099,-147.467072,,,
729606807.512938,2.122321,1.083793,58.086484,-0.049042,0.028198,1.002258,0.01177,0.030776,0.014143,62.43335,21.904099,-147.467072,,,
729606807.516285,2.122321,1.083793,58.086484,-0.049042,0.028198,1.002258,0.01177,0.030776,0.014143,62.43335,21.904099,-147.467072,,,
729606807.519611,2.129104,1.091018,58.093866,-0.049042,0.028198,1.002258,0.024572,0.021866,0.023543,62.650467,21.816986,-147.576889,,,
729606807.523039,2.138114,1.094615,58.102038,-0.049332,0.024292,1.002213,0.024572,0.021866,0.023543,62.650467,21.816986,-147.576889,,,
729606807.526371,2.138114,1.094615,58.102038,-0.049332,0.024292,1.002213,0.024572,0.021866,0.023543,62.650467,21.816986,-147.576889,,,
729606807.529661,2.147689,1.10136,58.110611,-0.049332,0.024292,1.002213,0.033685,0.010994,0.030567,62.650467,21.816986,-147.576889,,,
729606807.53294,2.157274,1.102547,58.120109,-0.046722,0.027664,0.999146,0.033685,0.010994,0.030567,62.650467,21.816986,-147.576889,,,
729606807.536279,2.157274,1.102547,58.120109,-0.046722,0.027664,0.999146,0.033685,0.010994,0.030567,62.650467,21.816986,-147.576889,,,
729606807.539306,2.166442,1.10777,58.129584,-0.046722,0.027664,0.999146,0.032354,0.003757,0.033985,62.650467,21.816986,-147.576889,,,
729606807.543011,2.173796,1.105956,58.139555,-0.034073,0.033356,0.992249,0.032354,0.003757,0.033985,62.650467,21.816986,-147.576889,,,
729606807.54629,2.173796,1.105956,58.139555,-0.034073,0.033356,0.992249,0.032354,0.003757,0.033985,62.650467,21.816986,-147.576889,,,
729606807.549683,2.180558,1.107519,58.148793,-0.034073,0.033356,0.992249,0.021064,-0.007685,0.030342,62.650467,21.816986,-147.576889,,,
729606807.552932,2.185732,1.104042,58.156565,-0.019714,0.039764,0.988617,0.021064,-0.007685,0.030342,62.650467,21.816986,-147.576889,,,
729606807.555981,2.185732,1.104042,58.156565,-0.019714,0.039764,0.988617,0.021064,-0.007685,0.030342,62.650467,21.816986,-147.576889,,,
729606807.559647,2.189152,1.107873,58.162366,-0.019714,0.039764,0.988617,0.01109,-0.000921,0.017783,62.418945,21.820999,-147.271912,,,
729606807.562934,2.190539,1.108424,58.166675,-0.009598,0.043228,0.992905,0.01109,-0.000921,0.017783,62.418945,21.820999,-147.271912,,,
729606807.566291,2.190539,1.108424,58.166675,-0.009598,0.043228,0.992905,0.01109,-0.000921,0.017783,62.418945,21.820999,-147.271912,,,
729606807.569622,2.188167,1.118105,58.170063,-0.009598,0.043228,0.992905,-0.000778,0.014311,0.010259,62.418945,21.820999,-147.271912,,,
729606807.572698,2.184845,1.123118,58.173972,-0.007141,0.044327,0.990723,-0.000778,0.014311,0.010259,62.418945,21.820999,-147.271912,,,
729606807.576383,2.184845,1.123118,58.173972,-0.007141,0.044327,0.990723,-0.000778,0.014311,0.010259,62.418945,21.820999,-147.271912,,,
729606807.579613,2.177833,1.136007,58.178617,-0.007141,0.044327,0.990723,-0.019436,0.026357,0.012928,62.418945,21.820999,-147.271912,,,
729606807.582934,2.171269,1.142064,58.184979,-0.010559,0.039459,0.990356,-0.019436,0.026357,0.012928,62.418945,21.820999,-147.271912,,,
729606807.586269,2.171269,1.142064,58.184979,-0.010559,0.039459,0.990356,-0.019436,0.026357,0.012928,62.418945,21.820999,-147.271912,,,
729606807.589386,2.162204,1.156543,58.191996,-0.010559,0.039459,0.990356,-0.029602,0.024301,0.021899,62.418945,21.820999,-147.271912,,,
729606807.592968,2.153551,1.160425,58.199625,-0.012238,0.0383,0.988205,-0.029602,0.024301,0.021899,62.418945,21.820999,-147.271912,,,
729606807.596267,2.153551,1.160425,58.199625,-0.012238,0.0383,0.988205,-0.029602,0.024301,0.021899,62.418945,21.820999,-147.271912,,,
729606807.599648,2.141929,1.174321,58.206251,-0.012238,0.0383,0.988205,-0.029273,0.013959,0.022187,62.418945,21.820999,-147.271912,,,
729606807.602936,2.132203,1.174215,58.211865,-0.005615,0.04187,0.992706,-0.029273,0.013959,0.022187,62.423447,21.913391,-147.11705,,,
729606807.606014,2.132203,1.174215,58.211865,-0.005615,0.04187,0.992706,-0.029273,0.013959,0.022187,62.423447,21.913391,-147.11705,,,
729606807.609669,2.118695,1.182332,58.21486,-0.005615,0.04187,0.992706,-0.036855,-0.009206,0.009196,62.423447,21.913391,-147.11705,,,
729606807.612933,2.107769,1.176125,58.216692,-0.000732,0.040833,0.99559,-0.036855,-0.009206,0.009196,62.423447,21.913391,-147.11705,,,
729606807.616282,2.107769,1.176125,58.216692,-0.000732,0.040833,0.99559,-0.036855,-0.009206,0.009196,62.423447,21.913391,-147.11705,,,
729606807.619625,2.095834,1.177153,58.216698,-0.000732,0.040833,0.99559,-0.03349,-0.024929,-0.001069,62.423447,21.913391,-147.11705,,,
729606807.622734,2.086579,1.168393,58.215179,0.000763,0.03772,1.004013,-0.03349,-0.024929,-0.001069,62.423447,21.913391,-147.11705,,,
729606807.62638,2.086579,1.168393,58.215179,0.000763,0.03772,1.004013,-0.03349,-0.024929,-0.001069,62.423447,21.913391,-147.11705,,,
729606807.62961,2.078762,1.163,58.212281,0.000763,0.03772,1.004013,-0.025758,-0.027317,-0.011417,62.423447,21.913391,-147.11705,,,
729606807.632935,2.072938,1.155371,58.208726,0.000992,0.035202,1.01416,-0.025758,-0.027317,-0.011417,62.423447,21.913391,-147.11705,,,
729606807.636287,2.072938,1.155371,58.208726,0.000992,0.035202,1.01416,-0.025758,-0.027317,-0.011417,62.423447,21.913391,-147.11705,,,
729606807.639407,2.070006,1.148612,58.20503,0.000992,0.035202,1.01416,-0.011563,-0.012692,-0.013393,62.423447,21.913391,-147.11705,,,
729606807.642963,2.067,1.146486,58.201563,0.000809,0.032333,1.023132,-0.011563,-0.012692,-0.013393,62.427734,22.151245,-147.385223,,,
729606807.646291,2.067,1.146486,58.201563,0.000809,0.032333,1.023132,-0.011563,-0.012692,-0.013393,62.427734,22.151245,-147.385223,,,
729606807.649623,2.067234,1.142506,58.198444,0.000809,0.032333,1.023132,-0.004711,0.006083,-0.013379,62.427734,22.151245,-147.385223,,,
729606807.652983,2.066309,1.146816,58.195416,-0.003891,0.034622,1.020615,-0.004711,0.006083,-0.013379,62.427734,22.151245,-147.385223,,,
729606807.656003,2.066309,1.146816,58.195416,-0.003891,0.034622,1.020615,-0.004711,0.006083,-0.013379,62.427734,22.151245,-147.385223,,,
729606807.659659,2.067646,1.149222,58.192814,-0.003891,0.034622,1.020615,-0.001,0.028032,-0.011133,62.427734,22.151245,-147.385223,,,
729606807.662986,2.067655,1.158265,58.190068,-0.010162,0.037033,1.01825,-0.001,0.028032,-0.011133,62.427734,22.151245,-147.385223,,,
729606807.66633,2.067655,1.158265,58.190068,-0.010162,0.037033,1.01825,-0.001,0.028032,-0.011133,62.427734,22.151245,-147.385223,,,
729606807.669612,2.067771,1.163734,58.187822,-0.010162,0.037033,1.01825,-0.001571,0.032566,-0.011159,62.427734,22.151245,-147.385223,,,
729606807.672666,2.067771,1.163734,58.185666,-0.010162,0.037033,1.01825,-0.001571,0.032566,-0.011159,62.427734,22.151245,-147.385223,,,
729606807.676385,2.06718,1.170089,58.185666,-0.020996,0.03981,1.004639,-0.001571,0.032566,-0.011159,62.427734,22.151245,-147.385223,,,
729606807.679644,2.067519,1.170073,58.183521,-0.020996,0.03981,1.004639,-0.005394,0.018889,-0.012139,62.427734,22.151245,-147.385223,,,
729606807.683015,2.066002,1.171901,58.180514,-0.027359,0.041718,0.998901,-0.005394,0.018889,-0.012139,62.437027,21.909607,-147.311188,,,
729606807.686303,2.066002,1.171901,58.180514,-0.027359,0.041718,0.998901,-0.005394,0.018889,-0.012139,62.437027,21.909607,-147.311188,,,
729606807.68965,2.065736,1.163186,58.177485,-0.027359,0.041718,0.998901,-0.007837,-0.000988,-0.012827,62.437027,21.909607,-147.311188,,,
729606807.693034,2.064898,1.157059,58.174481,-0.033325,0.039932,0.997787,-0.007837,-0.000988,-0.012827,62.437027,21.909607,-147.311188,,,
729606807.696297,2.064898,1.157059,58.174481,-0.033325,0.039932,0.997787,-0.007837,-0.000988,-0.012827,62.437027,21.909607,-147.311188,,,
729606807.699394,2.065489,1.139091,58.171673,-0.033325,0.039932,0.997787,0.000122,-0.032972,-0.011865,62.437027,21.909607,-147.311188,,,
729606807.703,2.066188,1.126598,58.169319,-0.035904,0.039276,0.99678,0.000122,-0.032972,-0.011865,62.437027,21.909607,-147.311188,,,
729606807.706059,2.066188,1.126598,58.169319,-0.035904,0.039276,0.99678,0.000122,-0.032972,-0.011865,62.437027,21.909607,-147.311188,,,
729606807.70967,2.067379,1.104585,58.168206,-0.035904,0.039276,0.99678,0.003449,-0.046891,-0.006984,62.437027,21.909607,-147.311188,,,
729606807.713003,2.068707,1.089764,58.168063,-0.031158,0.038544,0.998291,0.003449,-0.046891,-0.006984,62.437027,21.909607,-147.311188,,,
729606807.716089,2.068707,1.089764,58.168063,-0.031158,0.038544,0.998291,0.003449,-0.046891,-0.006984,62.437027,21.909607,-147.311188,,,
729606807.719703,2.070075,1.067157,58.169739,-0.031158,0.038544,0.998291,0.006696,-0.047338,0.002972,62.437027,21.909607,-147.311188,,,
729606807.722732,2.070075,1.067157,58.169739,-0.031158,0.038544,0.998291,0.006696,-0.047338,0.002972,62.519958,21.814209,-147.386551,,,
729606807.726348,2.071946,1.055654,58.172075,-0.020111,0.042648,1.003174,0.006696,-0.047338,0.002972,62.519958,21.814209,-147.386551,,,
729606807.729622,2.072114,1.040114,58.175322,-0.020111,0.042648,1.003174,0.00303,-0.023463,0.007813,62.519958,21.814209,-147.386551,,,
729606807.732966,2.073468,1.034956,58.178907,-0.012894,0.045364,1.00473,0.00303,-0.023463,0.007813,62.519958,21.814209,-147.386551,,,
729606807.736282,2.073468,1.034956,58.178907,-0.012894,0.045364,1.00473,0.00303,-0.023463,0.007813,62.519958,21.814209,-147.386551,,,
729606807.739309,2.075007,1.02856,58.183584,-0.012894,0.045364,1.00473,0.005159,-0.001928,0.013642,62.519958,21.814209,-147.386551,,,
729606807.743006,2.077551,1.030202,58.188962,-0.012054,0.043182,1.005859,0.005159,-0.001928,0.013642,62.519958,21.814209,-147.386551,,,
729606807.746337,2.077551,1.030202,58.188962,-0.012054,0.043182,1.005859,0.005159,-0.001928,0.013642,62.519958,21.814209,-147.386551,,,
729606807.749635,2.080991,1.032102,58.195142,-0.012054,0.043182,1.005859,0.008317,0.017073,0.02011,62.519958,21.814209,-147.386551,,,
729606807.752968,2.08509,1.036844,58.20222,-0.014526,0.038361,1.00618,0.008317,0.017073,0.02011,62.519958,21.814209,-147.386551,,,
729606807.755996,2.08509,1.036844,58.20222,-0.014526,0.038361,1.00618,0.008317,0.017073,0.02011,62.519958,21.814209,-147.386551,,,
729606807.759641,2.090741,1.044043,58.210399,-0.014526,0.038361,1.00618,0.011632,0.017795,0.028525,62.519958,21.814209,-147.386551,,,
729606807.762976,2.095894,1.04667,58.219208,-0.020096,0.03511,1.002441,0.011632,0.017795,0.028525,62.519958,21.814209,-147.386551,,,
729606807.766282,2.095894,1.04667,58.219208,-0.020096,0.03511,1.002441,0.011632,0.017795,0.028525,62.749603,21.677124,-147.358673,,,
729606807.769685,2.102777,1.050816,58.228164,-0.020096,0.03511,1.002441,0.01903,0.003105,0.034091,62.749603,21.677124,-147.358673,,,
729606807.77267,2.102777,1.050816,58.228164,-0.020096,0.03511,1.002441,0.01903,0.003105,0.034091,62.749603,21.677124,-147.358673,,,
729606807.776316,2.109863,1.048245,58.237695,-0.020935,0.034393,1.002548,0.01903,0.003105,0.034091,62.749603,21.677124,-147.358673,,,
729606807.779617,2.119449,1.050713,58.246694,-0.020935,0.034393,1.002548,0.031667,-0.010426,0.032374,62.749603,21.677124,-147.358673,,,
729606807.783017,2.119449,1.045056,58.254982,-0.020935,0.034393,1.002548,0.031667,-0.010426,0.032374,62.749603,21.677124,-147.358673,,,
729606807.786258,2.128712,1.045056,58.254982,-0.01683,0.037308,1.006714,0.031667,-0.010426,0.032374,62.749603,21.677124,-147.358673,,,
729606807.789325,2.139237,1.046164,58.261853,-0.01683,0.037308,1.006714,0.036868,-0.017164,0.026172,62.749603,21.677124,-147.358673,,,
729606807.793001,2.150859,1.041556,58.267752,-0.007812,0.039948,1.007767,0.036868,-0.017164,0.026172,62.749603,21.677124,-147.358673,,,
729606807.796265,2.150859,1.041556,58.267752,-0.007812,0.039948,1.007767,0.036868,-0.017164,0.026172,62.749603,21.677124,-147.358673,,,
729606807.799606,2.164207,1.042732,58.272373,-0.007812,0.039948,1.007767,0.045623,-0.003486,0.015898,62.749603,21.677124,-147.358673,,,
729606807.802941,2.164207,1.042732,58.272373,-0.007812,0.039948,1.007767,0.045623,-0.003486,0.015898,62.749603,21.677124,-147.358673,,,
729606807.806003,2.178825,1.042813,58.276571,-0.002258,0.041534,1.012283,0.045623,-0.003486,0.015898,62.434647,21.669205,-147.183701,,,
729606807.809639,2.196614,1.043714,58.280098,-0.002258,0.041534,1.012283,0.058575,0.006201,0.013481,62.434647,21.669205,-147.183701,,,
729606807.812939,2.196614,1.043714,58.280098,-0.002258,0.041534,1.012283,0.058575,0.006201,0.013481,62.434647,21.669205,-147.183701,,,
729606807.81631,2.215266,1.045358,58.283111,0.000717,0.03978,1.004807,0.058575,0.006201,0.013481,62.434647,21.669205,-147.183701,,,
729606807.819598,2.237827,1.044957,58.285784,0.000717,0.03978,1.004807,0.072713,0.01198,0.009451,62.434647,21.669205,-147.183701,,,
729606807.822752,2.237827,1.044957,58.285784,0.000717,0.03978,1.004807,0.072713,0.01198,0.009451,62.434647,21.669205,-147.183701,,,
729606807.826325,2.261133,1.048516,58.28732,0.000275,0.035263,0.999649,0.072713,0.01198,0.009451,62.434647,21.669205,-147.183701,,,
729606807.829622,2.284803,1.04974,58.288619,0.000275,0.035263,0.999649,0.081336,0.016614,0.003411,62.434647,21.669205,-147.183701,,,
729606807.832965,2.284803,1.04974,58.288619,0.000275,0.035263,0.999649,0.081336,0.016614,0.003411,62.434647,21.669205,-147.183701,,,
729606807.836375,2.307232,1.051968,58.289784,-0.007797,0.037369,0.988754,0.081336,0.016614,0.003411,62.434647,21.669205,-147.183701,,,
729606807.839334,2.327534,1.051446,58.290558,-0.007797,0.037369,0.988754,0.072572,0.00246,0.000889,62.434647,21.669205,-147.183701,,,
729606807.843103,2.327534,1.050345,58.290099,-0.007797,0.037369,0.988754,0.072572,0.00246,0.000889,62.434647,21.669205,-147.183701,,,
729606807.846382,2.346329,1.050345,58.290099,-0.011139,0.039383,0.973999,0.072572,0.00246,0.000889,62.662888,21.585281,-147.30838,,,
729606807.849611,2.361384,1.048744,58.288015,-0.011139,0.039383,0.973999,0.059548,-0.006759,-0.006131,62.662888,21.585281,-147.30838,,,
729606807.85299,2.361384,1.048744,58.288015,-0.011139,0.039383,0.973999,0.059548,-0.006759,-0.006131,62.662888,21.585281,-147.30838,,,
729606807.856045,2.376246,1.044317,58.285077,-0.014969,0.03746,0.976669,0.059548,-0.006759,-0.006131,62.662888,21.585281,-147.30838,,,
729606807.859636,2.387886,1.038155,58.281616,-0.014969,0.03746,0.976669,0.046324,-0.018754,-0.012638,62.662888,21.585281,-147.30838,,,
729606807.863049,2.387886,1.038155,58.281616,-0.014969,0.03746,0.976669,0.046324,-0.018754,-0.012638,62.662888,21.585281,-147.30838,,,
729606807.866284,2.399685,1.030549,58.277442,-0.021378,0.03273,0.981842,0.046324,-0.018754,-0.012638,62.662888,21.585281,-147.30838,,,
729606807.869628,2.409728,1.021601,58.27387,-0.021378,0.03273,0.981842,0.040297,-0.0251,-0.014225,62.662888,21.585281,-147.30838,,,
729606807.872682,2.409728,1.021601,58.27387,-0.021378,0.03273,0.981842,0.040297,-0.0251,-0.014225,62.662888,21.585281,-147.30838,,,
729606807.876385,2.420119,1.015886,58.271261,-0.02948,0.025787,0.995392,0.040297,-0.0251,-0.014225,62.662888,21.585281,-147.30838,,,
729606807.879589,2.429794,1.007305,58.270052,-0.02948,0.025787,0.995392,0.035006,-0.008624,-0.005651,62.662888,21.585281,-147.30838,,,
729606807.882984,2.429794,1.007305,58.270052,-0.02948,0.025787,0.995392,0.035006,-0.008624,-0.005651,62.662888,21.585281,-147.30838,,,
729606807.886272,2.440043,1.006507,58.270638,-0.033264,0.023636,1.001404,0.035006,-0.008624,-0.005651,62.710403,21.513412,-147.392273,,,
729606807.889329,2.450728,1.001891,58.27377,-0.033264,0.023636,1.001404,0.037547,0.009463,0.008561,62.710403,21.513412,-147.392273,,,
729606807.893,2.450728,1.001891,58.27377,-0.033264,0.023636,1.001404,0.037547,0.009463,0.008561,62.710403,21.513412,-147.392273,,,
729606807.896278,2.462537,1.005928,58.278936,-0.030762,0.024918,1.000015,0.037547,0.009463,0.008561,62.710403,21.513412,-147.392273,,,
729606807.899605,2.472869,1.00372,58.285537,-0.030762,0.024918,1.000015,0.041272,0.023129,0.023356,62.710403,21.513412,-147.392273,,,
729606807.902933,2.472869,1.00372,58.285537,-0.030762,0.024918,1.000015,0.041272,0.023129,0.023356,62.710403,21.513412,-147.392273,,,
729606807.905997,2.483806,1.010797,58.29238,-0.02536,0.030045,0.994415,0.041272,0.023129,0.023356,62.710403,21.513412,-147.392273,,,
729606807.909639,2.492301,1.01242,58.299917,-0.02536,0.030045,0.994415,0.033213,0.028591,0.023877,62.710403,21.513412,-147.392273,,,
729606807.912974,2.492301,1.01242,58.299917,-0.02536,0.030045,0.994415,0.033213,0.028591,0.023877,62.710403,21.513412,-147.392273,,,
729606807.916333,2.500969,1.019468,58.306683,-0.019531,0.039017,0.983917,0.033213,0.028591,0.023877,62.710403,21.513412,-147.392273,,,
729606807.919609,2.506555,1.022272,58.313026,-0.019531,0.039017,0.983917,0.024861,0.025662,0.020505,62.710403,21.513412,-147.392273,,,
729606807.922663,2.506555,1.022272,58.313026,-0.019531,0.039017,0.983917,0.024861,0.025662,0.020505,62.710403,21.513412,-147.392273,,,
729606807.926351,2.510567,1.026738,58.318719,-0.01738,0.043823,0.975616,0.024861,0.025662,0.020505,62.710403,21.513412,-147.392273,,,
729606807.929638,2.511053,1.027093,58.323756,-0.01738,0.043823,0.975616,0.003601,0.014026,0.01514,62.55304,21.242142,-147.304474,,,
729606807.932963,2.511053,1.027093,58.323756,-0.01738,0.043823,0.975616,0.003601,0.014026,0.01514,62.55304,21.242142,-147.304474,,,
729606807.936288,2.509365,1.02744,58.328019,-0.019501,0.044022,0.97287,0.003601,0.014026,0.01514,62.55304,21.242142,-147.304474,,,
729606807.93934,2.50294,1.025678,58.331791,-0.019501,0.044022,0.97287,-0.015498,-0.004637,0.011249,62.55304,21.242142,-147.304474,,,
729606807.943073,2.50294,1.025678,58.331791,-0.019501,0.044022,0.97287,-0.015498,-0.004637,0.011249,62.55304,21.242142,-147.304474,,,
729606807.946273,2.495652,1.021968,58.335593,-0.021988,0.0439,0.975967,-0.015498,-0.004637,0.011249,62.55304,21.242142,-147.304474,,,
729606807.949604,2.484095,1.019176,58.340082,-0.021988,0.0439,0.975967,-0.029292,-0.017184,0.012932,62.55304,21.242142,-147.304474,,,
729606807.952952,2.484095,1.019176,58.340082,-0.021988,0.0439,0.975967,-0.029292,-0.017184,0.012932,62.55304,21.242142,-147.304474,,,
729606807.956058,2.473999,1.013023,58.345564,-0.024796,0.040253,0.984482,-0.029292,-0.017184,0.012932,62.55304,21.242142,-147.304474,,,
729606807.959634,2.459099,1.01245,58.351363,-0.024796,0.040253,0.984482,-0.038611,-0.016027,0.019196,62.55304,21.242142,-147.304474,,,
729606807.962931,2.459099,1.01245,58.351363,-0.024796,0.040253,0.984482,-0.038611,-0.016027,0.019196,62.55304,21.242142,-147.304474,,,
729606807.96631,2.447287,1.007582,58.357711,-0.02269,0.038681,0.994629,-0.038611,-0.016027,0.019196,62.55304,21.242142,-147.304474,,,
729606807.969601,2.430404,1.007675,58.363809,-0.02269,0.038681,0.994629,-0.048333,-0.012183,0.021586,62.737457,21.515961,-147.389633,,,
729606807.972678,2.430404,1.007675,58.363809,-0.02269,0.038681,0.994629,-0.048333,-0.012183,0.021586,62.737457,21.515961,-147.389633,,,
729606807.976321,2.415212,1.002578,58.370424,-0.020676,0.042542,0.993607,-0.048333,-0.012183,0.021586,62.737457,21.515961,-147.389633,,,
729606807.979597,2.39531,1.00194,58.377091,-0.020676,0.042542,0.993607,-0.057924,-0.011356,0.01941,62.737457,21.515961,-147.389633,,,
729606807.982933,2.39531,1.00194,58.377091,-0.020676,0.042542,0.993607,-0.057924,-0.011356,0.01941,62.737457,21.515961,-147.389633,,,
729606807.986306,2.376596,0.998142,58.383649,-0.019272,0.041885,0.991776,-0.057924,-0.011356,0.01941,62.737457,21.515961,-147.389633,,,
729606807.989348,2.355008,0.996355,58.389277,-0.019272,0.041885,0.991776,-0.068999,-0.008848,0.01672,62.737457,21.515961,-147.389633,,,
729606807.992983,2.355008,0.996355,58.389277,-0.019272,0.041885,0.991776,-0.068999,-0.008848,0.01672,62.737457,21.515961,-147.389633,,,
729606807.996373,2.333205,0.991849,58.394022,-0.016876,0.041397,0.99469,-0.068999,-0.008848,0.01672,62.737457,21.515961,-147.389633,,,
729606807.99961,2.311386,0.987143,58.398478,-0.016876,0.041397,0.99469,-0.078425,-0.014156,0.01422,62.737457,21.515961,-147.389633,,,
729606808.002941,2.311386,0.987143,58.398478,-0.016876,0.041397,0.99469,-0.078425,-0.014156,0.01422,62.737457,21.515961,-147.389633,,,
729606808.006022,2.289122,0.981925,58.402852,-0.01709,0.037613,0.999634,-0.078425,-0.014156,0.01422,62.737457,21.515961,-147.389633,,,
729606808.009649,2.268544,0.976894,58.407061,-0.01709,0.037613,0.999634,-0.07388,-0.013078,0.013452,62.643005,21.568054,-147.29509,,,
729606808.012955,2.268544,0.976894,58.407061,-0.01709,0.037613,0.999634,-0.07388,-0.013078,0.013452,62.643005,21.568054,-147.29509,,,
729606808.016297,2.247819,0.971602,58.410535,-0.017349,0.034668,1.012863,-0.07388,-0.013078,0.013452,62.643005,21.568054,-147.29509,,,
729606808.019611,2.23055,0.968155,58.412795,-0.017349,0.034668,1.012863,-0.062959,-0.015611,0.006505,62.643005,21.568054,-147.29509,,,
729606808.022742,2.23055,0.968155,58.412795,-0.017349,0.034668,1.012863,-0.062959,-0.015611,0.006505,62.643005,21.568054,-147.29509,,,
729606808.026309,2.21433,0.963281,58.413922,-0.014862,0.03511,1.015625,-0.062959,-0.015611,0.006505,62.643005,21.568054,-147.29509,,,
729606808.029597,2.201172,0.961257,58.413661,-0.014862,0.03511,1.015625,-0.051122,-0.015555,-0.002736,62.643005,21.568054,-147.29509,,,
729606808.032954,2.201172,0.961257,58.413661,-0.014862,0.03511,1.015625,-0.051122,-0.015555,-0.002736,62.643005,21.568054,-147.29509,,,
729606808.036264,2.1884,0.956953,58.412558,-0.014038,0.038513,1.012741,-0.051122,-0.015555,-0.002736,62.643005,21.568054,-147.29509,,,
729606808.039324,2.17661,0.957384,58.411402,-0.014038,0.038513,1.012741,-0.041955,-0.006979,-0.005637,62.643005,21.568054,-147.29509,,,
729606808.042982,2.17661,0.957384,58.411402,-0.014038,0.038513,1.012741,-0.041955,-0.006979,-0.005637,62.643005,21.568054,-147.29509,,,
729606808.046265,2.165646,0.955255,58.411485,-0.018204,0.03717,1.009659,-0.041955,-0.006979,-0.005637,62.643005,21.568054,-147.29509,,,
729606808.049631,2.156229,0.955928,58.412244,-0.018204,0.03717,1.009659,-0.033158,-0.001919,7e-05,62.643005,21.568054,-147.29509,,,
729606808.052957,2.156229,0.955928,58.412244,-0.018204,0.03717,1.009659,-0.033158,-0.001919,7e-05,62.797104,21.433578,-147.071365,,,
729606808.056012,2.147433,0.954105,58.413495,-0.018906,0.034378,1.007462,-0.033158,-0.001919,7e-05,62.797104,21.433578,-147.071365,,,
729606808.059644,2.14038,0.953463,58.414362,-0.018906,0.034378,1.007462,-0.025945,-0.00631,0.000266,62.797104,21.433578,-147.071365,,,
729606808.063007,2.14038,0.953463,58.414362,-0.018906,0.034378,1.007462,-0.025945,-0.00631,0.000266,62.797104,21.433578,-147.071365,,,
729606808.066285,2.133005,0.95146,58.414578,-0.014236,0.040298,1.000015,-0.025945,-0.00631,0.000266,62.797104,21.433578,-147.071365,,,
729606808.069607,2.127648,0.950318,58.41399,-0.014236,0.040298,1.000015,-0.020789,-0.002829,-0.002225,62.797104,21.433578,-147.071365,,,
729606808.072746,2.127648,0.950318,58.41399,-0.014236,0.040298,1.000015,-0.020789,-0.002829,-0.002225,62.797104,21.433578,-147.071365,,,
729606808.076373,2.121547,0.949912,58.412507,-0.011871,0.044968,1.001648,-0.020789,-0.002829,-0.002225,62.797104,21.433578,-147.071365,,,
729606808.0796,2.116467,0.951115,58.41009,-0.011871,0.044968,1.001648,-0.019083,0.005157,-0.009187,62.797104,21.433578,-147.071365,,,
729606808.082955,2.116467,0.951115,58.41009,-0.011871,0.044968,1.001648,-0.019083,0.005157,-0.009187,62.797104,21.433578,-147.071365,,,
729606808.08628,2.110878,0.953629,58.406794,-0.014084,0.045715,0.999329,-0.019083,0.005157,-0.009187,62.797104,21.433578,-147.071365,,,
729606808.089336,2.105398,0.956699,58.402981,-0.014084,0.045715,0.999329,-0.018009,0.015803,-0.014895,62.797104,21.433578,-147.071365,,,
729606808.092975,2.105398,0.956699,58.402981,-0.014084,0.045715,0.999329,-0.018009,0.015803,-0.014895,62.861496,21.508713,-147.20549,,,
729606808.096285,2.100406,0.958536,58.398182,-0.011917,0.048874,0.99472,-0.018009,0.015803,-0.014895,62.861496,21.508713,-147.20549,,,
729606808.099608,2.094134,0.958865,58.391835,-0.011917,0.048874,0.99472,-0.018008,0.002626,-0.025221,62.861496,21.508713,-147.20549,,,
729606808.102958,2.094134,0.958865,58.391835,-0.011917,0.048874,0.99472,-0.018008,0.002626,-0.025221,62.861496,21.508713,-147.20549,,,
729606808.106029,2.088286,0.95747,58.383558,-0.011963,0.053574,0.987366,-0.018008,0.002626,-0.025221,62.861496,21.508713,-147.20549,,,
729606808.109643,2.082732,0.953644,58.374107,-0.011963,0.053574,0.987366,-0.01878,-0.006403,-0.037609,62.861496,21.508713,-147.20549,,,
729606808.113012,2.082732,0.953644,58.374107,-0.011963,0.053574,0.987366,-0.01878,-0.006403,-0.037609,62.861496,21.508713,-147.20549,,,
729606808.116276,2.077592,0.950276,58.364476,-0.017166,0.049408,0.991943,-0.01878,-0.006403,-0.037609,62.861496,21.508713,-147.20549,,,
729606808.119418,2.072966,0.945978,58.354658,-0.017166,0.049408,0.991943,-0.013303,-0.011221,-0.036895,62.861496,21.508713,-147.20549,,,
729606808.122664,2.072966,0.945978,58.354658,-0.017166,0.049408,0.991943,-0.013303,-0.011221,-0.036895,62.861496,21.508713,-147.20549,,,
729606808.126398,2.067907,0.942013,58.345408,-0.023575,0.044678,0.994308,-0.013303,-0.011221,-0.036895,62.861496,21.508713,-147.20549,,,
729606808.129594,2.06259,0.938851,58.337468,-0.023575,0.044678,0.994308,-0.016587,-0.012679,-0.029291,62.861496,21.508713,-147.20549,,,
729606808.132945,2.06259,0.938851,58.337468,-0.023575,0.044678,0.994308,-0.016587,-0.012679,-0.029291,62.864532,21.48526,-147.369522,,,
729606808.13629,2.057299,0.933786,58.330635,-0.023972,0.044678,0.994125,-0.016587,-0.012679,-0.029291,62.864532,21.48526,-147.369522,,,
729606808.139334,2.052288,0.929409,58.324788,-0.023972,0.044678,0.994125,-0.012735,-0.01589,-0.021359,62.864532,21.48526,-147.369522,,,
729606808.142989,2.052288,0.929409,58.324788,-0.023972,0.044678,0.994125,-0.012735,-0.01589,-0.021359,62.864532,21.48526,-147.369522,,,
729606808.146285,2.047663,0.924389,58.319653,-0.023682,0.042267,0.995529,-0.012735,-0.01589,-0.021359,62.864532,21.48526,-147.369522,,,
729606808.149607,2.044633,0.918282,58.315636,-0.023682,0.042267,0.995529,-0.012098,-0.015323,-0.012353,62.864532,21.48526,-147.369522,,,
729606808.153006,2.044633,0.918282,58.315636,-0.023682,0.042267,0.995529,-0.012098,-0.015323,-0.012353,62.864532,21.48526,-147.369522,,,
729606808.156014,2.040687,0.913989,58.31297,-0.026306,0.041153,1.005264,-0.012098,-0.015323,-0.012353,62.864532,21.48526,-147.369522,,,
729606808.159648,2.040528,0.908123,58.311451,-0.026306,0.041153,1.005264,-0.008096,-0.010936,-0.008526,62.864532,21.48526,-147.369522,,,
729606808.162935,2.040528,0.908123,58.311451,-0.026306,0.041153,1.005264,-0.008096,-0.010936,-0.008526,62.864532,21.48526,-147.369522,,,
729606808.166338,2.040239,0.904441,58.309696,-0.023148,0.040756,1.013657,-0.008096,-0.010936,-0.008526,62.864532,21.48526,-147.369522,,,
729606808.169607,2.043495,0.900538,58.306991,-0.023148,0.040756,1.013657,0.003892,-0.011643,-0.009857,62.864532,21.48526,-147.369522,,,
729606808.172663,2.043495,0.900538,58.306991,-0.023148,0.040756,1.013657,0.003892,-0.011643,-0.009857,62.668045,21.651947,-147.295166,,,
729606808.176327,2.045001,0.896801,58.303708,-0.016068,0.041702,1.013428,0.003892,-0.011643,-0.009857,62.668045,21.651947,-147.295166,,,
729606808.179605,2.050102,0.890974,58.299892,-0.016068,0.041702,1.013428,0.007423,-0.010948,-0.016076,62.668045,21.651947,-147.295166,,,
729606808.182946,2.050102,0.890974,58.299892,-0.016068,0.041702,1.013428,0.007423,-0.010948,-0.016076,62.668045,21.651947,-147.295166,,,
729606808.186293,2.050984,0.886798,58.295916,-0.019196,0.042465,1.007385,0.007423,-0.010948,-0.016076,62.668045,21.651947,-147.295166,,,
729606808.18933,2.056135,0.881313,58.292776,-0.019196,0.042465,1.007385,0.003859,-0.014166,-0.014309,62.668045,21.651947,-147.295166,,,
729606808.193053,2.056135,0.881313,58.292776,-0.019196,0.042465,1.007385,0.003859,-0.014166,-0.014309,62.668045,21.651947,-147.295166,,,
729606808.196272,2.056988,0.875659,58.290643,-0.023117,0.042282,1.003281,0.003859,-0.014166,-0.014309,62.668045,21.651947,-147.295166,,,
729606808.199604,2.05973,0.871577,58.289936,-0.023117,0.042282,1.003281,0.00078,-0.02134,-0.005288,62.668045,21.651947,-147.295166,,,
729606808.202953,2.05973,0.871577,58.289936,-0.023117,0.042282,1.003281,0.00078,-0.02134,-0.005288,62.668045,21.651947,-147.295166,,,
729606808.20599,2.060123,0.865233,58.290626,-0.024246,0.043671,1.005508,0.00078,-0.02134,-0.005288,62.668045,21.651947,-147.295166,,,
729606808.209639,2.063182,0.861812,58.291939,-0.024246,0.043671,1.005508,0.004572,-0.023488,0.005178,62.668045,21.651947,-147.295166,,,
729606808.212983,2.063182,0.861812,58.291939,-0.024246,0.043671,1.005508,0.004572,-0.023488,0.005178,62.668045,21.651947,-147.295166,,,
729606808.216286,2.06438,0.852991,58.294229,-0.019806,0.042679,1.007507,0.004572,-0.023488,0.005178,62.547028,21.538239,-147.283325,,,
729606808.219603,2.067405,0.846311,58.296259,-0.019806,0.042679,1.007507,0.003998,-0.032296,0.006538,62.547028,21.538239,-147.283325,,,
729606808.222669,2.067405,0.846311,58.296259,-0.019806,0.042679,1.007507,0.003998,-0.032296,0.006538,62.547028,21.538239,-147.283325,,,
729606808.226327,2.068693,0.834851,58.297284,-0.016342,0.042786,1.006912,0.003998,-0.032296,0.006538,62.547028,21.538239,-147.283325,,,
729606808.229596,2.071254,0.826275,58.296684,-0.016342,0.042786,1.006912,0.005626,-0.040781,-0.002533,62.547028,21.538239,-147.283325,,,
729606808.232992,2.071254,0.826275,58.296684,-0.016342,0.042786,1.006912,0.005626,-0.040781,-0.002533,62.547028,21.538239,-147.283325,,,
729606808.236282,2.073425,0.81224,58.295039,-0.009491,0.045181,1.008759,0.005626,-0.040781,-0.002533,62.547028,21.538239,-147.283325,,,
729606808.23932,2.077626,0.801859,58.292518,-0.009491,0.045181,1.008759,0.01365,-0.051361,-0.009476,62.547028,21.538239,-147.283325,,,
729606808.242985,2.077626,0.801859,58.292518,-0.009491,0.045181,1.008759,0.01365,-0.051361,-0.009476,62.547028,21.538239,-147.283325,,,
729606808.246315,2.083267,0.786729,58.290106,-0.008759,0.040176,1.013916,0.01365,-0.051361,-0.009476,62.547028,21.538239,-147.283325,,,
729606808.249602,2.091701,0.775435,58.287993,-0.008759,0.040176,1.013916,0.025603,-0.045209,-0.008737,62.547028,21.538239,-147.283325,,,
729606808.252953,2.091701,0.775435,58.287993,-0.008759,0.040176,1.013916,0.025603,-0.045209,-0.008737,62.547028,21.538239,-147.283325,,,
729606808.256041,2.101172,0.763915,58.286424,-0.009109,0.037048,1.019073,0.025603,-0.045209,-0.008737,62.309631,21.528427,-147.385483,,,
729606808.259759,2.113456,0.757364,58.28482,-0.009109,0.037048,1.019073,0.040779,-0.024486,-0.005611,62.309631,21.528427,-147.385483,,,
729606808.26298,2.113456,0.757364,58.28482,-0.009109,0.037048,1.019073,0.040779,-0.024486,-0.005611,62.309631,21.528427,-147.385483,,,
729606808.266303,2.126064,0.753307,58.282781,-0.005035,0.038681,1.017471,0.040779,-0.024486,-0.005611,62.309631,21.528427,-147.385483,,,
729606808.269608,2.140426,0.754457,58.280656,-0.005035,0.038681,1.017471,0.045224,-0.004798,-0.007094,62.309631,21.528427,-147.385483,,,
729606808.272714,2.140426,0.754457,58.280656,-0.005035,0.038681,1.017471,0.045224,-0.004798,-0.007094,62.309631,21.528427,-147.385483,,,
729606808.276367,2.153146,0.75444,58.278858,-0.007187,0.044022,1.005463,0.045224,-0.004798,-0.007094,62.309631,21.528427,-147.385483,,,
729606808.279612,2.166791,0.760209,58.277308,-0.007187,0.044022,1.005463,0.046473,0.009766,-0.00736,62.309631,21.528427,-147.385483,,,
729606808.282961,2.166791,0.760209,58.277308,-0.007187,0.044022,1.005463,0.046473,0.009766,-0.00736,62.309631,21.528427,-147.385483,,,
729606808.286283,2.179319,0.763094,58.276527,-0.019958,0.041382,1.001465,0.046473,0.009766,-0.00736,62.309631,21.528427,-147.385483,,,
729606808.289342,2.192876,0.769819,58.276641,-0.019958,0.041382,1.001465,0.044668,0.014803,0.000664,62.309631,21.528427,-147.385483,,,
729606808.292985,2.192876,0.769819,58.276641,-0.019958,0.041382,1.001465,0.044668,0.014803,0.000664,62.309631,21.528427,-147.385483,,,
729606808.296272,2.205889,0.770536,58.277894,-0.032852,0.038452,0.99968,0.044668,0.014803,0.000664,62.417068,21.52948,-147.578995,,,
729606808.299636,2.219635,0.768915,58.279841,-0.032852,0.038452,0.99968,0.045005,-0.006795,0.006939,62.417068,21.52948,-147.578995,,,
729606808.302953,2.219635,0.768915,58.279841,-0.032852,0.038452,0.99968,0.045005,-0.006795,0.006939,62.417068,21.52948,-147.578995,,,
729606808.306017,2.232848,0.76216,58.282567,-0.037827,0.039032,0.991974,0.045005,-0.006795,0.006939,62.417068,21.52948,-147.578995,,,
729606808.309643,2.247415,0.752507,58.284678,-0.037827,0.039032,0.991974,0.047298,-0.029619,0.004721,62.417068,21.52948,-147.578995,,,
729606808.312955,2.247415,0.752507,58.284678,-0.037827,0.039032,0.991974,0.047298,-0.029619,0.004721,62.417068,21.52948,-147.578995,,,
729606808.316284,2.260423,0.741127,58.284865,-0.029572,0.04422,0.993118,0.047298,-0.029619,0.004721,62.417068,21.52948,-147.578995,,,
729606808.319607,2.273287,0.726975,58.283008,-0.029572,0.04422,0.993118,0.04316,-0.042007,-0.007045,62.417068,21.52948,-147.578995,,,
729606808.32271,2.273287,0.726975,58.283008,-0.029572,0.04422,0.993118,0.04316,-0.042007,-0.007045,62.417068,21.52948,-147.578995,,,
729606808.326312,2.284103,0.71499,58.279302,-0.022263,0.048859,0.989853,0.04316,-0.042007,-0.007045,62.417068,21.52948,-147.578995,,,
729606808.329601,2.29366,0.702853,58.275199,-0.022263,0.048859,0.989853,0.035336,-0.035527,-0.015742,62.417068,21.52948,-147.578995,,,
729606808.332949,2.29366,0.702853,58.275199,-0.022263,0.048859,0.989853,0.035336,-0.035527,-0.015742,62.417068,21.52948,-147.578995,,,
729606808.336294,2.303545,0.694688,58.271186,-0.01947,0.048019,0.990952,0.035336,-0.035527,-0.015742,62.45079,21.422668,-147.338959,,,
729606808.33933,2.312045,0.688039,58.267106,-0.01947,0.048019,0.990952,0.034312,-0.012863,-0.014815,62.45079,21.422668,-147.338959,,,
729606808.342974,2.312045,0.688039,58.267106,-0.01947,0.048019,0.990952,0.034312,-0.012863,-0.014815,62.45079,21.422668,-147.338959,,,
729606808.346263,2.320995,0.686215,58.263795,-0.020142,0.043381,0.990341,0.034312,-0.012863,-0.014815,62.45079,21.422668,-147.338959,,,
729606808.349609,2.330542,0.683755,58.262,-0.020142,0.043381,0.990341,0.034316,0.006706,-0.00591,62.45079,21.422668,-147.338959,,,
729606808.35296,2.330542,0.683755,58.262,-0.020142,0.043381,0.990341,0.034316,0.006706,-0.00591,62.45079,21.422668,-147.338959,,,
729606808.356014,2.340304,0.686604,58.261762,-0.023026,0.036057,0.988251,0.034316,0.006706,-0.00591,62.45079,21.422668,-147.338959,,,
729606808.359643,2.350975,0.691577,58.263689,-0.023026,0.036057,0.988251,0.037088,0.021123,0.006273,62.45079,21.422668,-147.338959,,,
729606808.363005,2.350975,0.691577,58.263689,-0.023026,0.036057,0.988251,0.037088,0.021123,0.006273,62.45079,21.422668,-147.338959,,,
729606808.366282,2.362071,0.699144,58.267885,-0.03299,0.032394,0.98851,0.037088,0.021123,0.006273,62.45079,21.422668,-147.338959,,,
729606808.369607,2.37413,0.713821,58.273756,-0.03299,0.032394,0.98851,0.04324,0.037113,0.020945,62.45079,21.422668,-147.338959,,,
729606808.372672,2.37413,0.713821,58.273756,-0.03299,0.032394,0.98851,0.04324,0.037113,0.020945,62.45079,21.422668,-147.338959,,,
729606808.376377,2.388499,0.724302,58.281596,-0.038712,0.029434,0.993668,0.04324,0.037113,0.020945,62.45079,21.422668,-147.338959,,,
729606808.379593,2.404184,0.744551,58.291121,-0.038712,0.029434,0.993668,0.059611,0.041906,0.033362,62.154297,21.437103,-147.234207,,,
729606808.382943,2.404184,0.744551,58.291121,-0.038712,0.029434,0.993668,0.059611,0.041906,0.033362,62.154297,21.437103,-147.234207,,,
729606808.38629,2.422069,0.755167,58.302827,-0.035461,0.031235,0.99321,0.059611,0.041906,0.033362,62.154297,21.437103,-147.234207,,,
729606808.389327,2.422069,0.77469,58.316172,-0.035461,0.031235,0.99321,0.063073,0.040552,0.046189,62.154297,21.437103,-147.234207,,,
729606808.392993,2.440077,0.77469,58.316172,-0.035461,0.031235,0.99321,0.063073,0.040552,0.046189,62.154297,21.437103,-147.234207,,,
729606808.396284,2.457211,0.785307,58.33174,-0.029999,0.033752,0.986893,0.063073,0.040552,0.046189,62.154297,21.437103,-147.234207,,,
729606808.399604,2.473499,0.801988,58.347818,-0.029999,0.033752,0.986893,0.052139,0.046428,0.058358,62.154297,21.437103,-147.234207,,,
729606808.402998,2.473499,0.801988,58.347818,-0.029999,0.033752,0.986893,0.052139,0.046428,0.058358,62.154297,21.437103,-147.234207,,,
729606808.406006,2.487714,0.813137,58.364903,-0.020264,0.036667,0.984222,0.052139,0.046428,0.058358,62.154297,21.437103,-147.234207,,,
