Time (sec),Pitch (deg),Roll (deg),Yaw(deg),X-Acceleration (g),Y-Acceleration (g),Z-Acceleration (g),Pitch Rate (deg/sec),Roll Rate (deg/sec),Yaw Rate (deg/sec),Magnetic Field in X direction (uT),Magnetic Field in Y direction (uT),Magnetic Field in Z Direction (uT),Latitude (deg),Longitude (deg),Altitude (m)
729608649.476613,0.126652,1.93049,55.166793,-0.044205,0.015823,1.008942,-0.045028,-0.031682,-0.035952,64.803024,22.826172,-147.473679,,,
729608649.481085,0.115484,1.921201,55.160386,-0.045456,0.016449,1.011353,-0.046011,-0.008836,-0.025102,64.803024,22.826172,-147.473679,,,
729608649.483208,0.115484,1.921201,55.160386,-0.045456,0.016449,1.011353,-0.046011,-0.008836,-0.025102,64.803024,22.826172,-147.473679,,,
729608649.486469,0.102715,1.920196,55.155602,-0.045456,0.016449,1.011353,-0.046011,-0.008836,-0.025102,64.803024,22.826172,-147.473679,,,
729608649.489945,0.095151,1.915338,55.151773,-0.042679,0.009613,1.016129,-0.03617,0.005555,-0.015058,64.803024,22.826172,-147.473679,,,
729608649.493273,0.095151,1.915338,55.151773,-0.042679,0.009613,1.016129,-0.03617,0.005555,-0.015058,64.803024,22.826172,-147.473679,,,
729608649.49666,0.088132,1.917051,55.14851,-0.042679,0.009613,1.016129,-0.03617,0.005555,-0.015058,64.803024,22.826172,-147.473679,,,
729608649.499908,0.086522,1.913708,55.144895,-0.03801,0.009155,1.018616,-0.013708,0.010371,-0.014505,64.803024,22.826172,-147.473679,,,
729608649.503053,0.086522,1.913708,55.144895,-0.03801,0.009155,1.018616,-0.013708,0.010371,-0.014505,64.803024,22.826172,-147.473679,,,
729608649.506659,0.084602,1.916057,55.141062,-0.03801,0.009155,1.018616,-0.013708,0.010371,-0.014505,64.803024,22.826172,-147.473679,,,
729608649.509954,0.084602,1.916057,55.137627,-0.038513,0.008911,1.018295,0.002858,0.010407,-0.013534,64.782181,22.865616,-147.402679,,,
729608649.513278,0.089334,1.914105,55.137627,-0.038513,0.008911,1.018295,0.002858,0.010407,-0.013534,64.782181,22.865616,-147.402679,,,
729608649.516584,0.092145,1.914868,55.134134,-0.038513,0.008911,1.018295,0.002858,0.010407,-0.013534,64.782181,22.865616,-147.402679,,,
729608649.519806,0.092145,1.914868,55.134134,-0.038513,0.008911,1.018295,0.020936,-0.002534,-0.009388,64.782181,22.865616,-147.402679,,,
729608649.523353,0.099886,1.91332,55.131062,-0.045242,0.008026,1.011902,0.020936,-0.002534,-0.009388,64.782181,22.865616,-147.402679,,,
729608649.526575,0.105856,1.909256,55.128368,-0.045242,0.008026,1.011902,0.020936,-0.002534,-0.009388,64.782181,22.865616,-147.402679,,,
729608649.529912,0.105856,1.909256,55.128368,-0.045242,0.008026,1.011902,0.022301,-0.013728,-0.009166,64.782181,22.865616,-147.402679,,,
729608649.533264,0.113101,1.907748,55.125905,-0.043716,0.009567,1.005615,0.022301,-0.013728,-0.009166,64.782181,22.865616,-147.402679,,,
729608649.536419,0.118823,1.903515,55.123657,-0.043716,0.009567,1.005615,0.022301,-0.013728,-0.009166,64.782181,22.865616,-147.402679,,,
729608649.539933,0.118823,1.903515,55.121485,-0.041687,0.010559,1.006668,0.019126,-0.011418,-0.008268,64.782181,22.865616,-147.402679,,,
729608649.543251,0.125554,1.904452,55.121485,-0.041687,0.010559,1.006668,0.019126,-0.011418,-0.008268,64.782181,22.865616,-147.402679,,,
729608649.546659,0.13141,1.89983,55.119614,-0.041687,0.010559,1.006668,0.019126,-0.011418,-0.008268,64.782181,22.865616,-147.402679,,,
729608649.549903,0.13141,1.89983,55.119614,-0.041687,0.010559,1.006668,0.0247,-0.013949,-0.005741,65.028519,22.800964,-147.486404,,,
729608649.55305,0.141392,1.898824,55.118166,-0.041183,0.009079,1.006195,0.0247,-0.013949,-0.005741,65.028519,22.800964,-147.486404,,,
729608649.556598,0.149437,1.894225,55.11669,-0.041183,0.009079,1.006195,0.0247,-0.013949,-0.005741,65.028519,22.800964,-147.486404,,,
729608649.559906,0.149437,1.894225,55.11669,-0.036636,0.006592,1.00769,0.033451,-0.013344,-0.008688,65.028519,22.800964,-147.486404,,,
729608649.563259,0.163174,1.893682,55.114392,-0.036636,0.006592,1.00769,0.033451,-0.013344,-0.008688,65.028519,22.800964,-147.486404,,,
729608649.566597,0.173759,1.889885,55.110908,-0.036636,0.006592,1.00769,0.033451,-0.013344,-0.008688,65.028519,22.800964,-147.486404,,,
729608649.569764,0.173759,1.889885,55.110908,-0.036636,0.006592,1.00769,0.033451,-0.013344,-0.008688,65.028519,22.800964,-147.486404,,,
729608649.573327,0.188115,1.889859,55.106835,-0.035461,0.005981,1.00856,0.041896,-0.008884,-0.015393,65.028519,22.800964,-147.486404,,,
729608649.576584,0.200425,1.88672,55.102777,-0.035461,0.005981,1.00856,0.041896,-0.008884,-0.015393,65.028519,22.800964,-147.486404,,,
729608649.579916,0.200425,1.88672,55.102777,-0.035461,0.005981,1.00856,0.046029,-0.008883,-0.012444,65.028519,22.800964,-147.486404,,,
729608649.583262,0.214653,1.88535,55.099022,-0.034714,0.004028,1.004379,0.046029,-0.008883,-0.012444,65.028519,22.800964,-147.486404,,,
729608649.586461,0.227649,1.882391,55.09578,-0.034714,0.004028,1.004379,0.046029,-0.008883,-0.012444,65.028519,22.800964,-147.486404,,,
729608649.589954,0.227649,1.882391,55.09578,-0.034714,0.004028,1.004379,0.04581,-0.005884,-0.011013,64.863861,22.867203,-147.361328,,,
729608649.593262,0.241842,1.881224,55.093304,-0.034027,0.002121,0.996979,0.04581,-0.005884,-0.011013,64.863861,22.867203,-147.361328,,,
729608649.596603,0.25504,1.879017,55.091299,-0.034027,0.002121,0.996979,0.04581,-0.005884,-0.011013,64.863861,22.867203,-147.361328,,,
729608649.599964,0.25504,1.879017,55.091299,-0.034027,0.002121,0.996979,0.043765,-0.009015,-0.003892,64.863861,22.867203,-147.361328,,,
729608649.603096,0.268921,1.879481,55.089526,-0.028885,0.003708,0.992859,0.043765,-0.009015,-0.003892,64.863861,22.867203,-147.361328,,,
729608649.606607,0.281338,1.875669,55.0884,-0.028885,0.003708,0.992859,0.043765,-0.009015,-0.003892,64.863861,22.867203,-147.361328,,,
729608649.609927,0.281338,1.875669,55.0884,-0.028885,0.003708,0.992859,0.040738,-0.013114,-0.005455,64.863861,22.867203,-147.361328,,,
729608649.613322,0.294121,1.875348,55.087041,-0.027603,0.002655,0.987305,0.040738,-0.013114,-0.005455,64.863861,22.867203,-147.361328,,,
729608649.616586,0.30424,1.871852,55.085159,-0.027603,0.002655,0.987305,0.040738,-0.013114,-0.005455,64.863861,22.867203,-147.361328,,,
729608649.619789,0.30424,1.871852,55.085159,-0.027603,0.002655,0.987305,0.040738,-0.013114,-0.005455,64.863861,22.867203,-147.361328,,,
729608649.623305,0.314369,1.871795,55.083471,-0.027328,0.001373,0.987701,0.03062,-0.007304,-0.004872,64.863861,22.867203,-147.361328,,,
729608649.626576,0.321848,1.869343,55.082862,-0.027328,0.001373,0.987701,0.03062,-0.007304,-0.004872,64.863861,22.867203,-147.361328,,,
729608649.62999,0.321848,1.869343,55.082862,-0.027328,0.001373,0.987701,0.03062,-0.007304,-0.004872,64.989182,22.920929,-147.336273,,,
729608649.633271,0.329689,1.870413,55.083115,-0.027023,0.001968,0.990738,0.023532,-0.002969,-0.000955,64.989182,22.920929,-147.336273,,,
729608649.636426,0.335638,1.869784,55.08357,-0.027023,0.001968,0.990738,0.023532,-0.002969,-0.000955,64.989182,22.920929,-147.336273,,,
729608649.639934,0.335638,1.869784,55.08357,-0.027023,0.001968,0.990738,0.023532,-0.002969,-0.000955,64.989182,22.920929,-147.336273,,,
729608649.643242,0.341448,1.87116,55.084012,-0.027008,0.001038,0.993668,0.017617,0.001439,0.001149,64.989182,22.920929,-147.336273,,,
729608649.646573,0.346101,1.870879,55.084357,-0.027008,0.001038,0.993668,0.017617,0.001439,0.001149,64.989182,22.920929,-147.336273,,,
729608649.649987,0.346101,1.870879,55.084357,-0.027008,0.001038,0.993668,0.016752,0.003765,-0.000383,64.989182,22.920929,-147.336273,,,
729608649.653081,0.350217,1.872229,55.084713,-0.026169,0.000183,0.994553,0.016752,0.003765,-0.000383,64.989182,22.920929,-147.336273,,,
729608649.656602,0.35447,1.872436,55.085287,-0.026169,0.000183,0.994553,0.016752,0.003765,-0.000383,64.989182,22.920929,-147.336273,,,
729608649.659911,0.35447,1.872436,55.085287,-0.026169,0.000183,0.994553,0.016752,0.003765,-0.000383,64.989182,22.920929,-147.336273,,,
729608649.663323,0.358658,1.872096,55.08665,-0.028381,-0.001297,0.993866,0.017335,-0.001103,0.003829,64.989182,22.920929,-147.336273,,,
729608649.666569,0.363687,1.869203,55.088146,-0.028381,-0.001297,0.993866,0.017335,-0.001103,0.003829,64.989182,22.920929,-147.336273,,,
729608649.669781,0.363687,1.869203,55.088146,-0.028381,-0.001297,0.993866,0.017335,-0.001103,0.003829,64.989182,22.920929,-147.336273,,,
729608649.673264,0.367513,1.864556,55.088941,-0.02597,0.000122,0.99295,0.018369,-0.014729,0.000188,64.917847,22.851212,-147.373749,,,
729608649.676575,0.371626,1.857031,55.088252,-0.02597,0.000122,0.99295,0.018369,-0.014729,0.000188,64.917847,22.851212,-147.373749,,,
729608649.679917,0.371626,1.857031,55.088252,-0.02597,0.000122,0.99295,0.018369,-0.014729,0.000188,64.917847,22.851212,-147.373749,,,
729608649.683231,0.373513,1.847223,55.08565,-0.023026,0.003281,0.987686,0.010393,-0.028937,-0.011314,64.917847,22.851212,-147.373749,,,
729608649.68642,0.375082,1.836474,55.081673,-0.023026,0.003281,0.987686,0.010393,-0.028937,-0.011314,64.917847,22.851212,-147.373749,,,
729608649.689996,0.375082,1.836474,55.081673,-0.023026,0.003281,0.987686,0.010393,-0.028937,-0.011314,64.917847,22.851212,-147.373749,,,
729608649.693249,0.374734,1.824196,55.076399,-0.017487,0.00528,0.984634,0.002382,-0.037661,-0.019788,64.917847,22.851212,-147.373749,,,
729608649.696574,0.374639,1.813031,55.070716,-0.017487,0.00528,0.984634,0.002382,-0.037661,-0.019788,64.917847,22.851212,-147.373749,,,
729608649.699982,0.374639,1.813031,55.070716,-0.017487,0.00528,0.984634,0.002382,-0.037661,-0.019788,64.917847,22.851212,-147.373749,,,
729608649.703036,0.373161,1.800653,55.065381,-0.019318,0.00145,0.990036,0.000133,-0.038279,-0.019515,64.917847,22.851212,-147.373749,,,
729608649.706635,0.372424,1.791275,55.060805,-0.019318,0.00145,0.990036,0.000133,-0.038279,-0.019515,64.917847,22.851212,-147.373749,,,
729608649.709915,0.372424,1.791275,55.060805,-0.019318,0.00145,0.990036,0.000133,-0.038279,-0.019515,64.917847,22.851212,-147.373749,,,
729608649.713335,0.370266,1.783569,55.056756,-0.024063,-0.004166,0.994965,-0.001059,-0.017918,-0.019051,64.879608,23.027878,-147.635925,,,
729608649.71657,0.369696,1.780999,55.05256,-0.024063,-0.004166,0.994965,-0.001059,-0.017918,-0.019051,64.879608,23.027878,-147.635925,,,
729608649.719745,0.369696,1.780999,55.05256,-0.024063,-0.004166,0.994965,-0.001059,-0.017918,-0.019051,64.879608,23.027878,-147.635925,,,
729608649.723286,0.367098,1.782184,55.048419,-0.022293,-0.002243,1.000671,-0.001648,0.010413,-0.014524,64.879608,23.027878,-147.635925,,,
729608649.726578,0.366355,1.789139,55.04485,-0.022293,-0.002243,1.000671,-0.001648,0.010413,-0.014524,64.879608,23.027878,-147.635925,,,
729608649.729951,0.366355,1.789139,55.04485,-0.022293,-0.002243,1.000671,-0.001648,0.010413,-0.014524,64.879608,23.027878,-147.635925,,,
729608649.733252,0.364968,1.79815,55.042624,-0.023209,-0.001663,1.003922,0.005841,0.04034,-0.009362,64.879608,23.027878,-147.635925,,,
729608649.736409,0.365226,1.812468,55.041348,-0.023209,-0.001663,1.003922,0.005841,0.04034,-0.009362,64.879608,23.027878,-147.635925,,,
729608649.739959,0.365226,1.812468,55.041348,-0.023209,-0.001663,1.003922,0.005841,0.04034,-0.009362,64.879608,23.027878,-147.635925,,,
729608649.743241,0.362185,1.828384,55.040161,-0.025757,-0.001312,0.99649,-0.003015,0.062504,-0.003978,64.879608,23.027878,-147.635925,,,
729608649.746576,0.359587,1.845634,55.038913,-0.025757,-0.001312,0.99649,-0.003015,0.062504,-0.003978,64.879608,23.027878,-147.635925,,,
729608649.749993,0.359587,1.845634,55.038913,-0.025757,-0.001312,0.99649,-0.003015,0.062504,-0.003978,64.879608,23.027878,-147.635925,,,
729608649.753068,0.353162,1.858186,55.037118,-0.030563,0.003494,0.983658,-0.016087,0.048974,-0.009151,64.91217,22.929657,-147.767105,,,
729608649.756591,0.348515,1.870552,55.034468,-0.030563,0.003494,0.983658,-0.016087,0.048974,-0.009151,64.91217,22.929657,-147.767105,,,
729608649.759915,0.348515,1.870552,55.034468,-0.030563,0.003494,0.983658,-0.016087,0.048974,-0.009151,64.91217,22.929657,-147.767105,,,
729608649.763233,0.343365,1.883038,55.031262,-0.033234,0.006653,0.983749,-0.012215,0.056076,-0.014589,64.91217,22.929657,-147.767105,,,
729608649.766691,0.339341,1.900073,55.027143,-0.033234,0.006653,0.983749,-0.012215,0.056076,-0.014589,64.91217,22.929657,-147.767105,,,
729608649.769795,0.339341,1.900073,55.027143,-0.033234,0.006653,0.983749,-0.012215,0.056076,-0.014589,64.91217,22.929657,-147.767105,,,
729608649.773288,0.335656,1.910592,55.022019,-0.028748,0.007416,1.001129,-0.008312,0.055607,-0.022267,64.91217,22.929657,-147.767105,,,
729608649.776576,0.332982,1.922617,55.01657,-0.028748,0.007416,1.001129,-0.008312,0.055607,-0.022267,64.91217,22.929657,-147.767105,,,
729608649.779931,0.332982,1.922617,55.01657,-0.028748,0.007416,1.001129,-0.008312,0.055607,-0.022267,64.91217,22.929657,-147.767105,,,
729608649.783255,0.330257,1.927247,55.011313,-0.033325,0.005051,0.989868,-0.006131,0.034109,-0.023155,64.91217,22.929657,-147.767105,,,
729608649.786407,0.327073,1.933679,55.006026,-0.033325,0.005051,0.989868,-0.006131,0.034109,-0.023155,64.91217,22.929657,-147.767105,,,
729608649.789938,0.327073,1.933679,55.006026,-0.033325,0.005051,0.989868,-0.006131,0.034109,-0.023155,64.91217,22.929657,-147.767105,,,
729608649.793241,0.319436,1.933241,55.000421,-0.046997,0.002487,0.983124,-0.01618,0.013473,-0.020674,64.91217,22.929657,-147.767105,,,
729608649.796579,0.313792,1.933526,54.994425,-0.046997,0.002487,0.983124,-0.01618,0.013473,-0.020674,64.88623,22.961365,-147.563354,,,
729608649.79998,0.313792,1.933526,54.994425,-0.046997,0.002487,0.983124,-0.01618,0.013473,-0.020674,64.88623,22.961365,-147.563354,,,
729608649.803142,0.30639,1.927735,54.98797,-0.041199,0.010101,0.987152,-0.013597,-0.005061,-0.028008,64.88623,22.961365,-147.563354,,,
729608649.806592,0.302576,1.923401,54.981183,-0.041199,0.010101,0.987152,-0.013597,-0.005061,-0.028008,64.88623,22.961365,-147.563354,,,
729608649.809914,0.302576,1.923401,54.981183,-0.041199,0.010101,0.987152,-0.013597,-0.005061,-0.028008,64.88623,22.961365,-147.563354,,,
729608649.813345,0.298035,1.914147,54.97527,-0.037857,0.007507,0.995468,-0.009147,-0.015919,-0.021912,64.88623,22.961365,-147.563354,,,
729608649.816573,0.297052,1.908126,54.970672,-0.037857,0.007507,0.995468,-0.009147,-0.015919,-0.021912,64.88623,22.961365,-147.563354,,,
729608649.819774,0.297052,1.908126,54.970672,-0.037857,0.007507,0.995468,-0.009147,-0.015919,-0.021912,64.88623,22.961365,-147.563354,,,
729608649.823283,0.296051,1.900906,54.967356,-0.041489,-0.004639,0.997116,0.002064,-0.01228,-0.013396,64.88623,22.961365,-147.563354,,,
729608649.826581,0.298183,1.899038,54.964765,-0.041489,-0.004639,0.997116,0.002064,-0.01228,-0.013396,64.88623,22.961365,-147.563354,,,
729608649.829948,0.298183,1.899038,54.964765,-0.041489,-0.004639,0.997116,0.002064,-0.01228,-0.013396,64.88623,22.961365,-147.563354,,,
729608649.833258,0.300165,1.897216,54.96196,-0.033234,0.000305,1.00267,0.011264,-0.001091,-0.010641,64.88623,22.961365,-147.563354,,,
729608649.836447,0.303429,1.896906,54.958392,-0.033234,0.000305,1.00267,0.011264,-0.001091,-0.010641,64.881058,22.794952,-147.721695,,,
729608649.839944,0.303429,1.896906,54.958392,-0.033234,0.000305,1.00267,0.011264,-0.001091,-0.010641,64.881058,22.794952,-147.721695,,,
729608649.84325,0.306145,1.897653,54.954395,-0.032318,0.009171,0.998581,0.011827,0.006829,-0.015063,64.881058,22.794952,-147.721695,,,
729608649.846585,0.308543,1.901258,54.95043,-0.032318,0.009171,0.998581,0.011827,0.006829,-0.015063,64.881058,22.794952,-147.721695,,,
729608649.849994,0.308543,1.901258,54.95043,-0.032318,0.009171,0.998581,0.011827,0.006829,-0.015063,64.881058,22.794952,-147.721695,,,
729608649.853105,0.311296,1.906126,54.946753,-0.034363,0.011734,1.000183,0.007029,0.024454,-0.011515,64.881058,22.794952,-147.721695,,,
729608649.856592,0.313814,1.911514,54.943186,-0.034363,0.011734,1.000183,0.007029,0.024454,-0.011515,64.881058,22.794952,-147.721695,,,
729608649.859918,0.313814,1.911514,54.943186,-0.034363,0.011734,1.000183,0.007029,0.024454,-0.011515,64.881058,22.794952,-147.721695,,,
729608649.863316,0.317414,1.914594,54.939697,-0.031235,0.008224,0.999039,0.013362,0.017396,-0.013292,64.881058,22.794952,-147.721695,,,
729608649.866569,0.321591,1.91641,54.936272,-0.031235,0.008224,0.999039,0.013362,0.017396,-0.013292,64.881058,22.794952,-147.721695,,,
729608649.869714,0.321591,1.91641,54.936272,-0.031235,0.008224,0.999039,0.013362,0.017396,-0.013292,64.881058,22.794952,-147.721695,,,
729608649.873281,0.325227,1.919257,54.931795,-0.02861,0.008957,0.997055,0.017949,0.001826,-0.015645,64.881058,22.794952,-147.721695,,,
729608649.876564,0.32937,1.917554,54.925882,-0.02861,0.008957,0.997055,0.017949,0.001826,-0.015645,64.732925,22.71431,-148.009903,,,
729608649.879912,0.32937,1.917554,54.925882,-0.02861,0.008957,0.997055,0.017949,0.001826,-0.015645,64.732925,22.71431,-148.009903,,,
729608649.883254,0.332583,1.918396,54.918758,-0.025909,0.01326,0.994904,0.011554,-0.006184,-0.026766,64.732925,22.71431,-148.009903,,,
729608649.886409,0.333984,1.914434,54.91044,-0.025909,0.01326,0.994904,0.011554,-0.006184,-0.026766,64.732925,22.71431,-148.009903,,,
729608649.890008,0.333984,1.914434,54.91044,-0.025909,0.01326,0.994904,0.011554,-0.006184,-0.026766,64.732925,22.71431,-148.009903,,,
729608649.893257,0.335584,1.911172,54.901259,-0.025879,0.018951,0.993729,0.00361,-0.012399,-0.035161,64.732925,22.71431,-148.009903,,,
729608649.896575,0.334846,1.906816,54.891959,-0.025879,0.018951,0.993729,0.00361,-0.012399,-0.035161,64.732925,22.71431,-148.009903,,,
729608649.899918,0.334846,1.906816,54.891959,-0.025879,0.018951,0.993729,0.00361,-0.012399,-0.035161,64.732925,22.71431,-148.009903,,,
729608649.903151,0.332162,1.904262,54.88287,-0.026505,0.011185,0.996613,-0.002589,-0.014081,-0.035425,64.732925,22.71431,-148.009903,,,
729608649.906582,0.331627,1.898065,54.873736,-0.026505,0.011185,0.996613,-0.002589,-0.014081,-0.035425,64.732925,22.71431,-148.009903,,,
729608649.909923,0.331627,1.898065,54.873736,-0.026505,0.011185,0.996613,-0.002589,-0.014081,-0.035425,64.732925,22.71431,-148.009903,,,
729608649.913254,0.328107,1.892849,54.864423,-0.027863,0.005508,1.001312,-0.001758,-0.018211,-0.037074,64.732925,22.71431,-148.009903,,,
729608649.916564,0.326827,1.887756,54.854619,-0.027863,0.005508,1.001312,-0.001758,-0.018211,-0.037074,64.845825,22.624832,-148.134995,,,
729608649.919757,0.326827,1.887756,54.854619,-0.027863,0.005508,1.001312,-0.001758,-0.018211,-0.037074,64.845825,22.624832,-148.134995,,,
729608649.923275,0.32584,1.882944,54.844234,-0.032089,0.004898,1.004242,-0.001362,-0.013943,-0.039505,64.845825,22.624832,-148.134995,,,
729608649.926568,0.324851,1.878896,54.834278,-0.032089,0.004898,1.004242,-0.001362,-0.013943,-0.039505,64.845825,22.624832,-148.134995,,,
729608649.929991,0.324851,1.878896,54.834278,-0.032089,0.004898,1.004242,-0.001362,-0.013943,-0.039505,64.845825,22.624832,-148.134995,,,
729608649.933241,0.325953,1.875296,54.825243,-0.035217,0.005417,1.008591,0.003442,-0.013906,-0.03325,64.845825,22.624832,-148.134995,,,
729608649.936406,0.326608,1.870461,54.816759,-0.035217,0.005417,1.008591,0.003442,-0.013906,-0.03325,64.845825,22.624832,-148.134995,,,
729608649.939946,0.326608,1.870461,54.816759,-0.035217,0.005417,1.008591,0.003442,-0.013906,-0.03325,64.845825,22.624832,-148.134995,,,
729608649.943305,0.329413,1.864231,54.807909,-0.037277,0.003204,1.007889,0.00498,-0.018032,-0.035541,64.845825,22.624832,-148.134995,,,
729608649.946567,0.332026,1.857288,54.797957,-0.037277,0.003204,1.007889,0.00498,-0.018032,-0.035541,64.845825,22.624832,-148.134995,,,
729608649.949924,0.332026,1.857288,54.797957,-0.037277,0.003204,1.007889,0.00498,-0.018032,-0.035541,64.845825,22.624832,-148.134995,,,
729608649.953235,0.336532,1.849452,54.786337,-0.035446,0.001312,1.008316,0.015884,-0.021828,-0.038948,64.845825,22.624832,-148.134995,,,
729608649.956693,0.341979,1.843385,54.773627,-0.035446,0.001312,1.008316,0.015884,-0.021828,-0.038948,64.845825,22.624832,-148.134995,,,
729608649.959915,0.341979,1.843385,54.773627,-0.035446,0.001312,1.008316,0.015884,-0.021828,-0.038948,64.686523,22.632034,-147.893982,,,
729608649.963274,0.349992,1.836968,54.760391,-0.031754,0.004486,1.006042,0.024629,-0.016602,-0.046556,64.686523,22.632034,-147.893982,,,
729608649.966563,0.356611,1.833702,54.746738,-0.031754,0.004486,1.006042,0.024629,-0.016602,-0.046556,64.686523,22.632034,-147.893982,,,
729608649.969791,0.356611,1.833702,54.746738,-0.031754,0.004486,1.006042,0.024629,-0.016602,-0.046556,64.686523,22.632034,-147.893982,,,
729608649.97328,0.36637,1.829508,54.733697,-0.031769,0.009155,1.000687,0.024835,-0.005601,-0.04559,64.686523,22.632034,-147.893982,,,
729608649.97657,0.371493,1.827913,54.721524,-0.031769,0.009155,1.000687,0.024835,-0.005601,-0.04559,64.686523,22.632034,-147.893982,,,
729608649.979922,0.371493,1.827913,54.721524,-0.031769,0.009155,1.000687,0.024835,-0.005601,-0.04559,64.686523,22.632034,-147.893982,,,
729608649.98331,0.37715,1.824779,54.70976,-0.032425,0.009521,0.990952,0.014697,-0.003823,-0.040099,64.686523,22.632034,-147.893982,,,
729608649.98641,0.378799,1.823519,54.698293,-0.032425,0.009521,0.990952,0.014697,-0.003823,-0.040099,64.686523,22.632034,-147.893982,,,
729608649.989931,0.378799,1.823519,54.698293,-0.032425,0.009521,0.990952,0.014697,-0.003823,-0.040099,64.686523,22.632034,-147.893982,,,
729608649.993258,0.378438,1.821079,54.687595,-0.031738,0.010162,0.983337,0.001184,-0.001335,-0.037983,64.686523,22.632034,-147.893982,,,
729608649.996572,0.376722,1.820407,54.677511,-0.031738,0.010162,0.983337,0.001184,-0.001335,-0.037983,64.686523,22.632034,-147.893982,,,
729608649.999904,0.376722,1.820407,54.677511,-0.031738,0.010162,0.983337,0.001184,-0.001335,-0.037983,64.84903,22.814392,-147.924255,,,
729608650.003096,0.374585,1.818415,54.668855,-0.032486,0.010468,0.980911,-0.004268,-0.004765,-0.032588,64.84903,22.814392,-147.924255,,,
729608650.006598,0.373404,1.815878,54.662372,-0.032486,0.010468,0.980911,-0.004268,-0.004765,-0.032588,64.84903,22.814392,-147.924255,,,
729608650.009867,0.373404,1.815878,54.662372,-0.032486,0.010468,0.980911,-0.004268,-0.004765,-0.032588,64.84903,22.814392,-147.924255,,,
729608650.013265,0.372687,1.814068,54.657115,-0.030258,0.011169,0.98262,0.000443,-0.008573,-0.020976,64.84903,22.814392,-147.924255,,,
729608650.01657,0.372116,1.812112,54.652615,-0.030258,0.011169,0.98262,0.000443,-0.008573,-0.020976,64.84903,22.814392,-147.924255,,,
729608650.019818,0.372116,1.812112,54.652615,-0.030258,0.011169,0.98262,0.000443,-0.008573,-0.020976,64.84903,22.814392,-147.924255,,,
729608650.023271,0.370272,1.812537,54.648822,-0.023331,0.014008,0.980728,8e-05,-0.000399,-0.014784,64.84903,22.814392,-147.924255,,,
729608650.026595,0.367904,1.812472,54.645499,-0.023331,0.014008,0.980728,8e-05,-0.000399,-0.014784,64.84903,22.814392,-147.924255,,,
729608650.029918,0.367904,1.812472,54.645499,-0.023331,0.014008,0.980728,8e-05,-0.000399,-0.014784,64.84903,22.814392,-147.924255,,,
729608650.033312,0.36217,1.81556,54.642505,-0.021652,0.021561,0.976273,-0.014202,0.009686,-0.011661,64.84903,22.814392,-147.924255,,,
729608650.036415,0.356167,1.81855,54.639603,-0.021652,0.021561,0.976273,-0.014202,0.009686,-0.011661,64.84903,22.814392,-147.924255,,,
729608650.039931,0.356167,1.81855,54.639603,-0.021652,0.021561,0.976273,-0.014202,0.009686,-0.011661,64.857513,22.563766,-148.015518,,,
729608650.043259,0.347514,1.823084,54.636662,-0.024094,0.026276,0.973969,-0.027565,0.012779,-0.011103,64.857513,22.563766,-148.015518,,,
729608650.046575,0.337372,1.827827,54.63427,-0.024094,0.026276,0.973969,-0.027565,0.012779,-0.011103,64.857513,22.563766,-148.015518,,,
729608650.049906,0.337372,1.827827,54.63427,-0.024094,0.026276,0.973969,-0.027565,0.012779,-0.011103,64.857513,22.563766,-148.015518,,,
729608650.05309,0.326312,1.832305,54.632723,-0.028748,0.022781,0.975388,-0.039286,0.021797,-0.008622,64.857513,22.563766,-148.015518,,,
729608650.056651,0.314564,1.837288,54.632199,-0.028748,0.022781,0.975388,-0.039286,0.021797,-0.008622,64.857513,22.563766,-148.015518,,,
729608650.059976,0.314564,1.837288,54.632199,-0.028748,0.022781,0.975388,-0.039286,0.021797,-0.008622,64.857513,22.563766,-148.015518,,,
729608650.063256,0.303653,1.842542,54.632721,-0.037827,0.016525,0.985443,-0.043141,0.019224,-0.002863,64.857513,22.563766,-148.015518,,,
729608650.066569,0.292171,1.846912,54.634427,-0.037827,0.016525,0.985443,-0.043141,0.019224,-0.002863,64.857513,22.563766,-148.015518,,,
729608650.069697,0.292171,1.846912,54.634427,-0.037827,0.016525,0.985443,-0.043141,0.019224,-0.002863,64.857513,22.563766,-148.015518,,,
729608650.07335,0.283109,1.849894,54.637229,-0.045547,0.011017,0.991821,-0.034556,0.013262,0.006451,64.857513,22.563766,-148.015518,,,
729608650.076563,0.273637,1.852514,54.641181,-0.045547,0.011017,0.991821,-0.034556,0.013262,0.006451,64.857513,22.563766,-148.015518,,,
729608650.079911,0.273637,1.852514,54.641181,-0.045547,0.011017,0.991821,-0.034556,0.013262,0.006451,64.776596,22.826431,-148.167648,,,
729608650.083264,0.266531,1.855724,54.645892,-0.048492,0.009781,1.001328,-0.027752,0.012512,0.016132,64.776596,22.826431,-148.167648,,,
729608650.086416,0.257962,1.859363,54.650657,-0.048492,0.009781,1.001328,-0.027752,0.012512,0.016132,64.776596,22.826431,-148.167648,,,
729608650.090005,0.257962,1.859363,54.650657,-0.048492,0.009781,1.001328,-0.027752,0.012512,0.016132,64.776596,22.826431,-148.167648,,,
729608650.093294,0.25103,1.862826,54.655715,-0.046616,0.010666,1.002869,-0.029042,0.015229,0.01392,64.776596,22.826431,-148.167648,,,
729608650.096582,0.243057,1.86608,54.661808,-0.046616,0.010666,1.002869,-0.029042,0.015229,0.01392,64.776596,22.826431,-148.167648,,,
729608650.100013,0.243057,1.86608,54.661808,-0.046616,0.010666,1.002869,-0.029042,0.015229,0.01392,64.776596,22.826431,-148.167648,,,
729608650.103104,0.237878,1.867202,54.66848,-0.048203,0.010971,1.002594,-0.026265,0.012973,0.017873,64.776596,22.826431,-148.167648,,,
729608650.106592,0.229679,1.869275,54.675084,-0.048203,0.010971,1.002594,-0.026265,0.012973,0.017873,64.776596,22.826431,-148.167648,,,
729608650.109941,0.229679,1.869275,54.675084,-0.048203,0.010971,1.002594,-0.026265,0.012973,0.017873,64.776596,22.826431,-148.167648,,,
729608650.113322,0.225819,1.866346,54.681729,-0.0448,0.009369,1.002258,-0.029524,0.005642,0.019637,64.776596,22.826431,-148.167648,,,
729608650.116573,0.218583,1.865666,54.687731,-0.0448,0.009369,1.002258,-0.029524,0.005642,0.019637,64.776596,22.826431,-148.167648,,,
729608650.119766,0.218583,1.865666,54.687731,-0.0448,0.009369,1.002258,-0.029524,0.005642,0.019637,64.776596,22.826431,-148.167648,,,
729608650.123288,0.219494,1.860952,54.693709,-0.043854,0.00824,1.007446,-0.020986,-0.003243,0.017569,65.012619,22.727051,-147.83226,,,
729608650.126577,0.21507,1.858636,54.699977,-0.043854,0.00824,1.007446,-0.020986,-0.003243,0.017569,65.012619,22.727051,-147.83226,,,
729608650.129923,0.21507,1.858636,54.699977,-0.043854,0.00824,1.007446,-0.020986,-0.003243,0.017569,65.012619,22.727051,-147.83226,,,
729608650.133258,0.217985,1.85572,54.706714,-0.04454,0.003326,1.016296,-0.009883,-0.003183,0.021827,65.012619,22.727051,-147.83226,,,
729608650.136404,0.215771,1.855187,54.714872,-0.04454,0.003326,1.016296,-0.009883,-0.003183,0.021827,65.012619,22.727051,-147.83226,,,
729608650.139998,0.215771,1.855187,54.714872,-0.04454,0.003326,1.016296,-0.009883,-0.003183,0.021827,65.012619,22.727051,-147.83226,,,
729608650.143242,0.218368,1.856504,54.723842,-0.042007,0.001205,1.019699,-0.007409,0.006317,0.031389,65.012619,22.727051,-147.83226,,,
729608650.14658,0.217777,1.858438,54.733168,-0.042007,0.001205,1.019699,-0.007409,0.006317,0.031389,65.012619,22.727051,-147.83226,,,
729608650.149926,0.217777,1.858438,54.733168,-0.042007,0.001205,1.019699,-0.007409,0.006317,0.031389,65.012619,22.727051,-147.83226,,,
729608650.153079,0.221449,1.865005,54.742671,-0.035263,0.000717,1.024368,0.004073,0.014536,0.030077,65.012619,22.727051,-147.83226,,,
729608650.156594,0.224513,1.868862,54.751408,-0.035263,0.000717,1.024368,0.004073,0.014536,0.030077,65.012619,22.727051,-147.83226,,,
729608650.159914,0.224513,1.868862,54.751408,-0.035263,0.000717,1.024368,0.004073,0.014536,0.030077,65.012619,22.727051,-147.83226,,,
729608650.163243,0.230547,1.878856,54.758635,-0.023758,0.001053,1.021408,0.015661,0.021401,0.023236,65.030899,22.770767,-147.854904,,,
729608650.166562,0.235362,1.885143,54.764424,-0.023758,0.001053,1.021408,0.015661,0.021401,0.023236,65.030899,22.770767,-147.854904,,,
729608650.169759,0.235362,1.885143,54.764424,-0.023758,0.001053,1.021408,0.015661,0.021401,0.023236,65.030899,22.770767,-147.854904,,,
729608650.173279,0.241784,1.896438,54.768565,-0.01828,0.00206,1.018951,0.017308,0.032192,0.0119,65.030899,22.770767,-147.854904,,,
729608650.176566,0.24664,1.903912,54.771098,-0.01828,0.00206,1.018951,0.017308,0.032192,0.0119,65.030899,22.770767,-147.854904,,,
729608650.17997,0.24664,1.903912,54.771098,-0.01828,0.00206,1.018951,0.017308,0.032192,0.0119,65.030899,22.770767,-147.854904,,,
729608650.18323,0.253606,1.915828,54.773219,-0.027206,-0.003021,1.012131,0.014344,0.03012,0.006511,65.030899,22.770767,-147.854904,,,
729608650.186412,0.257472,1.922442,54.776031,-0.027206,-0.003021,1.012131,0.014344,0.03012,0.006511,65.030899,22.770767,-147.854904,,,
729608650.189944,0.257472,1.922442,54.776031,-0.027206,-0.003021,1.012131,0.014344,0.03012,0.006511,65.030899,22.770767,-147.854904,,,
729608650.193268,0.262022,1.93163,54.779883,-0.032593,-0.008652,1.006851,0.010257,0.021657,0.012973,65.030899,22.770767,-147.854904,,,
729608650.196565,0.265203,1.935785,54.783847,-0.032593,-0.008652,1.006851,0.010257,0.021657,0.012973,65.030899,22.770767,-147.854904,,,
729608650.199912,0.265203,1.935785,54.783847,-0.032593,-0.008652,1.006851,0.010257,0.021657,0.012973,65.030899,22.770767,-147.854904,,,
729608650.203064,0.269981,1.942352,54.78729,-0.033951,-0.011734,1.004929,0.013501,0.015341,0.011744,65.147705,22.683395,-147.720123,,,
729608650.206595,0.274095,1.945451,54.790226,-0.033951,-0.011734,1.004929,0.013501,0.015341,0.011744,65.147705,22.683395,-147.720123,,,
729608650.209921,0.274095,1.945451,54.790226,-0.033951,-0.011734,1.004929,0.013501,0.015341,0.011744,65.147705,22.683395,-147.720123,,,
729608650.213255,0.278672,1.951602,54.79209,-0.033875,-0.009552,1.010574,0.017253,0.012064,0.003082,65.147705,22.683395,-147.720123,,,
729608650.216566,0.283257,1.95448,54.793243,-0.033875,-0.009552,1.010574,0.017253,0.012064,0.003082,65.147705,22.683395,-147.720123,,,
729608650.21977,0.283257,1.95448,54.793243,-0.033875,-0.009552,1.010574,0.017253,0.012064,0.003082,65.147705,22.683395,-147.720123,,,
729608650.223297,0.286759,1.959504,54.794411,-0.035049,-0.009369,1.003448,0.018315,0.009223,0.004605,65.147705,22.683395,-147.720123,,,
729608650.226574,0.290605,1.961179,54.796211,-0.035049,-0.009369,1.003448,0.018315,0.009223,0.004605,65.147705,22.683395,-147.720123,,,
729608650.229919,0.290605,1.961179,54.796211,-0.035049,-0.009369,1.003448,0.018315,0.009223,0.004605,65.147705,22.683395,-147.720123,,,
729608650.233316,0.292178,1.96248,54.798831,-0.035004,-0.010162,0.997375,0.012415,0.006858,0.008772,65.147705,22.683395,-147.720123,,,
729608650.236439,0.29488,1.961179,54.801658,-0.035004,-0.010162,0.997375,0.012415,0.006858,0.008772,65.147705,22.683395,-147.720123,,,
729608650.23993,0.29488,1.961179,54.801658,-0.035004,-0.010162,0.997375,0.012415,0.006858,0.008772,65.147705,22.683395,-147.720123,,,
729608650.243236,0.295914,1.956131,54.803944,-0.030426,-0.010147,0.991211,0.004971,-0.007069,0.006956,64.99614,22.551483,-147.66304,,,
729608650.24657,0.297517,1.95195,54.805457,-0.030426,-0.010147,0.991211,0.004971,-0.007069,0.006956,64.99614,22.551483,-147.66304,,,
729608650.24991,0.297517,1.95195,54.805457,-0.030426,-0.010147,0.991211,0.004971,-0.007069,0.006956,64.99614,22.551483,-147.66304,,,
729608650.253079,0.298725,1.941046,54.806484,-0.019577,-0.004913,0.987579,0.007105,-0.017265,0.000947,64.99614,22.551483,-147.66304,,,
729608650.25659,0.301177,1.933719,54.806968,-0.019577,-0.004913,0.987579,0.007105,-0.017265,0.000947,64.99614,22.551483,-147.66304,,,
729608650.259945,0.301177,1.933719,54.806968,-0.019577,-0.004913,0.987579,0.007105,-0.017265,0.000947,64.99614,22.551483,-147.66304,,,
729608650.263235,0.302388,1.921951,54.806695,-0.010986,-0.002884,0.986618,0.012368,-0.02885,-0.000391,64.99614,22.551483,-147.66304,,,
729608650.266568,0.304028,1.913589,54.804815,-0.010986,-0.002884,0.986618,0.012368,-0.02885,-0.000391,64.99614,22.551483,-147.66304,,,
729608650.269729,0.304028,1.913589,54.804815,-0.010986,-0.002884,0.986618,0.012368,-0.02885,-0.000391,64.99614,22.551483,-147.66304,,,
729608650.273328,0.300167,1.906389,54.800295,-0.00087,0.002716,0.981995,0.001489,-0.022473,-0.01788,64.99614,22.551483,-147.66304,,,
729608650.276556,0.297105,1.902205,54.793183,-0.00087,0.002716,0.981995,0.001489,-0.022473,-0.01788,64.99614,22.551483,-147.66304,,,
729608650.279922,0.297105,1.902205,54.793183,-0.00087,0.002716,0.981995,0.001489,-0.022473,-0.01788,64.99614,22.551483,-147.66304,,,
729608650.283253,0.286471,1.900647,54.78394,0.00444,0.012726,0.978897,-0.020374,-0.004331,-0.03381,64.99614,22.551483,-147.66304,,,
729608650.286444,0.277455,1.900773,54.773452,0.00444,0.012726,0.978897,-0.020374,-0.004331,-0.03381,64.921402,22.841415,-147.672302,,,
729608650.289933,0.277455,1.900773,54.773452,0.00444,0.012726,0.978897,-0.020374,-0.004331,-0.03381,64.921402,22.841415,-147.672302,,,
729608650.29325,0.260876,1.90318,54.762355,6.1e-05,0.009872,0.97551,-0.042362,0.011092,-0.042901,64.921402,22.841415,-147.672302,,,
729608650.296568,0.24515,1.908108,54.750639,6.1e-05,0.009872,0.97551,-0.042362,0.011092,-0.042901,64.921402,22.841415,-147.672302,,,
729608650.299959,0.24515,1.908108,54.750639,6.1e-05,0.009872,0.97551,-0.042362,0.011092,-0.042901,64.921402,22.841415,-147.672302,,,
729608650.303084,0.223458,1.914751,54.738352,-0.005829,0.005005,0.971786,-0.059562,0.024411,-0.047697,64.921402,22.841415,-147.672302,,,
729608650.306584,0.204573,1.921634,54.725224,-0.005829,0.005005,0.971786,-0.059562,0.024411,-0.047697,64.921402,22.841415,-147.672302,,,
729608650.309921,0.204573,1.921634,54.725224,-0.005829,0.005005,0.971786,-0.059562,0.024411,-0.047697,64.921402,22.841415,-147.672302,,,
729608650.313296,0.182373,1.930649,54.711735,-0.014343,0.000198,0.975128,-0.061849,0.031081,-0.04991,64.921402,22.841415,-147.672302,,,
729608650.316603,0.164904,1.940996,54.698582,-0.014343,0.000198,0.975128,-0.061849,0.031081,-0.04991,64.921402,22.841415,-147.672302,,,
729608650.319747,0.164904,1.940996,54.698582,-0.014343,0.000198,0.975128,-0.061849,0.031081,-0.04991,64.921402,22.841415,-147.672302,,,
729608650.323277,0.143115,1.952801,54.686069,-0.021713,-0.003845,0.982391,-0.060735,0.044356,-0.045953,64.921402,22.841415,-147.672302,,,
729608650.326612,0.1248,1.965778,54.674398,-0.021713,-0.003845,0.982391,-0.060735,0.044356,-0.045953,64.957275,22.967606,-147.577011,,,
729608650.329915,0.1248,1.965778,54.674398,-0.021713,-0.003845,0.982391,-0.060735,0.044356,-0.045953,64.957275,22.967606,-147.577011,,,
729608650.333238,0.104383,1.975661,54.66257,-0.014282,-0.004013,0.980072,-0.061979,0.054295,-0.045569,64.957275,22.967606,-147.577011,,,
729608650.336412,0.086765,1.98819,54.649238,-0.014282,-0.004013,0.980072,-0.061979,0.054295,-0.045569,64.957275,22.967606,-147.577011,,,
729608650.34001,0.086765,1.98819,54.649238,-0.014282,-0.004013,0.980072,-0.061979,0.054295,-0.045569,64.957275,22.967606,-147.577011,,,
729608650.343237,0.067894,1.993265,54.63348,-0.018539,-0.001129,0.980362,-0.055185,0.039701,-0.057004,64.957275,22.967606,-147.577011,,,
729608650.346578,0.05079,2.002462,54.616052,-0.018539,-0.001129,0.980362,-0.055185,0.039701,-0.057004,64.957275,22.967606,-147.577011,,,
729608650.349918,0.05079,2.002462,54.616052,-0.018539,-0.001129,0.980362,-0.055185,0.039701,-0.057004,64.957275,22.967606,-147.577011,,,
729608650.353064,0.032619,2.003295,54.597976,-0.030609,-0.00235,0.980682,-0.059217,0.031972,-0.066937,64.957275,22.967606,-147.577011,,,
729608650.356607,0.013225,2.011281,54.579587,-0.030609,-0.00235,0.980682,-0.059217,0.031972,-0.066937,64.957275,22.967606,-147.577011,,,
729608650.35993,0.013225,2.011281,54.579587,-0.030609,-0.00235,0.980682,-0.059217,0.031972,-0.066937,64.957275,22.967606,-147.577011,,,
729608650.363232,-0.005538,2.009453,54.561684,-0.038605,-0.005005,0.980972,-0.073296,0.026313,-0.066488,64.957275,22.967606,-147.577011,,,
729608650.366616,-0.026821,2.014265,54.54484,-0.038605,-0.005005,0.980972,-0.073296,0.026313,-0.066488,65.223831,22.876236,-147.560242,,,
729608650.369786,-0.026821,2.014265,54.54484,-0.038605,-0.005005,0.980972,-0.073296,0.026313,-0.066488,65.223831,22.876236,-147.560242,,,
729608650.373324,-0.04536,2.009271,54.528961,-0.047287,-0.008835,0.985535,-0.068848,0.012982,-0.05824,65.223831,22.876236,-147.560242,,,
729608650.376636,-0.065763,2.009728,54.513291,-0.047287,-0.008835,0.985535,-0.068848,0.012982,-0.05824,65.223831,22.876236,-147.560242,,,
729608650.379927,-0.065763,2.009728,54.513291,-0.047287,-0.008835,0.985535,-0.068848,0.012982,-0.05824,65.223831,22.876236,-147.560242,,,
729608650.383264,-0.084768,2.004184,54.497649,-0.04895,-0.006836,0.992538,-0.065539,0.000603,-0.058591,65.223831,22.876236,-147.560242,,,
729608650.386431,-0.084768,2.004545,54.481565,-0.04895,-0.006836,0.992538,-0.065539,0.000603,-0.058591,65.223831,22.876236,-147.560242,,,
729608650.389998,-0.104291,2.004545,54.481565,-0.04895,-0.006836,0.992538,-0.065539,0.000603,-0.058591,65.223831,22.876236,-147.560242,,,
729608650.393227,-0.122877,2.001686,54.465343,-0.049118,-0.003143,1.000748,-0.061838,0.009126,-0.060346,65.223831,22.876236,-147.560242,,,
729608650.396586,-0.122877,2.001686,54.465343,-0.049118,-0.003143,1.000748,-0.061838,0.009126,-0.060346,65.223831,22.876236,-147.560242,,,
729608650.399916,-0.141393,2.003736,54.449986,-0.049118,-0.003143,1.000748,-0.061838,0.009126,-0.060346,65.223831,22.876236,-147.560242,,,
729608650.403164,-0.158454,2.004902,54.43595,-0.053589,-0.002945,1.007263,-0.056131,0.016279,-0.052394,65.223831,22.876236,-147.560242,,,
729608650.406681,-0.173906,2.010596,54.423892,-0.053589,-0.002945,1.007263,-0.056131,0.016279,-0.052394,65.223831,22.876236,-147.560242,,,
729608650.409902,-0.173906,2.010596,54.423892,-0.053589,-0.002945,1.007263,-0.056131,0.016279,-0.052394,65.267899,23.1026,-147.646912,,,
729608650.413337,-0.187545,2.013831,54.414105,-0.05864,-0.008804,1.010864,-0.044481,0.026968,-0.039393,65.267899,23.1026,-147.646912,,,
729608650.416602,-0.198356,2.022412,54.406758,-0.05864,-0.008804,1.010864,-0.044481,0.026968,-0.039393,65.267899,23.1026,-147.646912,,,
729608650.419769,-0.198356,2.022412,54.406758,-0.05864,-0.008804,1.010864,-0.044481,0.026968,-0.039393,65.267899,23.1026,-147.646912,,,
729608650.423292,-0.206293,2.027327,54.401403,-0.061554,-0.013855,1.014618,-0.026576,0.036967,-0.022739,65.267899,23.1026,-147.646912,,,
729608650.426683,-0.212246,2.037717,54.397609,-0.061554,-0.013855,1.014618,-0.026576,0.036967,-0.022739,65.267899,23.1026,-147.646912,,,
729608650.429957,-0.212246,2.037717,54.397609,-0.061554,-0.013855,1.014618,-0.026576,0.036967,-0.022739,65.267899,23.1026,-147.646912,,,
729608650.433314,-0.216239,2.046424,54.394872,-0.061951,-0.006302,1.014069,-0.01387,0.041896,-0.013398,65.267899,23.1026,-147.646912,,,
729608650.436414,-0.216239,2.046424,54.394872,-0.061951,-0.006302,1.014069,-0.01387,0.041896,-0.013398,65.267899,23.1026,-147.646912,,,
729608650.439938,-0.220095,2.056842,54.392149,-0.061951,-0.006302,1.014069,-0.01387,0.041896,-0.013398,65.267899,23.1026,-147.646912,,,
729608650.443402,-0.224539,2.066514,54.388889,-0.053162,0.005814,1.00769,-0.014616,0.035739,-0.013265,65.267899,23.1026,-147.646912,,,
729608650.446578,-0.224539,2.066514,54.385478,-0.053162,0.005814,1.00769,-0.014616,0.035739,-0.013265,65.267899,23.1026,-147.646912,,,
729608650.449913,-0.230423,2.075038,54.385478,-0.053162,0.005814,1.00769,-0.014616,0.035739,-0.013265,65.150818,23.207764,-147.642075,,,
729608650.453083,-0.238451,2.084982,54.381871,-0.053375,0.009338,1.005081,-0.024748,0.025764,-0.012446,65.150818,23.207764,-147.642075,,,
729608650.456637,-0.2468,2.089356,54.378557,-0.053375,0.009338,1.005081,-0.024748,0.025764,-0.012446,65.150818,23.207764,-147.642075,,,
729608650.459926,-0.2468,2.089356,54.378557,-0.053375,0.009338,1.005081,-0.024748,0.025764,-0.012446,65.150818,23.207764,-147.642075,,,
729608650.463245,-0.257399,2.095134,54.37615,-0.053421,0.006363,0.998825,-0.033166,0.010835,-0.011297,65.150818,23.207764,-147.642075,,,
729608650.466596,-0.257399,2.095134,54.37615,-0.053421,0.006363,0.998825,-0.033166,0.010835,-0.011297,65.150818,23.207764,-147.642075,,,
729608650.469851,-0.26776,2.094339,54.373995,-0.053421,0.006363,0.998825,-0.033166,0.010835,-0.011297,65.150818,23.207764,-147.642075,,,
729608650.473262,-0.279218,2.095032,54.371657,-0.048615,0.007004,0.999069,-0.03837,-0.009934,-0.010669,65.150818,23.207764,-147.642075,,,
729608650.476593,-0.279218,2.095032,54.371657,-0.048615,0.007004,0.999069,-0.03837,-0.009934,-0.010669,65.150818,23.207764,-147.642075,,,
729608650.47998,-0.290795,2.089545,54.36963,-0.048615,0.007004,0.999069,-0.03837,-0.009934,-0.010669,65.150818,23.207764,-147.642075,,,
729608650.483235,-0.300529,2.086984,54.368418,-0.047592,0.005341,1.002518,-0.037005,-0.023483,-0.005283,65.150818,23.207764,-147.642075,,,
729608650.486579,-0.300529,2.086984,54.368418,-0.047592,0.005341,1.002518,-0.037005,-0.023483,-0.005283,65.150818,23.207764,-147.642075,,,
729608650.489915,-0.309378,2.078916,54.368062,-0.047592,0.005341,1.002518,-0.037005,-0.023483,-0.005283,65.333679,23.329376,-147.853577,,,
729608650.493233,-0.316083,2.076403,54.368398,-0.043686,0.000717,1.012878,-0.021752,-0.025987,-0.002319,65.333679,23.329376,-147.853577,,,
729608650.496607,-0.316083,2.076403,54.368398,-0.043686,0.000717,1.012878,-0.021752,-0.025987,-0.002319,65.333679,23.329376,-147.853577,,,
729608650.499923,-0.319195,2.068055,54.36937,-0.043686,0.000717,1.012878,-0.021752,-0.025987,-0.002319,65.333679,23.329376,-147.853577,,,
729608650.503236,-0.320543,2.06802,54.371295,-0.041199,-0.002716,1.021347,0.003166,-0.023164,0.004389,65.333679,23.329376,-147.853577,,,
729608650.506563,-0.320543,2.06802,54.371295,-0.041199,-0.002716,1.021347,0.003166,-0.023164,0.004389,65.333679,23.329376,-147.853577,,,
729608650.509966,-0.316807,2.061782,54.374095,-0.041199,-0.002716,1.021347,0.003166,-0.023164,0.004389,65.333679,23.329376,-147.853577,,,
729608650.51323,-0.310816,2.064829,54.378521,-0.039688,-0.006271,1.02243,0.023688,-0.01497,0.014513,65.333679,23.329376,-147.853577,,,
729608650.51658,-0.310816,2.064829,54.378521,-0.039688,-0.006271,1.02243,0.023688,-0.01497,0.014513,65.333679,23.329376,-147.853577,,,
729608650.519917,-0.300598,2.061865,54.384414,-0.039688,-0.006271,1.02243,0.023688,-0.01497,0.014513,65.333679,23.329376,-147.853577,,,
729608650.523242,-0.287385,2.067894,54.390641,-0.036057,-0.004379,1.021057,0.04053,0.005389,0.022124,65.333679,23.329376,-147.853577,,,
729608650.526568,-0.287385,2.067894,54.390641,-0.036057,-0.004379,1.021057,0.04053,0.005389,0.022124,65.333679,23.329376,-147.853577,,,
729608650.529902,-0.275587,2.071044,54.396384,-0.036057,-0.004379,1.021057,0.04053,0.005389,0.022124,65.110367,23.28241,-147.857666,,,
729608650.533238,-0.259814,2.082735,54.401572,-0.026596,0.003067,1.016479,0.042261,0.026386,0.019547,65.110367,23.28241,-147.857666,,,
729608650.536659,-0.259814,2.082735,54.401572,-0.026596,0.003067,1.016479,0.042261,0.026386,0.019547,65.110367,23.28241,-147.857666,,,
729608650.539905,-0.248078,2.092387,54.406338,-0.026596,0.003067,1.016479,0.042261,0.026386,0.019547,65.110367,23.28241,-147.857666,,,
729608650.543236,-0.233508,2.108534,54.410787,-0.025558,0.005829,1.014099,0.040965,0.044628,0.014711,65.110367,23.28241,-147.857666,,,
729608650.546575,-0.233508,2.108534,54.410787,-0.025558,0.005829,1.014099,0.040965,0.044628,0.014711,65.110367,23.28241,-147.857666,,,
729608650.549972,-0.221335,2.120323,54.41489,-0.025558,0.005829,1.014099,0.040965,0.044628,0.014711,65.110367,23.28241,-147.857666,,,
729608650.553225,-0.206076,2.13514,54.418327,-0.029007,0.005493,1.004929,0.040711,0.043672,0.012203,65.110367,23.28241,-147.857666,,,
729608650.556567,-0.206076,2.13514,54.418327,-0.029007,0.005493,1.004929,0.040711,0.043672,0.012203,65.110367,23.28241,-147.857666,,,
729608650.559924,-0.193244,2.144575,54.420376,-0.029007,0.005493,1.004929,0.040711,0.043672,0.012203,65.110367,23.28241,-147.857666,,,
729608650.563238,-0.17881,2.153366,54.420688,-0.029343,0.005997,0.995331,0.041356,0.025503,-0.000395,65.110367,23.28241,-147.857666,,,
729608650.566577,-0.17881,2.153366,54.420688,-0.029343,0.005997,0.995331,0.041356,0.025503,-0.000395,65.110367,23.28241,-147.857666,,,
729608650.569908,-0.16802,2.15612,54.419228,-0.029343,0.005997,0.995331,0.041356,0.025503,-0.000395,65.110367,23.28241,-147.857666,,,
729608650.573243,-0.156912,2.158044,54.417009,-0.031616,0.010437,0.984955,0.034152,0.003101,-0.007259,65.315079,23.311218,-148.136185,,,
729608650.576642,-0.156912,2.158044,54.417009,-0.031616,0.010437,0.984955,0.034152,0.003101,-0.007259,65.315079,23.311218,-148.136185,,,
729608650.579915,-0.147647,2.153641,54.414759,-0.031616,0.010437,0.984955,0.034152,0.003101,-0.007259,65.315079,23.311218,-148.136185,,,
729608650.583248,-0.137581,2.146903,54.412851,-0.035843,0.006042,0.983688,0.037078,-0.023897,-0.009695,65.315079,23.311218,-148.136185,,,
729608650.586582,-0.137581,2.146903,54.412851,-0.035843,0.006042,0.983688,0.037078,-0.023897,-0.009695,65.315079,23.311218,-148.136185,,,
729608650.589967,-0.127791,2.136585,54.411545,-0.035843,0.006042,0.983688,0.037078,-0.023897,-0.009695,65.315079,23.311218,-148.136185,,,
729608650.59323,-0.119875,2.125703,54.411365,-0.042313,-0.000885,0.982788,0.032766,-0.038505,-0.002683,65.315079,23.311218,-148.136185,,,
729608650.596585,-0.119875,2.125703,54.411365,-0.042313,-0.000885,0.982788,0.032766,-0.038505,-0.002683,65.315079,23.311218,-148.136185,,,
729608650.59995,-0.112381,2.115703,54.41237,-0.042313,-0.000885,0.982788,0.032766,-0.038505,-0.002683,65.315079,23.311218,-148.136185,,,
729608650.603239,-0.106988,2.107758,54.414064,-0.043945,0.000183,0.987839,0.023739,-0.025748,0.004266,65.315079,23.311218,-148.136185,,,
729608650.606566,-0.106988,2.107758,54.414064,-0.043945,0.000183,0.987839,0.023739,-0.025748,0.004266,65.315079,23.311218,-148.136185,,,
729608650.609909,-0.100768,2.101651,54.416424,-0.043945,0.000183,0.987839,0.023739,-0.025748,0.004266,65.315079,23.311218,-148.136185,,,
729608650.613252,-0.093843,2.096073,54.418788,-0.043228,0.001694,0.997238,0.021718,-0.006913,0.01017,65.197327,23.320618,-147.717453,,,
729608650.616654,-0.093843,2.096073,54.418788,-0.043228,0.001694,0.997238,0.021718,-0.006913,0.01017,65.197327,23.320618,-147.717453,,,
729608650.619914,-0.088448,2.095964,54.420591,-0.043228,0.001694,0.997238,0.021718,-0.006913,0.01017,65.197327,23.320618,-147.717453,,,
729608650.623321,-0.082272,2.094572,54.422145,-0.042862,0.004379,0.999954,0.015773,0.012413,0.004368,65.197327,23.320618,-147.717453,,,
729608650.626587,-0.082272,2.094572,54.422145,-0.042862,0.004379,0.999954,0.015773,0.012413,0.004368,65.197327,23.320618,-147.717453,,,
729608650.629972,-0.078824,2.099507,54.424251,-0.042862,0.004379,0.999954,0.015773,0.012413,0.004368,65.197327,23.320618,-147.717453,,,
729608650.633225,-0.07391,2.10251,54.427455,-0.050995,-0.001038,0.998901,0.007038,0.024738,0.009374,65.197327,23.320618,-147.717453,,,
729608650.636576,-0.07391,2.10251,54.427455,-0.050995,-0.001038,0.998901,0.007038,0.024738,0.009374,65.197327,23.320618,-147.717453,,,
729608650.639919,-0.071575,2.108127,54.431865,-0.050995,-0.001038,0.998901,0.007038,0.024738,0.009374,65.197327,23.320618,-147.717453,,,
729608650.643239,-0.067036,2.109942,54.437716,-0.05751,-0.006683,0.998505,0.007565,0.017996,0.020506,65.197327,23.320618,-147.717453,,,
729608650.646566,-0.067036,2.109942,54.437716,-0.05751,-0.006683,0.998505,0.007565,0.017996,0.020506,65.197327,23.320618,-147.717453,,,
729608650.649919,-0.063758,2.11073,54.444657,-0.05751,-0.006683,0.998505,0.007565,0.017996,0.020506,65.197327,23.320618,-147.717453,,,
729608650.653242,-0.057037,2.105029,54.452197,-0.059555,-0.008606,0.995255,0.013269,-0.009212,0.025764,65.305054,23.123337,-148.005234,,,
729608650.656565,-0.057037,2.105029,54.452197,-0.059555,-0.008606,0.995255,0.013269,-0.009212,0.025764,65.305054,23.123337,-148.005234,,,
729608650.659919,-0.052526,2.097848,54.459599,-0.059555,-0.008606,0.995255,0.013269,-0.009212,0.025764,65.305054,23.123337,-148.005234,,,
729608650.663234,-0.045244,2.087582,54.466353,-0.056778,-0.00499,0.99498,0.017953,-0.031256,0.023133,65.305054,23.123337,-148.005234,,,
729608650.66664,-0.045244,2.087582,54.466353,-0.056778,-0.00499,0.99498,0.017953,-0.031256,0.023133,65.305054,23.123337,-148.005234,,,
729608650.669914,-0.040679,2.075972,54.473321,-0.056778,-0.00499,0.99498,0.017953,-0.031256,0.023133,65.305054,23.123337,-148.005234,,,
729608650.673278,-0.035717,2.064588,54.481617,-0.053467,-0.00528,0.995514,0.01405,-0.043155,0.026894,65.305054,23.123337,-148.005234,,,
729608650.676575,-0.035717,2.064588,54.481617,-0.053467,-0.00528,0.995514,0.01405,-0.043155,0.026894,65.305054,23.123337,-148.005234,,,
729608650.679991,-0.031762,2.051727,54.491873,-0.053467,-0.00528,0.995514,0.01405,-0.043155,0.026894,65.305054,23.123337,-148.005234,,,
729608650.683241,-0.0285,2.043389,54.503583,-0.049561,-0.012329,0.99823,0.009701,-0.034061,0.040754,65.305054,23.123337,-148.005234,,,
729608650.686585,-0.0285,2.043389,54.503583,-0.049561,-0.012329,0.99823,0.009701,-0.034061,0.040754,65.305054,23.123337,-148.005234,,,
729608650.689928,-0.026465,2.035167,54.516079,-0.049561,-0.012329,0.99823,0.009701,-0.034061,0.040754,65.305054,23.123337,-148.005234,,,
729608650.693244,-0.025182,2.032121,54.528124,-0.041992,-0.007965,1.001862,-0.000611,-0.01604,0.038027,65.165665,23.19101,-147.909439,,,
729608650.696585,-0.025182,2.032121,54.528124,-0.041992,-0.007965,1.001862,-0.000611,-0.01604,0.038027,65.165665,23.19101,-147.909439,,,
729608650.699923,-0.025826,2.029151,54.538939,-0.041992,-0.007965,1.001862,-0.000611,-0.01604,0.038027,65.165665,23.19101,-147.909439,,,
729608650.703247,-0.026733,2.030959,54.549035,-0.031219,-0.000717,0.998276,-0.006858,0.001661,0.035292,65.165665,23.19101,-147.909439,,,
729608650.706728,-0.026733,2.030959,54.549035,-0.031219,-0.000717,0.998276,-0.006858,0.001661,0.035292,65.165665,23.19101,-147.909439,,,
729608650.709932,-0.029601,2.031858,54.559532,-0.031219,-0.000717,0.998276,-0.006858,0.001661,0.035292,65.165665,23.19101,-147.909439,,,
729608650.713247,-0.031959,2.036049,54.571015,-0.031448,-0.005768,0.995377,-0.008094,0.006528,0.039037,65.165665,23.19101,-147.909439,,,
729608650.716667,-0.031959,2.036049,54.571015,-0.031448,-0.005768,0.995377,-0.008094,0.006528,0.039037,65.165665,23.19101,-147.909439,,,
729608650.719914,-0.034312,2.036294,54.582983,-0.031448,-0.005768,0.995377,-0.008094,0.006528,0.039037,65.165665,23.19101,-147.909439,,,
729608650.72324,-0.037869,2.04101,54.595041,-0.030319,-0.012573,0.993576,-0.00948,-0.003288,0.041913,65.165665,23.19101,-147.909439,,,
729608650.726601,-0.037869,2.04101,54.595041,-0.030319,-0.012573,0.993576,-0.00948,-0.003288,0.041913,65.165665,23.19101,-147.909439,,,
729608650.729901,-0.039654,2.036332,54.60643,-0.030319,-0.012573,0.993576,-0.00948,-0.003288,0.041913,65.165665,23.19101,-147.909439,,,
729608650.733252,-0.042715,2.035526,54.616547,-0.021561,-0.00943,0.991653,9.2e-05,-0.025984,0.033082,65.165665,23.19101,-147.909439,,,
729608650.736579,-0.042715,2.035526,54.616547,-0.021561,-0.00943,0.991653,9.2e-05,-0.025984,0.033082,65.373123,23.11702,-147.864532,,,
729608650.739902,-0.04207,2.024494,54.625236,-0.021561,-0.00943,0.991653,9.2e-05,-0.025984,0.033082,65.373123,23.11702,-147.864532,,,
729608650.743316,-0.042547,2.019436,54.632292,-0.019363,-0.003357,0.993912,0.002532,-0.040451,0.023294,65.373123,23.11702,-147.864532,,,
729608650.746613,-0.042547,2.019436,54.632292,-0.019363,-0.003357,0.993912,0.002532,-0.040451,0.023294,65.373123,23.11702,-147.864532,,,
729608650.749943,-0.041478,2.007912,54.638175,-0.019363,-0.003357,0.993912,0.002532,-0.040451,0.023294,65.373123,23.11702,-147.864532,,,
729608650.753351,-0.041795,2.004045,54.643268,-0.013947,-0.003952,0.994247,-0.000194,-0.034373,0.016792,65.373123,23.11702,-147.864532,,,
729608650.756663,-0.041795,2.004045,54.643268,-0.013947,-0.003952,0.994247,-0.000194,-0.034373,0.016792,65.373123,23.11702,-147.864532,,,
729608650.75996,-0.042495,1.996561,54.647237,-0.013947,-0.003952,0.994247,-0.000194,-0.034373,0.016792,65.373123,23.11702,-147.864532,,,
729608650.76325,-0.047717,1.997803,54.65006,-0.010712,-0.003159,0.99614,-0.007553,-0.010363,0.007606,65.373123,23.11702,-147.864532,,,
729608650.766679,-0.047717,1.997803,54.65006,-0.010712,-0.003159,0.99614,-0.007553,-0.010363,0.007606,65.373123,23.11702,-147.864532,,,
729608650.769933,-0.051834,1.997955,54.652308,-0.010712,-0.003159,0.99614,-0.007553,-0.010363,0.007606,65.373123,23.11702,-147.864532,,,
729608650.77326,-0.059735,2.004643,54.653296,-0.012589,-0.001877,0.999634,-0.018849,0.014911,0.001176,65.373123,23.11702,-147.864532,,,
729608650.776587,-0.059735,2.004643,54.653296,-0.012589,-0.001877,0.999634,-0.018849,0.014911,0.001176,65.162247,23.148178,-147.906525,,,
729608650.779906,-0.064615,2.009787,54.653017,-0.012589,-0.001877,0.999634,-0.018849,0.014911,0.001176,65.162247,23.148178,-147.906525,,,
729608650.783252,-0.06948,2.014495,54.651847,-0.016541,-0.004135,0.997742,-0.015934,0.021171,-0.009442,65.162247,23.148178,-147.906525,,,
729608650.786596,-0.06948,2.014495,54.651847,-0.016541,-0.004135,0.997742,-0.015934,0.021171,-0.009442,65.162247,23.148178,-147.906525,,,
729608650.789923,-0.073798,2.018137,54.64925,-0.016541,-0.004135,0.997742,-0.015934,0.021171,-0.009442,65.162247,23.148178,-147.906525,,,
729608650.793246,-0.079187,2.018926,54.645472,-0.023331,-0.005768,0.992798,-0.015637,0.010787,-0.019263,65.162247,23.148178,-147.906525,,,
729608650.796587,-0.079187,2.018926,54.645472,-0.023331,-0.005768,0.992798,-0.015637,0.010787,-0.019263,65.162247,23.148178,-147.906525,,,
729608650.799921,-0.084794,2.020177,54.641178,-0.023331,-0.005768,0.992798,-0.015637,0.010787,-0.019263,65.162247,23.148178,-147.906525,,,
729608650.803244,-0.092784,2.01921,54.637198,-0.03125,-0.006424,0.992386,-0.014866,0.004309,-0.015231,65.162247,23.148178,-147.906525,,,
729608650.80657,-0.092784,2.01921,54.637198,-0.03125,-0.006424,0.992386,-0.014866,0.004309,-0.015231,65.162247,23.148178,-147.906525,,,
729608650.809921,-0.097131,2.018305,54.634183,-0.03125,-0.006424,0.992386,-0.014866,0.004309,-0.015231,65.162247,23.148178,-147.906525,,,
729608650.813246,-0.102996,2.012842,54.631917,-0.035995,-0.012222,0.997299,-0.01155,-0.002327,-0.010912,65.162247,23.148178,-147.906525,,,
729608650.816583,-0.102996,2.012842,54.631917,-0.035995,-0.012222,0.997299,-0.01155,-0.002327,-0.010912,65.141998,23.054977,-148.282394,,,
729608650.819916,-0.104625,2.009396,54.629617,-0.035995,-0.012222,0.997299,-0.01155,-0.002327,-0.010912,65.141998,23.054977,-148.282394,,,
729608650.823245,-0.106124,2.00076,54.627182,-0.037308,-0.011902,1.000687,0.000396,-0.01209,-0.009491,65.141998,23.054977,-148.282394,,,
729608650.826588,-0.106124,2.00076,54.627182,-0.037308,-0.011902,1.000687,0.000396,-0.01209,-0.009491,65.141998,23.054977,-148.282394,,,
729608650.829995,-0.106284,1.99706,54.624156,-0.037308,-0.011902,1.000687,0.000396,-0.01209,-0.009491,65.141998,23.054977,-148.282394,,,
729608650.833238,-0.107002,1.988138,54.620746,-0.038162,-0.008621,1.001053,-0.001883,-0.01115,-0.015061,65.141998,23.054977,-148.282394,,,
729608650.836597,-0.107002,1.988138,54.620746,-0.038162,-0.008621,1.001053,-0.001883,-0.01115,-0.015061,65.141998,23.054977,-148.282394,,,
729608650.839919,-0.10901,1.986128,54.61761,-0.038162,-0.008621,1.001053,-0.001883,-0.01115,-0.015061,65.141998,23.054977,-148.282394,,,
729608650.843252,-0.113335,1.978551,54.615285,-0.042084,-0.00502,0.995361,-0.010928,0.001571,-0.009206,65.141998,23.054977,-148.282394,,,
729608650.846567,-0.113335,1.978551,54.615285,-0.042084,-0.00502,0.995361,-0.010928,0.001571,-0.009206,65.141998,23.054977,-148.282394,,,
729608650.84993,-0.118165,1.979009,54.614194,-0.042084,-0.00502,0.995361,-0.010928,0.001571,-0.009206,65.141998,23.054977,-148.282394,,,
729608650.853243,-0.122764,1.973005,54.613921,-0.041611,-0.004684,0.998291,-0.015005,0.004568,-0.002322,65.141998,23.054977,-148.282394,,,
729608650.856579,-0.122764,1.973005,54.613921,-0.041611,-0.004684,0.998291,-0.015005,0.004568,-0.002322,65.057709,22.984085,-148.381775,,,
729608650.859933,-0.126975,1.973197,54.614285,-0.041611,-0.004684,0.998291,-0.015005,0.004568,-0.002322,65.057709,22.984085,-148.381775,,,
729608650.863246,-0.129961,1.966016,54.614161,-0.03714,-0.004822,0.996033,-0.01,-0.001945,-0.000459,65.057709,22.984085,-148.381775,,,
729608650.866648,-0.129961,1.966016,54.614161,-0.03714,-0.004822,0.996033,-0.01,-0.001945,-0.000459,65.057709,22.984085,-148.381775,,,
729608650.869906,-0.131304,1.963788,54.613323,-0.03714,-0.004822,0.996033,-0.01,-0.001945,-0.000459,65.057709,22.984085,-148.381775,,,
729608650.873236,-0.132554,1.957122,54.612205,-0.034882,0.000381,0.999481,-0.000215,-0.005235,-0.005176,65.057709,22.984085,-148.381775,,,
729608650.876583,-0.132554,1.957122,54.612205,-0.034882,0.000381,0.999481,-0.000215,-0.005235,-0.005176,65.057709,22.984085,-148.381775,,,
729608650.879968,-0.132411,1.954673,54.611033,-0.034882,0.000381,0.999481,-0.000215,-0.005235,-0.005176,65.057709,22.984085,-148.381775,,,
729608650.883239,-0.133379,1.949813,54.609848,-0.030197,0.0065,0.998032,-0.001629,-0.007006,-0.00522,65.057709,22.984085,-148.381775,,,
729608650.886583,-0.133379,1.949813,54.609848,-0.030197,0.0065,0.998032,-0.001629,-0.007006,-0.00522,65.057709,22.984085,-148.381775,,,
729608650.889919,-0.134331,1.946712,54.608921,-0.030197,0.0065,0.998032,-0.001629,-0.007006,-0.00522,65.057709,22.984085,-148.381775,,,
729608650.893234,-0.137631,1.944239,54.608861,-0.03331,0.006378,0.990784,-0.002974,-0.007367,-0.000687,65.057709,22.984085,-148.381775,,,
729608650.896581,-0.137631,1.944239,54.608861,-0.03331,0.006378,0.990784,-0.002974,-0.007367,-0.000687,65.057709,22.984085,-148.381775,,,
729608650.899929,-0.139192,1.941708,54.609255,-0.03331,0.006378,0.990784,-0.002974,-0.007367,-0.000687,64.896179,23.22731,-148.116379,,,
729608650.903231,-0.143908,1.939916,54.609667,-0.032562,0.00528,0.995255,-0.005225,-0.005197,0.001578,64.896179,23.22731,-148.116379,,,
729608650.906572,-0.143908,1.939916,54.609667,-0.032562,0.00528,0.995255,-0.005225,-0.005197,0.001578,64.896179,23.22731,-148.116379,,,
729608650.9099,-0.145784,1.936646,54.609778,-0.032562,0.00528,0.995255,-0.005225,-0.005197,0.001578,64.896179,23.22731,-148.116379,,,
729608650.913233,-0.150667,1.934376,54.608759,-0.024185,0.010025,0.990234,-0.008001,-0.008438,-0.006605,64.896179,23.22731,-148.116379,,,
729608650.916652,-0.150667,1.934376,54.608759,-0.024185,0.010025,0.990234,-0.008001,-0.008438,-0.006605,64.896179,23.22731,-148.116379,,,
729608650.919919,-0.154947,1.93091,54.606695,-0.024185,0.010025,0.990234,-0.008001,-0.008438,-0.006605,64.896179,23.22731,-148.116379,,,
729608650.923376,-0.161662,1.929892,54.604503,-0.026764,0.013611,0.990234,-0.018641,-0.005903,-0.008363,64.896179,23.22731,-148.116379,,,
729608650.926561,-0.161662,1.929892,54.604503,-0.026764,0.013611,0.990234,-0.018641,-0.005903,-0.008363,64.896179,23.22731,-148.116379,,,
729608650.929977,-0.168798,1.926561,54.602656,-0.026764,0.013611,0.990234,-0.018641,-0.005903,-0.008363,64.896179,23.22731,-148.116379,,,
729608650.93324,-0.177113,1.926049,54.601712,-0.033676,0.009354,0.990616,-0.024591,-0.008294,-0.005413,64.896179,23.22731,-148.116379,,,
