Time (sec),Pitch (deg),Roll (deg),Yaw(deg),X-Acceleration (g),Y-Acceleration (g),Z-Acceleration (g),Pitch Rate (deg/sec),Roll Rate (deg/sec),Yaw Rate (deg/sec),Magnetic Field in X direction (uT),Magnetic Field in Y direction (uT),Magnetic Field in Z Direction (uT),Latitude (deg),Longitude (deg),Altitude (m)
729607109.574964,2.157551,1.9646,48.381827,-0.045456,0.035095,0.985321,-0.016133,-0.011606,-0.006261,64.776123,19.920135,-147.681671,,,
729607109.578182,2.157551,1.9646,48.381827,-0.045456,0.035095,0.985321,-0.016133,-0.011606,-0.006261,64.776123,19.920135,-147.681671,,,
729607109.58171,2.153514,1.954141,48.381033,-0.045456,0.035095,0.985321,-0.016133,-0.011606,-0.006261,64.776123,19.920135,-147.681671,,,
729607109.584971,2.148959,1.949513,48.380794,-0.045303,0.030701,0.989853,-0.015513,-0.011378,-0.003612,64.776123,19.920135,-147.681671,,,
729607109.588308,2.148959,1.949513,48.380794,-0.045303,0.030701,0.989853,-0.015513,-0.011378,-0.003612,64.776123,19.920135,-147.681671,,,
729607109.591739,2.144437,1.941002,48.381491,-0.045303,0.030701,0.989853,-0.015513,-0.011378,-0.003612,64.776123,19.920135,-147.681671,,,
729607109.594833,2.139675,1.937763,48.38262,-0.042801,0.028351,0.9953,-0.014916,-0.007109,0.004829,64.776123,19.920135,-147.681671,,,
729607109.598335,2.139675,1.937763,48.38262,-0.042801,0.028351,0.9953,-0.014916,-0.007109,0.004829,64.776123,19.920135,-147.681671,,,
729607109.601661,2.134792,1.933063,48.38468,-0.042801,0.028351,0.9953,-0.014916,-0.007109,0.004829,64.776123,19.920135,-147.681671,,,
729607109.604964,2.130674,1.932657,48.387764,-0.039032,0.027847,0.9953,-0.014741,0.000691,0.01052,64.776123,19.920135,-147.681671,,,
729607109.608318,2.130674,1.932657,48.387764,-0.039032,0.027847,0.9953,-0.014741,0.000691,0.01052,64.776123,19.920135,-147.681671,,,
729607109.611495,2.126268,1.93379,48.39158,-0.039032,0.027847,0.9953,-0.014741,0.000691,0.01052,64.776123,19.920135,-147.681671,,,
729607109.615013,2.122971,1.935366,48.395734,-0.038208,0.025391,1.001053,-0.010159,0.008915,0.012869,64.699448,19.908325,-147.734024,,,
729607109.618382,2.122971,1.935366,48.395734,-0.038208,0.025391,1.001053,-0.010159,0.008915,0.012869,64.699448,19.908325,-147.734024,,,
729607109.621649,2.119388,1.938795,48.399643,-0.038208,0.025391,1.001053,-0.010159,0.008915,0.012869,64.699448,19.908325,-147.734024,,,
729607109.624969,2.116288,1.937157,48.402647,-0.037491,0.023865,0.998657,-0.007146,-0.002657,0.011433,64.699448,19.908325,-147.734024,,,
729607109.628168,2.116288,1.937157,48.402647,-0.037491,0.023865,0.998657,-0.007146,-0.002657,0.011433,64.699448,19.908325,-147.734024,,,
729607109.63159,2.114367,1.938438,48.40408,-0.037491,0.023865,0.998657,-0.007146,-0.002657,0.011433,64.699448,19.908325,-147.734024,,,
729607109.635004,2.113493,1.933188,48.403672,-0.032394,0.023972,0.998642,-0.001866,-0.01468,-0.001544,64.699448,19.908325,-147.734024,,,
729607109.638404,2.113493,1.933188,48.403672,-0.032394,0.023972,0.998642,-0.001866,-0.01468,-0.001544,64.699448,19.908325,-147.734024,,,
729607109.641711,2.113304,1.933828,48.401097,-0.032394,0.023972,0.998642,-0.001866,-0.01468,-0.001544,64.699448,19.908325,-147.734024,,,
729607109.645137,2.113789,1.927539,48.397412,-0.026321,0.023911,0.999542,0.001406,-0.016284,-0.015962,64.699448,19.908325,-147.734024,,,
729607109.648312,2.113789,1.927539,48.397412,-0.026321,0.023911,0.999542,0.001406,-0.016284,-0.015962,64.699448,19.908325,-147.734024,,,
729607109.651645,2.114783,1.927443,48.392575,-0.026321,0.023911,0.999542,0.001406,-0.016284,-0.015962,64.699448,19.908325,-147.734024,,,
729607109.654985,2.116981,1.922918,48.387507,-0.027557,0.021439,0.995255,0.006275,-0.014542,-0.020381,64.822525,19.888016,-147.798477,,,
729607109.658325,2.116981,1.922918,48.387507,-0.027557,0.021439,0.995255,0.006275,-0.014542,-0.020381,64.822525,19.888016,-147.798477,,,
729607109.661524,2.119555,1.92649,48.382049,-0.027557,0.021439,0.995255,0.006275,-0.014542,-0.020381,64.822525,19.888016,-147.798477,,,
729607109.665026,2.123386,1.927143,48.376733,-0.026123,0.019638,1.000504,0.014651,0.002847,-0.019155,64.822525,19.888016,-147.798477,,,
729607109.668411,2.123386,1.927143,48.376733,-0.026123,0.019638,1.000504,0.014651,0.002847,-0.019155,64.822525,19.888016,-147.798477,,,
729607109.671411,2.127146,1.935731,48.370768,-0.026123,0.019638,1.000504,0.014651,0.002847,-0.019155,64.822525,19.888016,-147.798477,,,
729607109.675016,2.133418,1.942893,48.364608,-0.021439,0.024231,0.995255,0.02368,0.027703,-0.020203,64.822525,19.888016,-147.798477,,,
729607109.678198,2.133418,1.942893,48.364608,-0.021439,0.024231,0.995255,0.02368,0.027703,-0.020203,64.822525,19.888016,-147.798477,,,
729607109.681674,2.138513,1.958051,48.358141,-0.021439,0.024231,0.995255,0.02368,0.027703,-0.020203,64.822525,19.888016,-147.798477,,,
729607109.684967,2.145713,1.974219,48.351731,-0.021835,0.029678,0.988235,0.024809,0.058912,-0.022148,64.822525,19.888016,-147.798477,,,
729607109.688326,2.145713,1.974219,48.351731,-0.021835,0.029678,0.988235,0.024809,0.058912,-0.022148,64.822525,19.888016,-147.798477,,,
729607109.691716,2.150254,1.996315,48.345867,-0.021835,0.029678,0.988235,0.024809,0.058912,-0.022148,64.822525,19.888016,-147.798477,,,
729607109.694871,2.155643,2.019202,48.341112,-0.026138,0.034332,0.980408,0.019519,0.084007,-0.01814,64.792679,19.797089,-147.588013,,,
729607109.698373,2.155643,2.019202,48.341112,-0.026138,0.034332,0.980408,0.019519,0.084007,-0.01814,64.792679,19.797089,-147.588013,,,
729607109.701644,2.156476,2.044519,48.337167,-0.026138,0.034332,0.980408,0.019519,0.084007,-0.01814,64.792679,19.797089,-147.588013,,,
729607109.704975,2.156928,2.067439,48.334344,-0.03331,0.03772,0.96376,0.002804,0.080226,-0.013157,64.792679,19.797089,-147.588013,,,
729607109.708326,2.156928,2.067439,48.334344,-0.03331,0.03772,0.96376,0.002804,0.080226,-0.013157,64.792679,19.797089,-147.588013,,,
729607109.711473,2.151441,2.087172,48.332478,-0.03331,0.03772,0.96376,0.002804,0.080226,-0.013157,64.792679,19.797089,-147.588013,,,
729607109.715011,2.145742,2.104369,48.3311,-0.04039,0.041763,0.952469,-0.02187,0.062575,-0.007957,64.792679,19.797089,-147.588013,,,
729607109.718387,2.145742,2.104369,48.3311,-0.04039,0.041763,0.952469,-0.02187,0.062575,-0.007957,64.792679,19.797089,-147.588013,,,
729607109.72166,2.134366,2.116298,48.330099,-0.04039,0.041763,0.952469,-0.02187,0.062575,-0.007957,64.792679,19.797089,-147.588013,,,
729607109.724977,2.122933,2.128489,48.329426,-0.039932,0.044083,0.957916,-0.038917,0.046109,-0.006326,64.792679,19.797089,-147.588013,,,
729607109.728189,2.122933,2.128489,48.329426,-0.039932,0.044083,0.957916,-0.038917,0.046109,-0.006326,64.792679,19.797089,-147.588013,,,
729607109.73167,2.107136,2.134848,48.328775,-0.039932,0.044083,0.957916,-0.038917,0.046109,-0.006326,64.792679,19.797089,-147.588013,,,
729607109.734974,2.091808,2.144506,48.327604,-0.033875,0.046906,0.969254,-0.052727,0.035544,-0.007409,64.885788,19.969589,-147.76973,,,
729607109.738321,2.091808,2.144506,48.327604,-0.033875,0.046906,0.969254,-0.052727,0.035544,-0.007409,64.885788,19.969589,-147.76973,,,
729607109.741707,2.072186,2.150807,48.326575,-0.033875,0.046906,0.969254,-0.052727,0.035544,-0.007409,64.885788,19.969589,-147.76973,,,
729607109.744846,2.053958,2.160803,48.325673,-0.028961,0.046021,0.980957,-0.064609,0.037117,-0.007463,64.885788,19.969589,-147.76973,,,
729607109.748347,2.053958,2.160803,48.325673,-0.028961,0.046021,0.980957,-0.064609,0.037117,-0.007463,64.885788,19.969589,-147.76973,,,
729607109.751645,2.03273,2.166222,48.325707,-0.028961,0.046021,0.980957,-0.064609,0.037117,-0.007463,64.885788,19.969589,-147.76973,,,
729607109.754976,2.012444,2.176013,48.325695,-0.028015,0.044678,0.986359,-0.071815,0.036822,-0.005906,64.885788,19.969589,-147.76973,,,
729607109.758322,2.012444,2.176013,48.325695,-0.028015,0.044678,0.986359,-0.071815,0.036822,-0.005906,64.885788,19.969589,-147.76973,,,
729607109.761521,1.989612,2.179623,48.325343,-0.028015,0.044678,0.986359,-0.071815,0.036822,-0.005906,64.885788,19.969589,-147.76973,,,
729607109.765009,1.967366,2.187308,48.324225,-0.024902,0.042755,0.993042,-0.076882,0.029675,-0.008857,64.885788,19.969589,-147.76973,,,
729607109.768368,1.967366,2.187308,48.324225,-0.024902,0.042755,0.993042,-0.076882,0.029675,-0.008857,64.885788,19.969589,-147.76973,,,
729607109.771641,1.94478,2.188642,48.32254,-0.024902,0.042755,0.993042,-0.076882,0.029675,-0.008857,64.885788,19.969589,-147.76973,,,
729607109.774976,1.922413,2.194032,48.320219,-0.029907,0.042221,0.997543,-0.07998,0.02187,-0.011874,64.885788,19.969589,-147.76973,,,
729607109.778186,1.922413,2.194032,48.320219,-0.029907,0.042221,0.997543,-0.07998,0.02187,-0.011874,65.027359,20.042648,-147.873917,,,
729607109.781693,1.900198,2.196526,48.318051,-0.029907,0.042221,0.997543,-0.07998,0.02187,-0.011874,65.027359,20.042648,-147.873917,,,
729607109.78497,1.877455,2.201286,48.316813,-0.032669,0.038666,1.005692,-0.078851,0.016718,-0.008592,65.027359,20.042648,-147.873917,,,
729607109.7883,1.877455,2.201286,48.316813,-0.032669,0.038666,1.005692,-0.078851,0.016718,-0.008592,65.027359,20.042648,-147.873917,,,
729607109.791722,1.856275,2.205125,48.316876,-0.032669,0.038666,1.005692,-0.078851,0.016718,-0.008592,65.027359,20.042648,-147.873917,,,
729607109.794839,1.835074,2.208993,48.318477,-0.037292,0.035919,1.008972,-0.075842,0.017635,0.000747,65.027359,20.042648,-147.873917,,,
729607109.798361,1.835074,2.208993,48.318477,-0.037292,0.035919,1.008972,-0.075842,0.017635,0.000747,65.027359,20.042648,-147.873917,,,
729607109.801686,1.817238,2.213775,48.321536,-0.037292,0.035919,1.008972,-0.075842,0.017635,0.000747,65.027359,20.042648,-147.873917,,,
729607109.805004,1.799481,2.216679,48.325831,-0.036591,0.033234,1.015564,-0.061925,0.014989,0.00998,65.027359,20.042648,-147.873917,,,
729607109.808303,1.799481,2.216679,48.325831,-0.036591,0.033234,1.015564,-0.061925,0.014989,0.00998,65.027359,20.042648,-147.873917,,,
729607109.811485,1.786976,2.219792,48.330656,-0.036591,0.033234,1.015564,-0.061925,0.014989,0.00998,65.027359,20.042648,-147.873917,,,
729607109.815014,1.773531,2.222793,48.335041,-0.032364,0.035461,1.017288,-0.045328,0.016439,0.011706,65.027359,20.042648,-147.873917,,,
729607109.818344,1.773531,2.222793,48.335041,-0.032364,0.035461,1.017288,-0.045328,0.016439,0.011706,65.020279,20.232193,-147.659302,,,
729607109.821655,1.765336,2.222805,48.338593,-0.032364,0.035461,1.017288,-0.045328,0.016439,0.011706,65.020279,20.232193,-147.659302,,,
729607109.824971,1.75523,2.225605,48.340546,-0.026276,0.038513,1.018341,-0.034836,0.013651,0.002766,65.020279,20.232193,-147.659302,,,
729607109.82826,1.75523,2.225605,48.340546,-0.026276,0.038513,1.018341,-0.034836,0.013651,0.002766,65.020279,20.232193,-147.659302,,,
729607109.831691,1.748881,2.22338,48.340652,-0.026276,0.038513,1.018341,-0.034836,0.013651,0.002766,65.020279,20.232193,-147.659302,,,
729607109.834973,1.739978,2.225668,48.338633,-0.023636,0.042831,1.014816,-0.030527,0.01186,-0.01013,65.020279,20.232193,-147.659302,,,
729607109.838299,1.739978,2.225668,48.338633,-0.023636,0.042831,1.014816,-0.030527,0.01186,-0.01013,65.020279,20.232193,-147.659302,,,
729607109.841641,1.734015,2.222706,48.334784,-0.023636,0.042831,1.014816,-0.030527,0.01186,-0.01013,65.020279,20.232193,-147.659302,,,
729607109.844917,1.726075,2.224219,48.328744,-0.027008,0.042358,1.015701,-0.029337,0.008213,-0.024679,65.020279,20.232193,-147.659302,,,
729607109.848368,1.726075,2.224219,48.328744,-0.027008,0.042358,1.015701,-0.029337,0.008213,-0.024679,65.020279,20.232193,-147.659302,,,
729607109.851711,1.720648,2.220193,48.321497,-0.027008,0.042358,1.015701,-0.029337,0.008213,-0.024679,65.020279,20.232193,-147.659302,,,
729607109.854978,1.713687,2.220366,48.313217,-0.032974,0.038681,1.016647,-0.021544,0.004308,-0.031448,65.020279,20.232193,-147.659302,,,
729607109.858309,1.713687,2.220366,48.313217,-0.032974,0.038681,1.016647,-0.021544,0.004308,-0.031448,65.160812,20.10025,-147.71286,,,
729607109.861523,1.709338,2.217333,48.304159,-0.032974,0.038681,1.016647,-0.021544,0.004308,-0.031448,65.160812,20.10025,-147.71286,,,
729607109.864996,1.704859,2.216738,48.295114,-0.042953,0.0336,1.020508,-0.014696,-0.0011,-0.032847,65.160812,20.10025,-147.71286,,,
729607109.868311,1.704859,2.216738,48.295114,-0.042953,0.0336,1.020508,-0.014696,-0.0011,-0.032847,65.160812,20.10025,-147.71286,,,
729607109.871647,1.704367,2.214066,48.286865,-0.042953,0.0336,1.020508,-0.014696,-0.0011,-0.032847,65.160812,20.10025,-147.71286,,,
729607109.874985,1.705392,2.214494,48.279106,-0.050705,0.028107,1.030029,0.006661,0.002776,-0.028111,65.160812,20.10025,-147.71286,,,
729607109.878176,1.705392,2.214494,48.279106,-0.050705,0.028107,1.030029,0.006661,0.002776,-0.028111,65.160812,20.10025,-147.71286,,,
729607109.881669,1.710797,2.215136,48.272735,-0.050705,0.028107,1.030029,0.006661,0.002776,-0.028111,65.160812,20.10025,-147.71286,,,
729607109.885064,1.718764,2.216737,48.267925,-0.056335,0.021835,1.033112,0.028556,0.008448,-0.018424,65.160812,20.10025,-147.71286,,,
729607109.888316,1.718764,2.216737,48.267925,-0.056335,0.021835,1.033112,0.028556,0.008448,-0.018424,65.160812,20.10025,-147.71286,,,
729607109.891697,1.730498,2.218025,48.264587,-0.056335,0.021835,1.033112,0.028556,0.008448,-0.018424,65.160812,20.10025,-147.71286,,,
729607109.894885,1.744423,2.221926,48.262924,-0.062271,0.016876,1.02887,0.049202,0.016657,-0.004654,65.160812,20.10025,-147.71286,,,
729607109.898423,1.744423,2.221926,48.262924,-0.062271,0.016876,1.02887,0.049202,0.016657,-0.004654,65.052765,20.20903,-147.769409,,,
729607109.90165,1.761284,2.223598,48.263019,-0.062271,0.016876,1.02887,0.049202,0.016657,-0.004654,65.052765,20.20903,-147.769409,,,
729607109.904981,1.778909,2.230226,48.264579,-0.063828,0.017334,1.022598,0.06168,0.025473,0.00534,65.052765,20.20903,-147.769409,,,
729607109.90833,1.778909,2.230226,48.264579,-0.063828,0.017334,1.022598,0.06168,0.025473,0.00534,65.052765,20.20903,-147.769409,,,
729607109.911521,1.7982,2.23501,48.267221,-0.063828,0.017334,1.022598,0.06168,0.025473,0.00534,65.052765,20.20903,-147.769409,,,
729607109.91502,1.815714,2.24475,48.270368,-0.061172,0.020889,1.01329,0.061541,0.03661,0.012266,65.052765,20.20903,-147.769409,,,
729607109.918307,1.815714,2.24475,48.270368,-0.061172,0.020889,1.01329,0.061541,0.03661,0.012266,65.052765,20.20903,-147.769409,,,
729607109.921712,1.833062,2.250704,48.274317,-0.061172,0.020889,1.01329,0.061541,0.03661,0.012266,65.052765,20.20903,-147.769409,,,
729607109.924975,1.847958,2.260081,48.27833,-0.056961,0.025635,1.001404,0.052677,0.037454,0.013473,65.052765,20.20903,-147.769409,,,
729607109.928172,1.847958,2.260081,48.27833,-0.056961,0.025635,1.001404,0.052677,0.037454,0.013473,65.052765,20.20903,-147.769409,,,
729607109.931684,1.862675,2.266211,48.282647,-0.056961,0.025635,1.001404,0.052677,0.037454,0.013473,65.052765,20.20903,-147.769409,,,
729607109.935036,1.875048,2.273328,48.286701,-0.05545,0.03067,0.993195,0.043109,0.02988,0.014132,65.052765,20.20903,-147.769409,,,
729607109.938317,1.875048,2.273328,48.286701,-0.05545,0.03067,0.993195,0.043109,0.02988,0.014132,65.052765,20.20903,-147.769409,,,
729607109.941686,1.886178,2.277172,48.28998,-0.05545,0.03067,0.993195,0.043109,0.02988,0.014132,65.072113,20.028214,-147.961151,,,
729607109.944848,1.886178,2.277172,48.292997,-0.05545,0.03067,0.993195,0.032523,0.010669,0.011068,65.072113,20.028214,-147.961151,,,
729607109.948335,1.895628,2.279723,48.292997,-0.052567,0.032288,0.982895,0.032523,0.010669,0.011068,65.072113,20.028214,-147.961151,,,
729607109.951664,1.903542,2.281151,48.295847,-0.052567,0.032288,0.982895,0.032523,0.010669,0.011068,65.072113,20.028214,-147.961151,,,
729607109.955018,1.910331,2.278471,48.298741,-0.045456,0.034805,0.981979,0.025281,-0.004792,0.009563,65.072113,20.028214,-147.961151,,,
729607109.958401,1.910331,2.278471,48.298741,-0.045456,0.034805,0.981979,0.025281,-0.004792,0.009563,65.072113,20.028214,-147.961151,,,
729607109.961496,1.913805,2.277275,48.301792,-0.045456,0.034805,0.981979,0.025281,-0.004792,0.009563,65.072113,20.028214,-147.961151,,,
729607109.965022,1.916242,2.271141,48.305448,-0.040695,0.037918,0.977692,0.005198,-0.019464,0.011603,65.072113,20.028214,-147.961151,,,
729607109.968356,1.916242,2.271141,48.305448,-0.040695,0.037918,0.977692,0.005198,-0.019464,0.011603,65.072113,20.028214,-147.961151,,,
729607109.971483,1.913777,2.272359,48.309388,-0.040695,0.037918,0.977692,0.005198,-0.019464,0.011603,65.072113,20.028214,-147.961151,,,
729607109.97503,1.911872,2.266866,48.314203,-0.039078,0.036469,0.979324,-0.006839,-0.015649,0.014762,65.072113,20.028214,-147.961151,,,
729607109.978451,1.911872,2.266866,48.314203,-0.039078,0.036469,0.979324,-0.006839,-0.015649,0.014762,65.072113,20.028214,-147.961151,,,
729607109.981619,1.90483,2.272659,48.319335,-0.039078,0.036469,0.979324,-0.006839,-0.015649,0.014762,65.125549,20.2061,-147.931839,,,
729607109.984996,1.901149,2.269074,48.324978,-0.033875,0.036331,0.989868,-0.011427,-0.008057,0.018198,65.125549,20.2061,-147.931839,,,
729607109.988345,1.901149,2.269074,48.324978,-0.033875,0.036331,0.989868,-0.011427,-0.008057,0.018198,65.125549,20.2061,-147.931839,,,
729607109.991653,1.895116,2.277086,48.329939,-0.033875,0.036331,0.989868,-0.011427,-0.008057,0.018198,65.125549,20.2061,-147.931839,,,
729607109.994855,1.895116,2.277086,48.329939,-0.033875,0.036331,0.989868,-0.011427,-0.008057,0.018198,65.125549,20.2061,-147.931839,,,
729607109.998339,1.892746,2.276747,48.334997,-0.030777,0.036423,0.997925,-0.009614,0.003676,0.015071,65.125549,20.2061,-147.931839,,,
729607110.001673,1.888873,2.287208,48.33929,-0.030777,0.036423,0.997925,-0.009614,0.003676,0.015071,65.125549,20.2061,-147.931839,,,
729607110.00505,1.888873,2.287208,48.343395,-0.02951,0.034866,1.003311,-0.003989,0.015103,0.013022,65.125549,20.2061,-147.931839,,,
729607110.008393,1.887675,2.28999,48.343395,-0.02951,0.034866,1.003311,-0.003989,0.015103,0.013022,65.125549,20.2061,-147.931839,,,
729607110.0116,1.885265,2.300004,48.346966,-0.02951,0.034866,1.003311,-0.003989,0.015103,0.013022,65.125549,20.2061,-147.931839,,,
729607110.015096,1.883176,2.302712,48.349768,-0.02951,0.034866,1.003311,-0.005076,0.011926,0.008286,65.125549,20.2061,-147.931839,,,
729607110.018314,1.883176,2.302712,48.349768,-0.031113,0.033096,0.996002,-0.005076,0.011926,0.008286,65.125549,20.2061,-147.931839,,,
729607110.021645,1.879994,2.312268,48.351687,-0.031113,0.033096,0.996002,-0.005076,0.011926,0.008286,65.204803,19.983429,-147.998383,,,
729607110.025015,1.879994,2.312268,48.351687,-0.031113,0.033096,0.996002,-0.015751,0.012598,0.002739,65.204803,19.983429,-147.998383,,,
729607110.02821,1.875216,2.31485,48.353145,-0.031265,0.032013,0.992294,-0.015751,0.012598,0.002739,65.204803,19.983429,-147.998383,,,
729607110.031651,1.86871,2.322037,48.353274,-0.031265,0.032013,0.992294,-0.015751,0.012598,0.002739,65.204803,19.983429,-147.998383,,,
729607110.035072,1.861086,2.322673,48.352568,-0.031265,0.032013,0.992294,-0.027395,0.006646,-0.004474,65.204803,19.983429,-147.998383,,,
729607110.038228,1.861086,2.322673,48.352568,-0.033875,0.033234,0.993301,-0.027395,0.006646,-0.004474,65.204803,19.983429,-147.998383,,,
729607110.041704,1.854167,2.323405,48.351288,-0.033875,0.033234,0.993301,-0.027395,0.006646,-0.004474,65.204803,19.983429,-147.998383,,,
729607110.044842,1.854167,2.323405,48.351288,-0.033875,0.033234,0.993301,-0.027395,0.006646,-0.004474,65.204803,19.983429,-147.998383,,,
729607110.048338,1.846213,2.320778,48.349776,-0.038239,0.030136,0.99295,-0.026693,-0.00676,-0.005051,65.204803,19.983429,-147.998383,,,
729607110.051637,1.838747,2.317827,48.347852,-0.038239,0.030136,0.99295,-0.026693,-0.00676,-0.005051,65.204803,19.983429,-147.998383,,,
729607110.054995,1.838747,2.317827,48.347852,-0.038239,0.030136,0.99295,-0.026693,-0.00676,-0.005051,65.204803,19.983429,-147.998383,,,
729607110.058381,1.828214,2.314325,48.345237,-0.040329,0.032883,0.999359,-0.035593,-0.006994,-0.010571,65.204803,19.983429,-147.998383,,,
729607110.061501,1.81733,2.309876,48.341861,-0.040329,0.032883,0.999359,-0.035593,-0.006994,-0.010571,65.204803,19.983429,-147.998383,,,
729607110.065063,1.81733,2.309876,48.341861,-0.040329,0.032883,0.999359,-0.035593,-0.006994,-0.010571,65.091705,20.148987,-147.891876,,,
729607110.06829,1.80364,2.306655,48.337819,-0.038467,0.035828,0.995605,-0.047419,-0.010504,-0.016609,65.091705,20.148987,-147.891876,,,
729607110.071713,1.789025,2.299579,48.333525,-0.038467,0.035828,0.995605,-0.047419,-0.010504,-0.016609,65.091705,20.148987,-147.891876,,,
729607110.075005,1.789025,2.299579,48.333525,-0.038467,0.035828,0.995605,-0.047419,-0.010504,-0.016609,65.091705,20.148987,-147.891876,,,
729607110.078147,1.772695,2.295847,48.3298,-0.038376,0.036438,0.997696,-0.056732,-0.00838,-0.015828,65.091705,20.148987,-147.891876,,,
729607110.08167,1.757004,2.286692,48.327252,-0.038376,0.036438,0.997696,-0.056732,-0.00838,-0.015828,65.091705,20.148987,-147.891876,,,
729607110.085037,1.757004,2.286692,48.327252,-0.038376,0.036438,0.997696,-0.056732,-0.00838,-0.015828,65.091705,20.148987,-147.891876,,,
729607110.088316,1.740489,2.280777,48.325871,-0.044403,0.036469,0.999634,-0.057802,-0.019125,-0.007645,65.091705,20.148987,-147.891876,,,
729607110.091642,1.725201,2.270466,48.326477,-0.044403,0.036469,0.999634,-0.057802,-0.019125,-0.007645,65.091705,20.148987,-147.891876,,,
729607110.09483,1.725201,2.270466,48.326477,-0.044403,0.036469,0.999634,-0.057802,-0.019125,-0.007645,65.091705,20.148987,-147.891876,,,
729607110.098369,1.709659,2.265453,48.328675,-0.045883,0.035126,1.009598,-0.055758,-0.014573,0.003306,65.091705,20.148987,-147.891876,,,
729607110.101628,1.695527,2.257369,48.332287,-0.045883,0.035126,1.009598,-0.055758,-0.014573,0.003306,65.091705,20.148987,-147.891876,,,
729607110.105011,1.695527,2.257369,48.332287,-0.045883,0.035126,1.009598,-0.055758,-0.014573,0.003306,65.251266,20.3246,-147.500793,,,
729607110.108305,1.680943,2.253869,48.336766,-0.046783,0.036163,1.017273,-0.050998,-0.008253,0.013266,65.251266,20.3246,-147.500793,,,
729607110.111642,1.667962,2.248815,48.342478,-0.046783,0.036163,1.017273,-0.050998,-0.008253,0.013266,65.251266,20.3246,-147.500793,,,
729607110.115019,1.667962,2.248815,48.342478,-0.046783,0.036163,1.017273,-0.050998,-0.008253,0.013266,65.251266,20.3246,-147.500793,,,
729607110.118319,1.654966,2.246919,48.349266,-0.048355,0.036987,1.01738,-0.046639,-0.003771,0.021417,65.251266,20.3246,-147.500793,,,
729607110.12163,1.642474,2.242228,48.356543,-0.048355,0.036987,1.01738,-0.046639,-0.003771,0.021417,65.251266,20.3246,-147.500793,,,
729607110.125087,1.642474,2.242228,48.356543,-0.048355,0.036987,1.01738,-0.046639,-0.003771,0.021417,65.251266,20.3246,-147.500793,,,
729607110.128302,1.629374,2.237589,48.363188,-0.048233,0.037384,1.016129,-0.047247,-0.013901,0.01995,65.251266,20.3246,-147.500793,,,
729607110.131651,1.616341,2.231027,48.369082,-0.048233,0.037384,1.016129,-0.047247,-0.013901,0.01995,65.251266,20.3246,-147.500793,,,
729607110.135057,1.616341,2.231027,48.369082,-0.048233,0.037384,1.016129,-0.047247,-0.013901,0.01995,65.251266,20.3246,-147.500793,,,
729607110.13834,1.602783,2.222339,48.374676,-0.049133,0.03392,1.012238,-0.045828,-0.026285,0.017768,65.251266,20.3246,-147.500793,,,
729607110.141668,1.591204,2.212141,48.380357,-0.049133,0.03392,1.012238,-0.045828,-0.026285,0.017768,65.251266,20.3246,-147.500793,,,
729607110.145008,1.591204,2.212141,48.380357,-0.049133,0.03392,1.012238,-0.045828,-0.026285,0.017768,65.296539,20.12532,-147.568329,,,
729607110.148307,1.579129,2.199825,48.386538,-0.052734,0.029739,1.016449,-0.045247,-0.040872,0.02005,65.296539,20.12532,-147.568329,,,
729607110.151726,1.570661,2.185978,48.393297,-0.052734,0.029739,1.016449,-0.045247,-0.040872,0.02005,65.296539,20.12532,-147.568329,,,
729607110.15501,1.570661,2.185978,48.393297,-0.052734,0.029739,1.016449,-0.045247,-0.040872,0.02005,65.296539,20.12532,-147.568329,,,
729607110.158305,1.562882,2.171578,48.400894,-0.051956,0.024796,1.022766,-0.028487,-0.047823,0.025129,65.296539,20.12532,-147.568329,,,
729607110.161642,1.559455,2.157966,48.409813,-0.051956,0.024796,1.022766,-0.028487,-0.047823,0.025129,65.296539,20.12532,-147.568329,,,
729607110.164965,1.559455,2.157966,48.409813,-0.051956,0.024796,1.022766,-0.028487,-0.047823,0.025129,65.296539,20.12532,-147.568329,,,
729607110.168322,1.557428,2.143625,48.420659,-0.053162,0.018036,1.022659,-0.006953,-0.045216,0.033104,65.296539,20.12532,-147.568329,,,
729607110.171645,1.559881,2.133704,48.432807,-0.053162,0.018036,1.022659,-0.006953,-0.045216,0.033104,65.296539,20.12532,-147.568329,,,
729607110.174973,1.559881,2.133704,48.432807,-0.053162,0.018036,1.022659,-0.006953,-0.045216,0.033104,65.296539,20.12532,-147.568329,,,
729607110.177971,1.56312,2.121389,48.446537,-0.051193,0.017792,1.019058,0.008755,-0.037791,0.050666,65.296539,20.12532,-147.568329,,,
729607110.181681,1.569765,2.11462,48.461966,-0.051193,0.017792,1.019058,0.008755,-0.037791,0.050666,65.296539,20.12532,-147.568329,,,
729607110.184963,1.569765,2.11462,48.461966,-0.051193,0.017792,1.019058,0.008755,-0.037791,0.050666,64.961685,20.303864,-147.539291,,,
729607110.188318,1.575574,2.10565,48.477989,-0.046677,0.022324,1.012466,0.019015,-0.027543,0.056554,64.961685,20.303864,-147.539291,,,
729607110.191737,1.582821,2.102018,48.493721,-0.046677,0.022324,1.012466,0.019015,-0.027543,0.056554,64.961685,20.303864,-147.539291,,,
729607110.194962,1.582821,2.102018,48.493721,-0.046677,0.022324,1.012466,0.019015,-0.027543,0.056554,64.961685,20.303864,-147.539291,,,
729607110.198327,1.588534,2.095092,48.509817,-0.038406,0.024597,1.001083,0.01723,-0.016142,0.053899,64.961685,20.303864,-147.539291,,,
729607110.201652,1.5952,2.093767,48.525824,-0.038406,0.024597,1.001083,0.01723,-0.016142,0.053899,64.961685,20.303864,-147.539291,,,
729607110.205016,1.5952,2.093767,48.525824,-0.038406,0.024597,1.001083,0.01723,-0.016142,0.053899,64.961685,20.303864,-147.539291,,,
729607110.208316,1.598578,2.086941,48.540958,-0.03656,0.026749,0.990112,0.012107,-0.017617,0.051984,64.961685,20.303864,-147.539291,,,
729607110.211648,1.60278,2.082682,48.555092,-0.03656,0.026749,0.990112,0.012107,-0.017617,0.051984,64.961685,20.303864,-147.539291,,,
729607110.214972,1.60278,2.082682,48.555092,-0.03656,0.026749,0.990112,0.012107,-0.017617,0.051984,64.961685,20.303864,-147.539291,,,
729607110.21838,1.605674,2.072201,48.569041,-0.030853,0.02597,0.982758,0.009637,-0.032623,0.048563,64.961685,20.303864,-147.539291,,,
729607110.221642,1.609458,2.066977,48.58266,-0.030853,0.02597,0.982758,0.009637,-0.032623,0.048563,64.961685,20.303864,-147.539291,,,
729607110.224969,1.609458,2.066977,48.58266,-0.030853,0.02597,0.982758,0.009637,-0.032623,0.048563,64.961685,20.303864,-147.539291,,,
729607110.228318,1.613128,2.054997,48.596307,-0.028107,0.025879,0.987991,0.010543,-0.037739,0.046045,64.855301,20.267227,-147.512299,,,
729607110.231717,1.616609,2.050211,48.6094,-0.028107,0.025879,0.987991,0.010543,-0.037739,0.046045,64.855301,20.267227,-147.512299,,,
729607110.23497,1.616609,2.050211,48.6094,-0.028107,0.025879,0.987991,0.010543,-0.037739,0.046045,64.855301,20.267227,-147.512299,,,
729607110.238297,1.62043,2.037852,48.622307,-0.027618,0.022858,0.988373,0.014583,-0.03828,0.044983,64.855301,20.267227,-147.512299,,,
729607110.241657,1.624222,2.032576,48.634388,-0.027618,0.022858,0.988373,0.014583,-0.03828,0.044983,64.855301,20.267227,-147.512299,,,
729607110.245021,1.624222,2.032576,48.634388,-0.027618,0.022858,0.988373,0.014583,-0.03828,0.044983,64.855301,20.267227,-147.512299,,,
729607110.248309,1.629803,2.021019,48.645249,-0.022156,0.023392,0.990021,0.021965,-0.035363,0.036731,64.855301,20.267227,-147.512299,,,
729607110.251646,1.633038,2.018175,48.654063,-0.022156,0.023392,0.990021,0.021965,-0.035363,0.036731,64.855301,20.267227,-147.512299,,,
729607110.254972,1.633038,2.018175,48.654063,-0.022156,0.023392,0.990021,0.021965,-0.035363,0.036731,64.855301,20.267227,-147.512299,,,
729607110.258134,1.638947,2.00896,48.661303,-0.014938,0.026031,0.98558,0.020928,-0.026433,0.02414,64.855301,20.267227,-147.512299,,,
729607110.261728,1.643022,2.006583,48.666943,-0.014938,0.026031,0.98558,0.020928,-0.026433,0.02414,64.855301,20.267227,-147.512299,,,
729607110.264973,1.643022,2.006583,48.666943,-0.014938,0.026031,0.98558,0.020928,-0.026433,0.02414,64.855301,20.267227,-147.512299,,,
729607110.268305,1.647978,1.998303,48.671831,-0.014633,0.026398,0.979462,0.017183,-0.025527,0.016027,64.538727,20.234879,-147.510284,,,
729607110.271691,1.650795,1.994106,48.675893,-0.014633,0.026398,0.979462,0.017183,-0.025527,0.016027,64.538727,20.234879,-147.510284,,,
729607110.274979,1.650795,1.994106,48.675893,-0.014633,0.026398,0.979462,0.017183,-0.025527,0.016027,64.538727,20.234879,-147.510284,,,
729607110.278305,1.654477,1.986217,48.67957,-0.01651,0.02359,0.974716,0.011937,-0.02498,0.010136,64.538727,20.234879,-147.510284,,,
729607110.281642,1.657264,1.979433,48.682273,-0.01651,0.02359,0.974716,0.011937,-0.02498,0.010136,64.538727,20.234879,-147.510284,,,
729607110.284961,1.657264,1.979433,48.682273,-0.01651,0.02359,0.974716,0.011937,-0.02498,0.010136,64.538727,20.234879,-147.510284,,,
729607110.288319,1.661003,1.971508,48.683898,-0.012924,0.019943,0.97879,0.011613,-0.024754,0.001215,64.538727,20.234879,-147.510284,,,
729607110.29164,1.66526,1.964746,48.684578,-0.012924,0.019943,0.97879,0.011613,-0.024754,0.001215,64.538727,20.234879,-147.510284,,,
729607110.294975,1.66526,1.964746,48.684578,-0.012924,0.019943,0.97879,0.011613,-0.024754,0.001215,64.538727,20.234879,-147.510284,,,
729607110.298385,1.670773,1.959587,48.68441,-0.014999,0.02153,0.988464,0.023482,-0.015941,-0.000822,64.538727,20.234879,-147.510284,,,
729607110.301637,1.676827,1.95543,48.683734,-0.014999,0.02153,0.988464,0.023482,-0.015941,-0.000822,64.538727,20.234879,-147.510284,,,
729607110.304978,1.676827,1.95543,48.683734,-0.014999,0.02153,0.988464,0.023482,-0.015941,-0.000822,64.538727,20.234879,-147.510284,,,
729607110.30831,1.68536,1.955237,48.683194,-0.023148,0.019302,0.996765,0.033805,0.003607,-0.002218,64.755432,20.228043,-147.463058,,,
729607110.311708,1.694459,1.953666,48.683346,-0.023148,0.019302,0.996765,0.033805,0.003607,-0.002218,64.755432,20.228043,-147.463058,,,
729607110.314955,1.694459,1.953666,48.683346,-0.023148,0.019302,0.996765,0.033805,0.003607,-0.002218,64.755432,20.228043,-147.463058,,,
729607110.318322,1.705256,1.955962,48.683613,-0.028427,0.017639,0.998566,0.039047,0.011424,0.000887,64.755432,20.228043,-147.463058,,,
729607110.321633,1.714403,1.956789,48.683606,-0.028427,0.017639,0.998566,0.039047,0.011424,0.000887,64.755432,20.228043,-147.463058,,,
729607110.32503,1.714403,1.956789,48.683606,-0.028427,0.017639,0.998566,0.039047,0.011424,0.000887,64.755432,20.228043,-147.463058,,,
729607110.328301,1.724312,1.963545,48.683119,-0.027893,0.020813,0.993286,0.034071,0.029345,-0.004835,64.755432,20.228043,-147.463058,,,
729607110.331659,1.732028,1.964591,48.682125,-0.027893,0.020813,0.993286,0.034071,0.029345,-0.004835,64.755432,20.228043,-147.463058,,,
729607110.334971,1.732028,1.964591,48.682125,-0.027893,0.020813,0.993286,0.034071,0.029345,-0.004835,64.755432,20.228043,-147.463058,,,
729607110.338383,1.738561,1.972623,48.67976,-0.028305,0.024841,0.987427,0.023466,0.031054,-0.007377,64.755432,20.228043,-147.463058,,,
729607110.34164,1.74171,1.970337,48.676339,-0.028305,0.024841,0.987427,0.023466,0.031054,-0.007377,64.755432,20.228043,-147.463058,,,
729607110.344966,1.74171,1.970337,48.676339,-0.028305,0.024841,0.987427,0.023466,0.031054,-0.007377,64.755432,20.228043,-147.463058,,,
729607110.348306,1.743141,1.975594,48.671446,-0.028152,0.028152,0.975723,0.00646,0.019359,-0.016194,64.530716,20.280441,-147.292374,,,
729607110.351696,1.74153,1.972577,48.665994,-0.028152,0.028152,0.975723,0.00646,0.019359,-0.016194,64.530716,20.280441,-147.292374,,,
729607110.354964,1.74153,1.972577,48.665994,-0.028152,0.028152,0.975723,0.00646,0.019359,-0.016194,64.530716,20.280441,-147.292374,,,
729607110.358325,1.737872,1.973251,48.659607,-0.028061,0.030472,0.975784,-0.010872,0.007506,-0.025602,64.530716,20.280441,-147.292374,,,
729607110.361643,1.731484,1.966309,48.652863,-0.028061,0.030472,0.975784,-0.010872,0.007506,-0.025602,64.530716,20.280441,-147.292374,,,
729607110.365036,1.731484,1.966309,48.652863,-0.028061,0.030472,0.975784,-0.010872,0.007506,-0.025602,64.530716,20.280441,-147.292374,,,
729607110.368311,1.725823,1.964395,48.645546,-0.028015,0.029984,0.978149,-0.021084,-0.007009,-0.026979,64.530716,20.280441,-147.292374,,,
729607110.371646,1.718863,1.955712,48.638525,-0.028015,0.029984,0.978149,-0.021084,-0.007009,-0.026979,64.530716,20.280441,-147.292374,,,
729607110.374979,1.718863,1.955712,48.638525,-0.028015,0.029984,0.978149,-0.021084,-0.007009,-0.026979,64.530716,20.280441,-147.292374,,,
729607110.378381,1.713495,1.953135,48.631985,-0.025452,0.028275,0.987045,-0.016907,-0.007616,-0.026206,64.530716,20.280441,-147.292374,,,
729607110.381643,1.707322,1.945925,48.626467,-0.025452,0.028275,0.987045,-0.016907,-0.007616,-0.026206,64.530716,20.280441,-147.292374,,,
729607110.384968,1.707322,1.945925,48.626467,-0.025452,0.028275,0.987045,-0.016907,-0.007616,-0.026206,64.530716,20.280441,-147.292374,,,
729607110.388318,1.702472,1.945643,48.621918,-0.022263,0.0289,0.992386,-0.015315,-0.000487,-0.019606,64.530716,20.280441,-147.292374,,,
729607110.391697,1.695147,1.945416,48.61824,-0.022263,0.0289,0.992386,-0.015315,-0.000487,-0.019606,64.635284,20.185638,-147.61557,,,
729607110.394963,1.695147,1.945416,48.61824,-0.022263,0.0289,0.992386,-0.015315,-0.000487,-0.019606,64.635284,20.185638,-147.61557,,,
729607110.398325,1.688618,1.949844,48.615714,-0.025848,0.030548,0.996262,-0.021137,0.01651,-0.013328,64.635284,20.185638,-147.61557,,,
729607110.401648,1.679801,1.95374,48.614503,-0.025848,0.030548,0.996262,-0.021137,0.01651,-0.013328,64.635284,20.185638,-147.61557,,,
729607110.405021,1.679801,1.95374,48.614503,-0.025848,0.030548,0.996262,-0.021137,0.01651,-0.013328,64.635284,20.185638,-147.61557,,,
729607110.408318,1.672378,1.96037,48.613918,-0.033951,0.030136,0.996368,-0.02585,0.024671,-0.004074,64.635284,20.185638,-147.61557,,,
729607110.411636,1.663423,1.965589,48.614148,-0.033951,0.030136,0.996368,-0.02585,0.024671,-0.004074,64.635284,20.185638,-147.61557,,,
729607110.414975,1.663423,1.965589,48.614148,-0.033951,0.030136,0.996368,-0.02585,0.024671,-0.004074,64.635284,20.185638,-147.61557,,,
729607110.418382,1.654757,1.972074,48.614665,-0.03688,0.028549,0.999939,-0.030103,0.025273,-0.002067,64.635284,20.185638,-147.61557,,,
729607110.421638,1.644772,1.97437,48.614837,-0.03688,0.028549,0.999939,-0.030103,0.025273,-0.002067,64.635284,20.185638,-147.61557,,,
729607110.424974,1.644772,1.97437,48.614837,-0.03688,0.028549,0.999939,-0.030103,0.025273,-0.002067,64.635284,20.185638,-147.61557,,,
729607110.428333,1.633569,1.976999,48.613915,-0.034775,0.032394,0.994003,-0.038787,0.011139,-0.006519,64.635284,20.185638,-147.61557,,,
729607110.431696,1.620645,1.975338,48.611985,-0.034775,0.032394,0.994003,-0.038787,0.011139,-0.006519,64.936432,20.220978,-147.88765,,,
729607110.43498,1.620645,1.975338,48.611985,-0.034775,0.032394,0.994003,-0.038787,0.011139,-0.006519,64.936432,20.220978,-147.88765,,,
729607110.438326,1.605626,1.974718,48.609519,-0.037872,0.033112,0.993347,-0.049644,-0.000936,-0.012591,64.936432,20.220978,-147.88765,,,
729607110.441659,1.590617,1.968842,48.606549,-0.037872,0.033112,0.993347,-0.049644,-0.000936,-0.012591,64.936432,20.220978,-147.88765,,,
729607110.445042,1.590617,1.968842,48.606549,-0.037872,0.033112,0.993347,-0.049644,-0.000936,-0.012591,64.936432,20.220978,-147.88765,,,
729607110.448284,1.574686,1.963059,48.602996,-0.040375,0.031906,0.995911,-0.052336,-0.018408,-0.017226,64.936432,20.220978,-147.88765,,,
729607110.451647,1.559539,1.951931,48.599903,-0.040375,0.031906,0.995911,-0.052336,-0.018408,-0.017226,64.936432,20.220978,-147.88765,,,
729607110.454973,1.559539,1.951931,48.599903,-0.040375,0.031906,0.995911,-0.052336,-0.018408,-0.017226,64.936432,20.220978,-147.88765,,,
729607110.458364,1.544292,1.941687,48.597273,-0.037262,0.030228,1.001083,-0.049154,-0.034503,-0.01021,64.936432,20.220978,-147.88765,,,
729607110.461629,1.530112,1.925513,48.5955,-0.037262,0.030228,1.001083,-0.049154,-0.034503,-0.01021,64.936432,20.220978,-147.88765,,,
729607110.464969,1.530112,1.925513,48.5955,-0.037262,0.030228,1.001083,-0.049154,-0.034503,-0.01021,64.936432,20.220978,-147.88765,,,
729607110.46831,1.517304,1.914276,48.594275,-0.037552,0.030716,1.008148,-0.046551,-0.036232,-0.007447,64.936432,20.220978,-147.88765,,,
729607110.471629,1.506602,1.899878,48.594007,-0.037552,0.030716,1.008148,-0.046551,-0.036232,-0.007447,64.777313,20.31842,-147.38707,,,
729607110.474971,1.506602,1.899878,48.594007,-0.037552,0.030716,1.008148,-0.046551,-0.036232,-0.007447,64.777313,20.31842,-147.38707,,,
729607110.478326,1.497585,1.892594,48.594451,-0.038483,0.028809,1.019043,-0.030563,-0.022542,-0.000162,64.777313,20.31842,-147.38707,,,
729607110.481682,1.491768,1.885327,48.595674,-0.038483,0.028809,1.019043,-0.030563,-0.022542,-0.000162,64.777313,20.31842,-147.38707,,,
729607110.484977,1.491768,1.885327,48.595674,-0.038483,0.028809,1.019043,-0.030563,-0.022542,-0.000162,64.777313,20.31842,-147.38707,,,
729607110.488319,1.486448,1.881829,48.597851,-0.034317,0.030014,1.0215,-0.017529,-0.007596,0.005646,64.777313,20.31842,-147.38707,,,
729607110.49165,1.4832,1.8814,48.60055,-0.034317,0.030014,1.0215,-0.017529,-0.007596,0.005646,64.777313,20.31842,-147.38707,,,
729607110.495028,1.4832,1.8814,48.60055,-0.034317,0.030014,1.0215,-0.017529,-0.007596,0.005646,64.777313,20.31842,-147.38707,,,
729607110.498336,1.480195,1.881207,48.603268,-0.036041,0.028839,1.019058,-0.011,0.006287,0.00757,64.777313,20.31842,-147.38707,,,
729607110.501659,1.478751,1.884501,48.605782,-0.036041,0.028839,1.019058,-0.011,0.006287,0.00757,64.777313,20.31842,-147.38707,,,
729607110.504987,1.478751,1.884501,48.605782,-0.036041,0.028839,1.019058,-0.011,0.006287,0.00757,64.777313,20.31842,-147.38707,,,
729607110.508364,1.477791,1.885832,48.60882,-0.041321,0.024277,1.017517,-0.002641,0.006292,0.010016,64.777313,20.31842,-147.38707,,,
729607110.511625,1.479916,1.886912,48.612796,-0.041321,0.024277,1.017517,-0.002641,0.006292,0.010016,64.809662,20.389923,-147.509476,,,
729607110.514972,1.479916,1.886912,48.612796,-0.041321,0.024277,1.017517,-0.002641,0.006292,0.010016,64.809662,20.389923,-147.509476,,,
729607110.518306,1.482878,1.885016,48.617981,-0.048492,0.021469,1.01358,0.008783,-0.003791,0.014811,64.809662,20.389923,-147.509476,,,
729607110.521723,1.488783,1.883613,48.623788,-0.048492,0.021469,1.01358,0.008783,-0.003791,0.014811,64.809662,20.389923,-147.509476,,,
729607110.524976,1.488783,1.883613,48.623788,-0.048492,0.021469,1.01358,0.008783,-0.003791,0.014811,64.809662,20.389923,-147.509476,,,
729607110.528317,1.494552,1.876128,48.629815,-0.048859,0.021576,1.008514,0.019362,-0.023076,0.019857,64.809662,20.389923,-147.509476,,,
729607110.531646,1.502646,1.86923,48.635953,-0.048859,0.021576,1.008514,0.019362,-0.023076,0.019857,64.809662,20.389923,-147.509476,,,
729607110.534962,1.502646,1.86923,48.635953,-0.048859,0.021576,1.008514,0.019362,-0.023076,0.019857,64.809662,20.389923,-147.509476,,,
729607110.538318,1.510822,1.858731,48.641875,-0.043716,0.024246,1.00293,0.028187,-0.03437,0.019115,64.809662,20.389923,-147.509476,,,
729607110.54164,1.520265,1.849872,48.647209,-0.043716,0.024246,1.00293,0.028187,-0.03437,0.019115,64.809662,20.389923,-147.509476,,,
729607110.544984,1.520265,1.849872,48.647209,-0.043716,0.024246,1.00293,0.028187,-0.03437,0.019115,64.809662,20.389923,-147.509476,,,
729607110.548309,1.529031,1.839989,48.652209,-0.038223,0.027084,1.001129,0.031017,-0.030019,0.017219,64.809662,20.389923,-147.509476,,,
729607110.551637,1.538489,1.833535,48.656758,-0.038223,0.027084,1.001129,0.031017,-0.030019,0.017219,64.809662,20.389923,-147.509476,,,
729607110.554986,1.538489,1.833535,48.656758,-0.038223,0.027084,1.001129,0.031017,-0.030019,0.017219,64.614136,20.196991,-147.746078,,,
729607110.558369,1.547073,1.826275,48.661344,-0.033905,0.030136,0.996521,0.031921,-0.023469,0.016626,64.614136,20.196991,-147.746078,,,
729607110.561639,1.556342,1.822928,48.666484,-0.033905,0.030136,0.996521,0.031921,-0.023469,0.016626,64.614136,20.196991,-147.746078,,,
729607110.565086,1.556342,1.822928,48.666484,-0.033905,0.030136,0.996521,0.031921,-0.023469,0.016626,64.614136,20.196991,-147.746078,,,
729607110.568347,1.565422,1.820742,48.67288,-0.030167,0.028107,0.996704,0.032573,-0.004185,0.022437,64.614136,20.196991,-147.746078,,,
729607110.571729,1.574482,1.821336,48.681153,-0.030167,0.028107,0.996704,0.032573,-0.004185,0.022437,64.614136,20.196991,-147.746078,,,
729607110.574962,1.574482,1.821336,48.681153,-0.030167,0.028107,0.996704,0.032573,-0.004185,0.022437,64.614136,20.196991,-147.746078,,,
729607110.578341,1.583454,1.822383,48.691147,-0.032455,0.022964,0.994888,0.029922,0.007076,0.035963,64.614136,20.196991,-147.746078,,,
729607110.581649,1.592217,1.825692,48.701609,-0.032455,0.022964,0.994888,0.029922,0.007076,0.035963,64.614136,20.196991,-147.746078,,,
729607110.585046,1.592217,1.825692,48.701609,-0.032455,0.022964,0.994888,0.029922,0.007076,0.035963,64.614136,20.196991,-147.746078,,,
729607110.588311,1.60084,1.8256,48.711692,-0.027283,0.027298,0.98735,0.031221,0.0025,0.036333,64.614136,20.196991,-147.746078,,,
729607110.591669,1.607706,1.82929,48.720835,-0.027283,0.027298,0.98735,0.031221,0.0025,0.036333,64.614136,20.196991,-147.746078,,,
729607110.594984,1.607706,1.82929,48.720835,-0.027283,0.027298,0.98735,0.031221,0.0025,0.036333,64.845184,20.163696,-147.657242,,,
729607110.5984,1.615082,1.827601,48.7286,-0.024155,0.033752,0.981369,0.02627,-0.001554,0.028634,64.845184,20.163696,-147.657242,,,
729607110.601638,1.620322,1.833936,48.734172,-0.024155,0.033752,0.981369,0.02627,-0.001554,0.028634,64.845184,20.163696,-147.657242,,,
729607110.604991,1.620322,1.833936,48.734172,-0.024155,0.033752,0.981369,0.02627,-0.001554,0.028634,64.845184,20.163696,-147.657242,,,
729607110.608324,1.626563,1.831584,48.738107,-0.020721,0.035431,0.983627,0.023661,-0.003915,0.013162,64.845184,20.163696,-147.657242,,,
729607110.611717,1.630859,1.83412,48.740416,-0.020721,0.035431,0.983627,0.023661,-0.003915,0.013162,64.845184,20.163696,-147.657242,,,
729607110.61497,1.630859,1.83412,48.740416,-0.020721,0.035431,0.983627,0.023661,-0.003915,0.013162,64.845184,20.163696,-147.657242,,,
729607110.618328,1.636312,1.828426,48.742439,-0.020966,0.033417,0.979401,0.01853,-0.018577,0.005907,64.845184,20.163696,-147.657242,,,
729607110.621649,1.639885,1.827158,48.743608,-0.020966,0.033417,0.979401,0.01853,-0.018577,0.005907,64.845184,20.163696,-147.657242,,,
729607110.62504,1.639885,1.827158,48.743608,-0.020966,0.033417,0.979401,0.01853,-0.018577,0.005907,64.845184,20.163696,-147.657242,,,
729607110.6283,1.643068,1.823095,48.7441,-0.02388,0.029678,0.98204,0.012275,-0.014219,0.00288,64.845184,20.163696,-147.657242,,,
729607110.631633,1.645636,1.822663,48.745215,-0.02388,0.029678,0.98204,0.012275,-0.014219,0.00288,64.845184,20.163696,-147.657242,,,
729607110.634971,1.645636,1.822663,48.745215,-0.02388,0.029678,0.98204,0.012275,-0.014219,0.00288,64.645264,20.138474,-147.459442,,,
729607110.638303,1.647208,1.82131,48.747333,-0.027313,0.027222,0.987534,0.004307,-0.000923,0.004775,64.645264,20.138474,-147.459442,,,
729607110.641679,1.648842,1.821222,48.75048,-0.027313,0.027222,0.987534,0.004307,-0.000923,0.004775,64.645264,20.138474,-147.459442,,,
729607110.644974,1.648842,1.821222,48.75048,-0.027313,0.027222,0.987534,0.004307,-0.000923,0.004775,64.645264,20.138474,-147.459442,,,
729607110.64838,1.650371,1.821333,48.75439,-0.033371,0.023483,0.98822,0.004772,0.002867,0.01152,64.645264,20.138474,-147.459442,,,
729607110.651638,1.651156,1.82293,48.758296,-0.033371,0.023483,0.98822,0.004772,0.002867,0.01152,64.645264,20.138474,-147.459442,,,
729607110.654987,1.651156,1.82293,48.758296,-0.033371,0.023483,0.98822,0.004772,0.002867,0.01152,64.645264,20.138474,-147.459442,,,
729607110.658318,1.651798,1.825668,48.761752,-0.03418,0.025101,0.992645,0.005789,0.009743,0.011282,64.645264,20.138474,-147.459442,,,
729607110.661687,1.651543,1.827471,48.764534,-0.03418,0.025101,0.992645,0.005789,0.009743,0.011282,64.645264,20.138474,-147.459442,,,
729607110.664966,1.651543,1.827471,48.764534,-0.03418,0.025101,0.992645,0.005789,0.009743,0.011282,64.645264,20.138474,-147.459442,,,
729607110.668315,1.652515,1.828187,48.766791,-0.032166,0.026352,0.99147,0.004122,0.006505,0.007143,64.645264,20.138474,-147.459442,,,
729607110.671486,1.653325,1.825442,48.768251,-0.032166,0.026352,0.99147,0.004122,0.006505,0.007143,64.645264,20.138474,-147.459442,,,
729607110.675034,1.653325,1.825442,48.768251,-0.032166,0.026352,0.99147,0.004122,0.006505,0.007143,64.645264,20.138474,-147.459442,,,
729607110.6783,1.653057,1.82493,48.769054,-0.034393,0.02803,0.990112,-0.000892,0.000934,0.002216,64.733627,20.247437,-147.422134,,,
729607110.681644,1.653412,1.820298,48.769694,-0.034393,0.02803,0.990112,-0.000892,0.000934,0.002216,64.733627,20.247437,-147.422134,,,
729607110.684974,1.653412,1.820298,48.769694,-0.034393,0.02803,0.990112,-0.000892,0.000934,0.002216,64.733627,20.247437,-147.422134,,,
729607110.68836,1.651576,1.819862,48.769614,-0.033173,0.027023,0.993805,-0.006914,0.002727,-0.002078,64.733627,20.247437,-147.422134,,,
729607110.691644,1.650102,1.815398,48.769282,-0.033173,0.027023,0.993805,-0.006914,0.002727,-0.002078,64.733627,20.247437,-147.422134,,,
729607110.694982,1.650102,1.815398,48.769282,-0.033173,0.027023,0.993805,-0.006914,0.002727,-0.002078,64.733627,20.247437,-147.422134,,,
729607110.698307,1.646949,1.816778,48.769292,-0.032471,0.027405,0.994675,-0.008335,0.005957,-0.002372,64.733627,20.247437,-147.422134,,,
729607110.701779,1.64475,1.814955,48.770192,-0.032471,0.027405,0.994675,-0.008335,0.005957,-0.002372,64.733627,20.247437,-147.422134,,,
729607110.704977,1.64475,1.814955,48.770192,-0.032471,0.027405,0.994675,-0.008335,0.005957,-0.002372,64.733627,20.247437,-147.422134,,,
729607110.7083,1.642612,1.818829,48.772034,-0.032776,0.025696,0.999664,-0.010415,0.015425,0.004067,64.733627,20.247437,-147.422134,,,
729607110.711638,1.641091,1.820089,48.774564,-0.032776,0.025696,0.999664,-0.010415,0.015425,0.004067,64.733627,20.247437,-147.422134,,,
729607110.715036,1.641091,1.820089,48.774564,-0.032776,0.025696,0.999664,-0.010415,0.015425,0.004067,64.733627,20.247437,-147.422134,,,
729607110.718303,1.640662,1.823501,48.776807,-0.035736,0.024994,1.005463,-0.002973,0.014615,0.008057,64.643143,20.353485,-147.615402,,,
729607110.721648,1.640378,1.825085,48.779559,-0.035736,0.024994,1.005463,-0.002973,0.014615,0.008057,64.643143,20.353485,-147.615402,,,
729607110.724977,1.640378,1.825085,48.779559,-0.035736,0.024994,1.005463,-0.002973,0.014615,0.008057,64.643143,20.353485,-147.615402,,,
729607110.728346,1.640312,1.827111,48.78197,-0.034012,0.026566,1.002716,-0.000838,0.009962,0.007678,64.643143,20.353485,-147.615402,,,
729607110.731636,1.639088,1.831741,48.783555,-0.034012,0.026566,1.002716,-0.000838,0.009962,0.007678,64.643143,20.353485,-147.615402,,,
729607110.734969,1.639088,1.831741,48.783555,-0.034012,0.026566,1.002716,-0.000838,0.009962,0.007678,64.643143,20.353485,-147.615402,,,
729607110.738294,1.638491,1.834677,48.78505,-0.03508,0.029984,1.002151,-0.003416,0.014875,0.004076,64.643143,20.353485,-147.615402,,,
729607110.741662,1.636398,1.837361,48.785927,-0.03508,0.029984,1.002151,-0.003416,0.014875,0.004076,64.643143,20.353485,-147.615402,,,
729607110.74498,1.636398,1.837361,48.785927,-0.03508,0.029984,1.002151,-0.003416,0.014875,0.004076,64.643143,20.353485,-147.615402,,,
729607110.748295,1.634787,1.838452,48.78659,-0.038742,0.030014,1.001099,-0.005494,0.004836,0.003436,64.643143,20.353485,-147.615402,,,
729607110.751664,1.632966,1.839028,48.787604,-0.038742,0.030014,1.001099,-0.005494,0.004836,0.003436,64.643143,20.353485,-147.615402,,,
729607110.755069,1.632966,1.839028,48.787604,-0.038742,0.030014,1.001099,-0.005494,0.004836,0.003436,64.643143,20.353485,-147.615402,,,
729607110.758303,1.630534,1.838436,48.788645,-0.040421,0.026733,1.004486,-0.00626,-0.0015,0.003091,64.663895,20.275711,-147.695648,,,
729607110.761678,1.627799,1.839213,48.789512,-0.040421,0.026733,1.004486,-0.00626,-0.0015,0.003091,64.663895,20.275711,-147.695648,,,
729607110.764977,1.627799,1.839213,48.789512,-0.040421,0.026733,1.004486,-0.00626,-0.0015,0.003091,64.663895,20.275711,-147.695648,,,
729607110.768311,1.624634,1.838573,48.790293,-0.042938,0.024994,1.008911,-0.011722,0.000504,0.001863,64.663895,20.275711,-147.695648,,,
729607110.771643,1.621013,1.837491,48.79099,-0.042938,0.024994,1.008911,-0.011722,0.000504,0.001863,64.663895,20.275711,-147.695648,,,
729607110.774985,1.621013,1.837491,48.79099,-0.042938,0.024994,1.008911,-0.011722,0.000504,0.001863,64.663895,20.275711,-147.695648,,,
729607110.778305,1.618825,1.834951,48.791941,-0.042114,0.024368,1.010696,-0.007118,-0.004483,0.000741,64.663895,20.275711,-147.695648,,,
729607110.781699,1.617826,1.83233,48.793138,-0.042114,0.024368,1.010696,-0.007118,-0.004483,0.000741,64.663895,20.275711,-147.695648,,,
729607110.785006,1.617826,1.83233,48.793138,-0.042114,0.024368,1.010696,-0.007118,-0.004483,0.000741,64.663895,20.275711,-147.695648,,,
729607110.788315,1.618274,1.829408,48.794355,-0.041458,0.022202,1.017929,0.003347,-0.007406,0.00161,64.663895,20.275711,-147.695648,,,
729607110.791635,1.618274,1.826192,48.796006,-0.041458,0.022202,1.017929,0.003347,-0.007406,0.00161,64.663895,20.275711,-147.695648,,,
729607110.794968,1.619269,1.826192,48.796006,-0.041458,0.022202,1.017929,0.003347,-0.007406,0.00161,64.663895,20.275711,-147.695648,,,
729607110.798303,1.622052,1.820223,48.798178,-0.03952,0.017303,1.01445,0.00993,-0.017864,0.009133,64.664383,20.488571,-147.870132,,,
729607110.801636,1.622052,1.820223,48.798178,-0.03952,0.017303,1.01445,0.00993,-0.017864,0.009133,64.664383,20.488571,-147.870132,,,
729607110.804973,1.62527,1.816093,48.800503,-0.03952,0.017303,1.01445,0.00993,-0.017864,0.009133,64.664383,20.488571,-147.870132,,,
729607110.808404,1.629808,1.810337,48.803188,-0.035507,0.021515,1.011292,0.018377,-0.017965,0.007475,64.664383,20.488571,-147.870132,,,
729607110.811632,1.629808,1.810337,48.803188,-0.035507,0.021515,1.011292,0.018377,-0.017965,0.007475,64.664383,20.488571,-147.870132,,,
729607110.814966,1.634246,1.805638,48.805483,-0.035507,0.021515,1.011292,0.018377,-0.017965,0.007475,64.664383,20.488571,-147.870132,,,
729607110.818305,1.638829,1.800848,48.807137,-0.028763,0.025528,1.008636,0.01586,-0.0113,0.006657,64.664383,20.488571,-147.870132,,,
729607110.821661,1.638829,1.800848,48.807137,-0.028763,0.025528,1.008636,0.01586,-0.0113,0.006657,64.664383,20.488571,-147.870132,,,
729607110.824981,1.643595,1.799134,48.807812,-0.028763,0.025528,1.008636,0.01586,-0.0113,0.006657,64.664383,20.488571,-147.870132,,,
729607110.828337,1.647745,1.795585,48.807038,-0.023697,0.02684,1.003189,0.017161,-0.010922,-0.002359,64.664383,20.488571,-147.870132,,,
729607110.831695,1.647745,1.795585,48.807038,-0.023697,0.02684,1.003189,0.017161,-0.010922,-0.002359,64.664383,20.488571,-147.870132,,,
729607110.834962,1.651347,1.79596,48.805086,-0.023697,0.02684,1.003189,0.017161,-0.010922,-0.002359,64.664383,20.488571,-147.870132,,,
729607110.838307,1.654324,1.792715,48.802961,-0.020752,0.02739,0.997971,0.010412,-0.009409,-0.008457,64.664383,20.488571,-147.870132,,,
729607110.841634,1.654324,1.792715,48.802961,-0.020752,0.02739,0.997971,0.010412,-0.009409,-0.008457,64.684509,20.335266,-147.54747,,,
729607110.845066,1.656262,1.793545,48.80037,-0.020752,0.02739,0.997971,0.010412,-0.009409,-0.008457,64.684509,20.335266,-147.54747,,,
729607110.8483,1.657925,1.789196,48.797762,-0.027267,0.027283,0.992523,0.006266,-0.014153,-0.012048,64.684509,20.335266,-147.54747,,,
729607110.851634,1.657925,1.789196,48.797762,-0.027267,0.027283,0.992523,0.006266,-0.014153,-0.012048,64.684509,20.335266,-147.54747,,,
729607110.854989,1.657375,1.788397,48.795408,-0.027267,0.027283,0.992523,0.006266,-0.014153,-0.012048,64.684509,20.335266,-147.54747,,,
729607110.858308,1.656695,1.781889,48.794106,-0.032516,0.023727,0.990295,0.000297,-0.02222,-0.007849,64.684509,20.335266,-147.54747,,,
729607110.861644,1.656695,1.781889,48.794106,-0.032516,0.023727,0.990295,0.000297,-0.02222,-0.007849,64.684509,20.335266,-147.54747,,,
729607110.86498,1.65408,1.780121,48.793238,-0.032516,0.023727,0.990295,0.000297,-0.02222,-0.007849,64.684509,20.335266,-147.54747,,,
729607110.868303,1.651723,1.772895,48.792707,-0.030106,0.024399,0.992172,-0.008947,-0.021534,-0.005034,64.684509,20.335266,-147.54747,,,
729607110.871704,1.651723,1.772895,48.792707,-0.030106,0.024399,0.992172,-0.008947,-0.021534,-0.005034,64.684509,20.335266,-147.54747,,,
729607110.874979,1.647403,1.769091,48.792708,-0.030106,0.024399,0.992172,-0.008947,-0.021534,-0.005034,64.684509,20.335266,-147.54747,,,
729607110.878303,1.645416,1.761009,48.793664,-0.031952,0.023361,0.994247,-0.008867,-0.025325,0.000928,64.684509,20.335266,-147.54747,,,
729607110.88163,1.645416,1.761009,48.793664,-0.031952,0.023361,0.994247,-0.008867,-0.025325,0.000928,64.690094,20.324875,-147.881332,,,
729607110.885082,1.641368,1.755333,48.795462,-0.031952,0.023361,0.994247,-0.008867,-0.025325,0.000928,64.690094,20.324875,-147.881332,,,
729607110.888349,1.639155,1.746115,48.797754,-0.033936,0.019485,0.997116,-0.004566,-0.029082,0.009041,64.690094,20.324875,-147.881332,,,
729607110.891691,1.639155,1.746115,48.797754,-0.033936,0.019485,0.997116,-0.004566,-0.029082,0.009041,64.690094,20.324875,-147.881332,,,
729607110.895072,1.636035,1.738728,48.800042,-0.033936,0.019485,0.997116,-0.004566,-0.029082,0.009041,64.690094,20.324875,-147.881332,,,
729607110.898306,1.63443,1.731094,48.802755,-0.031281,0.019669,0.99968,-0.004494,-0.022809,0.008021,64.690094,20.324875,-147.881332,,,
729607110.901676,1.63443,1.731094,48.802755,-0.031281,0.019669,0.99968,-0.004494,-0.022809,0.008021,64.690094,20.324875,-147.881332,,,
729607110.904979,1.633205,1.722494,48.805655,-0.031281,0.019669,0.99968,-0.004494,-0.022809,0.008021,64.690094,20.324875,-147.881332,,,
729607110.908305,1.633369,1.714977,48.808406,-0.029404,0.019516,1.003799,-0.000377,-0.02469,0.005688,64.690094,20.324875,-147.881332,,,
729607110.911635,1.633369,1.714977,48.808406,-0.029404,0.019516,1.003799,-0.000377,-0.02469,0.005688,64.690094,20.324875,-147.881332,,,
729607110.914981,1.63457,1.703182,48.811352,-0.029404,0.019516,1.003799,-0.000377,-0.02469,0.005688,64.690094,20.324875,-147.881332,,,
729607110.918304,1.637631,1.695059,48.81395,-0.027344,0.015915,1.002716,0.012305,-0.02617,0.007965,64.690094,20.324875,-147.881332,,,
729607110.921636,1.637631,1.695059,48.81395,-0.027344,0.015915,1.002716,0.012305,-0.02617,0.007965,64.629105,20.08403,-147.518768,,,
729607110.924971,1.641606,1.684671,48.816003,-0.027344,0.015915,1.002716,0.012305,-0.02617,0.007965,64.629105,20.08403,-147.518768,,,
729607110.928304,1.645904,1.678298,48.817089,-0.021851,0.019821,1.001648,0.013643,-0.020734,0.00052,64.629105,20.08403,-147.518768,,,
729607110.931635,1.645904,1.678298,48.817089,-0.021851,0.019821,1.001648,0.013643,-0.020734,0.00052,64.629105,20.08403,-147.518768,,,
729607110.935054,1.649382,1.673553,48.81707,-0.021851,0.019821,1.001648,0.013643,-0.020734,0.00052,64.629105,20.08403,-147.518768,,,
729607110.938297,1.653004,1.669315,48.816427,-0.018372,0.025833,0.994431,0.011358,-0.010132,-0.003419,64.629105,20.08403,-147.518768,,,
729607110.941644,1.653004,1.669315,48.816427,-0.018372,0.025833,0.994431,0.011358,-0.010132,-0.003419,64.629105,20.08403,-147.518768,,,
729607110.944973,1.654997,1.666769,48.815883,-0.018372,0.025833,0.994431,0.011358,-0.010132,-0.003419,64.629105,20.08403,-147.518768,,,
729607110.948295,1.657421,1.66299,48.815921,-0.019653,0.02269,0.990326,0.008765,-0.009286,-0.001074,64.629105,20.08403,-147.518768,,,
729607110.95167,1.657421,1.66299,48.815921,-0.019653,0.02269,0.990326,0.008765,-0.009286,-0.001074,64.629105,20.08403,-147.518768,,,
729607110.954981,1.658407,1.660257,48.816581,-0.019653,0.02269,0.990326,0.008765,-0.009286,-0.001074,64.629105,20.08403,-147.518768,,,
729607110.958297,1.659812,1.656654,48.817647,-0.020889,0.024567,0.98616,0.004591,-0.008502,0.001305,64.629105,20.08403,-147.518768,,,
729607110.961631,1.659812,1.656654,48.817647,-0.020889,0.024567,0.98616,0.004591,-0.008502,0.001305,64.656784,19.970032,-147.683472,,,
729607110.964961,1.658634,1.654497,48.818413,-0.020889,0.024567,0.98616,0.004591,-0.008502,0.001305,64.656784,19.970032,-147.683472,,,
729607110.968296,1.657552,1.650561,48.818965,-0.015625,0.032135,0.983612,-0.00095,-0.012726,0.000358,64.656784,19.970032,-147.683472,,,
729607110.971648,1.657552,1.650561,48.818965,-0.015625,0.032135,0.983612,-0.00095,-0.012726,0.000358,64.656784,19.970032,-147.683472,,,
729607110.975037,1.654344,1.648208,48.818531,-0.015625,0.032135,0.983612,-0.00095,-0.012726,0.000358,64.656784,19.970032,-147.683472,,,
729607110.978295,1.652806,1.643493,48.816738,-0.011292,0.0354,0.983475,-0.005772,-0.014695,-0.006266,64.656784,19.970032,-147.683472,,,
729607110.98164,1.652806,1.643493,48.816738,-0.011292,0.0354,0.983475,-0.005772,-0.014695,-0.006266,64.656784,19.970032,-147.683472,,,
729607110.984971,1.648498,1.640095,48.813796,-0.011292,0.0354,0.983475,-0.005772,-0.014695,-0.006266,64.656784,19.970032,-147.683472,,,
729607110.988303,1.645106,1.636772,48.810364,-0.014374,0.034958,0.981628,-0.009276,-0.011503,-0.013709,64.656784,19.970032,-147.683472,,,
729607110.991655,1.645106,1.636772,48.810364,-0.014374,0.034958,0.981628,-0.009276,-0.011503,-0.013709,64.656784,19.970032,-147.683472,,,
729607110.994969,1.639783,1.633424,48.807462,-0.014374,0.034958,0.981628,-0.009276,-0.011503,-0.013709,64.656784,19.970032,-147.683472,,,
729607110.998303,1.636265,1.631583,48.805439,-0.021713,0.030029,0.981125,-0.012041,-0.001867,-0.009141,64.656784,19.970032,-147.683472,,,
729607111.00171,1.636265,1.631583,48.805439,-0.021713,0.030029,0.981125,-0.012041,-0.001867,-0.009141,64.656784,19.970032,-147.683472,,,
729607111.004985,1.630227,1.629999,48.804265,-0.021713,0.030029,0.981125,-0.012041,-0.001867,-0.009141,64.31369,20.235611,-147.858902,,,
729607111.008294,1.626585,1.630803,48.803773,-0.02243,0.028931,0.985214,-0.014524,0.004394,-0.002925,64.31369,20.235611,-147.858902,,,
729607111.011648,1.626585,1.630803,48.803773,-0.02243,0.028931,0.985214,-0.014524,0.004394,-0.002925,64.31369,20.235611,-147.858902,,,
729607111.015041,1.621448,1.629152,48.803903,-0.02243,0.028931,0.985214,-0.014524,0.004394,-0.002925,64.31369,20.235611,-147.858902,,,
729607111.018297,1.616743,1.632093,48.804164,-0.017059,0.03566,0.981613,-0.017559,0.014432,-0.001377,64.31369,20.235611,-147.858902,,,
729607111.021649,1.616743,1.632093,48.804164,-0.017059,0.03566,0.981613,-0.017559,0.014432,-0.001377,64.31369,20.235611,-147.858902,,,
729607111.02498,1.610695,1.630189,48.804126,-0.017059,0.03566,0.981613,-0.017559,0.014432,-0.001377,64.31369,20.235611,-147.858902,,,
729607111.028311,1.60437,1.632307,48.8032,-0.018295,0.041214,0.980072,-0.021948,0.010099,-0.004923,64.31369,20.235611,-147.858902,,,
729607111.031733,1.60437,1.632307,48.8032,-0.018295,0.041214,0.980072,-0.021948,0.010099,-0.004923,64.31369,20.235611,-147.858902,,,
729607111.034953,1.59547,1.629595,48.802335,-0.018295,0.041214,0.980072,-0.021948,0.010099,-0.004923,64.31369,20.235611,-147.858902,,,
729607111.038301,1.586239,1.628616,48.801285,-0.026566,0.042267,0.978851,-0.031096,0.001287,-0.005762,64.31369,20.235611,-147.858902,,,
729607111.041693,1.586239,1.628616,48.801285,-0.026566,0.042267,0.978851,-0.031096,0.001287,-0.005762,64.31369,20.235611,-147.858902,,,
729607111.044966,1.575701,1.62255,48.800572,-0.026566,0.042267,0.978851,-0.031096,0.001287,-0.005762,64.260117,20.365982,-147.37532,,,
