Time (sec),Pitch (deg),Roll (deg),Yaw(deg),X-Acceleration (g),Y-Acceleration (g),Z-Acceleration (g),Pitch Rate (deg/sec),Roll Rate (deg/sec),Yaw Rate (deg/sec),Magnetic Field in X direction (uT),Magnetic Field in Y direction (uT),Magnetic Field in Z Direction (uT),Latitude (deg),Longitude (deg),Altitude (m)
729601007.6354,1.577363,-2.096422,-7.694018,0.035233,0.024872,1.007202,0.099001,-0.076323,-0.004343,65.616348,8.301712,-147.514465,,,
729601007.638738,1.577363,-2.096422,-7.694018,0.035233,0.024872,1.007202,0.099001,-0.076323,-0.004343,65.616348,8.301712,-147.514465,,,
729601007.642104,1.606342,-2.116604,-7.692904,0.031677,0.021851,1.008163,0.108826,-0.07084,-0.00081,65.616348,8.301712,-147.514465,,,
729601007.645404,1.63769,-2.136441,-7.692012,0.031677,0.021851,1.008163,0.108826,-0.07084,-0.00081,65.616348,8.301712,-147.514465,,,
729601007.648746,1.63769,-2.136441,-7.692012,0.031677,0.021851,1.008163,0.108826,-0.07084,-0.00081,65.616348,8.301712,-147.514465,,,
729601007.652103,1.666769,-2.150926,-7.690823,0.032318,0.02594,0.997971,0.108634,-0.04869,0.001644,65.616348,8.301712,-147.514465,,,
729601007.655399,1.697398,-2.163899,-7.688219,0.032318,0.02594,0.997971,0.108634,-0.04869,0.001644,65.616348,8.301712,-147.514465,,,
729601007.658772,1.697398,-2.163899,-7.688219,0.032318,0.02594,0.997971,0.108634,-0.04869,0.001644,65.616348,8.301712,-147.514465,,,
729601007.662072,1.724292,-2.169326,-7.684366,0.034286,0.028015,0.993866,0.099834,-0.018299,0.011307,65.616348,8.301712,-147.514465,,,
729601007.665408,1.751923,-2.174179,-7.679347,0.034286,0.028015,0.993866,0.099834,-0.018299,0.011307,65.616348,8.301712,-147.514465,,,
729601007.668727,1.751923,-2.174179,-7.679347,0.034286,0.028015,0.993866,0.099834,-0.018299,0.011307,65.616348,8.301712,-147.514465,,,
729601007.672094,1.775427,-2.173291,-7.673576,0.033279,0.025726,0.985184,0.085301,-0.002952,0.017875,65.616348,8.301712,-147.514465,,,
729601007.675421,1.798075,-2.174224,-7.666489,0.033279,0.025726,0.985184,0.085301,-0.002952,0.017875,65.457901,8.309525,-147.545746,,,
729601007.678752,1.798075,-2.174224,-7.666489,0.033279,0.025726,0.985184,0.085301,-0.002952,0.017875,65.457901,8.309525,-147.545746,,,
729601007.682143,1.815694,-2.169844,-7.659404,0.028076,0.026581,0.976089,0.063664,0.012878,0.019332,65.457901,8.309525,-147.545746,,,
729601007.685393,1.831897,-2.165944,-7.652799,0.028076,0.026581,0.976089,0.063664,0.012878,0.019332,65.457901,8.309525,-147.545746,,,
729601007.688746,1.831897,-2.165944,-7.652799,0.028076,0.026581,0.976089,0.063664,0.012878,0.019332,65.457901,8.309525,-147.545746,,,
729601007.692085,1.843056,-2.158453,-7.647116,0.028671,0.031769,0.970673,0.036781,0.024334,0.014374,65.457901,8.309525,-147.545746,,,
729601007.695397,1.852019,-2.15312,-7.642229,0.028671,0.031769,0.970673,0.036781,0.024334,0.014374,65.457901,8.309525,-147.545746,,,
729601007.698732,1.852019,-2.15312,-7.642229,0.028671,0.031769,0.970673,0.036781,0.024334,0.014374,65.457901,8.309525,-147.545746,,,
729601007.702121,1.857475,-2.148416,-7.636845,0.034821,0.032516,0.966812,0.023044,0.014251,0.01856,65.457901,8.309525,-147.545746,,,
729601007.705402,1.862531,-2.146549,-7.630497,0.034821,0.032516,0.966812,0.023044,0.014251,0.01856,65.457901,8.309525,-147.545746,,,
729601007.70879,1.862531,-2.146549,-7.630497,0.034821,0.032516,0.966812,0.023044,0.014251,0.01856,65.457901,8.309525,-147.545746,,,
729601007.71206,1.863357,-2.145567,-7.6235,0.031555,0.030502,0.96785,0.01101,0.000246,0.0238,65.457901,8.309525,-147.545746,,,
729601007.715395,1.865739,-2.148204,-7.615399,0.031555,0.030502,0.96785,0.01101,0.000246,0.0238,65.559784,8.265564,-147.39003,,,
729601007.718743,1.865739,-2.148204,-7.615399,0.031555,0.030502,0.96785,0.01101,0.000246,0.0238,65.559784,8.265564,-147.39003,,,
729601007.722123,1.865085,-2.152255,-7.60578,0.028412,0.026733,0.97113,0.010159,-0.020767,0.034806,65.559784,8.265564,-147.39003,,,
729601007.725421,1.866237,-2.160484,-7.595622,0.028412,0.026733,0.97113,0.010159,-0.020767,0.034806,65.559784,8.265564,-147.39003,,,
729601007.728769,1.866237,-2.160484,-7.595622,0.028412,0.026733,0.97113,0.010159,-0.020767,0.034806,65.559784,8.265564,-147.39003,,,
729601007.732098,1.864132,-2.169029,-7.586347,0.038239,0.025482,0.972824,-0.004181,-0.030579,0.029448,65.559784,8.265564,-147.39003,,,
729601007.735397,1.861682,-2.178614,-7.578729,0.038239,0.025482,0.972824,-0.004181,-0.030579,0.029448,65.559784,8.265564,-147.39003,,,
729601007.738743,1.861682,-2.178614,-7.578729,0.038239,0.025482,0.972824,-0.004181,-0.030579,0.029448,65.559784,8.265564,-147.39003,,,
729601007.74208,1.856784,-2.1862,-7.573392,0.054214,0.028122,0.979446,-0.013899,-0.023048,0.014035,65.559784,8.265564,-147.39003,,,
729601007.745396,1.851843,-2.193172,-7.570315,0.054214,0.028122,0.979446,-0.013899,-0.023048,0.014035,65.559784,8.265564,-147.39003,,,
729601007.748829,1.851843,-2.193172,-7.570315,0.054214,0.028122,0.979446,-0.013899,-0.023048,0.014035,65.559784,8.265564,-147.39003,,,
729601007.752083,1.844498,-2.196938,-7.569393,0.064911,0.032043,0.987534,-0.0224,-0.011109,-0.000297,65.559784,8.265564,-147.39003,,,
729601007.755401,1.836225,-2.199415,-7.569155,0.064911,0.032043,0.987534,-0.0224,-0.011109,-0.000297,65.559784,8.265564,-147.39003,,,
729601007.758797,1.836225,-2.199415,-7.569155,0.064911,0.032043,0.987534,-0.0224,-0.011109,-0.000297,65.584961,8.184784,-147.468735,,,
729601007.762164,1.82475,-2.196056,-7.568509,0.061768,0.031525,0.988266,-0.039971,0.013502,0.003736,65.584961,8.184784,-147.468735,,,
729601007.766552,1.812111,-2.191459,-7.567048,0.061768,0.031525,0.988266,-0.039971,0.013502,0.003736,65.584961,8.184784,-147.468735,,,
729601007.768626,1.812111,-2.191459,-7.567048,0.061768,0.031525,0.988266,-0.039971,0.013502,0.003736,65.584961,8.184784,-147.468735,,,
729601007.77211,1.797676,-2.182772,-7.564156,0.053482,0.029877,0.98793,-0.054594,0.033916,0.014442,65.584961,8.184784,-147.468735,,,
729601007.775395,1.780639,-2.173239,-7.559756,0.053482,0.029877,0.98793,-0.054594,0.033916,0.014442,65.584961,8.184784,-147.468735,,,
729601007.778742,1.780639,-2.173239,-7.559756,0.053482,0.029877,0.98793,-0.054594,0.033916,0.014442,65.584961,8.184784,-147.468735,,,
729601007.782088,1.762506,-2.163147,-7.554608,0.041321,0.029373,0.988113,-0.064629,0.035049,0.020124,65.584961,8.184784,-147.468735,,,
729601007.7854,1.742753,-2.154994,-7.549266,0.041321,0.029373,0.988113,-0.064629,0.035049,0.020124,65.584961,8.184784,-147.468735,,,
729601007.788812,1.742753,-2.154994,-7.549266,0.041321,0.029373,0.988113,-0.064629,0.035049,0.020124,65.584961,8.184784,-147.468735,,,
729601007.792087,1.722543,-2.147212,-7.544387,0.040283,0.031052,0.987152,-0.067476,0.024263,0.017255,65.584961,8.184784,-147.468735,,,
729601007.795404,1.702771,-2.142962,-7.54073,0.040283,0.031052,0.987152,-0.067476,0.024263,0.017255,65.584961,8.184784,-147.468735,,,
729601007.798733,1.702771,-2.142962,-7.54073,0.040283,0.031052,0.987152,-0.067476,0.024263,0.017255,65.634308,8.291779,-147.046326,,,
729601007.80212,1.682563,-2.141794,-7.53884,0.038162,0.033112,0.992218,-0.066769,-0.003943,0.005113,65.634308,8.291779,-147.046326,,,
729601007.805392,1.663744,-2.145935,-7.537653,0.038162,0.033112,0.992218,-0.066769,-0.003943,0.005113,65.634308,8.291779,-147.046326,,,
729601007.808748,1.663744,-2.145935,-7.537653,0.038162,0.033112,0.992218,-0.066769,-0.003943,0.005113,65.634308,8.291779,-147.046326,,,
729601007.812074,1.645502,-2.154829,-7.53696,0.036255,0.027039,0.989395,-0.06018,-0.02906,0.001259,65.634308,8.291779,-147.046326,,,
729601007.815397,1.627798,-2.165407,-7.536917,0.036255,0.027039,0.989395,-0.06018,-0.02906,0.001259,65.634308,8.291779,-147.046326,,,
729601007.818747,1.627798,-2.165407,-7.536917,0.036255,0.027039,0.989395,-0.06018,-0.02906,0.001259,65.634308,8.291779,-147.046326,,,
729601007.82208,1.610169,-2.181323,-7.5373,0.037048,0.025665,0.993149,-0.061987,-0.042536,-0.002287,65.634308,8.291779,-147.046326,,,
729601007.825394,1.593019,-2.195235,-7.538247,0.037048,0.025665,0.993149,-0.061987,-0.042536,-0.002287,65.634308,8.291779,-147.046326,,,
729601007.828818,1.593019,-2.195235,-7.538247,0.037048,0.025665,0.993149,-0.061987,-0.042536,-0.002287,65.634308,8.291779,-147.046326,,,
729601007.83207,1.578579,-2.214356,-7.538914,0.043228,0.026382,1.000198,-0.048983,-0.046925,-0.001659,65.634308,8.291779,-147.046326,,,
729601007.8354,1.565784,-2.228067,-7.539341,0.043228,0.026382,1.000198,-0.048983,-0.046925,-0.001659,65.634308,8.291779,-147.046326,,,
729601007.838514,1.565784,-2.228067,-7.539341,0.043228,0.026382,1.000198,-0.048983,-0.046925,-0.001659,65.544342,8.415375,-147.493027,,,
729601007.842138,1.556162,-2.244348,-7.539522,0.052139,0.027939,1.011398,-0.032922,-0.034796,-0.001365,65.544342,8.415375,-147.493027,,,
729601007.845393,1.546965,-2.254214,-7.540022,0.052139,0.027939,1.011398,-0.032922,-0.034796,-0.001365,65.544342,8.415375,-147.493027,,,
729601007.848747,1.546965,-2.254214,-7.540022,0.052139,0.027939,1.011398,-0.032922,-0.034796,-0.001365,65.544342,8.415375,-147.493027,,,
729601007.852083,1.539457,-2.265051,-7.540564,0.051346,0.027893,1.018753,-0.028284,-0.022217,-0.002371,65.544342,8.415375,-147.493027,,,
729601007.855397,1.531678,-2.270641,-7.541306,0.051346,0.027893,1.018753,-0.028284,-0.022217,-0.002371,65.544342,8.415375,-147.493027,,,
729601007.858746,1.531678,-2.270641,-7.541306,0.051346,0.027893,1.018753,-0.028284,-0.022217,-0.002371,65.544342,8.415375,-147.493027,,,
729601007.862079,1.524811,-2.273634,-7.542368,0.044388,0.025314,1.011856,-0.026734,-0.000907,-0.004762,65.544342,8.415375,-147.493027,,,
729601007.865398,1.516511,-2.273498,-7.544232,0.044388,0.025314,1.011856,-0.026734,-0.000907,-0.004762,65.544342,8.415375,-147.493027,,,
729601007.868803,1.516511,-2.273498,-7.544232,0.044388,0.025314,1.011856,-0.026734,-0.000907,-0.004762,65.544342,8.415375,-147.493027,,,
729601007.872063,1.510151,-2.272795,-7.547511,0.045502,0.026901,1.01503,-0.027538,0.003576,-0.01463,65.544342,8.415375,-147.493027,,,
729601007.875402,1.502708,-2.273323,-7.552299,0.045502,0.026901,1.01503,-0.027538,0.003576,-0.01463,65.544342,8.415375,-147.493027,,,
729601007.878724,1.502708,-2.273323,-7.552299,0.045502,0.026901,1.01503,-0.027538,0.003576,-0.01463,65.644348,8.501038,-147.61644,,,
729601007.882132,1.498313,-2.275197,-7.559265,0.050415,0.030197,1.007187,-0.017136,-0.011039,-0.030066,65.644348,8.501038,-147.61644,,,
729601007.885398,1.4954,-2.281064,-7.568272,0.050415,0.030197,1.007187,-0.017136,-0.011039,-0.030066,65.644348,8.501038,-147.61644,,,
729601007.888736,1.4954,-2.281064,-7.568272,0.050415,0.030197,1.007187,-0.017136,-0.011039,-0.030066,65.644348,8.501038,-147.61644,,,
729601007.892083,1.496823,-2.291142,-7.578507,0.043777,0.028305,1.014572,0.011984,-0.046612,-0.039677,65.644348,8.501038,-147.61644,,,
729601007.895392,1.501913,-2.308589,-7.58959,0.043777,0.028305,1.014572,0.011984,-0.046612,-0.039677,65.644348,8.501038,-147.61644,,,
729601007.898776,1.501913,-2.308589,-7.58959,0.043777,0.028305,1.014572,0.011984,-0.046612,-0.039677,65.644348,8.501038,-147.61644,,,
729601007.902064,1.509592,-2.332005,-7.601117,0.03389,0.019882,1.009964,0.029569,-0.092489,-0.043392,65.644348,8.501038,-147.61644,,,
729601007.905392,1.519268,-2.361121,-7.612284,0.03389,0.019882,1.009964,0.029569,-0.092489,-0.043392,65.644348,8.501038,-147.61644,,,
729601007.908727,1.519268,-2.361121,-7.612284,0.03389,0.019882,1.009964,0.029569,-0.092489,-0.043392,65.644348,8.501038,-147.61644,,,
729601007.91206,1.529657,-2.395557,-7.622244,0.028275,0.010727,1.00499,0.034882,-0.117022,-0.03562,65.644348,8.501038,-147.61644,,,
729601007.915391,1.539712,-2.431138,-7.630334,0.028275,0.010727,1.00499,0.034882,-0.117022,-0.03562,65.644348,8.501038,-147.61644,,,
729601007.918801,1.539712,-2.431138,-7.630334,0.028275,0.010727,1.00499,0.034882,-0.117022,-0.03562,65.644348,8.501038,-147.61644,,,
729601007.922051,1.548979,-2.4713,-7.635811,0.0289,0.008957,1.001602,0.029295,-0.129319,-0.017731,65.416107,8.246017,-147.444244,,,
729601007.925392,1.557331,-2.508374,-7.639589,0.0289,0.008957,1.001602,0.029295,-0.129319,-0.017731,65.416107,8.246017,-147.444244,,,
729601007.928733,1.557331,-2.508374,-7.639589,0.0289,0.008957,1.001602,0.029295,-0.129319,-0.017731,65.416107,8.246017,-147.444244,,,
729601007.932166,1.565072,-2.54454,-7.64197,0.031082,0.016647,0.998962,0.027679,-0.114438,-0.008134,65.416107,8.246017,-147.444244,,,
729601007.935394,1.571947,-2.575559,-7.642914,0.031082,0.016647,0.998962,0.027679,-0.114438,-0.008134,65.416107,8.246017,-147.444244,,,
729601007.938746,1.571947,-2.575559,-7.642914,0.031082,0.016647,0.998962,0.027679,-0.114438,-0.008134,65.416107,8.246017,-147.444244,,,
729601007.942068,1.576132,-2.600163,-7.642899,0.038712,0.024231,1.006577,0.014742,-0.073495,-0.000741,65.416107,8.246017,-147.444244,,,
729601007.945406,1.579516,-2.619465,-7.64186,0.038712,0.024231,1.006577,0.014742,-0.073495,-0.000741,65.416107,8.246017,-147.444244,,,
729601007.948764,1.579516,-2.619465,-7.64186,0.038712,0.024231,1.006577,0.014742,-0.073495,-0.000741,65.416107,8.246017,-147.444244,,,
729601007.952083,1.580927,-2.63419,-7.639454,0.046646,0.030273,1.007141,0.000457,-0.037945,0.00934,65.416107,8.246017,-147.444244,,,
729601007.955403,1.57988,-2.644195,-7.635843,0.046646,0.030273,1.007141,0.000457,-0.037945,0.00934,65.416107,8.246017,-147.444244,,,
729601007.958789,1.57988,-2.644195,-7.635843,0.046646,0.030273,1.007141,0.000457,-0.037945,0.00934,65.416107,8.246017,-147.444244,,,
729601007.962125,1.57752,-2.652066,-7.631429,0.049332,0.033554,0.999496,-0.012546,-0.018311,0.015438,65.431,8.32283,-147.562775,,,
729601007.965391,1.571467,-2.658184,-7.626159,0.049332,0.033554,0.999496,-0.012546,-0.018311,0.015438,65.431,8.32283,-147.562775,,,
729601007.968745,1.571467,-2.658184,-7.626159,0.049332,0.033554,0.999496,-0.012546,-0.018311,0.015438,65.431,8.32283,-147.562775,,,
729601007.972208,1.561934,-2.662895,-7.620614,0.046555,0.031296,0.988098,-0.034652,-0.021442,0.018735,65.431,8.32283,-147.562775,,,
729601007.975384,1.550616,-2.670227,-7.615338,0.046555,0.031296,0.988098,-0.034652,-0.021442,0.018735,65.431,8.32283,-147.562775,,,
729601007.978742,1.550616,-2.670227,-7.615338,0.046555,0.031296,0.988098,-0.034652,-0.021442,0.018735,65.431,8.32283,-147.562775,,,
729601007.982063,1.534695,-2.674578,-7.61128,0.044983,0.031189,0.976105,-0.045924,-0.031937,0.011656,65.431,8.32283,-147.562775,,,
729601007.985393,1.521337,-2.686115,-7.60915,0.044983,0.031189,0.976105,-0.045924,-0.031937,0.011656,65.431,8.32283,-147.562775,,,
729601007.988733,1.521337,-2.686115,-7.60915,0.044983,0.031189,0.976105,-0.045924,-0.031937,0.011656,65.431,8.32283,-147.562775,,,
729601007.992063,1.504097,-2.69515,-7.609372,0.05365,0.033249,0.97966,-0.039804,-0.050397,-0.004067,65.431,8.32283,-147.562775,,,
729601007.995391,1.492381,-2.711004,-7.612211,0.05365,0.033249,0.97966,-0.039804,-0.050397,-0.004067,65.431,8.32283,-147.562775,,,
729601007.998791,1.492381,-2.711004,-7.612211,0.05365,0.033249,0.97966,-0.039804,-0.050397,-0.004067,65.431,8.32283,-147.562775,,,
729601008.002078,1.477049,-2.722488,-7.617298,0.055115,0.03389,0.98526,-0.037645,-0.056093,-0.018913,65.12114,8.337433,-147.366959,,,
729601008.005433,1.466162,-2.737909,-7.623012,0.055115,0.03389,0.98526,-0.037645,-0.056093,-0.018913,65.12114,8.337433,-147.366959,,,
729601008.008722,1.466162,-2.737909,-7.623012,0.055115,0.03389,0.98526,-0.037645,-0.056093,-0.018913,65.12114,8.337433,-147.366959,,,
729601008.012083,1.453508,-2.746802,-7.628049,0.046478,0.025436,0.989792,-0.038317,-0.036549,-0.013474,65.12114,8.337433,-147.366959,,,
729601008.015342,1.44167,-2.756298,-7.631293,0.046478,0.025436,0.989792,-0.038317,-0.036549,-0.013474,65.12114,8.337433,-147.366959,,,
729601008.018733,1.44167,-2.756298,-7.631293,0.046478,0.025436,0.989792,-0.038317,-0.036549,-0.013474,65.12114,8.337433,-147.366959,,,
729601008.022107,1.428915,-2.760928,-7.632768,0.04158,0.016312,0.989624,-0.046881,-0.014309,-0.000406,65.12114,8.337433,-147.366959,,,
729601008.025393,1.414756,-2.764209,-7.63177,0.04158,0.016312,0.989624,-0.046881,-0.014309,-0.000406,65.12114,8.337433,-147.366959,,,
729601008.028742,1.414756,-2.764209,-7.63177,0.04158,0.016312,0.989624,-0.046881,-0.014309,-0.000406,65.12114,8.337433,-147.366959,,,
729601008.032065,1.401502,-2.763774,-7.628644,0.041428,0.016785,0.986633,-0.052436,0.010149,0.014768,65.12114,8.337433,-147.366959,,,
729601008.035381,1.384858,-2.761048,-7.624358,0.041428,0.016785,0.986633,-0.052436,0.010149,0.014768,65.12114,8.337433,-147.366959,,,
729601008.038829,1.384858,-2.761048,-7.624358,0.041428,0.016785,0.986633,-0.052436,0.010149,0.014768,65.12114,8.337433,-147.366959,,,
729601008.042105,1.368663,-2.758086,-7.619057,0.037704,0.014221,0.984802,-0.064753,0.014148,0.022329,65.092834,8.616974,-147.42067,,,
729601008.045416,1.34891,-2.755381,-7.613034,0.037704,0.014221,0.984802,-0.064753,0.014148,0.022329,65.092834,8.616974,-147.42067,,,
729601008.048742,1.34891,-2.755381,-7.613034,0.037704,0.014221,0.984802,-0.064753,0.014148,0.022329,65.092834,8.616974,-147.42067,,,
729601008.05213,1.331328,-2.753777,-7.607034,0.036819,0.012131,0.980316,-0.06381,0.001372,0.022226,65.092834,8.616974,-147.42067,,,
729601008.055386,1.313474,-2.755153,-7.601367,0.036819,0.012131,0.980316,-0.06381,0.001372,0.022226,65.092834,8.616974,-147.42067,,,
729601008.058737,1.313474,-2.755153,-7.601367,0.036819,0.012131,0.980316,-0.06381,0.001372,0.022226,65.092834,8.616974,-147.42067,,,
729601008.062067,1.30048,-2.759574,-7.596526,0.040039,0.008087,0.989502,-0.04904,-0.017677,0.015637,65.092834,8.616974,-147.42067,,,
729601008.065436,1.287154,-2.767751,-7.593072,0.040039,0.008087,0.989502,-0.04904,-0.017677,0.015637,65.092834,8.616974,-147.42067,,,
729601008.068741,1.287154,-2.767751,-7.593072,0.040039,0.008087,0.989502,-0.04904,-0.017677,0.015637,65.092834,8.616974,-147.42067,,,
729601008.072095,1.280034,-2.781638,-7.591523,0.050873,0.008163,0.994049,-0.029981,-0.041972,0.001056,65.092834,8.616974,-147.42067,,,
729601008.0754,1.272342,-2.795335,-7.592274,0.050873,0.008163,0.994049,-0.029981,-0.041972,0.001056,65.092834,8.616974,-147.42067,,,
729601008.078789,1.272342,-2.795335,-7.592274,0.050873,0.008163,0.994049,-0.029981,-0.041972,0.001056,65.092834,8.616974,-147.42067,,,
729601008.082056,1.269005,-2.81008,-7.594874,0.061264,0.014847,0.996719,-0.018385,-0.042799,-0.01253,65.092834,8.616974,-147.42067,,,
729601008.085467,1.263701,-2.822379,-7.598771,0.061264,0.014847,0.996719,-0.018385,-0.042799,-0.01253,65.197403,8.567352,-147.5625,,,
729601008.088687,1.263701,-2.822379,-7.598771,0.061264,0.014847,0.996719,-0.018385,-0.042799,-0.01253,65.197403,8.567352,-147.5625,,,
729601008.0921,1.258605,-2.831542,-7.603185,0.068909,0.021149,0.999741,-0.015027,-0.029431,-0.016119,65.197403,8.567352,-147.5625,,,
729601008.09541,1.253612,-2.839444,-7.608005,0.068909,0.021149,0.999741,-0.015027,-0.029431,-0.016119,65.197403,8.567352,-147.5625,,,
729601008.098742,1.253612,-2.839444,-7.608005,0.068909,0.021149,0.999741,-0.015027,-0.029431,-0.016119,65.197403,8.567352,-147.5625,,,
729601008.102089,1.246533,-2.842868,-7.613428,0.071701,0.029419,0.99205,-0.018368,-0.012235,-0.019839,65.197403,8.567352,-147.5625,,,
729601008.105429,1.241197,-2.845997,-7.619098,0.071701,0.029419,0.99205,-0.018368,-0.012235,-0.019839,65.197403,8.567352,-147.5625,,,
729601008.10873,1.241197,-2.845997,-7.619098,0.071701,0.029419,0.99205,-0.018368,-0.012235,-0.019839,65.197403,8.567352,-147.5625,,,
729601008.112059,1.233536,-2.845447,-7.625118,0.075729,0.03978,0.987839,-0.024983,-0.002316,-0.021559,65.197403,8.567352,-147.5625,,,
729601008.115423,1.226079,-2.845733,-7.631559,0.075729,0.03978,0.987839,-0.024983,-0.002316,-0.021559,65.197403,8.567352,-147.5625,,,
729601008.118797,1.226079,-2.845733,-7.631559,0.075729,0.03978,0.987839,-0.024983,-0.002316,-0.021559,65.197403,8.567352,-147.5625,,,
729601008.122072,1.215789,-2.841176,-7.638546,0.074646,0.043961,0.982071,-0.03257,0.010825,-0.024517,65.197403,8.567352,-147.5625,,,
729601008.125394,1.20607,-2.837718,-7.645387,0.074646,0.043961,0.982071,-0.03257,0.010825,-0.024517,65.117966,8.712418,-147.542633,,,
729601008.128746,1.20607,-2.837718,-7.645387,0.074646,0.043961,0.982071,-0.03257,0.010825,-0.024517,65.117966,8.712418,-147.542633,,,
729601008.132142,1.192991,-2.829384,-7.652205,0.069427,0.041138,0.984192,-0.038133,0.024342,-0.023681,65.117966,8.712418,-147.542633,,,
729601008.13544,1.182107,-2.823196,-7.658968,0.069427,0.041138,0.984192,-0.038133,0.024342,-0.023681,65.117966,8.712418,-147.542633,,,
729601008.138747,1.182107,-2.823196,-7.658968,0.069427,0.041138,0.984192,-0.038133,0.024342,-0.023681,65.117966,8.712418,-147.542633,,,
729601008.14209,1.16802,-2.817736,-7.66551,0.060806,0.033691,0.991119,-0.035386,0.009171,-0.022066,65.117966,8.712418,-147.542633,,,
729601008.145388,1.16802,-2.817736,-7.672281,0.060806,0.033691,0.991119,-0.035386,0.009171,-0.022066,65.117966,8.712418,-147.542633,,,
729601008.148739,1.157916,-2.817315,-7.672281,0.060806,0.033691,0.991119,-0.035386,0.009171,-0.022066,65.117966,8.712418,-147.542633,,,
729601008.152079,1.145948,-2.822993,-7.679405,0.053787,0.028687,0.984848,-0.030697,-0.022476,-0.025015,65.117966,8.712418,-147.542633,,,
729601008.155513,1.137285,-2.833437,-7.68796,0.053787,0.028687,0.984848,-0.030697,-0.022476,-0.025015,65.117966,8.712418,-147.542633,,,
729601008.158734,1.137285,-2.833437,-7.68796,0.053787,0.028687,0.984848,-0.030697,-0.022476,-0.025015,65.117966,8.712418,-147.542633,,,
729601008.162078,1.128637,-2.855131,-7.698967,0.043274,0.027512,0.981003,-0.027144,-0.074163,-0.042794,65.117966,8.712418,-147.542633,,,
729601008.165383,1.128637,-2.855131,-7.698967,0.043274,0.027512,0.981003,-0.027144,-0.074163,-0.042794,64.920975,8.760254,-147.552002,,,
729601008.168796,1.121616,-2.881076,-7.712534,0.043274,0.027512,0.981003,-0.027144,-0.074163,-0.042794,64.920975,8.760254,-147.552002,,,
729601008.172071,1.115926,-2.919892,-7.728282,0.037735,0.026428,0.97583,-0.026672,-0.131432,-0.058694,64.920975,8.760254,-147.552002,,,
729601008.175386,1.115926,-2.919892,-7.728282,0.037735,0.026428,0.97583,-0.026672,-0.131432,-0.058694,64.920975,8.760254,-147.552002,,,
729601008.178742,1.10915,-2.963584,-7.746205,0.037735,0.026428,0.97583,-0.026672,-0.131432,-0.058694,64.920975,8.760254,-147.552002,,,
729601008.182113,1.106458,-3.022706,-7.765121,0.038406,0.023773,0.968643,-0.019035,-0.206525,-0.066613,64.920975,8.760254,-147.552002,,,
729601008.185428,1.102636,-3.085148,-7.784107,0.038406,0.023773,0.968643,-0.019035,-0.206525,-0.066613,64.920975,8.760254,-147.552002,,,
729601008.18873,1.102636,-3.085148,-7.784107,0.038406,0.023773,0.968643,-0.019035,-0.206525,-0.066613,64.920975,8.760254,-147.552002,,,
729601008.192069,1.105464,-3.156786,-7.802077,0.03566,0.019547,0.972855,-0.006874,-0.236375,-0.06079,64.920975,8.760254,-147.552002,,,
729601008.195479,1.105464,-3.225935,-7.818958,0.03566,0.019547,0.972855,-0.006874,-0.236375,-0.06079,64.920975,8.760254,-147.552002,,,
729601008.198726,1.105065,-3.225935,-7.818958,0.03566,0.019547,0.972855,-0.006874,-0.236375,-0.06079,64.920975,8.760254,-147.552002,,,
729601008.202084,1.111034,-3.297932,-7.834921,0.040756,0.016541,0.985596,0.001402,-0.229512,-0.055415,64.920975,8.760254,-147.552002,,,
729601008.205345,1.111034,-3.297932,-7.834921,0.040756,0.016541,0.985596,0.001402,-0.229512,-0.055415,64.920975,8.760254,-147.552002,,,
729601008.208794,1.112142,-3.360414,-7.850239,0.040756,0.016541,0.985596,0.001402,-0.229512,-0.055415,64.891907,8.771713,-147.220596,,,
729601008.212071,1.117907,-3.414395,-7.865367,0.058731,0.016968,1.00058,0.00027,-0.155548,-0.054296,64.891907,8.771713,-147.220596,,,
729601008.215395,1.117907,-3.414395,-7.865367,0.058731,0.016968,1.00058,0.00027,-0.155548,-0.054296,64.891907,8.771713,-147.220596,,,
729601008.21873,1.117446,-3.451937,-7.881217,0.058731,0.016968,1.00058,0.00027,-0.155548,-0.054296,64.891907,8.771713,-147.220596,,,
729601008.222065,1.118633,-3.472522,-7.89666,0.07399,0.018997,1.021057,-0.010488,-0.040011,-0.050789,64.891907,8.771713,-147.220596,,,
729601008.225407,1.118633,-3.472522,-7.89666,0.07399,0.018997,1.021057,-0.010488,-0.040011,-0.050789,64.891907,8.771713,-147.220596,,,
729601008.228732,1.115435,-3.476481,-7.910444,0.07399,0.018997,1.021057,-0.010488,-0.040011,-0.050789,64.891907,8.771713,-147.220596,,,
729601008.232129,1.113116,-3.461967,-7.92222,0.076065,0.013977,1.024551,-0.020509,0.070272,-0.0358,64.891907,8.771713,-147.220596,,,
729601008.23543,1.113116,-3.461967,-7.92222,0.076065,0.013977,1.024551,-0.020509,0.070272,-0.0358,64.891907,8.771713,-147.220596,,,
729601008.23874,1.107326,-3.435685,-7.931201,0.076065,0.013977,1.024551,-0.020509,0.070272,-0.0358,64.891907,8.771713,-147.220596,,,
729601008.242073,1.103226,-3.39281,-7.938011,0.070007,0.010025,1.02182,-0.022877,0.151387,-0.019849,64.891907,8.771713,-147.220596,,,
729601008.245466,1.103226,-3.39281,-7.938011,0.070007,0.010025,1.02182,-0.022877,0.151387,-0.019849,64.891907,8.771713,-147.220596,,,
729601008.248738,1.096645,-3.346605,-7.942668,0.070007,0.010025,1.02182,-0.022877,0.151387,-0.019849,64.800751,8.801147,-147.553162,,,
729601008.252056,1.092185,-3.290081,-7.945942,0.063385,0.014404,1.013428,-0.020723,0.185856,-0.009724,64.800751,8.801147,-147.553162,,,
729601008.255422,1.092185,-3.290081,-7.945942,0.063385,0.014404,1.013428,-0.020723,0.185856,-0.009724,64.800751,8.801147,-147.553162,,,
729601008.258718,1.086522,-3.238014,-7.948968,0.063385,0.014404,1.013428,-0.020723,0.185856,-0.009724,64.800751,8.801147,-147.553162,,,
729601008.262056,1.083075,-3.18338,-7.952851,0.057175,0.015701,0.999146,-0.014352,0.171165,-0.01546,64.800751,8.801147,-147.553162,,,
729601008.265367,1.083075,-3.18338,-7.952851,0.057175,0.015701,0.999146,-0.014352,0.171165,-0.01546,64.800751,8.801147,-147.553162,,,
729601008.268738,1.079187,-3.137569,-7.957657,0.057175,0.015701,0.999146,-0.014352,0.171165,-0.01546,64.800751,8.801147,-147.553162,,,
729601008.272055,1.076035,-3.093428,-7.964492,0.048447,0.014862,0.987762,-0.009873,0.125216,-0.029238,64.800751,8.801147,-147.553162,,,
729601008.275386,1.076035,-3.093428,-7.964492,0.048447,0.014862,0.987762,-0.009873,0.125216,-0.029238,64.800751,8.801147,-147.553162,,,
729601008.278732,1.073241,-3.061844,-7.97324,0.048447,0.014862,0.987762,-0.009873,0.125216,-0.029238,64.800751,8.801147,-147.553162,,,
729601008.282052,1.06927,-3.035779,-7.983863,0.043671,0.011353,0.977203,-0.013236,0.076086,-0.041972,64.800751,8.801147,-147.553162,,,
729601008.285459,1.06927,-3.035779,-7.983863,0.043671,0.011353,0.977203,-0.013236,0.076086,-0.041972,64.800751,8.801147,-147.553162,,,
729601008.288712,1.065829,-3.017187,-7.996877,0.043671,0.011353,0.977203,-0.013236,0.076086,-0.041972,64.938766,8.720581,-147.328308,,,
729601008.292057,1.061765,-3.005891,-8.011463,0.042877,0.01326,0.974365,-0.016881,0.047744,-0.053184,64.938766,8.720581,-147.328308,,,
729601008.2954,1.061765,-3.005891,-8.011463,0.042877,0.01326,0.974365,-0.016881,0.047744,-0.053184,64.938766,8.720581,-147.328308,,,
729601008.298791,1.057193,-2.994278,-8.026193,0.042877,0.01326,0.974365,-0.016881,0.047744,-0.053184,64.938766,8.720581,-147.328308,,,
729601008.302048,1.051337,-2.990814,-8.039498,0.042603,0.016159,0.979782,-0.022845,0.033521,-0.043755,64.938766,8.720581,-147.328308,,,
729601008.305394,1.051337,-2.990814,-8.039498,0.042603,0.016159,0.979782,-0.022845,0.033521,-0.043755,64.938766,8.720581,-147.328308,,,
729601008.308727,1.04498,-2.981418,-8.051885,0.042603,0.016159,0.979782,-0.022845,0.033521,-0.043755,64.938766,8.720581,-147.328308,,,
729601008.312058,1.035553,-2.976042,-8.062862,0.040085,0.016449,0.987549,-0.031528,0.043212,-0.034203,64.938766,8.720581,-147.328308,,,
729601008.315406,1.035553,-2.976042,-8.062862,0.040085,0.016449,0.987549,-0.031528,0.043212,-0.034203,64.938766,8.720581,-147.328308,,,
729601008.318721,1.02598,-2.963497,-8.072094,0.040085,0.016449,0.987549,-0.031528,0.043212,-0.034203,64.938766,8.720581,-147.328308,,,
729601008.322067,1.012688,-2.952486,-8.079771,0.037796,0.015625,0.990295,-0.043849,0.057888,-0.023189,64.938766,8.720581,-147.328308,,,
729601008.32544,1.012688,-2.952486,-8.079771,0.037796,0.015625,0.990295,-0.043849,0.057888,-0.023189,64.938766,8.720581,-147.328308,,,
729601008.328736,0.999205,-2.935794,-8.085763,0.037796,0.015625,0.990295,-0.043849,0.057888,-0.023189,65.071167,8.818146,-147.303467,,,
729601008.332073,0.983321,-2.920548,-8.090161,0.037888,0.014709,0.991486,-0.055461,0.066033,-0.011793,65.071167,8.818146,-147.303467,,,
729601008.335391,0.983321,-2.920548,-8.090161,0.037888,0.014709,0.991486,-0.055461,0.066033,-0.011793,65.071167,8.818146,-147.303467,,,
729601008.338722,0.966056,-2.902472,-8.093662,0.037888,0.014709,0.991486,-0.055461,0.066033,-0.011793,65.071167,8.818146,-147.303467,,,
729601008.342055,0.946219,-2.885672,-8.096631,0.042511,0.016159,0.989594,-0.069694,0.062415,-0.007486,65.071167,8.818146,-147.303467,,,
729601008.345408,0.946219,-2.885672,-8.096631,0.042511,0.016159,0.989594,-0.069694,0.062415,-0.007486,65.071167,8.818146,-147.303467,,,
729601008.348796,0.925967,-2.869529,-8.099316,0.042511,0.016159,0.989594,-0.069694,0.062415,-0.007486,65.071167,8.818146,-147.303467,,,
729601008.352047,0.905192,-2.855604,-8.101296,0.040436,0.01561,0.992142,-0.068022,0.040335,-0.002601,65.071167,8.818146,-147.303467,,,
729601008.355411,0.905192,-2.855604,-8.101296,0.040436,0.01561,0.992142,-0.068022,0.040335,-0.002601,65.071167,8.818146,-147.303467,,,
729601008.358726,0.886159,-2.847303,-8.10208,0.040436,0.01561,0.992142,-0.068022,0.040335,-0.002601,65.071167,8.818146,-147.303467,,,
729601008.362058,0.867402,-2.842129,-8.102433,0.038071,0.014175,0.997406,-0.060269,0.006437,0.000216,65.071167,8.818146,-147.303467,,,
729601008.365404,0.867402,-2.842129,-8.102433,0.038071,0.014175,0.997406,-0.060269,0.006437,0.000216,65.071167,8.818146,-147.303467,,,
729601008.368738,0.85037,-2.842749,-8.103054,0.038071,0.014175,0.997406,-0.060269,0.006437,0.000216,65.071167,8.818146,-147.303467,,,
729601008.372052,0.834228,-2.844397,-8.104479,0.038681,0.012756,1.002609,-0.055563,-0.010629,-0.005498,65.171692,9.12944,-147.498047,,,
729601008.375453,0.834228,-2.844397,-8.104479,0.038681,0.012756,1.002609,-0.055563,-0.010629,-0.005498,65.171692,9.12944,-147.498047,,,
729601008.378718,0.818204,-2.849089,-8.106788,0.038681,0.012756,1.002609,-0.055563,-0.010629,-0.005498,65.171692,9.12944,-147.498047,,,
729601008.382062,0.803492,-2.852636,-8.11016,0.049591,0.015991,1.008728,-0.050783,-0.016235,-0.012942,65.171692,9.12944,-147.498047,,,
729601008.385383,0.803492,-2.852636,-8.11016,0.049591,0.015991,1.008728,-0.050783,-0.016235,-0.012942,65.171692,9.12944,-147.498047,,,
729601008.388784,0.789845,-2.857466,-8.114921,0.049591,0.015991,1.008728,-0.050783,-0.016235,-0.012942,65.171692,9.12944,-147.498047,,,
729601008.392046,0.778627,-2.857659,-8.120975,0.061371,0.017883,1.014679,-0.04087,-0.002837,-0.022181,65.171692,9.12944,-147.498047,,,
729601008.395402,0.778627,-2.857659,-8.120975,0.061371,0.017883,1.014679,-0.04087,-0.002837,-0.022181,65.171692,9.12944,-147.498047,,,
729601008.398759,0.76774,-2.8586,-8.127468,0.061371,0.017883,1.014679,-0.04087,-0.002837,-0.022181,65.171692,9.12944,-147.498047,,,
729601008.402133,0.757763,-2.854168,-8.133372,0.060776,0.019135,1.019318,-0.037595,0.011906,-0.017976,65.171692,9.12944,-147.498047,,,
729601008.405517,0.757763,-2.854168,-8.133372,0.060776,0.019135,1.019318,-0.037595,0.011906,-0.017976,65.171692,9.12944,-147.498047,,,
729601008.408757,0.747231,-2.850806,-8.13749,0.060776,0.019135,1.019318,-0.037595,0.011906,-0.017976,65.171692,9.12944,-147.498047,,,
729601008.412067,0.73746,-2.84364,-8.139765,0.055038,0.015839,1.013611,-0.035224,0.021167,-0.005071,65.150818,9.186172,-147.213547,,,
729601008.415457,0.73746,-2.84364,-8.139765,0.055038,0.015839,1.013611,-0.035224,0.021167,-0.005071,65.150818,9.186172,-147.213547,,,
729601008.418741,0.726476,-2.838201,-8.140484,0.055038,0.015839,1.013611,-0.035224,0.021167,-0.005071,65.150818,9.186172,-147.213547,,,
729601008.422061,0.716585,-2.830448,-8.139809,0.048157,0.014389,1.00708,-0.034939,0.02475,0.004847,65.150818,9.186172,-147.213547,,,
729601008.425392,0.716585,-2.830448,-8.139809,0.048157,0.014389,1.00708,-0.034939,0.02475,0.004847,65.150818,9.186172,-147.213547,,,
729601008.428798,0.707462,-2.825086,-8.137906,0.048157,0.014389,1.00708,-0.034939,0.02475,0.004847,65.150818,9.186172,-147.213547,,,
729601008.432063,0.701594,-2.818469,-8.136119,0.044418,0.013397,1.010239,-0.016471,0.015654,0.003298,65.150818,9.186172,-147.213547,,,
729601008.4354,0.701594,-2.818469,-8.136119,0.044418,0.013397,1.010239,-0.016471,0.015654,0.003298,65.150818,9.186172,-147.213547,,,
729601008.438734,0.697966,-2.816689,-8.136066,0.044418,0.013397,1.010239,-0.016471,0.015654,0.003298,65.150818,9.186172,-147.213547,,,
729601008.442075,0.697063,-2.814938,-8.137935,0.048859,0.014282,1.015625,0.000276,-0.006019,-0.010675,65.150818,9.186172,-147.213547,,,
729601008.445389,0.697063,-2.814938,-8.137935,0.048859,0.014282,1.015625,0.000276,-0.006019,-0.010675,65.150818,9.186172,-147.213547,,,
729601008.44876,0.698314,-2.818812,-8.141416,0.048859,0.014282,1.015625,0.000276,-0.006019,-0.010675,65.150818,9.186172,-147.213547,,,
729601008.452078,0.701662,-2.822729,-8.146562,0.052841,0.015976,1.011261,0.012884,-0.020896,-0.022759,65.012909,9.00528,-147.298309,,,
729601008.455447,0.701662,-2.822729,-8.146562,0.052841,0.015976,1.011261,0.012884,-0.020896,-0.022759,65.012909,9.00528,-147.298309,,,
729601008.458723,0.705909,-2.829901,-8.153295,0.052841,0.015976,1.011261,0.012884,-0.020896,-0.022759,65.012909,9.00528,-147.298309,,,
729601008.46206,0.711992,-2.839581,-8.160598,0.05159,0.015015,1.007278,0.016564,-0.028967,-0.027016,65.012909,9.00528,-147.298309,,,
729601008.465402,0.711992,-2.839581,-8.160598,0.05159,0.015015,1.007278,0.016564,-0.028967,-0.027016,65.012909,9.00528,-147.298309,,,
729601008.46878,0.716481,-2.848501,-8.167901,0.05159,0.015015,1.007278,0.016564,-0.028967,-0.027016,65.012909,9.00528,-147.298309,,,
729601008.47205,0.722493,-2.860292,-8.175885,0.05603,0.016769,1.002411,0.014773,-0.02697,-0.031929,65.012909,9.00528,-147.298309,,,
729601008.475406,0.722493,-2.860292,-8.175885,0.05603,0.016769,1.002411,0.014773,-0.02697,-0.031929,65.012909,9.00528,-147.298309,,,
729601008.478737,0.727099,-2.867461,-8.184208,0.05603,0.016769,1.002411,0.014773,-0.02697,-0.031929,65.012909,9.00528,-147.298309,,,
729601008.482055,0.733486,-2.874173,-8.192628,0.060364,0.020981,1.000107,0.017827,-0.009097,-0.032942,65.012909,9.00528,-147.298309,,,
729601008.485415,0.733486,-2.874173,-8.192628,0.060364,0.020981,1.000107,0.017827,-0.009097,-0.032942,65.012909,9.00528,-147.298309,,,
729601008.48875,0.739728,-2.875846,-8.201726,0.060364,0.020981,1.000107,0.017827,-0.009097,-0.032942,65.012909,9.00528,-147.298309,,,
729601008.49206,0.748371,-2.874696,-8.211278,0.061813,0.021439,1.006851,0.030582,0.014277,-0.036828,65.146713,9.126328,-147.847061,,,
729601008.495473,0.748371,-2.874696,-8.211278,0.061813,0.021439,1.006851,0.030582,0.014277,-0.036828,65.146713,9.126328,-147.847061,,,
729601008.498731,0.758492,-2.869779,-8.221684,0.061813,0.021439,1.006851,0.030582,0.014277,-0.036828,65.146713,9.126328,-147.847061,,,
729601008.502064,0.771952,-2.86048,-8.233311,0.062225,0.018097,1.007645,0.052051,0.034763,-0.046234,65.146713,9.126328,-147.847061,,,
729601008.505447,0.771952,-2.86048,-8.233311,0.062225,0.018097,1.007645,0.052051,0.034763,-0.046234,65.146713,9.126328,-147.847061,,,
729601008.508731,0.789209,-2.850048,-8.245578,0.062225,0.018097,1.007645,0.052051,0.034763,-0.046234,65.146713,9.126328,-147.847061,,,
729601008.51206,0.809834,-2.835976,-8.258407,0.061081,0.013229,1.013321,0.075638,0.052339,-0.05121,65.146713,9.126328,-147.847061,,,
729601008.515404,0.809834,-2.835976,-8.258407,0.061081,0.013229,1.013321,0.075638,0.052339,-0.05121,65.146713,9.126328,-147.847061,,,
729601008.518782,0.834065,-2.821973,-8.272004,0.061081,0.013229,1.013321,0.075638,0.052339,-0.05121,65.146713,9.126328,-147.847061,,,
729601008.522052,0.862212,-2.808983,-8.28629,0.058487,0.013992,1.013199,0.102497,0.046952,-0.057297,65.146713,9.126328,-147.847061,,,
729601008.525388,0.862212,-2.808983,-8.28629,0.058487,0.013992,1.013199,0.102497,0.046952,-0.057297,65.146713,9.126328,-147.847061,,,
729601008.528748,0.893637,-2.795379,-8.300524,0.058487,0.013992,1.013199,0.102497,0.046952,-0.057297,65.146713,9.126328,-147.847061,,,
729601008.532053,0.926888,-2.780933,-8.314059,0.05217,0.014069,1.002914,0.116661,0.057556,-0.053184,65.146713,9.126328,-147.847061,,,
729601008.535412,0.926888,-2.780933,-8.314059,0.05217,0.014069,1.002914,0.116661,0.057556,-0.053184,65.392288,8.662933,-147.378815,,,
729601008.538745,0.961482,-2.764315,-8.326829,0.05217,0.014069,1.002914,0.116661,0.057556,-0.053184,65.392288,8.662933,-147.378815,,,
729601008.542061,0.996013,-2.747141,-8.339391,0.049103,0.016006,0.998749,0.119894,0.066475,-0.051941,65.392288,8.662933,-147.378815,,,
729601008.545384,0.996013,-2.747141,-8.339391,0.049103,0.016006,0.998749,0.119894,0.066475,-0.051941,65.392288,8.662933,-147.378815,,,
729601008.548736,1.031049,-2.729557,-8.352286,0.049103,0.016006,0.998749,0.119894,0.066475,-0.051941,65.392288,8.662933,-147.378815,,,
729601008.552053,1.066781,-2.716203,-8.365325,0.051636,0.021194,0.982819,0.122355,0.056319,-0.053351,65.392288,8.662933,-147.378815,,,
729601008.555475,1.066781,-2.716203,-8.365325,0.051636,0.021194,0.982819,0.122355,0.056319,-0.053351,65.392288,8.662933,-147.378815,,,
729601008.558743,1.101134,-2.698691,-8.378247,0.051636,0.021194,0.982819,0.122355,0.056319,-0.053351,65.392288,8.662933,-147.378815,,,
729601008.562055,1.132918,-2.68002,-8.390034,0.050827,0.022598,0.982361,0.098681,0.089285,-0.04473,65.392288,8.662933,-147.378815,,,
729601008.565411,1.132918,-2.68002,-8.390034,0.050827,0.022598,0.982361,0.098681,0.089285,-0.04473,65.392288,8.662933,-147.378815,,,
729601008.568719,1.160393,-2.653238,-8.40006,0.050827,0.022598,0.982361,0.098681,0.089285,-0.04473,65.392288,8.662933,-147.378815,,,
729601008.572057,1.186168,-2.628766,-8.408248,0.042816,0.01915,0.979233,0.087044,0.101428,-0.031856,65.392288,8.662933,-147.378815,,,
729601008.575386,1.186168,-2.628766,-8.408248,0.042816,0.01915,0.979233,0.087044,0.101428,-0.031856,65.412338,8.567001,-147.54454,,,
729601008.578747,1.211875,-2.602519,-8.415674,0.042816,0.01915,0.979233,0.087044,0.101428,-0.031856,65.412338,8.567001,-147.54454,,,
729601008.582055,1.238009,-2.584537,-8.423143,0.043839,0.020157,0.976303,0.099048,0.071521,-0.033245,65.412338,8.567001,-147.54454,,,
729601008.585403,1.238009,-2.584537,-8.423143,0.043839,0.020157,0.976303,0.099048,0.071521,-0.033245,65.412338,8.567001,-147.54454,,,
729601008.588738,1.266948,-2.56566,-8.431627,0.043839,0.020157,0.976303,0.099048,0.071521,-0.033245,65.412338,8.567001,-147.54454,,,
729601008.592051,1.293807,-2.552376,-8.44142,0.049316,0.025909,0.980194,0.100969,0.060623,-0.04299,65.412338,8.567001,-147.54454,,,
729601008.59544,1.293807,-2.552376,-8.44142,0.049316,0.025909,0.980194,0.100969,0.060623,-0.04299,65.412338,8.567001,-147.54454,,,
729601008.598744,1.32263,-2.536024,-8.452002,0.049316,0.025909,0.980194,0.100969,0.060623,-0.04299,65.412338,8.567001,-147.54454,,,
729601008.602075,1.348088,-2.524143,-8.462589,0.045486,0.024414,0.979492,0.094039,0.050255,-0.043167,65.412338,8.567001,-147.54454,,,
729601008.605386,1.348088,-2.524143,-8.462589,0.045486,0.024414,0.979492,0.094039,0.050255,-0.043167,65.412338,8.567001,-147.54454,,,
729601008.608804,1.3751,-2.511322,-8.472917,0.045486,0.024414,0.979492,0.094039,0.050255,-0.043167,65.412338,8.567001,-147.54454,,,
729601008.612056,1.398224,-2.501449,-8.482425,0.039993,0.021606,0.974915,0.084279,0.040736,-0.037189,65.412338,8.567001,-147.54454,,,
729601008.615395,1.398224,-2.501449,-8.482425,0.039993,0.021606,0.974915,0.084279,0.040736,-0.037189,65.485168,8.494858,-147.815659,,,
729601008.618742,1.421343,-2.489991,-8.491579,0.039993,0.021606,0.974915,0.084279,0.040736,-0.037189,65.485168,8.494858,-147.815659,,,
729601008.622054,1.440423,-2.479418,-8.500381,0.045273,0.030762,0.970718,0.069695,0.046583,-0.034353,65.485168,8.494858,-147.815659,,,
729601008.625396,1.440423,-2.479418,-8.500381,0.045273,0.030762,0.970718,0.069695,0.046583,-0.034353,65.485168,8.494858,-147.815659,,,
729601008.628741,1.458987,-2.466252,-8.508982,0.045273,0.030762,0.970718,0.069695,0.046583,-0.034353,65.485168,8.494858,-147.815659,,,
729601008.63206,1.473158,-2.45498,-8.517197,0.050598,0.03656,0.966095,0.042778,0.051508,-0.030961,65.485168,8.494858,-147.815659,,,
729601008.635448,1.473158,-2.45498,-8.517197,0.050598,0.03656,0.966095,0.042778,0.051508,-0.030961,65.485168,8.494858,-147.815659,,,
729601008.638739,1.483833,-2.440647,-8.524731,0.050598,0.03656,0.966095,0.042778,0.051508,-0.030961,65.485168,8.494858,-147.815659,,,
729601008.642055,1.489681,-2.427251,-8.531522,0.046188,0.038284,0.961014,0.015904,0.05469,-0.024846,65.485168,8.494858,-147.815659,,,
729601008.645492,1.489681,-2.427251,-8.531522,0.046188,0.038284,0.961014,0.015904,0.05469,-0.024846,65.485168,8.494858,-147.815659,,,
729601008.648737,1.49163,-2.411863,-8.53781,0.046188,0.038284,0.961014,0.015904,0.05469,-0.024846,65.485168,8.494858,-147.815659,,,
729601008.652068,1.487197,-2.395879,-8.543349,0.036743,0.03833,0.95459,-0.020216,0.058631,-0.018119,65.485168,8.494858,-147.815659,,,
729601008.655461,1.487197,-2.395879,-8.543349,0.036743,0.03833,0.95459,-0.020216,0.058631,-0.018119,65.695923,8.425415,-147.593597,,,
729601008.658793,1.479577,-2.380195,-8.548053,0.036743,0.03833,0.95459,-0.020216,0.058631,-0.018119,65.695923,8.425415,-147.593597,,,
729601008.662055,1.468224,-2.366542,-8.551959,0.029602,0.034912,0.958038,-0.043041,0.049922,-0.011745,65.695923,8.425415,-147.593597,,,
729601008.665402,1.468224,-2.366542,-8.551959,0.029602,0.034912,0.958038,-0.043041,0.049922,-0.011745,65.695923,8.425415,-147.593597,,,
729601008.668744,1.454504,-2.353482,-8.555283,0.029602,0.034912,0.958038,-0.043041,0.049922,-0.011745,65.695923,8.425415,-147.593597,,,
729601008.67206,1.438156,-2.34241,-8.557996,0.029892,0.032242,0.966995,-0.06177,0.04239,-0.00687,65.695923,8.425415,-147.593597,,,
729601008.675416,1.438156,-2.34241,-8.557996,0.029892,0.032242,0.966995,-0.06177,0.04239,-0.00687,65.695923,8.425415,-147.593597,,,
729601008.678764,1.419739,-2.331986,-8.560221,0.029892,0.032242,0.966995,-0.06177,0.04239,-0.00687,65.695923,8.425415,-147.593597,,,
729601008.682061,1.399817,-2.323466,-8.561866,0.025162,0.026474,0.977371,-0.070928,0.031164,-0.002528,65.695923,8.425415,-147.593597,,,
729601008.685485,1.399817,-2.323466,-8.561866,0.025162,0.026474,0.977371,-0.070928,0.031164,-0.002528,65.695923,8.425415,-147.593597,,,
729601008.688726,1.378918,-2.316408,-8.5625,0.025162,0.026474,0.977371,-0.070928,0.031164,-0.002528,65.695923,8.425415,-147.593597,,,
729601008.692058,1.357483,-2.311378,-8.56182,0.02179,0.021957,0.98584,-0.074263,0.018081,0.006767,65.695923,8.425415,-147.593597,,,
729601008.695405,1.357483,-2.311378,-8.56182,0.02179,0.021957,0.98584,-0.074263,0.018081,0.006767,65.695923,8.425415,-147.593597,,,
729601008.698807,1.334697,-2.307476,-8.559995,0.02179,0.021957,0.98584,-0.074263,0.018081,0.006767,65.826706,8.545685,-147.524826,,,
729601008.702049,1.311831,-2.30563,-8.557749,0.021667,0.018478,0.992615,-0.081742,0.010236,0.009845,65.826706,8.545685,-147.524826,,,
729601008.705411,1.311831,-2.30563,-8.557749,0.021667,0.018478,0.992615,-0.081742,0.010236,0.009845,65.826706,8.545685,-147.524826,,,
729601008.708719,1.288424,-2.304961,-8.555718,0.021667,0.018478,0.992615,-0.081742,0.010236,0.009845,65.826706,8.545685,-147.524826,,,
729601008.712056,1.267783,-2.308349,-8.554506,0.027344,0.016754,1.004089,-0.074307,-0.010727,0.003709,65.826706,8.545685,-147.524826,,,
729601008.715403,1.267783,-2.308349,-8.554506,0.027344,0.016754,1.004089,-0.074307,-0.010727,0.003709,65.826706,8.545685,-147.524826,,,
729601008.718746,1.247028,-2.314003,-8.554349,0.027344,0.016754,1.004089,-0.074307,-0.010727,0.003709,65.826706,8.545685,-147.524826,,,
729601008.722055,1.229183,-2.321805,-8.555398,0.030441,0.016174,1.006851,-0.068064,-0.022342,-0.004985,65.826706,8.545685,-147.524826,,,
729601008.725475,1.229183,-2.321805,-8.555398,0.030441,0.016174,1.006851,-0.068064,-0.022342,-0.004985,65.826706,8.545685,-147.524826,,,
729601008.728738,1.209478,-2.329334,-8.557781,0.030441,0.016174,1.006851,-0.068064,-0.022342,-0.004985,65.826706,8.545685,-147.524826,,,
729601008.732062,1.192058,-2.336148,-8.561128,0.032333,0.013382,1.007553,-0.067233,-0.022205,-0.011654,65.826706,8.545685,-147.524826,,,
729601008.735401,1.192058,-2.336148,-8.561128,0.032333,0.013382,1.007553,-0.067233,-0.022205,-0.011654,65.826706,8.545685,-147.524826,,,
729601008.738802,1.17274,-2.343497,-8.564424,0.032333,0.013382,1.007553,-0.067233,-0.022205,-0.011654,65.7715,8.616287,-147.533737,,,
729601008.742041,1.155942,-2.349284,-8.566748,0.034698,0.014435,1.01033,-0.063868,-0.021145,-0.004829,65.7715,8.616287,-147.533737,,,
729601008.745394,1.155942,-2.349284,-8.566748,0.034698,0.014435,1.01033,-0.063868,-0.021145,-0.004829,65.7715,8.616287,-147.533737,,,
729601008.748728,1.1375,-2.355321,-8.568833,0.034698,0.014435,1.01033,-0.063868,-0.021145,-0.004829,65.7715,8.616287,-147.533737,,,
729601008.752053,1.121141,-2.357474,-8.570612,0.036804,0.017227,1.011505,-0.061916,-0.008405,-0.002501,65.7715,8.616287,-147.533737,,,
729601008.755408,1.121141,-2.357474,-8.570612,0.036804,0.017227,1.011505,-0.061916,-0.008405,-0.002501,65.7715,8.616287,-147.533737,,,
729601008.758737,1.102505,-2.359688,-8.571118,0.036804,0.017227,1.011505,-0.061916,-0.008405,-0.002501,65.7715,8.616287,-147.533737,,,
729601008.762054,1.084261,-2.356167,-8.57123,0.038132,0.018387,1.016113,-0.067301,0.007074,0.000914,65.7715,8.616287,-147.533737,,,
729601008.765476,1.084261,-2.356167,-8.57123,0.038132,0.018387,1.016113,-0.067301,0.007074,0.000914,65.7715,8.616287,-147.533737,,,
729601008.768737,1.064453,-2.354408,-8.571619,0.038132,0.018387,1.016113,-0.067301,0.007074,0.000914,65.7715,8.616287,-147.533737,,,
729601008.772062,1.044539,-2.347257,-8.571825,0.038284,0.019775,1.011932,-0.069855,0.013621,0.002817,65.7715,8.616287,-147.533737,,,
729601008.775411,1.044539,-2.347257,-8.571825,0.038284,0.019775,1.011932,-0.069855,0.013621,0.002817,65.7715,8.616287,-147.533737,,,
729601008.778747,1.024098,-2.344086,-8.571771,0.038284,0.019775,1.011932,-0.069855,0.013621,0.002817,65.558853,8.758118,-147.787796,,,
729601008.782061,1.003447,-2.336596,-8.572097,0.038834,0.018799,1.012741,-0.071837,0.015732,0.00068,65.558853,8.758118,-147.787796,,,
729601008.785407,1.003447,-2.336596,-8.572097,0.038834,0.018799,1.012741,-0.071837,0.015732,0.00068,65.558853,8.758118,-147.787796,,,
729601008.788742,0.982361,-2.333645,-8.572434,0.038834,0.018799,1.012741,-0.071837,0.015732,0.00068,65.558853,8.758118,-147.787796,,,
729601008.792139,0.960581,-2.329349,-8.572688,0.036133,0.015991,1.010132,-0.073272,0.005024,0.001612,65.558853,8.758118,-147.787796,,,
729601008.795398,0.960581,-2.329349,-8.572688,0.036133,0.015991,1.010132,-0.073272,0.005024,0.001612,65.558853,8.758118,-147.787796,,,
729601008.798737,0.939194,-2.330112,-8.573466,0.036133,0.015991,1.010132,-0.073272,0.005024,0.001612,65.558853,8.758118,-147.787796,,,
729601008.802061,0.917745,-2.330484,-8.575096,0.037949,0.01535,1.005814,-0.072121,-0.010096,-0.004136,65.558853,8.758118,-147.787796,,,
729601008.805453,0.917745,-2.330484,-8.575096,0.037949,0.01535,1.005814,-0.072121,-0.010096,-0.004136,65.558853,8.758118,-147.787796,,,
729601008.808735,0.898152,-2.335147,-8.576427,0.037949,0.01535,1.005814,-0.072121,-0.010096,-0.004136,65.558853,8.758118,-147.787796,,,
729601008.812059,0.880568,-2.339717,-8.576812,0.037949,0.013,1.014114,-0.052273,-0.022962,0.001831,65.558853,8.758118,-147.787796,,,
729601008.8154,0.880568,-2.339717,-8.576812,0.037949,0.013,1.014114,-0.052273,-0.022962,0.001831,65.558853,8.758118,-147.787796,,,
729601008.818757,0.866467,-2.348412,-8.576766,0.037949,0.013,1.014114,-0.052273,-0.022962,0.001831,65.558853,8.758118,-147.787796,,,
729601008.822061,0.866467,-2.348412,-8.576766,0.041275,0.009613,1.019409,-0.035195,-0.037665,0.000972,65.731873,9.011246,-147.34758,,,
729601008.825392,0.854888,-2.357554,-8.57677,0.041275,0.009613,1.019409,-0.035195,-0.037665,0.000972,65.731873,9.011246,-147.34758,,,
729601008.828743,0.845481,-2.369799,-8.576201,0.041275,0.009613,1.019409,-0.035195,-0.037665,0.000972,65.731873,9.011246,-147.34758,,,
729601008.832059,0.838508,-2.381635,-8.576345,0.048019,0.008209,1.016037,-0.022288,-0.043655,-0.004425,65.731873,9.011246,-147.34758,,,
729601008.835409,0.838508,-2.381635,-8.576345,0.048019,0.008209,1.016037,-0.022288,-0.043655,-0.004425,65.731873,9.011246,-147.34758,,,
729601008.838731,0.832063,-2.395344,-8.57805,0.048019,0.008209,1.016037,-0.022288,-0.043655,-0.004425,65.731873,9.011246,-147.34758,,,
729601008.842052,0.832063,-2.395344,-8.57805,0.05719,0.010727,1.011383,-0.022408,-0.047422,-0.013517,65.731873,9.011246,-147.34758,,,
729601008.845473,0.826584,-2.408371,-8.581076,0.05719,0.010727,1.011383,-0.022408,-0.047422,-0.013517,65.731873,9.011246,-147.34758,,,
729601008.848734,0.820077,-2.423377,-8.585883,0.05719,0.010727,1.011383,-0.022408,-0.047422,-0.013517,65.731873,9.011246,-147.34758,,,
729601008.852059,0.820077,-2.423377,-8.592387,0.065231,0.013504,1.004044,-0.026798,-0.049723,-0.025114,65.731873,9.011246,-147.34758,,,
729601008.855404,0.814158,-2.437703,-8.592387,0.065231,0.013504,1.004044,-0.026798,-0.049723,-0.025114,65.731873,9.011246,-147.34758,,,
729601008.858793,0.80661,-2.451458,-8.600187,0.065231,0.013504,1.004044,-0.026798,-0.049723,-0.025114,65.731873,9.011246,-147.34758,,,
729601008.862048,0.80661,-2.451458,-8.600187,0.066818,0.014923,1.007355,-0.029598,-0.032199,-0.033173,65.521698,9.10556,-147.407806,,,
729601008.865407,0.79948,-2.461394,-8.609184,0.066818,0.014923,1.007355,-0.029598,-0.032199,-0.033173,65.521698,9.10556,-147.407806,,,
729601008.868752,0.791519,-2.469598,-8.619084,0.066818,0.014923,1.007355,-0.029598,-0.032199,-0.033173,65.521698,9.10556,-147.407806,,,
729601008.872111,0.791519,-2.473255,-8.629087,0.063339,0.012527,1.012299,-0.024849,-0.010123,-0.033924,65.521698,9.10556,-147.407806,,,
729601008.875434,0.784632,-2.473255,-8.629087,0.063339,0.012527,1.012299,-0.024849,-0.010123,-0.033924,65.521698,9.10556,-147.407806,,,
729601008.878726,0.77864,-2.475091,-8.637817,0.063339,0.012527,1.012299,-0.024849,-0.010123,-0.033924,65.521698,9.10556,-147.407806,,,
729601008.882094,0.77864,-2.475091,-8.637817,0.06134,0.009247,1.018951,-0.011335,0.018231,-0.022782,65.521698,9.10556,-147.407806,,,
729601008.885401,0.774687,-2.471673,-8.644886,0.06134,0.009247,1.018951,-0.011335,0.018231,-0.022782,65.521698,9.10556,-147.407806,,,
729601008.888727,0.772386,-2.465752,-8.65038,0.06134,0.009247,1.018951,-0.011335,0.018231,-0.022782,65.521698,9.10556,-147.407806,,,
729601008.892087,0.772386,-2.465752,-8.65038,0.055923,0.005692,1.021271,-0.004852,0.04117,-0.012238,65.521698,9.10556,-147.407806,,,
729601008.895487,0.770589,-2.455673,-8.654336,0.055923,0.005692,1.021271,-0.004852,0.04117,-0.012238,65.521698,9.10556,-147.407806,,,
729601008.898742,0.76982,-2.44342,-8.657154,0.055923,0.005692,1.021271,-0.004852,0.04117,-0.012238,65.521698,9.10556,-147.407806,,,
729601008.902117,0.76982,-2.44342,-8.657154,0.054642,0.006439,1.011948,0.004994,0.050349,-0.010066,65.607727,9.121216,-147.533295,,,
729601008.905398,0.769527,-2.429836,-8.659603,0.054642,0.006439,1.011948,0.004994,0.050349,-0.010066,65.607727,9.121216,-147.533295,,,
729601008.908721,0.771218,-2.41679,-8.662926,0.054642,0.006439,1.011948,0.004994,0.050349,-0.010066,65.607727,9.121216,-147.533295,,,
729601008.912113,0.771218,-2.41679,-8.662926,0.05658,0.012955,1.003632,0.013404,0.035048,-0.024955,65.607727,9.121216,-147.533295,,,
729601008.915418,0.773189,-2.407737,-8.668305,0.05658,0.012955,1.003632,0.013404,0.035048,-0.024955,65.607727,9.121216,-147.533295,,,
729601008.918742,0.776974,-2.401131,-8.676337,0.05658,0.012955,1.003632,0.013404,0.035048,-0.024955,65.607727,9.121216,-147.533295,,,
729601008.922094,0.776974,-2.401131,-8.676337,0.05658,0.012955,1.003632,0.01439,-0.002592,-0.042081,65.607727,9.121216,-147.533295,,,
729601008.925462,0.780575,-2.404163,-8.686767,0.054413,0.020691,0.989456,0.01439,-0.002592,-0.042081,65.607727,9.121216,-147.533295,,,
729601008.928739,0.785009,-2.407905,-8.698771,0.054413,0.020691,0.989456,0.01439,-0.002592,-0.042081,65.607727,9.121216,-147.533295,,,
729601008.932064,0.785009,-2.407905,-8.698771,0.046707,0.022705,0.984131,0.011522,-0.036655,-0.051251,65.607727,9.121216,-147.533295,,,
729601008.935454,0.789367,-2.423038,-8.712014,0.046707,0.022705,0.984131,0.011522,-0.036655,-0.051251,65.607727,9.121216,-147.533295,,,
729601008.938725,0.792184,-2.436195,-8.726594,0.046707,0.022705,0.984131,0.011522,-0.036655,-0.051251,65.607727,9.121216,-147.533295,,,
729601008.942046,0.792184,-2.436195,-8.726594,0.046707,0.022705,0.984131,-0.00287,-0.053685,-0.053794,65.584869,8.996933,-147.568832,,,
729601008.945389,0.793004,-2.457694,-8.741538,0.041168,0.023544,0.976807,-0.00287,-0.053685,-0.053794,65.584869,8.996933,-147.568832,,,
729601008.948718,0.792385,-2.473429,-8.756736,0.041168,0.023544,0.976807,-0.00287,-0.053685,-0.053794,65.584869,8.996933,-147.568832,,,
729601008.952087,0.792385,-2.473429,-8.756736,0.041168,0.023544,0.976807,-0.00287,-0.053685,-0.053794,65.584869,8.996933,-147.568832,,,
729601008.955403,0.7897,-2.492618,-8.771644,0.04361,0.019348,0.97966,-0.011576,-0.044148,-0.051878,65.584869,8.996933,-147.568832,,,
729601008.958813,0.786509,-2.505328,-8.786441,0.04361,0.019348,0.97966,-0.011576,-0.044148,-0.051878,65.584869,8.996933,-147.568832,,,
729601008.962109,0.786509,-2.505328,-8.786441,0.04361,0.019348,0.97966,-0.011576,-0.044148,-0.051878,65.584869,8.996933,-147.568832,,,
729601008.965401,0.781065,-2.520101,-8.800314,0.049011,0.017944,0.99292,-0.016,-0.030448,-0.045578,65.584869,8.996933,-147.568832,,,
729601008.968725,0.776303,-2.527199,-8.81279,0.049011,0.017944,0.99292,-0.016,-0.030448,-0.045578,65.584869,8.996933,-147.568832,,,
729601008.972125,0.776303,-2.527199,-8.81279,0.049011,0.017944,0.99292,-0.016,-0.030448,-0.045578,65.584869,8.996933,-147.568832,,,
729601008.975391,0.768228,-2.530891,-8.823601,0.042374,0.015442,0.995392,-0.022628,0.010429,-0.033898,65.584869,8.996933,-147.568832,,,
729601008.978722,0.761877,-2.525911,-8.83228,0.042374,0.015442,0.995392,-0.022628,0.010429,-0.033898,65.584869,8.996933,-147.568832,,,
729601008.982054,0.761877,-2.525911,-8.83228,0.042374,0.015442,0.995392,-0.022628,0.010429,-0.033898,65.584869,8.996933,-147.568832,,,
729601008.985452,0.754801,-2.519645,-8.838495,0.037872,0.012512,1.00563,-0.016751,0.039195,-0.01724,65.701584,8.93634,-147.579239,,,
729601008.988712,0.750375,-2.508446,-8.842387,0.037872,0.012512,1.00563,-0.016751,0.039195,-0.01724,65.701584,8.93634,-147.579239,,,
729601008.9921,0.750375,-2.508446,-8.842387,0.037872,0.012512,1.00563,-0.016751,0.039195,-0.01724,65.701584,8.93634,-147.579239,,,
729601008.995143,0.747597,-2.499138,-8.844814,0.034775,0.009949,1.003342,-0.011614,0.050146,-0.007576,65.701584,8.93634,-147.579239,,,
729601008.998754,0.744798,-2.485859,-8.846614,0.034775,0.009949,1.003342,-0.011614,0.050146,-0.007576,65.701584,8.93634,-147.579239,,,
729601009.002177,0.744798,-2.485859,-8.846614,0.034775,0.009949,1.003342,-0.011614,0.050146,-0.007576,65.701584,8.93634,-147.579239,,,
729601009.005373,0.745477,-2.474816,-8.84796,0.033829,0.009048,1.000885,-0.003526,0.051107,-0.005001,65.701584,8.93634,-147.579239,,,
729601009.008731,0.745188,-2.462068,-8.849854,0.033829,0.009048,1.000885,-0.003526,0.051107,-0.005001,65.701584,8.93634,-147.579239,,,
729601009.012121,0.745188,-2.462068,-8.849854,0.033829,0.009048,1.000885,-0.003526,0.051107,-0.005001,65.701584,8.93634,-147.579239,,,
729601009.015395,0.74875,-2.452759,-8.85234,0.028442,0.01149,1.000107,0.003626,0.029802,-0.009457,65.701584,8.93634,-147.579239,,,
729601009.018718,0.749466,-2.446622,-8.855711,0.028442,0.01149,1.000107,0.003626,0.029802,-0.009457,65.701584,8.93634,-147.579239,,,
729601009.022068,0.749466,-2.446622,-8.855711,0.028442,0.01149,1.000107,0.003626,0.029802,-0.009457,65.701584,8.93634,-147.579239,,,
729601009.025417,0.753367,-2.443384,-8.861234,0.028549,0.013046,0.989288,0.007401,0.007348,-0.02465,65.672806,9.284378,-147.467987,,,
729601009.028724,0.755431,-2.443243,-8.868616,0.028549,0.013046,0.989288,0.007401,0.007348,-0.02465,65.672806,9.284378,-147.467987,,,
729601009.032114,0.755431,-2.443243,-8.868616,0.028549,0.013046,0.989288,0.007401,0.007348,-0.02465,65.672806,9.284378,-147.467987,,,
729601009.035472,0.758854,-2.446997,-8.87696,0.030243,0.016144,0.987381,0.005393,-0.012119,-0.031399,65.672806,9.284378,-147.467987,,,
729601009.038721,0.759885,-2.452163,-8.88569,0.030243,0.016144,0.987381,0.005393,-0.012119,-0.031399,65.672806,9.284378,-147.467987,,,
729601009.042124,0.759885,-2.452163,-8.88569,0.030243,0.016144,0.987381,0.005393,-0.012119,-0.031399,65.672806,9.284378,-147.467987,,,
729601009.045158,0.760535,-2.459344,-8.894465,0.032166,0.019104,0.980576,-0.00324,-0.018565,-0.031446,65.672806,9.284378,-147.467987,,,
729601009.048757,0.759993,-2.466501,-8.902491,0.032166,0.019104,0.980576,-0.00324,-0.018565,-0.031446,65.672806,9.284378,-147.467987,,,
729601009.052105,0.759993,-2.466501,-8.902491,0.032166,0.019104,0.980576,-0.00324,-0.018565,-0.031446,65.672806,9.284378,-147.467987,,,
729601009.055395,0.758934,-2.474719,-8.909024,0.028229,0.019806,0.987045,-0.007318,-0.031152,-0.020777,65.672806,9.284378,-147.467987,,,
729601009.058719,0.756524,-2.483967,-8.914129,0.028229,0.019806,0.987045,-0.007318,-0.031152,-0.020777,65.672806,9.284378,-147.467987,,,
729601009.062207,0.756524,-2.483967,-8.914129,0.028229,0.019806,0.987045,-0.007318,-0.031152,-0.020777,65.672806,9.284378,-147.467987,,,
729601009.06537,0.752552,-2.489376,-8.917991,0.029251,0.018845,0.982239,-0.014549,-0.018328,-0.011584,65.544662,9.148636,-147.446136,,,
729601009.068719,0.749053,-2.493542,-8.920278,0.029251,0.018845,0.982239,-0.014549,-0.018328,-0.011584,65.544662,9.148636,-147.446136,,,
729601009.072052,0.749053,-2.493542,-8.920278,0.029251,0.018845,0.982239,-0.014549,-0.018328,-0.011584,65.544662,9.148636,-147.446136,,,
729601009.075464,0.745747,-2.49214,-8.921305,0.029282,0.017731,0.991318,-0.006958,0.005008,-0.002923,65.544662,9.148636,-147.446136,,,
729601009.078719,0.744513,-2.491438,-8.920687,0.029282,0.017731,0.991318,-0.006958,0.005008,-0.002923,65.544662,9.148636,-147.446136,,,
729601009.082071,0.744513,-2.491438,-8.920687,0.029282,0.017731,0.991318,-0.006958,0.005008,-0.002923,65.544662,9.148636,-147.446136,,,
729601009.085406,0.743616,-2.486694,-8.918118,0.028702,0.014404,0.999466,0.002641,0.011295,0.010543,65.544662,9.148636,-147.446136,,,
729601009.088724,0.74484,-2.482895,-8.91402,0.028702,0.014404,0.999466,0.002641,0.011295,0.010543,65.544662,9.148636,-147.446136,,,
729601009.092069,0.74484,-2.482895,-8.91402,0.028702,0.014404,0.999466,0.002641,0.011295,0.010543,65.544662,9.148636,-147.446136,,,
729601009.095392,0.747519,-2.474353,-8.908654,0.026596,0.00563,1.002029,0.015744,0.016801,0.019179,65.544662,9.148636,-147.446136,,,
729601009.098724,0.753047,-2.470987,-8.902542,0.026596,0.00563,1.002029,0.015744,0.016801,0.019179,65.544662,9.148636,-147.446136,,,
729601009.102148,0.753047,-2.470987,-8.902542,0.026596,0.00563,1.002029,0.015744,0.016801,0.019179,65.544662,9.148636,-147.446136,,,
729601009.105368,0.761828,-2.464718,-8.896483,0.025909,0.00264,1.001923,0.035819,0.012409,0.018217,65.493347,9.138763,-147.412033,,,
729601009.108722,0.772805,-2.463503,-8.890409,0.025909,0.00264,1.001923,0.035819,0.012409,0.018217,65.493347,9.138763,-147.412033,,,
729601009.112065,0.772805,-2.463503,-8.890409,0.025909,0.00264,1.001923,0.035819,0.012409,0.018217,65.493347,9.138763,-147.412033,,,
