Time (sec),Pitch (deg),Roll (deg),Yaw(deg),X-Acceleration (g),Y-Acceleration (g),Z-Acceleration (g),Pitch Rate (deg/sec),Roll Rate (deg/sec),Yaw Rate (deg/sec),Magnetic Field in X direction (uT),Magnetic Field in Y direction (uT),Magnetic Field in Z Direction (uT),Latitude (deg),Longitude (deg),Altitude (m)
729606633.086962,-0.175637,1.208382,57.531729,-0.024612,-0.017288,1.014786,0.046714,-0.061315,-0.005525,62.657257,23.269348,-147.052704,,,
729606633.090323,-0.175637,1.208382,57.531729,-0.024612,-0.017288,1.014786,0.046714,-0.061315,-0.005525,62.657257,23.269348,-147.052704,,,
729606633.093654,-0.161589,1.193452,57.533623,-0.031952,-0.023712,1.006805,0.046714,-0.061315,-0.005525,62.657257,23.269348,-147.052704,,,
729606633.096969,-0.146072,1.185283,57.537781,-0.031952,-0.023712,1.006805,0.050529,-0.034682,0.013367,62.657257,23.269348,-147.052704,,,
729606633.100314,-0.146072,1.185283,57.537781,-0.031952,-0.023712,1.006805,0.050529,-0.034682,0.013367,62.657257,23.269348,-147.052704,,,
729606633.103648,-0.132648,1.177023,57.542731,-0.026566,-0.016693,0.995895,0.050529,-0.034682,0.013367,62.437378,23.296387,-147.086243,,,
729606633.106966,-0.120588,1.174646,57.546839,-0.026566,-0.016693,0.995895,0.038752,-0.018993,0.014046,62.437378,23.296387,-147.086243,,,
729606633.110355,-0.120588,1.174646,57.546839,-0.026566,-0.016693,0.995895,0.038752,-0.018993,0.014046,62.437378,23.296387,-147.086243,,,
729606633.113668,-0.112423,1.1692,57.549424,-0.019089,-0.002167,0.983475,0.038752,-0.018993,0.014046,62.437378,23.296387,-147.086243,,,
729606633.116967,-0.106617,1.167906,57.549546,-0.019089,-0.002167,0.983475,0.020562,-0.015557,-0.001805,62.437378,23.296387,-147.086243,,,
729606633.120308,-0.106617,1.167906,57.549546,-0.019089,-0.002167,0.983475,0.020562,-0.015557,-0.001805,62.437378,23.296387,-147.086243,,,
729606633.12371,-0.10337,1.161467,57.545633,-0.01976,0.003174,0.978424,0.020562,-0.015557,-0.001805,62.437378,23.296387,-147.086243,,,
729606633.126984,-0.104326,1.155053,57.537494,-0.01976,0.003174,0.978424,-0.000397,-0.026256,-0.030415,62.437378,23.296387,-147.086243,,,
729606633.130305,-0.104326,1.155053,57.537494,-0.01976,0.003174,0.978424,-0.000397,-0.026256,-0.030415,62.437378,23.296387,-147.086243,,,
729606633.133657,-0.107397,1.143446,57.52544,-0.022385,0.003326,0.973877,-0.000397,-0.026256,-0.030415,62.437378,23.296387,-147.086243,,,
729606633.136976,-0.114166,1.129083,57.509925,-0.022385,0.003326,0.973877,-0.017297,-0.051217,-0.056557,62.437378,23.296387,-147.086243,,,
729606633.140298,-0.114166,1.129083,57.509925,-0.022385,0.003326,0.973877,-0.017297,-0.051217,-0.056557,62.437378,23.296387,-147.086243,,,
729606633.143656,-0.12362,1.109931,57.492176,-0.027527,0.002823,0.970245,-0.017297,-0.051217,-0.056557,62.574814,23.298996,-147.332581,,,
729606633.146971,-0.136094,1.088025,57.473028,-0.027527,0.002823,0.970245,-0.039658,-0.073886,-0.06994,62.574814,23.298996,-147.332581,,,
729606633.150368,-0.136094,1.088025,57.473028,-0.027527,0.002823,0.970245,-0.039658,-0.073886,-0.06994,62.574814,23.298996,-147.332581,,,
729606633.153643,-0.150206,1.063068,57.453067,-0.028198,-0.001205,0.971542,-0.039658,-0.073886,-0.06994,62.574814,23.298996,-147.332581,,,
729606633.156965,-0.168688,1.037979,57.433601,-0.028198,-0.001205,0.971542,-0.054691,-0.086681,-0.071152,62.574814,23.298996,-147.332581,,,
729606633.160318,-0.168688,1.037979,57.433601,-0.028198,-0.001205,0.971542,-0.054691,-0.086681,-0.071152,62.574814,23.298996,-147.332581,,,
729606633.163645,-0.186556,1.013038,57.414871,-0.025986,-0.002869,0.974747,-0.054691,-0.086681,-0.071152,62.574814,23.298996,-147.332581,,,
729606633.16697,-0.207258,0.993966,57.397797,-0.025986,-0.002869,0.974747,-0.060164,-0.078708,-0.059478,62.574814,23.298996,-147.332581,,,
729606633.170311,-0.207258,0.993966,57.397797,-0.025986,-0.002869,0.974747,-0.060164,-0.078708,-0.059478,62.574814,23.298996,-147.332581,,,
729606633.173647,-0.222572,0.972251,57.384128,-0.026596,-0.009277,0.988007,-0.060164,-0.078708,-0.059478,62.574814,23.298996,-147.332581,,,
729606633.176967,-0.238563,0.957103,57.374469,-0.026596,-0.009277,0.988007,-0.039271,-0.071337,-0.035203,62.574814,23.298996,-147.332581,,,
729606633.180304,-0.238563,0.957103,57.374469,-0.026596,-0.009277,0.988007,-0.039271,-0.071337,-0.035203,62.574814,23.298996,-147.332581,,,
729606633.183634,-0.246935,0.937422,57.369571,-0.032684,-0.017792,0.999039,-0.039271,-0.071337,-0.035203,62.305038,23.447311,-147.324783,,,
729606633.186966,-0.252187,0.922721,57.369773,-0.032684,-0.017792,0.999039,-0.010529,-0.056657,-0.000891,62.305038,23.447311,-147.324783,,,
729606633.190366,-0.252187,0.922721,57.369773,-0.032684,-0.017792,0.999039,-0.010529,-0.056657,-0.000891,62.305038,23.447311,-147.324783,,,
729606633.193648,-0.253102,0.909675,57.374782,-0.034943,-0.0224,1.008926,-0.010529,-0.056657,-0.000891,62.305038,23.447311,-147.324783,,,
729606633.196969,-0.251266,0.902917,57.384024,-0.034943,-0.0224,1.008926,0.002528,-0.026571,0.031364,62.305038,23.447311,-147.324783,,,
729606633.200318,-0.251266,0.902917,57.384024,-0.034943,-0.0224,1.008926,0.002528,-0.026571,0.031364,62.305038,23.447311,-147.324783,,,
729606633.203736,-0.250805,0.89758,57.396129,-0.034546,-0.018814,1.006592,0.002528,-0.026571,0.031364,62.305038,23.447311,-147.324783,,,
729606633.207003,-0.24994,0.894665,57.409435,-0.034546,-0.018814,1.006592,-0.002388,-0.010292,0.045977,62.305038,23.447311,-147.324783,,,
729606633.210317,-0.24994,0.894665,57.409435,-0.034546,-0.018814,1.006592,-0.002388,-0.010292,0.045977,62.305038,23.447311,-147.324783,,,
729606633.21364,-0.251552,0.8894,57.422556,-0.0271,-0.00766,0.990356,-0.002388,-0.010292,0.045977,62.305038,23.447311,-147.324783,,,
729606633.216969,-0.252084,0.889112,57.434767,-0.0271,-0.00766,0.990356,-0.007547,-0.011942,0.041476,62.305038,23.447311,-147.324783,,,
729606633.220301,-0.252084,0.889112,57.434767,-0.0271,-0.00766,0.990356,-0.007547,-0.011942,0.041476,62.305038,23.447311,-147.324783,,,
729606633.223633,-0.255658,0.886116,57.445648,-0.022369,-0.00589,0.994934,-0.007547,-0.011942,0.041476,62.429886,23.518143,-147.241974,,,
729606633.226967,-0.260386,0.8886,57.4549,-0.022369,-0.00589,0.994934,-0.019263,-0.008596,0.029101,62.429886,23.518143,-147.241974,,,
729606633.230305,-0.260386,0.8886,57.4549,-0.022369,-0.00589,0.994934,-0.019263,-0.008596,0.029101,62.429886,23.518143,-147.241974,,,
729606633.23365,-0.268941,0.883741,57.461806,-0.01593,-0.004333,0.989182,-0.019263,-0.008596,0.029101,62.429886,23.518143,-147.241974,,,
729606633.236965,-0.280268,0.881526,57.46608,-0.01593,-0.004333,0.989182,-0.039436,-0.024242,0.012313,62.429886,23.518143,-147.241974,,,
729606633.240309,-0.280268,0.881526,57.46608,-0.01593,-0.004333,0.989182,-0.039436,-0.024242,0.012313,62.429886,23.518143,-147.241974,,,
729606633.243737,-0.295168,0.871715,57.468059,-0.015427,-0.001236,0.977112,-0.039436,-0.024242,0.012313,62.429886,23.518143,-147.241974,,,
729606633.246954,-0.311634,0.863321,57.46806,-0.015427,-0.001236,0.977112,-0.057795,-0.040452,0.000757,62.429886,23.518143,-147.241974,,,
729606633.250314,-0.311634,0.863321,57.46806,-0.015427,-0.001236,0.977112,-0.057795,-0.040452,0.000757,62.429886,23.518143,-147.241974,,,
729606633.253642,-0.328758,0.850039,57.46616,-0.018204,-0.003632,0.985611,-0.057795,-0.040452,0.000757,62.429886,23.518143,-147.241974,,,
729606633.256967,-0.345756,0.840835,57.462267,-0.018204,-0.003632,0.985611,-0.054518,-0.044223,-0.014624,62.429886,23.518143,-147.241974,,,
729606633.260304,-0.345756,0.840835,57.462267,-0.018204,-0.003632,0.985611,-0.054518,-0.044223,-0.014624,62.429886,23.518143,-147.241974,,,
729606633.263633,-0.359345,0.826959,57.45657,-0.014603,-0.007828,0.999527,-0.054518,-0.044223,-0.014624,62.429886,23.518143,-147.241974,,,
729606633.266969,-0.372568,0.81904,57.450352,-0.014603,-0.007828,0.999527,-0.03862,-0.045286,-0.022943,62.361588,23.441452,-146.996872,,,
729606633.270393,-0.372568,0.81904,57.450352,-0.014603,-0.007828,0.999527,-0.03862,-0.045286,-0.022943,62.361588,23.441452,-146.996872,,,
729606633.27365,-0.381418,0.803223,57.443886,-0.015747,-0.010986,1.004166,-0.03862,-0.045286,-0.022943,62.361588,23.441452,-146.996872,,,
729606633.276979,-0.391756,0.793375,57.437054,-0.015747,-0.010986,1.004166,-0.02712,-0.059987,-0.025169,62.361588,23.441452,-146.996872,,,
729606633.280303,-0.391756,0.793375,57.437054,-0.015747,-0.010986,1.004166,-0.02712,-0.059987,-0.025169,62.361588,23.441452,-146.996872,,,
729606633.283743,-0.397545,0.773337,57.429219,-0.016037,-0.015289,0.994492,-0.02712,-0.059987,-0.025169,62.361588,23.441452,-146.996872,,,
729606633.286971,-0.403779,0.760715,57.419661,-0.016037,-0.015289,0.994492,-0.015993,-0.070547,-0.033037,62.361588,23.441452,-146.996872,,,
729606633.290315,-0.403779,0.760715,57.419661,-0.016037,-0.015289,0.994492,-0.015993,-0.070547,-0.033037,62.361588,23.441452,-146.996872,,,
729606633.293684,-0.408085,0.740864,57.408219,-0.005829,-0.011276,0.995132,-0.015993,-0.070547,-0.033037,62.361588,23.441452,-146.996872,,,
729606633.296966,-0.411615,0.726972,57.395653,-0.005829,-0.011276,0.995132,-0.013275,-0.063287,-0.044444,62.361588,23.441452,-146.996872,,,
729606633.300331,-0.411615,0.726972,57.395653,-0.005829,-0.011276,0.995132,-0.013275,-0.063287,-0.044444,62.361588,23.441452,-146.996872,,,
729606633.303641,-0.415559,0.708375,57.382853,-0.00592,-0.005768,0.993698,-0.013275,-0.063287,-0.044444,62.361588,23.441452,-146.996872,,,
729606633.306975,-0.418509,0.6941,57.370488,-0.00592,-0.005768,0.993698,-0.01135,-0.058331,-0.044481,62.246384,23.67717,-146.989883,,,
729606633.310397,-0.418509,0.6941,57.370488,-0.00592,-0.005768,0.993698,-0.01135,-0.058331,-0.044481,62.246384,23.67717,-146.989883,,,
729606633.313645,-0.421434,0.678835,57.358533,-0.01001,-0.010986,0.990234,-0.01135,-0.058331,-0.044481,62.246384,23.67717,-146.989883,,,
729606633.316967,-0.42297,0.666965,57.346905,-0.01001,-0.010986,0.990234,-0.008891,-0.041865,-0.042816,62.246384,23.67717,-146.989883,,,
729606633.320325,-0.42297,0.666965,57.346905,-0.01001,-0.010986,0.990234,-0.008891,-0.041865,-0.042816,62.246384,23.67717,-146.989883,,,
729606633.323631,-0.424723,0.655036,57.335569,-0.005295,-0.012512,0.993225,-0.008891,-0.041865,-0.042816,62.246384,23.67717,-146.989883,,,
729606633.326967,-0.424882,0.647794,57.324993,-0.005295,-0.012512,0.993225,-0.003465,-0.031475,-0.037173,62.246384,23.67717,-146.989883,,,
729606633.330305,-0.424882,0.647794,57.324993,-0.005295,-0.012512,0.993225,-0.003465,-0.031475,-0.037173,62.246384,23.67717,-146.989883,,,
729606633.33365,-0.425576,0.641548,57.3156,-0.005768,-0.012772,0.992386,-0.003465,-0.031475,-0.037173,62.246384,23.67717,-146.989883,,,
729606633.336965,-0.425546,0.642022,57.307014,-0.005768,-0.012772,0.992386,-0.001431,-0.003015,-0.031071,62.246384,23.67717,-146.989883,,,
729606633.340316,-0.425546,0.642022,57.307014,-0.005768,-0.012772,0.992386,-0.001431,-0.003015,-0.031071,62.246384,23.67717,-146.989883,,,
729606633.343668,-0.426017,0.643803,57.299253,-0.007095,-0.011414,0.993637,-0.001431,-0.003015,-0.031071,62.246384,23.67717,-146.989883,,,
729606633.346993,-0.426526,0.649003,57.292268,-0.007095,-0.011414,0.993637,0.000916,0.018527,-0.024249,62.133881,23.796204,-146.89978,,,
729606633.350323,-0.426526,0.649003,57.292268,-0.007095,-0.011414,0.993637,0.000916,0.018527,-0.024249,62.133881,23.796204,-146.89978,,,
729606633.353664,-0.426166,0.653192,57.285406,-0.009323,-0.007706,0.986801,0.000916,0.018527,-0.024249,62.133881,23.796204,-146.89978,,,
729606633.356971,-0.426285,0.658008,57.278915,-0.009323,-0.007706,0.986801,0.005846,0.012026,-0.021343,62.133881,23.796204,-146.89978,,,
729606633.360379,-0.426285,0.658008,57.278915,-0.009323,-0.007706,0.986801,0.005846,0.012026,-0.021343,62.133881,23.796204,-146.89978,,,
729606633.363632,-0.425704,0.659287,57.273092,-0.013443,-0.010452,0.984268,0.005846,0.012026,-0.021343,62.133881,23.796204,-146.89978,,,
729606633.366969,-0.427863,0.659487,57.266897,-0.013443,-0.010452,0.984268,-0.002799,0.005899,-0.024925,62.133881,23.796204,-146.89978,,,
729606633.370323,-0.427863,0.659487,57.266897,-0.013443,-0.010452,0.984268,-0.002799,0.005899,-0.024925,62.133881,23.796204,-146.89978,,,
729606633.373685,-0.429933,0.657392,57.259615,-0.012512,-0.007462,0.980194,-0.002799,0.005899,-0.024925,62.133881,23.796204,-146.89978,,,
729606633.37697,-0.433557,0.650137,57.251715,-0.012512,-0.007462,0.980194,-0.013124,-0.012844,-0.027772,62.133881,23.796204,-146.89978,,,
729606633.380301,-0.433557,0.650137,57.251715,-0.012512,-0.007462,0.980194,-0.013124,-0.012844,-0.027772,62.133881,23.796204,-146.89978,,,
729606633.383639,-0.43775,0.642766,57.242777,-0.009277,-0.002747,0.979019,-0.013124,-0.012844,-0.027772,62.133881,23.796204,-146.89978,,,
729606633.387005,-0.441929,0.632547,57.232477,-0.009277,-0.002747,0.979019,-0.01345,-0.029725,-0.035801,62.133881,23.796204,-146.89978,,,
729606633.390295,-0.441929,0.632547,57.232477,-0.009277,-0.002747,0.979019,-0.01345,-0.029725,-0.035801,62.088776,23.636978,-147.172043,,,
729606633.393646,-0.445885,0.623245,57.221714,-0.00528,-0.00589,0.989868,-0.01345,-0.029725,-0.035801,62.088776,23.636978,-147.172043,,,
729606633.396969,-0.450572,0.614511,57.211342,-0.00528,-0.00589,0.989868,-0.013006,-0.022688,-0.036242,62.088776,23.636978,-147.172043,,,
729606633.400401,-0.450572,0.614511,57.211342,-0.00528,-0.00589,0.989868,-0.013006,-0.022688,-0.036242,62.088776,23.636978,-147.172043,,,
729606633.403644,-0.453939,0.609071,57.201851,-0.008911,-0.011505,0.999878,-0.013006,-0.022688,-0.036242,62.088776,23.636978,-147.172043,,,
729606633.406976,-0.457376,0.603377,57.193295,-0.008911,-0.011505,0.999878,-0.008731,-0.008342,-0.029591,62.088776,23.636978,-147.172043,,,
729606633.410336,-0.457376,0.603377,57.193295,-0.008911,-0.011505,0.999878,-0.008731,-0.008342,-0.029591,62.088776,23.636978,-147.172043,,,
729606633.413641,-0.45898,0.601741,57.184951,-0.007416,-0.007904,1.003754,-0.008731,-0.008342,-0.029591,62.088776,23.636978,-147.172043,,,
729606633.416976,-0.46018,0.600344,57.176573,-0.007416,-0.007904,1.003754,-0.001386,0.002977,-0.029429,62.088776,23.636978,-147.172043,,,
729606633.420318,-0.46018,0.600344,57.176573,-0.007416,-0.007904,1.003754,-0.001386,0.002977,-0.029429,62.088776,23.636978,-147.172043,,,
729606633.423653,-0.458729,0.603137,57.168716,-0.005325,-0.006516,1.007065,-0.001386,0.002977,-0.029429,62.088776,23.636978,-147.172043,,,
729606633.426974,-0.455517,0.608085,57.161927,-0.005325,-0.006516,1.007065,0.016069,0.025289,-0.023391,62.088776,23.636978,-147.172043,,,
729606633.430309,-0.455517,0.608085,57.161927,-0.005325,-0.006516,1.007065,0.016069,0.025289,-0.023391,62.217773,23.490067,-147.050369,,,
729606633.43365,-0.450243,0.615922,57.156601,-0.010635,-0.010544,1.013153,0.016069,0.025289,-0.023391,62.217773,23.490067,-147.050369,,,
729606633.436974,-0.444093,0.62299,57.152849,-0.010635,-0.010544,1.013153,0.022226,0.029603,-0.011967,62.217773,23.490067,-147.050369,,,
729606633.440375,-0.444093,0.62299,57.152849,-0.010635,-0.010544,1.013153,0.022226,0.029603,-0.011967,62.217773,23.490067,-147.050369,,,
729606633.443639,-0.436663,0.627282,57.150527,-0.015411,-0.010452,1.0047,0.022226,0.029603,-0.011967,62.217773,23.490067,-147.050369,,,
729606633.446978,-0.428891,0.630644,57.14836,-0.015411,-0.010452,1.0047,0.030696,0.00933,-0.009841,62.217773,23.490067,-147.050369,,,
729606633.450309,-0.428891,0.630644,57.14836,-0.015411,-0.010452,1.0047,0.030696,0.00933,-0.009841,62.217773,23.490067,-147.050369,,,
729606633.453703,-0.419014,0.632657,57.145465,-0.014145,-0.012299,1.000854,0.030696,0.00933,-0.009841,62.217773,23.490067,-147.050369,,,
729606633.456968,-0.406809,0.636117,57.141757,-0.014145,-0.012299,1.000854,0.044856,0.014785,-0.01362,62.217773,23.490067,-147.050369,,,
729606633.460299,-0.406809,0.636117,57.141757,-0.014145,-0.012299,1.000854,0.044856,0.014785,-0.01362,62.217773,23.490067,-147.050369,,,
729606633.463633,-0.392853,0.638544,57.137436,-0.007767,-0.007553,1.007721,0.044856,0.014785,-0.01362,62.217773,23.490067,-147.050369,,,
729606633.466962,-0.376475,0.638106,57.134084,-0.007767,-0.007553,1.007721,0.054573,0.006844,-0.012648,62.217773,23.490067,-147.050369,,,
729606633.470296,-0.376475,0.638106,57.134084,-0.007767,-0.007553,1.007721,0.054573,0.006844,-0.012648,62.099594,23.560883,-147.255554,,,
729606633.473626,-0.36009,0.639323,57.132296,-0.011276,-0.007858,0.999039,0.054573,0.006844,-0.012648,62.099594,23.560883,-147.255554,,,
729606633.476965,-0.343286,0.640242,57.131899,-0.011276,-0.007858,0.999039,0.061195,0.012148,0.001524,62.099594,23.560883,-147.255554,,,
729606633.480311,-0.343286,0.640242,57.131899,-0.011276,-0.007858,0.999039,0.061195,0.012148,0.001524,62.099594,23.560883,-147.255554,,,
729606633.48364,-0.32595,0.645589,57.133661,-0.005814,-0.008118,0.997711,0.061195,0.012148,0.001524,62.099594,23.560883,-147.255554,,,
729606633.486974,-0.311106,0.652268,57.137566,-0.005814,-0.008118,0.997711,0.056257,0.031082,0.013345,62.099594,23.560883,-147.255554,,,
729606633.490313,-0.311106,0.652268,57.137566,-0.005814,-0.008118,0.997711,0.056257,0.031082,0.013345,62.099594,23.560883,-147.255554,,,
729606633.49372,-0.297602,0.661269,57.143983,0.000107,-0.002518,0.982422,0.056257,0.031082,0.013345,62.099594,23.560883,-147.255554,,,
729606633.497,-0.28756,0.669814,57.152685,0.000107,-0.002518,0.982422,0.039336,0.040513,0.029729,62.099594,23.560883,-147.255554,,,
729606633.500317,-0.28756,0.669814,57.152685,0.000107,-0.002518,0.982422,0.039336,0.040513,0.029729,62.099594,23.560883,-147.255554,,,
729606633.503652,-0.28112,0.683823,57.162814,0.004822,0.001846,0.968246,0.039336,0.040513,0.029729,62.099594,23.560883,-147.255554,,,
729606633.506967,-0.279211,0.698171,57.173387,0.004822,0.001846,0.968246,0.010349,0.060321,0.035921,62.099594,23.560883,-147.255554,,,
729606633.5103,-0.279211,0.698171,57.173387,0.004822,0.001846,0.968246,0.010349,0.060321,0.035921,62.174347,23.425858,-147.26413,,,
729606633.513633,-0.280275,0.714677,57.183772,0.014252,0.007767,0.962677,0.010349,0.060321,0.035921,62.174347,23.425858,-147.26413,,,
729606633.516965,-0.286203,0.731194,57.194061,0.014252,0.007767,0.962677,-0.018343,0.059076,0.034073,62.174347,23.425858,-147.26413,,,
729606633.520388,-0.286203,0.731194,57.194061,0.014252,0.007767,0.962677,-0.018343,0.059076,0.034073,62.174347,23.425858,-147.26413,,,
729606633.523648,-0.294465,0.747918,57.203826,0.01178,0.006287,0.960434,-0.018343,0.059076,0.034073,62.174347,23.425858,-147.26413,,,
729606633.526975,-0.306948,0.764881,57.21235,0.01178,0.006287,0.960434,-0.039419,0.061751,0.025775,62.174347,23.425858,-147.26413,,,
729606633.530302,-0.306948,0.764881,57.21235,0.01178,0.006287,0.960434,-0.039419,0.061751,0.025775,62.174347,23.425858,-147.26413,,,
729606633.533655,-0.320789,0.778347,57.219061,0.009338,0.001419,0.961685,-0.039419,0.061751,0.025775,62.174347,23.425858,-147.26413,,,
729606633.536972,-0.338259,0.786507,57.224294,0.009338,0.001419,0.961685,-0.057529,0.033308,0.014886,62.174347,23.425858,-147.26413,,,
729606633.540329,-0.338259,0.786507,57.224294,0.009338,0.001419,0.961685,-0.057529,0.033308,0.014886,62.174347,23.425858,-147.26413,,,
729606633.543707,-0.356932,0.790355,57.227842,0.006363,-1.5e-05,0.961029,-0.057529,0.033308,0.014886,62.174347,23.425858,-147.26413,,,
729606633.546967,-0.378067,0.788263,57.229417,0.006363,-1.5e-05,0.961029,-0.072976,0.004374,0.003041,62.174347,23.425858,-147.26413,,,
729606633.550351,-0.378067,0.788263,57.229417,0.006363,-1.5e-05,0.961029,-0.072976,0.004374,0.003041,62.174347,23.425858,-147.26413,,,
729606633.55366,-0.400761,0.784073,57.229765,-0.002899,-0.003723,0.969589,-0.072976,0.004374,0.003041,62.193298,23.385513,-147.124115,,,
729606633.556979,-0.424594,0.775405,57.229798,-0.002899,-0.003723,0.969589,-0.080196,-0.026616,-0.001345,62.193298,23.385513,-147.124115,,,
729606633.560297,-0.424594,0.775405,57.229798,-0.002899,-0.003723,0.969589,-0.080196,-0.026616,-0.001345,62.193298,23.385513,-147.124115,,,
729606633.563664,-0.448922,0.7656,57.230951,-0.018188,-0.012238,0.980682,-0.080196,-0.026616,-0.001345,62.193298,23.385513,-147.124115,,,
729606633.566972,-0.448922,0.7656,57.230951,-0.018188,-0.012238,0.980682,-0.088969,-0.03474,0.008888,62.193298,23.385513,-147.124115,,,
729606633.570365,-0.47414,0.751957,57.233355,-0.018188,-0.012238,0.980682,-0.088969,-0.03474,0.008888,62.193298,23.385513,-147.124115,,,
729606633.573642,-0.500249,0.741496,57.237149,-0.026016,-0.022766,0.993759,-0.088969,-0.03474,0.008888,62.193298,23.385513,-147.124115,,,
729606633.576977,-0.526035,0.728028,57.243009,-0.026016,-0.022766,0.993759,-0.093035,-0.030046,0.017047,62.193298,23.385513,-147.124115,,,
729606633.580313,-0.526035,0.728028,57.243009,-0.026016,-0.022766,0.993759,-0.093035,-0.030046,0.017047,62.193298,23.385513,-147.124115,,,
729606633.583642,-0.553889,0.719503,57.250068,-0.021042,-0.020355,0.998322,-0.093035,-0.030046,0.017047,62.193298,23.385513,-147.124115,,,
729606633.586974,-0.553889,0.719503,57.250068,-0.021042,-0.020355,0.998322,-0.099771,-0.026944,0.018815,62.193298,23.385513,-147.124115,,,
729606633.590315,-0.58007,0.705892,57.256241,-0.021042,-0.020355,0.998322,-0.099771,-0.026944,0.018815,62.193298,23.385513,-147.124115,,,
729606633.593697,-0.607079,0.697849,57.261021,-0.014465,-0.014175,1.004929,-0.099771,-0.026944,0.018815,62.199295,23.706497,-147.180466,,,
729606633.596967,-0.607079,0.697849,57.263763,-0.014465,-0.014175,1.004929,-0.091075,-0.024716,0.007656,62.199295,23.706497,-147.180466,,,
729606633.600309,-0.630995,0.683692,57.263763,-0.014465,-0.014175,1.004929,-0.091075,-0.024716,0.007656,62.199295,23.706497,-147.180466,,,
729606633.603649,-0.656781,0.678015,57.264407,-0.005615,-0.013336,1.013779,-0.091075,-0.024716,0.007656,62.199295,23.706497,-147.180466,,,
729606633.606966,-0.656781,0.678015,57.264407,-0.005615,-0.013336,1.013779,-0.087925,-0.008705,-0.006033,62.199295,23.706497,-147.180466,,,
729606633.610321,-0.679392,0.667585,57.263417,-0.005615,-0.013336,1.013779,-0.087925,-0.008705,-0.006033,62.199295,23.706497,-147.180466,,,
729606633.613641,-0.703143,0.664495,57.261051,-0.004593,-0.015488,1.017517,-0.087925,-0.008705,-0.006033,62.199295,23.706497,-147.180466,,,
729606633.616994,-0.703143,0.664495,57.261051,-0.004593,-0.015488,1.017517,-0.07554,-0.007313,-0.016373,62.199295,23.706497,-147.180466,,,
729606633.620381,-0.723196,0.655684,57.25702,-0.004593,-0.015488,1.017517,-0.07554,-0.007313,-0.016373,62.199295,23.706497,-147.180466,,,
729606633.623625,-0.742639,0.653056,57.251514,-0.003448,-0.020355,1.017075,-0.07554,-0.007313,-0.016373,62.199295,23.706497,-147.180466,,,
729606633.627021,-0.742639,0.653056,57.251514,-0.003448,-0.020355,1.017075,-0.058882,-0.007856,-0.026215,62.199295,23.706497,-147.180466,,,
729606633.630305,-0.757929,0.644898,57.244401,-0.003448,-0.020355,1.017075,-0.058882,-0.007856,-0.026215,62.199295,23.706497,-147.180466,,,
729606633.633637,-0.773896,0.640672,57.236097,-0.003845,-0.019852,1.017441,-0.058882,-0.007856,-0.026215,62.036697,23.892166,-147.252304,,,
729606633.637003,-0.773896,0.640672,57.236097,-0.003845,-0.019852,1.017441,-0.052556,-0.016312,-0.032477,62.036697,23.892166,-147.252304,,,
729606633.640076,-0.788471,0.634961,57.227279,-0.003845,-0.019852,1.017441,-0.052556,-0.016312,-0.032477,62.036697,23.892166,-147.252304,,,
729606633.643673,-0.804895,0.630725,57.218008,-0.008728,-0.021957,1.006073,-0.052556,-0.016312,-0.032477,62.036697,23.892166,-147.252304,,,
729606633.647028,-0.804895,0.630725,57.218008,-0.008728,-0.021957,1.006073,-0.063704,-0.003247,-0.035096,62.036697,23.892166,-147.252304,,,
729606633.650316,-0.823482,0.633362,57.208343,-0.008728,-0.021957,1.006073,-0.063704,-0.003247,-0.035096,62.036697,23.892166,-147.252304,,,
729606633.653628,-0.843064,0.635412,57.198668,-0.010895,-0.023376,1.004288,-0.063704,-0.003247,-0.035096,62.036697,23.892166,-147.252304,,,
729606633.657002,-0.843064,0.635412,57.198668,-0.010895,-0.023376,1.004288,-0.069121,0.020296,-0.031555,62.036697,23.892166,-147.252304,,,
729606633.66037,-0.86443,0.644917,57.190229,-0.010895,-0.023376,1.004288,-0.069121,0.020296,-0.031555,62.036697,23.892166,-147.252304,,,
729606633.663634,-0.883815,0.650158,57.18373,-0.013733,-0.025223,1.007462,-0.069121,0.020296,-0.031555,62.036697,23.892166,-147.252304,,,
729606633.666993,-0.883815,0.650158,57.18373,-0.013733,-0.025223,1.007462,-0.067526,0.021741,-0.014561,62.036697,23.892166,-147.252304,,,
729606633.670308,-0.903368,0.658967,57.180016,-0.013733,-0.025223,1.007462,-0.067526,0.021741,-0.014561,62.036697,23.892166,-147.252304,,,
729606633.673629,-0.9221,0.666285,57.1792,-0.021545,-0.028244,1.004105,-0.067526,0.021741,-0.014561,62.106354,23.834946,-146.884018,,,
729606633.676986,-0.9221,0.666285,57.1792,-0.021545,-0.028244,1.004105,-0.0594,0.035032,0.002294,62.106354,23.834946,-146.884018,,,
729606633.680373,-0.939067,0.674332,57.180961,-0.021545,-0.028244,1.004105,-0.0594,0.035032,0.002294,62.106354,23.834946,-146.884018,,,
729606633.68363,-0.955303,0.68344,57.18545,-0.028229,-0.027039,1.012283,-0.0594,0.035032,0.002294,62.106354,23.834946,-146.884018,,,
729606633.687018,-0.955303,0.68344,57.18545,-0.028229,-0.027039,1.012283,-0.050348,0.031007,0.022626,62.106354,23.834946,-146.884018,,,
729606633.690305,-0.969394,0.688657,57.192486,-0.028229,-0.027039,1.012283,-0.050348,0.031007,0.022626,62.106354,23.834946,-146.884018,,,
729606633.69363,-0.983209,0.695138,57.200558,-0.029602,-0.027832,1.007797,-0.050348,0.031007,0.022626,62.106354,23.834946,-146.884018,,,
729606633.696986,-0.983209,0.695138,57.200558,-0.029602,-0.027832,1.007797,-0.050348,0.031007,0.022626,62.106354,23.834946,-146.884018,,,
729606633.700372,-0.996541,0.697332,57.207839,-0.029602,-0.027832,1.007797,-0.044583,0.02236,0.026558,62.106354,23.834946,-146.884018,,,
729606633.703619,-1.009942,0.701769,57.213181,-0.019958,-0.023041,1.005661,-0.044583,0.02236,0.026558,62.106354,23.834946,-146.884018,,,
729606633.707017,-1.009942,0.701769,57.213181,-0.019958,-0.023041,1.005661,-0.044583,0.02236,0.026558,62.106354,23.834946,-146.884018,,,
729606633.710315,-1.024322,0.700303,57.215935,-0.019958,-0.023041,1.005661,-0.047259,0.009756,0.00966,62.106354,23.834946,-146.884018,,,
729606633.713631,-1.038761,0.699838,57.216944,-0.016342,-0.015015,0.997818,-0.047259,0.009756,0.00966,62.106354,23.834946,-146.884018,,,
729606633.717033,-1.038761,0.699838,57.216944,-0.016342,-0.015015,0.997818,-0.047259,0.009756,0.00966,62.452179,23.867813,-147.265076,,,
729606633.720314,-1.054305,0.69448,57.216409,-0.016342,-0.015015,0.997818,-0.05446,-0.005693,-0.003911,62.452179,23.867813,-147.265076,,,
729606633.723642,-1.070334,0.69105,57.214777,-0.018585,-0.017365,0.992447,-0.05446,-0.005693,-0.003911,62.452179,23.867813,-147.265076,,,
729606633.726965,-1.070334,0.69105,57.214777,-0.018585,-0.017365,0.992447,-0.05446,-0.005693,-0.003911,62.452179,23.867813,-147.265076,,,
729606633.730306,-1.087236,0.686133,57.212887,-0.018585,-0.017365,0.992447,-0.056229,-0.009504,-0.006072,62.452179,23.867813,-147.265076,,,
729606633.733638,-1.102309,0.680881,57.211778,-0.016907,-0.022064,0.99968,-0.056229,-0.009504,-0.006072,62.452179,23.867813,-147.265076,,,
729606633.73698,-1.102309,0.680881,57.211778,-0.016907,-0.022064,0.99968,-0.056229,-0.009504,-0.006072,62.452179,23.867813,-147.265076,,,
729606633.740381,-1.116403,0.673124,57.211702,-0.016907,-0.022064,0.99968,-0.04763,-0.022592,-0.000855,62.452179,23.867813,-147.265076,,,
729606633.743626,-1.128108,0.664216,57.212241,-0.01149,-0.02327,1.001282,-0.04763,-0.022592,-0.000855,62.452179,23.867813,-147.265076,,,
729606633.746994,-1.128108,0.664216,57.212241,-0.01149,-0.02327,1.001282,-0.04763,-0.022592,-0.000855,62.452179,23.867813,-147.265076,,,
729606633.750312,-1.139692,0.65819,57.212791,-0.01149,-0.02327,1.001282,-0.035544,-0.023442,0.001471,62.452179,23.867813,-147.265076,,,
729606633.753629,-1.149098,0.652147,57.213384,-0.009369,-0.022034,1.006836,-0.035544,-0.023442,0.001471,62.452179,23.867813,-147.265076,,,
729606633.756988,-1.149098,0.652147,57.213384,-0.009369,-0.022034,1.006836,-0.035544,-0.023442,0.001471,62.132019,24.122589,-147.148071,,,
729606633.760316,-1.159388,0.652411,57.214172,-0.009369,-0.022034,1.006836,-0.030679,-0.015609,0.001074,62.132019,24.122589,-147.148071,,,
729606633.763637,-1.167382,0.647165,57.214588,-0.011887,-0.020966,1.004822,-0.030679,-0.015609,0.001074,62.132019,24.122589,-147.148071,,,
729606633.767054,-1.167382,0.647165,57.214588,-0.011887,-0.020966,1.004822,-0.030679,-0.015609,0.001074,62.132019,24.122589,-147.148071,,,
729606633.770289,-1.176016,0.650123,57.214883,-0.011887,-0.020966,1.004822,-0.024277,-0.016224,-0.001181,62.132019,24.122589,-147.148071,,,
729606633.773632,-1.182568,0.646928,57.214113,-0.010071,-0.023499,1.00293,-0.024277,-0.016224,-0.001181,62.132019,24.122589,-147.148071,,,
729606633.777,-1.182568,0.646928,57.214113,-0.010071,-0.023499,1.00293,-0.024277,-0.016224,-0.001181,62.132019,24.122589,-147.148071,,,
729606633.780319,-1.189592,0.650749,57.212288,-0.010071,-0.023499,1.00293,-0.01873,-0.00539,-0.00641,62.132019,24.122589,-147.148071,,,
729606633.783629,-1.194879,0.64797,57.20982,-0.002106,-0.020004,1.004166,-0.01873,-0.00539,-0.00641,62.132019,24.122589,-147.148071,,,
729606633.786963,-1.194879,0.64797,57.20982,-0.002106,-0.020004,1.004166,-0.01873,-0.00539,-0.00641,62.132019,24.122589,-147.148071,,,
729606633.790306,-1.199354,0.647565,57.207116,-0.002106,-0.020004,1.004166,-0.01208,-0.009139,-0.009774,62.132019,24.122589,-147.148071,,,
729606633.793639,-1.203315,0.646319,57.204621,-0.001816,-0.019653,1.000641,-0.01208,-0.009139,-0.009774,62.132019,24.122589,-147.148071,,,
729606633.796966,-1.203315,0.646319,57.204621,-0.001816,-0.019653,1.000641,-0.01208,-0.009139,-0.009774,62.164566,24.207092,-146.952637,,,
729606633.80033,-1.205627,0.648968,57.203167,-0.001816,-0.019653,1.000641,-0.014477,0.004832,-0.008759,62.164566,24.207092,-146.952637,,,
729606633.803626,-1.209169,0.649994,57.202617,-0.011673,-0.022293,1.000565,-0.014477,0.004832,-0.008759,62.164566,24.207092,-146.952637,,,
729606633.807051,-1.209169,0.649994,57.202617,-0.011673,-0.022293,1.000565,-0.014477,0.004832,-0.008759,62.164566,24.207092,-146.952637,,,
729606633.810294,-1.212337,0.654165,57.203136,-0.011673,-0.022293,1.000565,-0.012816,0.00602,-0.000703,62.164566,24.207092,-146.952637,,,
729606633.813642,-1.215077,0.65503,57.204847,-0.01619,-0.025497,0.995514,-0.012816,0.00602,-0.000703,62.164566,24.207092,-146.952637,,,
729606633.816979,-1.215077,0.65503,57.204847,-0.01619,-0.025497,0.995514,-0.012816,0.00602,-0.000703,62.164566,24.207092,-146.952637,,,
729606633.820367,-1.216652,0.658149,57.208224,-0.01619,-0.025497,0.995514,-0.003233,0.007817,0.011021,62.164566,24.207092,-146.952637,,,
729606633.823688,-1.215565,0.661367,57.212625,-0.011612,-0.026581,1.002533,-0.003233,0.007817,0.011021,62.164566,24.207092,-146.952637,,,
729606633.826975,-1.215565,0.661367,57.212625,-0.011612,-0.026581,1.002533,-0.003233,0.007817,0.011021,62.164566,24.207092,-146.952637,,,
729606633.830306,-1.211845,0.665374,57.217214,-0.011612,-0.026581,1.002533,0.013847,0.019954,0.016699,62.164566,24.207092,-146.952637,,,
729606633.833636,-1.205318,0.67211,57.220818,-0.002884,-0.021454,1.006744,0.013847,0.019954,0.016699,62.164566,24.207092,-146.952637,,,
729606633.83697,-1.205318,0.67211,57.220818,-0.002884,-0.021454,1.006744,0.013847,0.019954,0.016699,62.259247,24.137802,-147.03125,,,
729606633.84031,-1.196219,0.679568,57.222552,-0.002884,-0.021454,1.006744,0.034222,0.032121,0.006433,62.259247,24.137802,-147.03125,,,
729606633.843632,-1.185743,0.688679,57.222728,0.003906,-0.01535,1.006165,0.034222,0.032121,0.006433,62.259247,24.137802,-147.03125,,,
729606633.846966,-1.185743,0.688679,57.222728,0.003906,-0.01535,1.006165,0.034222,0.032121,0.006433,62.259247,24.137802,-147.03125,,,
729606633.85032,-1.175839,0.699399,57.221465,0.003906,-0.01535,1.006165,0.034259,0.040122,-0.005358,62.259247,24.137802,-147.03125,,,
729606633.853629,-1.166788,0.711354,57.218786,-0.001251,-0.01503,0.997452,0.034259,0.040122,-0.005358,62.259247,24.137802,-147.03125,,,
729606633.856981,-1.166788,0.711354,57.218786,-0.001251,-0.01503,0.997452,0.034259,0.040122,-0.005358,62.259247,24.137802,-147.03125,,,
729606633.860389,-1.159327,0.721771,57.214777,-0.001251,-0.01503,0.997452,0.026648,0.047913,-0.015815,62.259247,24.137802,-147.03125,,,
729606633.86362,-1.153404,0.733008,57.209781,-0.008133,-0.015869,0.991257,0.026648,0.047913,-0.015815,62.259247,24.137802,-147.03125,,,
729606633.866996,-1.153404,0.733008,57.209781,-0.008133,-0.015869,0.991257,0.026648,0.047913,-0.015815,62.259247,24.137802,-147.03125,,,
729606633.870297,-1.148927,0.736948,57.203729,-0.008133,-0.015869,0.991257,0.016818,0.035815,-0.022267,62.259247,24.137802,-147.03125,,,
729606633.873638,-1.144854,0.743419,57.196592,-0.01059,-0.016144,0.98378,0.016818,0.035815,-0.022267,62.259247,24.137802,-147.03125,,,
729606633.876974,-1.144854,0.743419,57.196592,-0.01059,-0.016144,0.98378,0.016818,0.035815,-0.022267,62.259247,24.137802,-147.03125,,,
729606633.8803,-1.140662,0.745485,57.188193,-0.01059,-0.016144,0.98378,0.015164,0.020393,-0.030202,62.186447,24.114349,-146.765732,,,
729606633.883641,-1.135383,0.750649,57.179216,-0.012131,-0.017303,0.98822,0.015164,0.020393,-0.030202,62.186447,24.114349,-146.765732,,,
729606633.887067,-1.135383,0.750649,57.179216,-0.012131,-0.017303,0.98822,0.015164,0.020393,-0.030202,62.186447,24.114349,-146.765732,,,
729606633.890336,-1.12945,0.75718,57.169683,-0.012131,-0.017303,0.98822,0.025226,0.021275,-0.033074,62.186447,24.114349,-146.765732,,,
729606633.893639,-1.121866,0.763522,57.16011,-0.010986,-0.016449,0.994385,0.025226,0.021275,-0.033074,62.186447,24.114349,-146.765732,,,
729606633.897041,-1.121866,0.763522,57.16011,-0.010986,-0.016449,0.994385,0.025226,0.021275,-0.033074,62.186447,24.114349,-146.765732,,,
729606633.900293,-1.114598,0.771926,57.15138,-0.010986,-0.016449,0.994385,0.029566,0.029886,-0.032485,62.186447,24.114349,-146.765732,,,
729606633.903638,-1.10499,0.781566,57.143459,-0.010086,-0.017441,0.993881,0.029566,0.029886,-0.032485,62.186447,24.114349,-146.765732,,,
729606633.906973,-1.10499,0.781566,57.143459,-0.010086,-0.017441,0.993881,0.029566,0.029886,-0.032485,62.186447,24.114349,-146.765732,,,
729606633.910317,-1.095266,0.789668,57.136501,-0.010086,-0.017441,0.993881,0.042139,0.037854,-0.026049,62.186447,24.114349,-146.765732,,,
729606633.913661,-1.082854,0.799565,57.131069,-0.009415,-0.017136,0.994583,0.042139,0.037854,-0.026049,62.186447,24.114349,-146.765732,,,
729606633.916978,-1.082854,0.799565,57.131069,-0.009415,-0.017136,0.994583,0.042139,0.037854,-0.026049,62.186447,24.114349,-146.765732,,,
729606633.920294,-1.069011,0.80422,57.127118,-0.009415,-0.017136,0.994583,0.05092,0.033951,-0.014159,62.455719,23.925644,-146.907806,,,
729606633.923628,-1.052862,0.816173,57.124189,-0.015594,-0.018509,0.993393,0.05092,0.033951,-0.014159,62.455719,23.925644,-146.907806,,,
729606633.927016,-1.052862,0.816173,57.124189,-0.015594,-0.018509,0.993393,0.05092,0.033951,-0.014159,62.455719,23.925644,-146.907806,,,
729606633.930293,-1.034377,0.824187,57.121386,-0.015594,-0.018509,0.993393,0.061636,0.055285,-0.010499,62.455719,23.925644,-146.907806,,,
729606633.93363,-1.015969,0.842259,57.118645,-0.017731,-0.01738,1.007462,0.061636,0.055285,-0.010499,62.455719,23.925644,-146.907806,,,
729606633.93697,-1.015969,0.842259,57.118645,-0.017731,-0.01738,1.007462,0.061636,0.055285,-0.010499,62.455719,23.925644,-146.907806,,,
729606633.940392,-0.996413,0.855805,57.116306,-0.017731,-0.01738,1.007462,0.067481,0.064397,-0.009424,62.455719,23.925644,-146.907806,,,
729606633.943633,-0.977364,0.870388,57.115264,-0.019852,-0.018723,0.998184,0.067481,0.064397,-0.009424,62.455719,23.925644,-146.907806,,,
729606633.946971,-0.977364,0.870388,57.115264,-0.019852,-0.018723,0.998184,0.067481,0.064397,-0.009424,62.455719,23.925644,-146.907806,,,
729606633.950318,-0.959823,0.879374,57.115575,-0.019852,-0.018723,0.998184,0.063072,0.042472,0.002288,62.455719,23.925644,-146.907806,,,
729606633.95364,-0.944838,0.890302,57.116529,-0.023712,-0.02269,0.986725,0.063072,0.042472,0.002288,62.455719,23.925644,-146.907806,,,
729606633.956984,-0.944838,0.890302,57.116529,-0.023712,-0.02269,0.986725,0.063072,0.042472,0.002288,62.455719,23.925644,-146.907806,,,
729606633.960312,-0.932652,0.899754,57.116458,-0.023712,-0.02269,0.986725,0.040909,0.041205,-0.001068,62.422638,23.862534,-147.14296,,,
729606633.963659,-0.923271,0.908909,57.114669,-0.014816,-0.01416,0.990356,0.040909,0.041205,-0.001068,62.422638,23.862534,-147.14296,,,
729606633.967041,-0.923271,0.908909,57.114669,-0.014816,-0.01416,0.990356,0.040909,0.041205,-0.001068,62.422638,23.862534,-147.14296,,,
729606633.9703,-0.916905,0.914482,57.110982,-0.014816,-0.01416,0.990356,0.023018,0.026999,-0.014403,62.422638,23.862534,-147.14296,,,
729606633.973634,-0.913409,0.919885,57.105903,-0.012405,-0.009888,0.983047,0.023018,0.026999,-0.014403,62.422638,23.862534,-147.14296,,,
729606633.976975,-0.913409,0.919885,57.105903,-0.012405,-0.009888,0.983047,0.023018,0.026999,-0.014403,62.422638,23.862534,-147.14296,,,
729606633.980343,-0.913323,0.92338,57.099298,-0.012405,-0.009888,0.983047,0.003029,0.023744,-0.027267,62.422638,23.862534,-147.14296,,,
729606633.983738,-0.91578,0.929685,57.090764,-0.014282,-0.011749,0.985046,0.003029,0.023744,-0.027267,62.422638,23.862534,-147.14296,,,
729606633.986977,-0.91578,0.929685,57.090764,-0.014282,-0.011749,0.985046,0.003029,0.023744,-0.027267,62.422638,23.862534,-147.14296,,,
729606633.990436,-0.920258,0.933054,57.081347,-0.014282,-0.011749,0.985046,-0.010586,0.024032,-0.034576,62.422638,23.862534,-147.14296,,,
729606633.993642,-0.924899,0.938957,57.072223,-0.010696,-0.011856,0.987503,-0.010586,0.024032,-0.034576,62.422638,23.862534,-147.14296,,,
729606633.996981,-0.924899,0.938957,57.072223,-0.010696,-0.011856,0.987503,-0.010586,0.024032,-0.034576,62.422638,23.862534,-147.14296,,,
729606634.000353,-0.929618,0.941622,57.063145,-0.010696,-0.011856,0.987503,-0.013447,0.019121,-0.031729,62.557739,23.85112,-147.196869,,,
729606634.003653,-0.933493,0.945547,57.054291,-0.012268,-0.013535,0.992569,-0.013447,0.019121,-0.031729,62.557739,23.85112,-147.196869,,,
729606634.007066,-0.933493,0.945547,57.054291,-0.012268,-0.013535,0.992569,-0.013447,0.019121,-0.031729,62.557739,23.85112,-147.196869,,,
729606634.010327,-0.937011,0.949381,57.046666,-0.012268,-0.013535,0.992569,-0.009878,0.014195,-0.02962,62.557739,23.85112,-147.196869,,,
729606634.013643,-0.939045,0.952071,57.040782,-0.017502,-0.013,0.991241,-0.009878,0.014195,-0.02962,62.557739,23.85112,-147.196869,,,
729606634.016969,-0.939045,0.952071,57.040782,-0.017502,-0.013,0.991241,-0.009878,0.014195,-0.02962,62.557739,23.85112,-147.196869,,,
729606634.02037,-0.939922,0.955382,57.036753,-0.017502,-0.013,0.991241,-0.002942,0.014261,-0.015402,62.557739,23.85112,-147.196869,,,
729606634.023733,-0.93908,0.959859,57.035097,-0.026199,-0.016388,0.995468,-0.002942,0.014261,-0.015402,62.557739,23.85112,-147.196869,,,
729606634.026939,-0.93908,0.959859,57.035097,-0.026199,-0.016388,0.995468,-0.002942,0.014261,-0.015402,62.557739,23.85112,-147.196869,,,
729606634.030322,-0.936946,0.968586,57.036133,-0.026199,-0.016388,0.995468,0.009464,0.023947,0.004061,62.557739,23.85112,-147.196869,,,
729606634.033644,-0.932695,0.976541,57.039758,-0.027069,-0.019562,1.005325,0.009464,0.023947,0.004061,62.557739,23.85112,-147.196869,,,
729606634.036984,-0.932695,0.976541,57.039758,-0.027069,-0.019562,1.005325,0.009464,0.023947,0.004061,62.557739,23.85112,-147.196869,,,
729606634.040324,-0.929706,0.987833,57.045134,-0.027069,-0.019562,1.005325,0.013175,0.037197,0.0154,62.557739,23.85112,-147.196869,,,
729606634.043647,-0.927279,0.998359,57.051632,-0.022995,-0.017426,0.996109,0.013175,0.037197,0.0154,62.486771,23.98999,-147.123947,,,
729606634.046967,-0.927279,0.998359,57.051632,-0.022995,-0.017426,0.996109,0.013175,0.037197,0.0154,62.486771,23.98999,-147.123947,,,
729606634.05031,-0.92585,1.007317,57.059721,-0.022995,-0.017426,0.996109,0.003254,0.037663,0.02707,62.486771,23.98999,-147.123947,,,
729606634.05372,-0.928139,1.01734,57.068782,-0.025116,-0.014725,0.986908,0.003254,0.037663,0.02707,62.486771,23.98999,-147.123947,,,
729606634.056974,-0.928139,1.01734,57.068782,-0.025116,-0.014725,0.986908,0.003254,0.037663,0.02707,62.486771,23.98999,-147.123947,,,
729606634.060337,-0.93241,1.02374,57.07703,-0.025116,-0.014725,0.986908,-0.020167,0.029872,0.02806,62.486771,23.98999,-147.123947,,,
729606634.063664,-0.940449,1.028873,57.083657,-0.020859,-0.006561,0.982742,-0.020167,0.029872,0.02806,62.486771,23.98999,-147.123947,,,
729606634.066972,-0.940449,1.028873,57.083657,-0.020859,-0.006561,0.982742,-0.020167,0.029872,0.02806,62.486771,23.98999,-147.123947,,,
729606634.070301,-0.948869,1.030642,57.088097,-0.020859,-0.006561,0.982742,-0.032488,0.014651,0.014583,62.486771,23.98999,-147.123947,,,
729606634.073633,-0.958564,1.032687,57.090727,-0.017151,-0.004669,0.989883,-0.032488,0.014651,0.014583,62.486771,23.98999,-147.123947,,,
729606634.07698,-0.958564,1.032687,57.090727,-0.017151,-0.004669,0.989883,-0.032488,0.014651,0.014583,62.486771,23.98999,-147.123947,,,
729606634.080302,-0.968091,1.029051,57.092521,-0.017151,-0.004669,0.989883,-0.037119,0.001668,0.003211,62.486771,23.98999,-147.123947,,,
729606634.083637,-0.97929,1.025431,57.094679,-0.018692,-0.010712,0.996323,-0.037119,0.001668,0.003211,62.429535,24.061539,-147.27179,,,
729606634.086986,-0.97929,1.025431,57.094679,-0.018692,-0.010712,0.996323,-0.037119,0.001668,0.003211,62.429535,24.061539,-147.27179,,,
729606634.090306,-0.990084,1.018767,57.09765,-0.018692,-0.010712,0.996323,-0.038163,-0.017514,0.01004,62.429535,24.061539,-147.27179,,,
729606634.093629,-1.0012,1.014175,57.101741,-0.022263,-0.016495,0.997314,-0.038163,-0.017514,0.01004,62.429535,24.061539,-147.27179,,,
729606634.096968,-1.0012,1.014175,57.101741,-0.022263,-0.016495,0.997314,-0.038163,-0.017514,0.01004,62.429535,24.061539,-147.27179,,,
729606634.100312,-1.011034,1.011322,57.106997,-0.022263,-0.016495,0.997314,-0.037486,-0.011114,0.012959,62.429535,24.061539,-147.27179,,,
729606634.103638,-1.02102,1.007672,57.112119,-0.016724,-0.015228,1.011551,-0.037486,-0.011114,0.012959,62.429535,24.061539,-147.27179,,,
729606634.107025,-1.02102,1.007672,57.112119,-0.016724,-0.015228,1.011551,-0.037486,-0.011114,0.012959,62.429535,24.061539,-147.27179,,,
729606634.1103,-1.030426,1.008732,57.117021,-0.016724,-0.015228,1.011551,-0.031997,-0.009286,0.016549,62.429535,24.061539,-147.27179,,,
729606634.113633,-1.038903,1.006102,57.121306,-0.011383,-0.01123,1.008194,-0.031997,-0.009286,0.016549,62.429535,24.061539,-147.27179,,,
729606634.116968,-1.038903,1.006102,57.121306,-0.011383,-0.01123,1.008194,-0.031997,-0.009286,0.016549,62.429535,24.061539,-147.27179,,,
729606634.12041,-1.047162,1.007002,57.124358,-0.011383,-0.01123,1.008194,-0.025949,-0.004266,0.008135,62.429535,24.061539,-147.27179,,,
729606634.123698,-1.054339,1.007381,57.126289,-0.011597,-0.010788,1.010284,-0.025949,-0.004266,0.008135,62.749222,23.929337,-147.129684,,,
729606634.126996,-1.054339,1.007381,57.126289,-0.011597,-0.010788,1.010284,-0.025949,-0.004266,0.008135,62.749222,23.929337,-147.129684,,,
729606634.130323,-1.058967,1.012928,57.128046,-0.011597,-0.010788,1.010284,-0.017967,0.011418,0.0048,62.749222,23.929337,-147.129684,,,
729606634.133645,-1.061597,1.016586,57.13087,-0.015045,-0.015854,1.015747,-0.017967,0.011418,0.0048,62.749222,23.929337,-147.129684,,,
729606634.136971,-1.061597,1.016586,57.13087,-0.015045,-0.015854,1.015747,-0.017967,0.011418,0.0048,62.749222,23.929337,-147.129684,,,
729606634.140316,-1.060555,1.022742,57.135532,-0.015045,-0.015854,1.015747,-0.002523,0.016385,0.013503,62.749222,23.929337,-147.129684,,,
729606634.143655,-1.058289,1.024859,57.141837,-0.019547,-0.02478,1.016357,-0.002523,0.016385,0.013503,62.749222,23.929337,-147.129684,,,
729606634.146974,-1.058289,1.024859,57.141837,-0.019547,-0.02478,1.016357,-0.002523,0.016385,0.013503,62.749222,23.929337,-147.129684,,,
729606634.150361,-1.051749,1.026091,57.149293,-0.019547,-0.02478,1.016357,0.012997,0.003853,0.026354,62.749222,23.929337,-147.129684,,,
729606634.153639,-1.046802,1.026069,57.157401,-0.019791,-0.024399,1.012741,0.012997,0.003853,0.026354,62.749222,23.929337,-147.129684,,,
729606634.156972,-1.046802,1.026069,57.157401,-0.019791,-0.024399,1.012741,0.012997,0.003853,0.026354,62.749222,23.929337,-147.129684,,,
729606634.160316,-1.040104,1.025057,57.165224,-0.019791,-0.024399,1.012741,0.017067,-0.001094,0.024376,62.749222,23.929337,-147.129684,,,
729606634.163698,-1.036891,1.02396,57.171973,-0.020554,-0.01828,1.012146,0.017067,-0.001094,0.024376,62.749222,23.929337,-147.129684,,,
729606634.166963,-1.036891,1.02396,57.171973,-0.020554,-0.01828,1.012146,0.017067,-0.001094,0.024376,62.701141,23.945129,-147.4776,,,
729606634.170375,-1.03352,1.02424,57.176935,-0.020554,-0.01828,1.012146,0.010072,0.000246,0.015823,62.701141,23.945129,-147.4776,,,
729606634.173628,-1.032314,1.02307,57.180067,-0.019043,-0.016098,1.007477,0.010072,0.000246,0.015823,62.701141,23.945129,-147.4776,,,
729606634.176964,-1.032314,1.02307,57.180067,-0.019043,-0.016098,1.007477,0.010072,0.000246,0.015823,62.701141,23.945129,-147.4776,,,
729606634.180319,-1.031875,1.022396,57.181954,-0.019043,-0.016098,1.007477,0.002256,-0.002489,0.004146,62.701141,23.945129,-147.4776,,,
729606634.183628,-1.032251,1.019288,57.18293,-0.016663,-0.017227,1.003357,0.002256,-0.002489,0.004146,62.701141,23.945129,-147.4776,,,
729606634.186975,-1.032251,1.019288,57.18293,-0.016663,-0.017227,1.003357,0.002256,-0.002489,0.004146,62.701141,23.945129,-147.4776,,,
729606634.190303,-1.031638,1.013775,57.183513,-0.016663,-0.017227,1.003357,-0.003353,-0.011351,-0.000145,62.701141,23.945129,-147.4776,,,
729606634.193632,-1.032163,1.008694,57.183907,-0.018219,-0.020279,1.003708,-0.003353,-0.011351,-0.000145,62.701141,23.945129,-147.4776,,,
729606634.196971,-1.032163,1.008694,57.183907,-0.018219,-0.020279,1.003708,-0.003353,-0.011351,-0.000145,62.701141,23.945129,-147.4776,,,
729606634.20036,-1.030247,0.999941,57.18468,-0.018219,-0.020279,1.003708,0.002041,-0.01695,0.002288,62.701141,23.945129,-147.4776,,,
729606634.20364,-1.02835,0.995123,57.186145,-0.01886,-0.021744,1.006973,0.002041,-0.01695,0.002288,62.701141,23.945129,-147.4776,,,
729606634.206977,-1.02835,0.995123,57.186145,-0.01886,-0.021744,1.006973,0.002041,-0.01695,0.002288,62.592606,24.138382,-147.106354,,,
729606634.210395,-1.023889,0.989745,57.188201,-0.01886,-0.021744,1.006973,0.010655,-0.011978,0.008434,62.592606,24.138382,-147.106354,,,
729606634.213645,-1.018326,0.986714,57.191383,-0.021805,-0.018738,1.01059,0.010655,-0.011978,0.008434,62.592606,24.138382,-147.106354,,,
729606634.216976,-1.018326,0.986714,57.191383,-0.021805,-0.018738,1.01059,0.010655,-0.011978,0.008434,62.592606,24.138382,-147.106354,,,
729606634.220391,-1.0108,0.983081,57.195436,-0.021805,-0.018738,1.01059,0.027213,-0.009276,0.011688,62.592606,24.138382,-147.106354,,,
729606634.223708,-1.001428,0.977179,57.200038,-0.021439,-0.021576,1.008438,0.027213,-0.009276,0.011688,62.592606,24.138382,-147.106354,,,
729606634.226969,-1.001428,0.977179,57.200038,-0.021439,-0.021576,1.008438,0.027213,-0.009276,0.011688,62.592606,24.138382,-147.106354,,,
729606634.230324,-0.992255,0.96903,57.204731,-0.021439,-0.021576,1.008438,0.03794,-0.02804,0.016659,62.592606,24.138382,-147.106354,,,
729606634.23364,-0.980603,0.957713,57.209228,-0.018051,-0.023666,0.99939,0.03794,-0.02804,0.016659,62.592606,24.138382,-147.106354,,,
729606634.23708,-0.980603,0.957713,57.209228,-0.018051,-0.023666,0.99939,0.03794,-0.02804,0.016659,62.592606,24.138382,-147.106354,,,
729606634.240313,-0.970153,0.947454,57.213219,-0.018051,-0.023666,0.99939,0.041573,-0.040287,0.01376,62.592606,24.138382,-147.106354,,,
729606634.243645,-0.959091,0.938092,57.215954,-0.012741,-0.017456,1.001785,0.041573,-0.040287,0.01376,62.592606,24.138382,-147.106354,,,
729606634.246971,-0.959091,0.938092,57.215954,-0.012741,-0.017456,1.001785,0.041573,-0.040287,0.01376,62.455002,24.139374,-147.303223,,,
729606634.250321,-0.948736,0.933143,57.218082,-0.012741,-0.017456,1.001785,0.037937,-0.018427,0.005697,62.455002,24.139374,-147.303223,,,
729606634.253631,-0.939457,0.928914,57.220157,-0.009521,-0.011642,1.006012,0.037937,-0.018427,0.005697,62.455002,24.139374,-147.303223,,,
729606634.25703,-0.939457,0.928914,57.220157,-0.009521,-0.011642,1.006012,0.037937,-0.018427,0.005697,62.455002,24.139374,-147.303223,,,
729606634.260321,-0.931547,0.927126,57.222225,-0.009521,-0.011642,1.006012,0.028146,-0.005571,0.005577,62.455002,24.139374,-147.303223,,,
729606634.263637,-0.925843,0.925977,57.224138,-0.010513,-0.012436,0.998459,0.028146,-0.005571,0.005577,62.455002,24.139374,-147.303223,,,
729606634.266973,-0.925843,0.925977,57.224138,-0.010513,-0.012436,0.998459,0.028146,-0.005571,0.005577,62.455002,24.139374,-147.303223,,,
729606634.270382,-0.922819,0.926717,57.22659,-0.010513,-0.012436,0.998459,0.011949,0.003648,0.009652,62.455002,24.139374,-147.303223,,,
729606634.273626,-0.922115,0.928196,57.23023,-0.017349,-0.015625,0.992432,0.011949,0.003648,0.009652,62.455002,24.139374,-147.303223,,,
729606634.27699,-0.922115,0.928196,57.23023,-0.017349,-0.015625,0.992432,0.011949,0.003648,0.009652,62.455002,24.139374,-147.303223,,,
729606634.280301,-0.925268,0.930791,57.234347,-0.017349,-0.015625,0.992432,-0.006444,0.009586,0.011467,62.455002,24.139374,-147.303223,,,
729606634.283633,-0.929196,0.931219,57.238415,-0.019516,-0.016678,0.989426,-0.006444,0.009586,0.011467,62.455002,24.139374,-147.303223,,,
729606634.286979,-0.929196,0.931219,57.238415,-0.019516,-0.016678,0.989426,-0.006444,0.009586,0.011467,62.335754,24.008087,-147.059708,,,
729606634.290314,-0.935263,0.93037,57.242424,-0.019516,-0.016678,0.989426,-0.016189,-0.004156,0.011025,62.335754,24.008087,-147.059708,,,
729606634.293632,-0.940629,0.924732,57.245788,-0.017502,-0.014511,0.986023,-0.016189,-0.004156,0.011025,62.335754,24.008087,-147.059708,,,
729606634.296974,-0.940629,0.924732,57.245788,-0.017502,-0.014511,0.986023,-0.016189,-0.004156,0.011025,62.335754,24.008087,-147.059708,,,
729606634.300331,-0.944393,0.918376,57.24819,-0.017502,-0.014511,0.986023,-0.009942,-0.027858,0.004652,62.335754,24.008087,-147.059708,,,
729606634.303638,-0.944392,0.90793,57.250275,-0.021698,-0.018845,0.999435,-0.009942,-0.027858,0.004652,62.335754,24.008087,-147.059708,,,
729606634.306993,-0.944392,0.90793,57.250275,-0.021698,-0.018845,0.999435,-0.009942,-0.027858,0.004652,62.335754,24.008087,-147.059708,,,
729606634.310373,-0.942613,0.898094,57.252773,-0.021698,-0.018845,0.999435,0.008746,-0.036853,0.007234,62.335754,24.008087,-147.059708,,,
729606634.313655,-0.936726,0.884888,57.256433,-0.023773,-0.026352,1.01326,0.008746,-0.036853,0.007234,62.335754,24.008087,-147.059708,,,
729606634.31698,-0.936726,0.884888,57.256433,-0.023773,-0.026352,1.01326,0.008746,-0.036853,0.007234,62.335754,24.008087,-147.059708,,,
729606634.320309,-0.928733,0.870064,57.261051,-0.023773,-0.026352,1.01326,0.033821,-0.051534,0.014697,62.335754,24.008087,-147.059708,,,
729606634.323681,-0.917631,0.853566,57.265702,-0.018906,-0.031204,1.011063,0.033821,-0.051534,0.014697,62.335754,24.008087,-147.059708,,,
729606634.326984,-0.917631,0.853566,57.265702,-0.018906,-0.031204,1.011063,0.033821,-0.051534,0.014697,62.335754,24.008087,-147.059708,,,
729606634.330301,-0.905468,0.835938,57.269964,-0.018906,-0.031204,1.011063,0.041641,-0.056858,0.015287,62.356918,24.12291,-147.331573,,,
729606634.333671,-0.893992,0.822598,57.272888,-0.007339,-0.02858,1.009796,0.041641,-0.056858,0.015287,62.356918,24.12291,-147.331573,,,
729606634.337054,-0.893992,0.822598,57.272888,-0.007339,-0.02858,1.009796,0.041641,-0.056858,0.015287,62.356918,24.12291,-147.331573,,,
729606634.340305,-0.882536,0.812,57.2741,-0.007339,-0.02858,1.009796,0.038005,-0.02866,0.003178,62.356918,24.12291,-147.331573,,,
729606634.343628,-0.873198,0.807304,57.273996,-0.005112,-0.020569,1.011688,0.038005,-0.02866,0.003178,62.356918,24.12291,-147.331573,,,
729606634.346971,-0.873198,0.807304,57.273996,-0.005112,-0.020569,1.011688,0.038005,-0.02866,0.003178,62.356918,24.12291,-147.331573,,,
729606634.350345,-0.865559,0.80532,57.273917,-0.005112,-0.020569,1.011688,0.027703,-0.004805,-0.000642,62.356918,24.12291,-147.331573,,,
729606634.353684,-0.859743,0.806211,57.275208,-0.011169,-0.020584,1.002457,0.027703,-0.004805,-0.000642,62.356918,24.12291,-147.331573,,,
729606634.357022,-0.859743,0.806211,57.275208,-0.011169,-0.020584,1.002457,0.027703,-0.004805,-0.000642,62.356918,24.12291,-147.331573,,,
729606634.360311,-0.855076,0.809739,57.278004,-0.011169,-0.020584,1.002457,0.01717,0.009506,0.009148,62.356918,24.12291,-147.331573,,,
729606634.363712,-0.850554,0.809387,57.281764,-0.013336,-0.023834,0.995773,0.01717,0.009506,0.009148,62.356918,24.12291,-147.331573,,,
729606634.366999,-0.850554,0.809387,57.281764,-0.013336,-0.023834,0.995773,0.01717,0.009506,0.009148,62.356918,24.12291,-147.331573,,,
729606634.370322,-0.845372,0.808243,57.285707,-0.013336,-0.023834,0.995773,0.019092,-0.006878,0.012713,62.332932,23.965988,-147.236649,,,
729606634.373753,-0.838408,0.804043,57.289024,-0.01062,-0.024307,0.997589,0.019092,-0.006878,0.012713,62.332932,23.965988,-147.236649,,,
729606634.376967,-0.838408,0.804043,57.289024,-0.01062,-0.024307,0.997589,0.019092,-0.006878,0.012713,62.332932,23.965988,-147.236649,,,
729606634.380306,-0.829681,0.800464,57.290915,-0.01062,-0.024307,0.997589,0.031811,-0.012902,0.005161,62.332932,23.965988,-147.236649,,,
729606634.383634,-0.829681,0.800464,57.290915,-0.01059,-0.022079,1.000351,0.031811,-0.012902,0.005161,62.332932,23.965988,-147.236649,,,
729606634.387065,-0.819552,0.79348,57.291232,-0.01059,-0.022079,1.000351,0.031811,-0.012902,0.005161,62.332932,23.965988,-147.236649,,,
729606634.390318,-0.811012,0.787848,57.290641,-0.01059,-0.022079,1.000351,0.035422,-0.027044,-0.003336,62.332932,23.965988,-147.236649,,,
729606634.393735,-0.801697,0.777714,57.289898,-0.0168,-0.019424,0.987564,0.035422,-0.027044,-0.003336,62.332932,23.965988,-147.236649,,,
729606634.396961,-0.801697,0.777714,57.289898,-0.0168,-0.019424,0.987564,0.035422,-0.027044,-0.003336,62.332932,23.965988,-147.236649,,,
729606634.40031,-0.796914,0.771409,57.289328,-0.0168,-0.019424,0.987564,0.027578,-0.032364,-0.002062,62.332932,23.965988,-147.236649,,,
729606634.4037,-0.791109,0.761521,57.288707,-0.013458,-0.01947,0.984268,0.027578,-0.032364,-0.002062,62.332932,23.965988,-147.236649,,,
729606634.406984,-0.791109,0.761521,57.288707,-0.013458,-0.01947,0.984268,0.027578,-0.032364,-0.002062,62.332932,23.965988,-147.236649,,,
729606634.410304,-0.79014,0.751169,57.288896,-0.013458,-0.01947,0.984268,0.015093,-0.03559,0.001055,62.227112,23.938049,-147.276749,,,
729606634.413675,-0.79014,0.738994,57.289821,-0.013458,-0.01947,0.984268,0.015093,-0.03559,0.001055,62.227112,23.938049,-147.276749,,,
729606634.417046,-0.788115,0.738994,57.289821,-0.009995,-0.019455,0.976196,0.015093,-0.03559,0.001055,62.227112,23.938049,-147.276749,,,
729606634.420315,-0.790131,0.724425,57.290916,-0.009995,-0.019455,0.976196,-0.002638,-0.038516,0.003667,62.227112,23.938049,-147.276749,,,
729606634.423648,-0.790131,0.714812,57.292079,-0.006607,-0.018539,0.979065,-0.002638,-0.038516,0.003667,62.227112,23.938049,-147.276749,,,
729606634.426979,-0.791051,0.714812,57.292079,-0.006607,-0.018539,0.979065,-0.002638,-0.038516,0.003667,62.227112,23.938049,-147.276749,,,
729606634.430298,-0.79402,0.705327,57.293324,-0.006607,-0.018539,0.979065,-0.007926,-0.021557,0.003267,62.227112,23.938049,-147.276749,,,
729606634.433637,-0.79402,0.705327,57.293324,-0.006607,-0.018539,0.979065,-0.007926,-0.021557,0.003267,62.227112,23.938049,-147.276749,,,
729606634.43697,-0.79633,0.700912,57.294967,-0.004791,-0.015793,0.988632,-0.007926,-0.021557,0.003267,62.227112,23.938049,-147.276749,,,
729606634.440306,-0.799825,0.699378,57.296982,-0.004791,-0.015793,0.988632,-0.006942,-6.7e-05,0.00316,62.227112,23.938049,-147.276749,,,
729606634.443547,-0.799825,0.699378,57.296982,-0.004791,-0.015793,0.988632,-0.006942,-6.7e-05,0.00316,62.227112,23.938049,-147.276749,,,
729606634.446975,-0.800672,0.700162,57.299665,-0.007095,-0.016525,0.988861,-0.006942,-6.7e-05,0.00316,62.227112,23.938049,-147.276749,,,
729606634.450301,-0.802852,0.703591,57.303091,-0.007095,-0.016525,0.988861,0.001125,0.012667,0.009082,62.210526,24.219131,-147.273071,,,
729606634.453702,-0.802852,0.703591,57.303091,-0.007095,-0.016525,0.988861,0.001125,0.012667,0.009082,62.210526,24.219131,-147.273071,,,
729606634.45696,-0.802458,0.708577,57.306731,-0.009964,-0.016312,0.992584,0.001125,0.012667,0.009082,62.210526,24.219131,-147.273071,,,
729606634.460309,-0.803936,0.712978,57.310212,-0.009964,-0.016312,0.992584,0.001564,0.022281,0.011859,62.210526,24.219131,-147.273071,,,
729606634.463656,-0.803936,0.712978,57.310212,-0.009964,-0.016312,0.992584,0.001564,0.022281,0.011859,62.210526,24.219131,-147.273071,,,
729606634.46703,-0.804487,0.71686,57.313435,-0.009811,-0.013718,0.986801,0.001564,0.022281,0.011859,62.210526,24.219131,-147.273071,,,
729606634.470294,-0.807807,0.718111,57.316622,-0.009811,-0.013718,0.986801,-0.004302,0.006194,0.010002,62.210526,24.219131,-147.273071,,,
729606634.473658,-0.807807,0.718111,57.316622,-0.009811,-0.013718,0.986801,-0.004302,0.006194,0.010002,62.210526,24.219131,-147.273071,,,
729606634.476973,-0.812379,0.716998,57.319033,-0.012573,-0.013031,0.972916,-0.004302,0.006194,0.010002,62.210526,24.219131,-147.273071,,,
729606634.480312,-0.82085,0.716027,57.320294,-0.012573,-0.013031,0.972916,-0.026331,-0.007414,0.002341,62.210526,24.219131,-147.273071,,,
729606634.483645,-0.82085,0.716027,57.320294,-0.012573,-0.013031,0.972916,-0.026331,-0.007414,0.002341,62.210526,24.219131,-147.273071,,,
729606634.486986,-0.83099,0.710737,57.32116,-0.017487,-0.012665,0.972488,-0.026331,-0.007414,0.002341,62.210526,24.219131,-147.273071,,,
729606634.490377,-0.84463,0.70271,57.322033,-0.017487,-0.012665,0.972488,-0.043064,-0.025907,0.001419,62.210526,24.219131,-147.273071,,,
729606634.493665,-0.84463,0.70271,57.322033,-0.017487,-0.012665,0.972488,-0.043064,-0.025907,0.001419,62.326172,23.777939,-147.423538,,,
729606634.496964,-0.859357,0.693308,57.32267,-0.014572,-0.011566,0.972382,-0.043064,-0.025907,0.001419,62.326172,23.777939,-147.423538,,,
729606634.500299,-0.876982,0.683878,57.323351,-0.014572,-0.011566,0.972382,-0.059906,-0.029481,0.00199,62.326172,23.777939,-147.423538,,,
729606634.503694,-0.876982,0.683878,57.323351,-0.014572,-0.011566,0.972382,-0.059906,-0.029481,0.00199,62.326172,23.777939,-147.423538,,,
729606634.506959,-0.895218,0.677623,57.324963,-0.008179,-0.014313,0.980545,-0.059906,-0.029481,0.00199,62.326172,23.777939,-147.423538,,,
729606634.510299,-0.913459,0.672605,57.327725,-0.008179,-0.014313,0.980545,-0.063663,-0.006381,0.005317,62.326172,23.777939,-147.423538,,,
729606634.513665,-0.913459,0.672605,57.327725,-0.008179,-0.014313,0.980545,-0.063663,-0.006381,0.005317,62.326172,23.777939,-147.423538,,,
729606634.517028,-0.930535,0.671545,57.331894,-0.01004,-0.020782,0.995041,-0.063663,-0.006381,0.005317,62.326172,23.777939,-147.423538,,,
729606634.520294,-0.946774,0.67018,57.337745,-0.01004,-0.020782,0.995041,-0.05473,0.002262,0.017092,62.326172,23.777939,-147.423538,,,
729606634.523677,-0.946774,0.67018,57.337745,-0.01004,-0.020782,0.995041,-0.05473,0.002262,0.017092,62.326172,23.777939,-147.423538,,,
729606634.52697,-0.962086,0.671748,57.345277,-0.01535,-0.026413,0.999695,-0.05473,0.002262,0.017092,62.326172,23.777939,-147.423538,,,
729606634.530298,-0.976235,0.674089,57.353076,-0.01535,-0.026413,0.999695,-0.047142,0.014934,0.026616,62.326172,23.777939,-147.423538,,,
729606634.533655,-0.976235,0.674089,57.353076,-0.01535,-0.026413,0.999695,-0.047142,0.014934,0.026616,62.378174,24.144852,-147.401642,,,
