Time (sec),Pitch (deg),Roll (deg),Yaw(deg),X-Acceleration (g),Y-Acceleration (g),Z-Acceleration (g),Pitch Rate (deg/sec),Roll Rate (deg/sec),Yaw Rate (deg/sec),Magnetic Field in X direction (uT),Magnetic Field in Y direction (uT),Magnetic Field in Z Direction (uT),Latitude (deg),Longitude (deg),Altitude (m)
729608629.843041,0.726772,0.212149,55.125685,0.008163,0.02211,0.996964,0.006276,0.023432,-0.013975,63.669357,22.530441,-147.205505,,,
729608629.846739,0.728549,0.218748,55.121778,0.008163,0.02211,0.996964,0.006276,0.023432,-0.013975,63.669357,22.530441,-147.205505,,,
729608629.84995,0.730377,0.226395,55.117822,0.001465,0.01738,0.995941,0.009097,0.030205,-0.016052,63.669357,22.530441,-147.205505,,,
729608629.853354,0.730377,0.226395,55.117822,0.001465,0.01738,0.995941,0.009097,0.030205,-0.016052,63.669357,22.530441,-147.205505,,,
729608629.856613,0.733101,0.234878,55.113883,0.001465,0.01738,0.995941,0.009097,0.030205,-0.016052,63.669357,22.530441,-147.205505,,,
729608629.859936,0.736395,0.240644,55.109246,-0.004333,0.016327,0.994583,0.010084,0.032329,-0.018401,63.669357,22.530441,-147.205505,,,
729608629.863351,0.736395,0.240644,55.109246,-0.004333,0.016327,0.994583,0.010084,0.032329,-0.018401,63.669357,22.530441,-147.205505,,,
729608629.866674,0.74063,0.249058,55.102699,-0.004333,0.016327,0.994583,0.010084,0.032329,-0.018401,63.669357,22.530441,-147.205505,,,
729608629.869929,0.746998,0.250841,55.094105,-0.006775,0.020035,0.99202,0.019719,0.025608,-0.032082,63.669357,22.530441,-147.205505,,,
729608629.873266,0.746998,0.250841,55.094105,-0.006775,0.020035,0.99202,0.019719,0.025608,-0.032082,63.669357,22.530441,-147.205505,,,
729608629.876621,0.753106,0.255447,55.084189,-0.006775,0.020035,0.99202,0.019719,0.025608,-0.032082,63.669357,22.530441,-147.205505,,,
729608629.880038,0.760414,0.254033,55.073861,-0.009384,0.019974,0.987045,0.023535,0.014082,-0.038493,63.669357,22.530441,-147.205505,,,
729608629.883261,0.760414,0.254033,55.073861,-0.009384,0.019974,0.987045,0.023535,0.014082,-0.038493,63.475876,22.336502,-147.218613,,,
729608629.886615,0.767033,0.256045,55.063973,-0.009384,0.019974,0.987045,0.023535,0.014082,-0.038493,63.475876,22.336502,-147.218613,,,
729608629.889932,0.773943,0.2518,55.05603,-0.018784,0.013168,0.986282,0.02283,0.004709,-0.030448,63.475876,22.336502,-147.218613,,,
729608629.893334,0.773943,0.2518,55.05603,-0.018784,0.013168,0.986282,0.02283,0.004709,-0.030448,63.475876,22.336502,-147.218613,,,
729608629.896687,0.780073,0.251599,55.050561,-0.018784,0.013168,0.986282,0.02283,0.004709,-0.030448,63.475876,22.336502,-147.218613,,,
729608629.899943,0.786567,0.246004,55.047401,-0.026138,0.006607,0.987732,0.02414,0.001979,-0.015236,63.475876,22.336502,-147.218613,,,
729608629.903304,0.786567,0.246004,55.047401,-0.026138,0.006607,0.987732,0.02414,0.001979,-0.015236,63.475876,22.336502,-147.218613,,,
729608629.90668,0.793035,0.24642,55.046203,-0.026138,0.006607,0.987732,0.02414,0.001979,-0.015236,63.475876,22.336502,-147.218613,,,
729608629.909932,0.799941,0.243692,55.046723,-0.027451,0.006409,0.995255,0.023188,0.011595,0.000657,63.475876,22.336502,-147.218613,,,
729608629.913387,0.799941,0.243692,55.046723,-0.027451,0.006409,0.995255,0.023188,0.011595,0.000657,63.475876,22.336502,-147.218613,,,
729608629.916722,0.806181,0.24682,55.048593,-0.027451,0.006409,0.995255,0.023188,0.011595,0.000657,63.475876,22.336502,-147.218613,,,
729608629.920028,0.813707,0.246136,55.051494,-0.019913,0.010559,0.996399,0.018493,0.015001,0.008439,63.475876,22.336502,-147.218613,,,
729608629.923295,0.813707,0.246136,55.051494,-0.019913,0.010559,0.996399,0.018493,0.015001,0.008439,63.475876,22.336502,-147.218613,,,
729608629.926633,0.817923,0.250254,55.05515,-0.019913,0.010559,0.996399,0.018493,0.015001,0.008439,63.38913,22.513931,-147.479279,,,
729608629.930004,0.821609,0.251851,55.059832,-0.022263,0.013412,0.989731,0.005485,0.016137,0.014947,63.38913,22.513931,-147.479279,,,
729608629.933318,0.821609,0.251851,55.059832,-0.022263,0.013412,0.989731,0.005485,0.016137,0.014947,63.38913,22.513931,-147.479279,,,
729608629.936607,0.820293,0.254737,55.065493,-0.022263,0.013412,0.989731,0.005485,0.016137,0.014947,63.38913,22.513931,-147.479279,,,
729608629.939944,0.815999,0.255402,55.072505,-0.022217,0.013123,0.987747,-0.014018,0.009764,0.025459,63.38913,22.513931,-147.479279,,,
729608629.943293,0.815999,0.255402,55.072505,-0.022217,0.013123,0.987747,-0.014018,0.009764,0.025459,63.38913,22.513931,-147.479279,,,
729608629.946679,0.808316,0.255144,55.080735,-0.022217,0.013123,0.987747,-0.014018,0.009764,0.025459,63.38913,22.513931,-147.479279,,,
729608629.949948,0.798734,0.252917,55.089423,-0.01683,0.00975,0.987671,-0.037508,-0.005444,0.030673,63.38913,22.513931,-147.479279,,,
729608629.953303,0.798734,0.252917,55.089423,-0.01683,0.00975,0.987671,-0.037508,-0.005444,0.030673,63.38913,22.513931,-147.479279,,,
729608629.956683,0.784377,0.246799,55.097627,-0.01683,0.00975,0.987671,-0.037508,-0.005444,0.030673,63.38913,22.513931,-147.479279,,,
729608629.959941,0.76964,0.238914,55.104875,-0.01033,0.013474,0.985153,-0.056019,-0.029391,0.025498,63.38913,22.513931,-147.479279,,,
729608629.963366,0.76964,0.238914,55.104875,-0.01033,0.013474,0.985153,-0.056019,-0.029391,0.025498,63.38913,22.513931,-147.479279,,,
729608629.966676,0.751995,0.226498,55.111293,-0.01033,0.013474,0.985153,-0.056019,-0.029391,0.025498,63.461426,22.581421,-147.615265,,,
729608629.96994,0.735474,0.21531,55.116675,-0.006317,0.011841,0.994843,-0.064106,-0.048298,0.018266,63.461426,22.581421,-147.615265,,,
729608629.973285,0.735474,0.21531,55.116675,-0.006317,0.011841,0.994843,-0.064106,-0.048298,0.018266,63.461426,22.581421,-147.615265,,,
729608629.976622,0.718725,0.199696,55.121496,-0.006317,0.011841,0.994843,-0.064106,-0.048298,0.018266,63.461426,22.581421,-147.615265,,,
729608629.980012,0.701295,0.190533,55.12646,-0.003326,0.005112,1.00737,-0.057006,-0.053926,0.017331,63.461426,22.581421,-147.615265,,,
729608629.983265,0.701295,0.190533,55.12646,-0.003326,0.005112,1.00737,-0.057006,-0.053926,0.017331,63.461426,22.581421,-147.615265,,,
729608629.986627,0.685783,0.175975,55.132065,-0.003326,0.005112,1.00737,-0.057006,-0.053926,0.017331,63.461426,22.581421,-147.615265,,,
729608629.989937,0.669108,0.172517,55.137609,-0.001343,-0.003647,1.01297,-0.050969,-0.036794,0.018828,63.461426,22.581421,-147.615265,,,
729608629.993331,0.669108,0.172517,55.137609,-0.001343,-0.003647,1.01297,-0.050969,-0.036794,0.018828,63.461426,22.581421,-147.615265,,,
729608629.996703,0.654551,0.164872,55.142057,-0.001343,-0.003647,1.01297,-0.050969,-0.036794,0.018828,63.461426,22.581421,-147.615265,,,
729608629.999944,0.639619,0.167054,55.144933,0.003952,0.001038,1.019424,-0.04812,-0.010893,0.010028,63.461426,22.581421,-147.615265,,,
729608630.003341,0.639619,0.167054,55.144933,0.003952,0.001038,1.019424,-0.04812,-0.010893,0.010028,63.461426,22.581421,-147.615265,,,
729608630.006616,0.625964,0.166584,55.146456,0.003952,0.001038,1.019424,-0.04812,-0.010893,0.010028,63.257385,22.611298,-147.479736,,,
729608630.009904,0.612989,0.175644,55.14611,0.008453,0.007187,1.019791,-0.04641,0.015615,-0.002541,63.257385,22.611298,-147.479736,,,
729608630.013381,0.612989,0.175644,55.14611,0.008453,0.007187,1.019791,-0.04641,0.015615,-0.002541,63.257385,22.611298,-147.479736,,,
729608630.016626,0.599984,0.181819,55.144276,0.008453,0.007187,1.019791,-0.04641,0.015615,-0.002541,63.257385,22.611298,-147.479736,,,
729608630.019945,0.58849,0.195058,55.141756,0.001785,0.001068,1.0168,-0.042114,0.027158,-0.009771,63.257385,22.611298,-147.479736,,,
729608630.023299,0.58849,0.195058,55.141756,0.001785,0.001068,1.0168,-0.042114,0.027158,-0.009771,63.257385,22.611298,-147.479736,,,
729608630.026613,0.576742,0.202063,55.139366,0.001785,0.001068,1.0168,-0.042114,0.027158,-0.009771,63.257385,22.611298,-147.479736,,,
729608630.030062,0.565862,0.213805,55.136697,-0.004013,-0.00322,1.010239,-0.037469,0.02765,-0.012815,63.257385,22.611298,-147.479736,,,
729608630.033272,0.565862,0.213805,55.136697,-0.004013,-0.00322,1.010239,-0.037469,0.02765,-0.012815,63.257385,22.611298,-147.479736,,,
729608630.036621,0.555326,0.219844,55.133525,-0.004013,-0.00322,1.010239,-0.037469,0.02765,-0.012815,63.257385,22.611298,-147.479736,,,
729608630.039959,0.545534,0.22768,55.129672,-0.008759,-0.005569,1.012573,-0.032582,0.021074,-0.015564,63.257385,22.611298,-147.479736,,,
729608630.043358,0.545534,0.22768,55.129672,-0.008759,-0.005569,1.012573,-0.032582,0.021074,-0.015564,63.257385,22.611298,-147.479736,,,
729608630.046729,0.536799,0.230338,55.125241,-0.008759,-0.005569,1.012573,-0.032582,0.021074,-0.015564,63.296783,22.64151,-147.779816,,,
729608630.049937,0.53189,0.231946,55.119981,-0.009964,-0.003555,1.011124,-0.021212,0.002671,-0.020347,63.296783,22.64151,-147.779816,,,
729608630.053297,0.53189,0.231946,55.119981,-0.009964,-0.003555,1.011124,-0.021212,0.002671,-0.020347,63.296783,22.64151,-147.779816,,,
729608630.056699,0.52745,0.230923,55.113421,-0.009964,-0.003555,1.011124,-0.021212,0.002671,-0.020347,63.296783,22.64151,-147.779816,,,
729608630.059932,0.524084,0.22891,55.106083,-0.009354,-0.003693,1.010941,-0.007658,-0.005434,-0.026053,63.296783,22.64151,-147.779816,,,
729608630.063331,0.524084,0.22891,55.106083,-0.009354,-0.003693,1.010941,-0.007658,-0.005434,-0.026053,63.296783,22.64151,-147.779816,,,
729608630.066597,0.522622,0.2254,55.098622,-0.009354,-0.003693,1.010941,-0.007658,-0.005434,-0.026053,63.296783,22.64151,-147.779816,,,
729608630.069803,0.519201,0.219729,55.090709,-0.005188,-0.006439,1.009567,-0.000957,-0.015799,-0.029612,63.296783,22.64151,-147.779816,,,
729608630.073308,0.519201,0.219729,55.090709,-0.005188,-0.006439,1.009567,-0.000957,-0.015799,-0.029612,63.296783,22.64151,-147.779816,,,
729608630.076605,0.518344,0.214616,55.082484,-0.005188,-0.006439,1.009567,-0.000957,-0.015799,-0.029612,63.296783,22.64151,-147.779816,,,
729608630.080003,0.514311,0.208685,55.07443,-0.002182,-0.004089,1.002975,-0.0009,-0.011243,-0.030016,63.296783,22.64151,-147.779816,,,
729608630.083279,0.514311,0.208685,55.07443,-0.002182,-0.004089,1.002975,-0.0009,-0.011243,-0.030016,63.296783,22.64151,-147.779816,,,
729608630.086613,0.512939,0.205156,55.067072,-0.002182,-0.004089,1.002975,-0.0009,-0.011243,-0.030016,63.296783,22.64151,-147.779816,,,
729608630.08994,0.509259,0.199914,55.061169,-0.001541,-0.002686,0.999954,-0.008701,-0.004196,-0.023461,63.168854,22.698349,-147.440491,,,
729608630.093373,0.509259,0.199914,55.061169,-0.001541,-0.002686,0.999954,-0.008701,-0.004196,-0.023461,63.168854,22.698349,-147.440491,,,
729608630.096655,0.50547,0.199937,55.055672,-0.001541,-0.002686,0.999954,-0.008701,-0.004196,-0.023461,63.168854,22.698349,-147.440491,,,
729608630.099937,0.499649,0.198956,55.050654,-0.000671,9.2e-05,0.998322,-0.017362,0.00767,-0.016571,63.168854,22.698349,-147.440491,,,
729608630.103279,0.499649,0.198956,55.050654,-0.000671,9.2e-05,0.998322,-0.017362,0.00767,-0.016571,63.168854,22.698349,-147.440491,,,
729608630.106654,0.494969,0.20167,55.045973,-0.000671,9.2e-05,0.998322,-0.017362,0.00767,-0.016571,63.168854,22.698349,-147.440491,,,
729608630.109936,0.48763,0.205736,55.04088,0.004959,0.00351,0.998917,-0.01451,0.016776,-0.015888,63.168854,22.698349,-147.440491,,,
729608630.113359,0.48763,0.205736,55.04088,0.004959,0.00351,0.998917,-0.01451,0.016776,-0.015888,63.168854,22.698349,-147.440491,,,
729608630.116641,0.483172,0.211192,55.035669,0.004959,0.00351,0.998917,-0.01451,0.016776,-0.015888,63.168854,22.698349,-147.440491,,,
729608630.119935,0.474845,0.218112,55.030162,0.007202,0.008286,0.998611,-0.015387,0.024252,-0.019719,63.168854,22.698349,-147.440491,,,
729608630.123288,0.474845,0.218112,55.030162,0.007202,0.008286,0.998611,-0.015387,0.024252,-0.019719,63.168854,22.698349,-147.440491,,,
729608630.126607,0.470602,0.225037,55.024171,0.007202,0.008286,0.998611,-0.015387,0.024252,-0.019719,63.168854,22.698349,-147.440491,,,
729608630.129984,0.462788,0.234477,55.017723,0.008682,0.011902,0.99411,-0.012949,0.030613,-0.023869,63.322571,22.760254,-147.819656,,,
729608630.133328,0.462788,0.234477,55.017723,0.008682,0.011902,0.99411,-0.012949,0.030613,-0.023869,63.322571,22.760254,-147.819656,,,
729608630.13661,0.458623,0.242072,55.011191,0.008682,0.011902,0.99411,-0.012949,0.030613,-0.023869,63.322571,22.760254,-147.819656,,,
729608630.139941,0.451865,0.250199,55.004975,0.009689,0.012497,0.992966,-0.011433,0.023426,-0.019261,63.322571,22.760254,-147.819656,,,
729608630.143309,0.451865,0.250199,55.004975,0.009689,0.012497,0.992966,-0.011433,0.023426,-0.019261,63.322571,22.760254,-147.819656,,,
729608630.146691,0.447984,0.255289,54.999213,0.009689,0.012497,0.992966,-0.011433,0.023426,-0.019261,63.322571,22.760254,-147.819656,,,
729608630.149954,0.440917,0.260853,54.993375,0.006668,0.012512,0.989532,-0.013976,0.020289,-0.025015,63.322571,22.760254,-147.819656,,,
729608630.155334,0.438628,0.266426,54.987042,0.006668,0.012512,0.989532,-0.013976,0.020289,-0.025015,63.322571,22.760254,-147.819656,,,
729608630.156352,0.438628,0.266426,54.987042,0.006668,0.012512,0.989532,-0.013976,0.020289,-0.025015,63.322571,22.760254,-147.819656,,,
729608630.159972,0.432504,0.273057,54.980573,0.00708,0.015106,0.995682,-0.008961,0.025349,-0.02278,63.322571,22.760254,-147.819656,,,
729608630.16332,0.432504,0.273057,54.980573,0.00708,0.015106,0.995682,-0.008961,0.025349,-0.02278,63.322571,22.760254,-147.819656,,,
729608630.166607,0.429055,0.283174,54.974407,0.00708,0.015106,0.995682,-0.008961,0.025349,-0.02278,63.322571,22.760254,-147.819656,,,
729608630.169935,0.420903,0.297164,54.968589,0.0121,0.017487,0.995972,-0.016617,0.057752,-0.022028,63.328079,22.799988,-147.794296,,,
729608630.173261,0.420903,0.297164,54.968589,0.0121,0.017487,0.995972,-0.016617,0.057752,-0.022028,63.328079,22.799988,-147.794296,,,
729608630.176598,0.412661,0.318694,54.963791,0.0121,0.017487,0.995972,-0.016617,0.057752,-0.022028,63.328079,22.799988,-147.794296,,,
729608630.180064,0.399405,0.345013,54.960649,0.012741,0.019928,0.995865,-0.038021,0.098539,-0.013257,63.328079,22.799988,-147.794296,,,
729608630.183284,0.399405,0.345013,54.960649,0.012741,0.019928,0.995865,-0.038021,0.098539,-0.013257,63.328079,22.799988,-147.794296,,,
729608630.1866,0.386694,0.377411,54.95918,0.012741,0.019928,0.995865,-0.038021,0.098539,-0.013257,63.328079,22.799988,-147.794296,,,
729608630.189936,0.371645,0.408889,54.960379,0.00296,0.016739,0.996078,-0.048541,0.124402,0.002985,63.328079,22.799988,-147.794296,,,
729608630.193273,0.371645,0.408889,54.960379,0.00296,0.016739,0.996078,-0.048541,0.124402,0.002985,63.328079,22.799988,-147.794296,,,
729608630.196676,0.357506,0.442392,54.965214,0.00296,0.016739,0.996078,-0.048541,0.124402,0.002985,63.328079,22.799988,-147.794296,,,
729608630.199927,0.344413,0.469583,54.972488,-0.008286,0.005692,0.995728,-0.046459,0.111245,0.022348,63.328079,22.799988,-147.794296,,,
729608630.203282,0.344413,0.469583,54.972488,-0.008286,0.005692,0.995728,-0.046459,0.111245,0.022348,63.328079,22.799988,-147.794296,,,
729608630.206609,0.33304,0.49924,54.979944,-0.008286,0.005692,0.995728,-0.046459,0.111245,0.022348,63.328079,22.799988,-147.794296,,,
729608630.209934,0.324163,0.52217,54.986407,-0.006134,0.009003,1.00238,-0.035504,0.103926,0.020931,63.76857,22.756851,-147.744736,,,
729608630.213328,0.324163,0.52217,54.986407,-0.006134,0.009003,1.00238,-0.035504,0.103926,0.020931,63.76857,22.756851,-147.744736,,,
729608630.216607,0.314699,0.549354,54.991619,-0.006134,0.009003,1.00238,-0.035504,0.103926,0.020931,63.76857,22.756851,-147.744736,,,
729608630.219942,0.308079,0.569236,54.99545,-0.001511,0.018341,1.005493,-0.028048,0.092839,0.009864,63.76857,22.756851,-147.744736,,,
729608630.223336,0.308079,0.569236,54.99545,-0.001511,0.018341,1.005493,-0.028048,0.092839,0.009864,63.76857,22.756851,-147.744736,,,
729608630.226605,0.299605,0.595415,54.99838,-0.001511,0.018341,1.005493,-0.028048,0.092839,0.009864,63.76857,22.756851,-147.744736,,,
729608630.22998,0.292962,0.617648,55.001209,-0.002197,0.020599,1.01062,-0.030634,0.100693,0.008034,63.76857,22.756851,-147.744736,,,
729608630.233261,0.292962,0.617648,55.001209,-0.002197,0.020599,1.01062,-0.030634,0.100693,0.008034,63.76857,22.756851,-147.744736,,,
729608630.236651,0.283379,0.647531,55.004195,-0.002197,0.020599,1.01062,-0.030634,0.100693,0.008034,63.76857,22.756851,-147.744736,,,
729608630.239936,0.27598,0.671985,55.007887,-0.006699,0.014343,1.011902,-0.031857,0.108316,0.0106,63.76857,22.756851,-147.744736,,,
729608630.243281,0.27598,0.671985,55.007887,-0.006699,0.014343,1.011902,-0.031857,0.108316,0.0106,63.76857,22.756851,-147.744736,,,
729608630.24668,0.267153,0.699269,55.011869,-0.006699,0.014343,1.011902,-0.031857,0.108316,0.0106,63.76857,22.756851,-147.744736,,,
729608630.250024,0.264148,0.715416,55.015996,-0.013443,0.009476,1.006943,-0.02305,0.082923,0.012695,63.76857,22.756851,-147.744736,,,
729608630.253282,0.264148,0.715416,55.015996,-0.013443,0.009476,1.006943,-0.02305,0.082923,0.012695,63.954422,22.805176,-147.657883,,,
729608630.256625,0.260835,0.733381,55.019701,-0.013443,0.009476,1.006943,-0.02305,0.082923,0.012695,63.954422,22.805176,-147.657883,,,
729608630.259942,0.264182,0.737582,55.022024,-0.021164,0.008835,1.003296,0.000307,0.046393,0.008485,63.954422,22.805176,-147.657883,,,
729608630.263389,0.264182,0.737582,55.022024,-0.021164,0.008835,1.003296,0.000307,0.046393,0.008485,63.954422,22.805176,-147.657883,,,
729608630.266604,0.265754,0.744562,55.022433,-0.021164,0.008835,1.003296,0.000307,0.046393,0.008485,63.954422,22.805176,-147.657883,,,
729608630.269939,0.273283,0.74191,55.020832,-0.018372,0.015076,0.997742,0.010011,0.012732,-0.007404,63.954422,22.805176,-147.657883,,,
729608630.273288,0.273283,0.74191,55.020832,-0.018372,0.015076,0.997742,0.010011,0.012732,-0.007404,63.954422,22.805176,-147.657883,,,
729608630.27664,0.277043,0.74498,55.017659,-0.018372,0.015076,0.997742,0.010011,0.012732,-0.007404,63.954422,22.805176,-147.657883,,,
729608630.279978,0.281434,0.743889,55.013973,-0.020126,0.017899,1.000732,0.011752,0.009604,-0.014776,63.954422,22.805176,-147.657883,,,
729608630.283325,0.281434,0.743889,55.013973,-0.020126,0.017899,1.000732,0.011752,0.009604,-0.014776,63.954422,22.805176,-147.657883,,,
729608630.286714,0.283894,0.742455,55.010753,-0.020126,0.017899,1.000732,0.011752,0.009604,-0.014776,63.954422,22.805176,-147.657883,,,
729608630.289942,0.287123,0.737633,55.008586,-0.027527,0.010666,0.992859,0.013078,-0.014292,-0.008679,63.954422,22.805176,-147.657883,,,
729608630.29334,0.287123,0.737633,55.008586,-0.027527,0.010666,0.992859,0.013078,-0.014292,-0.008679,63.926529,22.865387,-147.532806,,,
729608630.296608,0.290795,0.732636,55.006649,-0.027527,0.010666,0.992859,0.013078,-0.014292,-0.008679,63.926529,22.865387,-147.532806,,,
729608630.300043,0.298028,0.723344,55.003221,-0.029297,0.006638,0.996811,0.014163,-0.017743,-0.010884,63.926529,22.865387,-147.532806,,,
729608630.303263,0.298028,0.723344,55.003221,-0.029297,0.006638,0.996811,0.014163,-0.017743,-0.010884,63.926529,22.865387,-147.532806,,,
729608630.30664,0.304395,0.716073,54.997729,-0.029297,0.006638,0.996811,0.014163,-0.017743,-0.010884,63.926529,22.865387,-147.532806,,,
729608630.309944,0.317303,0.703398,54.989926,-0.022812,0.011765,0.999237,0.031996,-0.031519,-0.029289,63.926529,22.865387,-147.532806,,,
729608630.313347,0.317303,0.703398,54.989926,-0.022812,0.011765,0.999237,0.031996,-0.031519,-0.029289,63.926529,22.865387,-147.532806,,,
729608630.316656,0.327904,0.69322,54.979851,-0.022812,0.011765,0.999237,0.031996,-0.031519,-0.029289,63.926529,22.865387,-147.532806,,,
729608630.31994,0.342167,0.682358,54.96885,-0.025024,0.012177,0.997635,0.041364,-0.028626,-0.039156,63.926529,22.865387,-147.532806,,,
729608630.323289,0.342167,0.682358,54.96885,-0.025024,0.012177,0.997635,0.041364,-0.028626,-0.039156,63.926529,22.865387,-147.532806,,,
729608630.326668,0.353906,0.675745,54.958438,-0.025024,0.012177,0.997635,0.041364,-0.028626,-0.039156,63.926529,22.865387,-147.532806,,,
729608630.329986,0.36777,0.669811,54.949619,-0.034378,0.006058,0.99617,0.04453,-0.015255,-0.033527,63.926529,22.865387,-147.532806,,,
729608630.333269,0.36777,0.669811,54.949619,-0.034378,0.006058,0.99617,0.04453,-0.015255,-0.033527,63.883804,22.88002,-147.761292,,,
729608630.33661,0.380218,0.665288,54.943766,-0.034378,0.006058,0.99617,0.04453,-0.015255,-0.033527,63.883804,22.88002,-147.761292,,,
729608630.339942,0.39336,0.663283,54.941414,-0.037979,-0.000961,0.993195,0.046629,-0.013249,-0.00889,63.883804,22.88002,-147.761292,,,
729608630.343278,0.39336,0.663283,54.941414,-0.037979,-0.000961,0.993195,0.046629,-0.013249,-0.00889,63.883804,22.88002,-147.761292,,,
729608630.346655,0.406765,0.659187,54.941482,-0.037979,-0.000961,0.993195,0.046629,-0.013249,-0.00889,63.883804,22.88002,-147.761292,,,
729608630.349934,0.421899,0.65798,54.942633,-0.034302,-0.000534,0.990799,0.04803,-0.008531,0.001309,63.883804,22.88002,-147.761292,,,
729608630.353332,0.421899,0.65798,54.942633,-0.034302,-0.000534,0.990799,0.04803,-0.008531,0.001309,63.883804,22.88002,-147.761292,,,
729608630.356615,0.435884,0.654326,54.943293,-0.034302,-0.000534,0.990799,0.04803,-0.008531,0.001309,63.883804,22.88002,-147.761292,,,
729608630.359932,0.453417,0.653026,54.943158,-0.025238,0.011276,0.990997,0.051913,-0.005197,-0.002254,63.883804,22.88002,-147.761292,,,
729608630.363317,0.453417,0.653026,54.943158,-0.025238,0.011276,0.990997,0.051913,-0.005197,-0.002254,63.883804,22.88002,-147.761292,,,
729608630.366658,0.468647,0.650025,54.94292,-0.025238,0.011276,0.990997,0.051913,-0.005197,-0.002254,63.883804,22.88002,-147.761292,,,
729608630.369926,0.485958,0.652034,54.943008,-0.021637,0.010056,0.990448,0.058529,-0.004418,-0.001503,63.883804,22.88002,-147.761292,,,
729608630.373266,0.485958,0.652034,54.943008,-0.021637,0.010056,0.990448,0.058529,-0.004418,-0.001503,63.735062,22.740021,-147.625702,,,
729608630.3766,0.501577,0.65167,54.94368,-0.021637,0.010056,0.990448,0.058529,-0.004418,-0.001503,63.735062,22.740021,-147.625702,,,
729608630.379974,0.514953,0.659976,54.944948,-0.02037,0.006393,0.987839,0.05317,0.012593,0.003493,63.735062,22.740021,-147.625702,,,
729608630.383261,0.514953,0.659976,54.944948,-0.02037,0.006393,0.987839,0.05317,0.012593,0.003493,63.735062,22.740021,-147.625702,,,
729608630.386603,0.52756,0.665144,54.947295,-0.02037,0.006393,0.987839,0.05317,0.012593,0.003493,63.735062,22.740021,-147.625702,,,
729608630.389929,0.538077,0.675694,54.951234,-0.018341,0.007523,0.983353,0.038736,0.026259,0.009685,63.735062,22.740021,-147.625702,,,
729608630.393354,0.538077,0.675694,54.951234,-0.018341,0.007523,0.983353,0.038736,0.026259,0.009685,63.735062,22.740021,-147.625702,,,
729608630.396658,0.546531,0.68251,54.9561,-0.018341,0.007523,0.983353,0.038736,0.026259,0.009685,63.735062,22.740021,-147.625702,,,
729608630.399948,0.554183,0.692609,54.961302,-0.018448,0.011185,0.978668,0.021525,0.02856,0.01702,63.735062,22.740021,-147.625702,,,
729608630.403286,0.554183,0.692609,54.961302,-0.018448,0.011185,0.978668,0.021525,0.02856,0.01702,63.735062,22.740021,-147.625702,,,
729608630.406672,0.558965,0.698865,54.966214,-0.018448,0.011185,0.978668,0.021525,0.02856,0.01702,63.735062,22.740021,-147.625702,,,
729608630.409928,0.561063,0.709559,54.96942,-0.014481,0.017014,0.977829,0.009567,0.023597,0.009572,63.735062,22.740021,-147.625702,,,
729608630.413328,0.561063,0.709559,54.96942,-0.014481,0.017014,0.977829,0.009567,0.023597,0.009572,63.735062,22.740021,-147.625702,,,
729608630.416616,0.560793,0.712555,54.971462,-0.014481,0.017014,0.977829,0.009567,0.023597,0.009572,63.652466,22.690796,-147.575104,,,
729608630.419938,0.556774,0.72092,54.971825,-0.011917,0.018356,0.976639,-0.008999,0.006262,-0.000889,63.652466,22.690796,-147.575104,,,
729608630.423289,0.556774,0.72092,54.971825,-0.011917,0.018356,0.976639,-0.008999,0.006262,-0.000889,63.652466,22.690796,-147.575104,,,
729608630.426618,0.553576,0.719724,54.970632,-0.011917,0.018356,0.976639,-0.008999,0.006262,-0.000889,63.652466,22.690796,-147.575104,,,
729608630.429949,0.553576,0.724344,54.968759,-0.009048,0.015167,0.981842,-0.010925,-0.005459,-0.007361,63.652466,22.690796,-147.575104,,,
729608630.43327,0.546407,0.724344,54.968759,-0.009048,0.015167,0.981842,-0.010925,-0.005459,-0.007361,63.652466,22.690796,-147.575104,,,
729608630.436627,0.542816,0.720541,54.966415,-0.009048,0.015167,0.981842,-0.010925,-0.005459,-0.007361,63.652466,22.690796,-147.575104,,,
729608630.439939,0.542816,0.720923,54.9635,-0.010025,0.010498,0.989151,-0.010837,-0.00949,-0.012824,63.652466,22.690796,-147.575104,,,
729608630.443344,0.539059,0.720923,54.9635,-0.010025,0.010498,0.989151,-0.010837,-0.00949,-0.012824,63.652466,22.690796,-147.575104,,,
729608630.446659,0.537303,0.717048,54.960528,-0.010025,0.010498,0.989151,-0.010837,-0.00949,-0.012824,63.652466,22.690796,-147.575104,,,
729608630.450007,0.537303,0.717048,54.960528,-0.012131,0.007523,0.994507,0.001024,-0.009175,-0.012168,63.652466,22.690796,-147.575104,,,
729608630.453293,0.537973,0.716635,54.957753,-0.012131,0.007523,0.994507,0.001024,-0.009175,-0.012168,63.652466,22.690796,-147.575104,,,
729608630.456655,0.538391,0.713857,54.95573,-0.012131,0.007523,0.994507,0.001024,-0.009175,-0.012168,63.826355,22.77565,-147.194031,,,
729608630.459947,0.538391,0.713857,54.954451,-0.010971,0.006668,0.995361,0.00068,-0.003882,-0.007887,63.826355,22.77565,-147.194031,,,
729608630.463354,0.537693,0.71462,54.954451,-0.010971,0.006668,0.995361,0.00068,-0.003882,-0.007887,63.826355,22.77565,-147.194031,,,
729608630.466622,0.536053,0.714286,54.953497,-0.010971,0.006668,0.995361,0.00068,-0.003882,-0.007887,63.826355,22.77565,-147.194031,,,
729608630.47001,0.536053,0.714286,54.953497,-0.011978,0.006653,0.99437,-0.008564,0.007401,-0.003711,63.826355,22.77565,-147.194031,,,
729608630.47328,0.532748,0.716819,54.953164,-0.011978,0.006653,0.99437,-0.008564,0.007401,-0.003711,63.826355,22.77565,-147.194031,,,
729608630.476606,0.528492,0.719299,54.952825,-0.011978,0.006653,0.99437,-0.008564,0.007401,-0.003711,63.826355,22.77565,-147.194031,,,
729608630.479936,0.528492,0.719299,54.952825,-0.012054,0.008972,0.995575,-0.02075,0.011474,-0.001472,63.826355,22.77565,-147.194031,,,
729608630.483266,0.522082,0.724091,54.952425,-0.012054,0.008972,0.995575,-0.02075,0.011474,-0.001472,63.826355,22.77565,-147.194031,,,
729608630.486598,0.514157,0.72674,54.951961,-0.012054,0.008972,0.995575,-0.02075,0.011474,-0.001472,63.826355,22.77565,-147.194031,,,
729608630.489932,0.514157,0.72674,54.951961,-0.012054,0.008972,0.995575,-0.031575,0.010925,-0.007827,63.826355,22.77565,-147.194031,,,
729608630.493327,0.506135,0.729849,54.950778,-0.011826,0.010132,0.994675,-0.031575,0.010925,-0.007827,63.826355,22.77565,-147.194031,,,
729608630.496589,0.495987,0.731058,54.949112,-0.011826,0.010132,0.994675,-0.031575,0.010925,-0.007827,63.903625,22.695663,-147.399948,,,
729608630.499947,0.495987,0.731058,54.949112,-0.011826,0.010132,0.995728,-0.032062,0.005199,-0.009232,63.903625,22.695663,-147.399948,,,
729608630.503291,0.489199,0.731412,54.946706,-0.011154,0.007401,0.995728,-0.032062,0.005199,-0.009232,63.903625,22.695663,-147.399948,,,
729608630.506714,0.480577,0.730818,54.943652,-0.011154,0.007401,0.995728,-0.032062,0.005199,-0.009232,63.903625,22.695663,-147.399948,,,
729608630.509963,0.480577,0.730818,54.943652,-0.011154,0.007401,0.995728,-0.024731,7.7e-05,-0.014297,63.903625,22.695663,-147.399948,,,
729608630.513292,0.47557,0.728841,54.940271,-0.01001,0.008408,1.001953,-0.024731,7.7e-05,-0.014297,63.903625,22.695663,-147.399948,,,
729608630.516625,0.46987,0.726938,54.937156,-0.01001,0.008408,1.001953,-0.024731,7.7e-05,-0.014297,63.903625,22.695663,-147.399948,,,
729608630.520004,0.46987,0.726938,54.937156,-0.01001,0.008408,1.001953,-0.009454,-0.007391,-0.008256,63.903625,22.695663,-147.399948,,,
729608630.52327,0.467068,0.72308,54.934975,-0.008469,0.005798,1.003708,-0.009454,-0.007391,-0.008256,63.903625,22.695663,-147.399948,,,
729608630.526593,0.464836,0.719327,54.933585,-0.008469,0.005798,1.003708,-0.009454,-0.007391,-0.008256,63.903625,22.695663,-147.399948,,,
729608630.529944,0.464836,0.719327,54.933585,-0.008469,0.005798,1.003708,-0.003689,-0.010039,-0.003345,63.903625,22.695663,-147.399948,,,
729608630.533266,0.463728,0.714584,54.932666,-0.01059,0.00325,1.00267,-0.003689,-0.010039,-0.003345,63.903625,22.695663,-147.399948,,,
729608630.536634,0.462953,0.710003,54.932142,-0.01059,0.00325,1.00267,-0.003689,-0.010039,-0.003345,63.903625,22.695663,-147.399948,,,
729608630.539951,0.462953,0.710003,54.932142,-0.01059,0.00325,1.00267,-0.00393,-0.014759,-0.006464,63.601334,22.786728,-146.81723,,,
729608630.543334,0.460869,0.704353,54.931024,-0.008377,0.008255,1.00061,-0.00393,-0.014759,-0.006464,63.601334,22.786728,-146.81723,,,
729608630.546602,0.458401,0.697996,54.928304,-0.008377,0.008255,1.00061,-0.00393,-0.014759,-0.006464,63.601334,22.786728,-146.81723,,,
729608630.549949,0.458401,0.697996,54.928304,-0.008377,0.008255,1.00061,-0.00393,-0.019395,-0.013788,63.601334,22.786728,-146.81723,,,
729608630.553267,0.455067,0.691584,54.924305,-0.002563,0.016754,0.992935,-0.011628,-0.019395,-0.013788,63.601334,22.786728,-146.81723,,,
729608630.556592,0.450762,0.686282,54.919782,-0.002563,0.016754,0.992935,-0.011628,-0.019395,-0.013788,63.601334,22.786728,-146.81723,,,
729608630.559936,0.450762,0.686282,54.919782,-0.002563,0.016754,0.992935,-0.011628,-0.019395,-0.013788,63.601334,22.786728,-146.81723,,,
729608630.563299,0.446232,0.681799,54.915154,0.000778,0.018417,0.995956,-0.015693,-0.011345,-0.018617,63.601334,22.786728,-146.81723,,,
729608630.566628,0.441792,0.677535,54.910412,0.000778,0.018417,0.995956,-0.015693,-0.011345,-0.018617,63.601334,22.786728,-146.81723,,,
729608630.570026,0.441792,0.677535,54.910412,0.000778,0.018417,0.995956,-0.016242,-0.009706,-0.019036,63.601334,22.786728,-146.81723,,,
729608630.573281,0.438789,0.673673,54.905464,0.000351,0.012192,0.999695,-0.016242,-0.009706,-0.019036,63.601334,22.786728,-146.81723,,,
729608630.576613,0.435653,0.670478,54.900167,0.000351,0.012192,0.999695,-0.016242,-0.009706,-0.019036,63.601334,22.786728,-146.81723,,,
729608630.579945,0.435653,0.670478,54.900167,0.000351,0.012192,0.999695,-0.004157,-0.006953,-0.019991,63.528336,22.806488,-147.364914,,,
729608630.583331,0.433675,0.667347,54.894346,-0.003189,0.010498,1.005524,-0.004157,-0.006953,-0.019991,63.528336,22.806488,-147.364914,,,
729608630.586588,0.433092,0.664723,54.887944,-0.003189,0.010498,1.005524,-0.004157,-0.006953,-0.019991,63.528336,22.806488,-147.364914,,,
729608630.589945,0.433092,0.664723,54.887944,-0.003189,0.010498,1.005524,-0.004157,-0.006953,-0.019991,63.528336,22.806488,-147.364914,,,
729608630.59327,0.434177,0.662516,54.880819,-0.006424,0.010086,1.007263,0.005656,-0.005281,-0.027391,63.528336,22.806488,-147.364914,,,
729608630.596601,0.435241,0.661898,54.872732,-0.006424,0.010086,1.007263,0.005656,-0.005281,-0.027391,63.528336,22.806488,-147.364914,,,
729608630.599934,0.435241,0.661898,54.872732,-0.006424,0.010086,1.007263,0.005656,-0.005281,-0.027391,63.528336,22.806488,-147.364914,,,
729608630.603272,0.436573,0.661367,54.864186,-0.007065,0.010712,1.005997,0.004715,0.00394,-0.031713,63.528336,22.806488,-147.364914,,,
729608630.606592,0.438545,0.662456,54.85562,-0.007065,0.010712,1.005997,0.004715,0.00394,-0.031713,63.528336,22.806488,-147.364914,,,
729608630.61002,0.438545,0.662456,54.85562,-0.007065,0.010712,1.005997,0.0042,0.006017,-0.031171,63.528336,22.806488,-147.364914,,,
729608630.613256,0.43854,0.663604,54.846877,-0.009552,0.007599,1.003418,0.0042,0.006017,-0.031171,63.528336,22.806488,-147.364914,,,
729608630.616607,0.439367,0.665621,54.838433,-0.009552,0.007599,1.003418,0.0042,0.006017,-0.031171,63.528336,22.806488,-147.364914,,,
729608630.619933,0.439367,0.665621,54.838433,-0.009552,0.007599,1.003418,0.0042,0.006017,-0.031171,63.912888,22.576309,-147.409882,,,
729608630.623264,0.439652,0.668294,54.830329,-0.013901,0.004791,1.000687,0.006705,0.013413,-0.029831,63.912888,22.576309,-147.409882,,,
729608630.626595,0.440916,0.672313,54.822515,-0.013901,0.004791,1.000687,0.006705,0.013413,-0.029831,63.912888,22.576309,-147.409882,,,
729608630.630033,0.440916,0.672313,54.822515,-0.013901,0.004791,1.000687,0.006705,0.013413,-0.029831,63.912888,22.576309,-147.409882,,,
729608630.63334,0.444404,0.673638,54.815401,-0.015869,0.007477,1.003204,0.007768,0.015472,-0.025116,63.912888,22.576309,-147.409882,,,
729608630.6366,0.446751,0.677174,54.809069,-0.015869,0.007477,1.003204,0.007768,0.015472,-0.025116,63.912888,22.576309,-147.409882,,,
729608630.639972,0.446751,0.677174,54.809069,-0.015869,0.007477,1.003204,0.007768,0.015472,-0.025116,63.912888,22.576309,-147.409882,,,
729608630.643275,0.452802,0.677282,54.803802,-0.021652,0.00618,1.000244,0.011716,0.015071,-0.016839,63.912888,22.576309,-147.409882,,,
729608630.646606,0.45612,0.681044,54.799348,-0.021652,0.00618,1.000244,0.011716,0.015071,-0.016839,63.912888,22.576309,-147.409882,,,
729608630.649959,0.45612,0.681044,54.799348,-0.021652,0.00618,1.000244,0.011716,0.015071,-0.016839,63.912888,22.576309,-147.409882,,,
729608630.653326,0.461335,0.679495,54.795805,-0.021805,0.005188,1.001602,0.012484,0.010946,-0.012604,63.912888,22.576309,-147.409882,,,
729608630.656605,0.463986,0.680884,54.792949,-0.021805,0.005188,1.001602,0.012484,0.010946,-0.012604,63.912888,22.576309,-147.409882,,,
729608630.659979,0.463986,0.680884,54.792949,-0.021805,0.005188,1.001602,0.012484,0.010946,-0.012604,63.807846,22.603439,-147.295578,,,
729608630.663287,0.465884,0.679115,54.790479,-0.021881,0.009064,0.995117,0.006054,0.007082,-0.010813,63.807846,22.603439,-147.295578,,,
729608630.666616,0.466004,0.680843,54.788762,-0.021881,0.009064,0.995117,0.006054,0.007082,-0.010813,63.807846,22.603439,-147.295578,,,
729608630.669978,0.466004,0.680843,54.788762,-0.021881,0.009064,0.995117,0.006054,0.007082,-0.010813,63.807846,22.603439,-147.295578,,,
729608630.673385,0.465947,0.681879,54.787643,-0.021912,0.01004,0.995163,-0.001773,0.011498,-0.005091,63.807846,22.603439,-147.295578,,,
729608630.676691,0.464753,0.685319,54.786764,-0.021912,0.01004,0.995163,-0.001773,0.011498,-0.005091,63.807846,22.603439,-147.295578,,,
729608630.679981,0.464753,0.685319,54.786764,-0.021912,0.01004,0.995163,-0.001773,0.011498,-0.005091,63.807846,22.603439,-147.295578,,,
729608630.683337,0.464655,0.686232,54.786408,-0.021393,0.008636,1.002213,0.0005,0.010257,-0.003683,63.807846,22.603439,-147.295578,,,
729608630.686606,0.465508,0.686883,54.786424,-0.021393,0.008636,1.002213,0.0005,0.010257,-0.003683,63.807846,22.603439,-147.295578,,,
729608630.689957,0.465508,0.686883,54.786424,-0.021393,0.008636,1.002213,0.0005,0.010257,-0.003683,63.807846,22.603439,-147.295578,,,
729608630.693275,0.468283,0.684585,54.78585,-0.0168,0.00972,1.001297,0.007606,0.000361,-0.003907,63.807846,22.603439,-147.295578,,,
729608630.696609,0.472144,0.682279,54.783974,-0.0168,0.00972,1.001297,0.007606,0.000361,-0.003907,63.807846,22.603439,-147.295578,,,
729608630.699933,0.472144,0.682279,54.783974,-0.0168,0.00972,1.001297,0.007606,0.000361,-0.003907,63.807846,22.603439,-147.295578,,,
729608630.703278,0.475596,0.679581,54.781524,-0.015549,0.011368,1.000565,0.016261,-0.009112,-0.010489,63.798691,22.415649,-147.311615,,,
729608630.706606,0.479621,0.676628,54.77975,-0.015549,0.011368,1.000565,0.016261,-0.009112,-0.010489,63.798691,22.415649,-147.311615,,,
729608630.709996,0.479621,0.676628,54.77975,-0.015549,0.011368,1.000565,0.016261,-0.009112,-0.010489,63.798691,22.415649,-147.311615,,,
729608630.713259,0.483194,0.675191,54.778687,-0.017395,0.010498,0.99794,0.015803,-0.007236,-0.004371,63.798691,22.415649,-147.311615,,,
729608630.716607,0.487754,0.674267,54.77839,-0.017395,0.010498,0.99794,0.015803,-0.007236,-0.004371,63.798691,22.415649,-147.311615,,,
729608630.719932,0.487754,0.674267,54.77839,-0.017395,0.010498,0.99794,0.015803,-0.007236,-0.004371,63.798691,22.415649,-147.311615,,,
729608630.72332,0.493042,0.67747,54.778609,-0.01358,0.010498,1.003036,0.02017,0.003865,0.001263,63.798691,22.415649,-147.311615,,,
729608630.726599,0.499719,0.681301,54.778308,-0.01358,0.010498,1.003036,0.02017,0.003865,0.001263,63.798691,22.415649,-147.311615,,,
729608630.729931,0.499719,0.681301,54.778308,-0.01358,0.010498,1.003036,0.02017,0.003865,0.001263,63.798691,22.415649,-147.311615,,,
729608630.733273,0.506502,0.691706,54.776939,-0.006348,0.011047,1.008713,0.029895,0.02489,-0.005328,63.798691,22.415649,-147.311615,,,
729608630.736605,0.516098,0.701538,54.774073,-0.006348,0.011047,1.008713,0.029895,0.02489,-0.005328,63.798691,22.415649,-147.311615,,,
729608630.739949,0.516098,0.701538,54.774073,-0.006348,0.011047,1.008713,0.029895,0.02489,-0.005328,63.798691,22.415649,-147.311615,,,
729608630.7433,0.527091,0.717143,54.769859,-0.003754,0.015411,1.010345,0.040496,0.047511,-0.017891,63.728653,22.510895,-147.194778,,,
729608630.746603,0.540128,0.732663,54.765176,-0.003754,0.015411,1.010345,0.040496,0.047511,-0.017891,63.728653,22.510895,-147.194778,,,
729608630.749934,0.540128,0.732663,54.765176,-0.003754,0.015411,1.010345,0.040496,0.047511,-0.017891,63.728653,22.510895,-147.194778,,,
729608630.753293,0.555303,0.753496,54.760781,-0.008926,0.01387,1.009521,0.054711,0.066081,-0.016439,63.728653,22.510895,-147.194778,,,
729608630.756636,0.57233,0.77235,54.756969,-0.008926,0.01387,1.009521,0.054711,0.066081,-0.016439,63.728653,22.510895,-147.194778,,,
729608630.760042,0.57233,0.77235,54.756969,-0.008926,0.01387,1.009521,0.054711,0.066081,-0.016439,63.728653,22.510895,-147.194778,,,
729608630.763285,0.59089,0.793093,54.752991,-0.01561,0.010925,1.006058,0.068585,0.069253,-0.014768,63.728653,22.510895,-147.194778,,,
729608630.766623,0.611483,0.810139,54.748506,-0.01561,0.010925,1.006058,0.068585,0.069253,-0.014768,63.728653,22.510895,-147.194778,,,
729608630.769947,0.611483,0.810139,54.748506,-0.01561,0.010925,1.006058,0.068585,0.069253,-0.014768,63.728653,22.510895,-147.194778,,,
729608630.773346,0.633385,0.826623,54.743406,-0.018906,0.013763,0.996597,0.076137,0.055931,-0.015915,63.728653,22.510895,-147.194778,,,
729608630.776596,0.656437,0.839309,54.737915,-0.018906,0.013763,0.996597,0.076137,0.055931,-0.015915,63.728653,22.510895,-147.194778,,,
729608630.779948,0.656437,0.839309,54.737915,-0.018906,0.013763,0.996597,0.076137,0.055931,-0.015915,63.728653,22.510895,-147.194778,,,
729608630.783273,0.679989,0.849034,54.732838,-0.023315,0.014862,0.987839,0.085156,0.036454,-0.020459,63.871475,22.486359,-147.427597,,,
729608630.786604,0.704183,0.855156,54.728516,-0.023315,0.014862,0.987839,0.085156,0.036454,-0.020459,63.871475,22.486359,-147.427597,,,
729608630.789964,0.704183,0.855156,54.728516,-0.023315,0.014862,0.987839,0.085156,0.036454,-0.020459,63.871475,22.486359,-147.427597,,,
729608630.793291,0.727533,0.858725,54.724884,-0.023071,0.014099,0.984558,0.082931,0.013813,-0.011652,63.871475,22.486359,-147.427597,,,
729608630.796595,0.749476,0.860124,54.721721,-0.023071,0.014099,0.984558,0.082931,0.013813,-0.011652,63.871475,22.486359,-147.427597,,,
729608630.799933,0.749476,0.860124,54.721721,-0.023071,0.014099,0.984558,0.082931,0.013813,-0.011652,63.871475,22.486359,-147.427597,,,
729608630.803287,0.767966,0.860529,54.719284,-0.0177,0.016068,0.97493,0.066745,0.003141,-0.007539,63.871475,22.486359,-147.427597,,,
729608630.806597,0.785024,0.859977,54.71746,-0.0177,0.016068,0.97493,0.066745,0.003141,-0.007539,63.871475,22.486359,-147.427597,,,
729608630.809959,0.785024,0.859977,54.71746,-0.0177,0.016068,0.97493,0.066745,0.003141,-0.007539,63.871475,22.486359,-147.427597,,,
729608630.813287,0.798438,0.858052,54.715846,-0.010941,0.019775,0.974945,0.049176,0.004873,-0.008411,63.871475,22.486359,-147.427597,,,
729608630.816605,0.80987,0.858906,54.71415,-0.010941,0.019775,0.974945,0.049176,0.004873,-0.008411,63.871475,22.486359,-147.427597,,,
729608630.819952,0.80987,0.858906,54.71415,-0.010941,0.019775,0.974945,0.049176,0.004873,-0.008411,63.871475,22.486359,-147.427597,,,
729608630.823271,0.818909,0.857305,54.712772,-0.00795,0.024033,0.976288,0.031232,0.006746,-0.005951,63.960037,22.260788,-147.422287,,,
729608630.826603,0.826234,0.860118,54.711607,-0.00795,0.024033,0.976288,0.031232,0.006746,-0.005951,63.960037,22.260788,-147.422287,,,
729608630.829947,0.826234,0.860118,54.711607,-0.00795,0.024033,0.976288,0.031232,0.006746,-0.005951,63.960037,22.260788,-147.422287,,,
729608630.833285,0.832207,0.861622,54.710322,-0.006271,0.021927,0.982346,0.022172,0.016841,-0.00467,63.960037,22.260788,-147.422287,,,
729608630.836604,0.837019,0.867179,54.709217,-0.006271,0.021927,0.982346,0.022172,0.016841,-0.00467,63.960037,22.260788,-147.422287,,,
729608630.839948,0.837019,0.867179,54.709217,-0.006271,0.021927,0.982346,0.022172,0.016841,-0.00467,63.960037,22.260788,-147.422287,,,
729608630.843299,0.840681,0.872081,54.708524,-0.005417,0.019775,0.988297,0.017481,0.024082,-0.002813,63.960037,22.260788,-147.422287,,,
729608630.846602,0.843459,0.876875,54.707995,-0.005417,0.019775,0.988297,0.017481,0.024082,-0.002813,63.960037,22.260788,-147.422287,,,
729608630.849944,0.843459,0.876875,54.707995,-0.005417,0.019775,0.988297,0.017481,0.024082,-0.002813,63.960037,22.260788,-147.422287,,,
729608630.853331,0.842226,0.881962,54.707167,-0.006378,0.016388,0.984406,-0.004542,0.019383,-0.003959,63.960037,22.260788,-147.422287,,,
729608630.856598,0.837467,0.886153,54.705937,-0.006378,0.016388,0.984406,-0.004542,0.019383,-0.003959,63.960037,22.260788,-147.422287,,,
729608630.860021,0.837467,0.886153,54.705937,-0.006378,0.016388,0.984406,-0.004542,0.019383,-0.003959,63.960037,22.260788,-147.422287,,,
729608630.863276,0.828721,0.891592,54.704845,-0.013275,0.017059,0.982864,-0.02931,0.013329,-0.005706,63.960037,22.260788,-147.422287,,,
729608630.8666,0.816754,0.893159,54.704332,-0.013275,0.017059,0.982864,-0.02931,0.013329,-0.005706,63.954285,22.155304,-147.180344,,,
729608630.869959,0.816754,0.893159,54.704332,-0.013275,0.017059,0.982864,-0.02931,0.013329,-0.005706,63.954285,22.155304,-147.180344,,,
729608630.87327,0.802552,0.895401,54.704538,-0.0186,0.014893,0.986511,-0.048601,0.001738,-0.000858,63.954285,22.155304,-147.180344,,,
729608630.876727,0.78645,0.892805,54.705908,-0.0186,0.014893,0.986511,-0.048601,0.001738,-0.000858,63.954285,22.155304,-147.180344,,,
729608630.879965,0.78645,0.892805,54.705908,-0.0186,0.014893,0.986511,-0.048601,0.001738,-0.000858,63.954285,22.155304,-147.180344,,,
729608630.883299,0.770853,0.889578,54.708585,-0.025055,0.005081,0.99324,-0.053139,-0.015219,0.008038,63.954285,22.155304,-147.180344,,,
729608630.886604,0.756556,0.884062,54.712159,-0.025055,0.005081,0.99324,-0.053139,-0.015219,0.008038,63.954285,22.155304,-147.180344,,,
729608630.88995,0.756556,0.884062,54.712159,-0.025055,0.005081,0.99324,-0.053139,-0.015219,0.008038,63.954285,22.155304,-147.180344,,,
729608630.893287,0.746527,0.878565,54.716105,-0.025299,-0.006149,1.007919,-0.042598,-0.015117,0.014466,63.954285,22.155304,-147.180344,,,
729608630.896602,0.737266,0.874436,54.720596,-0.025299,-0.006149,1.007919,-0.042598,-0.015117,0.014466,63.954285,22.155304,-147.180344,,,
729608630.899934,0.737266,0.874436,54.720596,-0.025299,-0.006149,1.007919,-0.042598,-0.015117,0.014466,63.954285,22.155304,-147.180344,,,
729608630.903292,0.732215,0.869442,54.725438,-0.020416,-0.003815,1.01828,-0.024032,-0.010581,0.015623,63.954285,22.155304,-147.180344,,,
729608630.906603,0.726073,0.868152,54.730472,-0.020416,-0.003815,1.01828,-0.024032,-0.010581,0.015623,63.954376,22.240891,-147.633362,,,
729608630.909994,0.726073,0.868152,54.730472,-0.020416,-0.003815,1.01828,-0.024032,-0.010581,0.015623,63.954376,22.240891,-147.633362,,,
729608630.913274,0.723575,0.866358,54.735357,-0.018768,0.001083,1.016861,-0.012943,0.004884,0.01369,63.954376,22.240891,-147.633362,,,
729608630.916625,0.718854,0.869459,54.739521,-0.018768,0.001083,1.016861,-0.012943,0.004884,0.01369,63.954376,22.240891,-147.633362,,,
729608630.919952,0.718854,0.869459,54.739521,-0.018768,0.001083,1.016861,-0.012943,0.004884,0.01369,63.954376,22.240891,-147.633362,,,
729608630.923371,0.716949,0.870689,54.742987,-0.016708,0.004913,1.014832,-0.016487,0.020019,0.010325,63.954376,22.240891,-147.633362,,,
729608630.9266,0.71257,0.87526,54.745767,-0.016708,0.004913,1.014832,-0.016487,0.020019,0.010325,63.954376,22.240891,-147.633362,,,
729608630.929954,0.71257,0.87526,54.745767,-0.016708,0.004913,1.014832,-0.016487,0.020019,0.010325,63.954376,22.240891,-147.633362,,,
729608630.933273,0.709482,0.876347,54.747854,-0.013,0.004547,1.007736,-0.015868,0.017021,0.007498,63.954376,22.240891,-147.633362,,,
729608630.936599,0.705714,0.879563,54.749237,-0.013,0.004547,1.007736,-0.015868,0.017021,0.007498,63.954376,22.240891,-147.633362,,,
729608630.940009,0.705714,0.879563,54.749237,-0.013,0.004547,1.007736,-0.015868,0.017021,0.007498,63.954376,22.240891,-147.633362,,,
729608630.943281,0.704635,0.880756,54.749564,-0.012939,0.006531,1.005402,-0.009297,0.010762,0.001288,63.954376,22.240891,-147.633362,,,
729608630.946607,0.703018,0.882232,54.748689,-0.012939,0.006531,1.005402,-0.009297,0.010762,0.001288,63.815353,22.575394,-147.410858,,,
729608630.949931,0.703018,0.882232,54.748689,-0.012939,0.006531,1.005402,-0.009297,0.010762,0.001288,63.815353,22.575394,-147.410858,,,
729608630.953286,0.703994,0.882016,54.747693,-0.013275,0.008667,1.005798,-0.001325,-0.002605,-0.003907,63.815353,22.575394,-147.410858,,,
729608630.956598,0.704858,0.880116,54.747271,-0.013275,0.008667,1.005798,-0.001325,-0.002605,-0.003907,63.815353,22.575394,-147.410858,,,
729608630.960013,0.704858,0.880116,54.747271,-0.013275,0.008667,1.005798,-0.001325,-0.002605,-0.003907,63.815353,22.575394,-147.410858,,,
729608630.963277,0.705196,0.881287,54.746894,-0.013916,0.009094,1.00383,0.004581,0.000322,-0.001376,63.815353,22.575394,-147.410858,,,
729608630.966604,0.706092,0.882087,54.746699,-0.013916,0.009094,1.00383,0.004581,0.000322,-0.001376,63.815353,22.575394,-147.410858,,,
729608630.969944,0.706092,0.882087,54.746699,-0.013916,0.009094,1.00383,0.004581,0.000322,-0.001376,63.815353,22.575394,-147.410858,,,
729608630.973328,0.702768,0.887876,54.745847,-0.004623,0.01387,1.006302,0.001907,0.011554,-0.005313,63.815353,22.575394,-147.410858,,,
729608630.976598,0.702915,0.891361,54.743786,-0.004623,0.01387,1.006302,0.001907,0.011554,-0.005313,63.815353,22.575394,-147.410858,,,
729608630.97996,0.702915,0.891361,54.743786,-0.004623,0.01387,1.006302,0.001907,0.011554,-0.005313,63.815353,22.575394,-147.410858,,,
729608630.983288,0.69733,0.897989,54.741123,-0.002182,0.020416,1.00058,-0.001316,0.019288,-0.010615,63.815353,22.575394,-147.410858,,,
729608630.986595,0.696423,0.90326,54.738221,-0.002182,0.020416,1.00058,-0.001316,0.019288,-0.010615,63.837463,22.45343,-147.800064,,,
729608630.989957,0.696423,0.90326,54.738221,-0.002182,0.020416,1.00058,-0.001316,0.019288,-0.010615,63.837463,22.45343,-147.800064,,,
729608630.993275,0.692263,0.909679,54.735484,-0.008286,0.01973,0.99794,-0.003302,0.023889,-0.013149,63.837463,22.45343,-147.800064,,,
729608630.996604,0.691799,0.915956,54.733076,-0.008286,0.01973,0.99794,-0.003302,0.023889,-0.013149,63.837463,22.45343,-147.800064,,,
729608630.999934,0.691799,0.915956,54.733076,-0.008286,0.01973,0.99794,-0.003302,0.023889,-0.013149,63.837463,22.45343,-147.800064,,,
729608631.003285,0.689109,0.923007,54.731536,-0.009613,0.015106,1.001358,-0.000508,0.025375,-0.008118,63.837463,22.45343,-147.800064,,,
729608631.006604,0.689804,0.929525,54.730585,-0.009613,0.015106,1.001358,-0.000508,0.025375,-0.008118,63.837463,22.45343,-147.800064,,,
729608631.009993,0.689804,0.929525,54.730585,-0.009613,0.015106,1.001358,-0.000508,0.025375,-0.008118,63.837463,22.45343,-147.800064,,,
729608631.013274,0.690088,0.93527,54.72991,-0.014221,0.011169,1.003036,0.007991,0.026818,-0.002922,63.837463,22.45343,-147.800064,,,
729608631.016636,0.693667,0.940349,54.729816,-0.014221,0.011169,1.003036,0.007991,0.026818,-0.002922,63.837463,22.45343,-147.800064,,,
729608631.019948,0.693667,0.940349,54.729816,-0.014221,0.011169,1.003036,0.007991,0.026818,-0.002922,63.837463,22.45343,-147.800064,,,
729608631.02335,0.696939,0.942578,54.729927,-0.018555,0.01239,1.005264,0.019626,0.013641,0.002448,63.837463,22.45343,-147.800064,,,
729608631.026595,0.702519,0.943975,54.729564,-0.018555,0.01239,1.005264,0.019626,0.013641,0.002448,63.837463,22.45343,-147.800064,,,
729608631.029957,0.702519,0.943975,54.729564,-0.018555,0.01239,1.005264,0.019626,0.013641,0.002448,63.822098,22.360855,-147.689407,,,
729608631.033293,0.706244,0.943481,54.728033,-0.016312,0.017593,0.999451,0.018291,0.006166,-0.003173,63.822098,22.360855,-147.689407,,,
729608631.036599,0.709322,0.944674,54.725042,-0.016312,0.017593,0.999451,0.018291,0.006166,-0.003173,63.822098,22.360855,-147.689407,,,
729608631.039955,0.709322,0.944674,54.725042,-0.016312,0.017593,0.999451,0.018291,0.006166,-0.003173,63.822098,22.360855,-147.689407,,,
729608631.043296,0.709675,0.945418,54.720923,-0.010681,0.026276,0.997192,0.00466,0.006239,-0.016717,63.822098,22.360855,-147.689407,,,
729608631.046601,0.709874,0.946422,54.716748,-0.010681,0.026276,0.997192,0.00466,0.006239,-0.016717,63.822098,22.360855,-147.689407,,,
729608631.050009,0.709874,0.946422,54.716748,-0.010681,0.026276,0.997192,0.00466,0.006239,-0.016717,63.822098,22.360855,-147.689407,,,
729608631.053284,0.709749,0.944033,54.71361,-0.021164,0.022293,0.996613,-0.000146,0.00247,-0.014367,63.822098,22.360855,-147.689407,,,
729608631.056605,0.709232,0.943612,54.711483,-0.021164,0.022293,0.996613,-0.000146,0.00247,-0.014367,63.822098,22.360855,-147.689407,,,
729608631.059965,0.709232,0.943612,54.711483,-0.021164,0.022293,0.996613,-0.000146,0.00247,-0.014367,63.822098,22.360855,-147.689407,,,
729608631.0633,0.70947,0.938898,54.71027,-0.026367,0.01651,0.998001,-0.001211,0.002488,-0.003605,63.822098,22.360855,-147.689407,,,
729608631.066614,0.70788,0.938477,54.710073,-0.026367,0.01651,0.998001,-0.001211,0.002488,-0.003605,63.822098,22.360855,-147.689407,,,
729608631.069958,0.70788,0.938477,54.710073,-0.026367,0.01651,0.998001,-0.001211,0.002488,-0.003605,64.018875,22.300232,-147.63942,,,
729608631.073344,0.709459,0.934337,54.710487,-0.027298,0.016647,0.999756,-0.001181,-0.000913,-0.002117,64.018875,22.300232,-147.63942,,,
729608631.076597,0.709302,0.932317,54.71056,-0.027298,0.016647,0.999756,-0.001181,-0.000913,-0.002117,64.018875,22.300232,-147.63942,,,
729608631.079949,0.709302,0.932317,54.71056,-0.027298,0.016647,0.999756,-0.001181,-0.000913,-0.002117,64.018875,22.300232,-147.63942,,,
729608631.083292,0.710153,0.926517,54.710135,-0.02623,0.020447,0.997299,-0.001682,-0.007908,-0.004652,64.018875,22.300232,-147.63942,,,
729608631.086605,0.710198,0.921814,54.709694,-0.02623,0.020447,0.997299,-0.001682,-0.007908,-0.004652,64.018875,22.300232,-147.63942,,,
729608631.089959,0.710198,0.921814,54.709694,-0.02623,0.020447,0.997299,-0.001682,-0.007908,-0.004652,64.018875,22.300232,-147.63942,,,
729608631.093284,0.710208,0.915536,54.710085,-0.027756,0.020035,0.994232,0.003128,-0.013488,-0.001395,64.018875,22.300232,-147.63942,,,
729608631.096596,0.709451,0.909885,54.71127,-0.027756,0.020035,0.994232,0.003128,-0.013488,-0.001395,64.018875,22.300232,-147.63942,,,
729608631.099935,0.709451,0.909885,54.71127,-0.027756,0.020035,0.994232,0.003128,-0.013488,-0.001395,64.018875,22.300232,-147.63942,,,
729608631.10329,0.707563,0.904126,54.712831,-0.024857,0.013657,0.992737,-0.006476,-0.019079,0.005332,64.018875,22.300232,-147.63942,,,
729608631.106603,0.705052,0.898036,54.715025,-0.024857,0.013657,0.992737,-0.006476,-0.019079,0.005332,64.018875,22.300232,-147.63942,,,
729608631.109938,0.705052,0.898036,54.715025,-0.024857,0.013657,0.992737,-0.006476,-0.019079,0.005332,64.024017,22.371368,-147.680252,,,
729608631.113279,0.70153,0.892952,54.717889,-0.022537,0.015182,0.991913,-0.012295,-0.018246,0.007938,64.024017,22.371368,-147.680252,,,
729608631.116617,0.69627,0.887703,54.720804,-0.022537,0.015182,0.991913,-0.012295,-0.018246,0.007938,64.024017,22.371368,-147.680252,,,
729608631.119955,0.69627,0.887703,54.720804,-0.022537,0.015182,0.991913,-0.012295,-0.018246,0.007938,64.024017,22.371368,-147.680252,,,
729608631.123331,0.69387,0.882673,54.72368,-0.022919,0.016769,0.995087,-0.017739,-0.01223,0.009385,64.024017,22.371368,-147.680252,,,
729608631.126596,0.688973,0.879613,54.727116,-0.022919,0.016769,0.995087,-0.017739,-0.01223,0.009385,64.024017,22.371368,-147.680252,,,
729608631.129947,0.688973,0.879613,54.727116,-0.022919,0.016769,0.995087,-0.017739,-0.01223,0.009385,64.024017,22.371368,-147.680252,,,
729608631.133283,0.689315,0.876918,54.731854,-0.026672,0.01091,1.004501,-0.011897,-0.005153,0.015606,64.024017,22.371368,-147.680252,,,
729608631.136603,0.68738,0.874145,54.737193,-0.026672,0.01091,1.004501,-0.011897,-0.005153,0.015606,64.024017,22.371368,-147.680252,,,
729608631.139944,0.68738,0.874145,54.737193,-0.026672,0.01091,1.004501,-0.011897,-0.005153,0.015606,64.024017,22.371368,-147.680252,,,
729608631.143285,0.688417,0.874991,54.742268,-0.024887,0.006775,1.006577,0.002936,-0.007723,0.018361,64.024017,22.371368,-147.680252,,,
729608631.146603,0.689182,0.872928,54.747018,-0.024887,0.006775,1.006577,0.002936,-0.007723,0.018361,64.024017,22.371368,-147.680252,,,
729608631.149938,0.689182,0.872928,54.747018,-0.024887,0.006775,1.006577,0.002936,-0.007723,0.018361,64.024017,22.371368,-147.680252,,,
729608631.153273,0.691256,0.874794,54.750813,-0.022186,0.009628,1.004028,0.003714,-0.000105,0.013031,64.059067,22.574493,-147.499084,,,
729608631.156601,0.691699,0.873689,54.754224,-0.022186,0.009628,1.004028,0.003714,-0.000105,0.013031,64.059067,22.574493,-147.499084,,,
729608631.16002,0.691699,0.873689,54.754224,-0.022186,0.009628,1.004028,0.003714,-0.000105,0.013031,64.059067,22.574493,-147.499084,,,
729608631.163272,0.693677,0.876489,54.75799,-0.024017,0.012466,1.000946,-0.000418,0.000783,0.010882,64.059067,22.574493,-147.499084,,,
729608631.166598,0.693341,0.875231,54.761938,-0.024017,0.012466,1.000946,-0.000418,0.000783,0.010882,64.059067,22.574493,-147.499084,,,
729608631.169944,0.693341,0.875231,54.761938,-0.024017,0.012466,1.000946,-0.000418,0.000783,0.010882,64.059067,22.574493,-147.499084,,,
729608631.173343,0.695367,0.876569,54.765892,-0.028091,0.010025,0.998184,-0.000298,-0.008554,0.014424,64.059067,22.574493,-147.499084,,,
729608631.176596,0.694913,0.872723,54.770415,-0.028091,0.010025,0.998184,-0.000298,-0.008554,0.014424,64.059067,22.574493,-147.499084,,,
729608631.179944,0.694913,0.872723,54.770415,-0.028091,0.010025,0.998184,-0.000298,-0.008554,0.014424,64.059067,22.574493,-147.499084,,,
729608631.183286,0.695935,0.871022,54.775201,-0.025925,0.00647,0.996506,-0.00034,-0.01489,0.015223,64.059067,22.574493,-147.499084,,,
729608631.186601,0.69671,0.864734,54.779753,-0.025925,0.00647,0.996506,-0.00034,-0.01489,0.015223,64.059067,22.574493,-147.499084,,,
729608631.189951,0.69671,0.864734,54.779753,-0.025925,0.00647,0.996506,-0.00034,-0.01489,0.015223,64.059067,22.574493,-147.499084,,,
729608631.193296,0.699407,0.860943,54.784755,-0.021713,0.005005,0.998749,0.011313,-0.018217,0.014713,63.965317,22.354248,-147.552414,,,
729608631.196617,0.702629,0.855211,54.790607,-0.021713,0.005005,0.998749,0.011313,-0.018217,0.014713,63.965317,22.354248,-147.552414,,,
729608631.199937,0.702629,0.855211,54.790607,-0.021713,0.005005,0.998749,0.011313,-0.018217,0.014713,63.965317,22.354248,-147.552414,,,
729608631.203233,0.708401,0.852033,54.797158,-0.01947,0.003769,1.001007,0.018386,-0.015847,0.021123,63.965317,22.354248,-147.552414,,,
729608631.206607,0.714055,0.84799,54.80408,-0.01947,0.003769,1.001007,0.018386,-0.015847,0.021123,63.965317,22.354248,-147.552414,,,
729608631.209996,0.714055,0.84799,54.80408,-0.01947,0.003769,1.001007,0.018386,-0.015847,0.021123,63.965317,22.354248,-147.552414,,,
729608631.213284,0.719737,0.848862,54.810638,-0.014603,0.007462,0.998367,0.018629,-0.005589,0.02265,63.965317,22.354248,-147.552414,,,
729608631.216618,0.724836,0.847829,54.816813,-0.014603,0.007462,0.998367,0.018629,-0.005589,0.02265,63.965317,22.354248,-147.552414,,,
729608631.219956,0.724836,0.847829,54.816813,-0.014603,0.007462,0.998367,0.018629,-0.005589,0.02265,63.965317,22.354248,-147.552414,,,
729608631.223341,0.72819,0.851477,54.822541,-0.008255,0.013916,0.993469,0.017959,0.002553,0.017648,63.965317,22.354248,-147.552414,,,
729608631.226586,0.73252,0.853379,54.827859,-0.008255,0.013916,0.993469,0.017959,0.002553,0.017648,63.965317,22.354248,-147.552414,,,
729608631.229945,0.73252,0.853379,54.827859,-0.008255,0.013916,0.993469,0.017959,0.002553,0.017648,63.965317,22.354248,-147.552414,,,
729608631.233264,0.734941,0.858746,54.832369,-0.009094,0.013672,0.992767,0.016356,0.014083,0.019104,64.129517,22.431412,-147.473679,,,
729608631.236602,0.738001,0.862554,54.836496,-0.009094,0.013672,0.992767,0.016356,0.014083,0.019104,64.129517,22.431412,-147.473679,,,
729608631.239999,0.738001,0.862554,54.836496,-0.009094,0.013672,0.992767,0.016356,0.014083,0.019104,64.129517,22.431412,-147.473679,,,
729608631.243269,0.741264,0.868103,54.839812,-0.005188,0.013321,0.990738,0.012121,0.016441,0.010655,64.129517,22.431412,-147.473679,,,
729608631.246604,0.744474,0.870692,54.841414,-0.005188,0.013321,0.990738,0.012121,0.016441,0.010655,64.129517,22.431412,-147.473679,,,
729608631.249993,0.744474,0.870692,54.841414,-0.005188,0.013321,0.990738,0.012121,0.016441,0.010655,64.129517,22.431412,-147.473679,,,
729608631.253276,0.74637,0.876347,54.841172,-0.003113,0.017563,0.984741,0.012275,0.009249,-0.003016,64.129517,22.431412,-147.473679,,,
729608631.256642,0.747812,0.877282,54.83978,-0.003113,0.017563,0.984741,0.012275,0.009249,-0.003016,64.129517,22.431412,-147.473679,,,
729608631.259988,0.747812,0.877282,54.83978,-0.003113,0.017563,0.984741,0.012275,0.009249,-0.003016,64.129517,22.431412,-147.473679,,,
729608631.263278,0.746685,0.880875,54.837426,-0.008438,0.019684,0.985016,0.000868,0.001823,-0.010292,64.129517,22.431412,-147.473679,,,
729608631.266661,0.746255,0.88015,54.834893,-0.008438,0.019684,0.985016,0.000868,0.001823,-0.010292,64.129517,22.431412,-147.473679,,,
729608631.269923,0.746255,0.88015,54.834893,-0.008438,0.019684,0.985016,0.000868,0.001823,-0.010292,64.129517,22.431412,-147.473679,,,
729608631.273273,0.743564,0.881718,54.832915,-0.011597,0.016235,0.987091,-0.002519,0.000263,-0.00738,63.969772,22.497498,-147.495132,,,
729608631.276597,0.742584,0.882007,54.831732,-0.011597,0.016235,0.987091,-0.002519,0.000263,-0.00738,63.969772,22.497498,-147.495132,,,
729608631.279931,0.742584,0.882007,54.831732,-0.011597,0.016235,0.987091,-0.002519,0.000263,-0.00738,63.969772,22.497498,-147.495132,,,
729608631.28327,0.739187,0.883946,54.83164,-0.015762,0.010056,0.992981,-0.002831,0.006882,-0.001388,63.969772,22.497498,-147.495132,,,
729608631.286598,0.737307,0.884941,54.832721,-0.015762,0.010056,0.992981,-0.002831,0.006882,-0.001388,63.969772,22.497498,-147.495132,,,
729608631.289935,0.737307,0.884941,54.832721,-0.015762,0.010056,0.992981,-0.002831,0.006882,-0.001388,63.969772,22.497498,-147.495132,,,
729608631.293267,0.732433,0.888105,54.834612,-0.017746,0.00795,0.99382,-0.009842,0.013287,0.003514,63.969772,22.497498,-147.495132,,,
729608631.29663,0.728346,0.89232,54.836852,-0.017746,0.00795,0.99382,-0.009842,0.013287,0.003514,63.969772,22.497498,-147.495132,,,
729608631.299939,0.728346,0.89232,54.836852,-0.017746,0.00795,0.99382,-0.009842,0.013287,0.003514,63.969772,22.497498,-147.495132,,,
729608631.303271,0.722799,0.894617,54.839527,-0.019516,0.009598,0.998199,-0.016996,0.018261,0.008081,63.969772,22.497498,-147.495132,,,
729608631.306673,0.717415,0.897211,54.842902,-0.019516,0.009598,0.998199,-0.016996,0.018261,0.008081,63.969772,22.497498,-147.495132,,,
729608631.309999,0.717415,0.897211,54.842902,-0.019516,0.009598,0.998199,-0.016996,0.018261,0.008081,63.969772,22.497498,-147.495132,,,
