Time (sec),Pitch (deg),Roll (deg),Yaw(deg),X-Acceleration (g),Y-Acceleration (g),Z-Acceleration (g),Pitch Rate (deg/sec),Roll Rate (deg/sec),Yaw Rate (deg/sec),Magnetic Field in X direction (uT),Magnetic Field in Y direction (uT),Magnetic Field in Z Direction (uT),Latitude (deg),Longitude (deg),Altitude (m)
729607873.809904,-1.685918,1.436035,27.655534,-0.021881,-0.020309,1.011429,0.094551,0.027739,-0.005624,65.68396,19.013046,-149.192688,,,
729607873.813284,-1.685918,1.436035,27.655534,-0.021881,-0.020309,1.011429,0.094551,0.027739,-0.005624,65.68396,19.013046,-149.192688,,,
729607873.816705,-1.659793,1.445216,27.653181,-0.025543,-0.022141,1.001587,0.09739,0.030078,-0.006233,65.68396,19.013046,-149.192688,,,
729607873.819893,-1.631984,1.453161,27.650698,-0.025543,-0.022141,1.001587,0.09739,0.030078,-0.006233,65.68396,19.013046,-149.192688,,,
729607873.82327,-1.631984,1.453161,27.650698,-0.025543,-0.022141,1.001587,0.09739,0.030078,-0.006233,65.68396,19.013046,-149.192688,,,
729607873.82659,-1.605335,1.462312,27.64768,-0.0289,-0.026016,0.999939,0.10067,0.035811,-0.013638,65.68396,19.013046,-149.192688,,,
729607873.830003,-1.577486,1.470271,27.64387,-0.0289,-0.026016,0.999939,0.10067,0.035811,-0.013638,65.68396,19.013046,-149.192688,,,
729607873.833255,-1.577486,1.470271,27.64387,-0.0289,-0.026016,0.999939,0.10067,0.035811,-0.013638,65.68396,19.013046,-149.192688,,,
729607873.836606,-1.551867,1.477041,27.640131,-0.032135,-0.025482,0.995438,0.094079,0.022933,-0.012663,65.68396,19.013046,-149.192688,,,
729607873.839906,-1.525909,1.482108,27.636814,-0.032135,-0.025482,0.995438,0.094079,0.022933,-0.012663,65.68396,19.013046,-149.192688,,,
729607873.843248,-1.525909,1.482108,27.636814,-0.032135,-0.025482,0.995438,0.094079,0.022933,-0.012663,65.727158,18.563156,-149.2099,,,
729607873.846646,-1.503694,1.486955,27.634407,-0.035736,-0.024872,0.984283,0.077309,0.018633,-0.003094,65.727158,18.563156,-149.2099,,,
729607873.850015,-1.482345,1.49209,27.633518,-0.035736,-0.024872,0.984283,0.077309,0.018633,-0.003094,65.727158,18.563156,-149.2099,,,
729607873.853248,-1.482345,1.49209,27.633518,-0.035736,-0.024872,0.984283,0.077309,0.018633,-0.003094,65.727158,18.563156,-149.2099,,,
729607873.856657,-1.464597,1.496685,27.634399,-0.041962,-0.027222,0.983688,0.060991,0.018894,0.0079,65.727158,18.563156,-149.2099,,,
729607873.859904,-1.447016,1.501047,27.636728,-0.041962,-0.027222,0.983688,0.060991,0.018894,0.0079,65.727158,18.563156,-149.2099,,,
729607873.863288,-1.447016,1.501047,27.636728,-0.041962,-0.027222,0.983688,0.060991,0.018894,0.0079,65.727158,18.563156,-149.2099,,,
729607873.866586,-1.431134,1.504234,27.640282,-0.043732,-0.035065,0.990067,0.056636,0.016183,0.016756,65.727158,18.563156,-149.2099,,,
729607873.869916,-1.414816,1.508027,27.645258,-0.043732,-0.035065,0.990067,0.056636,0.016183,0.016756,65.727158,18.563156,-149.2099,,,
729607873.873245,-1.414816,1.508027,27.645258,-0.043732,-0.035065,0.990067,0.056636,0.016183,0.016756,65.727158,18.563156,-149.2099,,,
729607873.876578,-1.399312,1.511416,27.651522,-0.049271,-0.044037,0.997467,0.054504,0.019499,0.025562,65.727158,18.563156,-149.2099,,,
729607873.879954,-1.38365,1.516045,27.659371,-0.049271,-0.044037,0.997467,0.054504,0.019499,0.025562,65.727158,18.563156,-149.2099,,,
729607873.883241,-1.38365,1.516045,27.659371,-0.049271,-0.044037,0.997467,0.054504,0.019499,0.025562,65.83847,18.711533,-149.230453,,,
729607873.886582,-1.367403,1.520178,27.66969,-0.054398,-0.049561,0.997116,0.051539,0.021456,0.042148,65.83847,18.711533,-149.230453,,,
729607873.88991,-1.352138,1.525733,27.683042,-0.054398,-0.049561,0.997116,0.051539,0.021456,0.042148,65.83847,18.711533,-149.230453,,,
729607873.893284,-1.352138,1.525733,27.683042,-0.054398,-0.049561,0.997116,0.051539,0.021456,0.042148,65.83847,18.711533,-149.230453,,,
729607873.896339,-1.337646,1.530642,27.699195,-0.053711,-0.04863,0.993393,0.042538,0.019267,0.061955,65.83847,18.711533,-149.230453,,,
729607873.899945,-1.325621,1.535572,27.718097,-0.053711,-0.04863,0.993393,0.042538,0.019267,0.061955,65.83847,18.711533,-149.230453,,,
729607873.903239,-1.325621,1.535572,27.718097,-0.053711,-0.04863,0.993393,0.042538,0.019267,0.061955,65.83847,18.711533,-149.230453,,,
729607873.906647,-1.315784,1.540137,27.739094,-0.05101,-0.040787,0.98642,0.02865,0.016888,0.077216,65.83847,18.711533,-149.230453,,,
729607873.9099,-1.307408,1.54411,27.761564,-0.05101,-0.040787,0.98642,0.02865,0.016888,0.077216,65.83847,18.711533,-149.230453,,,
729607873.913298,-1.307408,1.54411,27.761564,-0.05101,-0.040787,0.98642,0.02865,0.016888,0.077216,65.83847,18.711533,-149.230453,,,
729607873.916575,-1.301775,1.548242,27.785297,-0.051331,-0.031921,0.985016,0.015609,0.012361,0.085293,65.83847,18.711533,-149.230453,,,
729607873.919912,-1.296961,1.55128,27.810248,-0.051331,-0.031921,0.985016,0.015609,0.012361,0.085293,65.83847,18.711533,-149.230453,,,
729607873.923305,-1.296961,1.55128,27.810248,-0.051331,-0.031921,0.985016,0.015609,0.012361,0.085293,65.83847,18.711533,-149.230453,,,
729607873.926572,-1.293339,1.555332,27.836829,-0.046524,-0.03093,0.986008,0.011329,0.012932,0.096465,65.852829,18.72728,-149.375778,,,
729607873.929963,-1.290403,1.558802,27.865006,-0.046524,-0.03093,0.986008,0.011329,0.012932,0.096465,65.852829,18.72728,-149.375778,,,
729607873.933237,-1.290403,1.558802,27.865006,-0.046524,-0.03093,0.986008,0.011329,0.012932,0.096465,65.852829,18.72728,-149.375778,,,
729607873.936596,-1.289507,1.564709,27.894277,-0.041443,-0.032898,0.987137,-0.001723,0.015275,0.102403,65.852829,18.72728,-149.375778,,,
729607873.93991,-1.289629,1.568603,27.923728,-0.041443,-0.032898,0.987137,-0.001723,0.015275,0.102403,65.852829,18.72728,-149.375778,,,
729607873.943302,-1.289629,1.568603,27.923728,-0.041443,-0.032898,0.987137,-0.001723,0.015275,0.102403,65.852829,18.72728,-149.375778,,,
729607873.946653,-1.292509,1.573869,27.953461,-0.031784,-0.033096,0.982285,-0.016671,0.01087,0.098928,65.852829,18.72728,-149.375778,,,
729607873.949923,-1.297475,1.57605,27.982544,-0.031784,-0.033096,0.982285,-0.016671,0.01087,0.098928,65.852829,18.72728,-149.375778,,,
729607873.953273,-1.297475,1.57605,27.982544,-0.031784,-0.033096,0.982285,-0.016671,0.01087,0.098928,65.852829,18.72728,-149.375778,,,
729607873.956673,-1.30879,1.580267,28.010131,-0.027756,-0.028107,0.975098,-0.040554,0.004503,0.088122,65.852829,18.72728,-149.375778,,,
729607873.959907,-1.321084,1.5813,28.036512,-0.027756,-0.028107,0.975098,-0.040554,0.004503,0.088122,65.852829,18.72728,-149.375778,,,
729607873.963317,-1.321084,1.5813,28.036512,-0.027756,-0.028107,0.975098,-0.040554,0.004503,0.088122,65.852829,18.72728,-149.375778,,,
729607873.966574,-1.340137,1.58567,28.061746,-0.027954,-0.024887,0.973236,-0.058359,0.001796,0.078727,65.783264,18.734436,-149.072815,,,
729607873.96991,-1.357916,1.586097,28.085384,-0.027954,-0.024887,0.973236,-0.058359,0.001796,0.078727,65.783264,18.734436,-149.072815,,,
729607873.97325,-1.357916,1.586097,28.085384,-0.027954,-0.024887,0.973236,-0.058359,0.001796,0.078727,65.783264,18.734436,-149.072815,,,
729607873.976595,-1.381407,1.588514,28.108282,-0.03009,-0.022583,0.977539,-0.075745,-0.007799,0.074585,65.783264,18.734436,-149.072815,,,
729607873.979961,-1.404153,1.586595,28.130871,-0.03009,-0.022583,0.977539,-0.075745,-0.007799,0.074585,65.783264,18.734436,-149.072815,,,
729607873.983236,-1.404153,1.586595,28.130871,-0.03009,-0.022583,0.977539,-0.075745,-0.007799,0.074585,65.783264,18.734436,-149.072815,,,
729607873.986582,-1.431538,1.586956,28.153446,-0.031418,-0.029861,0.975815,-0.09356,-0.005915,0.074433,65.783264,18.734436,-149.072815,,,
729607873.989909,-1.458517,1.58504,28.176293,-0.031418,-0.029861,0.975815,-0.09356,-0.005915,0.074433,65.783264,18.734436,-149.072815,,,
729607873.993317,-1.458517,1.58504,28.176293,-0.031418,-0.029861,0.975815,-0.09356,-0.005915,0.074433,65.783264,18.734436,-149.072815,,,
729607873.996641,-1.487644,1.586215,28.199239,-0.032608,-0.036942,0.981506,-0.101726,-0.002218,0.076639,65.783264,18.734436,-149.072815,,,
729607873.999906,-1.51627,1.58561,28.222508,-0.032608,-0.036942,0.981506,-0.101726,-0.002218,0.076639,65.783264,18.734436,-149.072815,,,
729607874.003254,-1.51627,1.58561,28.222508,-0.032608,-0.036942,0.981506,-0.101726,-0.002218,0.076639,65.783264,18.734436,-149.072815,,,
729607874.006654,-1.544987,1.587273,28.246404,-0.028641,-0.039734,0.987991,-0.097072,0.001885,0.07848,65.50264,19.089554,-149.250687,,,
729607874.009893,-1.572524,1.587721,28.270108,-0.028641,-0.039734,0.987991,-0.097072,0.001885,0.07848,65.50264,19.089554,-149.250687,,,
729607874.013295,-1.572524,1.587721,28.270108,-0.028641,-0.039734,0.987991,-0.097072,0.001885,0.07848,65.50264,19.089554,-149.250687,,,
729607874.016575,-1.599247,1.591691,28.293556,-0.025787,-0.041931,0.9935,-0.090493,0.015859,0.074289,65.50264,19.089554,-149.250687,,,
729607874.019916,-1.623845,1.5959,28.315731,-0.025787,-0.041931,0.9935,-0.090493,0.015859,0.074289,65.50264,19.089554,-149.250687,,,
729607874.02326,-1.623845,1.5959,28.315731,-0.025787,-0.041931,0.9935,-0.090493,0.015859,0.074289,65.50264,19.089554,-149.250687,,,
729607874.026625,-1.647725,1.601974,28.336712,-0.023315,-0.040436,0.996948,-0.077749,0.021634,0.064968,65.50264,19.089554,-149.250687,,,
729607874.030024,-1.669436,1.607379,28.356089,-0.023315,-0.040436,0.996948,-0.077749,0.021634,0.064968,65.50264,19.089554,-149.250687,,,
729607874.033261,-1.669436,1.607379,28.356089,-0.023315,-0.040436,0.996948,-0.077749,0.021634,0.064968,65.50264,19.089554,-149.250687,,,
729607874.03661,-1.68909,1.612903,28.373707,-0.020844,-0.033691,0.994843,-0.065442,0.020943,0.053392,65.50264,19.089554,-149.250687,,,
729607874.039905,-1.706543,1.617721,28.389554,-0.020844,-0.033691,0.994843,-0.065442,0.020943,0.053392,65.50264,19.089554,-149.250687,,,
729607874.043309,-1.706543,1.617721,28.389554,-0.020844,-0.033691,0.994843,-0.065442,0.020943,0.053392,65.50264,19.089554,-149.250687,,,
729607874.046622,-1.721925,1.620641,28.403295,-0.017151,-0.029083,0.994308,-0.050317,0.006825,0.039138,65.366592,19.338257,-149.362671,,,
729607874.049903,-1.73553,1.621255,28.414483,-0.017151,-0.029083,0.994308,-0.050317,0.006825,0.039138,65.366592,19.338257,-149.362671,,,
729607874.053251,-1.73553,1.621255,28.414483,-0.017151,-0.029083,0.994308,-0.050317,0.006825,0.039138,65.366592,19.338257,-149.362671,,,
729607874.05667,-1.746833,1.619427,28.422222,-0.011932,-0.021439,0.993286,-0.042502,-0.011457,0.018185,65.366592,19.338257,-149.362671,,,
729607874.059914,-1.758861,1.615357,28.426709,-0.011932,-0.021439,0.993286,-0.042502,-0.011457,0.018185,65.366592,19.338257,-149.362671,,,
729607874.063292,-1.758861,1.615357,28.426709,-0.011932,-0.021439,0.993286,-0.042502,-0.011457,0.018185,65.366592,19.338257,-149.362671,,,
729607874.066579,-1.771425,1.61009,28.428016,-0.00647,-0.01416,0.986313,-0.048104,-0.018962,-0.007375,65.366592,19.338257,-149.362671,,,
729607874.069908,-1.785943,1.604189,28.426259,-0.00647,-0.01416,0.986313,-0.048104,-0.018962,-0.007375,65.366592,19.338257,-149.362671,,,
729607874.073257,-1.785943,1.604189,28.426259,-0.00647,-0.01416,0.986313,-0.048104,-0.018962,-0.007375,65.366592,19.338257,-149.362671,,,
729607874.076603,-1.803182,1.599369,28.422363,-0.007019,-0.005737,0.988174,-0.060275,-0.015224,-0.019875,65.366592,19.338257,-149.362671,,,
729607874.079949,-1.821788,1.594595,28.417414,-0.007019,-0.005737,0.988174,-0.060275,-0.015224,-0.019875,65.366592,19.338257,-149.362671,,,
729607874.083235,-1.821788,1.594595,28.417414,-0.007019,-0.005737,0.988174,-0.060275,-0.015224,-0.019875,65.366592,19.338257,-149.362671,,,
729607874.086579,-1.843228,1.591584,28.412543,-0.010803,-9.2e-05,0.9935,-0.07319,-0.002875,-0.015594,65.366592,19.338257,-149.362671,,,
729607874.089987,-1.865394,1.589197,28.409111,-0.010803,-9.2e-05,0.9935,-0.07319,-0.002875,-0.015594,65.553162,19.404907,-149.185623,,,
729607874.093344,-1.865394,1.589197,28.409111,-0.010803,-9.2e-05,0.9935,-0.07319,-0.002875,-0.015594,65.553162,19.404907,-149.185623,,,
729607874.096652,-1.889682,1.586188,28.407105,-0.021545,-0.009109,0.997696,-0.085256,-0.01124,-0.006164,65.553162,19.404907,-149.185623,,,
729607874.099901,-1.914259,1.581979,28.406046,-0.021545,-0.009109,0.997696,-0.085256,-0.01124,-0.006164,65.553162,19.404907,-149.185623,,,
729607874.103271,-1.914259,1.581979,28.406046,-0.021545,-0.009109,0.997696,-0.085256,-0.01124,-0.006164,65.553162,19.404907,-149.185623,,,
729607874.106579,-1.939409,1.576562,28.404786,-0.027725,-0.018799,0.998657,-0.079809,-0.016196,-0.011378,65.553162,19.404907,-149.185623,,,
729607874.109912,-1.961172,1.570107,28.401571,-0.027725,-0.018799,0.998657,-0.079809,-0.016196,-0.011378,65.553162,19.404907,-149.185623,,,
729607874.113317,-1.961172,1.570107,28.401571,-0.027725,-0.018799,0.998657,-0.079809,-0.016196,-0.011378,65.553162,19.404907,-149.185623,,,
729607874.116617,-1.979091,1.561341,28.395001,-0.026917,-0.024048,1.016571,-0.044578,-0.024327,-0.036719,65.553162,19.404907,-149.185623,,,
729607874.119929,-1.991462,1.552684,28.384283,-0.026917,-0.024048,1.016571,-0.044578,-0.024327,-0.036719,65.553162,19.404907,-149.185623,,,
729607874.123278,-1.991462,1.552684,28.384283,-0.026917,-0.024048,1.016571,-0.044578,-0.024327,-0.036719,65.553162,19.404907,-149.185623,,,
729607874.12661,-1.997081,1.542915,28.369584,-0.022247,-0.031265,1.027878,-0.001447,-0.022543,-0.063944,65.553162,19.404907,-149.185623,,,
729607874.129942,-1.997204,1.534515,28.351694,-0.022247,-0.031265,1.027878,-0.001447,-0.022543,-0.063944,65.444305,19.379166,-149.060638,,,
729607874.133213,-1.997204,1.534515,28.351694,-0.022247,-0.031265,1.027878,-0.001447,-0.022543,-0.063944,65.444305,19.379166,-149.060638,,,
729607874.136606,-1.990611,1.524686,28.331601,-0.024002,-0.038055,1.031509,0.037279,-0.021176,-0.070184,65.444305,19.379166,-149.060638,,,
729607874.139958,-1.979764,1.517353,28.310458,-0.024002,-0.038055,1.031509,0.037279,-0.021176,-0.070184,65.444305,19.379166,-149.060638,,,
729607874.14327,-1.979764,1.517353,28.310458,-0.024002,-0.038055,1.031509,0.037279,-0.021176,-0.070184,65.444305,19.379166,-149.060638,,,
729607874.146655,-1.961514,1.50815,28.289122,-0.027954,-0.044113,1.034927,0.069126,-0.016082,-0.073371,65.444305,19.379166,-149.060638,,,
729607874.149946,-1.941201,1.502233,28.268143,-0.027954,-0.044113,1.034927,0.069126,-0.016082,-0.073371,65.444305,19.379166,-149.060638,,,
729607874.153279,-1.941201,1.502233,28.268143,-0.027954,-0.044113,1.034927,0.069126,-0.016082,-0.073371,65.444305,19.379166,-149.060638,,,
729607874.156681,-1.91506,1.494055,28.247048,-0.026474,-0.041351,1.025681,0.084205,-0.012711,-0.073483,65.444305,19.379166,-149.060638,,,
729607874.159954,-1.89137,1.488928,28.226031,-0.026474,-0.041351,1.025681,0.084205,-0.012711,-0.073483,65.444305,19.379166,-149.060638,,,
729607874.163312,-1.89137,1.488928,28.226031,-0.026474,-0.041351,1.025681,0.084205,-0.012711,-0.073483,65.444305,19.379166,-149.060638,,,
729607874.166582,-1.862047,1.482549,28.204355,-0.024261,-0.033524,1.016113,0.091423,-0.006365,-0.076349,65.444305,19.379166,-149.060638,,,
729607874.169909,-1.836605,1.47967,28.1816,-0.024261,-0.033524,1.016113,0.091423,-0.006365,-0.076349,65.521393,19.271744,-149.072952,,,
729607874.173266,-1.836605,1.47967,28.1816,-0.024261,-0.033524,1.016113,0.091423,-0.006365,-0.076349,65.521393,19.271744,-149.072952,,,
729607874.176596,-1.807418,1.476665,28.158251,-0.021072,-0.025391,1.010178,0.089722,0.000646,-0.079593,65.521393,19.271744,-149.072952,,,
729607874.179929,-1.782118,1.475522,28.134872,-0.021072,-0.025391,1.010178,0.089722,0.000646,-0.079593,65.521393,19.271744,-149.072952,,,
729607874.183272,-1.782118,1.475522,28.134872,-0.021072,-0.025391,1.010178,0.089722,0.000646,-0.079593,65.521393,19.271744,-149.072952,,,
729607874.186585,-1.753354,1.475175,28.111183,-0.018372,-0.020523,1.005188,0.096171,0.007325,-0.083918,65.521393,19.271744,-149.072952,,,
729607874.189908,-1.725394,1.47546,28.086835,-0.018372,-0.020523,1.005188,0.096171,0.007325,-0.083918,65.521393,19.271744,-149.072952,,,
729607874.193239,-1.725394,1.47546,28.086835,-0.018372,-0.020523,1.005188,0.096171,0.007325,-0.083918,65.521393,19.271744,-149.072952,,,
729607874.196648,-1.695344,1.475949,28.062038,-0.01474,-0.020004,1.007736,0.104854,0.00676,-0.083958,65.521393,19.271744,-149.072952,,,
729607874.199903,-1.666185,1.475923,28.037205,-0.01474,-0.020004,1.007736,0.104854,0.00676,-0.083958,65.521393,19.271744,-149.072952,,,
729607874.203314,-1.666185,1.475923,28.037205,-0.01474,-0.020004,1.007736,0.104854,0.00676,-0.083958,65.521393,19.271744,-149.072952,,,
729607874.206649,-1.636694,1.476017,28.012473,-0.012329,-0.016937,1.002319,0.10501,0.008571,-0.083038,65.521393,19.271744,-149.072952,,,
729607874.209904,-1.607178,1.477402,27.987802,-0.012329,-0.016937,1.002319,0.10501,0.008571,-0.083038,65.499466,18.826447,-149.042969,,,
729607874.213287,-1.607178,1.477402,27.987802,-0.012329,-0.016937,1.002319,0.10501,0.008571,-0.083038,65.499466,18.826447,-149.042969,,,
729607874.216577,-1.578207,1.479185,27.963008,-0.011505,-0.015244,0.998306,0.111244,0.016647,-0.086673,65.499466,18.826447,-149.042969,,,
729607874.219964,-1.547361,1.482191,27.937754,-0.011505,-0.015244,0.998306,0.111244,0.016647,-0.086673,65.499466,18.826447,-149.042969,,,
729607874.223246,-1.547361,1.482191,27.937754,-0.011505,-0.015244,0.998306,0.111244,0.016647,-0.086673,65.499466,18.826447,-149.042969,,,
729607874.226508,-1.517342,1.485341,27.912063,-0.011627,-0.015472,1.000397,0.114462,0.017883,-0.091027,65.499466,18.826447,-149.042969,,,
729607874.229982,-1.484339,1.489125,27.885487,-0.011627,-0.015472,1.000397,0.114462,0.017883,-0.091027,65.499466,18.826447,-149.042969,,,
729607874.233258,-1.484339,1.489125,27.885487,-0.011627,-0.015472,1.000397,0.114462,0.017883,-0.091027,65.499466,18.826447,-149.042969,,,
729607874.236575,-1.452505,1.49493,27.857956,-0.011826,-0.01651,1.000671,0.121815,0.027756,-0.094613,65.499466,18.826447,-149.042969,,,
729607874.239997,-1.418147,1.501793,27.830312,-0.011826,-0.01651,1.000671,0.121815,0.027756,-0.094613,65.499466,18.826447,-149.042969,,,
729607874.24331,-1.418147,1.501793,27.830312,-0.011826,-0.01651,1.000671,0.121815,0.027756,-0.094613,65.499466,18.826447,-149.042969,,,
729607874.246626,-1.38478,1.508594,27.802713,-0.015411,-0.019058,1.002548,0.123437,0.033224,-0.093505,65.499466,18.826447,-149.042969,,,
729607874.249908,-1.349925,1.515981,27.775566,-0.015411,-0.019058,1.002548,0.123437,0.033224,-0.093505,65.499466,18.826447,-149.042969,,,
729607874.253243,-1.349925,1.515981,27.775566,-0.015411,-0.019058,1.002548,0.123437,0.033224,-0.093505,65.545746,18.520645,-149.134888,,,
729607874.256644,-1.316152,1.524527,27.749362,-0.020844,-0.024429,0.999008,0.117017,0.040356,-0.085873,65.545746,18.520645,-149.134888,,,
729607874.259898,-1.282899,1.535036,27.723388,-0.020844,-0.024429,0.999008,0.117017,0.040356,-0.085873,65.545746,18.520645,-149.134888,,,
729607874.263303,-1.282899,1.535036,27.723388,-0.020844,-0.024429,0.999008,0.117017,0.040356,-0.085873,65.545746,18.520645,-149.134888,,,
729607874.266565,-1.250587,1.544385,27.696822,-0.023758,-0.026154,0.997696,0.111577,0.039647,-0.093154,65.545746,18.520645,-149.134888,,,
729607874.269917,-1.219826,1.554298,27.669112,-0.023758,-0.026154,0.997696,0.111577,0.039647,-0.093154,65.545746,18.520645,-149.134888,,,
729607874.273253,-1.219826,1.554298,27.669112,-0.023758,-0.026154,0.997696,0.111577,0.039647,-0.093154,65.545746,18.520645,-149.134888,,,
729607874.27658,-1.190712,1.562515,27.640343,-0.026703,-0.026627,0.992554,0.099043,0.038936,-0.101066,65.545746,18.520645,-149.134888,,,
729607874.280033,-1.162975,1.572351,27.611681,-0.026703,-0.026627,0.992554,0.099043,0.038936,-0.101066,65.545746,18.520645,-149.134888,,,
729607874.283245,-1.162975,1.572351,27.611681,-0.026703,-0.026627,0.992554,0.099043,0.038936,-0.101066,65.545746,18.520645,-149.134888,,,
729607874.286582,-1.137658,1.580913,27.584298,-0.032455,-0.030716,0.994324,0.081617,0.044178,-0.091203,65.545746,18.520645,-149.134888,,,
729607874.289941,-1.115378,1.592841,27.55883,-0.032455,-0.030716,0.994324,0.081617,0.044178,-0.091203,65.545746,18.520645,-149.134888,,,
729607874.293311,-1.115378,1.592841,27.55883,-0.032455,-0.030716,0.994324,0.081617,0.044178,-0.091203,65.720413,18.364227,-149.329758,,,
729607874.296647,-1.094728,1.604343,27.535509,-0.041199,-0.037064,0.994232,0.067973,0.055472,-0.074158,65.720413,18.364227,-149.329758,,,
729607874.299661,-1.094728,1.604343,27.535509,-0.041199,-0.037064,0.994232,0.067973,0.055472,-0.074158,65.720413,18.364227,-149.329758,,,
729607874.303298,-1.075983,1.619174,27.51454,-0.041199,-0.037064,0.994232,0.067973,0.055472,-0.074158,65.720413,18.364227,-149.329758,,,
729607874.306643,-1.056953,1.632739,27.495442,-0.04158,-0.038849,0.995758,0.064039,0.06001,-0.061302,65.720413,18.364227,-149.329758,,,
729607874.309995,-1.038517,1.648774,27.477652,-0.04158,-0.038849,0.995758,0.064039,0.06001,-0.061302,65.720413,18.364227,-149.329758,,,
729607874.313285,-1.038517,1.648774,27.477652,-0.04158,-0.038849,0.995758,0.064039,0.06001,-0.061302,65.720413,18.364227,-149.329758,,,
729607874.316574,-1.01916,1.663108,27.459332,-0.036804,-0.033585,1.000763,0.070344,0.06195,-0.063536,65.720413,18.364227,-149.329758,,,
729607874.319982,-0.999762,1.680153,27.439889,-0.036804,-0.033585,1.000763,0.070344,0.06195,-0.063536,65.720413,18.364227,-149.329758,,,
729607874.323237,-0.999762,1.680153,27.439889,-0.036804,-0.033585,1.000763,0.070344,0.06195,-0.063536,65.720413,18.364227,-149.329758,,,
729607874.326581,-0.979932,1.695566,27.419868,-0.035858,-0.028336,1.000671,0.074742,0.065217,-0.069812,65.720413,18.364227,-149.329758,,,
729607874.329994,-0.958925,1.712855,27.399101,-0.035858,-0.028336,1.000671,0.074742,0.065217,-0.069812,65.720413,18.364227,-149.329758,,,
729607874.333236,-0.958925,1.712855,27.399101,-0.035858,-0.028336,1.000671,0.074742,0.065217,-0.069812,65.786377,18.321274,-149.225876,,,
729607874.33658,-0.93746,1.726653,27.377745,-0.037521,-0.02829,1.001404,0.08476,0.050629,-0.074981,65.786377,18.321274,-149.225876,,,
729607874.339963,-0.93746,1.738674,27.356517,-0.037521,-0.02829,1.001404,0.08476,0.050629,-0.074981,65.786377,18.321274,-149.225876,,,
729607874.343323,-0.914209,1.738674,27.356517,-0.037521,-0.02829,1.001404,0.08476,0.050629,-0.074981,65.786377,18.321274,-149.225876,,,
729607874.34661,-0.891691,1.74562,27.335254,-0.034103,-0.029236,0.995941,0.086248,0.019439,-0.071722,65.786377,18.321274,-149.225876,,,
729607874.349902,-0.891691,1.74562,27.335254,-0.034103,-0.029236,0.995941,0.086248,0.019439,-0.071722,65.786377,18.321274,-149.225876,,,
729607874.353238,-0.867749,1.750118,27.314218,-0.034103,-0.029236,0.995941,0.086248,0.019439,-0.071722,65.786377,18.321274,-149.225876,,,
729607874.356572,-0.845587,1.75217,27.292724,-0.029099,-0.026901,0.993118,0.086574,0.013469,-0.077319,65.786377,18.321274,-149.225876,,,
729607874.359833,-0.845587,1.75217,27.292724,-0.029099,-0.026901,0.993118,0.086574,0.013469,-0.077319,65.786377,18.321274,-149.225876,,,
729607874.363314,-0.822238,1.754221,27.269841,-0.029099,-0.026901,0.993118,0.086574,0.013469,-0.077319,65.786377,18.321274,-149.225876,,,
729607874.366565,-0.801127,1.755922,27.245784,-0.021164,-0.018906,1.00029,0.08179,0.012058,-0.087247,65.786377,18.321274,-149.225876,,,
729607874.369988,-0.801127,1.755922,27.220681,-0.021164,-0.018906,1.00029,0.08179,0.012058,-0.087247,65.786377,18.321274,-149.225876,,,
729607874.37322,-0.778359,1.75807,27.220681,-0.021164,-0.018906,1.00029,0.08179,0.012058,-0.087247,65.792801,18.021652,-149.168137,,,
729607874.376574,-0.7592,1.762367,27.195109,-0.018967,-0.017227,0.999893,0.080902,0.018301,-0.088679,65.792801,18.021652,-149.168137,,,
729607874.379731,-0.7592,1.762367,27.195109,-0.018967,-0.017227,0.999893,0.080902,0.018301,-0.088679,65.792801,18.021652,-149.168137,,,
729607874.383262,-0.737225,1.767689,27.169927,-0.018967,-0.017227,0.999893,0.080902,0.018301,-0.088679,65.792801,18.021652,-149.168137,,,
729607874.38657,-0.718219,1.777627,27.14592,-0.023438,-0.018631,1.00351,0.083829,0.043224,-0.07858,65.792801,18.021652,-149.168137,,,
729607874.389913,-0.718219,1.777627,27.14592,-0.023438,-0.018631,1.00351,0.083829,0.043224,-0.07858,65.792801,18.021652,-149.168137,,,
729607874.393295,-0.695525,1.788914,27.12342,-0.023438,-0.018631,1.00351,0.083829,0.043224,-0.07858,65.792801,18.021652,-149.168137,,,
729607874.396607,-0.675226,1.802263,27.102316,-0.018173,-0.02066,1.006561,0.088011,0.048242,-0.06876,65.792801,18.021652,-149.168137,,,
729607874.3999,-0.675226,1.802263,27.102316,-0.018173,-0.02066,1.006561,0.088011,0.048242,-0.06876,65.792801,18.021652,-149.168137,,,
729607874.403247,-0.650337,1.815243,27.082096,-0.018173,-0.02066,1.006561,0.088011,0.048242,-0.06876,65.792801,18.021652,-149.168137,,,
729607874.406581,-0.627192,1.829993,27.061938,-0.01384,-0.014008,0.99649,0.090513,0.052816,-0.073364,65.792801,18.021652,-149.168137,,,
729607874.409915,-0.627192,1.829993,27.061938,-0.01384,-0.014008,0.99649,0.090513,0.052816,-0.073364,65.792801,18.021652,-149.168137,,,
729607874.413292,-0.602238,1.844473,27.040811,-0.01384,-0.014008,0.99649,0.090513,0.052816,-0.073364,65.792801,18.021652,-149.168137,,,
729607874.416566,-0.581961,1.858182,27.018115,-0.012787,-0.003937,0.985153,0.07691,0.043449,-0.08348,65.880219,17.842316,-149.096695,,,
729607874.419975,-0.581961,1.858182,27.018115,-0.012787,-0.003937,0.985153,0.07691,0.043449,-0.08348,65.880219,17.842316,-149.096695,,,
729607874.423245,-0.561622,1.869013,26.994234,-0.012787,-0.003937,0.985153,0.07691,0.043449,-0.08348,65.880219,17.842316,-149.096695,,,
729607874.426586,-0.546373,1.877589,26.968402,-0.00943,0.005722,0.972427,0.060188,0.025732,-0.09485,65.880219,17.842316,-149.096695,,,
729607874.429957,-0.546373,1.877589,26.968402,-0.00943,0.005722,0.972427,0.060188,0.025732,-0.09485,65.880219,17.842316,-149.096695,,,
729607874.433235,-0.530857,1.883728,26.940563,-0.00943,0.005722,0.972427,0.060188,0.025732,-0.09485,65.880219,17.842316,-149.096695,,,
729607874.436579,-0.520579,1.888275,26.911848,-0.011749,0.012024,0.972153,0.042876,0.015798,-0.103445,65.880219,17.842316,-149.096695,,,
729607874.439914,-0.520579,1.888275,26.911848,-0.011749,0.012024,0.972153,0.042876,0.015798,-0.103445,65.880219,17.842316,-149.096695,,,
729607874.443321,-0.509816,1.891548,26.88289,-0.011749,0.012024,0.972153,0.042876,0.015798,-0.103445,65.880219,17.842316,-149.096695,,,
729607874.446625,-0.502465,1.891899,26.85416,-0.015442,0.007324,0.973206,0.030897,0.004873,-0.099403,65.880219,17.842316,-149.096695,,,
729607874.449905,-0.502465,1.891899,26.85416,-0.015442,0.007324,0.973206,0.030897,0.004873,-0.099403,65.880219,17.842316,-149.096695,,,
729607874.453268,-0.49473,1.892167,26.825883,-0.015442,0.007324,0.973206,0.030897,0.004873,-0.099403,65.880219,17.842316,-149.096695,,,
729607874.456576,-0.488993,1.889643,26.798583,-0.019379,-0.002579,0.974487,0.022518,0.000972,-0.094799,65.874039,17.704544,-148.605057,,,
729607874.459913,-0.488993,1.889643,26.798583,-0.019379,-0.002579,0.974487,0.022518,0.000972,-0.094799,65.874039,17.704544,-148.605057,,,
729607874.463316,-0.483913,1.888954,26.771968,-0.019379,-0.002579,0.974487,0.022518,0.000972,-0.094799,65.874039,17.704544,-148.605057,,,
729607874.466569,-0.481578,1.887541,26.745307,-0.020325,-0.004868,0.978577,0.016072,0.007559,-0.091753,65.874039,17.704544,-148.605057,,,
729607874.469982,-0.481578,1.887541,26.745307,-0.020325,-0.004868,0.978577,0.016072,0.007559,-0.091753,65.874039,17.704544,-148.605057,,,
729607874.473251,-0.478687,1.889175,26.719004,-0.020325,-0.004868,0.978577,0.016072,0.007559,-0.091753,65.874039,17.704544,-148.605057,,,
729607874.476568,-0.477924,1.892317,26.693716,-0.025833,-0.004105,0.986069,0.013804,0.031944,-0.084483,65.874039,17.704544,-148.605057,,,
729607874.479959,-0.477924,1.892317,26.693716,-0.025833,-0.004105,0.986069,0.013804,0.031944,-0.084483,65.874039,17.704544,-148.605057,,,
729607874.483233,-0.475657,1.900417,26.670167,-0.025833,-0.004105,0.986069,0.013804,0.031944,-0.084483,65.874039,17.704544,-148.605057,,,
729607874.486578,-0.474426,1.909012,26.648592,-0.036713,-0.003708,0.993973,0.008453,0.048586,-0.068542,65.874039,17.704544,-148.605057,,,
729607874.489929,-0.474426,1.909012,26.648592,-0.036713,-0.003708,0.993973,0.008453,0.048586,-0.068542,65.874039,17.704544,-148.605057,,,
729607874.493317,-0.471879,1.921587,26.629902,-0.036713,-0.003708,0.993973,0.008453,0.048586,-0.068542,65.874039,17.704544,-148.605057,,,
729607874.496614,-0.469725,1.933056,26.614731,-0.045135,-0.005035,0.988647,0.008355,0.056888,-0.047901,66.121002,17.761688,-148.950195,,,
729607874.499909,-0.469725,1.933056,26.614731,-0.045135,-0.005035,0.988647,0.008355,0.056888,-0.047901,66.121002,17.761688,-148.950195,,,
729607874.503264,-0.468179,1.948939,26.602237,-0.045135,-0.005035,0.988647,0.008355,0.056888,-0.047901,66.121002,17.761688,-148.950195,,,
729607874.506571,-0.465955,1.963224,26.592139,-0.048767,-0.005569,0.985809,0.001862,0.059837,-0.031999,66.121002,17.761688,-148.950195,,,
729607874.509932,-0.465955,1.963224,26.592139,-0.048767,-0.005569,0.985809,0.001862,0.059837,-0.031999,66.121002,17.761688,-148.950195,,,
729607874.51327,-0.46565,1.979579,26.584582,-0.048767,-0.005569,0.985809,0.001862,0.059837,-0.031999,66.121002,17.761688,-148.950195,,,
729607874.5166,-0.463823,1.991877,26.578897,-0.052124,-0.006622,0.983368,0.000933,0.050276,-0.017908,66.121002,17.761688,-148.950195,,,
729607874.519987,-0.463823,1.991877,26.578897,-0.052124,-0.006622,0.983368,0.000933,0.050276,-0.017908,66.121002,17.761688,-148.950195,,,
729607874.523254,-0.464616,2.004955,26.57463,-0.052124,-0.006622,0.983368,0.000933,0.050276,-0.017908,66.121002,17.761688,-148.950195,,,
729607874.526573,-0.463649,2.013393,26.571284,-0.051559,-0.00174,0.981583,-0.000206,0.032372,-0.012106,66.121002,17.761688,-148.950195,,,
729607874.52998,-0.463649,2.013393,26.571284,-0.051559,-0.00174,0.981583,-0.000206,0.032372,-0.012106,66.121002,17.761688,-148.950195,,,
729607874.533236,-0.464673,2.020584,26.568358,-0.051559,-0.00174,0.981583,-0.000206,0.032372,-0.012106,66.121002,17.761688,-148.950195,,,
729607874.536601,-0.465175,2.02215,26.565235,-0.047729,0.003403,0.979248,-0.0077,0.004486,-0.016686,66.121002,17.761688,-148.950195,,,
729607874.539907,-0.465175,2.02215,26.565235,-0.047729,0.003403,0.979248,-0.0077,0.004486,-0.016686,66.175385,17.457214,-149.073471,,,
729607874.543314,-0.467542,2.021118,26.561205,-0.047729,0.003403,0.979248,-0.0077,0.004486,-0.016686,66.175385,17.457214,-149.073471,,,
729607874.546637,-0.471244,2.015446,26.555756,-0.045761,0.008423,0.976196,-0.01734,-0.018258,-0.024242,66.175385,17.457214,-149.073471,,,
729607874.549901,-0.471244,2.015446,26.555756,-0.045761,0.008423,0.976196,-0.01734,-0.018258,-0.024242,66.175385,17.457214,-149.073471,,,
729607874.553234,-0.476931,2.009423,26.549726,-0.045761,0.008423,0.976196,-0.01734,-0.018258,-0.024242,66.175385,17.457214,-149.073471,,,
729607874.556572,-0.483188,2.002214,26.544295,-0.045883,0.008224,0.982315,-0.027,-0.019621,-0.019091,66.175385,17.457214,-149.073471,,,
729607874.559957,-0.483188,2.002214,26.544295,-0.045883,0.008224,0.982315,-0.027,-0.019621,-0.019091,66.175385,17.457214,-149.073471,,,
729607874.56331,-0.490905,1.996162,26.53986,-0.045883,0.008224,0.982315,-0.027,-0.019621,-0.019091,66.175385,17.457214,-149.073471,,,
729607874.566564,-0.498867,1.990845,26.537584,-0.046051,0.002991,0.991119,-0.027132,-0.012864,-0.002667,66.175385,17.457214,-149.073471,,,
729607874.569906,-0.498867,1.990845,26.537584,-0.046051,0.002991,0.991119,-0.027132,-0.012864,-0.002667,66.175385,17.457214,-149.073471,,,
729607874.573343,-0.506706,1.986656,26.537961,-0.046051,0.002991,0.991119,-0.027132,-0.012864,-0.002667,66.175385,17.457214,-149.073471,,,
729607874.576573,-0.514349,1.984722,26.540881,-0.045792,-0.001755,0.99968,-0.027331,-0.000888,0.013473,66.175385,17.457214,-149.073471,,,
729607874.579955,-0.514349,1.984722,26.540881,-0.045792,-0.001755,0.99968,-0.027331,-0.000888,0.013473,66.335556,17.790802,-149.244492,,,
729607874.583242,-0.522829,1.984755,26.545889,-0.045792,-0.001755,0.99968,-0.027331,-0.000888,0.013473,66.335556,17.790802,-149.244492,,,
729607874.586582,-0.532135,1.98864,26.551974,-0.044647,-0.001678,1.003113,-0.035601,0.019578,0.021753,66.335556,17.790802,-149.244492,,,
729607874.589918,-0.532135,1.98864,26.551974,-0.044647,-0.001678,1.003113,-0.035601,0.019578,0.021753,66.335556,17.790802,-149.244492,,,
729607874.593258,-0.542656,1.99398,26.558642,-0.044647,-0.001678,1.003113,-0.035601,0.019578,0.021753,66.335556,17.790802,-149.244492,,,
729607874.596705,-0.554113,2.002582,26.565666,-0.04274,-0.000702,1.002289,-0.04322,0.029215,0.023142,66.335556,17.790802,-149.244492,,,
729607874.599899,-0.554113,2.002582,26.565666,-0.04274,-0.000702,1.002289,-0.04322,0.029215,0.023142,66.335556,17.790802,-149.244492,,,
729607874.603274,-0.567111,2.010476,26.572933,-0.04274,-0.000702,1.002289,-0.04322,0.029215,0.023142,66.335556,17.790802,-149.244492,,,
729607874.606572,-0.579857,2.020186,26.580738,-0.043091,-1.5e-05,0.999466,-0.045924,0.029888,0.023883,66.335556,17.790802,-149.244492,,,
729607874.610002,-0.579857,2.020186,26.580738,-0.043091,-1.5e-05,0.999466,-0.045924,0.029888,0.023883,66.335556,17.790802,-149.244492,,,
729607874.613295,-0.592383,2.02705,26.58888,-0.043091,-1.5e-05,0.999466,-0.045924,0.029888,0.023883,66.335556,17.790802,-149.244492,,,
729607874.616568,-0.602503,2.035297,26.597342,-0.04158,-0.001831,0.999191,-0.040118,0.025662,0.026938,66.335556,17.790802,-149.244492,,,
729607874.619902,-0.602503,2.035297,26.597342,-0.04158,-0.001831,0.999191,-0.040118,0.025662,0.026938,66.398209,17.740921,-149.179489,,,
729607874.623304,-0.613678,2.041831,26.60591,-0.04158,-0.001831,0.999191,-0.040118,0.025662,0.026938,66.398209,17.740921,-149.179489,,,
729607874.626561,-0.62097,2.050049,26.614056,-0.037872,-0.00647,0.999786,-0.02756,0.026227,0.0257,66.398209,17.740921,-149.179489,,,
729607874.62998,-0.62097,2.050049,26.614056,-0.037872,-0.00647,0.999786,-0.02756,0.026227,0.0257,66.398209,17.740921,-149.179489,,,
729607874.633284,-0.628777,2.057257,26.621679,-0.037872,-0.00647,0.999786,-0.02756,0.026227,0.0257,66.398209,17.740921,-149.179489,,,
729607874.636685,-0.632128,2.067216,26.628444,-0.02948,-0.010712,1.000977,-0.014928,0.036318,0.017381,66.398209,17.740921,-149.179489,,,
729607874.639914,-0.632128,2.067216,26.628444,-0.02948,-0.010712,1.000977,-0.014928,0.036318,0.017381,66.398209,17.740921,-149.179489,,,
729607874.643221,-0.636286,2.077096,26.634098,-0.02948,-0.010712,1.000977,-0.014928,0.036318,0.017381,66.398209,17.740921,-149.179489,,,
729607874.646646,-0.636327,2.089514,26.638597,-0.020996,-0.011322,0.999817,-0.002205,0.046058,0.009366,66.398209,17.740921,-149.179489,,,
729607874.649913,-0.636327,2.089514,26.638597,-0.020996,-0.011322,0.999817,-0.002205,0.046058,0.009366,66.398209,17.740921,-149.179489,,,
729607874.65324,-0.636933,2.102222,26.641944,-0.020996,-0.011322,0.999817,-0.002205,0.046058,0.009366,66.398209,17.740921,-149.179489,,,
729607874.656417,-0.634975,2.11833,26.64374,-0.019516,-0.009186,0.999725,0.006091,0.05919,0.004285,66.398209,17.740921,-149.179489,,,
729607874.659892,-0.634975,2.11833,26.64374,-0.019516,-0.009186,0.999725,0.006091,0.05919,0.004285,66.302521,17.716949,-148.945587,,,
729607874.66333,-0.633663,2.134438,26.644482,-0.019516,-0.009186,0.999725,0.006091,0.05919,0.004285,66.302521,17.716949,-148.945587,,,
729607874.666602,-0.630653,2.152608,26.645067,-0.019257,-0.009094,0.992661,0.008113,0.065487,-2.7e-05,66.302521,17.716949,-148.945587,,,
729607874.669913,-0.630653,2.152608,26.645067,-0.019257,-0.009094,0.992661,0.008113,0.065487,-2.7e-05,66.302521,17.716949,-148.945587,,,
729607874.673282,-0.628552,2.171265,26.64566,-0.019257,-0.009094,0.992661,0.008113,0.065487,-2.7e-05,66.302521,17.716949,-148.945587,,,
729607874.676644,-0.6248,2.192399,26.647093,-0.026428,-0.015869,0.991592,0.008345,0.079565,0.005265,66.302521,17.716949,-148.945587,,,
729607874.679957,-0.6248,2.192399,26.647093,-0.026428,-0.015869,0.991592,0.008345,0.079565,0.005265,66.302521,17.716949,-148.945587,,,
729607874.683253,-0.621822,2.21409,26.649274,-0.026428,-0.015869,0.991592,0.008345,0.079565,0.005265,66.302521,17.716949,-148.945587,,,
729607874.686575,-0.616387,2.235737,26.651925,-0.03302,-0.019089,0.990601,0.014909,0.072275,0.007072,66.302521,17.716949,-148.945587,,,
729607874.689913,-0.616387,2.235737,26.651925,-0.03302,-0.019089,0.990601,0.014909,0.072275,0.007072,66.302521,17.716949,-148.945587,,,
729607874.693233,-0.611412,2.254986,26.654406,-0.03302,-0.019089,0.990601,0.014909,0.072275,0.007072,66.302521,17.716949,-148.945587,,,
729607874.696622,-0.604923,2.272587,26.655398,-0.035828,-0.016006,0.985825,0.017998,0.056626,-0.0017,66.302521,17.716949,-148.945587,,,
729607874.699977,-0.604923,2.272587,26.655398,-0.035828,-0.016006,0.985825,0.017998,0.056626,-0.0017,66.302521,17.716949,-148.945587,,,
729607874.703235,-0.600903,2.287762,26.654318,-0.035828,-0.016006,0.985825,0.017998,0.056626,-0.0017,66.437851,17.95163,-149.133209,,,
729607874.706583,-0.59835,2.301052,26.650652,-0.029556,-0.004196,0.983459,0.003848,0.0418,-0.021576,66.437851,17.95163,-149.133209,,,
729607874.709907,-0.59835,2.301052,26.650652,-0.029556,-0.004196,0.983459,0.003848,0.0418,-0.021576,66.437851,17.95163,-149.133209,,,
729607874.713287,-0.599166,2.312214,26.644048,-0.029556,-0.004196,0.983459,0.003848,0.0418,-0.021576,66.437851,17.95163,-149.133209,,,
729607874.716567,-0.602254,2.320081,26.63501,-0.031372,0.002533,0.976151,-0.014948,0.030957,-0.034595,66.437851,17.95163,-149.133209,,,
729607874.719908,-0.602254,2.320081,26.63501,-0.031372,0.002533,0.976151,-0.014948,0.030957,-0.034595,66.437851,17.95163,-149.133209,,,
729607874.723236,-0.607592,2.327835,26.625148,-0.031372,0.002533,0.976151,-0.014948,0.030957,-0.034595,66.437851,17.95163,-149.133209,,,
729607874.726567,-0.61533,2.332587,26.615923,-0.03653,0.000351,0.982651,-0.026493,0.024028,-0.032699,66.437851,17.95163,-149.133209,,,
729607874.729944,-0.61533,2.332587,26.615923,-0.03653,0.000351,0.982651,-0.026493,0.024028,-0.032699,66.437851,17.95163,-149.133209,,,
729607874.733232,-0.624632,2.337879,26.608085,-0.03653,0.000351,0.982651,-0.026493,0.024028,-0.032699,66.437851,17.95163,-149.133209,,,
729607874.736583,-0.635078,2.3396,26.601888,-0.040802,-0.006577,0.984131,-0.036632,0.018583,-0.021911,66.437851,17.95163,-149.133209,,,
729607874.739939,-0.635078,2.3396,26.601888,-0.040802,-0.006577,0.984131,-0.036632,0.018583,-0.021911,66.437851,17.95163,-149.133209,,,
729607874.743229,-0.64679,2.344485,26.596943,-0.040802,-0.006577,0.984131,-0.036632,0.018583,-0.021911,66.589203,17.566177,-149.191742,,,
729607874.746637,-0.659196,2.347237,26.592291,-0.038818,-0.008942,0.99118,-0.044357,0.025566,-0.017282,66.589203,17.566177,-149.191742,,,
729607874.749978,-0.659196,2.347237,26.592291,-0.038818,-0.008942,0.99118,-0.044357,0.025566,-0.017282,66.589203,17.566177,-149.191742,,,
729607874.753241,-0.672534,2.354083,26.587567,-0.038818,-0.008942,0.99118,-0.044357,0.025566,-0.017282,66.589203,17.566177,-149.191742,,,
729607874.75658,-0.686326,2.359946,26.582265,-0.036087,-0.007996,0.996063,-0.047477,0.033502,-0.024072,66.589203,17.566177,-149.191742,,,
729607874.759905,-0.686326,2.359946,26.582265,-0.036087,-0.007996,0.996063,-0.047477,0.033502,-0.024072,66.589203,17.566177,-149.191742,,,
729607874.763279,-0.700083,2.368886,26.576024,-0.036087,-0.007996,0.996063,-0.047477,0.033502,-0.024072,66.589203,17.566177,-149.191742,,,
729607874.766569,-0.714803,2.376862,26.568713,-0.038162,-0.008972,0.999771,-0.045705,0.036844,-0.03141,66.589203,17.566177,-149.191742,,,
729607874.769921,-0.714803,2.376862,26.568713,-0.038162,-0.008972,0.999771,-0.045705,0.036844,-0.03141,66.589203,17.566177,-149.191742,,,
729607874.773258,-0.729016,2.38609,26.56071,-0.038162,-0.008972,0.999771,-0.045705,0.036844,-0.03141,66.589203,17.566177,-149.191742,,,
729607874.776569,-0.74423,2.394298,26.552145,-0.044434,-0.012024,1.002426,-0.050045,0.035774,-0.035214,66.589203,17.566177,-149.191742,,,
729607874.779982,-0.74423,2.394298,26.552145,-0.044434,-0.012024,1.002426,-0.050045,0.035774,-0.035214,66.589203,17.566177,-149.191742,,,
729607874.783251,-0.759407,2.40188,26.542721,-0.044434,-0.012024,1.002426,-0.050045,0.035774,-0.035214,66.834564,17.906921,-149.272827,,,
729607874.786572,-0.774673,2.407112,26.532641,-0.049011,-0.016098,1.003098,-0.051887,0.023585,-0.040747,66.834564,17.906921,-149.272827,,,
729607874.789904,-0.774673,2.407112,26.532641,-0.049011,-0.016098,1.003098,-0.051887,0.023585,-0.040747,66.834564,17.906921,-149.272827,,,
729607874.793312,-0.790881,2.412121,26.521801,-0.049011,-0.016098,1.003098,-0.051887,0.023585,-0.040747,66.834564,17.906921,-149.272827,,,
729607874.796614,-0.805111,2.413499,26.509992,-0.053864,-0.017136,1.002731,-0.054507,0.010014,-0.045118,66.834564,17.906921,-149.272827,,,
729607874.799899,-0.805111,2.413499,26.509992,-0.053864,-0.017136,1.002731,-0.054507,0.010014,-0.045118,66.834564,17.906921,-149.272827,,,
729607874.803263,-0.820725,2.414666,26.497979,-0.053864,-0.017136,1.002731,-0.054507,0.010014,-0.045118,66.834564,17.906921,-149.272827,,,
729607874.806568,-0.833401,2.413912,26.486454,-0.056702,-0.0177,1.004654,-0.048961,0.002802,-0.041833,66.834564,17.906921,-149.272827,,,
729607874.809741,-0.833401,2.413912,26.486454,-0.056702,-0.0177,1.004654,-0.048961,0.002802,-0.041833,66.834564,17.906921,-149.272827,,,
729607874.813321,-0.847733,2.414026,26.476083,-0.056702,-0.0177,1.004654,-0.048961,0.002802,-0.041833,66.834564,17.906921,-149.272827,,,
729607874.81658,-0.860261,2.415277,26.467854,-0.058044,-0.021591,1.008484,-0.046706,0.014749,-0.023623,66.834564,17.906921,-149.272827,,,
729607874.820008,-0.860261,2.415277,26.467854,-0.058044,-0.021591,1.008484,-0.046706,0.014749,-0.023623,66.834564,17.906921,-149.272827,,,
729607874.823238,-0.873559,2.419038,26.462205,-0.058044,-0.021591,1.008484,-0.046706,0.014749,-0.023623,67.001862,17.976761,-149.035995,,,
729607874.826573,-0.885562,2.4252,26.458666,-0.056442,-0.025436,1.011261,-0.04018,0.029645,-0.011257,67.001862,17.976761,-149.035995,,,
729607874.829965,-0.885562,2.4252,26.458666,-0.056442,-0.025436,1.011261,-0.04018,0.029645,-0.011257,67.001862,17.976761,-149.035995,,,
729607874.833239,-0.897842,2.433466,26.45673,-0.056442,-0.025436,1.011261,-0.04018,0.029645,-0.011257,67.001862,17.976761,-149.035995,,,
729607874.836574,-0.909159,2.442129,26.455622,-0.054123,-0.02356,1.013062,-0.043493,0.035814,-0.004219,67.001862,17.976761,-149.035995,,,
729607874.839921,-0.909159,2.442129,26.455622,-0.054123,-0.02356,1.013062,-0.043493,0.035814,-0.004219,67.001862,17.976761,-149.035995,,,
729607874.843307,-0.921163,2.451631,26.455029,-0.054123,-0.02356,1.013062,-0.043493,0.035814,-0.004219,67.001862,17.976761,-149.035995,,,
729607874.846613,-0.931096,2.460775,26.455433,-0.05278,-0.020157,1.010895,-0.037977,0.039163,0.000395,67.001862,17.976761,-149.035995,,,
729607874.8499,-0.931096,2.460775,26.455433,-0.05278,-0.020157,1.010895,-0.037977,0.039163,0.000395,67.001862,17.976761,-149.035995,,,
729607874.853251,-0.941499,2.470597,26.45666,-0.05278,-0.020157,1.010895,-0.037977,0.039163,0.000395,67.001862,17.976761,-149.035995,,,
729607874.856571,-0.950943,2.478849,26.457763,-0.052704,-0.015518,1.009735,-0.037597,0.02738,-0.000783,67.001862,17.976761,-149.035995,,,
729607874.859911,-0.950943,2.478849,26.457763,-0.052704,-0.015518,1.009735,-0.037597,0.02738,-0.000783,67.001862,17.976761,-149.035995,,,
729607874.863303,-0.961775,2.485589,26.458336,-0.052704,-0.015518,1.009735,-0.037597,0.02738,-0.000783,67.001862,17.976761,-149.035995,,,
729607874.866573,-0.972228,2.49142,26.458164,-0.048538,-0.013199,1.000809,-0.033336,0.016302,-0.006165,66.926331,18.107224,-148.859741,,,
729607874.869914,-0.972228,2.49142,26.458164,-0.048538,-0.013199,1.000809,-0.033336,0.016302,-0.006165,66.926331,18.107224,-148.859741,,,
729607874.873261,-0.982527,2.49519,26.456954,-0.048538,-0.013199,1.000809,-0.033336,0.016302,-0.006165,66.926331,18.107224,-148.859741,,,
729607874.876575,-0.992203,2.498461,26.454756,-0.04512,-0.012131,1.002335,-0.029045,0.005401,-0.012573,66.926331,18.107224,-148.859741,,,
729607874.879992,-0.992203,2.498461,26.454756,-0.04512,-0.012131,1.002335,-0.029045,0.005401,-0.012573,66.926331,18.107224,-148.859741,,,
729607874.883231,-0.99999,2.498833,26.451294,-0.04512,-0.012131,1.002335,-0.029045,0.005401,-0.012573,66.926331,18.107224,-148.859741,,,
729607874.886576,-1.005723,2.498259,26.447309,-0.04509,-0.012619,1.003754,-0.015669,-0.007425,-0.017664,66.926331,18.107224,-148.859741,,,
729607874.889918,-1.005723,2.498259,26.447309,-0.04509,-0.012619,1.003754,-0.015669,-0.007425,-0.017664,66.926331,18.107224,-148.859741,,,
729607874.8933,-1.009585,2.495363,26.443366,-0.04509,-0.012619,1.003754,-0.015669,-0.007425,-0.017664,66.926331,18.107224,-148.859741,,,
729607874.896646,-1.011056,2.495016,26.440619,-0.044922,-0.016693,1.003372,0.003042,0.000749,-0.005814,66.926331,18.107224,-148.859741,,,
729607874.899902,-1.011056,2.495016,26.440619,-0.044922,-0.016693,1.003372,0.003042,0.000749,-0.005814,66.926331,18.107224,-148.859741,,,
729607874.90324,-1.009309,2.494422,26.43965,-0.044922,-0.016693,1.003372,0.003042,0.000749,-0.005814,66.926331,18.107224,-148.859741,,,
729607874.906574,-1.006529,2.497056,26.440214,-0.045456,-0.018005,1.011108,0.014953,0.012752,0.006333,66.904968,18.103394,-148.822815,,,
729607874.909915,-1.006529,2.497056,26.440214,-0.045456,-0.018005,1.011108,0.014953,0.012752,0.006333,66.904968,18.103394,-148.822815,,,
729607874.913263,-1.001961,2.500746,26.442323,-0.045456,-0.018005,1.011108,0.014953,0.012752,0.006333,66.904968,18.103394,-148.822815,,,
729607874.916575,-0.998268,2.510183,26.445664,-0.039001,-0.015549,1.009338,0.015296,0.045028,0.011141,66.904968,18.103394,-148.822815,,,
729607874.919987,-0.998268,2.510183,26.445664,-0.039001,-0.015549,1.009338,0.015296,0.045028,0.011141,66.904968,18.103394,-148.822815,,,
729607874.923253,-0.99363,2.522492,26.44932,-0.039001,-0.015549,1.009338,0.015296,0.045028,0.011141,66.904968,18.103394,-148.822815,,,
729607874.926574,-0.989718,2.539302,26.453308,-0.031998,-0.01033,1.009064,0.016354,0.066883,0.014114,66.904968,18.103394,-148.822815,,,
729607874.929914,-0.989718,2.539302,26.453308,-0.031998,-0.01033,1.009064,0.016354,0.066883,0.014114,66.904968,18.103394,-148.822815,,,
729607874.933235,-0.985097,2.558531,26.457793,-0.031998,-0.01033,1.009064,0.016354,0.066883,0.014114,66.904968,18.103394,-148.822815,,,
729607874.936572,-0.979879,2.581929,26.462093,-0.033096,-0.007751,1.006317,0.017687,0.088916,0.014346,66.904968,18.103394,-148.822815,,,
729607874.93991,-0.979879,2.581929,26.462093,-0.033096,-0.007751,1.006317,0.017687,0.088916,0.014346,66.904968,18.103394,-148.822815,,,
729607874.943232,-0.974691,2.606609,26.466132,-0.033096,-0.007751,1.006317,0.017687,0.088916,0.014346,66.904968,18.103394,-148.822815,,,
729607874.946572,-0.969116,2.63353,26.469927,-0.03389,-0.007797,1.00354,0.014322,0.0955,0.015871,67.112305,18.069,-149.015747,,,
729607874.949899,-0.969116,2.63353,26.469927,-0.03389,-0.007797,1.00354,0.014322,0.0955,0.015871,67.112305,18.069,-149.015747,,,
729607874.953245,-0.964343,2.660477,26.474028,-0.03389,-0.007797,1.00354,0.014322,0.0955,0.015871,67.112305,18.069,-149.015747,,,
729607874.95657,-0.959431,2.686157,26.478199,-0.033539,-0.008133,0.993561,0.011961,0.086689,0.010539,67.112305,18.069,-149.015747,,,
729607874.959986,-0.959431,2.686157,26.478199,-0.033539,-0.008133,0.993561,0.011961,0.086689,0.010539,67.112305,18.069,-149.015747,,,
729607874.963252,-0.956625,2.709518,26.481448,-0.033539,-0.008133,0.993561,0.011961,0.086689,0.010539,67.112305,18.069,-149.015747,,,
729607874.966581,-0.954818,2.729448,26.483955,-0.036316,-0.003159,0.98468,0.00167,0.065255,0.00491,67.112305,18.069,-149.015747,,,
729607874.969929,-0.954818,2.729448,26.483955,-0.036316,-0.003159,0.98468,0.00167,0.065255,0.00491,67.112305,18.069,-149.015747,,,
729607874.973306,-0.954997,2.746938,26.485954,-0.036316,-0.003159,0.98468,0.00167,0.065255,0.00491,67.112305,18.069,-149.015747,,,
729607874.976565,-0.956201,2.760806,26.48727,-0.045303,-0.001022,0.982971,-0.004932,0.041812,0.000489,67.112305,18.069,-149.015747,,,
729607874.979908,-0.956201,2.760806,26.48727,-0.045303,-0.001022,0.982971,-0.004932,0.041812,0.000489,67.112305,18.069,-149.015747,,,
729607874.983237,-0.958836,2.771011,26.488064,-0.045303,-0.001022,0.982971,-0.004932,0.041812,0.000489,67.112305,18.069,-149.015747,,,
729607874.986591,-0.958836,2.771011,26.488064,-0.047897,-0.005432,0.982559,-0.018448,0.016711,0.001098,67.126404,17.94223,-149.247803,,,
729607874.989917,-0.963318,2.776848,26.488965,-0.047897,-0.005432,0.982559,-0.018448,0.016711,0.001098,67.126404,17.94223,-149.247803,,,
729607874.993251,-0.969766,2.779862,26.490134,-0.047897,-0.005432,0.982559,-0.018448,0.016711,0.001098,67.126404,17.94223,-149.247803,,,
729607874.996568,-0.969766,2.779862,26.49044,-0.04454,-0.008347,0.985336,-0.025197,-9.5e-05,-0.004126,67.126404,17.94223,-149.247803,,,
729607875.000006,-0.977563,2.779883,26.49044,-0.04454,-0.008347,0.985336,-0.025197,-9.5e-05,-0.004126,67.126404,17.94223,-149.247803,,,
729607875.003242,-0.98541,2.778758,26.489063,-0.04454,-0.008347,0.985336,-0.025197,-9.5e-05,-0.004126,67.126404,17.94223,-149.247803,,,
729607875.006601,-0.98541,2.778758,26.489063,-0.038544,-0.009842,0.994141,-0.025196,-0.011833,-0.019596,67.126404,17.94223,-149.247803,,,
729607875.009912,-0.992321,2.773584,26.486055,-0.038544,-0.009842,0.994141,-0.025196,-0.011833,-0.019596,67.126404,17.94223,-149.247803,,,
729607875.013301,-0.999685,2.769348,26.481308,-0.038544,-0.009842,0.994141,-0.025196,-0.011833,-0.019596,67.126404,17.94223,-149.247803,,,
729607875.016578,-0.999685,2.763894,26.474967,-0.040024,-0.012711,1.000717,-0.015293,-0.005111,-0.027497,67.126404,17.94223,-149.247803,,,
729607875.019919,-1.004781,2.763894,26.474967,-0.040024,-0.012711,1.000717,-0.015293,-0.005111,-0.027497,67.126404,17.94223,-149.247803,,,
729607875.023237,-1.009632,2.761259,26.467584,-0.040024,-0.012711,1.000717,-0.015293,-0.005111,-0.027497,67.126404,17.94223,-149.247803,,,
729607875.026569,-1.009632,2.761259,26.467584,-0.040024,-0.012711,1.000717,-0.015293,-0.005111,-0.027497,67.126404,17.94223,-149.247803,,,
729607875.029929,-1.011065,2.756086,26.459682,-0.041046,-0.016434,1.011185,-0.002211,-0.009302,-0.029139,67.347321,17.946259,-149.264999,,,
729607875.033234,-1.011722,2.75211,26.452098,-0.041046,-0.016434,1.011185,-0.002211,-0.009302,-0.029139,67.347321,17.946259,-149.264999,,,
729607875.036597,-1.011722,2.75211,26.444692,-0.041626,-0.020737,1.00853,0.005617,-0.009818,-0.024481,67.347321,17.946259,-149.264999,,,
729607875.039917,-1.009692,2.746066,26.444692,-0.041626,-0.020737,1.00853,0.005617,-0.009818,-0.024481,67.347321,17.946259,-149.264999,,,
729607875.043247,-1.007751,2.743244,26.437902,-0.041626,-0.020737,1.00853,0.005617,-0.009818,-0.024481,67.347321,17.946259,-149.264999,,,
729607875.046567,-1.007751,2.743244,26.437902,-0.041626,-0.020737,1.00853,0.005617,-0.009818,-0.024481,67.347321,17.946259,-149.264999,,,
729607875.049998,-1.003444,2.740787,26.432793,-0.05043,-0.027863,1.011673,0.015514,0.006215,-0.011787,67.347321,17.946259,-149.264999,,,
729607875.053224,-1.000017,2.742072,26.429787,-0.05043,-0.027863,1.011673,0.015514,0.006215,-0.011787,67.347321,17.946259,-149.264999,,,
729607875.056571,-1.000017,2.742072,26.429787,-0.054916,-0.030029,1.014969,0.016994,0.019154,0.002047,67.347321,17.946259,-149.264999,,,
729607875.059916,-0.993281,2.744552,26.428899,-0.054916,-0.030029,1.014969,0.016994,0.019154,0.002047,67.347321,17.946259,-149.264999,,,
729607875.063235,-0.988224,2.749572,26.42991,-0.054916,-0.030029,1.014969,0.016994,0.019154,0.002047,67.347321,17.946259,-149.264999,,,
729607875.066577,-0.988224,2.749572,26.42991,-0.054916,-0.030029,1.014969,0.016994,0.019154,0.002047,67.347321,17.946259,-149.264999,,,
729607875.069909,-0.981804,2.756461,26.432411,-0.05835,-0.026062,1.009995,0.016551,0.027087,0.012405,67.170883,18.098572,-148.802567,,,
729607875.073236,-0.977474,2.763629,26.436052,-0.05835,-0.026062,1.009995,0.016551,0.027087,0.012405,67.170883,18.098572,-148.802567,,,
729607875.076588,-0.977474,2.763629,26.436052,-0.060028,-0.022385,1.004135,0.011143,0.024492,0.012577,67.170883,18.098572,-148.802567,,,
729607875.079971,-0.97224,2.770162,26.439876,-0.060028,-0.022385,1.004135,0.011143,0.024492,0.012577,67.170883,18.098572,-148.802567,,,
729607875.083248,-0.968881,2.776673,26.443684,-0.060028,-0.022385,1.004135,0.011143,0.024492,0.012577,67.170883,18.098572,-148.802567,,,
729607875.08668,-0.968881,2.776673,26.443684,-0.060028,-0.022385,1.004135,0.011143,0.024492,0.012577,67.170883,18.098572,-148.802567,,,
729607875.089974,-0.96619,2.782673,26.446544,-0.057144,-0.019363,1.000351,0.001016,0.027248,0.005442,67.170883,18.098572,-148.802567,,,
729607875.093248,-0.966126,2.789325,26.447739,-0.057144,-0.019363,1.000351,0.001016,0.027248,0.005442,67.170883,18.098572,-148.802567,,,
729607875.096619,-0.966126,2.789325,26.447739,-0.057144,-0.019363,1.000351,0.001016,0.027248,0.005442,67.170883,18.098572,-148.802567,,,
729607875.099903,-0.966525,2.793005,26.447305,-0.056274,-0.016342,0.995743,-0.006786,0.018711,-0.005563,67.170883,18.098572,-148.802567,,,
729607875.103237,-0.968102,2.796519,26.445686,-0.056274,-0.016342,0.995743,-0.006786,0.018711,-0.005563,67.170883,18.098572,-148.802567,,,
729607875.106698,-0.968102,2.796519,26.445686,-0.056274,-0.016342,0.995743,-0.006786,0.018711,-0.005563,67.170883,18.098572,-148.802567,,,
729607875.109894,-0.969262,2.797823,26.443259,-0.052994,-0.015015,0.993073,-0.001634,0.006615,-0.0128,67.318207,18.132095,-149.286118,,,
729607875.113239,-0.970132,2.798344,26.440333,-0.052994,-0.015015,0.993073,-0.001634,0.006615,-0.0128,67.318207,18.132095,-149.286118,,,
729607875.11662,-0.970132,2.798344,26.440333,-0.052994,-0.015015,0.993073,-0.001634,0.006615,-0.0128,67.318207,18.132095,-149.286118,,,
729607875.119922,-0.970745,2.796083,26.436889,-0.052368,-0.016418,0.994843,0.003233,-0.005708,-0.013443,67.318207,18.132095,-149.286118,,,
729607875.12323,-0.970403,2.793759,26.433215,-0.052368,-0.016418,0.994843,0.003233,-0.005708,-0.013443,67.318207,18.132095,-149.286118,,,
729607875.126623,-0.970403,2.793759,26.433215,-0.052368,-0.016418,0.994843,0.003233,-0.005708,-0.013443,67.318207,18.132095,-149.286118,,,
729607875.130009,-0.969397,2.791458,26.429584,-0.053955,-0.019012,0.994019,0.013093,-0.000712,-0.016246,67.318207,18.132095,-149.286118,,,
729607875.133221,-0.965685,2.790746,26.42548,-0.053955,-0.019012,0.994019,0.013093,-0.000712,-0.016246,67.318207,18.132095,-149.286118,,,
729607875.136604,-0.965685,2.790746,26.42548,-0.053955,-0.019012,0.994019,0.013093,-0.000712,-0.016246,67.318207,18.132095,-149.286118,,,
729607875.139907,-0.96261,2.791319,26.420709,-0.046494,-0.017075,0.995514,0.019307,0.004844,-0.022043,67.318207,18.132095,-149.286118,,,
729607875.143232,-0.957382,2.791849,26.415315,-0.046494,-0.017075,0.995514,0.019307,0.004844,-0.022043,67.318207,18.132095,-149.286118,,,
729607875.146623,-0.957382,2.791849,26.415315,-0.046494,-0.017075,0.995514,0.019307,0.004844,-0.022043,67.318207,18.132095,-149.286118,,,
729607875.14993,-0.95317,2.794148,26.409624,-0.046631,-0.015686,0.993561,0.020747,0.012842,-0.018994,67.152802,18.289612,-149.001282,,,
729607875.153257,-0.94784,2.79731,26.404141,-0.046631,-0.015686,0.993561,0.020747,0.012842,-0.018994,67.152802,18.289612,-149.001282,,,
729607875.15669,-0.94784,2.79731,26.404141,-0.046631,-0.015686,0.993561,0.020747,0.012842,-0.018994,67.152802,18.289612,-149.001282,,,
729607875.159911,-0.943914,2.804121,26.399667,-0.054703,-0.015945,0.991211,0.015259,0.028759,-0.013145,67.152802,18.289612,-149.001282,,,
729607875.163245,-0.940008,2.811596,26.396212,-0.054703,-0.015945,0.991211,0.015259,0.028759,-0.013145,67.152802,18.289612,-149.001282,,,
729607875.166664,-0.940008,2.811596,26.396212,-0.054703,-0.015945,0.991211,0.015259,0.028759,-0.013145,67.152802,18.289612,-149.001282,,,
729607875.169961,-0.938265,2.82137,26.393951,-0.05806,-0.016006,0.987701,0.005347,0.034165,-0.006551,67.152802,18.289612,-149.001282,,,
729607875.173238,-0.937623,2.829749,26.393423,-0.05806,-0.016006,0.987701,0.005347,0.034165,-0.006551,67.152802,18.289612,-149.001282,,,
729607875.176656,-0.937623,2.829749,26.393423,-0.05806,-0.016006,0.987701,0.005347,0.034165,-0.006551,67.152802,18.289612,-149.001282,,,
729607875.179896,-0.938248,2.83905,26.394495,-0.059418,-0.015839,0.980667,-0.004118,0.035328,0.003198,67.152802,18.289612,-149.001282,,,
729607875.183277,-0.939721,2.848738,26.39626,-0.059418,-0.015839,0.980667,-0.004118,0.035328,0.003198,67.152802,18.289612,-149.001282,,,
729607875.186569,-0.939721,2.848738,26.39626,-0.059418,-0.015839,0.980667,-0.004118,0.035328,0.003198,67.152802,18.289612,-149.001282,,,
729607875.189908,-0.942456,2.860767,26.398156,-0.056595,-0.015991,0.981003,-0.010405,0.042175,0.002449,67.152802,18.289612,-149.001282,,,
729607875.193293,-0.946602,2.873442,26.399585,-0.056595,-0.015991,0.981003,-0.010405,0.042175,0.002449,67.551468,18.126526,-149.52533,,,
729607875.196695,-0.946602,2.873442,26.399585,-0.056595,-0.015991,0.981003,-0.010405,0.042175,0.002449,67.551468,18.126526,-149.52533,,,
729607875.199898,-0.951229,2.887346,26.400182,-0.054153,-0.012405,0.979889,-0.017425,0.052381,-0.000554,67.551468,18.126526,-149.52533,,,
729607875.203342,-0.955995,2.901851,26.400265,-0.054153,-0.012405,0.979889,-0.017425,0.052381,-0.000554,67.551468,18.126526,-149.52533,,,
729607875.206587,-0.955995,2.901851,26.400265,-0.054153,-0.012405,0.979889,-0.017425,0.052381,-0.000554,67.551468,18.126526,-149.52533,,,
729607875.209989,-0.96031,2.917262,26.399658,-0.057343,-0.014114,0.982468,-0.012808,0.057589,-0.008188,67.551468,18.126526,-149.52533,,,
729607875.213233,-0.962991,2.932543,26.398729,-0.057343,-0.014114,0.982468,-0.012808,0.057589,-0.008188,67.551468,18.126526,-149.52533,,,
729607875.216575,-0.962991,2.932543,26.398729,-0.057343,-0.014114,0.982468,-0.012808,0.057589,-0.008188,67.551468,18.126526,-149.52533,,,
729607875.219922,-0.965158,2.947251,26.397694,-0.058411,-0.014069,0.98671,-0.006559,0.051933,-0.008224,67.551468,18.126526,-149.52533,,,
729607875.223239,-0.966867,2.960294,26.396277,-0.058411,-0.014069,0.98671,-0.006559,0.051933,-0.008224,67.551468,18.126526,-149.52533,,,
729607875.226613,-0.966867,2.960294,26.396277,-0.058411,-0.014069,0.98671,-0.006559,0.051933,-0.008224,67.551468,18.126526,-149.52533,,,
729607875.229922,-0.968705,2.970194,26.395086,-0.055283,-0.016953,0.978195,-0.006213,0.034166,-0.002426,67.551468,18.126526,-149.52533,,,
729607875.233242,-0.971589,2.978631,26.394151,-0.055283,-0.016953,0.978195,-0.006213,0.034166,-0.002426,67.480759,17.966766,-149.265015,,,
729607875.236698,-0.971589,2.978631,26.394151,-0.055283,-0.016953,0.978195,-0.006213,0.034166,-0.002426,67.480759,17.966766,-149.265015,,,
729607875.239901,-0.975876,2.984627,26.39396,-0.05571,-0.013596,0.974304,-0.020556,0.016791,-0.000316,67.480759,17.966766,-149.265015,,,
729607875.243267,-0.982287,2.987776,26.395293,-0.05571,-0.013596,0.974304,-0.020556,0.016791,-0.000316,67.480759,17.966766,-149.265015,,,
729607875.246563,-0.982287,2.987776,26.395293,-0.05571,-0.013596,0.974304,-0.020556,0.016791,-0.000316,67.480759,17.966766,-149.265015,,,
729607875.249906,-0.99028,2.989626,26.398405,-0.058105,-0.013779,0.972153,-0.030856,0.005319,0.012084,67.480759,17.966766,-149.265015,,,
729607875.253231,-0.999203,2.990708,26.403279,-0.058105,-0.013779,0.972153,-0.030856,0.005319,0.012084,67.480759,17.966766,-149.265015,,,
729607875.256564,-0.999203,2.990708,26.403279,-0.058105,-0.013779,0.972153,-0.030856,0.005319,0.012084,67.480759,17.966766,-149.265015,,,
729607875.259917,-1.008454,2.994222,26.409318,-0.053207,-0.016159,0.98291,-0.033094,0.019514,0.019459,67.480759,17.966766,-149.265015,,,
