Time (sec),Pitch (deg),Roll (deg),Yaw(deg),X-Acceleration (g),Y-Acceleration (g),Z-Acceleration (g),Pitch Rate (deg/sec),Roll Rate (deg/sec),Yaw Rate (deg/sec),Magnetic Field in X direction (uT),Magnetic Field in Y direction (uT),Magnetic Field in Z Direction (uT),Latitude (deg),Longitude (deg),Altitude (m)
729605383.271674,0.665865,2.972946,47.431988,-0.054443,0.005859,0.987183,-0.002902,-0.040456,-0.004031,64.290192,20.444473,-148.765152,,,
729605383.275013,0.666111,2.958671,47.431508,-0.058746,0.000305,0.990814,-0.002902,-0.040456,-0.004031,64.290192,20.444473,-148.765152,,,
729605383.278356,0.666111,2.958671,47.431508,-0.058746,0.000305,0.990814,-0.002902,-0.040456,-0.004031,64.366669,20.206146,-148.825607,,,
729605383.281774,0.665663,2.940796,47.43158,-0.058746,0.000305,0.990814,0.001551,-0.051693,-0.002985,64.366669,20.206146,-148.825607,,,
729605383.284999,0.666623,2.925753,47.431713,-0.058746,0.000305,0.990814,0.001551,-0.051693,-0.002985,64.366669,20.206146,-148.825607,,,
729605383.288328,0.666623,2.925753,47.431713,-0.053787,-0.001724,0.997864,0.001551,-0.051693,-0.002985,64.366669,20.206146,-148.825607,,,
729605383.291661,0.66646,2.910522,47.431405,-0.053787,-0.001724,0.997864,0.005213,-0.037961,-0.00304,64.366669,20.206146,-148.825607,,,
729605383.295053,0.66737,2.89934,47.4307,-0.043533,0.002655,1.002304,0.005213,-0.037961,-0.00304,64.366669,20.206146,-148.825607,,,
729605383.298428,0.66737,2.89934,47.4307,-0.043533,0.002655,1.002304,0.005213,-0.037961,-0.00304,64.366669,20.206146,-148.825607,,,
729605383.301672,0.666724,2.886457,47.430316,-0.043533,0.002655,1.002304,0.000542,-0.028954,-0.002815,64.366669,20.206146,-148.825607,,,
729605383.305002,0.666724,2.886457,47.430316,-0.043533,0.002655,1.002304,0.000542,-0.028954,-0.002815,64.366669,20.206146,-148.825607,,,
729605383.308411,0.665988,2.878371,47.430756,-0.04422,0.006775,1.000031,0.000542,-0.028954,-0.002815,64.366669,20.206146,-148.825607,,,
729605383.31166,0.664395,2.871524,47.432383,-0.04422,0.006775,1.000031,-0.003067,-0.00895,0.005221,64.366669,20.206146,-148.825607,,,
729605383.315065,0.664747,2.871113,47.434956,-0.04454,0.007721,1.005035,-0.003067,-0.00895,0.005221,64.366669,20.206146,-148.825607,,,
729605383.318347,0.664747,2.871113,47.434956,-0.04454,0.007721,1.005035,-0.003067,-0.00895,0.005221,64.211487,20.431274,-148.929047,,,
729605383.321774,0.666303,2.874027,47.437971,-0.04454,0.007721,1.005035,0.008674,0.018732,0.009004,64.211487,20.431274,-148.929047,,,
729605383.325046,0.666303,2.879202,47.440706,-0.04454,0.007721,1.005035,0.008674,0.018732,0.009004,64.211487,20.431274,-148.929047,,,
729605383.328345,0.669655,2.879202,47.440706,-0.039825,0.006897,1.01123,0.008674,0.018732,0.009004,64.211487,20.431274,-148.929047,,,
729605383.331754,0.673957,2.884309,47.443499,-0.039825,0.006897,1.01123,0.017694,0.01903,0.012045,64.211487,20.431274,-148.929047,,,
729605383.335024,0.673957,2.884309,47.443499,-0.039825,0.006897,1.01123,0.017694,0.01903,0.012045,64.211487,20.431274,-148.929047,,,
729605383.338328,0.679041,2.888047,47.44712,-0.042435,0.008011,1.00087,0.017694,0.01903,0.012045,64.211487,20.431274,-148.929047,,,
729605383.341722,0.683418,2.891452,47.451804,-0.042435,0.008011,1.00087,0.018314,0.015037,0.01628,64.211487,20.431274,-148.929047,,,
729605383.345112,0.683418,2.895614,47.456854,-0.042435,0.008011,1.00087,0.018314,0.015037,0.01628,64.211487,20.431274,-148.929047,,,
729605383.348355,0.687969,2.895614,47.456854,-0.050629,0.00769,0.997284,0.018314,0.015037,0.01628,64.211487,20.431274,-148.929047,,,
729605383.351716,0.690916,2.901373,47.461489,-0.050629,0.00769,0.997284,0.014309,0.020288,0.015742,64.211487,20.431274,-148.929047,,,
729605383.355091,0.693865,2.905243,47.464496,-0.050629,0.00769,0.997284,0.014309,0.020288,0.015742,64.211487,20.431274,-148.929047,,,
729605383.361542,0.693506,2.908308,47.465085,-0.044617,0.012405,0.995804,0.00428,0.00975,-5.6e-05,64.177597,20.16214,-148.50618,,,
729605383.364988,0.693506,2.908308,47.465085,-0.044617,0.012405,0.995804,0.00428,0.00975,-5.6e-05,64.177597,20.16214,-148.50618,,,
729605383.371052,0.690639,2.90663,47.459048,-0.041611,0.019073,0.986572,-0.006891,-0.005573,-0.016757,64.177597,20.16214,-148.50618,,,
729605383.371314,0.690639,2.90663,47.459048,-0.041611,0.019073,0.986572,-0.006891,-0.005573,-0.016757,64.177597,20.16214,-148.50618,,,
729605383.375051,0.690639,2.90663,47.459048,-0.041611,0.019073,0.986572,-0.006891,-0.005573,-0.016757,64.177597,20.16214,-148.50618,,,
729605383.378329,0.687467,2.902976,47.452865,-0.045883,0.018463,0.982742,-0.006891,-0.005573,-0.016757,64.177597,20.16214,-148.50618,,,
729605383.381711,0.681876,2.895549,47.444764,-0.045883,0.018463,0.982742,-0.014244,-0.022705,-0.032884,64.177597,20.16214,-148.50618,,,
729605383.385034,0.681876,2.895549,47.444764,-0.045883,0.018463,0.982742,-0.014244,-0.022705,-0.032884,64.177597,20.16214,-148.50618,,,
729605383.388389,0.676429,2.886902,47.435433,-0.048676,0.018066,0.983017,-0.014244,-0.022705,-0.032884,64.177597,20.16214,-148.50618,,,
729605383.39167,0.669214,2.875793,47.426428,-0.048676,0.018066,0.983017,-0.022875,-0.037528,-0.03162,64.177597,20.16214,-148.50618,,,
729605383.395021,0.669214,2.875793,47.426428,-0.048676,0.018066,0.983017,-0.022875,-0.037528,-0.03162,64.177597,20.16214,-148.50618,,,
729605383.398433,0.662094,2.864806,47.41858,-0.054016,0.01355,0.984299,-0.022875,-0.037528,-0.03162,64.144653,20.332794,-148.79921,,,
729605383.401681,0.655656,2.853681,47.41206,-0.054016,0.01355,0.984299,-0.014999,-0.03184,-0.021368,64.144653,20.332794,-148.79921,,,
729605383.405031,0.655656,2.853681,47.41206,-0.054016,0.01355,0.984299,-0.014999,-0.03184,-0.021368,64.144653,20.332794,-148.79921,,,
729605383.408339,0.652338,2.84482,47.407042,-0.055008,0.00766,0.99852,-0.014999,-0.03184,-0.021368,64.144653,20.332794,-148.79921,,,
729605383.411666,0.650491,2.836393,47.402936,-0.055008,0.00766,0.99852,-0.003849,-0.016543,-0.014338,64.144653,20.332794,-148.79921,,,
729605383.415134,0.650491,2.836393,47.398783,-0.046234,0.011505,1.005127,-0.003849,-0.016543,-0.014338,64.144653,20.332794,-148.79921,,,
729605383.418365,0.650604,2.831822,47.398783,-0.046234,0.011505,1.005127,-0.003849,-0.016543,-0.014338,64.144653,20.332794,-148.79921,,,
729605383.421679,0.651296,2.829807,47.394648,-0.046234,0.011505,1.005127,0.003348,-0.000921,-0.017502,64.144653,20.332794,-148.79921,,,
729605383.424997,0.651296,2.829807,47.394648,-0.046234,0.011505,1.005127,0.003348,-0.000921,-0.017502,64.144653,20.332794,-148.79921,,,
729605383.428336,0.652955,2.831792,47.389763,-0.041367,0.016861,1.006149,0.003348,-0.000921,-0.017502,64.144653,20.332794,-148.79921,,,
729605383.43174,0.654595,2.837264,47.384369,-0.041367,0.016861,1.006149,0.010549,0.028526,-0.02091,64.144653,20.332794,-148.79921,,,
729605383.434999,0.654595,2.837264,47.384369,-0.041367,0.016861,1.006149,0.010549,0.028526,-0.02091,64.144653,20.332794,-148.79921,,,
729605383.438341,0.655555,2.845159,47.379225,-0.044632,0.018723,1.005188,0.010549,0.028526,-0.02091,64.144653,20.332794,-148.79921,,,
729605383.441764,0.654698,2.852523,47.375012,-0.044632,0.018723,1.005188,-0.007157,0.029279,-0.014321,64.312256,20.202164,-148.755432,,,
729605383.445004,0.654698,2.852523,47.375012,-0.044632,0.018723,1.005188,-0.007157,0.029279,-0.014321,64.312256,20.202164,-148.755432,,,
729605383.448386,0.650248,2.85995,47.37236,-0.053986,0.014694,0.986771,-0.007157,0.029279,-0.014321,64.312256,20.202164,-148.755432,,,
729605383.451745,0.643737,2.865341,47.370547,-0.053986,0.014694,0.986771,-0.026642,0.024835,-0.009318,64.312256,20.202164,-148.755432,,,
729605383.455005,0.643737,2.865341,47.370547,-0.053986,0.014694,0.986771,-0.026642,0.024835,-0.009318,64.312256,20.202164,-148.755432,,,
729605383.458328,0.633533,2.870334,47.369369,-0.059341,0.014191,0.982437,-0.026642,0.024835,-0.009318,64.312256,20.202164,-148.755432,,,
729605383.461667,0.621585,2.872737,47.368874,-0.059341,0.014191,0.982437,-0.04511,0.012129,-0.005483,64.312256,20.202164,-148.755432,,,
729605383.46503,0.621585,2.872737,47.368874,-0.059341,0.014191,0.982437,-0.04511,0.012129,-0.005483,64.312256,20.202164,-148.755432,,,
729605383.468331,0.607396,2.872054,47.367911,-0.057953,0.016617,0.983414,-0.04511,0.012129,-0.005483,64.312256,20.202164,-148.755432,,,
729605383.47166,0.594513,2.867853,47.365841,-0.057953,0.016617,0.983414,-0.045476,-0.015858,-0.012863,64.312256,20.202164,-148.755432,,,
729605383.475027,0.594513,2.867853,47.365841,-0.057953,0.016617,0.983414,-0.045476,-0.015858,-0.012863,64.312256,20.202164,-148.755432,,,
729605383.478337,0.582151,2.860708,47.36322,-0.060089,0.012543,0.987045,-0.045476,-0.015858,-0.012863,64.312256,20.202164,-148.755432,,,
729605383.481797,0.572306,2.853247,47.359958,-0.060089,0.012543,0.987045,-0.032704,-0.02561,-0.014473,64.38652,20.354019,-148.300476,,,
729605383.484988,0.572306,2.853247,47.359958,-0.060089,0.012543,0.987045,-0.032704,-0.02561,-0.014473,64.38652,20.354019,-148.300476,,,
729605383.488341,0.563531,2.845,47.355868,-0.05899,0.010345,0.999359,-0.032704,-0.02561,-0.014473,64.38652,20.354019,-148.300476,,,
729605383.491668,0.554912,2.836397,47.351891,-0.05899,0.010345,0.999359,-0.025651,-0.029713,-0.016271,64.38652,20.354019,-148.300476,,,
729605383.49499,0.554912,2.836397,47.351891,-0.05899,0.010345,0.999359,-0.025651,-0.029713,-0.016271,64.38652,20.354019,-148.300476,,,
729605383.498375,0.547007,2.826603,47.348277,-0.054916,0.007568,0.999268,-0.025651,-0.029713,-0.016271,64.38652,20.354019,-148.300476,,,
729605383.501665,0.539513,2.815997,47.344811,-0.054916,0.007568,0.999268,-0.026982,-0.031049,-0.016051,64.38652,20.354019,-148.300476,,,
729605383.504889,0.539513,2.815997,47.344811,-0.054916,0.007568,0.999268,-0.026982,-0.031049,-0.016051,64.38652,20.354019,-148.300476,,,
729605383.508348,0.531481,2.807194,47.341435,-0.050812,0.008698,0.995605,-0.026982,-0.031049,-0.016051,64.38652,20.354019,-148.300476,,,
729605383.51167,0.525613,2.79865,47.338016,-0.050812,0.008698,0.995605,-0.021978,-0.021566,-0.013048,64.38652,20.354019,-148.300476,,,
729605383.51504,0.525613,2.79865,47.338016,-0.050812,0.008698,0.995605,-0.021978,-0.021566,-0.013048,64.38652,20.354019,-148.300476,,,
729605383.51833,0.520224,2.792927,47.334741,-0.0495,0.009216,0.999512,-0.021978,-0.021566,-0.013048,64.38652,20.354019,-148.300476,,,
729605383.521663,0.51783,2.789505,47.331461,-0.0495,0.009216,0.999512,-0.010072,-0.005843,-0.012302,64.032684,20.446426,-148.49884,,,
729605383.525065,0.51783,2.789505,47.331461,-0.0495,0.009216,0.999512,-0.010072,-0.005843,-0.012302,64.032684,20.446426,-148.49884,,,
729605383.528314,0.516192,2.78863,47.328095,-0.045212,0.011795,1.010193,-0.010072,-0.005843,-0.012302,64.032684,20.446426,-148.49884,,,
729605383.531704,0.516221,2.789761,47.324781,-0.045212,0.011795,1.010193,-0.001122,0.005146,-0.01277,64.032684,20.446426,-148.49884,,,
729605383.534986,0.516221,2.789761,47.324781,-0.045212,0.011795,1.010193,-0.001122,0.005146,-0.01277,64.032684,20.446426,-148.49884,,,
729605383.538372,0.515394,2.789531,47.32162,-0.044662,0.011856,1.001801,-0.001122,0.005146,-0.01277,64.032684,20.446426,-148.49884,,,
729605383.54165,0.515435,2.790026,47.318798,-0.044662,0.011856,1.001801,-0.004682,-0.000876,-0.011978,64.032684,20.446426,-148.49884,,,
729605383.545006,0.515435,2.790026,47.318798,-0.044662,0.011856,1.001801,-0.004682,-0.000876,-0.011978,64.032684,20.446426,-148.49884,,,
729605383.548376,0.513987,2.789046,47.316584,-0.046021,0.01062,0.99675,-0.004682,-0.000876,-0.011978,64.032684,20.446426,-148.49884,,,
729605383.551657,0.512853,2.7898,47.313912,-0.046021,0.01062,0.99675,-0.005711,5.8e-05,-0.013186,64.032684,20.446426,-148.49884,,,
729605383.555004,0.512853,2.7898,47.313912,-0.046021,0.01062,0.99675,-0.005711,5.8e-05,-0.013186,64.032684,20.446426,-148.49884,,,
729605383.558339,0.510397,2.788394,47.309991,-0.045959,0.01384,0.999146,-0.005711,5.8e-05,-0.013186,64.032684,20.446426,-148.49884,,,
729605383.561685,0.507458,2.787114,47.305132,-0.045959,0.01384,0.999146,-0.010397,-0.007875,-0.018867,64.032684,20.446426,-148.49884,,,
729605383.56508,0.507458,2.787114,47.305132,-0.045959,0.01384,0.999146,-0.010397,-0.007875,-0.018867,64.295746,20.472534,-148.648621,,,
729605383.568335,0.503777,2.78356,47.299006,-0.043961,0.015808,0.996185,-0.010397,-0.007875,-0.018867,64.295746,20.472534,-148.648621,,,
729605383.571666,0.500825,2.781806,47.291416,-0.043961,0.015808,0.996185,-0.008898,-0.006079,-0.030998,64.295746,20.472534,-148.648621,,,
729605383.575006,0.500825,2.781806,47.291416,-0.043961,0.015808,0.996185,-0.008898,-0.006079,-0.030998,64.295746,20.472534,-148.648621,,,
729605383.578392,0.497821,2.779525,47.282802,-0.042465,0.014297,1.002762,-0.008898,-0.006079,-0.030998,64.295746,20.472534,-148.648621,,,
729605383.581717,0.494198,2.777763,47.273674,-0.042465,0.014297,1.002762,-0.009563,-0.003109,-0.033686,64.295746,20.472534,-148.648621,,,
729605383.585019,0.494198,2.777763,47.273674,-0.042465,0.014297,1.002762,-0.009563,-0.003109,-0.033686,64.295746,20.472534,-148.648621,,,
729605383.588346,0.490389,2.775155,47.26444,-0.048096,0.009125,1.003036,-0.009563,-0.003109,-0.033686,64.295746,20.472534,-148.648621,,,
729605383.59167,0.486844,2.772276,47.255811,-0.048096,0.009125,1.003036,-0.011229,-0.00919,-0.032077,64.295746,20.472534,-148.648621,,,
729605383.594998,0.486844,2.772276,47.255811,-0.048096,0.009125,1.003036,-0.011229,-0.00919,-0.032077,64.295746,20.472534,-148.648621,,,
729605383.598423,0.484224,2.768094,47.248038,-0.05394,0.007523,1.001694,-0.011229,-0.00919,-0.032077,64.295746,20.472534,-148.648621,,,
729605383.601663,0.483289,2.763481,47.240837,-0.05394,0.007523,1.001694,-0.000903,-0.01428,-0.025236,64.295746,20.472534,-148.648621,,,
729605383.604999,0.483289,2.763481,47.240837,-0.05394,0.007523,1.001694,-0.000903,-0.01428,-0.025236,64.182358,20.464127,-148.629181,,,
729605383.608344,0.483487,2.759293,47.2339,-0.054214,0.009079,1.009247,-0.000903,-0.01428,-0.025236,64.182358,20.464127,-148.629181,,,
729605383.611668,0.484426,2.754939,47.226861,-0.054214,0.009079,1.009247,0.004571,-0.011749,-0.025286,64.182358,20.464127,-148.629181,,,
729605383.615088,0.484426,2.754939,47.226861,-0.054214,0.009079,1.009247,0.004571,-0.011749,-0.025286,64.182358,20.464127,-148.629181,,,
729605383.618337,0.485657,2.751808,47.219941,-0.050522,0.010803,1.006531,0.004571,-0.011749,-0.025286,64.182358,20.464127,-148.629181,,,
729605383.621668,0.489309,2.749311,47.213147,-0.050522,0.010803,1.006531,0.013504,-0.003611,-0.02438,64.182358,20.464127,-148.629181,,,
729605383.625,0.489309,2.749311,47.213147,-0.050522,0.010803,1.006531,0.013504,-0.003611,-0.02438,64.182358,20.464127,-148.629181,,,
729605383.628396,0.49437,2.748064,47.206901,-0.050568,0.011047,1.009384,0.013504,-0.003611,-0.02438,64.182358,20.464127,-148.629181,,,
729605383.631732,0.500874,2.748188,47.201418,-0.050568,0.011047,1.009384,0.023304,0.005486,-0.020134,64.182358,20.464127,-148.629181,,,
729605383.635016,0.500874,2.748188,47.201418,-0.050568,0.011047,1.009384,0.023304,0.005486,-0.020134,64.182358,20.464127,-148.629181,,,
729605383.638377,0.508171,2.7505,47.196569,-0.052933,0.010422,1.009872,0.023304,0.005486,-0.020134,64.182358,20.464127,-148.629181,,,
729605383.641669,0.516907,2.75451,47.19241,-0.052933,0.010422,1.009872,0.02832,0.02288,-0.016187,64.182358,20.464127,-148.629181,,,
729605383.645001,0.516907,2.75451,47.19241,-0.052933,0.010422,1.009872,0.02832,0.02288,-0.016187,64.195816,20.473755,-148.786087,,,
729605383.648401,0.524688,2.760691,47.188607,-0.048798,0.01059,1.005753,0.02832,0.02288,-0.016187,64.195816,20.473755,-148.786087,,,
729605383.651663,0.532949,2.766784,47.185285,-0.048798,0.01059,1.005753,0.026045,0.026783,-0.009864,64.195816,20.473755,-148.786087,,,
729605383.65505,0.532949,2.766784,47.185285,-0.048798,0.01059,1.005753,0.026045,0.026783,-0.009864,64.195816,20.473755,-148.786087,,,
729605383.658337,0.539099,2.773943,47.182552,-0.047455,0.011093,1.000458,0.026045,0.026783,-0.009864,64.195816,20.473755,-148.786087,,,
729605383.661665,0.544542,2.780393,47.180293,-0.047455,0.011093,1.000458,0.014848,0.027521,-0.010925,64.195816,20.473755,-148.786087,,,
729605383.665047,0.544542,2.780393,47.180293,-0.047455,0.011093,1.000458,0.014848,0.027521,-0.010925,64.195816,20.473755,-148.786087,,,
729605383.668383,0.547954,2.787358,47.178278,-0.050339,0.012802,0.992859,0.014848,0.027521,-0.010925,64.195816,20.473755,-148.786087,,,
729605383.67166,0.54927,2.794421,47.176538,-0.050339,0.012802,0.992859,0.005285,0.026576,-0.004841,64.195816,20.473755,-148.786087,,,
729605383.675,0.54927,2.794421,47.176538,-0.050339,0.012802,0.992859,0.005285,0.026576,-0.004841,64.195816,20.473755,-148.786087,,,
729605383.67834,0.549913,2.800453,47.175047,-0.051697,0.014053,0.990128,0.005285,0.026576,-0.004841,64.195816,20.473755,-148.786087,,,
729605383.681707,0.549352,2.805653,47.173435,-0.051697,0.014053,0.990128,-0.00182,0.018383,-0.005785,64.195816,20.473755,-148.786087,,,
729605383.684991,0.549352,2.805653,47.173435,-0.051697,0.014053,0.990128,-0.00182,0.018383,-0.005785,64.293945,20.354553,-148.528442,,,
729605383.688342,0.547475,2.808041,47.171549,-0.048508,0.018341,0.98642,-0.00182,0.018383,-0.005785,64.293945,20.354553,-148.528442,,,
729605383.691689,0.543936,2.808148,47.169869,-0.048508,0.018341,0.98642,-0.012387,-0.001777,-0.008661,64.293945,20.354553,-148.528442,,,
729605383.695054,0.543936,2.808148,47.169869,-0.048508,0.018341,0.98642,-0.012387,-0.001777,-0.008661,64.293945,20.354553,-148.528442,,,
729605383.698454,0.539049,2.80499,47.168798,-0.050308,0.019257,0.979385,-0.012387,-0.001777,-0.008661,64.293945,20.354553,-148.528442,,,
729605383.701661,0.532916,2.799566,47.167949,-0.050308,0.019257,0.979385,-0.021504,-0.016104,-0.006318,64.293945,20.354553,-148.528442,,,
729605383.705007,0.532916,2.799566,47.167949,-0.050308,0.019257,0.979385,-0.021504,-0.016104,-0.006318,64.293945,20.354553,-148.528442,,,
729605383.708381,0.524772,2.792678,47.167268,-0.051453,0.020264,0.976364,-0.021504,-0.016104,-0.006318,64.293945,20.354553,-148.528442,,,
729605383.71166,0.51436,2.785026,47.167191,-0.051453,0.020264,0.976364,-0.04111,-0.024406,-0.006772,64.293945,20.354553,-148.528442,,,
729605383.715044,0.51436,2.785026,47.167191,-0.051453,0.020264,0.976364,-0.04111,-0.024406,-0.006772,64.293945,20.354553,-148.528442,,,
729605383.718336,0.500763,2.775729,47.167616,-0.053116,0.017899,0.973816,-0.04111,-0.024406,-0.006772,64.293945,20.354553,-148.528442,,,
729605383.721668,0.484314,2.764535,47.16898,-0.053116,0.017899,0.973816,-0.058584,-0.041231,0.001108,64.293945,20.354553,-148.528442,,,
729605383.724999,0.484314,2.764535,47.16898,-0.053116,0.017899,0.973816,-0.058584,-0.041231,0.001108,64.293945,20.354553,-148.528442,,,
729605383.728349,0.46466,2.750296,47.171642,-0.052383,0.013458,0.972351,-0.058584,-0.041231,0.001108,64.162643,20.328094,-148.352158,,,
729605383.731704,0.442948,2.73369,47.174855,-0.052383,0.013458,0.972351,-0.077683,-0.05649,0.006722,64.162643,20.328094,-148.352158,,,
729605383.734986,0.442948,2.73369,47.174855,-0.052383,0.013458,0.972351,-0.077683,-0.05649,0.006722,64.162643,20.328094,-148.352158,,,
729605383.738341,0.419814,2.715328,47.178623,-0.052399,0.008636,0.978165,-0.077683,-0.05649,0.006722,64.162643,20.328094,-148.352158,,,
729605383.741665,0.397397,2.696052,47.182479,-0.052399,0.008636,0.978165,-0.081129,-0.066471,0.00806,64.162643,20.328094,-148.352158,,,
729605383.745056,0.397397,2.696052,47.182479,-0.052399,0.008636,0.978165,-0.081129,-0.066471,0.00806,64.162643,20.328094,-148.352158,,,
729605383.748377,0.375917,2.677584,47.186351,-0.05304,0.001053,0.99353,-0.081129,-0.066471,0.00806,64.162643,20.328094,-148.352158,,,
729605383.751661,0.358877,2.662815,47.190707,-0.05304,0.001053,0.99353,-0.059499,-0.049284,0.010694,64.162643,20.328094,-148.352158,,,
729605383.755,0.358877,2.662815,47.190707,-0.05304,0.001053,0.99353,-0.059499,-0.049284,0.010694,64.162643,20.328094,-148.352158,,,
729605383.758392,0.345342,2.650729,47.194996,-0.049545,-0.004822,1.019241,-0.059499,-0.049284,0.010694,64.162643,20.328094,-148.352158,,,
729605383.761658,0.336591,2.642346,47.198885,-0.049545,-0.004822,1.019241,-0.031917,-0.02665,0.009148,64.162643,20.328094,-148.352158,,,
729605383.765039,0.336591,2.642346,47.198885,-0.049545,-0.004822,1.019241,-0.031917,-0.02665,0.009148,64.162643,20.328094,-148.352158,,,
729605383.76834,0.329884,2.63533,47.202984,-0.051743,-0.010544,1.021729,-0.031917,-0.02665,0.009148,64.155914,20.309448,-148.526917,,,
729605383.77167,0.328957,2.630265,47.208785,-0.051743,-0.010544,1.021729,-0.008509,-0.014184,0.020522,64.155914,20.309448,-148.526917,,,
729605383.774995,0.328957,2.630265,47.208785,-0.051743,-0.010544,1.021729,-0.008509,-0.014184,0.020522,64.155914,20.309448,-148.526917,,,
729605383.778347,0.329183,2.626486,47.215893,-0.055878,-0.014725,1.025238,-0.008509,-0.014184,0.020522,64.155914,20.309448,-148.526917,,,
729605383.781704,0.332725,2.624856,47.222504,-0.055878,-0.014725,1.025238,0.004825,-0.004359,0.018978,64.155914,20.309448,-148.526917,,,
729605383.784985,0.332725,2.624856,47.222504,-0.055878,-0.014725,1.025238,0.004825,-0.004359,0.018978,64.155914,20.309448,-148.526917,,,
729605383.788352,0.334688,2.622222,47.228248,-0.052689,-0.005356,1.018829,0.004825,-0.004359,0.018978,64.155914,20.309448,-148.526917,,,
729605383.791662,0.338564,2.620511,47.232773,-0.052689,-0.005356,1.018829,0.008175,-0.009242,0.013069,64.155914,20.309448,-148.526917,,,
729605383.79504,0.338564,2.620511,47.232773,-0.052689,-0.005356,1.018829,0.008175,-0.009242,0.013069,64.155914,20.309448,-148.526917,,,
729605383.798378,0.340368,2.617579,47.236021,-0.052353,0.000946,1.006088,0.008175,-0.009242,0.013069,64.155914,20.309448,-148.526917,,,
729605383.801655,0.344217,2.615117,47.237866,-0.052353,0.000946,1.006088,0.008036,-0.009109,0.003035,64.155914,20.309448,-148.526917,,,
729605383.804997,0.344217,2.615117,47.237866,-0.052353,0.000946,1.006088,0.008036,-0.009109,0.003035,64.155914,20.309448,-148.526917,,,
729605383.808332,0.347317,2.610985,47.237875,-0.05127,0.003632,1.006638,0.008036,-0.009109,0.003035,64.097504,20.405731,-148.677002,,,
729605383.811662,0.351755,2.60708,47.236501,-0.05127,0.003632,1.006638,0.013922,-0.014331,-0.003912,64.097504,20.405731,-148.677002,,,
729605383.815047,0.351755,2.60708,47.236501,-0.05127,0.003632,1.006638,0.013922,-0.014331,-0.003912,64.097504,20.405731,-148.677002,,,
729605383.818373,0.35681,2.601843,47.234547,-0.050247,0.001007,0.999588,0.013922,-0.014331,-0.003912,64.097504,20.405731,-148.677002,,,
729605383.821659,0.363471,2.598472,47.232946,-0.050247,0.001007,0.999588,0.022687,-0.010815,-0.00524,64.097504,20.405731,-148.677002,,,
729605383.825007,0.363471,2.598472,47.232946,-0.050247,0.001007,0.999588,0.022687,-0.010815,-0.00524,64.097504,20.405731,-148.677002,,,
729605383.828339,0.371375,2.595228,47.232699,-0.052765,-0.003235,0.999268,0.022687,-0.010815,-0.00524,64.097504,20.405731,-148.677002,,,
729605383.831799,0.379731,2.593894,47.233786,-0.052765,-0.003235,0.999268,0.034604,-0.00359,0.004904,64.097504,20.405731,-148.677002,,,
729605383.83499,0.379731,2.593894,47.233786,-0.052765,-0.003235,0.999268,0.034604,-0.00359,0.004904,64.097504,20.405731,-148.677002,,,
729605383.838334,0.390993,2.591877,47.236185,-0.052719,-0.002136,0.996475,0.034604,-0.00359,0.004904,64.097504,20.405731,-148.677002,,,
729605383.841661,0.403853,2.590333,47.239774,-0.052719,-0.002136,0.996475,0.052851,-0.000313,0.01481,64.097504,20.405731,-148.677002,,,
729605383.845053,0.403853,2.590333,47.239774,-0.052719,-0.002136,0.996475,0.052851,-0.000313,0.01481,64.097504,20.405731,-148.677002,,,
729605383.848374,0.422098,2.590422,47.244121,-0.050903,0.002365,0.998672,0.052851,-0.000313,0.01481,64.051575,20.551941,-148.595566,,,
729605383.851656,0.440183,2.593941,47.249073,-0.050903,0.002365,0.998672,0.075215,0.012197,0.020757,64.051575,20.551941,-148.595566,,,
729605383.855005,0.440183,2.593941,47.249073,-0.050903,0.002365,0.998672,0.075215,0.012197,0.020757,64.051575,20.551941,-148.595566,,,
729605383.858388,0.462101,2.597934,47.254384,-0.045639,0.006805,1.000916,0.075215,0.012197,0.020757,64.051575,20.551941,-148.595566,,,
729605383.861694,0.482059,2.602979,47.259479,-0.045639,0.006805,1.000916,0.080169,0.015825,0.018529,64.051575,20.551941,-148.595566,,,
729605383.865037,0.482059,2.602979,47.259479,-0.045639,0.006805,1.000916,0.080169,0.015825,0.018529,64.051575,20.551941,-148.595566,,,
729605383.868326,0.503738,2.606404,47.263639,-0.042114,0.012497,0.98732,0.080169,0.015825,0.018529,64.051575,20.551941,-148.595566,,,
729605383.871658,0.520854,2.610651,47.266557,-0.042114,0.012497,0.98732,0.060999,0.015885,0.010596,64.051575,20.551941,-148.595566,,,
729605383.874998,0.520854,2.610651,47.266557,-0.042114,0.012497,0.98732,0.060999,0.015885,0.010596,64.051575,20.551941,-148.595566,,,
729605383.878334,0.535112,2.613941,47.26815,-0.039139,0.018417,0.976334,0.060999,0.015885,0.010596,64.051575,20.551941,-148.595566,,,
729605383.881706,0.543057,2.617445,47.268456,-0.039139,0.018417,0.976334,0.02891,0.012644,0.000325,64.051575,20.551941,-148.595566,,,
729605383.885051,0.543057,2.617445,47.268456,-0.039139,0.018417,0.976334,0.02891,0.012644,0.000325,64.051575,20.551941,-148.595566,,,
729605383.888315,0.547379,2.618474,47.267709,-0.033157,0.024307,0.966049,0.02891,0.012644,0.000325,64.051575,20.551941,-148.595566,,,
729605383.891664,0.546351,2.616862,47.266374,-0.033157,0.024307,0.966049,-0.003587,-0.007352,-0.008293,64.184937,20.379181,-148.789001,,,
729605383.895002,0.546351,2.616862,47.266374,-0.033157,0.024307,0.966049,-0.003587,-0.007352,-0.008293,64.184937,20.379181,-148.789001,,,
729605383.898432,0.541216,2.611642,47.264371,-0.033035,0.026047,0.958939,-0.003587,-0.007352,-0.008293,64.184937,20.379181,-148.789001,,,
729605383.901646,0.529989,2.606301,47.261969,-0.033035,0.026047,0.958939,-0.03815,-0.017023,-0.013115,64.184937,20.379181,-148.789001,,,
729605383.905023,0.529989,2.606301,47.261969,-0.033035,0.026047,0.958939,-0.03815,-0.017023,-0.013115,64.184937,20.379181,-148.789001,,,
729605383.908366,0.516417,2.600487,47.259451,-0.036301,0.023804,0.965866,-0.03815,-0.017023,-0.013115,64.184937,20.379181,-148.789001,,,
729605383.911663,0.49949,2.596601,47.256509,-0.036301,0.023804,0.965866,-0.052702,-0.012471,-0.015397,64.184937,20.379181,-148.789001,,,
729605383.915122,0.49949,2.596601,47.256509,-0.036301,0.023804,0.965866,-0.052702,-0.012471,-0.015397,64.184937,20.379181,-148.789001,,,
729605383.918329,0.483665,2.592579,47.253173,-0.034103,0.021133,0.977966,-0.052702,-0.012471,-0.015397,64.184937,20.379181,-148.789001,,,
729605383.921672,0.467557,2.589131,47.2499,-0.034103,0.021133,0.977966,-0.048902,-0.011077,-0.014636,64.184937,20.379181,-148.789001,,,
729605383.925003,0.467557,2.589131,47.2499,-0.034103,0.021133,0.977966,-0.048902,-0.011077,-0.014636,64.184937,20.379181,-148.789001,,,
729605383.928337,0.45453,2.584631,47.246793,-0.036743,0.012741,0.990082,-0.048902,-0.011077,-0.014636,64.184937,20.379181,-148.789001,,,
729605383.931712,0.44188,2.581339,47.244159,-0.036743,0.012741,0.990082,-0.040462,-0.010718,-0.012539,64.080322,20.546555,-148.889313,,,
729605383.93505,0.44188,2.581339,47.244159,-0.036743,0.012741,0.990082,-0.040462,-0.010718,-0.012539,64.080322,20.546555,-148.889313,,,
729605383.938326,0.431063,2.579651,47.242583,-0.042618,0.004929,0.995193,-0.040462,-0.010718,-0.012539,64.080322,20.546555,-148.889313,,,
729605383.941668,0.422061,2.580178,47.241099,-0.042618,0.004929,0.995193,-0.029537,0.00728,-0.00783,64.080322,20.546555,-148.889313,,,
729605383.944993,0.422061,2.580178,47.241099,-0.042618,0.004929,0.995193,-0.029537,0.00728,-0.00783,64.080322,20.546555,-148.889313,,,
729605383.948371,0.414335,2.58239,47.239146,-0.044937,0.000244,1.002625,-0.029537,0.00728,-0.00783,64.080322,20.546555,-148.889313,,,
729605383.951651,0.409252,2.585416,47.237238,-0.044937,0.000244,1.002625,-0.017122,0.015933,-0.005422,64.080322,20.546555,-148.889313,,,
729605383.954991,0.409252,2.585416,47.237238,-0.044937,0.000244,1.002625,-0.017122,0.015933,-0.005422,64.080322,20.546555,-148.889313,,,
729605383.958387,0.40497,2.58849,47.23541,-0.051514,-0.00029,1.010391,-0.017122,0.015933,-0.005422,64.080322,20.546555,-148.889313,,,
729605383.96166,0.404133,2.588778,47.233458,-0.051514,-0.00029,1.010391,-0.007921,0.003807,-0.009902,64.080322,20.546555,-148.889313,,,
729605383.965035,0.404133,2.588778,47.233458,-0.051514,-0.00029,1.010391,-0.007921,0.003807,-0.009902,64.080322,20.546555,-148.889313,,,
729605383.968342,0.401739,2.587984,47.231156,-0.055557,-0.000565,1.008743,-0.007921,0.003807,-0.009902,64.080322,20.546555,-148.889313,,,
729605383.97166,0.402468,2.583684,47.228938,-0.055557,-0.000565,1.008743,-0.006715,-0.008464,-0.008005,64.13356,20.400528,-148.864822,,,
729605383.974997,0.402468,2.583684,47.228938,-0.055557,-0.000565,1.008743,-0.006715,-0.008464,-0.008005,64.13356,20.400528,-148.864822,,,
729605383.97833,0.401013,2.580168,47.226984,-0.058228,-0.001129,1.008209,-0.006715,-0.008464,-0.008005,64.13356,20.400528,-148.864822,,,
729605383.981706,0.402958,2.576421,47.22475,-0.058228,-0.001129,1.008209,0.000262,-0.004814,-0.008468,64.13356,20.400528,-148.864822,,,
729605383.985046,0.402958,2.576421,47.22475,-0.058228,-0.001129,1.008209,0.000262,-0.004814,-0.008468,64.13356,20.400528,-148.864822,,,
729605383.988334,0.40313,2.574038,47.222237,-0.055496,0.000381,1.020401,0.000262,-0.004814,-0.008468,64.13356,20.400528,-148.864822,,,
729605383.991666,0.406186,2.569471,47.219505,-0.055496,0.000381,1.020401,0.004124,-0.007212,-0.009893,64.13356,20.400528,-148.864822,,,
729605383.995002,0.406186,2.569471,47.219505,-0.055496,0.000381,1.020401,0.004124,-0.007212,-0.009893,64.13356,20.400528,-148.864822,,,
729605383.998429,0.407734,2.565164,47.216945,-0.054184,0.000168,1.0186,0.004124,-0.007212,-0.009893,64.13356,20.400528,-148.864822,,,
729605384.001648,0.411869,2.560523,47.214796,-0.054184,0.000168,1.0186,0.012285,-0.007354,-0.008976,64.13356,20.400528,-148.864822,,,
729605384.005005,0.411869,2.560523,47.214796,-0.054184,0.000168,1.0186,0.012285,-0.007354,-0.008976,64.13356,20.400528,-148.864822,,,
729605384.00835,0.415454,2.560107,47.21218,-0.050613,-0.000961,1.022079,0.012285,-0.007354,-0.008976,64.13356,20.400528,-148.864822,,,
729605384.011688,0.415454,2.560107,47.208543,-0.050613,-0.000961,1.022079,0.022206,0.010773,-0.013377,64.015121,20.229675,-148.727081,,,
729605384.015041,0.42103,2.561013,47.208543,-0.050613,-0.000961,1.022079,0.022206,0.010773,-0.013377,64.015121,20.229675,-148.727081,,,
729605384.018328,0.428155,2.561965,47.203868,-0.043961,0.002029,1.027222,0.022206,0.010773,-0.013377,64.015121,20.229675,-148.727081,,,
729605384.021663,0.43637,2.561918,47.198376,-0.043961,0.002029,1.027222,0.033303,0.002022,-0.019729,64.015121,20.229675,-148.727081,,,
729605384.025061,0.43637,2.561918,47.198376,-0.043961,0.002029,1.027222,0.033303,0.002022,-0.019729,64.015121,20.229675,-148.727081,,,
729605384.028336,0.446625,2.56116,47.192328,-0.043167,0.005539,1.014389,0.033303,0.002022,-0.019729,64.015121,20.229675,-148.727081,,,
729605384.03171,0.457179,2.560509,47.185771,-0.043167,0.005539,1.014389,0.044515,0.000973,-0.021697,64.015121,20.229675,-148.727081,,,
729605384.034985,0.457179,2.560509,47.185771,-0.043167,0.005539,1.014389,0.044515,0.000973,-0.021697,64.015121,20.229675,-148.727081,,,
729605384.0384,0.469081,2.559586,47.179098,-0.043716,0.008347,1.011795,0.044515,0.000973,-0.021697,64.015121,20.229675,-148.727081,,,
729605384.041649,0.479718,2.559444,47.1725,-0.043716,0.008347,1.011795,0.04416,-0.002027,-0.023759,64.015121,20.229675,-148.727081,,,
729605384.045,0.479718,2.559444,47.1725,-0.043716,0.008347,1.011795,0.04416,-0.002027,-0.023759,64.015121,20.229675,-148.727081,,,
729605384.048381,0.491142,2.557477,47.165982,-0.041275,0.01088,1.005692,0.04416,-0.002027,-0.023759,64.015121,20.229675,-148.727081,,,
729605384.051652,0.491142,2.555801,47.159703,-0.041275,0.01088,1.005692,0.037507,-0.011278,-0.021288,64.015121,20.229675,-148.727081,,,
729605384.054997,0.500502,2.555801,47.159703,-0.041275,0.01088,1.005692,0.037507,-0.011278,-0.021288,64.096252,20.238876,-148.668533,,,
729605384.058319,0.509871,2.551669,47.153172,-0.041489,0.011398,0.994095,0.037507,-0.011278,-0.021288,64.096252,20.238876,-148.668533,,,
729605384.061656,0.517022,2.548893,47.145882,-0.041489,0.011398,0.994095,0.029852,-0.013852,-0.024155,64.096252,20.238876,-148.668533,,,
729605384.065076,0.517022,2.548893,47.145882,-0.041489,0.011398,0.994095,0.029852,-0.013852,-0.024155,64.096252,20.238876,-148.668533,,,
729605384.068341,0.525735,2.54467,47.138173,-0.0392,0.014374,0.996277,0.029852,-0.013852,-0.024155,64.096252,20.238876,-148.668533,,,
729605384.071667,0.525735,2.54467,47.138173,-0.0392,0.014374,0.996277,0.039855,-0.009,-0.031287,64.096252,20.238876,-148.668533,,,
729605384.075021,0.534782,2.541657,47.129754,-0.0392,0.014374,0.996277,0.039855,-0.009,-0.031287,64.096252,20.238876,-148.668533,,,
729605384.078326,0.546627,2.537069,47.120687,-0.038284,0.014206,1.001968,0.039855,-0.009,-0.031287,64.096252,20.238876,-148.668533,,,
729605384.081715,0.558391,2.532804,47.112145,-0.038284,0.014206,1.001968,0.045526,-0.014615,-0.02879,64.096252,20.238876,-148.668533,,,
729605384.08499,0.558391,2.532804,47.112145,-0.038284,0.014206,1.001968,0.045526,-0.014615,-0.02879,64.096252,20.238876,-148.668533,,,
729605384.088336,0.572921,2.527673,47.105153,-0.045593,0.006683,0.99765,0.045526,-0.014615,-0.02879,64.096252,20.238876,-148.668533,,,
729605384.091707,0.572921,2.527673,47.105153,-0.045593,0.006683,0.99765,0.054091,-0.006198,-0.018438,64.096252,20.238876,-148.668533,,,
729605384.095005,0.586442,2.524059,47.099712,-0.045593,0.006683,0.99765,0.054091,-0.006198,-0.018438,64.025757,20.398865,-148.747635,,,
729605384.098438,0.6008,2.521142,47.094919,-0.04953,0.000977,1.002701,0.054091,-0.006198,-0.018438,64.025757,20.398865,-148.747635,,,
729605384.101729,0.6008,2.521142,47.090206,-0.04953,0.000977,1.002701,0.045578,-0.009106,-0.01499,64.025757,20.398865,-148.747635,,,
729605384.104989,0.612594,2.517604,47.090206,-0.04953,0.000977,1.002701,0.045578,-0.009106,-0.01499,64.025757,20.398865,-148.747635,,,
729605384.108335,0.62369,2.513129,47.085401,-0.043152,0.006775,0.990036,0.045578,-0.009106,-0.01499,64.025757,20.398865,-148.747635,,,
729605384.111718,0.62369,2.513129,47.085401,-0.043152,0.006775,0.990036,0.039872,-0.012698,-0.020551,64.025757,20.398865,-148.747635,,,
729605384.115115,0.633832,2.508621,47.079702,-0.043152,0.006775,0.990036,0.039872,-0.012698,-0.020551,64.025757,20.398865,-148.747635,,,
729605384.118337,0.644743,2.505134,47.072607,-0.03949,0.011673,0.990311,0.039872,-0.012698,-0.020551,64.025757,20.398865,-148.747635,,,
729605384.121701,0.644743,2.505134,47.072607,-0.03949,0.011673,0.990311,0.046266,-0.01019,-0.029024,64.025757,20.398865,-148.747635,,,
729605384.12501,0.656101,2.501558,47.064572,-0.03949,0.011673,0.990311,0.046266,-0.01019,-0.029024,64.025757,20.398865,-148.747635,,,
729605384.128381,0.668614,2.497726,47.056556,-0.043457,0.012863,0.997437,0.046266,-0.01019,-0.029024,64.025757,20.398865,-148.747635,,,
729605384.131688,0.668614,2.497726,47.056556,-0.043457,0.012863,0.997437,0.046349,-0.01341,-0.016662,64.025757,20.398865,-148.747635,,,
729605384.134987,0.681239,2.493259,47.050216,-0.043457,0.012863,0.997437,0.046349,-0.01341,-0.016662,64.229187,19.990906,-149.045486,,,
729605384.138332,0.693067,2.489822,47.045968,-0.054688,0.008728,0.990936,0.046349,-0.01341,-0.016662,64.229187,19.990906,-149.045486,,,
729605384.141692,0.693067,2.489822,47.045968,-0.054688,0.008728,0.990936,0.037681,-0.00059,-0.005063,64.229187,19.990906,-149.045486,,,
729605384.145004,0.703414,2.487972,47.04366,-0.054688,0.008728,0.990936,0.037681,-0.00059,-0.005063,64.229187,19.990906,-149.045486,,,
729605384.148376,0.712177,2.488052,47.044065,-0.055542,0.007721,0.989548,0.037681,-0.00059,-0.005063,64.229187,19.990906,-149.045486,,,
729605384.151699,0.712177,2.488052,47.044065,-0.055542,0.007721,0.989548,0.019831,0.004052,0.012599,64.229187,19.990906,-149.045486,,,
729605384.155035,0.718605,2.487696,47.047238,-0.055542,0.007721,0.989548,0.019831,0.004052,0.012599,64.229187,19.990906,-149.045486,,,
729605384.15832,0.721356,2.487945,47.052815,-0.055054,0.01091,0.980545,0.019831,0.004052,0.012599,64.229187,19.990906,-149.045486,,,
729605384.161658,0.721356,2.487945,47.052815,-0.055054,0.01091,0.980545,-0.003214,0.002949,0.022702,64.229187,19.990906,-149.045486,,,
729605384.165054,0.72086,2.487733,47.059456,-0.055054,0.01091,0.980545,-0.003214,0.002949,0.022702,64.229187,19.990906,-149.045486,,,
729605384.168322,0.718015,2.488209,47.066164,-0.050507,0.017105,0.974594,-0.003214,0.002949,0.022702,64.229187,19.990906,-149.045486,,,
729605384.171672,0.718015,2.488209,47.066164,-0.050507,0.017105,0.974594,-0.016906,0.005522,0.021272,64.229187,19.990906,-149.045486,,,
729605384.174983,0.711886,2.489693,47.07298,-0.050507,0.017105,0.974594,-0.016906,0.005522,0.021272,64.212463,20.054321,-148.937561,,,
729605384.178322,0.705601,2.490117,47.078891,-0.041855,0.021667,0.978775,-0.016906,0.005522,0.021272,64.212463,20.054321,-148.937561,,,
729605384.181726,0.705601,2.490117,47.078891,-0.041855,0.021667,0.978775,-0.023397,-0.001472,0.010146,64.212463,20.054321,-148.937561,,,
729605384.184996,0.697931,2.489218,47.082956,-0.041855,0.021667,0.978775,-0.023397,-0.001472,0.010146,64.212463,20.054321,-148.937561,,,
729605384.188315,0.691763,2.485843,47.085507,-0.037598,0.020233,0.979767,-0.023397,-0.001472,0.010146,64.212463,20.054321,-148.937561,,,
729605384.191718,0.691763,2.485843,47.085507,-0.037598,0.020233,0.979767,-0.023397,-0.001472,0.010146,64.212463,20.054321,-148.937561,,,
729605384.19506,0.686122,2.480926,47.087047,-0.037598,0.020233,0.979767,-0.016727,-0.012464,0.002416,64.212463,20.054321,-148.937561,,,
729605384.198355,0.681812,2.475232,47.086902,-0.039017,0.01738,0.984512,-0.016727,-0.012464,0.002416,64.212463,20.054321,-148.937561,,,
729605384.201652,0.681812,2.475232,47.086902,-0.039017,0.01738,0.984512,-0.016727,-0.012464,0.002416,64.212463,20.054321,-148.937561,,,
729605384.205,0.678354,2.466949,47.085203,-0.039017,0.01738,0.984512,-0.011645,-0.024746,-0.009854,64.212463,20.054321,-148.937561,,,
729605384.208321,0.675415,2.456337,47.08283,-0.033615,0.013916,0.984299,-0.011645,-0.024746,-0.009854,64.212463,20.054321,-148.937561,,,
729605384.211687,0.675415,2.456337,47.08283,-0.033615,0.013916,0.984299,-0.011645,-0.024746,-0.009854,64.212463,20.054321,-148.937561,,,
729605384.215095,0.672678,2.444609,47.079304,-0.033615,0.013916,0.984299,-0.007616,-0.040737,-0.014587,64.212463,20.054321,-148.937561,,,
729605384.218317,0.669998,2.431977,47.074192,-0.029114,0.017792,0.980301,-0.007616,-0.040737,-0.014587,63.950668,20.027298,-148.972641,,,
729605384.221744,0.669998,2.431977,47.074192,-0.029114,0.017792,0.980301,-0.007616,-0.040737,-0.014587,63.950668,20.027298,-148.972641,,,
729605384.225007,0.666266,2.421974,47.067536,-0.029114,0.017792,0.980301,-0.012288,-0.037377,-0.027314,63.950668,20.027298,-148.972641,,,
729605384.228333,0.661426,2.411445,47.059423,-0.019836,0.020355,0.983932,-0.012288,-0.037377,-0.027314,63.950668,20.027298,-148.972641,,,
729605384.231767,0.661426,2.411445,47.059423,-0.019836,0.020355,0.983932,-0.012288,-0.037377,-0.027314,63.950668,20.027298,-148.972641,,,
729605384.235052,0.653913,2.404763,47.050326,-0.019836,0.020355,0.983932,-0.025674,-0.021166,-0.035782,63.950668,20.027298,-148.972641,,,
729605384.238321,0.643713,2.400449,47.040737,-0.019745,0.021561,0.985428,-0.025674,-0.021166,-0.035782,63.950668,20.027298,-148.972641,,,
729605384.241696,0.643713,2.400449,47.040737,-0.019745,0.021561,0.985428,-0.025674,-0.021166,-0.035782,63.950668,20.027298,-148.972641,,,
729605384.244995,0.631374,2.401656,47.03137,-0.019745,0.021561,0.985428,-0.043881,0.005228,-0.03643,63.950668,20.027298,-148.972641,,,
729605384.248375,0.616737,2.404997,47.023152,-0.029907,0.016434,0.989426,-0.043881,0.005228,-0.03643,63.950668,20.027298,-148.972641,,,
729605384.251669,0.616737,2.404997,47.023152,-0.029907,0.016434,0.989426,-0.043881,0.005228,-0.03643,63.950668,20.027298,-148.972641,,,
729605384.25501,0.601379,2.412143,47.016478,-0.029907,0.016434,0.989426,-0.056067,0.028917,-0.027302,63.950668,20.027298,-148.972641,,,
729605384.258318,0.58523,2.421202,47.011503,-0.040009,0.007217,0.997772,-0.056067,0.028917,-0.027302,63.84256,20.249298,-149.267136,,,
729605384.261771,0.58523,2.421202,47.011503,-0.040009,0.007217,0.997772,-0.056067,0.028917,-0.027302,63.84256,20.249298,-149.267136,,,
729605384.265037,0.571165,2.430679,47.007416,-0.040009,0.007217,0.997772,-0.05134,0.036233,-0.016699,63.84256,20.249298,-149.267136,,,
729605384.26833,0.558264,2.439472,47.003596,-0.044083,0.002991,1.001236,-0.05134,0.036233,-0.016699,63.84256,20.249298,-149.267136,,,
729605384.271712,0.558264,2.439472,47.003596,-0.044083,0.002991,1.001236,-0.05134,0.036233,-0.016699,63.84256,20.249298,-149.267136,,,
729605384.275043,0.550226,2.447066,46.999395,-0.044083,0.002991,1.001236,-0.029323,0.030946,-0.017413,63.84256,20.249298,-149.267136,,,
729605384.278326,0.545208,2.453693,46.993797,-0.048294,0.001785,1.009628,-0.029323,0.030946,-0.017413,63.84256,20.249298,-149.267136,,,
729605384.281744,0.545208,2.453693,46.993797,-0.048294,0.001785,1.009628,-0.029323,0.030946,-0.017413,63.84256,20.249298,-149.267136,,,
729605384.284995,0.544686,2.456448,46.987016,-0.048294,0.001785,1.009628,0.000379,0.012236,-0.028213,63.84256,20.249298,-149.267136,,,
729605384.288332,0.545561,2.456348,46.98001,-0.052704,0.00032,1.00708,0.000379,0.012236,-0.028213,63.84256,20.249298,-149.267136,,,
729605384.291655,0.545561,2.456348,46.98001,-0.052704,0.00032,1.00708,0.000379,0.012236,-0.028213,63.84256,20.249298,-149.267136,,,
729605384.295008,0.547401,2.453192,46.973678,-0.052704,0.00032,1.00708,0.00689,-0.005353,-0.021021,63.84256,20.249298,-149.267136,,,
729605384.298374,0.548325,2.45097,46.968869,-0.063095,-0.001541,0.996521,0.00689,-0.005353,-0.021021,63.968369,20.193619,-149.003281,,,
729605384.301654,0.548325,2.45097,46.968869,-0.063095,-0.001541,0.996521,0.00689,-0.005353,-0.021021,63.968369,20.193619,-149.003281,,,
729605384.305003,0.550436,2.446004,46.965754,-0.063095,-0.001541,0.996521,0.003923,-0.006651,-0.012791,63.968369,20.193619,-149.003281,,,
729605384.308332,0.550998,2.441353,46.963249,-0.059296,-0.002274,1.000412,0.003923,-0.006651,-0.012791,63.968369,20.193619,-149.003281,,,
729605384.311659,0.550998,2.441353,46.963249,-0.059296,-0.002274,1.000412,0.003923,-0.006651,-0.012791,63.968369,20.193619,-149.003281,,,
729605384.315041,0.553079,2.431843,46.960514,-0.059296,-0.002274,1.000412,0.005025,-0.02237,-0.009046,63.968369,20.193619,-149.003281,,,
729605384.318326,0.553761,2.42425,46.957234,-0.046021,0.005539,0.999008,0.005025,-0.02237,-0.009046,63.968369,20.193619,-149.003281,,,
729605384.32167,0.553761,2.42425,46.957234,-0.046021,0.005539,0.999008,0.005025,-0.02237,-0.009046,63.968369,20.193619,-149.003281,,,
729605384.325029,0.555409,2.415275,46.952775,-0.046021,0.005539,0.999008,0.002518,-0.018442,-0.017881,63.968369,20.193619,-149.003281,,,
729605384.328327,0.553657,2.410899,46.947134,-0.043304,0.011154,0.999847,0.002518,-0.018442,-0.017881,63.968369,20.193619,-149.003281,,,
729605384.331682,0.553657,2.410899,46.947134,-0.043304,0.011154,0.999847,0.002518,-0.018442,-0.017881,63.968369,20.193619,-149.003281,,,
729605384.335012,0.550118,2.407627,46.941253,-0.043304,0.011154,0.999847,-0.015632,-0.001944,-0.021021,63.968369,20.193619,-149.003281,,,
729605384.338327,0.543683,2.40764,46.935532,-0.043411,0.015015,0.999802,-0.015632,-0.001944,-0.021021,63.968369,20.193619,-149.003281,,,
729605384.34166,0.543683,2.40764,46.935532,-0.043411,0.015015,0.999802,-0.015632,-0.001944,-0.021021,63.878677,20.415985,-148.719009,,,
729605384.345011,0.534667,2.409414,46.930307,-0.043411,0.015015,0.999802,-0.026398,0.010855,-0.020014,63.878677,20.415985,-148.719009,,,
729605384.348363,0.526214,2.411457,46.926226,-0.047302,0.012009,1.001419,-0.026398,0.010855,-0.020014,63.878677,20.415985,-148.719009,,,
729605384.351648,0.526214,2.411457,46.926226,-0.047302,0.012009,1.001419,-0.026398,0.010855,-0.020014,63.878677,20.415985,-148.719009,,,
729605384.355005,0.516902,2.414055,46.924072,-0.047302,0.012009,1.001419,-0.026231,0.011762,-0.008743,63.878677,20.415985,-148.719009,,,
729605384.358318,0.508683,2.416836,46.923838,-0.0504,0.006165,1.002747,-0.026231,0.011762,-0.008743,63.878677,20.415985,-148.719009,,,
729605384.361711,0.508683,2.416836,46.923838,-0.0504,0.006165,1.002747,-0.026231,0.011762,-0.008743,63.878677,20.415985,-148.719009,,,
729605384.36504,0.500039,2.420002,46.924819,-0.0504,0.006165,1.002747,-0.026479,0.01093,0.00428,63.878677,20.415985,-148.719009,,,
729605384.368317,0.492716,2.421123,46.926241,-0.049728,0.00824,0.998581,-0.026479,0.01093,0.00428,63.878677,20.415985,-148.719009,,,
729605384.371663,0.492716,2.421123,46.926241,-0.049728,0.00824,0.998581,-0.026479,0.01093,0.00428,63.878677,20.415985,-148.719009,,,
729605384.375041,0.48439,2.422848,46.92735,-0.049728,0.00824,0.998581,-0.023895,0.004474,0.002013,63.878677,20.415985,-148.719009,,,
729605384.378315,0.478409,2.422672,46.927931,-0.045319,0.012924,0.99826,-0.023895,0.004474,0.002013,63.878677,20.415985,-148.719009,,,
729605384.381691,0.478409,2.422672,46.927931,-0.045319,0.012924,0.99826,-0.023895,0.004474,0.002013,63.95787,20.136673,-149.003677,,,
729605384.384994,0.472716,2.42608,46.927645,-0.045319,0.012924,0.99826,-0.014398,0.003827,-0.003194,63.95787,20.136673,-149.003677,,,
729605384.388318,0.469823,2.427201,46.926623,-0.040253,0.015747,1.003815,-0.014398,0.003827,-0.003194,63.95787,20.136673,-149.003677,,,
729605384.391657,0.469823,2.427201,46.926623,-0.040253,0.015747,1.003815,-0.014398,0.003827,-0.003194,63.95787,20.136673,-149.003677,,,
729605384.395005,0.467179,2.430107,46.925015,-0.040253,0.015747,1.003815,-0.003181,0.006343,-0.008189,63.95787,20.136673,-149.003677,,,
729605384.398392,0.465919,2.430692,46.923004,-0.040451,0.015228,1.004486,-0.003181,0.006343,-0.008189,63.95787,20.136673,-149.003677,,,
729605384.401646,0.465919,2.430692,46.923004,-0.040451,0.015228,1.004486,-0.003181,0.006343,-0.008189,63.95787,20.136673,-149.003677,,,
729605384.404989,0.464226,2.430998,46.921079,-0.040451,0.015228,1.004486,-0.004185,0.003407,-0.009421,63.95787,20.136673,-149.003677,,,
729605384.408325,0.462082,2.431656,46.919528,-0.046692,0.012817,0.997589,-0.004185,0.003407,-0.009421,63.95787,20.136673,-149.003677,,,
729605384.411691,0.462082,2.431656,46.919528,-0.046692,0.012817,0.997589,-0.004185,0.003407,-0.009421,63.95787,20.136673,-149.003677,,,
729605384.415031,0.460693,2.432992,46.918284,-0.046692,0.012817,0.997589,-0.006691,0.007814,-0.006996,63.95787,20.136673,-149.003677,,,
729605384.418318,0.459527,2.434286,46.917071,-0.047989,0.010422,1.001663,-0.006691,0.007814,-0.006996,63.95787,20.136673,-149.003677,,,
729605384.421655,0.459527,2.434286,46.917071,-0.047989,0.010422,1.001663,-0.006691,0.007814,-0.006996,63.946167,20.271393,-149.007965,,,
729605384.425114,0.460724,2.434474,46.915837,-0.047989,0.010422,1.001663,0.006831,0.000515,-0.005039,63.946167,20.271393,-149.007965,,,
729605384.428325,0.463124,2.432098,46.914224,-0.04567,0.009918,1.006485,0.006831,0.000515,-0.005039,63.946167,20.271393,-149.007965,,,
729605384.431726,0.463124,2.432098,46.914224,-0.04567,0.009918,1.006485,0.006831,0.000515,-0.005039,63.946167,20.271393,-149.007965,,,
729605384.434993,0.467549,2.429483,46.912418,-0.04567,0.009918,1.006485,0.016065,-0.008248,-0.007858,63.946167,20.271393,-149.007965,,,
729605384.438342,0.472539,2.427049,46.910685,-0.040833,0.010178,1.001785,0.016065,-0.008248,-0.007858,63.946167,20.271393,-149.007965,,,
729605384.441672,0.472539,2.427049,46.910685,-0.040833,0.010178,1.001785,0.016065,-0.008248,-0.007858,63.946167,20.271393,-149.007965,,,
729605384.444997,0.476949,2.427033,46.908522,-0.040833,0.010178,1.001785,0.019038,-0.000511,-0.010211,63.946167,20.271393,-149.007965,,,
729605384.448372,0.481932,2.426855,46.905362,-0.040558,0.012787,1.002213,0.019038,-0.000511,-0.010211,63.946167,20.271393,-149.007965,,,
729605384.451648,0.481932,2.426855,46.905362,-0.040558,0.012787,1.002213,0.019038,-0.000511,-0.010211,63.946167,20.271393,-149.007965,,,
729605384.455,0.487437,2.428263,46.90156,-0.040558,0.012787,1.002213,0.020397,0.004274,-0.014297,63.946167,20.271393,-149.007965,,,
729605384.458329,0.491835,2.428974,46.898071,-0.039825,0.012466,0.998398,0.020397,0.004274,-0.014297,63.946167,20.271393,-149.007965,,,
729605384.461654,0.491835,2.428974,46.898071,-0.039825,0.012466,0.998398,0.020397,0.004274,-0.014297,64.086914,20.098831,-148.748199,,,
729605384.465084,0.496203,2.43044,46.895268,-0.039825,0.012466,0.998398,0.014198,0.01179,-0.010371,64.086914,20.098831,-148.748199,,,
729605384.46841,0.499255,2.433422,46.893555,-0.042572,0.011459,0.997604,0.014198,0.01179,-0.010371,64.086914,20.098831,-148.748199,,,
729605384.471685,0.499255,2.433422,46.893555,-0.042572,0.011459,0.997604,0.014198,0.01179,-0.010371,64.086914,20.098831,-148.748199,,,
729605384.475023,0.502853,2.437448,46.892941,-0.042572,0.011459,0.997604,0.008469,0.019198,-0.00314,64.086914,20.098831,-148.748199,,,
729605384.478329,0.505257,2.442278,46.892484,-0.044373,0.013916,0.996735,0.008469,0.019198,-0.00314,64.086914,20.098831,-148.748199,,,
729605384.48173,0.505257,2.442278,46.892484,-0.044373,0.013916,0.996735,0.008469,0.019198,-0.00314,64.086914,20.098831,-148.748199,,,
729605384.485006,0.507445,2.445356,46.891364,-0.044373,0.013916,0.996735,0.002923,0.011347,-0.005906,64.086914,20.098831,-148.748199,,,
729605384.488328,0.507475,2.445836,46.889245,-0.042343,0.02066,0.987961,0.002923,0.011347,-0.005906,64.086914,20.098831,-148.748199,,,
729605384.491723,0.507475,2.445836,46.889245,-0.042343,0.02066,0.987961,0.002923,0.011347,-0.005906,64.086914,20.098831,-148.748199,,,
729605384.494994,0.506316,2.445895,46.886383,-0.042343,0.02066,0.987961,-0.006657,0.001785,-0.012669,64.086914,20.098831,-148.748199,,,
729605384.498374,0.503185,2.445779,46.882765,-0.044083,0.021667,0.986923,-0.006657,0.001785,-0.012669,64.086914,20.098831,-148.748199,,,
729605384.50165,0.503185,2.445779,46.882765,-0.044083,0.021667,0.986923,-0.006657,0.001785,-0.012669,64.086914,20.098831,-148.748199,,,
729605384.505048,0.500052,2.446753,46.878576,-0.044083,0.021667,0.986923,-0.010634,0.003,-0.014677,63.888702,20.110336,-148.822525,,,
729605384.508319,0.498365,2.446481,46.874719,-0.046692,0.015289,0.993271,-0.010634,0.003,-0.014677,63.888702,20.110336,-148.822525,,,
729605384.51167,0.498365,2.446481,46.874719,-0.046692,0.015289,0.993271,-0.010634,0.003,-0.014677,63.888702,20.110336,-148.822525,,,
729605384.51505,0.499298,2.444197,46.871529,-0.046692,0.015289,0.993271,0.004846,-0.00493,-0.01057,63.888702,20.110336,-148.822525,,,
729605384.518328,0.502443,2.439491,46.869438,-0.044724,0.006027,0.997696,0.004846,-0.00493,-0.01057,63.888702,20.110336,-148.822525,,,
729605384.521667,0.502443,2.439491,46.869438,-0.044724,0.006027,0.997696,0.004846,-0.00493,-0.01057,63.888702,20.110336,-148.822525,,,
729605384.525004,0.507442,2.433361,46.868939,-0.044724,0.006027,0.997696,0.017416,-0.017864,-0.002865,63.888702,20.110336,-148.822525,,,
729605384.528327,0.513555,2.429067,46.869432,-0.043793,-0.000122,0.998322,0.017416,-0.017864,-0.002865,63.888702,20.110336,-148.822525,,,
729605384.531752,0.513555,2.429067,46.869432,-0.043793,-0.000122,0.998322,0.017416,-0.017864,-0.002865,63.888702,20.110336,-148.822525,,,
729605384.534993,0.520817,2.427994,46.869842,-0.043793,-0.000122,0.998322,0.023654,0.002672,-0.000235,63.888702,20.110336,-148.822525,,,
729605384.53833,0.527122,2.429938,46.870429,-0.04332,0.001114,1.003647,0.023654,0.002672,-0.000235,63.888702,20.110336,-148.822525,,,
729605384.541654,0.527122,2.429938,46.870429,-0.04332,0.001114,1.003647,0.023654,0.002672,-0.000235,63.888702,20.110336,-148.822525,,,
729605384.54505,0.532977,2.433206,46.871877,-0.04332,0.001114,1.003647,0.020944,0.018364,0.00412,64.087143,20.26918,-148.717697,,,
729605384.548363,0.537151,2.438229,46.874135,-0.040924,0.005341,1.00029,0.020944,0.018364,0.00412,64.087143,20.26918,-148.717697,,,
729605384.551652,0.537151,2.438229,46.874135,-0.040924,0.005341,1.00029,0.020944,0.018364,0.00412,64.087143,20.26918,-148.717697,,,
729605384.555007,0.54034,2.445545,46.877073,-0.040924,0.005341,1.00029,0.005681,0.0318,0.008432,64.087143,20.26918,-148.717697,,,
729605384.558325,0.541721,2.454878,46.88032,-0.046127,0.008148,0.995316,0.005681,0.0318,0.008432,64.087143,20.26918,-148.717697,,,
729605384.561657,0.541721,2.454878,46.88032,-0.046127,0.008148,0.995316,0.005681,0.0318,0.008432,64.087143,20.26918,-148.717697,,,
729605384.565052,0.542978,2.465489,46.883446,-0.046127,0.008148,0.995316,-0.003515,0.040344,0.01048,64.087143,20.26918,-148.717697,,,
729605384.568323,0.541971,2.475386,46.885993,-0.04306,0.011719,0.994919,-0.003515,0.040344,0.01048,64.087143,20.26918,-148.717697,,,
729605384.571702,0.541971,2.475386,46.885993,-0.04306,0.011719,0.994919,-0.003515,0.040344,0.01048,64.087143,20.26918,-148.717697,,,
729605384.575003,0.540652,2.483505,46.887652,-0.04306,0.011719,0.994919,-0.010355,0.030271,0.004121,64.087143,20.26918,-148.717697,,,
729605384.578336,0.536358,2.489971,46.888296,-0.043442,0.013611,0.985413,-0.010355,0.030271,0.004121,64.087143,20.26918,-148.717697,,,
729605384.581694,0.536358,2.489971,46.888296,-0.043442,0.013611,0.985413,-0.010355,0.030271,0.004121,64.087143,20.26918,-148.717697,,,
729605384.585,0.533983,2.495421,46.8887,-0.043442,0.013611,0.985413,-0.013563,0.020252,-0.004766,64.110077,20.16452,-148.896988,,,
729605384.588329,0.531522,2.498582,46.889217,-0.052795,0.007599,0.993164,-0.013563,0.020252,-0.004766,64.110077,20.16452,-148.896988,,,
729605384.591667,0.531522,2.498582,46.889217,-0.052795,0.007599,0.993164,-0.013563,0.020252,-0.004766,64.110077,20.16452,-148.896988,,,
729605384.595062,0.532,2.500465,46.889315,-0.052795,0.007599,0.993164,0.005403,0.00874,-0.002433,64.110077,20.16452,-148.896988,,,
729605384.598424,0.536074,2.50035,46.888891,-0.05275,0.001114,1.004288,0.005403,0.00874,-0.002433,64.110077,20.16452,-148.896988,,,
729605384.60166,0.536074,2.50035,46.888891,-0.05275,0.001114,1.004288,0.005403,0.00874,-0.002433,64.110077,20.16452,-148.896988,,,
729605384.605004,0.542057,2.498176,46.887969,-0.05275,0.001114,1.004288,0.026965,-0.006384,-0.005191,64.110077,20.16452,-148.896988,,,
729605384.608329,0.549915,2.493561,46.886884,-0.0466,0.000824,1.00708,0.026965,-0.006384,-0.005191,64.110077,20.16452,-148.896988,,,
729605384.611673,0.549915,2.493561,46.886884,-0.0466,0.000824,1.00708,0.026965,-0.006384,-0.005191,64.110077,20.16452,-148.896988,,,
729605384.615041,0.555552,2.487597,46.885698,-0.0466,0.000824,1.00708,0.026291,-0.018158,-0.004271,64.110077,20.16452,-148.896988,,,
729605384.618324,0.560331,2.482513,46.88494,-0.046021,0.005508,0.99147,0.026291,-0.018158,-0.004271,64.110077,20.16452,-148.896988,,,
729605384.62173,0.560331,2.482513,46.88494,-0.046021,0.005508,0.99147,0.026291,-0.018158,-0.004271,64.110077,20.16452,-148.896988,,,
729605384.624988,0.562073,2.479975,46.885325,-0.046021,0.005508,0.99147,0.010967,-0.001948,0.001653,64.208664,20.104401,-148.939774,,,
729605384.62833,0.563498,2.480667,46.886836,-0.044983,0.007294,0.997665,0.010967,-0.001948,0.001653,64.208664,20.104401,-148.939774,,,
729605384.631711,0.563498,2.480667,46.886836,-0.044983,0.007294,0.997665,0.010967,-0.001948,0.001653,64.208664,20.104401,-148.939774,,,
729605384.634992,0.564157,2.484034,46.890003,-0.044983,0.007294,0.997665,0.001132,0.017359,0.009179,64.208664,20.104401,-148.939774,,,
729605384.638326,0.566484,2.49026,46.894957,-0.047394,0.005859,1.003738,0.001132,0.017359,0.009179,64.208664,20.104401,-148.939774,,,
729605384.641668,0.566484,2.49026,46.894957,-0.047394,0.005859,1.003738,0.001132,0.017359,0.009179,64.208664,20.104401,-148.939774,,,
729605384.644996,0.571873,2.500393,46.900555,-0.047394,0.005859,1.003738,0.019738,0.042418,0.02078,64.208664,20.104401,-148.939774,,,
729605384.648371,0.580282,2.512747,46.906392,-0.043457,0.004623,1.019272,0.019738,0.042418,0.02078,64.208664,20.104401,-148.939774,,,
729605384.651656,0.580282,2.512747,46.906392,-0.043457,0.004623,1.019272,0.019738,0.042418,0.02078,64.208664,20.104401,-148.939774,,,
729605384.654992,0.589969,2.525114,46.911847,-0.043457,0.004623,1.019272,0.033577,0.04745,0.018306,64.208664,20.104401,-148.939774,,,
729605384.65833,0.59866,2.535738,46.915883,-0.037018,0.006973,1.007492,0.033577,0.04745,0.018306,64.208664,20.104401,-148.939774,,,
729605384.661741,0.59866,2.535738,46.915883,-0.037018,0.006973,1.007492,0.033577,0.04745,0.018306,64.208664,20.104401,-148.939774,,,
729605384.66504,0.605059,2.544145,46.918759,-0.037018,0.006973,1.007492,0.019295,0.027824,0.009365,64.208664,20.104401,-148.939774,,,
729605384.668322,0.607799,2.55009,46.921095,-0.043274,0.011978,0.987289,0.019295,0.027824,0.009365,64.161484,20.270554,-148.668594,,,
729605384.671667,0.607799,2.55009,46.921095,-0.043274,0.011978,0.987289,0.019295,0.027824,0.009365,64.161484,20.270554,-148.668594,,,
729605384.675036,0.606332,2.555768,46.92236,-0.043274,0.011978,0.987289,-0.006418,0.022473,0.001655,64.161484,20.270554,-148.668594,,,
729605384.678316,0.602864,2.5581,46.922771,-0.046387,0.018005,0.986069,-0.006418,0.022473,0.001655,64.161484,20.270554,-148.668594,,,
729605384.681702,0.602864,2.5581,46.922771,-0.046387,0.018005,0.986069,-0.006418,0.022473,0.001655,64.161484,20.270554,-148.668594,,,
729605384.684993,0.596683,2.557714,46.922543,-0.046387,0.018005,0.986069,-0.017701,-0.005488,-0.003936,64.161484,20.270554,-148.668594,,,
729605384.688324,0.593212,2.552963,46.921507,-0.044296,0.013824,0.986801,-0.017701,-0.005488,-0.003936,64.161484,20.270554,-148.668594,,,
729605384.691663,0.593212,2.552963,46.921507,-0.044296,0.013824,0.986801,-0.017701,-0.005488,-0.003936,64.161484,20.270554,-148.668594,,,
729605384.695007,0.592783,2.546014,46.919894,-0.044296,0.013824,0.986801,0.007639,-0.021881,-0.008205,64.161484,20.270554,-148.668594,,,
729605384.698371,0.597775,2.538973,46.918005,-0.044434,0.007401,1.006348,0.007639,-0.021881,-0.008205,64.161484,20.270554,-148.668594,,,
729605384.701712,0.597775,2.538973,46.918005,-0.044434,0.007401,1.006348,0.007639,-0.021881,-0.008205,64.161484,20.270554,-148.668594,,,
729605384.704989,0.605718,2.532509,46.915674,-0.044434,0.007401,1.006348,0.033676,-0.019015,-0.010575,64.161484,20.270554,-148.668594,,,
729605384.708319,0.615719,2.525935,46.9131,-0.043167,0.006378,1.013809,0.033676,-0.019015,-0.010575,64.289703,20.132553,-148.700562,,,
729605384.711658,0.615719,2.525935,46.9131,-0.043167,0.006378,1.013809,0.033676,-0.019015,-0.010575,64.289703,20.132553,-148.700562,,,
729605384.71508,0.624229,2.520687,46.911192,-0.043167,0.006378,1.013809,0.030269,-0.015415,-0.006188,64.289703,20.132553,-148.700562,,,
729605384.71832,0.630029,2.518196,46.910028,-0.044434,0.009094,0.993698,0.030269,-0.015415,-0.006188,64.289703,20.132553,-148.700562,,,
729605384.72167,0.630029,2.518196,46.910028,-0.044434,0.009094,0.993698,0.030269,-0.015415,-0.006188,64.289703,20.132553,-148.700562,,,
729605384.724997,0.63118,2.520225,46.909857,-0.044434,0.009094,0.993698,0.003374,0.011763,-0.001993,64.289703,20.132553,-148.700562,,,
729605384.728321,0.629407,2.524209,46.911266,-0.043655,0.014908,0.992294,0.003374,0.011763,-0.001993,64.289703,20.132553,-148.700562,,,
729605384.731696,0.629407,2.524209,46.911266,-0.043655,0.014908,0.992294,0.003374,0.011763,-0.001993,64.289703,20.132553,-148.700562,,,
729605384.734986,0.624425,2.527465,46.913251,-0.043655,0.014908,0.992294,-0.012997,0.017259,0.00447,64.289703,20.132553,-148.700562,,,
729605384.738324,0.61878,2.529734,46.914747,-0.039673,0.017899,0.986954,-0.012997,0.017259,0.00447,64.289703,20.132553,-148.700562,,,
