Time (sec),Pitch (deg),Roll (deg),Yaw(deg),X-Acceleration (g),Y-Acceleration (g),Z-Acceleration (g),Pitch Rate (deg/sec),Roll Rate (deg/sec),Yaw Rate (deg/sec),Magnetic Field in X direction (uT),Magnetic Field in Y direction (uT),Magnetic Field in Z Direction (uT),Latitude (deg),Longitude (deg),Altitude (m)
729606240.442077,-1.284101,0.704937,57.21354,-0.018646,-0.021255,0.990326,0.001022,-0.078125,-0.023982,63.233887,24.747375,-147.948639,,,
729606240.445341,-1.285293,0.673619,57.205383,-0.018646,-0.021255,0.990326,0.001022,-0.078125,-0.023982,63.233887,24.747375,-147.948639,,,
729606240.44868,-1.285293,0.673619,57.205383,-0.018646,-0.021255,0.990326,0.001022,-0.078125,-0.023982,63.233887,24.747375,-147.948639,,,
729606240.452021,-1.283536,0.645736,57.195201,-0.008789,-0.019806,0.993881,0.007943,-0.095372,-0.03911,63.205826,24.531494,-147.977081,,,
729606240.455415,-1.28402,0.606881,57.183024,-0.008789,-0.019806,0.993881,0.007943,-0.095372,-0.03911,63.205826,24.531494,-147.977081,,,
729606240.458687,-1.28402,0.606881,57.183024,-0.008789,-0.019806,0.993881,0.007943,-0.095372,-0.03911,63.205826,24.531494,-147.977081,,,
729606240.462016,-1.281384,0.577468,57.170359,-0.000778,-0.021301,0.99678,0.011945,-0.099494,-0.045943,63.205826,24.531494,-147.977081,,,
729606240.465343,-1.279727,0.542256,57.157193,-0.000778,-0.021301,0.99678,0.011945,-0.099494,-0.045943,63.205826,24.531494,-147.977081,,,
729606240.468735,-1.279727,0.542256,57.157193,-0.000778,-0.021301,0.99678,0.011945,-0.099494,-0.045943,63.205826,24.531494,-147.977081,,,
729606240.47201,-1.277174,0.515688,57.143368,0.003113,-0.021576,0.997253,0.008284,-0.08704,-0.051547,63.205826,24.531494,-147.977081,,,
729606240.47536,-1.275178,0.490081,57.128921,0.003113,-0.021576,0.997253,0.008284,-0.08704,-0.051547,63.205826,24.531494,-147.977081,,,
729606240.478672,-1.275178,0.490081,57.128921,0.003113,-0.021576,0.997253,0.008284,-0.08704,-0.051547,63.205826,24.531494,-147.977081,,,
729606240.482073,-1.27298,0.471234,57.114279,0.007751,-0.021698,0.99765,0.008762,-0.058549,-0.052731,63.205826,24.531494,-147.977081,,,
729606240.485353,-1.272718,0.460503,57.100038,0.007751,-0.021698,0.99765,0.008762,-0.058549,-0.052731,63.205826,24.531494,-147.977081,,,
729606240.488674,-1.272718,0.460503,57.100038,0.007751,-0.021698,0.99765,0.008762,-0.058549,-0.052731,63.205826,24.531494,-147.977081,,,
729606240.492004,-1.272572,0.450059,57.086635,0.008026,-0.024902,0.99852,0.00097,-0.029392,-0.047513,62.88327,24.641556,-148.401703,,,
729606240.495415,-1.275706,0.450189,57.074486,0.008026,-0.024902,0.99852,0.00097,-0.029392,-0.047513,62.88327,24.641556,-148.401703,,,
729606240.49867,-1.275706,0.450189,57.074486,0.008026,-0.024902,0.99852,0.00097,-0.029392,-0.047513,62.88327,24.641556,-148.401703,,,
729606240.502022,-1.276715,0.444442,57.063286,0.003265,-0.025436,0.995331,-0.003529,-0.015057,-0.041557,62.88327,24.641556,-148.401703,,,
729606240.505355,-1.279609,0.448324,57.052479,0.003265,-0.025436,0.995331,-0.003529,-0.015057,-0.041557,62.88327,24.641556,-148.401703,,,
729606240.508697,-1.279609,0.448324,57.052479,0.003265,-0.025436,0.995331,-0.003529,-0.015057,-0.041557,62.88327,24.641556,-148.401703,,,
729606240.512005,-1.27903,0.444322,57.041324,-0.000671,-0.02652,0.998016,0.005158,-0.007463,-0.039365,62.88327,24.641556,-148.401703,,,
729606240.515333,-1.276191,0.445276,57.030351,-0.000671,-0.02652,0.998016,0.005158,-0.007463,-0.039365,62.88327,24.641556,-148.401703,,,
729606240.518676,-1.276191,0.445276,57.030351,-0.000671,-0.02652,0.998016,0.005158,-0.007463,-0.039365,62.88327,24.641556,-148.401703,,,
729606240.522058,-1.270197,0.438608,57.019081,-0.004044,-0.029877,1.004074,0.024957,-0.021524,-0.041021,62.88327,24.641556,-148.401703,,,
729606240.525331,-1.261027,0.432369,57.008306,-0.004044,-0.029877,1.004074,0.024957,-0.021524,-0.041021,62.88327,24.641556,-148.401703,,,
729606240.528669,-1.261027,0.432369,57.008306,-0.004044,-0.029877,1.004074,0.024957,-0.021524,-0.041021,62.88327,24.641556,-148.401703,,,
729606240.532002,-1.248684,0.421661,56.998615,-0.014771,-0.033524,1.00441,0.048668,-0.035141,-0.034562,62.939163,24.513763,-148.300491,,,
729606240.535397,-1.232432,0.407586,56.989989,-0.014771,-0.033524,1.00441,0.048668,-0.035141,-0.034562,62.939163,24.513763,-148.300491,,,
729606240.53866,-1.232432,0.407586,56.989989,-0.014771,-0.033524,1.00441,0.048668,-0.035141,-0.034562,62.939163,24.513763,-148.300491,,,
729606240.542022,-1.214139,0.392003,56.982463,-0.018814,-0.032013,1.003906,0.065806,-0.052431,-0.028873,62.939163,24.513763,-148.300491,,,
729606240.545357,-1.193849,0.37185,56.975195,-0.018814,-0.032013,1.003906,0.065806,-0.052431,-0.028873,62.939163,24.513763,-148.300491,,,
729606240.548752,-1.193849,0.37185,56.975195,-0.018814,-0.032013,1.003906,0.065806,-0.052431,-0.028873,62.939163,24.513763,-148.300491,,,
729606240.551993,-1.172353,0.35344,56.967547,-0.014023,-0.026978,0.997086,0.07638,-0.060412,-0.025574,62.939163,24.513763,-148.300491,,,
729606240.555347,-1.151762,0.3316,56.958641,-0.014023,-0.026978,0.997086,0.07638,-0.060412,-0.025574,62.939163,24.513763,-148.300491,,,
729606240.558713,-1.151762,0.3316,56.958641,-0.014023,-0.026978,0.997086,0.07638,-0.060412,-0.025574,62.939163,24.513763,-148.300491,,,
729606240.562044,-1.132542,0.314545,56.948054,-0.008286,-0.020584,0.995422,0.065731,-0.0523,-0.039325,62.939163,24.513763,-148.300491,,,
729606240.565397,-1.116049,0.293905,56.935943,-0.008286,-0.020584,0.995422,0.065731,-0.0523,-0.039325,62.939163,24.513763,-148.300491,,,
729606240.568687,-1.116049,0.293905,56.935943,-0.008286,-0.020584,0.995422,0.065731,-0.0523,-0.039325,62.939163,24.513763,-148.300491,,,
729606240.572003,-1.101726,0.279955,56.923131,-0.006409,-0.013947,0.98587,0.048705,-0.04173,-0.046525,62.939163,24.513763,-148.300491,,,
729606240.575443,-1.09215,0.265322,56.910682,-0.006409,-0.013947,0.98587,0.048705,-0.04173,-0.046525,62.675537,24.466858,-148.38797,,,
729606240.578682,-1.09215,0.265322,56.910682,-0.006409,-0.013947,0.98587,0.048705,-0.04173,-0.046525,62.675537,24.466858,-148.38797,,,
729606240.582024,-1.083356,0.258423,56.899551,-0.011703,-0.014664,0.984924,0.027174,-0.01539,-0.038106,62.675537,24.466858,-148.38797,,,
729606240.585358,-1.078072,0.252423,56.890399,-0.011703,-0.014664,0.984924,0.027174,-0.01539,-0.038106,62.675537,24.466858,-148.38797,,,
729606240.588752,-1.078072,0.252423,56.890399,-0.011703,-0.014664,0.984924,0.027174,-0.01539,-0.038106,62.675537,24.466858,-148.38797,,,
729606240.591991,-1.072864,0.250207,56.883617,-0.016068,-0.019745,0.989288,0.01726,-0.001272,-0.022941,62.675537,24.466858,-148.38797,,,
729606240.595346,-1.071288,0.247705,56.878536,-0.016068,-0.019745,0.989288,0.01726,-0.001272,-0.022941,62.675537,24.466858,-148.38797,,,
729606240.598671,-1.071288,0.247705,56.878536,-0.016068,-0.019745,0.989288,0.01726,-0.001272,-0.022941,62.675537,24.466858,-148.38797,,,
729606240.601997,-1.06846,0.245673,56.875015,-0.016464,-0.023178,0.986938,0.010019,-0.007927,-0.009702,62.675537,24.466858,-148.38797,,,
729606240.605338,-1.067326,0.243175,56.872659,-0.016464,-0.023178,0.986938,0.010019,-0.007927,-0.009702,62.675537,24.466858,-148.38797,,,
729606240.608668,-1.067326,0.243175,56.872659,-0.016464,-0.023178,0.986938,0.010019,-0.007927,-0.009702,62.675537,24.466858,-148.38797,,,
729606240.612034,-1.060571,0.238333,56.871025,-0.018524,-0.023758,0.989456,0.026025,-0.014165,-0.005872,62.675537,24.466858,-148.38797,,,
729606240.615335,-1.053998,0.238944,56.869977,-0.018524,-0.023758,0.989456,0.026025,-0.014165,-0.005872,62.686188,24.435959,-148.376984,,,
729606240.618666,-1.053998,0.238944,56.869977,-0.018524,-0.023758,0.989456,0.026025,-0.014165,-0.005872,62.686188,24.435959,-148.376984,,,
729606240.622012,-1.040748,0.235631,56.869241,-0.02092,-0.019043,1.005402,0.049815,-0.008866,-0.003934,62.686188,24.435959,-148.376984,,,
729606240.62533,-1.027857,0.237043,56.869022,-0.02092,-0.019043,1.005402,0.049815,-0.008866,-0.003934,62.686188,24.435959,-148.376984,,,
729606240.628673,-1.027857,0.237043,56.869022,-0.02092,-0.019043,1.005402,0.049815,-0.008866,-0.003934,62.686188,24.435959,-148.376984,,,
729606240.631997,-1.011389,0.231658,56.869238,-0.011719,-0.01181,0.998886,0.055739,-0.020546,-0.001798,62.686188,24.435959,-148.376984,,,
729606240.635372,-0.996924,0.226973,56.869845,-0.011719,-0.01181,0.998886,0.055739,-0.020546,-0.001798,62.686188,24.435959,-148.376984,,,
729606240.638641,-0.996924,0.226973,56.869845,-0.011719,-0.01181,0.998886,0.055739,-0.020546,-0.001798,62.686188,24.435959,-148.376984,,,
729606240.642015,-0.981082,0.219766,56.870899,-0.007477,-0.01059,0.987411,0.053927,-0.020018,0.002891,62.686188,24.435959,-148.376984,,,
729606240.645339,-0.967032,0.215,56.872744,-0.007477,-0.01059,0.987411,0.053927,-0.020018,0.002891,62.686188,24.435959,-148.376984,,,
729606240.648671,-0.967032,0.215,56.872744,-0.007477,-0.01059,0.987411,0.053927,-0.020018,0.002891,62.686188,24.435959,-148.376984,,,
729606240.651993,-0.956283,0.209228,56.874689,-0.005829,-0.010284,0.984131,0.036892,-0.020356,0.00665,62.686188,24.435959,-148.376984,,,
729606240.655337,-0.949064,0.204081,56.876889,-0.005829,-0.010284,0.984131,0.036892,-0.020356,0.00665,62.730209,24.229523,-148.157471,,,
729606240.658677,-0.949064,0.204081,56.876889,-0.005829,-0.010284,0.984131,0.036892,-0.020356,0.00665,62.730209,24.229523,-148.157471,,,
729606240.662038,-0.947613,0.1966,56.879399,-0.001785,-0.007721,0.969681,0.002103,-0.024268,0.007311,62.730209,24.229523,-148.157471,,,
729606240.665403,-0.951051,0.192111,56.882335,-0.001785,-0.007721,0.969681,0.002103,-0.024268,0.007311,62.730209,24.229523,-148.157471,,,
729606240.668679,-0.951051,0.192111,56.882335,-0.001785,-0.007721,0.969681,0.002103,-0.024268,0.007311,62.730209,24.229523,-148.157471,,,
729606240.672038,-0.959364,0.181803,56.885786,-0.000214,-0.008362,0.968124,-0.032293,-0.034655,0.01025,62.730209,24.229523,-148.157471,,,
729606240.675221,-0.972947,0.173126,56.889015,-0.000214,-0.008362,0.968124,-0.032293,-0.034655,0.01025,62.730209,24.229523,-148.157471,,,
729606240.678554,-0.972947,0.173126,56.889015,-0.000214,-0.008362,0.968124,-0.032293,-0.034655,0.01025,62.730209,24.229523,-148.157471,,,
729606240.682083,-0.987524,0.155774,56.891584,0.002213,-0.013733,0.973709,-0.053357,-0.061481,0.008021,62.730209,24.229523,-148.157471,,,
729606240.685335,-1.005113,0.138428,56.893978,0.002213,-0.013733,0.973709,-0.053357,-0.061481,0.008021,62.730209,24.229523,-148.157471,,,
729606240.688669,-1.005113,0.138428,56.893978,0.002213,-0.013733,0.973709,-0.053357,-0.061481,0.008021,62.730209,24.229523,-148.157471,,,
729606240.692,-1.021745,0.113118,56.895531,0.003647,-0.016174,0.984222,-0.056081,-0.089517,0.002967,62.730209,24.229523,-148.157471,,,
729606240.695422,-1.038395,0.090757,56.896403,0.003647,-0.016174,0.984222,-0.056081,-0.089517,0.002967,62.796173,24.330627,-148.35025,,,
729606240.698712,-1.038395,0.090757,56.896403,0.003647,-0.016174,0.984222,-0.056081,-0.089517,0.002967,62.796173,24.330627,-148.35025,,,
729606240.702009,-1.052045,0.061143,56.896322,0.005386,-0.018341,0.999435,-0.04188,-0.101685,-0.001514,62.796173,24.330627,-148.35025,,,
729606240.705352,-1.061864,0.0354,56.894725,0.005386,-0.018341,0.999435,-0.04188,-0.101685,-0.001514,62.796173,24.330627,-148.35025,,,
729606240.708672,-1.061864,0.0354,56.894725,0.005386,-0.018341,0.999435,-0.04188,-0.101685,-0.001514,62.796173,24.330627,-148.35025,,,
729606240.712068,-1.068063,0.006602,56.890705,0.017868,-0.02005,1.012192,-0.017487,-0.094241,-0.018725,62.796173,24.330627,-148.35025,,,
729606240.715342,-1.068129,-0.014785,56.884284,0.017868,-0.02005,1.012192,-0.017487,-0.094241,-0.018725,62.796173,24.330627,-148.35025,,,
729606240.718671,-1.068129,-0.014785,56.884284,0.017868,-0.02005,1.012192,-0.017487,-0.094241,-0.018725,62.796173,24.330627,-148.35025,,,
729606240.72202,-1.065155,-0.034329,56.875969,0.029099,-0.021423,1.027939,0.015398,-0.059937,-0.029925,62.796173,24.330627,-148.35025,,,
729606240.725328,-1.057234,-0.04544,56.866278,0.029099,-0.021423,1.027939,0.015398,-0.059937,-0.029925,62.796173,24.330627,-148.35025,,,
729606240.728661,-1.057234,-0.04544,56.866278,0.029099,-0.021423,1.027939,0.015398,-0.059937,-0.029925,62.796173,24.330627,-148.35025,,,
729606240.732008,-1.04882,-0.053165,56.85648,0.023285,-0.024368,1.030106,0.032497,-0.01676,-0.035761,62.796173,24.330627,-148.35025,,,
729606240.735339,-1.036639,-0.053298,56.848241,0.023285,-0.024368,1.030106,0.032497,-0.01676,-0.035761,62.796173,24.330627,-148.35025,,,
729606240.738721,-1.036639,-0.053298,56.848241,0.023285,-0.024368,1.030106,0.032497,-0.01676,-0.035761,62.326111,24.354355,-148.333206,,,
729606240.742002,-1.025903,-0.049667,56.842291,0.010559,-0.028122,1.017014,0.036345,0.018823,-0.016972,62.326111,24.354355,-148.333206,,,
729606240.745408,-1.01376,-0.041263,56.839779,0.010559,-0.028122,1.017014,0.036345,0.018823,-0.016972,62.326111,24.354355,-148.333206,,,
729606240.748674,-1.01376,-0.041263,56.839779,0.010559,-0.028122,1.017014,0.036345,0.018823,-0.016972,62.326111,24.354355,-148.333206,,,
729606240.752077,-1.005896,-0.030051,56.840557,0.003067,-0.025192,1.006073,0.025094,0.046367,0.004364,62.326111,24.354355,-148.333206,,,
729606240.755329,-0.998426,-0.016902,56.843284,0.003067,-0.025192,1.006073,0.025094,0.046367,0.004364,62.326111,24.354355,-148.333206,,,
729606240.758675,-0.998426,-0.016902,56.843284,0.003067,-0.025192,1.006073,0.025094,0.046367,0.004364,62.326111,24.354355,-148.333206,,,
729606240.762017,-0.994197,-0.003125,56.846764,0.004288,-0.018784,1.000198,0.015476,0.050447,0.012,62.326111,24.354355,-148.333206,,,
729606240.765429,-0.991425,0.007974,56.849418,0.004288,-0.018784,1.000198,0.015476,0.050447,0.012,62.326111,24.354355,-148.333206,,,
729606240.76868,-0.991425,0.007974,56.849418,0.004288,-0.018784,1.000198,0.015476,0.050447,0.012,62.326111,24.354355,-148.333206,,,
729606240.772022,-0.990714,0.018158,56.850083,0.006088,-0.011032,0.990646,0.001388,0.034458,-9.2e-05,62.326111,24.354355,-148.333206,,,
729606240.775339,-0.991697,0.024333,56.848348,0.006088,-0.011032,0.990646,0.001388,0.034458,-9.2e-05,62.326111,24.354355,-148.333206,,,
729606240.778747,-0.991697,0.024333,56.848348,0.006088,-0.011032,0.990646,0.001388,0.034458,-9.2e-05,62.650223,24.282043,-148.200317,,,
729606240.78201,-0.994554,0.028514,56.843574,0.003494,-0.010193,0.988541,-0.009012,0.014031,-0.01916,62.650223,24.282043,-148.200317,,,
729606240.785349,-0.998589,0.025008,56.835645,0.003494,-0.010193,0.988541,-0.009012,0.014031,-0.01916,62.650223,24.282043,-148.200317,,,
729606240.788664,-0.998589,0.025008,56.835645,0.003494,-0.010193,0.988541,-0.009012,0.014031,-0.01916,62.650223,24.282043,-148.200317,,,
729606240.79207,-1.00084,0.019414,56.825738,-0.000153,-0.009171,0.983337,-0.007003,-0.021307,-0.036329,62.650223,24.282043,-148.200317,,,
729606240.795334,-1.001441,0.001612,56.814317,-0.000153,-0.009171,0.983337,-0.007003,-0.021307,-0.036329,62.650223,24.282043,-148.200317,,,
729606240.798677,-1.001441,0.001612,56.814317,-0.000153,-0.009171,0.983337,-0.007003,-0.021307,-0.036329,62.650223,24.282043,-148.200317,,,
729606240.802006,-0.999343,-0.010291,56.801768,-0.000107,-0.010361,0.99144,0.011881,-0.03639,-0.046422,62.650223,24.282043,-148.200317,,,
729606240.805413,-0.996287,-0.034695,56.78866,-0.000107,-0.010361,0.99144,0.011881,-0.03639,-0.046422,62.650223,24.282043,-148.200317,,,
729606240.808673,-0.996287,-0.034695,56.78866,-0.000107,-0.010361,0.99144,0.011881,-0.03639,-0.046422,62.650223,24.282043,-148.200317,,,
729606240.812013,-0.991168,-0.054177,56.776481,0.002472,-0.013229,0.994507,0.017324,-0.06858,-0.043745,62.650223,24.282043,-148.200317,,,
729606240.815343,-0.988066,-0.082224,56.76524,0.002472,-0.013229,0.994507,0.017324,-0.06858,-0.043745,62.650223,24.282043,-148.200317,,,
729606240.818663,-0.988066,-0.082224,56.76524,0.002472,-0.013229,0.994507,0.017324,-0.06858,-0.043745,62.429306,24.250504,-148.317719,,,
729606240.821935,-0.983224,-0.102762,56.755046,0.003723,-0.013336,0.988113,0.015919,-0.0646,-0.036355,62.429306,24.250504,-148.317719,,,
729606240.825357,-0.980845,-0.120448,56.745118,0.003723,-0.013336,0.988113,0.015919,-0.0646,-0.036355,62.429306,24.250504,-148.317719,,,
729606240.828675,-0.980845,-0.120448,56.745118,0.003723,-0.013336,0.988113,0.015919,-0.0646,-0.036355,62.429306,24.250504,-148.317719,,,
729606240.832092,-0.976329,-0.132127,56.734567,0.013,-0.008652,1.009415,0.019463,-0.033929,-0.040773,62.429306,24.250504,-148.317719,,,
729606240.835337,-0.974087,-0.141926,56.722837,0.013,-0.008652,1.009415,0.019463,-0.033929,-0.040773,62.429306,24.250504,-148.317719,,,
729606240.838679,-0.974087,-0.141926,56.722837,0.013,-0.008652,1.009415,0.019463,-0.033929,-0.040773,62.429306,24.250504,-148.317719,,,
729606240.842011,-0.973473,-0.151186,56.709796,0.023788,-0.003662,0.994766,-0.00137,-0.026215,-0.049584,62.429306,24.250504,-148.317719,,,
729606240.845393,-0.975807,-0.159533,56.696064,0.023788,-0.003662,0.994766,-0.00137,-0.026215,-0.049584,62.429306,24.250504,-148.317719,,,
729606240.84867,-0.975807,-0.159533,56.696064,0.023788,-0.003662,0.994766,-0.00137,-0.026215,-0.049584,62.429306,24.250504,-148.317719,,,
729606240.85201,-0.981527,-0.162853,56.682255,0.021072,-0.000397,0.984222,-0.021475,-0.004426,-0.048905,62.429306,24.250504,-148.317719,,,
729606240.855365,-0.988717,-0.163119,56.668172,0.021072,-0.000397,0.984222,-0.021475,-0.004426,-0.048905,62.429306,24.250504,-148.317719,,,
729606240.858744,-0.988717,-0.163119,56.668172,0.021072,-0.000397,0.984222,-0.021475,-0.004426,-0.048905,62.429306,24.250504,-148.317719,,,
729606240.861998,-0.99933,-0.160671,56.653082,0.017563,-0.001923,0.989258,-0.03738,0.013672,-0.054236,62.267487,24.411194,-148.206635,,,
729606240.865349,-1.009503,-0.158964,56.6369,0.017563,-0.001923,0.989258,-0.03738,0.013672,-0.054236,62.267487,24.411194,-148.206635,,,
729606240.868667,-1.009503,-0.158964,56.6369,0.017563,-0.001923,0.989258,-0.03738,0.013672,-0.054236,62.267487,24.411194,-148.206635,,,
729606240.87206,-1.022297,-0.160736,56.620174,0.018707,-0.00412,0.985001,-0.043991,-0.004506,-0.060528,62.267487,24.411194,-148.206635,,,
729606240.875333,-1.033141,-0.163259,56.603179,0.018707,-0.00412,0.985001,-0.043991,-0.004506,-0.060528,62.267487,24.411194,-148.206635,,,
729606240.878719,-1.033141,-0.163259,56.603179,0.018707,-0.00412,0.985001,-0.043991,-0.004506,-0.060528,62.267487,24.411194,-148.206635,,,
729606240.882124,-1.045887,-0.167279,56.586347,0.008667,-0.014221,0.986435,-0.04337,-0.009748,-0.059433,62.267487,24.411194,-148.206635,,,
729606240.885432,-1.05696,-0.171584,56.57002,0.008667,-0.014221,0.986435,-0.04337,-0.009748,-0.059433,62.267487,24.411194,-148.206635,,,
729606240.888683,-1.05696,-0.171584,56.57002,0.008667,-0.014221,0.986435,-0.04337,-0.009748,-0.059433,62.267487,24.411194,-148.206635,,,
729606240.892031,-1.068769,-0.176827,56.554858,0.002151,-0.022766,0.995117,-0.039307,-0.01578,-0.054587,62.267487,24.411194,-148.206635,,,
729606240.895346,-1.079044,-0.182528,56.541722,0.002151,-0.022766,0.995117,-0.039307,-0.01578,-0.054587,62.267487,24.411194,-148.206635,,,
729606240.898698,-1.079044,-0.182528,56.541722,0.002151,-0.022766,0.995117,-0.039307,-0.01578,-0.054587,62.267487,24.411194,-148.206635,,,
729606240.902005,-1.090215,-0.188615,56.5312,-0.005417,-0.028076,0.994217,-0.039186,-0.017468,-0.032788,62.467743,24.448395,-148.288376,,,
729606240.905344,-1.098683,-0.195639,56.523425,-0.005417,-0.028076,0.994217,-0.039186,-0.017468,-0.032788,62.467743,24.448395,-148.288376,,,
729606240.908767,-1.098683,-0.195639,56.523425,-0.005417,-0.028076,0.994217,-0.039186,-0.017468,-0.032788,62.467743,24.448395,-148.288376,,,
729606240.912013,-1.107064,-0.200557,56.516793,-0.002731,-0.027664,0.99852,-0.027053,-0.014533,-0.026875,62.467743,24.448395,-148.288376,,,
729606240.915349,-1.109963,-0.209267,56.50901,-0.002731,-0.027664,0.99852,-0.027053,-0.014533,-0.026875,62.467743,24.448395,-148.288376,,,
729606240.918694,-1.109963,-0.209267,56.50901,-0.002731,-0.027664,0.99852,-0.027053,-0.014533,-0.026875,62.467743,24.448395,-148.288376,,,
729606240.921993,-1.113277,-0.210927,56.499821,0.010178,-0.020279,1.006653,-0.010334,5e-05,-0.034736,62.467743,24.448395,-148.288376,,,
729606240.925331,-1.111373,-0.217843,56.489343,0.010178,-0.020279,1.006653,-0.010334,5e-05,-0.034736,62.467743,24.448395,-148.288376,,,
729606240.928672,-1.111373,-0.217843,56.489343,0.010178,-0.020279,1.006653,-0.010334,5e-05,-0.034736,62.467743,24.448395,-148.288376,,,
729606240.932033,-1.113866,-0.217319,56.478058,0.010696,-0.012192,1.005692,-0.008956,0.003604,-0.044825,62.467743,24.448395,-148.288376,,,
729606240.935393,-1.113614,-0.223717,56.466365,0.010696,-0.012192,1.005692,-0.008956,0.003604,-0.044825,62.467743,24.448395,-148.288376,,,
729606240.938672,-1.113614,-0.223717,56.466365,0.010696,-0.012192,1.005692,-0.008956,0.003604,-0.044825,62.467743,24.448395,-148.288376,,,
729606240.941994,-1.120069,-0.226953,56.455038,0.003693,-0.009521,0.985138,-0.023846,-0.010574,-0.041692,62.447128,24.284637,-147.953125,,,
729606240.945327,-1.125537,-0.236549,56.443631,0.003693,-0.009521,0.985138,-0.023846,-0.010574,-0.041692,62.447128,24.284637,-147.953125,,,
729606240.948695,-1.125537,-0.236549,56.443631,0.003693,-0.009521,0.985138,-0.023846,-0.010574,-0.041692,62.447128,24.284637,-147.953125,,,
729606240.952018,-1.137471,-0.240991,56.431875,0.007599,-0.002777,0.981491,-0.042657,-0.012021,-0.043084,62.447128,24.284637,-147.953125,,,
729606240.955357,-1.148426,-0.250253,56.419389,0.007599,-0.002777,0.981491,-0.042657,-0.012021,-0.043084,62.447128,24.284637,-147.953125,,,
729606240.95876,-1.148426,-0.250253,56.419389,0.007599,-0.002777,0.981491,-0.042657,-0.012021,-0.043084,62.447128,24.284637,-147.953125,,,
729606240.96201,-1.163533,-0.256937,56.407169,0.008484,-0.002914,0.98642,-0.054643,-0.019634,-0.041702,62.447128,24.284637,-147.953125,,,
729606240.96533,-1.178817,-0.265582,56.395363,0.008484,-0.002914,0.98642,-0.054643,-0.019634,-0.041702,62.447128,24.284637,-147.953125,,,
729606240.968679,-1.178817,-0.265582,56.395363,0.008484,-0.002914,0.98642,-0.054643,-0.019634,-0.041702,62.447128,24.284637,-147.953125,,,
729606240.972087,-1.195083,-0.274364,56.384398,0.002594,-0.010391,0.988541,-0.055415,-0.026976,-0.037966,62.447128,24.284637,-147.953125,,,
729606240.975319,-1.212177,-0.280911,56.374229,0.002594,-0.010391,0.988541,-0.055415,-0.026976,-0.037966,62.447128,24.284637,-147.953125,,,
729606240.978678,-1.212177,-0.280911,56.374229,0.002594,-0.010391,0.988541,-0.055415,-0.026976,-0.037966,62.447128,24.284637,-147.953125,,,
729606240.982003,-1.227595,-0.289136,56.364576,-0.001953,-0.018509,0.995773,-0.053284,-0.027134,-0.033545,62.293152,24.314301,-148.452911,,,
729606240.98541,-1.243899,-0.293218,56.355931,-0.001953,-0.018509,0.995773,-0.053284,-0.027134,-0.033545,62.293152,24.314301,-148.452911,,,
729606240.988661,-1.243899,-0.293218,56.355931,-0.001953,-0.018509,0.995773,-0.053284,-0.027134,-0.033545,62.293152,24.314301,-148.452911,,,
729606240.992005,-1.257552,-0.300898,56.348334,-0.001221,-0.020706,0.997101,-0.047478,-0.023102,-0.024243,62.293152,24.314301,-148.452911,,,
729606240.995328,-1.270835,-0.306156,56.342534,-0.001221,-0.020706,0.997101,-0.047478,-0.023102,-0.024243,62.293152,24.314301,-148.452911,,,
729606240.998735,-1.270835,-0.306156,56.342534,-0.001221,-0.020706,0.997101,-0.047478,-0.023102,-0.024243,62.293152,24.314301,-148.452911,,,
729606241.002002,-1.281533,-0.3097,56.338251,-0.00296,-0.020981,1.002258,-0.033259,-0.008531,-0.014999,62.293152,24.314301,-148.452911,,,
729606241.005327,-1.28844,-0.311833,56.335933,-0.00296,-0.020981,1.002258,-0.033259,-0.008531,-0.014999,62.293152,24.314301,-148.452911,,,
729606241.008675,-1.28844,-0.311833,56.335933,-0.00296,-0.020981,1.002258,-0.033259,-0.008531,-0.014999,62.293152,24.314301,-148.452911,,,
729606241.012064,-1.294403,-0.30743,56.335626,-0.003189,-0.02449,1.013596,-0.017096,0.022885,-0.001389,62.293152,24.314301,-148.452911,,,
729606241.01535,-1.294739,-0.301051,56.336042,-0.003189,-0.02449,1.013596,-0.017096,0.022885,-0.001389,62.293152,24.314301,-148.452911,,,
729606241.018675,-1.294739,-0.301051,56.336042,-0.003189,-0.02449,1.013596,-0.017096,0.022885,-0.001389,62.293152,24.314301,-148.452911,,,
729606241.022005,-1.293639,-0.293086,56.337345,-0.001999,-0.02533,1.015167,0.010029,0.029233,0.003126,62.293152,24.314301,-148.452911,,,
729606241.025389,-1.285064,-0.285047,56.339442,-0.001999,-0.02533,1.015167,0.010029,0.029233,0.003126,62.352921,24.358856,-148.331482,,,
729606241.028677,-1.285064,-0.285047,56.339442,-0.001999,-0.02533,1.015167,0.010029,0.029233,0.003126,62.352921,24.358856,-148.331482,,,
729606241.032009,-1.277178,-0.277456,56.341658,-0.004379,-0.028229,1.0112,0.027982,0.030662,0.006533,62.352921,24.358856,-148.331482,,,
729606241.035351,-1.262828,-0.271109,56.343603,-0.004379,-0.028229,1.0112,0.027982,0.030662,0.006533,62.352921,24.358856,-148.331482,,,
729606241.038358,-1.262828,-0.271109,56.343603,-0.004379,-0.028229,1.0112,0.027982,0.030662,0.006533,62.352921,24.358856,-148.331482,,,
729606241.042033,-1.25224,-0.263732,56.344719,-0.004944,-0.023468,1.010254,0.038107,0.028937,0.000755,62.352921,24.358856,-148.331482,,,
729606241.045336,-1.25224,-0.25954,56.344765,-0.004944,-0.023468,1.010254,0.038107,0.028937,0.000755,62.352921,24.358856,-148.331482,,,
729606241.048677,-1.238693,-0.25954,56.344765,-0.004944,-0.023468,1.010254,0.038107,0.028937,0.000755,62.352921,24.358856,-148.331482,,,
729606241.051999,-1.23003,-0.259083,56.344439,-0.003738,-0.01619,0.997971,0.029737,-0.000995,-0.000884,62.352921,24.358856,-148.331482,,,
729606241.055339,-1.23003,-0.259083,56.344439,-0.003738,-0.01619,0.997971,0.029737,-0.000995,-0.000884,62.352921,24.358856,-148.331482,,,
729606241.058675,-1.221806,-0.262237,56.345252,-0.003738,-0.01619,0.997971,0.029737,-0.000995,-0.000884,62.352921,24.358856,-148.331482,,,
729606241.062059,-1.218552,-0.269317,56.347305,-0.010178,-0.01564,0.985748,0.009566,-0.021717,0.007555,62.352921,24.358856,-148.331482,,,
729606241.065334,-1.218552,-0.269317,56.347305,-0.010178,-0.01564,0.985748,0.009566,-0.021717,0.007555,62.497269,24.155319,-147.856415,,,
729606241.068676,-1.217162,-0.274111,56.350364,-0.010178,-0.01564,0.985748,0.009566,-0.021717,0.007555,62.497269,24.155319,-147.856415,,,
729606241.072088,-1.218462,-0.280974,56.354373,-0.007675,-0.017914,0.991165,-0.006609,-0.020347,0.013167,62.497269,24.155319,-147.856415,,,
729606241.075386,-1.218462,-0.280974,56.354373,-0.007675,-0.017914,0.991165,-0.006609,-0.020347,0.013167,62.497269,24.155319,-147.856415,,,
729606241.078673,-1.221535,-0.286337,56.358546,-0.007675,-0.017914,0.991165,-0.006609,-0.020347,0.013167,62.497269,24.155319,-147.856415,,,
729606241.082016,-1.225938,-0.29483,56.361888,0.002365,-0.016922,0.99382,-0.015941,-0.026515,0.009379,62.497269,24.155319,-147.856415,,,
729606241.085348,-1.225938,-0.29483,56.361888,0.002365,-0.016922,0.99382,-0.015941,-0.026515,0.009379,62.497269,24.155319,-147.856415,,,
729606241.088716,-1.230448,-0.300595,56.364583,0.002365,-0.016922,0.99382,-0.015941,-0.026515,0.009379,62.497269,24.155319,-147.856415,,,
729606241.091995,-1.233904,-0.308029,56.366786,0.005112,-0.01384,0.999893,-0.011958,-0.020636,0.006648,62.497269,24.155319,-147.856415,,,
729606241.095342,-1.233904,-0.308029,56.366786,0.005112,-0.01384,0.999893,-0.011958,-0.020636,0.006648,62.497269,24.155319,-147.856415,,,
729606241.098684,-1.236144,-0.311499,56.368473,0.005112,-0.01384,0.999893,-0.011958,-0.020636,0.006648,62.497269,24.155319,-147.856415,,,
729606241.102002,-1.234283,-0.316763,56.370147,0.003464,-0.020065,1.008728,0.013173,-0.015023,0.004823,62.497269,24.155319,-147.856415,,,
729606241.105356,-1.234283,-0.316763,56.370147,0.003464,-0.020065,1.008728,0.013173,-0.015023,0.004823,62.374786,24.445557,-148.060379,,,
729606241.108687,-1.230431,-0.319134,56.372291,0.003464,-0.020065,1.008728,0.013173,-0.015023,0.004823,62.374786,24.445557,-148.060379,,,
729606241.111997,-1.223377,-0.32546,56.375209,0.000717,-0.027527,1.009537,0.029863,-0.020411,0.007393,62.374786,24.445557,-148.060379,,,
729606241.11533,-1.223377,-0.32546,56.375209,0.000717,-0.027527,1.009537,0.029863,-0.020411,0.007393,62.374786,24.445557,-148.060379,,,
729606241.118682,-1.215585,-0.328761,56.379635,0.000717,-0.027527,1.009537,0.029863,-0.020411,0.007393,62.374786,24.445557,-148.060379,,,
729606241.122002,-1.205884,-0.336393,56.385395,-0.001587,-0.032593,1.002243,0.034395,-0.023975,0.020354,62.374786,24.445557,-148.060379,,,
729606241.1254,-1.205884,-0.336393,56.385395,-0.001587,-0.032593,1.002243,0.034395,-0.023975,0.020354,62.374786,24.445557,-148.060379,,,
729606241.128674,-1.195948,-0.340389,56.3923,-0.001587,-0.032593,1.002243,0.034395,-0.023975,0.020354,62.374786,24.445557,-148.060379,,,
729606241.132002,-1.186831,-0.347219,56.400027,-0.001801,-0.028687,0.998779,0.031545,-0.021343,0.026564,62.374786,24.445557,-148.060379,,,
729606241.135327,-1.186831,-0.347219,56.400027,-0.001801,-0.028687,0.998779,0.031545,-0.021343,0.026564,62.374786,24.445557,-148.060379,,,
729606241.138744,-1.177893,-0.3487,56.408082,-0.001801,-0.028687,0.998779,0.031545,-0.021343,0.026564,62.374786,24.445557,-148.060379,,,
729606241.141984,-1.171967,-0.351909,56.415583,0.007126,-0.022766,0.994965,0.019479,-0.006148,0.023145,62.374786,24.445557,-148.060379,,,
729606241.145325,-1.171967,-0.351909,56.415583,0.007126,-0.022766,0.994965,0.019479,-0.006148,0.023145,62.38678,24.233978,-147.982834,,,
729606241.148685,-1.167449,-0.347348,56.422645,0.007126,-0.022766,0.994965,0.019479,-0.006148,0.023145,62.38678,24.233978,-147.982834,,,
729606241.151997,-1.166826,-0.348362,56.42896,0.005081,-0.021042,0.992706,0.003459,-0.000124,0.021122,62.38678,24.233978,-147.982834,,,
729606241.155336,-1.166826,-0.348362,56.42896,0.005081,-0.021042,0.992706,0.003459,-0.000124,0.021122,62.38678,24.233978,-147.982834,,,
729606241.158658,-1.168221,-0.346,56.435599,0.005081,-0.021042,0.992706,0.003459,-0.000124,0.021122,62.38678,24.233978,-147.982834,,,
729606241.162001,-1.172436,-0.345784,56.442949,0.002151,-0.021988,0.989151,-0.01609,0.00459,0.024392,62.38678,24.233978,-147.982834,,,
729606241.165345,-1.172436,-0.345784,56.442949,0.002151,-0.021988,0.989151,-0.01609,0.00459,0.024392,62.38678,24.233978,-147.982834,,,
729606241.16869,-1.177494,-0.343043,56.450542,0.002151,-0.021988,0.989151,-0.01609,0.00459,0.024392,62.38678,24.233978,-147.982834,,,
729606241.17199,-1.184448,-0.338753,56.458689,0.004272,-0.025726,0.991409,-0.024823,0.01828,0.027035,62.38678,24.233978,-147.982834,,,
729606241.1754,-1.184448,-0.338753,56.458689,0.004272,-0.025726,0.991409,-0.024823,0.01828,0.027035,62.38678,24.233978,-147.982834,,,
729606241.178699,-1.189739,-0.33476,56.467229,0.004272,-0.025726,0.991409,-0.024823,0.01828,0.027035,62.38678,24.233978,-147.982834,,,
729606241.182001,-1.195574,-0.333832,56.47589,0.005234,-0.027908,0.995422,-0.019531,0.002375,0.028664,62.38678,24.233978,-147.982834,,,
729606241.185342,-1.195574,-0.333832,56.47589,0.005234,-0.027908,0.995422,-0.019531,0.002375,0.028664,62.38678,24.233978,-147.982834,,,
729606241.18874,-1.201606,-0.33377,56.484368,0.005234,-0.027908,0.995422,-0.019531,0.002375,0.028664,62.307404,24.496689,-148.285507,,,
729606241.191994,-1.206493,-0.336638,56.492654,0.002884,-0.029938,0.991547,-0.013795,-0.00803,0.028713,62.307404,24.496689,-148.285507,,,
729606241.195331,-1.206493,-0.336638,56.492654,0.002884,-0.029938,0.991547,-0.013795,-0.00803,0.028713,62.307404,24.496689,-148.285507,,,
729606241.198665,-1.210932,-0.339196,56.501911,0.002884,-0.029938,0.991547,-0.013795,-0.00803,0.028713,62.307404,24.496689,-148.285507,,,
729606241.202003,-1.209862,-0.345112,56.511304,0.004227,-0.030106,0.994308,0.007706,-0.019272,0.031489,62.307404,24.496689,-148.285507,,,
729606241.205333,-1.209862,-0.345112,56.511304,0.004227,-0.030106,0.994308,0.007706,-0.019272,0.031489,62.307404,24.496689,-148.285507,,,
729606241.208659,-1.207512,-0.348106,56.519921,0.004227,-0.030106,0.994308,0.007706,-0.019272,0.031489,62.307404,24.496689,-148.285507,,,
729606241.212054,-1.200133,-0.353192,56.527185,0.017593,-0.024414,1.00116,0.030236,-0.016195,0.02063,62.307404,24.496689,-148.285507,,,
729606241.215392,-1.200133,-0.353192,56.527185,0.017593,-0.024414,1.00116,0.030236,-0.016195,0.02063,62.307404,24.496689,-148.285507,,,
729606241.218671,-1.192735,-0.356631,56.532857,0.017593,-0.024414,1.00116,0.030236,-0.016195,0.02063,62.307404,24.496689,-148.285507,,,
729606241.222001,-1.184021,-0.362146,56.537852,0.023026,-0.019989,0.998032,0.028958,-0.015619,0.01607,62.307404,24.496689,-148.285507,,,
729606241.225347,-1.184021,-0.362146,56.537852,0.023026,-0.019989,0.998032,0.028958,-0.015619,0.01607,62.307404,24.496689,-148.285507,,,
729606241.228741,-1.176053,-0.368162,56.543581,0.023026,-0.019989,0.998032,0.028958,-0.015619,0.01607,62.294693,24.39418,-148.017288,,,
729606241.231993,-1.168556,-0.372809,56.550469,0.009369,-0.024307,0.992325,0.024926,-0.014588,0.026099,62.294693,24.39418,-148.017288,,,
729606241.23534,-1.168556,-0.372809,56.550469,0.009369,-0.024307,0.992325,0.024926,-0.014588,0.026099,62.294693,24.39418,-148.017288,,,
729606241.238679,-1.161365,-0.375849,56.558219,0.009369,-0.024307,0.992325,0.024926,-0.014588,0.026099,62.294693,24.39418,-148.017288,,,
729606241.242002,-1.15386,-0.37895,56.566533,0.009109,-0.026749,0.994339,0.025164,-0.008511,0.027523,62.294693,24.39418,-148.017288,,,
729606241.245342,-1.15386,-0.37895,56.566533,0.009109,-0.026749,0.994339,0.025164,-0.008511,0.027523,62.294693,24.39418,-148.017288,,,
729606241.248682,-1.146697,-0.380389,56.574646,0.009109,-0.026749,0.994339,0.025164,-0.008511,0.027523,62.294693,24.39418,-148.017288,,,
729606241.252,-1.139062,-0.381414,56.581565,0.021408,-0.021896,0.99971,0.028479,0.001709,0.022837,62.294693,24.39418,-148.017288,,,
729606241.255394,-1.139062,-0.381414,56.581565,0.021408,-0.021896,0.99971,0.028479,0.001709,0.022837,62.294693,24.39418,-148.017288,,,
729606241.258656,-1.13377,-0.37933,56.58745,0.021408,-0.021896,0.99971,0.028479,0.001709,0.022837,62.294693,24.39418,-148.017288,,,
729606241.261995,-1.127236,-0.376743,56.592482,0.023834,-0.019241,1.002884,0.023355,0.012084,0.015427,62.294693,24.39418,-148.017288,,,
729606241.265326,-1.127236,-0.376743,56.592482,0.023834,-0.019241,1.002884,0.023355,0.012084,0.015427,62.294693,24.39418,-148.017288,,,
729606241.26866,-1.122628,-0.372523,56.596653,0.023834,-0.019241,1.002884,0.023355,0.012084,0.015427,62.195145,24.487747,-148.146072,,,
729606241.271991,-1.116059,-0.368699,56.600165,0.018921,-0.016251,0.998398,0.024979,0.014073,0.010362,62.195145,24.487747,-148.146072,,,
729606241.275338,-1.116059,-0.368699,56.600165,0.018921,-0.016251,0.998398,0.024979,0.014073,0.010362,62.195145,24.487747,-148.146072,,,
729606241.278664,-1.112396,-0.363108,56.603474,0.018921,-0.016251,0.998398,0.024979,0.014073,0.010362,62.195145,24.487747,-148.146072,,,
729606241.281991,-1.106409,-0.35739,56.606392,0.020706,-0.01622,0.997238,0.020038,0.023734,0.00763,62.195145,24.487747,-148.146072,,,
729606241.285341,-1.106409,-0.35739,56.606392,0.020706,-0.01622,0.997238,0.020038,0.023734,0.00763,62.195145,24.487747,-148.146072,,,
729606241.288671,-1.102584,-0.351181,56.609287,0.020706,-0.01622,0.997238,0.020038,0.023734,0.00763,62.195145,24.487747,-148.146072,,,
729606241.292004,-1.098198,-0.343857,56.612313,0.020782,-0.015152,0.992874,0.016152,0.026821,0.011345,62.195145,24.487747,-148.146072,,,
729606241.295417,-1.098198,-0.343857,56.612313,0.020782,-0.015152,0.992874,0.016152,0.026821,0.011345,62.195145,24.487747,-148.146072,,,
729606241.298651,-1.095946,-0.343033,56.615154,0.020782,-0.015152,0.992874,0.016152,0.026821,0.011345,62.195145,24.487747,-148.146072,,,
729606241.30202,-1.093817,-0.339388,56.618148,0.020065,-0.015839,0.984772,0.005455,0.013484,0.007145,62.195145,24.487747,-148.146072,,,
729606241.30535,-1.093817,-0.339388,56.618148,0.020065,-0.015839,0.984772,0.005455,0.013484,0.007145,62.195145,24.487747,-148.146072,,,
729606241.308746,-1.093623,-0.343723,56.620489,0.020065,-0.015839,0.984772,0.005455,0.013484,0.007145,62.300858,24.309174,-148.235977,,,
729606241.312001,-1.094192,-0.347149,56.621421,0.018692,-0.012604,0.975281,-0.003818,-0.012532,-0.000426,62.300858,24.309174,-148.235977,,,
729606241.315328,-1.094192,-0.347149,56.621421,0.018692,-0.012604,0.975281,-0.003818,-0.012532,-0.000426,62.300858,24.309174,-148.235977,,,
729606241.318667,-1.096062,-0.353254,56.620504,0.018692,-0.012604,0.975281,-0.003818,-0.012532,-0.000426,62.300858,24.309174,-148.235977,,,
729606241.322002,-1.095584,-0.359703,56.617774,0.016678,-0.014313,0.983582,0.001277,-0.019773,-0.013997,62.300858,24.309174,-148.235977,,,
729606241.325342,-1.095584,-0.359703,56.617774,0.016678,-0.014313,0.983582,0.001277,-0.019773,-0.013997,62.300858,24.309174,-148.235977,,,
729606241.328679,-1.094991,-0.367354,56.612991,0.016678,-0.014313,0.983582,0.001277,-0.019773,-0.013997,62.300858,24.309174,-148.235977,,,
729606241.332028,-1.091769,-0.370933,56.606862,0.017609,-0.016098,1.001221,0.012882,-0.007625,-0.024578,62.300858,24.309174,-148.235977,,,
729606241.335394,-1.091769,-0.370933,56.606862,0.017609,-0.016098,1.001221,0.012882,-0.007625,-0.024578,62.300858,24.309174,-148.235977,,,
729606241.338669,-1.088052,-0.379732,56.600822,0.017609,-0.016098,1.001221,0.012882,-0.007625,-0.024578,62.300858,24.309174,-148.235977,,,
729606241.342,-1.083042,-0.382351,56.596714,0.009659,-0.022522,0.998383,0.019611,-0.006616,-0.015117,62.300858,24.309174,-148.235977,,,
729606241.345343,-1.083042,-0.382351,56.596714,0.009659,-0.022522,0.998383,0.019611,-0.006616,-0.015117,62.300858,24.309174,-148.235977,,,
729606241.348752,-1.077973,-0.387914,56.595219,0.009659,-0.022522,0.998383,0.019611,-0.006616,-0.015117,62.300858,24.309174,-148.235977,,,
729606241.35199,-1.073557,-0.384863,56.596157,0.000443,-0.028152,0.996613,0.016972,0.015008,0.005119,62.415085,24.140182,-148.342072,,,
729606241.355337,-1.073557,-0.384863,56.596157,0.000443,-0.028152,0.996613,0.016972,0.015008,0.005119,62.415085,24.140182,-148.342072,,,
729606241.35868,-1.068697,-0.382609,56.598837,0.000443,-0.028152,0.996613,0.016972,0.015008,0.005119,62.415085,24.140182,-148.342072,,,
729606241.361989,-1.065854,-0.373785,56.602571,0.008545,-0.022659,0.999893,0.008483,0.034186,0.012121,62.415085,24.140182,-148.342072,,,
729606241.365326,-1.065854,-0.373785,56.602571,0.008545,-0.022659,0.999893,0.008483,0.034186,0.012121,62.415085,24.140182,-148.342072,,,
729606241.368676,-1.064661,-0.369507,56.605877,0.008545,-0.022659,0.999893,0.008483,0.034186,0.012121,62.415085,24.140182,-148.342072,,,
729606241.371985,-1.066753,-0.361077,56.609584,0.011017,-0.015717,0.992477,-0.009665,0.031335,0.012351,62.415085,24.140182,-148.342072,,,
729606241.37541,-1.066753,-0.361077,56.609584,0.011017,-0.015717,0.992477,-0.009665,0.031335,0.012351,62.415085,24.140182,-148.342072,,,
729606241.378677,-1.071004,-0.357673,56.614312,0.011017,-0.015717,0.992477,-0.009665,0.031335,0.012351,62.415085,24.140182,-148.342072,,,
729606241.38201,-1.078489,-0.34966,56.620221,-0.001312,-0.017349,0.987656,-0.024338,0.028041,0.019912,62.415085,24.140182,-148.342072,,,
729606241.385371,-1.078489,-0.34966,56.620221,-0.001312,-0.017349,0.987656,-0.024338,0.028041,0.019912,62.415085,24.140182,-148.342072,,,
729606241.38873,-1.086369,-0.347862,56.62662,-0.001312,-0.017349,0.987656,-0.024338,0.028041,0.019912,62.415085,24.140182,-148.342072,,,
729606241.391993,-1.095848,-0.343624,56.632917,-0.003387,-0.022247,0.989151,-0.035551,0.015292,0.016972,62.531296,24.302658,-148.526917,,,
729606241.395428,-1.095848,-0.343624,56.632917,-0.003387,-0.022247,0.989151,-0.035551,0.015292,0.016972,62.531296,24.302658,-148.526917,,,
729606241.398694,-1.103651,-0.345026,56.638492,-0.003387,-0.022247,0.989151,-0.035551,0.015292,0.016972,62.531296,24.302658,-148.526917,,,
729606241.402019,-1.111541,-0.343612,56.644032,0.003937,-0.024551,0.99939,-0.023811,0.005495,0.017622,62.531296,24.302658,-148.526917,,,
729606241.405339,-1.111541,-0.343612,56.644032,0.003937,-0.024551,0.99939,-0.023811,0.005495,0.017622,62.531296,24.302658,-148.526917,,,
729606241.408672,-1.117143,-0.348053,56.649837,0.003937,-0.024551,0.99939,-0.023811,0.005495,0.017622,62.531296,24.302658,-148.526917,,,
729606241.41199,-1.123326,-0.350395,56.655797,-0.000473,-0.026718,0.999374,-0.023658,-0.008499,0.022216,62.531296,24.302658,-148.526917,,,
729606241.415324,-1.123326,-0.350395,56.655797,-0.000473,-0.026718,0.999374,-0.023658,-0.008499,0.022216,62.531296,24.302658,-148.526917,,,
729606241.418671,-1.129481,-0.35749,56.66205,-0.000473,-0.026718,0.999374,-0.023658,-0.008499,0.022216,62.531296,24.302658,-148.526917,,,
729606241.421987,-1.136099,-0.361695,56.66895,0.002167,-0.023605,0.994247,-0.024952,-0.011996,0.021238,62.531296,24.302658,-148.526917,,,
729606241.425383,-1.136099,-0.361695,56.66895,0.002167,-0.023605,0.994247,-0.024952,-0.011996,0.021238,62.531296,24.302658,-148.526917,,,
729606241.428665,-1.144377,-0.365829,56.675927,0.002167,-0.023605,0.994247,-0.024952,-0.011996,0.021238,62.531296,24.302658,-148.526917,,,
729606241.432001,-1.15095,-0.372409,56.682489,0.009888,-0.019882,0.997787,-0.021046,-0.021323,0.020829,62.262527,24.145859,-148.324722,,,
729606241.435321,-1.15095,-0.372409,56.682489,0.009888,-0.019882,0.997787,-0.021046,-0.021323,0.020829,62.262527,24.145859,-148.324722,,,
729606241.438723,-1.158648,-0.379355,56.688717,0.009888,-0.019882,0.997787,-0.021046,-0.021323,0.020829,62.262527,24.145859,-148.324722,,,
729606241.442015,-1.163775,-0.38898,56.693652,0.014587,-0.02037,0.998749,-0.015355,-0.033349,0.014555,62.262527,24.145859,-148.324722,,,
729606241.445342,-1.163775,-0.38898,56.693652,0.014587,-0.02037,0.998749,-0.015355,-0.033349,0.014555,62.262527,24.145859,-148.324722,,,
729606241.448667,-1.166575,-0.400195,56.697117,0.014587,-0.02037,0.998749,-0.015355,-0.033349,0.014555,62.262527,24.145859,-148.324722,,,
729606241.451995,-1.168266,-0.408585,56.698731,0.022736,-0.017227,1.008331,-0.003182,-0.025813,0.003507,62.262527,24.145859,-148.324722,,,
729606241.455339,-1.168266,-0.408585,56.698731,0.022736,-0.017227,1.008331,-0.003182,-0.025813,0.003507,62.262527,24.145859,-148.324722,,,
729606241.458672,-1.16735,-0.41569,56.698968,0.022736,-0.017227,1.008331,-0.003182,-0.025813,0.003507,62.262527,24.145859,-148.324722,,,
729606241.461989,-1.165958,-0.421804,56.699313,0.019577,-0.017914,1.013489,0.007804,-0.019624,-0.000155,62.262527,24.145859,-148.324722,,,
729606241.465324,-1.165958,-0.421804,56.699313,0.019577,-0.017914,1.013489,0.007804,-0.019624,-0.000155,62.262527,24.145859,-148.324722,,,
729606241.468677,-1.164076,-0.422851,56.700126,0.019577,-0.017914,1.013489,0.007804,-0.019624,-0.000155,62.262527,24.145859,-148.324722,,,
729606241.472028,-1.163181,-0.425349,56.702649,0.013611,-0.018784,1.006546,0.003342,-0.001096,0.008296,62.262527,24.145859,-148.324722,,,
729606241.475423,-1.163181,-0.425349,56.702649,0.013611,-0.018784,1.006546,0.003342,-0.001096,0.008296,62.173294,24.444855,-148.273209,,,
729606241.478674,-1.164408,-0.420744,56.706985,0.013611,-0.018784,1.006546,0.003342,-0.001096,0.008296,62.173294,24.444855,-148.273209,,,
729606241.482016,-1.166648,-0.413974,56.7118,0.013199,-0.015076,1.006287,-0.009751,0.028857,0.016539,62.173294,24.444855,-148.273209,,,
729606241.485346,-1.166648,-0.413974,56.7118,0.013199,-0.015076,1.006287,-0.009751,0.028857,0.016539,62.173294,24.444855,-148.273209,,,
729606241.488737,-1.171714,-0.403313,56.716402,0.013199,-0.015076,1.006287,-0.009751,0.028857,0.016539,62.173294,24.444855,-148.273209,,,
729606241.491994,-1.177258,-0.392822,56.720429,0.018509,-0.011871,1.001724,-0.019352,0.041682,0.011378,62.173294,24.444855,-148.273209,,,
729606241.495344,-1.177258,-0.392822,56.720429,0.018509,-0.011871,1.001724,-0.019352,0.041682,0.011378,62.173294,24.444855,-148.273209,,,
729606241.498663,-1.186311,-0.379713,56.724251,0.018509,-0.011871,1.001724,-0.019352,0.041682,0.011378,62.173294,24.444855,-148.273209,,,
729606241.501993,-1.195651,-0.371733,56.726918,0.013306,-0.011917,0.989151,-0.032344,0.028731,0.007412,62.173294,24.444855,-148.273209,,,
729606241.505339,-1.195651,-0.371733,56.726918,0.013306,-0.011917,0.989151,-0.032344,0.028731,0.007412,62.173294,24.444855,-148.273209,,,
729606241.508675,-1.205645,-0.367358,56.728176,0.013306,-0.011917,0.989151,-0.032344,0.028731,0.007412,62.173294,24.444855,-148.273209,,,
729606241.511987,-1.215064,-0.366,56.727888,0.008087,-0.015213,0.982162,-0.030519,0.005534,-0.00443,62.173294,24.444855,-148.273209,,,
729606241.515329,-1.215064,-0.366,56.727888,0.008087,-0.015213,0.982162,-0.030519,0.005534,-0.00443,62.159164,24.443756,-148.530457,,,
729606241.518672,-1.221741,-0.369132,56.72641,0.008087,-0.015213,0.982162,-0.030519,0.005534,-0.00443,62.159164,24.443756,-148.530457,,,
729606241.52199,-1.225506,-0.374578,56.72463,0.007156,-0.020386,0.997147,-0.011799,-0.020024,-0.009666,62.159164,24.443756,-148.530457,,,
729606241.52539,-1.225506,-0.374578,56.72463,0.007156,-0.020386,0.997147,-0.011799,-0.020024,-0.009666,62.159164,24.443756,-148.530457,,,
729606241.528663,-1.226262,-0.389533,56.722463,0.007156,-0.020386,0.997147,-0.011799,-0.020024,-0.009666,62.159164,24.443756,-148.530457,,,
729606241.53199,-1.225518,-0.406236,56.720512,0.005615,-0.027267,0.992661,0.003955,-0.060692,-0.004519,62.159164,24.443756,-148.530457,,,
729606241.535344,-1.225518,-0.406236,56.720512,0.005615,-0.027267,0.992661,0.003955,-0.060692,-0.004519,62.159164,24.443756,-148.530457,,,
729606241.538374,-1.223023,-0.431825,56.718742,0.005615,-0.027267,0.992661,0.003955,-0.060692,-0.004519,62.159164,24.443756,-148.530457,,,
729606241.54203,-1.221746,-0.451904,56.716511,0.00679,-0.027359,0.992905,0.005246,-0.067213,-0.007835,62.159164,24.443756,-148.530457,,,
729606241.545324,-1.221746,-0.451904,56.716511,0.00679,-0.027359,0.992905,0.005246,-0.067213,-0.007835,62.159164,24.443756,-148.530457,,,
729606241.548661,-1.220919,-0.471783,56.713779,0.00679,-0.027359,0.992905,0.005246,-0.067213,-0.007835,62.159164,24.443756,-148.530457,,,
729606241.551993,-1.222032,-0.485176,56.711566,0.014908,-0.019669,1.003784,-0.006813,-0.039404,-0.009175,62.159164,24.443756,-148.530457,,,
729606241.555331,-1.222032,-0.485176,56.711566,0.014908,-0.019669,1.003784,-0.006813,-0.039404,-0.009175,62.052032,24.202957,-148.30275,,,
729606241.558656,-1.223391,-0.496291,56.710067,0.014908,-0.019669,1.003784,-0.006813,-0.039404,-0.009175,62.052032,24.202957,-148.30275,,,
729606241.561988,-1.22496,-0.502232,56.710044,0.0103,-0.024857,1.002426,-0.002509,-0.016013,-0.00204,62.052032,24.202957,-148.30275,,,
729606241.565326,-1.22496,-0.502232,56.710044,0.0103,-0.024857,1.002426,-0.002509,-0.016013,-0.00204,62.052032,24.202957,-148.30275,,,
729606241.568674,-1.222311,-0.507016,56.711849,0.0103,-0.024857,1.002426,-0.002509,-0.016013,-0.00204,62.052032,24.202957,-148.30275,,,
729606241.571989,-1.218979,-0.506029,56.71517,0.010574,-0.03595,1.012894,0.013575,0.006488,0.011329,62.052032,24.202957,-148.30275,,,
729606241.575414,-1.218979,-0.506029,56.71517,0.010574,-0.03595,1.012894,0.013575,0.006488,0.011329,62.052032,24.202957,-148.30275,,,
729606241.578674,-1.21263,-0.504978,56.719104,0.010574,-0.03595,1.012894,0.013575,0.006488,0.011329,62.052032,24.202957,-148.30275,,,
729606241.58201,-1.208612,-0.499081,56.723315,0.011963,-0.0345,1.012482,0.012788,0.02289,0.013676,62.052032,24.202957,-148.30275,,,
729606241.585324,-1.208612,-0.499081,56.723315,0.011963,-0.0345,1.012482,0.012788,0.02289,0.013676,62.052032,24.202957,-148.30275,,,
729606241.588739,-1.203758,-0.493362,56.72708,0.011963,-0.0345,1.012482,0.012788,0.02289,0.013676,62.052032,24.202957,-148.30275,,,
729606241.591984,-1.201787,-0.488473,56.730635,0.009918,-0.02478,0.999527,0.004237,0.018531,0.012317,62.052032,24.202957,-148.30275,,,
729606241.595332,-1.201787,-0.488473,56.730635,0.009918,-0.02478,0.999527,0.004237,0.018531,0.012317,62.261841,24.454742,-148.370041,,,
729606241.598657,-1.201301,-0.484601,56.733964,0.009918,-0.02478,0.999527,0.004237,0.018531,0.012317,62.261841,24.454742,-148.370041,,,
729606241.601992,-1.203747,-0.482803,56.737015,0.007446,-0.020737,0.989075,-0.0117,0.004902,0.008847,62.261841,24.454742,-148.370041,,,
729606241.605335,-1.203747,-0.482803,56.737015,0.007446,-0.020737,0.989075,-0.0117,0.004902,0.008847,62.261841,24.454742,-148.370041,,,
729606241.60867,-1.206951,-0.482915,56.739897,0.007446,-0.020737,0.989075,-0.0117,0.004902,0.008847,62.261841,24.454742,-148.370041,,,
729606241.611987,-1.207618,-0.485751,56.741947,0.005508,-0.021881,0.990341,7.1e-05,-0.009558,0.006367,62.261841,24.454742,-148.370041,,,
729606241.615321,-1.207618,-0.485751,56.741947,0.005508,-0.021881,0.990341,7.1e-05,-0.009558,0.006367,62.261841,24.454742,-148.370041,,,
729606241.618695,-1.206804,-0.489031,56.742665,0.005508,-0.021881,0.990341,7.1e-05,-0.009558,0.006367,62.261841,24.454742,-148.370041,,,
729606241.621985,-1.201298,-0.495978,56.741492,0.012833,-0.026901,1.005219,0.023525,-0.022353,-0.0061,62.261841,24.454742,-148.370041,,,
729606241.6254,-1.201298,-0.495978,56.741492,0.012833,-0.026901,1.005219,0.023525,-0.022353,-0.0061,62.261841,24.454742,-148.370041,,,
729606241.628658,-1.195065,-0.506793,56.738943,0.012833,-0.026901,1.005219,0.023525,-0.022353,-0.0061,62.261841,24.454742,-148.370041,,,
729606241.631992,-1.189018,-0.519319,56.735503,0.015869,-0.025742,0.996841,0.020875,-0.043775,-0.014244,62.261841,24.454742,-148.370041,,,
729606241.635329,-1.189018,-0.519319,56.735503,0.015869,-0.025742,0.996841,0.020875,-0.043775,-0.014244,62.261841,24.454742,-148.370041,,,
729606241.63872,-1.185046,-0.533458,56.731706,0.015869,-0.025742,0.996841,0.020875,-0.043775,-0.014244,62.256989,24.39743,-148.254898,,,
729606241.641994,-1.184564,-0.544644,56.727687,0.008011,-0.022949,0.988495,-0.004964,-0.034098,-0.015879,62.256989,24.39743,-148.254898,,,
729606241.645338,-1.184564,-0.544644,56.727687,0.008011,-0.022949,0.988495,-0.004964,-0.034098,-0.015879,62.256989,24.39743,-148.254898,,,
729606241.648707,-1.189292,-0.554843,56.723999,0.008011,-0.022949,0.988495,-0.004964,-0.034098,-0.015879,62.256989,24.39743,-148.254898,,,
729606241.651984,-1.195118,-0.564872,56.721173,0.011032,-0.020737,0.987061,-0.02161,-0.031589,-0.010848,62.256989,24.39743,-148.254898,,,
729606241.655345,-1.195118,-0.564872,56.721173,0.011032,-0.020737,0.987061,-0.02161,-0.031589,-0.010848,62.256989,24.39743,-148.254898,,,
729606241.658667,-1.205092,-0.573868,56.718944,0.011032,-0.020737,0.987061,-0.02161,-0.031589,-0.010848,62.256989,24.39743,-148.254898,,,
729606241.661991,-1.210006,-0.579378,56.716602,0.017151,-0.022491,0.994049,-0.009689,-0.01213,-0.009502,62.256989,24.39743,-148.254898,,,
729606241.665403,-1.210006,-0.579378,56.716602,0.017151,-0.022491,0.994049,-0.009689,-0.01213,-0.009502,62.256989,24.39743,-148.254898,,,
729606241.668667,-1.212555,-0.58126,56.713416,0.017151,-0.022491,0.994049,-0.009689,-0.01213,-0.009502,62.256989,24.39743,-148.254898,,,
729606241.671987,-1.207555,-0.579387,56.709318,0.026627,-0.02597,1.021454,0.020046,0.013687,-0.017953,62.256989,24.39743,-148.254898,,,
729606241.675324,-1.207555,-0.579387,56.709318,0.026627,-0.02597,1.021454,0.020046,0.013687,-0.017953,62.256989,24.39743,-148.254898,,,
729606241.678656,-1.199303,-0.574705,56.70475,0.026627,-0.02597,1.021454,0.020046,0.013687,-0.017953,62.099609,24.35318,-148.397552,,,
729606241.682088,-1.189368,-0.568632,56.700745,0.02092,-0.031525,1.008667,0.036473,0.027644,-0.014046,62.099609,24.35318,-148.397552,,,
729606241.685335,-1.189368,-0.568632,56.700745,0.02092,-0.031525,1.008667,0.036473,0.027644,-0.014046,62.099609,24.35318,-148.397552,,,
729606241.688657,-1.179682,-0.55997,56.697969,0.02092,-0.031525,1.008667,0.036473,0.027644,-0.014046,62.099609,24.35318,-148.397552,,,
729606241.691994,-1.171975,-0.552509,56.696177,0.007584,-0.028061,0.989822,0.026544,0.029266,-0.006816,62.099609,24.35318,-148.397552,,,
729606241.695345,-1.171975,-0.552509,56.696177,0.007584,-0.028061,0.989822,0.026544,0.029266,-0.006816,62.099609,24.35318,-148.397552,,,
729606241.698733,-1.168371,-0.544986,56.695415,0.007584,-0.028061,0.989822,0.026544,0.029266,-0.006816,62.099609,24.35318,-148.397552,,,
729606241.701984,-1.167286,-0.539751,56.695761,0.005219,-0.017975,0.97937,0.002462,0.018634,0.003964,62.099609,24.35318,-148.397552,,,
729606241.705399,-1.167286,-0.539751,56.695761,0.005219,-0.017975,0.97937,0.002462,0.018634,0.003964,62.099609,24.35318,-148.397552,,,
729606241.708672,-1.169055,-0.538943,56.69684,0.005219,-0.017975,0.97937,0.002462,0.018634,0.003964,62.099609,24.35318,-148.397552,,,
729606241.712076,-1.167616,-0.539218,56.698122,0.00325,-0.018524,0.979477,0.008932,-0.003133,0.00545,62.099609,24.35318,-148.397552,,,
729606241.715331,-1.167616,-0.539218,56.698122,0.00325,-0.018524,0.979477,0.008932,-0.003133,0.00545,62.099609,24.35318,-148.397552,,,
729606241.718661,-1.162183,-0.542525,56.698628,0.00325,-0.018524,0.979477,0.008932,-0.003133,0.00545,62.293259,24.189377,-148.483978,,,
729606241.721991,-1.149634,-0.543436,56.696972,0.009323,-0.024155,1.005692,0.050253,0.002444,-0.007648,62.293259,24.189377,-148.483978,,,
729606241.725333,-1.149634,-0.543436,56.696972,0.009323,-0.024155,1.005692,0.050253,0.002444,-0.007648,62.293259,24.189377,-148.483978,,,
729606241.728768,-1.133138,-0.540745,56.692587,0.009323,-0.024155,1.005692,0.050253,0.002444,-0.007648,62.293259,24.189377,-148.483978,,,
729606241.731996,-1.113599,-0.537649,56.686862,0.016968,-0.024338,1.015121,0.072207,0.01668,-0.023677,62.293259,24.189377,-148.483978,,,
729606241.735353,-1.113599,-0.537649,56.686862,0.016968,-0.024338,1.015121,0.072207,0.01668,-0.023677,62.293259,24.189377,-148.483978,,,
729606241.738651,-1.094436,-0.537199,56.681417,0.016968,-0.024338,1.015121,0.072207,0.01668,-0.023677,62.293259,24.189377,-148.483978,,,
729606241.741995,-1.078702,-0.535848,56.677963,0.004135,-0.021286,0.986084,0.050291,0.006835,-0.010398,62.293259,24.189377,-148.483978,,,
729606241.745336,-1.078702,-0.535848,56.677963,0.004135,-0.021286,0.986084,0.050291,0.006835,-0.010398,62.293259,24.189377,-148.483978,,,
729606241.748657,-1.069543,-0.53695,56.676917,0.004135,-0.021286,0.986084,0.050291,0.006835,-0.010398,62.293259,24.189377,-148.483978,,,
729606241.751996,-1.064425,-0.532053,56.677971,-0.000488,-0.019394,0.976562,0.014484,0.023367,0.002575,62.293259,24.189377,-148.483978,,,
729606241.755392,-1.064425,-0.532053,56.677971,-0.000488,-0.019394,0.976562,0.014484,0.023367,0.002575,62.293259,24.189377,-148.483978,,,
729606241.75865,-1.065902,-0.531887,56.680658,-0.000488,-0.019394,0.976562,0.014484,0.023367,0.002575,62.142258,24.112411,-148.623383,,,
729606241.762008,-1.068231,-0.528126,56.68448,0.005066,-0.019135,0.978485,-0.008948,0.010162,0.012769,62.142258,24.112411,-148.623383,,,
729606241.765372,-1.068231,-0.528126,56.68448,0.005066,-0.019135,0.978485,-0.008948,0.010162,0.012769,62.142258,24.112411,-148.623383,,,
729606241.768727,-1.075057,-0.528863,56.688121,0.005066,-0.019135,0.978485,-0.008948,0.010162,0.012769,62.142258,24.112411,-148.623383,,,
729606241.771999,-1.079954,-0.529802,56.690688,0.008713,-0.019867,0.980545,-0.013748,-0.003553,0.007784,62.142258,24.112411,-148.623383,,,
729606241.775336,-1.079954,-0.529802,56.690688,0.008713,-0.019867,0.980545,-0.013748,-0.003553,0.007784,62.142258,24.112411,-148.623383,,,
729606241.778676,-1.085688,-0.531748,56.691516,0.008713,-0.019867,0.980545,-0.013748,-0.003553,0.007784,62.142258,24.112411,-148.623383,,,
729606241.782031,-1.089802,-0.536021,56.690871,0.01239,-0.018219,0.990494,-0.014089,-0.013136,-0.004136,62.142258,24.112411,-148.623383,,,
729606241.78535,-1.089802,-0.536021,56.690871,0.01239,-0.018219,0.990494,-0.014089,-0.013136,-0.004136,62.142258,24.112411,-148.623383,,,
729606241.788662,-1.093327,-0.540594,56.689514,0.01239,-0.018219,0.990494,-0.014089,-0.013136,-0.004136,62.142258,24.112411,-148.623383,,,
729606241.792033,-1.097749,-0.548077,56.687943,0.010529,-0.019165,0.991776,-0.013,-0.024022,-0.005124,62.142258,24.112411,-148.623383,,,
729606241.795399,-1.097749,-0.548077,56.687943,0.010529,-0.019165,0.991776,-0.013,-0.024022,-0.005124,62.142258,24.112411,-148.623383,,,
729606241.798693,-1.103606,-0.55523,56.686341,0.010529,-0.019165,0.991776,-0.013,-0.024022,-0.005124,62.142258,24.112411,-148.623383,,,
729606241.802032,-1.109278,-0.565785,56.68509,0.010696,-0.023392,0.985977,-0.020001,-0.034202,-0.004734,62.131378,24.391479,-148.538437,,,
729606241.805347,-1.109278,-0.565785,56.68509,0.010696,-0.023392,0.985977,-0.020001,-0.034202,-0.004734,62.131378,24.391479,-148.538437,,,
729606241.808741,-1.115535,-0.578733,56.684514,0.010696,-0.023392,0.985977,-0.020001,-0.034202,-0.004734,62.131378,24.391479,-148.538437,,,
729606241.812011,-1.118363,-0.590133,56.684516,0.011932,-0.026138,0.991562,-0.008647,-0.034493,0.001729,62.131378,24.391479,-148.538437,,,
729606241.815336,-1.118363,-0.590133,56.684516,0.011932,-0.026138,0.991562,-0.008647,-0.034493,0.001729,62.131378,24.391479,-148.538437,,,
729606241.818672,-1.119149,-0.599159,56.685852,0.011932,-0.026138,0.991562,-0.008647,-0.034493,0.001729,62.131378,24.391479,-148.538437,,,
729606241.822011,-1.119149,-0.60144,56.688538,0.011139,-0.031296,1.012634,0.01502,0.000726,0.008066,62.131378,24.391479,-148.538437,,,
729606241.825335,-1.116048,-0.60144,56.688538,0.011139,-0.031296,1.012634,0.01502,0.000726,0.008066,62.131378,24.391479,-148.538437,,,
729606241.828669,-1.111247,-0.595718,56.691982,0.011139,-0.031296,1.012634,0.01502,0.000726,0.008066,62.131378,24.391479,-148.538437,,,
729606241.83206,-1.105172,-0.590404,56.696103,0.015152,-0.03038,1.016464,0.021355,0.023046,0.012953,62.131378,24.391479,-148.538437,,,
729606241.835385,-1.105172,-0.590404,56.696103,0.015152,-0.03038,1.016464,0.021355,0.023046,0.012953,62.131378,24.391479,-148.538437,,,
729606241.838671,-1.098848,-0.581279,56.700707,0.015152,-0.03038,1.016464,0.021355,0.023046,0.012953,62.131378,24.391479,-148.538437,,,
729606241.842085,-1.092791,-0.57515,56.705346,0.017532,-0.025192,1.000961,0.021848,0.025108,0.015149,62.195831,24.514557,-148.396591,,,
729606241.84548,-1.092791,-0.57515,56.705346,0.017532,-0.025192,1.000961,0.021848,0.025108,0.015149,62.195831,24.514557,-148.396591,,,
729606241.848689,-1.088215,-0.567056,56.709768,0.017532,-0.025192,1.000961,0.021848,0.025108,0.015149,62.195831,24.514557,-148.396591,,,
729606241.852094,-1.088215,-0.559156,56.712929,0.017532,-0.025192,1.000961,0.021848,0.025108,0.015149,62.195831,24.514557,-148.396591,,,
729606241.855355,-1.084919,-0.559156,56.712929,0.017029,-0.017975,0.996994,0.012638,0.032529,0.006608,62.195831,24.514557,-148.396591,,,
729606241.858754,-1.082757,-0.55101,56.714385,0.017029,-0.017975,0.996994,0.012638,0.032529,0.006608,62.195831,24.514557,-148.396591,,,
729606241.862045,-1.082757,-0.55101,56.714385,0.017029,-0.017975,0.996994,0.012638,0.032529,0.006608,62.195831,24.514557,-148.396591,,,
729606241.865348,-1.081675,-0.543544,56.71378,0.019638,-0.014175,0.994629,0.003381,0.026701,-0.005995,62.195831,24.514557,-148.396591,,,
729606241.868696,-1.08133,-0.540068,56.711511,0.019638,-0.014175,0.994629,0.003381,0.026701,-0.005995,62.195831,24.514557,-148.396591,,,
729606241.872053,-1.08133,-0.540068,56.711511,0.019638,-0.014175,0.994629,-0.005719,0.00267,-0.013493,62.195831,24.514557,-148.396591,,,
729606241.875347,-1.082026,-0.539022,56.708254,0.017746,-0.013184,0.988876,-0.005719,0.00267,-0.013493,62.195831,24.514557,-148.396591,,,
729606241.878677,-1.084099,-0.540617,56.704471,0.017746,-0.013184,0.988876,-0.005719,0.00267,-0.013493,62.195831,24.514557,-148.396591,,,
729606241.881994,-1.084099,-0.540617,56.704471,0.017746,-0.013184,0.988876,-0.005719,0.00267,-0.013493,62.233398,24.245239,-148.282974,,,
729606241.885398,-1.084894,-0.543313,56.700632,0.010956,-0.016235,0.990524,0.000188,-0.008101,-0.014267,62.233398,24.245239,-148.282974,,,
