Time (sec),Pitch (deg),Roll (deg),Yaw(deg),X-Acceleration (g),Y-Acceleration (g),Z-Acceleration (g),Pitch Rate (deg/sec),Roll Rate (deg/sec),Yaw Rate (deg/sec),Magnetic Field in X direction (uT),Magnetic Field in Y direction (uT),Magnetic Field in Z Direction (uT),Latitude (deg),Longitude (deg),Altitude (m)
729606286.495199,-0.511273,-0.679671,51.97706,0.034149,0.013748,0.988113,0.050424,-0.035142,-0.058856,61.54483,22.245468,-149.77681,,,
729606286.498446,-0.49549,-0.688137,51.959872,0.035858,0.015747,0.991364,0.050424,-0.035142,-0.058856,61.54483,22.245468,-149.77681,,,
729606286.501842,-0.476243,-0.69932,51.942199,0.035858,0.015747,0.991364,0.063314,-0.016792,-0.063585,61.54483,22.245468,-149.77681,,,
729606286.505163,-0.476243,-0.69932,51.942199,0.035858,0.015747,0.991364,0.063314,-0.016792,-0.063585,61.54483,22.245468,-149.77681,,,
729606286.508566,-0.456711,-0.701296,51.924613,0.037872,0.018753,0.995514,0.063314,-0.016792,-0.063585,61.54483,22.245468,-149.77681,,,
729606286.511802,-0.432772,-0.707459,51.907417,0.037872,0.018753,0.995514,0.071067,0.005236,-0.06293,61.54483,22.245468,-149.77681,,,
729606286.515064,-0.432772,-0.707459,51.907417,0.037872,0.018753,0.995514,0.071067,0.005236,-0.06293,61.54483,22.245468,-149.77681,,,
729606286.518506,-0.41175,-0.705381,51.891059,0.031784,0.01355,0.990082,0.071067,0.005236,-0.06293,61.54483,22.245468,-149.77681,,,
729606286.5218,-0.385715,-0.706715,51.875454,0.031784,0.01355,0.990082,0.074747,0.016404,-0.056138,61.54483,22.245468,-149.77681,,,
729606286.525192,-0.385715,-0.706715,51.875454,0.031784,0.01355,0.990082,0.074747,0.016404,-0.056138,61.54483,22.245468,-149.77681,,,
729606286.528458,-0.363037,-0.699508,51.860462,0.026581,0.009079,0.987259,0.074747,0.016404,-0.056138,61.54483,22.245468,-149.77681,,,
729606286.53173,-0.337443,-0.692829,51.845892,0.026581,0.009079,0.987259,0.07864,0.039513,-0.053823,61.406097,22.128143,-150.279953,,,
729606286.535161,-0.337443,-0.692829,51.845892,0.026581,0.009079,0.987259,0.07864,0.039513,-0.053823,61.406097,22.128143,-150.279953,,,
729606286.538469,-0.316059,-0.680503,51.831359,0.026093,0.01149,0.989624,0.07864,0.039513,-0.053823,61.406097,22.128143,-150.279953,,,
729606286.541808,-0.292402,-0.671458,51.816443,0.026093,0.01149,0.989624,0.070033,0.048231,-0.055288,61.406097,22.128143,-150.279953,,,
729606286.545136,-0.292402,-0.671458,51.816443,0.026093,0.01149,0.989624,0.070033,0.048231,-0.055288,61.406097,22.128143,-150.279953,,,
729606286.548444,-0.274118,-0.659774,51.800521,0.022141,0.015045,0.977295,0.070033,0.048231,-0.055288,61.406097,22.128143,-150.279953,,,
729606286.551834,-0.253161,-0.655508,51.783518,0.022141,0.015045,0.977295,0.058341,0.037321,-0.061226,61.406097,22.128143,-150.279953,,,
729606286.555169,-0.253161,-0.655508,51.783518,0.022141,0.015045,0.977295,0.058341,0.037321,-0.061226,61.406097,22.128143,-150.279953,,,
729606286.558475,-0.238663,-0.646734,51.765858,0.015121,0.015182,0.974823,0.058341,0.037321,-0.061226,61.406097,22.128143,-150.279953,,,
729606286.561801,-0.221912,-0.646083,51.74701,0.015121,0.015182,0.974823,0.041972,0.031271,-0.068058,61.406097,22.128143,-150.279953,,,
729606286.565121,-0.221912,-0.646083,51.74701,0.015121,0.015182,0.974823,0.041972,0.031271,-0.068058,61.406097,22.128143,-150.279953,,,
729606286.56851,-0.211707,-0.638197,51.727074,0.011765,0.014877,0.974487,0.041972,0.031271,-0.068058,61.406097,22.128143,-150.279953,,,
729606286.571806,-0.198554,-0.640236,51.707316,0.011765,0.014877,0.974487,0.027131,0.032477,-0.074186,61.467133,21.931458,-149.999466,,,
729606286.575137,-0.198554,-0.640236,51.707316,0.011765,0.014877,0.974487,0.027131,0.032477,-0.074186,61.467133,21.931458,-149.999466,,,
729606286.578472,-0.192178,-0.632826,51.688496,0.004883,0.013824,0.977432,0.027131,0.032477,-0.074186,61.467133,21.931458,-149.999466,,,
729606286.581761,-0.18212,-0.633748,51.670786,0.004883,0.013824,0.977432,0.017212,0.026835,-0.062694,61.467133,21.931458,-149.999466,,,
729606286.585231,-0.18212,-0.633748,51.670786,0.004883,0.013824,0.977432,0.017212,0.026835,-0.062694,61.467133,21.931458,-149.999466,,,
729606286.588558,-0.17708,-0.625469,51.654629,-0.003174,0.006409,0.984283,0.017212,0.026835,-0.062694,61.467133,21.931458,-149.999466,,,
729606286.591815,-0.167975,-0.622846,51.639975,-0.003174,0.006409,0.984283,0.017459,0.038882,-0.053547,61.467133,21.931458,-149.999466,,,
729606286.59522,-0.167975,-0.622846,51.639975,-0.003174,0.006409,0.984283,0.017459,0.038882,-0.053547,61.467133,21.931458,-149.999466,,,
729606286.598415,-0.1628,-0.61052,51.626708,-0.005173,0.002594,0.993301,0.017459,0.038882,-0.053547,61.467133,21.931458,-149.999466,,,
729606286.60183,-0.153895,-0.602503,51.61426,-0.005173,0.002594,0.993301,0.02035,0.05278,-0.046167,61.467133,21.931458,-149.999466,,,
729606286.605152,-0.153895,-0.602503,51.61426,-0.005173,0.002594,0.993301,0.02035,0.05278,-0.046167,61.467133,21.931458,-149.999466,,,
729606286.608554,-0.147033,-0.586953,51.602464,-0.009659,-0.001663,0.996399,0.02035,0.05278,-0.046167,61.467133,21.931458,-149.999466,,,
729606286.611804,-0.136401,-0.575352,51.592352,-0.009659,-0.001663,0.996399,0.02999,0.062099,-0.035218,61.578384,21.991501,-150.306839,,,
729606286.615097,-0.136401,-0.575352,51.592352,-0.009659,-0.001663,0.996399,0.02999,0.062099,-0.035218,61.578384,21.991501,-150.306839,,,
729606286.618516,-0.127158,-0.557791,51.584338,-0.020035,-0.011261,1.005371,0.02999,0.062099,-0.035218,61.578384,21.991501,-150.306839,,,
729606286.621799,-0.112376,-0.54441,51.578689,-0.020035,-0.011261,1.005371,0.039567,0.071491,-0.020351,61.578384,21.991501,-150.306839,,,
729606286.625134,-0.112376,-0.54441,51.578689,-0.020035,-0.011261,1.005371,0.039567,0.071491,-0.020351,61.578384,21.991501,-150.306839,,,
729606286.628466,-0.100082,-0.524553,51.576155,-0.027817,-0.020386,1.010101,0.039567,0.071491,-0.020351,61.578384,21.991501,-150.306839,,,
729606286.631749,-0.100082,-0.524553,51.576155,-0.027817,-0.020386,1.010101,0.049246,0.071267,0.001451,61.578384,21.991501,-150.306839,,,
729606286.635247,-0.081658,-0.508737,51.57717,-0.027817,-0.020386,1.010101,0.049246,0.071267,0.001451,61.578384,21.991501,-150.306839,,,
729606286.638476,-0.066532,-0.490762,51.581843,-0.033569,-0.023453,1.011414,0.049246,0.071267,0.001451,61.578384,21.991501,-150.306839,,,
729606286.641815,-0.066532,-0.490762,51.581843,-0.033569,-0.023453,1.011414,0.057077,0.058096,0.02467,61.578384,21.991501,-150.306839,,,
729606286.64501,-0.047415,-0.476669,51.589127,-0.033569,-0.023453,1.011414,0.057077,0.058096,0.02467,61.578384,21.991501,-150.306839,,,
729606286.648418,-0.030727,-0.462495,51.598075,-0.028381,-0.019562,1.014191,0.057077,0.058096,0.02467,61.578384,21.991501,-150.306839,,,
729606286.651824,-0.030727,-0.462495,51.598075,-0.028381,-0.019562,1.014191,0.063286,0.05085,0.029175,61.55629,21.924484,-150.135284,,,
729606286.655154,-0.010333,-0.449734,51.607571,-0.028381,-0.019562,1.014191,0.063286,0.05085,0.029175,61.55629,21.924484,-150.135284,,,
729606286.65855,0.007569,-0.435968,51.615981,-0.017914,-0.008835,1.016418,0.063286,0.05085,0.029175,61.55629,21.924484,-150.135284,,,
729606286.661794,0.007569,-0.435968,51.615981,-0.017914,-0.008835,1.016418,0.065092,0.051984,0.018925,61.55629,21.924484,-150.135284,,,
729606286.665088,0.029017,-0.42019,51.622385,-0.017914,-0.008835,1.016418,0.065092,0.051984,0.018925,61.55629,21.924484,-150.135284,,,
729606286.66849,0.04849,-0.407067,51.626713,-0.004044,-0.001328,1.015305,0.065092,0.051984,0.018925,61.55629,21.924484,-150.135284,,,
729606286.6718,0.04849,-0.407067,51.628878,-0.004044,-0.001328,1.015305,0.068797,0.046381,0.003831,61.55629,21.924484,-150.135284,,,
729606286.675145,0.068982,-0.390033,51.628878,-0.004044,-0.001328,1.015305,0.068797,0.046381,0.003831,61.55629,21.924484,-150.135284,,,
729606286.678468,0.08853,-0.37803,51.629186,0.005585,0.001328,1.009979,0.068797,0.046381,0.003831,61.55629,21.924484,-150.135284,,,
729606286.6819,0.08853,-0.37803,51.628115,0.005585,0.001328,1.009979,0.066682,0.042592,-0.005628,61.55629,21.924484,-150.135284,,,
729606286.6852,0.10803,-0.361616,51.628115,0.005585,0.001328,1.009979,0.066682,0.042592,-0.005628,61.55629,21.924484,-150.135284,,,
729606286.688515,0.127007,-0.35171,51.626507,0.006927,0.001541,1.006805,0.066682,0.042592,-0.005628,61.55629,21.924484,-150.135284,,,
729606286.691807,0.127007,-0.35171,51.626507,0.006927,0.001541,1.006805,0.062591,0.031831,-0.007234,61.55629,21.924484,-150.135284,,,
729606286.695235,0.14359,-0.335737,51.624703,0.006927,0.001541,1.006805,0.062591,0.031831,-0.007234,61.63945,21.932785,-150.033142,,,
729606286.698386,0.161146,-0.329824,51.623367,0.005096,0.002182,1.003067,0.062591,0.031831,-0.007234,61.63945,21.932785,-150.033142,,,
729606286.701851,0.161146,-0.329824,51.623367,0.005096,0.002182,1.003067,0.060823,0.01224,-0.001772,61.63945,21.932785,-150.033142,,,
729606286.705166,0.173361,-0.316026,51.622839,0.005096,0.002182,1.003067,0.060823,0.01224,-0.001772,61.63945,21.932785,-150.033142,,,
729606286.708545,0.190148,-0.315917,51.623122,0.006287,0.001404,0.999054,0.060823,0.01224,-0.001772,61.63945,21.932785,-150.033142,,,
729606286.711788,0.190148,-0.315917,51.623122,0.006287,0.001404,0.999054,0.063727,0.000846,0.003443,61.63945,21.932785,-150.033142,,,
729606286.715011,0.201794,-0.302699,51.624754,0.006287,0.001404,0.999054,0.063727,0.000846,0.003443,61.63945,21.932785,-150.033142,,,
729606286.718511,0.222891,-0.302745,51.627916,0.008301,-0.005035,1.006714,0.063727,0.000846,0.003443,61.63945,21.932785,-150.033142,,,
729606286.721809,0.222891,-0.302745,51.627916,0.008301,-0.005035,1.006714,0.08649,0.002426,0.014558,61.63945,21.932785,-150.033142,,,
729606286.725141,0.240356,-0.287872,51.632315,0.008301,-0.005035,1.006714,0.08649,0.002426,0.014558,61.63945,21.932785,-150.033142,,,
729606286.728473,0.268681,-0.286546,51.637064,0.016678,-0.012756,1.017242,0.08649,0.002426,0.014558,61.63945,21.932785,-150.033142,,,
729606286.731739,0.268681,-0.286546,51.637064,0.016678,-0.012756,1.017242,0.08649,0.002426,0.014558,61.63945,21.932785,-150.033142,,,
729606286.7352,0.294295,-0.272089,51.641359,0.016678,-0.012756,1.017242,0.111835,0.014486,0.012535,61.922867,21.424133,-150.11586,,,
729606286.738478,0.327792,-0.264687,51.64531,0.026947,-0.009094,1.013794,0.111835,0.014486,0.012535,61.922867,21.424133,-150.11586,,,
729606286.741813,0.327792,-0.264687,51.64531,0.026947,-0.009094,1.013794,0.111835,0.014486,0.012535,61.922867,21.424133,-150.11586,,,
729606286.745203,0.36008,-0.245724,51.648587,0.026947,-0.009094,1.013794,0.120174,0.047038,0.009751,61.922867,21.424133,-150.11586,,,
729606286.748446,0.394636,-0.228271,51.650844,0.035355,-0.000153,1.007645,0.120174,0.047038,0.009751,61.922867,21.424133,-150.11586,,,
729606286.751907,0.394636,-0.228271,51.650844,0.035355,-0.000153,1.007645,0.117048,0.07779,0.001599,61.922867,21.424133,-150.11586,,,
729606286.755157,0.425658,-0.205577,51.652136,0.035355,-0.000153,1.007645,0.117048,0.07779,0.001599,61.922867,21.424133,-150.11586,,,
729606286.758473,0.455671,-0.181927,51.652627,0.039047,0.006805,0.993576,0.117048,0.07779,0.001599,61.922867,21.424133,-150.11586,,,
729606286.761821,0.455671,-0.181927,51.652627,0.039047,0.006805,0.993576,0.086523,0.085996,-0.001538,61.922867,21.424133,-150.11586,,,
729606286.765058,0.479531,-0.159293,51.652608,0.039047,0.006805,0.993576,0.086523,0.085996,-0.001538,61.922867,21.424133,-150.11586,,,
729606286.768582,0.500056,-0.137037,51.651113,0.036591,0.012787,0.975159,0.086523,0.085996,-0.001538,61.922867,21.424133,-150.11586,,,
729606286.771849,0.500056,-0.137037,51.651113,0.036591,0.012787,0.975159,0.058722,0.068221,-0.017424,61.922867,21.424133,-150.11586,,,
729606286.77513,0.515604,-0.119216,51.646658,0.036591,0.012787,0.975159,0.058722,0.068221,-0.017424,61.870163,21.230865,-150.253708,,,
729606286.778463,0.530536,-0.105115,51.638855,0.031631,0.018463,0.971359,0.058722,0.068221,-0.017424,61.870163,21.230865,-150.253708,,,
729606286.78174,0.530536,-0.105115,51.638855,0.031631,0.018463,0.971359,0.058722,0.068221,-0.017424,61.870163,21.230865,-150.253708,,,
729606286.7852,0.542886,-0.09858,51.627642,0.031631,0.018463,0.971359,0.05048,0.031746,-0.042017,61.870163,21.230865,-150.253708,,,
729606286.788466,0.555714,-0.098983,51.613362,0.026642,0.014221,0.976578,0.05048,0.031746,-0.042017,61.870163,21.230865,-150.253708,,,
729606286.791802,0.555714,-0.098983,51.613362,0.026642,0.014221,0.976578,0.05048,0.031746,-0.042017,61.870163,21.230865,-150.253708,,,
729606286.795135,0.565034,-0.107729,51.596224,0.026642,0.014221,0.976578,0.042171,-0.019564,-0.061592,61.870163,21.230865,-150.253708,,,
729606286.798419,0.576233,-0.118363,51.577105,0.021408,0.006927,0.975769,0.042171,-0.019564,-0.061592,61.870163,21.230865,-150.253708,,,
729606286.801861,0.576233,-0.118363,51.577105,0.021408,0.006927,0.975769,0.042171,-0.019564,-0.061592,61.870163,21.230865,-150.253708,,,
729606286.805161,0.5816,-0.133831,51.557059,0.021408,0.006927,0.975769,0.037085,-0.041099,-0.072386,61.870163,21.230865,-150.253708,,,
729606286.808467,0.590562,-0.145763,51.536205,0.022125,0.007095,0.986465,0.037085,-0.041099,-0.072386,61.870163,21.230865,-150.253708,,,
729606286.811905,0.590562,-0.145763,51.536205,0.022125,0.007095,0.986465,0.037085,-0.033643,-0.078007,61.870163,21.230865,-150.253708,,,
729606286.815019,0.592374,-0.163022,51.514944,0.022125,0.007095,0.986465,0.026065,-0.033643,-0.078007,61.870163,21.230865,-150.253708,,,
729606286.818479,0.59852,-0.171191,51.493707,0.022507,0.008133,0.987534,0.026065,-0.033643,-0.078007,62.156509,20.823029,-150.289124,,,
729606286.821809,0.59852,-0.171191,51.493707,0.022507,0.008133,0.987534,0.026065,-0.033643,-0.078007,62.156509,20.823029,-150.289124,,,
729606286.825187,0.598882,-0.186009,51.473368,0.022507,0.008133,0.987534,0.016742,-0.012795,-0.071589,62.156509,20.823029,-150.289124,,,
729606286.828464,0.602109,-0.186523,51.454292,0.01445,0.008347,0.992096,0.016742,-0.012795,-0.071589,62.156509,20.823029,-150.289124,,,
729606286.831793,0.602109,-0.186523,51.454292,0.01445,0.008347,0.992096,0.016742,-0.012795,-0.071589,62.156509,20.823029,-150.289124,,,
729606286.835173,0.60266,-0.19557,51.436697,0.01445,0.008347,0.992096,0.009137,0.017804,-0.065629,62.156509,20.823029,-150.289124,,,
729606286.838474,0.604514,-0.187473,51.420293,0.005539,0.006393,0.996124,0.009137,0.017804,-0.065629,62.156509,20.823029,-150.289124,,,
729606286.841855,0.604514,-0.187473,51.420293,0.005539,0.006393,0.996124,0.009137,0.017804,-0.065629,62.156509,20.823029,-150.289124,,,
729606286.845135,0.605159,-0.190076,51.405733,0.005539,0.006393,0.996124,0.002319,0.040637,-0.051932,62.156509,20.823029,-150.289124,,,
729606286.848377,0.605992,-0.177618,51.392937,-0.002884,0.003769,0.993561,0.002319,0.040637,-0.051932,62.156509,20.823029,-150.289124,,,
729606286.851919,0.605992,-0.177618,51.392937,-0.002884,0.003769,0.993561,0.002319,0.040637,-0.051932,62.156509,20.823029,-150.289124,,,
729606286.855134,0.60775,-0.176444,51.381743,-0.002884,0.003769,0.993561,0.004555,0.04882,-0.039736,62.156509,20.823029,-150.289124,,,
729606286.858463,0.607972,-0.162636,51.371724,-0.011398,0.004623,0.993835,0.004555,0.04882,-0.039736,62.183655,21.129013,-150.270416,,,
729606286.861855,0.607972,-0.162636,51.371724,-0.011398,0.004623,0.993835,0.004555,0.04882,-0.039736,62.183655,21.129013,-150.270416,,,
729606286.865065,0.609871,-0.159711,51.363146,-0.011398,0.004623,0.993835,-0.000182,0.049135,-0.032565,62.183655,21.129013,-150.270416,,,
729606286.868504,0.608504,-0.147744,51.355172,-0.016205,0.010803,0.986923,-0.000182,0.049135,-0.032565,62.183655,21.129013,-150.270416,,,
729606286.87185,0.608504,-0.147744,51.355172,-0.016205,0.010803,0.986923,-0.000182,0.049135,-0.032565,62.183655,21.129013,-150.270416,,,
729606286.874969,0.604122,-0.146617,51.348003,-0.016205,0.010803,0.986923,-0.016409,0.03646,-0.027571,62.183655,21.129013,-150.270416,,,
729606286.878493,0.595985,-0.140589,51.341438,-0.015656,0.01535,0.973068,-0.016409,0.03646,-0.027571,62.183655,21.129013,-150.270416,,,
729606286.881685,0.595985,-0.140589,51.341438,-0.015656,0.01535,0.973068,-0.016409,0.03646,-0.027571,62.183655,21.129013,-150.270416,,,
729606286.885157,0.583702,-0.144991,51.33536,-0.015656,0.01535,0.973068,-0.037669,0.01196,-0.020291,62.183655,21.129013,-150.270416,,,
729606286.888484,0.568578,-0.1473,51.329614,-0.014587,0.019409,0.969345,-0.037669,0.01196,-0.020291,62.183655,21.129013,-150.270416,,,
729606286.891931,0.568578,-0.1473,51.329614,-0.014587,0.019409,0.969345,-0.037669,0.01196,-0.020291,62.183655,21.129013,-150.270416,,,
729606286.89512,0.549634,-0.160052,51.323236,-0.014587,0.019409,0.969345,-0.067111,-0.023863,-0.025045,62.183655,21.129013,-150.270416,,,
729606286.898423,0.528503,-0.171951,51.315855,-0.010544,0.019714,0.970627,-0.067111,-0.023863,-0.025045,62.002609,21.45546,-150.534576,,,
729606286.901828,0.528503,-0.171951,51.315855,-0.010544,0.019714,0.970627,-0.067111,-0.023863,-0.025045,62.002609,21.45546,-150.534576,,,
729606286.90518,0.506079,-0.191241,51.307851,-0.010544,0.019714,0.970627,-0.076414,-0.05325,-0.027147,62.002609,21.45546,-150.534576,,,
729606286.90847,0.483991,-0.209137,51.298709,-0.006134,0.016998,0.983139,-0.076414,-0.05325,-0.027147,62.002609,21.45546,-150.534576,,,
729606286.911801,0.483991,-0.209137,51.298709,-0.006134,0.016998,0.983139,-0.076414,-0.05325,-0.027147,62.002609,21.45546,-150.534576,,,
729606286.915024,0.463287,-0.229439,51.289073,-0.006134,0.016998,0.983139,-0.070278,-0.062684,-0.03108,62.002609,21.45546,-150.534576,,,
729606286.918487,0.444036,-0.247823,51.279727,-0.004974,0.011108,0.999054,-0.070278,-0.062684,-0.03108,62.002609,21.45546,-150.534576,,,
729606286.921802,0.444036,-0.247823,51.279727,-0.004974,0.011108,0.999054,-0.070278,-0.062684,-0.03108,62.002609,21.45546,-150.534576,,,
729606286.925147,0.426456,-0.264109,51.270614,-0.004974,0.011108,0.999054,-0.058875,-0.056083,-0.033765,62.002609,21.45546,-150.534576,,,
729606286.92846,0.41162,-0.278126,51.262658,-0.005157,0.006058,1.007263,-0.058875,-0.056083,-0.033765,62.002609,21.45546,-150.534576,,,
729606286.931728,0.41162,-0.278126,51.262658,-0.005157,0.006058,1.007263,-0.058875,-0.056083,-0.033765,62.002609,21.45546,-150.534576,,,
729606286.935152,0.397983,-0.286343,51.256787,-0.005157,0.006058,1.007263,-0.044607,-0.038082,-0.022728,62.002609,21.45546,-150.534576,,,
729606286.938458,0.386518,-0.293438,51.252901,-0.00528,0.006271,1.011688,-0.044607,-0.038082,-0.022728,61.918945,21.32724,-150.533005,,,
729606286.9418,0.386518,-0.293438,51.252901,-0.00528,0.006271,1.011688,-0.044607,-0.038082,-0.022728,61.918945,21.32724,-150.533005,,,
729606286.945225,0.375693,-0.290075,51.251057,-0.00528,0.006271,1.011688,-0.036275,-0.007014,-0.00717,61.918945,21.32724,-150.533005,,,
729606286.948385,0.365393,-0.289623,51.251653,-0.009521,0.005905,1.012283,-0.036275,-0.007014,-0.00717,61.918945,21.32724,-150.533005,,,
729606286.951818,0.365393,-0.289623,51.251653,-0.009521,0.005905,1.012283,-0.036275,-0.007014,-0.00717,61.918945,21.32724,-150.533005,,,
729606286.955136,0.357431,-0.277779,51.254663,-0.009521,0.005905,1.012283,-0.033966,0.018529,0.008129,61.918945,21.32724,-150.533005,,,
729606286.958472,0.348501,-0.271245,51.259731,-0.013596,0.003723,1.008026,-0.033966,0.018529,0.008129,61.918945,21.32724,-150.533005,,,
729606286.961816,0.348501,-0.271245,51.259731,-0.013596,0.003723,1.008026,-0.033966,0.018529,0.008129,61.918945,21.32724,-150.533005,,,
729606286.965039,0.342975,-0.255052,51.2661,-0.013596,0.003723,1.008026,-0.028957,0.033833,0.022752,61.918945,21.32724,-150.533005,,,
729606286.968485,0.334533,-0.246457,51.274344,-0.01503,-0.003479,1.006241,-0.028957,0.033833,0.022752,61.918945,21.32724,-150.533005,,,
729606286.971903,0.334533,-0.246457,51.274344,-0.01503,-0.003479,1.006241,-0.028957,0.033833,0.022752,61.918945,21.32724,-150.533005,,,
729606286.975148,0.330052,-0.231708,51.285665,-0.01503,-0.003479,1.006241,-0.025366,0.030477,0.035465,61.918945,21.32724,-150.533005,,,
729606286.978465,0.32134,-0.224877,51.300116,-0.020432,-0.014359,0.995453,-0.025366,0.030477,0.035465,61.918945,21.32724,-150.533005,,,
729606286.981667,0.32134,-0.224877,51.300116,-0.020432,-0.014359,0.995453,-0.025366,0.030477,0.035465,61.802704,21.590332,-150.524933,,,
729606286.985224,0.314553,-0.214271,51.317181,-0.020432,-0.014359,0.995453,-0.034249,0.025156,0.060538,61.802704,21.590332,-150.524933,,,
729606286.988462,0.301604,-0.209291,51.336851,-0.023178,-0.020599,0.988983,-0.034249,0.025156,0.060538,61.802704,21.590332,-150.524933,,,
729606286.991839,0.301604,-0.209291,51.336851,-0.023178,-0.020599,0.988983,-0.034249,0.025156,0.060538,61.802704,21.590332,-150.524933,,,
729606286.995143,0.288547,-0.203307,51.358716,-0.023178,-0.020599,0.988983,-0.052726,0.012766,0.07192,61.802704,21.590332,-150.524933,,,
729606286.998403,0.270885,-0.203992,51.381703,-0.011627,-0.017075,0.983643,-0.052726,0.012766,0.07192,61.802704,21.590332,-150.524933,,,
729606287.00182,0.270885,-0.203992,51.381703,-0.011627,-0.017075,0.983643,-0.052726,0.012766,0.07192,61.802704,21.590332,-150.524933,,,
729606287.005158,0.25271,-0.205013,51.404872,-0.011627,-0.017075,0.983643,-0.065741,-0.009445,0.081327,61.802704,21.590332,-150.524933,,,
729606287.008468,0.233315,-0.212463,51.427881,-0.000748,-0.009048,0.982834,-0.065741,-0.009445,0.081327,61.802704,21.590332,-150.524933,,,
729606287.011869,0.233315,-0.212463,51.427881,-0.000748,-0.009048,0.982834,-0.065741,-0.009445,0.081327,61.802704,21.590332,-150.524933,,,
729606287.015142,0.213862,-0.219155,51.450267,-0.000748,-0.009048,0.982834,-0.069168,-0.031471,0.078022,61.802704,21.590332,-150.524933,,,
729606287.018465,0.193589,-0.232599,51.471398,0.011246,-0.004974,0.98761,-0.069168,-0.031471,0.078022,61.802704,21.590332,-150.524933,,,
729606287.021804,0.193589,-0.232599,51.471398,0.011246,-0.004974,0.98761,-0.069168,-0.031471,0.078022,61.851044,21.570404,-150.339996,,,
729606287.02521,0.173445,-0.247006,51.490962,0.011246,-0.004974,0.98761,-0.070069,-0.059811,0.069163,61.851044,21.570404,-150.339996,,,
729606287.02845,0.152094,-0.269022,51.508668,0.021896,-0.001587,0.98584,-0.070069,-0.059811,0.069163,61.851044,21.570404,-150.339996,,,
729606287.031816,0.152094,-0.269022,51.508668,0.021896,-0.001587,0.98584,-0.070069,-0.059811,0.069163,61.851044,21.570404,-150.339996,,,
729606287.035135,0.13126,-0.285474,51.524459,0.021896,-0.001587,0.98584,-0.074295,-0.076006,0.054523,61.851044,21.570404,-150.339996,,,
729606287.038453,0.109282,-0.30673,51.538885,0.031815,-0.001724,1.000748,-0.074295,-0.076006,0.054523,61.851044,21.570404,-150.339996,,,
729606287.041819,0.109282,-0.30673,51.538885,0.031815,-0.001724,1.000748,-0.074295,-0.076006,0.054523,61.851044,21.570404,-150.339996,,,
729606287.045135,0.086975,-0.319902,51.552826,0.031815,-0.001724,1.000748,-0.077182,-0.066794,0.048198,61.851044,21.570404,-150.339996,,,
729606287.048478,0.064705,-0.338711,51.567406,0.031372,-0.004868,1.007248,-0.077182,-0.066794,0.048198,61.851044,21.570404,-150.339996,,,
729606287.051797,0.064705,-0.338711,51.567406,0.031372,-0.004868,1.007248,-0.077182,-0.066794,0.048198,61.851044,21.570404,-150.339996,,,
729606287.055193,0.04002,-0.34701,51.582538,0.031372,-0.004868,1.007248,-0.078657,-0.0555,0.053444,61.851044,21.570404,-150.339996,,,
729606287.058459,0.017455,-0.36066,51.597843,0.027161,-0.002411,1.013626,-0.078657,-0.0555,0.053444,61.851044,21.570404,-150.339996,,,
729606287.061795,0.017455,-0.36066,51.597843,0.027161,-0.002411,1.013626,-0.078657,-0.0555,0.053444,61.571243,21.810257,-150.032913,,,
729606287.065214,-0.009572,-0.361045,51.612276,0.027161,-0.002411,1.013626,-0.081548,-0.040162,0.049875,61.571243,21.810257,-150.032913,,,
729606287.068461,-0.031437,-0.371622,51.624346,0.032288,0.008957,1.018143,-0.081548,-0.040162,0.049875,61.571243,21.810257,-150.032913,,,
729606287.071808,-0.031437,-0.371622,51.624346,0.032288,0.008957,1.018143,-0.081548,-0.040162,0.049875,61.571243,21.810257,-150.032913,,,
729606287.075153,-0.058114,-0.371325,51.633878,0.032288,0.008957,1.018143,-0.073802,-0.029282,0.033337,61.571243,21.810257,-150.032913,,,
729606287.078471,-0.078838,-0.379604,51.641507,0.032593,0.013229,1.019028,-0.073802,-0.029282,0.033337,61.571243,21.810257,-150.032913,,,
729606287.081809,-0.078838,-0.379604,51.641507,0.032593,0.013229,1.019028,-0.073802,-0.029282,0.033337,61.571243,21.810257,-150.032913,,,
729606287.085236,-0.102387,-0.383934,51.648097,0.032593,0.013229,1.019028,-0.069548,-0.027855,0.023452,61.571243,21.810257,-150.032913,,,
729606287.088456,-0.123029,-0.396799,51.65426,0.020599,0.007309,1.014603,-0.069548,-0.027855,0.023452,61.571243,21.810257,-150.032913,,,
729606287.091801,-0.123029,-0.396799,51.65426,0.020599,0.007309,1.014603,-0.069548,-0.027855,0.023452,61.571243,21.810257,-150.032913,,,
729606287.095147,-0.14427,-0.412783,51.660535,0.020599,0.007309,1.014603,-0.068175,-0.057292,0.022054,61.571243,21.810257,-150.032913,,,
729606287.098463,-0.162398,-0.433392,51.666913,0.007111,0.003616,1.012634,-0.068175,-0.057292,0.022054,61.571243,21.810257,-150.032913,,,
729606287.101792,-0.162398,-0.433392,51.666913,0.007111,0.003616,1.012634,-0.068175,-0.057292,0.022054,61.464798,22.007919,-150.0914,,,
729606287.105147,-0.178175,-0.459841,51.67324,0.007111,0.003616,1.012634,-0.052918,-0.079305,0.020725,61.464798,22.007919,-150.0914,,,
729606287.108507,-0.190812,-0.487308,51.68013,0.004456,0.009888,1.031036,-0.052918,-0.079305,0.020725,61.464798,22.007919,-150.0914,,,
729606287.111811,-0.190812,-0.487308,51.68013,0.004456,0.009888,1.031036,-0.052918,-0.079305,0.020725,61.464798,22.007919,-150.0914,,,
729606287.115144,-0.200505,-0.525881,51.687822,0.004456,0.009888,1.031036,-0.03862,-0.1055,0.024598,61.464798,22.007919,-150.0914,,,
729606287.118465,-0.209543,-0.561584,51.696986,0.001099,0.005981,1.022446,-0.03862,-0.1055,0.024598,61.464798,22.007919,-150.0914,,,
729606287.121807,-0.209543,-0.561584,51.696986,0.001099,0.005981,1.022446,-0.03862,-0.1055,0.024598,61.464798,22.007919,-150.0914,,,
729606287.125146,-0.216986,-0.609419,51.707923,0.001099,0.005981,1.022446,-0.027177,-0.136409,0.037223,61.464798,22.007919,-150.0914,,,
729606287.128486,-0.222585,-0.651682,51.720132,-0.002106,0.003281,1.019638,-0.027177,-0.136409,0.037223,61.464798,22.007919,-150.0914,,,
729606287.13179,-0.222585,-0.651682,51.720132,-0.002106,0.003281,1.019638,-0.027177,-0.136409,0.037223,61.464798,22.007919,-150.0914,,,
729606287.135128,-0.226637,-0.702375,51.732804,-0.002106,0.003281,1.019638,-0.013845,-0.153078,0.042661,61.464798,22.007919,-150.0914,,,
729606287.138464,-0.229188,-0.748115,51.744755,0.007996,0.008316,1.027374,-0.013845,-0.153078,0.042661,61.464798,22.007919,-150.0914,,,
729606287.141847,-0.229188,-0.748115,51.744755,0.007996,0.008316,1.027374,-0.013845,-0.153078,0.042661,61.464798,22.007919,-150.0914,,,
729606287.14513,-0.22963,-0.79992,51.754929,0.007996,0.008316,1.027374,-0.002771,-0.15814,0.034416,61.267761,22.090881,-150.033371,,,
729606287.148459,-0.231216,-0.844415,51.764116,0.020004,0.017563,1.02655,-0.002771,-0.15814,0.034416,61.267761,22.090881,-150.033371,,,
729606287.151804,-0.231216,-0.844415,51.764116,0.020004,0.017563,1.02655,-0.002771,-0.15814,0.034416,61.267761,22.090881,-150.033371,,,
729606287.155216,-0.229962,-0.890994,51.773316,0.020004,0.017563,1.02655,-0.007892,-0.134691,0.028841,61.267761,22.090881,-150.033371,,,
729606287.158462,-0.23315,-0.926443,51.782998,0.013962,0.009766,1.023804,-0.007892,-0.134691,0.028841,61.267761,22.090881,-150.033371,,,
729606287.161818,-0.23315,-0.926443,51.782998,0.013962,0.009766,1.023804,-0.007892,-0.134691,0.028841,61.267761,22.090881,-150.033371,,,
729606287.165146,-0.233749,-0.961636,51.793172,0.013962,0.009766,1.023804,-0.008862,-0.10679,0.034063,61.267761,22.090881,-150.033371,,,
729606287.168469,-0.236744,-0.990034,51.802894,0.015442,0.009308,1.021072,-0.008862,-0.10679,0.034063,61.267761,22.090881,-150.033371,,,
729606287.171816,-0.236744,-0.990034,51.802894,0.015442,0.009308,1.021072,-0.008862,-0.10679,0.034063,61.267761,22.090881,-150.033371,,,
729606287.175152,-0.238213,-1.014446,51.811094,0.015442,0.009308,1.021072,-0.009178,-0.086671,0.027343,61.267761,22.090881,-150.033371,,,
729606287.178468,-0.240856,-1.036958,51.817581,0.024353,0.017014,1.021805,-0.009178,-0.086671,0.027343,61.267761,22.090881,-150.033371,,,
729606287.18186,-0.240856,-1.036958,51.817581,0.024353,0.017014,1.021805,-0.009178,-0.086671,0.027343,61.267761,22.090881,-150.033371,,,
729606287.185146,-0.241575,-1.055679,51.822271,0.024353,0.017014,1.021805,-0.007534,-0.071419,0.013379,61.094482,22.208557,-149.91214,,,
729606287.188465,-0.242948,-1.075845,51.825285,0.022934,0.014755,1.013824,-0.007534,-0.071419,0.013379,61.094482,22.208557,-149.91214,,,
729606287.191817,-0.242948,-1.075845,51.825285,0.022934,0.014755,1.013824,-0.007534,-0.071419,0.013379,61.094482,22.208557,-149.91214,,,
729606287.195138,-0.242539,-1.091939,51.826922,0.022934,0.014755,1.013824,-0.005068,-0.063385,0.004645,61.094482,22.208557,-149.91214,,,
729606287.19847,-0.242982,-1.10967,51.827197,0.017563,0.008026,1.006653,-0.005068,-0.063385,0.004645,61.094482,22.208557,-149.91214,,,
729606287.201813,-0.242982,-1.10967,51.827197,0.017563,0.008026,1.006653,-0.005068,-0.063385,0.004645,61.094482,22.208557,-149.91214,,,
729606287.205199,-0.240608,-1.123808,51.826501,0.017563,0.008026,1.006653,0.004242,-0.058821,-0.004059,61.094482,22.208557,-149.91214,,,
729606287.208461,-0.236366,-1.141901,51.824821,0.018127,0.005722,1.000839,0.004242,-0.058821,-0.004059,61.094482,22.208557,-149.91214,,,
729606287.211847,-0.236366,-1.141901,51.824821,0.018127,0.005722,1.000839,0.004242,-0.058821,-0.004059,61.094482,22.208557,-149.91214,,,
729606287.215146,-0.226917,-1.158321,51.821738,0.018127,0.005722,1.000839,0.032766,-0.065107,-0.013936,61.094482,22.208557,-149.91214,,,
729606287.218462,-0.214034,-1.182343,51.817035,0.02301,0.004608,1.006454,0.032766,-0.065107,-0.013936,61.094482,22.208557,-149.91214,,,
729606287.221807,-0.214034,-1.182343,51.817035,0.02301,0.004608,1.006454,0.032766,-0.065107,-0.013936,61.094482,22.208557,-149.91214,,,
729606287.225136,-0.195879,-1.208496,51.811274,0.02301,0.004608,1.006454,0.057225,-0.093635,-0.023366,60.677628,22.10907,-149.611847,,,
729606287.228465,-0.177691,-1.235903,51.805126,0.022507,-0.00293,1.001358,0.057225,-0.093635,-0.023366,60.677628,22.10907,-149.611847,,,
729606287.231858,-0.177691,-1.235903,51.805126,0.022507,-0.00293,1.001358,0.057225,-0.093635,-0.023366,60.677628,22.10907,-149.611847,,,
729606287.235147,-0.155243,-1.259318,51.799409,0.022507,-0.00293,1.001358,0.069531,-0.084077,-0.02011,60.677628,22.10907,-149.611847,,,
729606287.238468,-0.134604,-1.279117,51.794478,0.019653,-0.010162,1.002365,0.069531,-0.084077,-0.02011,60.677628,22.10907,-149.611847,,,
729606287.241805,-0.134604,-1.279117,51.794478,0.019653,-0.010162,1.002365,0.069531,-0.084077,-0.02011,60.677628,22.10907,-149.611847,,,
729606287.24519,-0.113029,-1.292098,51.790245,0.019653,-0.010162,1.002365,0.069489,-0.04978,-0.01931,60.677628,22.10907,-149.611847,,,
729606287.248459,-0.094137,-1.303121,51.786343,0.022903,-0.006943,0.995773,0.069489,-0.04978,-0.01931,60.677628,22.10907,-149.611847,,,
729606287.251805,-0.094137,-1.303121,51.786343,0.022903,-0.006943,0.995773,0.069489,-0.04978,-0.01931,60.677628,22.10907,-149.611847,,,
729606287.255144,-0.073876,-1.310066,51.782071,0.022903,-0.006943,0.995773,0.062775,-0.025397,-0.018009,60.677628,22.10907,-149.611847,,,
729606287.258465,-0.056286,-1.315438,51.77725,0.027298,-0.003418,0.97963,0.062775,-0.025397,-0.018009,60.677628,22.10907,-149.611847,,,
729606287.261848,-0.056286,-1.315438,51.77725,0.027298,-0.003418,0.97963,0.062775,-0.025397,-0.018009,60.677628,22.10907,-149.611847,,,
729606287.265168,-0.035144,-1.319169,51.772277,0.027298,-0.003418,0.97963,0.058391,-0.006835,-0.018983,60.672699,21.905838,-149.809769,,,
729606287.268466,-0.018169,-1.320908,51.767815,0.023972,-0.004547,0.983871,0.058391,-0.006835,-0.018983,60.672699,21.905838,-149.809769,,,
729606287.271795,-0.018169,-1.320908,51.767815,0.023972,-0.004547,0.983871,0.058391,-0.006835,-0.018983,60.672699,21.905838,-149.809769,,,
729606287.275157,0.001381,-1.322235,51.764578,0.023972,-0.004547,0.983871,0.053645,-0.003171,-0.015605,60.672699,21.905838,-149.809769,,,
729606287.278469,0.017246,-1.326848,51.763311,0.008789,-0.011642,0.974091,0.053645,-0.003171,-0.015605,60.672699,21.905838,-149.809769,,,
729606287.281581,0.017246,-1.326848,51.763311,0.008789,-0.011642,0.974091,0.053645,-0.003171,-0.015605,60.672699,21.905838,-149.809769,,,
729606287.285236,0.034872,-1.331512,51.76439,0.008789,-0.011642,0.974091,0.059671,-0.022246,0.001156,60.672699,21.905838,-149.809769,,,
729606287.288555,0.051951,-1.341314,51.767899,-0.000946,-0.016357,0.97496,0.059671,-0.022246,0.001156,60.672699,21.905838,-149.809769,,,
729606287.291805,0.051951,-1.341314,51.767899,-0.000946,-0.016357,0.97496,0.059671,-0.022246,0.001156,60.672699,21.905838,-149.809769,,,
729606287.295158,0.071761,-1.352638,51.773452,-0.000946,-0.016357,0.97496,0.06611,-0.040768,0.015845,60.672699,21.905838,-149.809769,,,
729606287.298473,0.091665,-1.367434,51.77992,0.007797,-0.010406,0.98172,0.06611,-0.040768,0.015845,60.672699,21.905838,-149.809769,,,
729606287.301796,0.091665,-1.367434,51.77992,0.007797,-0.010406,0.98172,0.06611,-0.040768,0.015845,60.672699,21.905838,-149.809769,,,
729606287.305144,0.113945,-1.383218,51.786265,0.007797,-0.010406,0.98172,0.080181,-0.053502,0.019667,60.672699,21.905838,-149.809769,,,
729606287.308459,0.137947,-1.398162,51.79138,0.019653,-0.002609,0.986862,0.080181,-0.053502,0.019667,60.818344,21.574814,-150.024979,,,
729606287.311887,0.137947,-1.398162,51.79138,0.019653,-0.002609,0.986862,0.080181,-0.053502,0.019667,60.818344,21.574814,-150.024979,,,
729606287.315146,0.161525,-1.409222,51.794793,0.019653,-0.002609,0.986862,0.094973,-0.042589,0.008372,60.818344,21.574814,-150.024979,,,
729606287.318465,0.188902,-1.416448,51.796015,0.032196,0.002975,0.998749,0.094973,-0.042589,0.008372,60.818344,21.574814,-150.024979,,,
729606287.321811,0.188902,-1.416448,51.796015,0.032196,0.002975,0.998749,0.094973,-0.042589,0.008372,60.818344,21.574814,-150.024979,,,
729606287.325201,0.212775,-1.415817,51.795116,0.032196,0.002975,0.998749,0.096825,-0.000168,-0.006925,60.818344,21.574814,-150.024979,,,
729606287.328459,0.238514,-1.412025,51.793311,0.03717,0.004761,0.994537,0.096825,-0.000168,-0.006925,60.818344,21.574814,-150.024979,,,
729606287.331803,0.238514,-1.412025,51.793311,0.03717,0.004761,0.994537,0.096825,-0.000168,-0.006925,60.818344,21.574814,-150.024979,,,
729606287.335151,0.259215,-1.404765,51.790557,0.03717,0.004761,0.994537,0.07979,0.029892,-0.015632,60.818344,21.574814,-150.024979,,,
729606287.338466,0.278019,-1.395073,51.786993,0.0336,0.009567,0.977524,0.07979,0.029892,-0.015632,60.818344,21.574814,-150.024979,,,
729606287.341809,0.278019,-1.395073,51.786993,0.0336,0.009567,0.977524,0.07979,0.029892,-0.015632,60.818344,21.574814,-150.024979,,,
729606287.345135,0.290212,-1.387093,51.783348,0.0336,0.009567,0.977524,0.050505,0.035722,-0.01745,60.818344,21.574814,-150.024979,,,
729606287.348464,0.300414,-1.380081,51.779642,0.026337,0.011963,0.965546,0.050505,0.035722,-0.01745,60.851486,21.665466,-150.235077,,,
729606287.35186,0.300414,-1.380081,51.779642,0.026337,0.011963,0.965546,0.050505,0.035722,-0.01745,60.851486,21.665466,-150.235077,,,
729606287.355139,0.304273,-1.374655,51.775806,0.026337,0.011963,0.965546,0.021012,0.017881,-0.013753,60.851486,21.665466,-150.235077,,,
729606287.358461,0.306653,-1.374936,51.771363,0.021683,0.009445,0.962326,0.021012,0.017881,-0.013753,60.851486,21.665466,-150.235077,,,
729606287.361816,0.306653,-1.374936,51.771363,0.021683,0.009445,0.962326,0.021012,0.017881,-0.013753,60.851486,21.665466,-150.235077,,,
729606287.365199,0.301202,-1.375264,51.766065,0.021683,0.009445,0.962326,-0.008274,-0.016863,-0.019187,60.851486,21.665466,-150.235077,,,
729606287.368455,0.296715,-1.386735,51.759947,0.019119,0.006256,0.961136,-0.008274,-0.016863,-0.019187,60.851486,21.665466,-150.235077,,,
729606287.371819,0.296715,-1.386735,51.759947,0.019119,0.006256,0.961136,-0.008274,-0.016863,-0.019187,60.851486,21.665466,-150.235077,,,
729606287.375162,0.287917,-1.39838,51.752843,0.019119,0.006256,0.961136,-0.021701,-0.053527,-0.024535,60.851486,21.665466,-150.235077,,,
729606287.378459,0.281258,-1.418676,51.744363,0.020645,0.002975,0.973999,-0.021701,-0.053527,-0.024535,60.851486,21.665466,-150.235077,,,
729606287.381824,0.281258,-1.418676,51.744363,0.020645,0.002975,0.973999,-0.021701,-0.053527,-0.024535,60.851486,21.665466,-150.235077,,,
729606287.385157,0.273588,-1.440362,51.734888,0.020645,0.002975,0.973999,-0.020712,-0.07895,-0.033655,60.851486,21.665466,-150.235077,,,
729606287.388506,0.268308,-1.466746,51.725084,0.02832,0.002502,0.985107,-0.020712,-0.07895,-0.033655,60.684677,21.354446,-149.726196,,,
729606287.39186,0.268308,-1.466746,51.725084,0.02832,0.002502,0.985107,-0.020712,-0.07895,-0.033655,60.684677,21.354446,-149.726196,,,
729606287.395132,0.263165,-1.493007,51.715519,0.02832,0.002502,0.985107,-0.019215,-0.088849,-0.034298,60.684677,21.354446,-149.726196,,,
729606287.398462,0.258826,-1.514942,51.706915,0.031708,0.001114,0.984818,-0.019215,-0.088849,-0.034298,60.684677,21.354446,-149.726196,,,
729606287.401815,0.258826,-1.514942,51.706915,0.031708,0.001114,0.984818,-0.019215,-0.088849,-0.034298,60.684677,21.354446,-149.726196,,,
729606287.405199,0.253194,-1.530223,51.698666,0.031708,0.001114,0.984818,-0.019823,-0.044333,-0.031339,60.684677,21.354446,-149.726196,,,
729606287.408542,0.246137,-1.535549,51.690818,0.039291,-1.5e-05,0.995865,-0.019823,-0.044333,-0.031339,60.684677,21.354446,-149.726196,,,
729606287.411803,0.246137,-1.535549,51.690818,0.039291,-1.5e-05,0.995865,-0.019823,-0.044333,-0.031339,60.684677,21.354446,-149.726196,,,
729606287.415131,0.238576,-1.536157,51.683191,0.039291,-1.5e-05,0.995865,-0.029499,0.008812,-0.026723,60.684677,21.354446,-149.726196,,,
729606287.418458,0.231441,-1.531426,51.675496,0.046417,-0.004013,0.989624,-0.029499,0.008812,-0.026723,60.684677,21.354446,-149.726196,,,
729606287.421804,0.231441,-1.531426,51.675496,0.046417,-0.004013,0.989624,-0.029499,0.008812,-0.026723,60.684677,21.354446,-149.726196,,,
729606287.425138,0.227205,-1.525906,51.667719,0.046417,-0.004013,0.989624,-0.017855,0.026107,-0.027826,60.684677,21.354446,-149.726196,,,
729606287.428463,0.22279,-1.517005,51.658871,0.047684,-0.010574,0.993362,-0.017855,0.026107,-0.027826,60.684677,21.354446,-149.726196,,,
729606287.431872,0.22279,-1.517005,51.658871,0.047684,-0.010574,0.993362,-0.017855,0.026107,-0.027826,60.78006,21.368607,-149.605316,,,
729606287.435137,0.219446,-1.50599,51.649304,0.047684,-0.010574,0.993362,-0.016353,0.04129,-0.034694,60.78006,21.368607,-149.605316,,,
729606287.438536,0.213662,-1.495428,51.640206,0.039154,-0.015869,0.986267,-0.016353,0.04129,-0.034694,60.78006,21.368607,-149.605316,,,
729606287.441806,0.213662,-1.495428,51.640206,0.039154,-0.015869,0.986267,-0.016353,0.04129,-0.034694,60.78006,21.368607,-149.605316,,,
729606287.445222,0.205393,-1.485142,51.631534,0.039154,-0.015869,0.986267,-0.030509,0.036441,-0.029932,60.78006,21.368607,-149.605316,,,
729606287.44855,0.192633,-1.477823,51.62348,0.031967,-0.010025,0.968048,-0.030509,0.036441,-0.029932,60.78006,21.368607,-149.605316,,,
729606287.4518,0.192633,-1.477823,51.62348,0.031967,-0.010025,0.968048,-0.030509,0.036441,-0.029932,60.78006,21.368607,-149.605316,,,
729606287.45514,0.175785,-1.472179,51.616139,0.031967,-0.010025,0.968048,-0.061611,0.019745,-0.026714,60.78006,21.368607,-149.605316,,,
729606287.45851,0.15327,-1.470698,51.607934,0.033722,-0.003159,0.959076,-0.061611,0.019745,-0.026714,60.78006,21.368607,-149.605316,,,
729606287.461817,0.15327,-1.470698,51.607934,0.033722,-0.003159,0.959076,-0.061611,0.019745,-0.026714,60.78006,21.368607,-149.605316,,,
729606287.465149,0.125478,-1.472203,51.597728,0.033722,-0.003159,0.959076,-0.095819,-0.001536,-0.032709,60.78006,21.368607,-149.605316,,,
729606287.468493,0.093592,-1.477886,51.585802,0.042389,0.003296,0.957016,-0.095819,-0.001536,-0.032709,60.78006,21.368607,-149.605316,,,
729606287.471863,0.093592,-1.477886,51.585802,0.042389,0.003296,0.957016,-0.095819,-0.001536,-0.032709,60.677231,21.466644,-150.077423,,,
729606287.475146,0.058028,-1.489367,51.57188,0.042389,0.003296,0.957016,-0.125512,-0.036548,-0.046726,60.677231,21.466644,-150.077423,,,
729606287.478544,0.019199,-1.506262,51.555899,0.039444,0.004913,0.95874,-0.125512,-0.036548,-0.046726,60.677231,21.466644,-150.077423,,,
729606287.481797,0.019199,-1.506262,51.555899,0.039444,0.004913,0.95874,-0.125512,-0.036548,-0.046726,60.677231,21.466644,-150.077423,,,
729606287.485213,-0.021609,-1.528578,51.538301,0.039444,0.004913,0.95874,-0.141979,-0.069082,-0.058708,60.677231,21.466644,-150.077423,,,
729606287.488465,-0.06405,-1.552295,51.519795,0.03511,0.000793,0.969315,-0.141979,-0.069082,-0.058708,60.677231,21.466644,-150.077423,,,
729606287.49183,-0.06405,-1.552295,51.519795,0.03511,0.000793,0.969315,-0.141979,-0.069082,-0.058708,60.677231,21.466644,-150.077423,,,
729606287.495133,-0.107594,-1.578717,51.501516,0.03511,0.000793,0.969315,-0.153238,-0.083754,-0.063693,60.677231,21.466644,-150.077423,,,
729606287.498473,-0.150794,-1.602319,51.483649,0.029633,-0.005447,0.990616,-0.153238,-0.083754,-0.063693,60.677231,21.466644,-150.077423,,,
729606287.501803,-0.150794,-1.602319,51.483649,0.029633,-0.005447,0.990616,-0.153238,-0.083754,-0.063693,60.677231,21.466644,-150.077423,,,
729606287.50515,-0.193124,-1.62851,51.465752,0.029633,-0.005447,0.990616,-0.146792,-0.07774,-0.058519,60.677231,21.466644,-150.077423,,,
729606287.50851,-0.232416,-1.653184,51.448518,0.032791,-0.010345,1.008728,-0.146792,-0.07774,-0.058519,60.677231,21.466644,-150.077423,,,
729606287.51179,-0.232416,-1.653184,51.448518,0.032791,-0.010345,1.008728,-0.146792,-0.07774,-0.058519,60.531158,21.679703,-149.813858,,,
729606287.515126,-0.26849,-1.679041,51.432529,0.032791,-0.010345,1.008728,-0.122827,-0.078872,-0.054051,60.531158,21.679703,-149.813858,,,
729606287.518528,-0.297814,-1.695942,51.41816,0.03215,-0.013763,1.024643,-0.122827,-0.078872,-0.054051,60.531158,21.679703,-149.813858,,,
729606287.521878,-0.297814,-1.695942,51.41816,0.03215,-0.013763,1.024643,-0.122827,-0.078872,-0.054051,60.531158,21.679703,-149.813858,,,
729606287.525157,-0.322327,-1.706719,51.406021,0.03215,-0.013763,1.024643,-0.08115,-0.026462,-0.042277,60.531158,21.679703,-149.813858,,,
729606287.528475,-0.340516,-1.709762,51.395833,0.03215,-0.013763,1.024643,-0.08115,-0.026462,-0.042277,60.531158,21.679703,-149.813858,,,
729606287.531803,-0.340516,-1.709762,51.395833,0.027802,-0.014969,1.049438,-0.08115,-0.026462,-0.042277,60.531158,21.679703,-149.813858,,,
729606287.535177,-0.356047,-1.710225,51.387091,0.027802,-0.014969,1.049438,-0.056267,0.005876,-0.031037,60.531158,21.679703,-149.813858,,,
729606287.53846,-0.356047,-1.710225,51.387091,0.027802,-0.014969,1.049438,-0.056267,0.005876,-0.031037,60.531158,21.679703,-149.813858,,,
729606287.541803,-0.37046,-1.70821,51.379668,0.022583,-0.010712,1.026688,-0.056267,0.005876,-0.031037,60.531158,21.679703,-149.813858,,,
729606287.545138,-0.384328,-1.705301,51.373514,0.022583,-0.010712,1.026688,-0.05159,0.019444,-0.0209,60.531158,21.679703,-149.813858,,,
729606287.548548,-0.384328,-1.705301,51.367821,0.022583,-0.010712,1.026688,-0.05159,0.019444,-0.0209,60.531158,21.679703,-149.813858,,,
729606287.551785,-0.400961,-1.697015,51.367821,0.018143,-0.007553,1.016632,-0.05159,0.019444,-0.0209,60.687561,21.986313,-149.796234,,,
729606287.555128,-0.419057,-1.690807,51.361578,0.018143,-0.007553,1.016632,-0.06937,0.039257,-0.019784,60.687561,21.986313,-149.796234,,,
729606287.558574,-0.419057,-1.683336,51.354653,0.018143,-0.007553,1.016632,-0.06937,0.039257,-0.019784,60.687561,21.986313,-149.796234,,,
729606287.561846,-0.442797,-1.683336,51.354653,0.022095,-0.004303,1.006775,-0.06937,0.039257,-0.019784,60.687561,21.986313,-149.796234,,,
729606287.565141,-0.468027,-1.682535,51.346802,0.022095,-0.004303,1.006775,-0.095499,0.012755,-0.025475,60.687561,21.986313,-149.796234,,,
729606287.568487,-0.468027,-1.682535,51.346802,0.022095,-0.004303,1.006775,-0.095499,0.012755,-0.025475,60.687561,21.986313,-149.796234,,,
729606287.57181,-0.496845,-1.685545,51.337632,0.020508,-0.007034,0.988571,-0.095499,0.012755,-0.025475,60.687561,21.986313,-149.796234,,,
729606287.575203,-0.526094,-1.696384,51.32644,0.020508,-0.007034,0.988571,-0.10845,-0.032278,-0.034394,60.687561,21.986313,-149.796234,,,
729606287.578464,-0.526094,-1.696384,51.32644,0.020508,-0.007034,0.988571,-0.10845,-0.032278,-0.034394,60.687561,21.986313,-149.796234,,,
729606287.581793,-0.557667,-1.713388,51.313461,0.017593,-0.008499,0.990875,-0.10845,-0.032278,-0.034394,60.687561,21.986313,-149.796234,,,
729606287.585136,-0.588282,-1.736223,51.299099,0.017593,-0.008499,0.990875,-0.110932,-0.075604,-0.049213,60.687561,21.986313,-149.796234,,,
729606287.588529,-0.588282,-1.736223,51.299099,0.017593,-0.008499,0.990875,-0.110932,-0.075604,-0.049213,60.687561,21.986313,-149.796234,,,
729606287.591804,-0.616512,-1.762535,51.283647,0.018829,-0.007721,1.004242,-0.110932,-0.075604,-0.049213,60.687561,21.986313,-149.796234,,,
729606287.595147,-0.641667,-1.79041,51.268618,0.018829,-0.007721,1.004242,-0.090032,-0.091158,-0.052481,60.562759,22.240707,-150.017288,,,
729606287.598503,-0.641667,-1.79041,51.268618,0.018829,-0.007721,1.004242,-0.090032,-0.091158,-0.052481,60.562759,22.240707,-150.017288,,,
729606287.601791,-0.663947,-1.817813,51.254972,0.020935,-0.013596,1.0224,-0.090032,-0.091158,-0.052481,60.562759,22.240707,-150.017288,,,
729606287.605126,-0.683811,-1.843629,51.243593,0.020935,-0.013596,1.0224,-0.065557,-0.089794,-0.038592,60.562759,22.240707,-150.017288,,,
729606287.608499,-0.683811,-1.843629,51.243593,0.020935,-0.013596,1.0224,-0.065557,-0.089794,-0.038592,60.562759,22.240707,-150.017288,,,
729606287.611805,-0.699738,-1.867652,51.235216,0.024673,-0.018509,1.024155,-0.065557,-0.089794,-0.038592,60.562759,22.240707,-150.017288,,,
729606287.615182,-0.711476,-1.885834,51.228913,0.024673,-0.018509,1.024155,-0.038249,-0.065742,-0.018594,60.562759,22.240707,-150.017288,,,
729606287.618507,-0.711476,-1.885834,51.228913,0.024673,-0.018509,1.024155,-0.038249,-0.065742,-0.018594,60.562759,22.240707,-150.017288,,,
729606287.621909,-0.718703,-1.900282,51.223929,0.031723,-0.020676,1.033997,-0.038249,-0.065742,-0.018594,60.562759,22.240707,-150.017288,,,
729606287.625133,-0.721583,-1.907169,51.219762,0.031723,-0.020676,1.033997,-0.011992,-0.034069,-0.015884,60.562759,22.240707,-150.017288,,,
729606287.628559,-0.721583,-1.907169,51.219762,0.031723,-0.020676,1.033997,-0.011992,-0.034069,-0.015884,60.562759,22.240707,-150.017288,,,
729606287.631789,-0.721484,-1.912795,51.215838,0.038391,-0.018265,1.04039,-0.011992,-0.034069,-0.015884,60.562759,22.240707,-150.017288,,,
729606287.635151,-0.717446,-1.910618,51.21181,0.038391,-0.018265,1.04039,0.01,-0.001942,-0.014889,60.335464,22.431244,-149.887512,,,
729606287.638486,-0.717446,-1.910618,51.21181,0.038391,-0.018265,1.04039,0.01,-0.001942,-0.014889,60.335464,22.431244,-149.887512,,,
729606287.641848,-0.713766,-1.909879,51.20727,0.041885,-0.010101,1.027618,0.01,-0.001942,-0.014889,60.335464,22.431244,-149.887512,,,
729606287.645144,-0.709229,-1.904372,51.202004,0.041885,-0.010101,1.027618,0.010904,0.014766,-0.021982,60.335464,22.431244,-149.887512,,,
729606287.64847,-0.709229,-1.904372,51.202004,0.041885,-0.010101,1.027618,0.010904,0.014766,-0.021982,60.335464,22.431244,-149.887512,,,
729606287.651812,-0.706865,-1.89957,51.195945,0.038864,-0.006119,1.015915,0.010904,0.014766,-0.021982,60.335464,22.431244,-149.887512,,,
729606287.655203,-0.705345,-1.891419,51.189604,0.038864,-0.006119,1.015915,0.001793,0.02357,-0.023995,60.335464,22.431244,-149.887512,,,
729606287.658463,-0.705345,-1.891419,51.189604,0.038864,-0.006119,1.015915,0.001793,0.02357,-0.023995,60.335464,22.431244,-149.887512,,,
729606287.661817,-0.706616,-1.88647,51.182467,0.036575,-0.00769,1.005432,0.001793,0.02357,-0.023995,60.335464,22.431244,-149.887512,,,
729606287.66513,-0.710252,-1.881396,51.174023,0.036575,-0.00769,1.005432,-0.012673,0.011353,-0.028707,60.335464,22.431244,-149.887512,,,
729606287.668453,-0.710252,-1.881396,51.174023,0.036575,-0.00769,1.005432,-0.012673,0.011353,-0.028707,60.335464,22.431244,-149.887512,,,
729606287.671817,-0.717687,-1.883376,51.163907,0.038315,-0.006577,0.989731,-0.012673,0.011353,-0.028707,60.335464,22.431244,-149.887512,,,
729606287.675129,-0.727268,-1.886803,51.152008,0.038315,-0.006577,0.989731,-0.036968,-0.020197,-0.040941,60.554184,22.278915,-149.881714,,,
729606287.678521,-0.727268,-1.886803,51.152008,0.038315,-0.006577,0.989731,-0.036968,-0.020197,-0.040941,60.554184,22.278915,-149.881714,,,
729606287.681809,-0.739192,-1.896939,51.137974,0.038025,-0.003586,0.979721,-0.036968,-0.020197,-0.040941,60.554184,22.278915,-149.881714,,,
729606287.685131,-0.753169,-1.90791,51.122224,0.038025,-0.003586,0.979721,-0.051512,-0.047123,-0.056184,60.554184,22.278915,-149.881714,,,
729606287.688485,-0.753169,-1.90791,51.122224,0.038025,-0.003586,0.979721,-0.051512,-0.047123,-0.056184,60.554184,22.278915,-149.881714,,,
729606287.691831,-0.767085,-1.927836,51.105335,0.038864,-0.000412,0.982407,-0.051512,-0.047123,-0.056184,60.554184,22.278915,-149.881714,,,
729606287.695155,-0.781579,-1.949649,51.087271,0.038864,-0.000412,0.982407,-0.046247,-0.081353,-0.064219,60.554184,22.278915,-149.881714,,,
729606287.698478,-0.781579,-1.949649,51.087271,0.038864,-0.000412,0.982407,-0.046247,-0.081353,-0.064219,60.554184,22.278915,-149.881714,,,
729606287.701813,-0.791347,-1.97805,51.068565,0.039719,-0.007217,0.991501,-0.046247,-0.081353,-0.064219,60.554184,22.278915,-149.881714,,,
729606287.705127,-0.798729,-2.006916,51.050647,0.039719,-0.007217,0.991501,-0.021979,-0.098628,-0.064802,60.554184,22.278915,-149.881714,,,
729606287.708472,-0.798729,-2.006916,51.050647,0.039719,-0.007217,0.991501,-0.021979,-0.098628,-0.064802,60.554184,22.278915,-149.881714,,,
729606287.711804,-0.800878,-2.034318,51.03433,0.04007,-0.015717,1.010605,-0.021979,-0.098628,-0.064802,60.554184,22.278915,-149.881714,,,
729606287.715122,-0.798044,-2.059848,51.020555,0.04007,-0.015717,1.010605,0.013334,-0.080392,-0.049701,60.2314,22.387024,-149.602966,,,
729606287.718508,-0.798044,-2.059848,51.020555,0.04007,-0.015717,1.010605,0.013334,-0.080392,-0.049701,60.2314,22.387024,-149.602966,,,
729606287.721796,-0.788795,-2.079668,51.008838,0.040176,-0.022644,1.028198,0.013334,-0.080392,-0.049701,60.2314,22.387024,-149.602966,,,
729606287.725133,-0.772199,-2.097285,50.998232,0.040176,-0.022644,1.028198,0.052164,-0.050725,-0.037965,60.2314,22.387024,-149.602966,,,
729606287.72847,-0.772199,-2.097285,50.998232,0.040176,-0.022644,1.028198,0.052164,-0.050725,-0.037965,60.2314,22.387024,-149.602966,,,
729606287.731871,-0.752639,-2.109945,50.988403,0.045151,-0.018677,1.032181,0.052164,-0.050725,-0.037965,60.2314,22.387024,-149.602966,,,
729606287.735125,-0.729215,-2.11858,50.979172,0.045151,-0.018677,1.032181,0.077497,-0.028709,-0.034404,60.2314,22.387024,-149.602966,,,
729606287.738471,-0.729215,-2.11858,50.979172,0.045151,-0.018677,1.032181,0.077497,-0.028709,-0.034404,60.2314,22.387024,-149.602966,,,
729606287.74181,-0.705601,-2.121984,50.970341,0.049011,-0.011337,1.024567,0.077497,-0.028709,-0.034404,60.2314,22.387024,-149.602966,,,
729606287.745125,-0.680984,-2.119389,50.961194,0.049011,-0.011337,1.024567,0.083474,0.014081,-0.037357,60.2314,22.387024,-149.602966,,,
729606287.748476,-0.680984,-2.119389,50.961194,0.049011,-0.011337,1.024567,0.083474,0.014081,-0.037357,60.2314,22.387024,-149.602966,,,
729606287.751832,-0.659252,-2.112342,50.951834,0.045609,-0.006241,1.014938,0.083474,0.014081,-0.037357,60.2314,22.387024,-149.602966,,,
729606287.755129,-0.639546,-2.105013,50.942087,0.045609,-0.006241,1.014938,0.065079,0.032662,-0.040095,60.2314,22.387024,-149.602966,,,
729606287.758538,-0.639546,-2.105013,50.942087,0.045609,-0.006241,1.014938,0.065079,0.032662,-0.040095,60.319229,22.267593,-150.188385,,,
729606287.761805,-0.624904,-2.098139,50.931365,0.041214,-0.001923,0.995834,0.065079,0.032662,-0.040095,60.319229,22.267593,-150.188385,,,
729606287.765135,-0.612814,-2.093754,50.919481,0.041214,-0.001923,0.995834,0.036157,0.020942,-0.043792,60.319229,22.267593,-150.188385,,,
729606287.768474,-0.612814,-2.093754,50.919481,0.041214,-0.001923,0.995834,0.036157,0.020942,-0.043792,60.319229,22.267593,-150.188385,,,
729606287.771867,-0.606969,-2.092669,50.90614,0.032837,0.000397,0.9832,0.036157,0.020942,-0.043792,60.319229,22.267593,-150.188385,,,
729606287.775125,-0.60303,-2.098506,50.891012,0.032837,0.000397,0.9832,0.006772,-0.012108,-0.054127,60.319229,22.267593,-150.188385,,,
729606287.778474,-0.60303,-2.098506,50.891012,0.032837,0.000397,0.9832,0.006772,-0.012108,-0.054127,60.319229,22.267593,-150.188385,,,
729606287.781822,-0.604203,-2.109604,50.874292,0.024521,-0.003204,0.978317,0.006772,-0.012108,-0.054127,60.319229,22.267593,-150.188385,,,
729606287.78513,-0.606226,-2.128398,50.856392,0.024521,-0.003204,0.978317,-0.011985,-0.055949,-0.064417,60.319229,22.267593,-150.188385,,,
729606287.788455,-0.606226,-2.128398,50.856392,0.024521,-0.003204,0.978317,-0.011985,-0.055949,-0.064417,60.319229,22.267593,-150.188385,,,
729606287.791813,-0.608495,-2.151284,50.838338,0.022507,-0.010178,0.985489,-0.011985,-0.055949,-0.064417,60.319229,22.267593,-150.188385,,,
729606287.795137,-0.611369,-2.179136,50.821567,0.022507,-0.010178,0.985489,-0.006708,-0.093714,-0.060616,60.319229,22.267593,-150.188385,,,
729606287.798466,-0.611369,-2.179136,50.821567,0.022507,-0.010178,0.985489,-0.006708,-0.093714,-0.060616,60.13472,22.2444,-150.185196,,,
729606287.80181,-0.607818,-2.208084,50.806454,0.022705,-0.01918,1.00354,-0.006708,-0.093714,-0.060616,60.13472,22.2444,-150.185196,,,
729606287.805131,-0.600875,-2.235892,50.793036,0.022705,-0.01918,1.00354,0.032349,-0.094089,-0.049678,60.13472,22.2444,-150.185196,,,
729606287.80852,-0.600875,-2.235892,50.793036,0.022705,-0.01918,1.00354,0.032349,-0.094089,-0.049678,60.13472,22.2444,-150.185196,,,
729606287.811808,-0.585004,-2.259822,50.781204,0.032043,-0.019684,1.030853,0.032349,-0.094089,-0.049678,60.13472,22.2444,-150.185196,,,
729606287.81513,-0.565752,-2.282127,50.771296,0.032043,-0.019684,1.030853,0.071798,-0.065501,-0.037693,60.13472,22.2444,-150.185196,,,
729606287.818476,-0.565752,-2.282127,50.771296,0.032043,-0.019684,1.030853,0.071798,-0.065501,-0.037693,60.13472,22.2444,-150.185196,,,
729606287.82187,-0.542225,-2.295423,50.764443,0.037857,-0.014465,1.031662,0.071798,-0.065501,-0.037693,60.13472,22.2444,-150.185196,,,
729606287.825115,-0.516618,-2.303217,50.760838,0.037857,-0.014465,1.031662,0.089472,-0.018633,-0.016824,60.13472,22.2444,-150.185196,,,
729606287.828476,-0.516618,-2.303217,50.760838,0.037857,-0.014465,1.031662,0.089472,-0.018633,-0.016824,60.13472,22.2444,-150.185196,,,
729606287.831822,-0.490254,-2.29964,50.759486,0.03981,-0.012695,1.026199,0.089472,-0.018633,-0.016824,60.13472,22.2444,-150.185196,,,
729606287.835123,-0.463261,-2.290509,50.75918,0.03981,-0.012695,1.026199,0.087277,0.040071,-0.005017,60.13472,22.2444,-150.185196,,,
729606287.838455,-0.463261,-2.290509,50.75918,0.03981,-0.012695,1.026199,0.087277,0.040071,-0.005017,60.168884,21.920532,-149.832855,,,
729606287.841818,-0.439753,-2.277543,50.759501,0.04744,-0.008514,1.008606,0.087277,0.040071,-0.005017,60.168884,21.920532,-149.832855,,,
729606287.84513,-0.418087,-2.264941,50.759508,0.04744,-0.008514,1.008606,0.067084,0.046529,-0.003753,60.168884,21.920532,-149.832855,,,
729606287.848526,-0.418087,-2.264941,50.759508,0.04744,-0.008514,1.008606,0.067084,0.046529,-0.003753,60.168884,21.920532,-149.832855,,,
729606287.851817,-0.402138,-2.256101,50.758928,0.04277,-0.004425,0.979233,0.067084,0.046529,-0.003753,60.168884,21.920532,-149.832855,,,
729606287.85513,-0.389627,-2.249006,50.757422,0.04277,-0.004425,0.979233,0.036418,0.013815,-0.008093,60.168884,21.920532,-149.832855,,,
729606287.858472,-0.389627,-2.249006,50.757422,0.04277,-0.004425,0.979233,0.036418,0.013815,-0.008093,60.168884,21.920532,-149.832855,,,
729606287.861856,-0.385103,-2.252026,50.753646,0.03418,0.000824,0.960602,0.036418,0.013815,-0.008093,60.168884,21.920532,-149.832855,,,
729606287.865147,-0.38723,-2.257849,50.7476,0.03418,0.000824,0.960602,-0.01006,-0.030904,-0.021526,60.168884,21.920532,-149.832855,,,
729606287.868472,-0.38723,-2.257849,50.7476,0.03418,0.000824,0.960602,-0.01006,-0.030904,-0.021526,60.168884,21.920532,-149.832855,,,
729606287.871802,-0.396124,-2.275564,50.740218,0.030991,0.000671,0.947296,-0.01006,-0.030904,-0.021526,60.168884,21.920532,-149.832855,,,
729606287.875131,-0.412084,-2.297844,50.731561,0.030991,0.000671,0.947296,-0.054866,-0.085234,-0.029147,60.168884,21.920532,-149.832855,,,
729606287.878448,-0.412084,-2.297844,50.731561,0.030991,0.000671,0.947296,-0.054866,-0.085234,-0.029147,60.128326,21.847031,-149.897156,,,
729606287.881809,-0.432697,-2.33123,50.722269,0.031769,-0.002945,0.946411,-0.054866,-0.085234,-0.029147,60.128326,21.847031,-149.897156,,,
729606287.885118,-0.459139,-2.367973,50.712428,0.031769,-0.002945,0.946411,-0.088248,-0.135183,-0.032802,60.128326,21.847031,-149.897156,,,
729606287.888547,-0.459139,-2.367973,50.712428,0.031769,-0.002945,0.946411,-0.088248,-0.135183,-0.032802,60.128326,21.847031,-149.897156,,,
729606287.891805,-0.486167,-2.413048,50.701766,0.042419,-0.003281,0.954407,-0.088248,-0.135183,-0.032802,60.128326,21.847031,-149.897156,,,
729606287.895134,-0.515768,-2.461241,50.689675,0.042419,-0.003281,0.954407,-0.099236,-0.171529,-0.037865,60.128326,21.847031,-149.897156,,,
729606287.89847,-0.515768,-2.461241,50.689675,0.042419,-0.003281,0.954407,-0.099236,-0.171529,-0.037865,60.128326,21.847031,-149.897156,,,
729606287.901859,-0.545189,-2.514026,50.675519,0.052658,-7.6e-05,0.968704,-0.099236,-0.171529,-0.037865,60.128326,21.847031,-149.897156,,,
729606287.904978,-0.577307,-2.568379,50.660137,0.052658,-7.6e-05,0.968704,-0.112167,-0.190503,-0.052424,60.128326,21.847031,-149.897156,,,
729606287.908491,-0.577307,-2.568379,50.660137,0.052658,-7.6e-05,0.968704,-0.112167,-0.190503,-0.052424,60.128326,21.847031,-149.897156,,,
729606287.911798,-0.611372,-2.627257,50.644398,0.053635,-0.004089,0.973404,-0.112167,-0.190503,-0.052424,60.128326,21.847031,-149.897156,,,
729606287.915123,-0.648171,-2.68804,50.629729,0.053635,-0.004089,0.973404,-0.12737,-0.212089,-0.048357,60.128326,21.847031,-149.897156,,,
729606287.91846,-0.648171,-2.68804,50.629729,0.053635,-0.004089,0.973404,-0.12737,-0.212089,-0.048357,60.128326,21.847031,-149.897156,,,
729606287.9218,-0.68716,-2.750441,50.616937,0.046082,-0.018814,0.9664,-0.12737,-0.212089,-0.048357,59.954956,21.927292,-149.958054,,,
729606287.925123,-0.725832,-2.810257,50.606252,0.046082,-0.018814,0.9664,-0.136359,-0.205525,-0.030761,59.954956,21.927292,-149.958054,,,
729606287.928508,-0.725832,-2.810257,50.606252,0.046082,-0.018814,0.9664,-0.136359,-0.205525,-0.030761,59.954956,21.927292,-149.958054,,,
729606287.931793,-0.764962,-2.866527,50.597137,0.056091,-0.030045,0.990845,-0.136359,-0.205525,-0.030761,59.954956,21.927292,-149.958054,,,
729606287.935125,-0.801129,-2.917416,50.589794,0.056091,-0.030045,0.990845,-0.129307,-0.18091,-0.021525,59.954956,21.927292,-149.958054,,,
729606287.938466,-0.801129,-2.917416,50.589794,0.056091,-0.030045,0.990845,-0.129307,-0.18091,-0.021525,59.954956,21.927292,-149.958054,,,
729606287.941851,-0.835329,-2.965124,50.584211,0.065735,-0.033646,1.0056,-0.129307,-0.18091,-0.021525,59.954956,21.927292,-149.958054,,,
729606287.945139,-0.864447,-3.001566,50.580316,0.065735,-0.033646,1.0056,-0.108789,-0.137724,-0.01088,59.954956,21.927292,-149.958054,,,
