Time (sec),Pitch (deg),Roll (deg),Yaw(deg),X-Acceleration (g),Y-Acceleration (g),Z-Acceleration (g),Pitch Rate (deg/sec),Roll Rate (deg/sec),Yaw Rate (deg/sec),Magnetic Field in X direction (uT),Magnetic Field in Y direction (uT),Magnetic Field in Z Direction (uT),Latitude (deg),Longitude (deg),Altitude (m)
729608751.299901,-1.353949,-1.585131,56.840617,0.02713,-0.018066,0.983917,-0.010497,0.014808,-0.024297,61.94812,24.471878,-146.962524,,,
729608751.303253,-1.353949,-1.585131,56.840617,0.02713,-0.018066,0.983917,-0.010497,0.014808,-0.024297,61.94812,24.471878,-146.962524,,,
729608751.306681,-1.362055,-1.5894,56.835657,0.023209,-0.025452,0.983765,-0.010497,0.014808,-0.024297,61.94812,24.471878,-146.962524,,,
729608751.309908,-1.366733,-1.588891,56.831492,0.023209,-0.025452,0.983765,-0.017381,0.0052,-0.01434,62.060181,24.448456,-146.75061,,,
729608751.313259,-1.366733,-1.588891,56.831492,0.023209,-0.025452,0.983765,-0.017381,0.0052,-0.01434,62.060181,24.448456,-146.75061,,,
729608751.316655,-1.373053,-1.596975,56.827884,0.02356,-0.027481,0.987915,-0.017381,0.0052,-0.01434,62.060181,24.448456,-146.75061,,,
729608751.319902,-1.375234,-1.597924,56.82558,0.02356,-0.027481,0.987915,-0.007972,0.001313,-0.010459,62.060181,24.448456,-146.75061,,,
729608751.323304,-1.375234,-1.597924,56.82558,0.02356,-0.027481,0.987915,-0.007972,0.001313,-0.010459,62.060181,24.448456,-146.75061,,,
729608751.326591,-1.376695,-1.606144,56.82425,0.025146,-0.030273,0.99675,-0.007972,0.001313,-0.010459,62.060181,24.448456,-146.75061,,,
729608751.32991,-1.374179,-1.60908,56.824348,0.025146,-0.030273,0.99675,0.009701,-0.007457,-0.004621,62.060181,24.448456,-146.75061,,,
729608751.333241,-1.374179,-1.60908,56.824348,0.025146,-0.030273,0.99675,0.009701,-0.007457,-0.004621,62.060181,24.448456,-146.75061,,,
729608751.336593,-1.372174,-1.611934,56.825139,0.02562,-0.032623,0.996246,0.009701,-0.007457,-0.004621,62.060181,24.448456,-146.75061,,,
729608751.339964,-1.368592,-1.608119,56.826837,0.02562,-0.032623,0.996246,0.015113,0.015268,0.002854,62.060181,24.448456,-146.75061,,,
729608751.343312,-1.368592,-1.608119,56.826837,0.02562,-0.032623,0.996246,0.015113,0.015268,0.002854,62.060181,24.448456,-146.75061,,,
729608751.346556,-1.36776,-1.59942,56.829791,0.022293,-0.032608,0.993454,0.015113,0.015268,0.002854,62.060181,24.448456,-146.75061,,,
729608751.349904,-1.366882,-1.58458,56.834685,0.022293,-0.032608,0.993454,0.006087,0.053609,0.015387,62.291122,24.176346,-146.703842,,,
729608751.353251,-1.366882,-1.58458,56.834685,0.022293,-0.032608,0.993454,0.006087,0.053609,0.015387,62.291122,24.176346,-146.703842,,,
729608751.356625,-1.366027,-1.566506,56.84264,0.013596,-0.036713,0.990265,0.006087,0.053609,0.015387,62.291122,24.176346,-146.703842,,,
729608751.359902,-1.366353,-1.54243,56.854778,0.013596,-0.036713,0.990265,0.000365,0.085642,0.041912,62.291122,24.176346,-146.703842,,,
729608751.363251,-1.366353,-1.54243,56.854778,0.013596,-0.036713,0.990265,0.000365,0.085642,0.041912,62.291122,24.176346,-146.703842,,,
729608751.366588,-1.364503,-1.516529,56.87125,0.001053,-0.044846,0.986267,0.000365,0.085642,0.041912,62.291122,24.176346,-146.703842,,,
729608751.369898,-1.367038,-1.487189,56.890554,0.001053,-0.044846,0.986267,-0.005984,0.103058,0.064919,62.291122,24.176346,-146.703842,,,
729608751.373325,-1.367038,-1.487189,56.890554,0.001053,-0.044846,0.986267,-0.005984,0.103058,0.064919,62.291122,24.176346,-146.703842,,,
729608751.37659,-1.369136,-1.458099,56.910895,-0.006195,-0.04306,0.978226,-0.005984,0.103058,0.064919,62.291122,24.176346,-146.703842,,,
729608751.379901,-1.376699,-1.427687,56.931178,-0.006195,-0.04306,0.978226,-0.026197,0.106779,0.069271,62.291122,24.176346,-146.703842,,,
729608751.3833,-1.376699,-1.427687,56.931178,-0.006195,-0.04306,0.978226,-0.026197,0.106779,0.069271,62.291122,24.176346,-146.703842,,,
729608751.386578,-1.386682,-1.397265,56.951735,-0.00592,-0.032669,0.972733,-0.026197,0.106779,0.069271,62.291122,24.176346,-146.703842,,,
729608751.389935,-1.399827,-1.36941,56.973412,-0.00592,-0.032669,0.972733,-0.042418,0.100196,0.074571,62.104248,24.574936,-146.770889,,,
729608751.393258,-1.399827,-1.36941,56.973412,-0.00592,-0.032669,0.972733,-0.042418,0.100196,0.074571,62.104248,24.574936,-146.770889,,,
729608751.396641,-1.417182,-1.346038,56.996242,-0.014572,-0.029861,0.972687,-0.042418,0.100196,0.074571,62.104248,24.574936,-146.770889,,,
729608751.399915,-1.435406,-1.327905,57.020797,-0.014572,-0.029861,0.972687,-0.061283,0.062753,0.083243,62.104248,24.574936,-146.770889,,,
729608751.403232,-1.435406,-1.327905,57.020797,-0.014572,-0.029861,0.972687,-0.061283,0.062753,0.083243,62.104248,24.574936,-146.770889,,,
729608751.406654,-1.455398,-1.315769,57.046863,-0.021027,-0.033936,0.973145,-0.061283,0.062753,0.083243,62.104248,24.574936,-146.770889,,,
729608751.409905,-1.474882,-1.310036,57.073251,-0.021027,-0.033936,0.973145,-0.064311,0.01831,0.093924,62.104248,24.574936,-146.770889,,,
729608751.413256,-1.474882,-1.310036,57.073251,-0.021027,-0.033936,0.973145,-0.064311,0.01831,0.093924,62.104248,24.574936,-146.770889,,,
729608751.416582,-1.494397,-1.313005,57.099749,-0.019119,-0.037308,0.978394,-0.064311,0.01831,0.093924,62.104248,24.574936,-146.770889,,,
729608751.419904,-1.510256,-1.32318,57.126538,-0.019119,-0.037308,0.978394,-0.053637,-0.034021,0.093807,62.104248,24.574936,-146.770889,,,
729608751.423353,-1.510256,-1.32318,57.126538,-0.019119,-0.037308,0.978394,-0.053637,-0.034021,0.093807,62.104248,24.574936,-146.770889,,,
729608751.426556,-1.525009,-1.340843,57.15339,-0.014969,-0.039948,0.984802,-0.053637,-0.034021,0.093807,62.104248,24.574936,-146.770889,,,
729608751.429909,-1.53622,-1.364708,57.179839,-0.014969,-0.039948,0.984802,-0.037171,-0.083458,0.089515,62.104248,24.574936,-146.770889,,,
729608751.433236,-1.53622,-1.364708,57.179839,-0.014969,-0.039948,0.984802,-0.037171,-0.083458,0.089515,62.245956,24.717728,-146.685974,,,
729608751.436623,-1.546858,-1.392155,57.205667,-0.006027,-0.033844,0.992935,-0.037171,-0.083458,0.089515,62.245956,24.717728,-146.685974,,,
729608751.439947,-1.554097,-1.423234,57.230354,-0.006027,-0.033844,0.992935,-0.023352,-0.107853,0.084062,62.245956,24.717728,-146.685974,,,
729608751.443253,-1.554097,-1.423234,57.230354,-0.006027,-0.033844,0.992935,-0.023352,-0.107853,0.084062,62.245956,24.717728,-146.685974,,,
729608751.446629,-1.563573,-1.449841,57.254124,0.00856,-0.025543,0.996338,-0.023352,-0.107853,0.084062,62.245956,24.717728,-146.685974,,,
729608751.449979,-1.569237,-1.479207,57.276176,0.00856,-0.025543,0.996338,-0.016034,-0.103204,0.075712,62.245956,24.717728,-146.685974,,,
729608751.45323,-1.569237,-1.479207,57.276176,0.00856,-0.025543,0.996338,-0.016034,-0.103204,0.075712,62.245956,24.717728,-146.685974,,,
729608751.456639,-1.579282,-1.497095,57.29657,0.023117,-0.017471,1.001663,-0.016034,-0.103204,0.075712,62.245956,24.717728,-146.685974,,,
729608751.459898,-1.585109,-1.51698,57.315306,0.023117,-0.017471,1.001663,-0.017675,-0.070839,0.063968,62.245956,24.717728,-146.685974,,,
729608751.463344,-1.585109,-1.51698,57.315306,0.023117,-0.017471,1.001663,-0.017675,-0.070839,0.063968,62.245956,24.717728,-146.685974,,,
729608751.466561,-1.593272,-1.521383,57.332872,0.037811,-0.006973,1.005112,-0.017675,-0.070839,0.063968,62.245956,24.717728,-146.685974,,,
729608751.469902,-1.598318,-1.52901,57.349371,0.037811,-0.006973,1.005112,-0.015923,-0.022443,0.054415,62.245956,24.717728,-146.685974,,,
729608751.473305,-1.598318,-1.52901,57.349371,0.037811,-0.006973,1.005112,-0.015923,-0.022443,0.054415,61.970505,24.685959,-146.529739,,,
729608751.476584,-1.602524,-1.518667,57.364918,0.047409,-0.004517,1.009659,-0.015923,-0.022443,0.054415,61.970505,24.685959,-146.529739,,,
729608751.4799,-1.60451,-1.51428,57.379002,0.047409,-0.004517,1.009659,-0.006359,0.018767,0.048826,61.970505,24.685959,-146.529739,,,
729608751.483249,-1.60451,-1.51428,57.379002,0.047409,-0.004517,1.009659,-0.006359,0.018767,0.048826,61.970505,24.685959,-146.529739,,,
729608751.486574,-1.606526,-1.490407,57.392381,0.051376,-0.009506,1.014267,-0.006359,0.018767,0.048826,61.970505,24.685959,-146.529739,,,
729608751.489946,-1.604583,-1.475467,57.404082,0.051376,-0.009506,1.014267,0.00838,0.054727,0.03889,61.970505,24.685959,-146.529739,,,
729608751.49323,-1.604583,-1.475467,57.404082,0.051376,-0.009506,1.014267,0.00838,0.054727,0.03889,61.970505,24.685959,-146.529739,,,
729608751.496584,-1.602196,-1.44594,57.413976,0.049835,-0.011948,1.016357,0.00838,0.054727,0.03889,61.970505,24.685959,-146.529739,,,
729608751.499908,-1.596315,-1.425693,57.420386,0.049835,-0.011948,1.016357,0.023353,0.073536,0.021806,61.970505,24.685959,-146.529739,,,
729608751.503301,-1.596315,-1.425693,57.420386,0.049835,-0.011948,1.016357,0.023353,0.073536,0.021806,61.970505,24.685959,-146.529739,,,
729608751.506629,-1.590763,-1.394894,57.424734,0.044357,-0.011444,1.014099,0.023353,0.073536,0.021806,61.970505,24.685959,-146.529739,,,
729608751.509896,-1.58132,-1.372059,57.427233,0.044357,-0.011444,1.014099,0.033667,0.085245,0.008284,61.970505,24.685959,-146.529739,,,
729608751.513233,-1.58132,-1.372059,57.427233,0.044357,-0.011444,1.014099,0.033667,0.085245,0.008284,62.126862,24.826111,-146.727554,,,
729608751.516641,-1.572724,-1.341745,57.428278,0.037598,-0.009705,1.013626,0.033667,0.085245,0.008284,62.126862,24.826111,-146.727554,,,
729608751.519897,-1.562265,-1.318896,57.427757,0.037598,-0.009705,1.013626,0.034627,0.083755,-0.004608,62.126862,24.826111,-146.727554,,,
729608751.523309,-1.562265,-1.318896,57.427757,0.037598,-0.009705,1.013626,0.034627,0.083755,-0.004608,62.126862,24.826111,-146.727554,,,
729608751.526593,-1.552527,-1.29342,57.426407,0.029602,-0.013092,1.011398,0.034627,0.083755,-0.004608,62.126862,24.826111,-146.727554,,,
729608751.529897,-1.542546,-1.274042,57.424243,0.029602,-0.013092,1.011398,0.033251,0.073108,-0.010138,62.126862,24.826111,-146.727554,,,
729608751.533258,-1.542546,-1.274042,57.424243,0.029602,-0.013092,1.011398,0.033251,0.073108,-0.010138,62.126862,24.826111,-146.727554,,,
729608751.53663,-1.53067,-1.256561,57.422163,0.020203,-0.01889,1.008682,0.033251,0.073108,-0.010138,62.126862,24.826111,-146.727554,,,
729608751.539939,-1.519278,-1.244234,57.419871,0.020203,-0.01889,1.008682,0.038832,0.047682,-0.011023,62.126862,24.826111,-146.727554,,,
729608751.543334,-1.519278,-1.244234,57.419871,0.020203,-0.01889,1.008682,0.038832,0.047682,-0.011023,62.126862,24.826111,-146.727554,,,
729608751.546595,-1.503757,-1.238587,57.417494,0.017685,-0.024719,1.013855,0.038832,0.047682,-0.011023,62.126862,24.826111,-146.727554,,,
729608751.549914,-1.490834,-1.233593,57.415686,0.017685,-0.024719,1.013855,0.046945,0.020614,-0.008548,62.126862,24.826111,-146.727554,,,
729608751.553287,-1.490834,-1.233593,57.415686,0.017685,-0.024719,1.013855,0.046945,0.020614,-0.008548,62.142151,24.782669,-146.635086,,,
729608751.556617,-1.473355,-1.235337,57.414125,0.019089,-0.028305,1.015869,0.046945,0.020614,-0.008548,62.142151,24.782669,-146.635086,,,
729608751.559896,-1.460222,-1.232944,57.412497,0.019089,-0.028305,1.015869,0.04506,0.010295,-0.009245,62.142151,24.782669,-146.635086,,,
729608751.563255,-1.460222,-1.232944,57.412497,0.019089,-0.028305,1.015869,0.04506,0.010295,-0.009245,62.142151,24.782669,-146.635086,,,
729608751.566575,-1.443165,-1.23948,57.410384,0.025024,-0.028946,1.014191,0.04506,0.010295,-0.009245,62.142151,24.782669,-146.635086,,,
729608751.569901,-1.432406,-1.238194,57.409234,0.025024,-0.028946,1.014191,0.037812,0.010798,-0.004082,62.142151,24.782669,-146.635086,,,
729608751.573311,-1.432406,-1.238194,57.409234,0.025024,-0.028946,1.014191,0.037812,0.010798,-0.004082,62.142151,24.782669,-146.635086,,,
729608751.576594,-1.418533,-1.246262,57.408774,0.024216,-0.030106,1.01088,0.037812,0.010798,-0.004082,62.142151,24.782669,-146.635086,,,
729608751.579911,-1.410621,-1.24314,57.409252,0.024216,-0.030106,1.01088,0.027724,0.012657,-0.002443,62.142151,24.782669,-146.635086,,,
729608751.5833,-1.410621,-1.24314,57.409252,0.024216,-0.030106,1.01088,0.027724,0.012657,-0.002443,62.142151,24.782669,-146.635086,,,
729608751.586593,-1.401236,-1.246362,57.410748,0.024307,-0.034103,1.013672,0.027724,0.012657,-0.002443,62.142151,24.782669,-146.635086,,,
729608751.589957,-1.39885,-1.238254,57.413615,0.024307,-0.034103,1.013672,0.011165,0.032225,0.008491,62.142151,24.782669,-146.635086,,,
729608751.593268,-1.39885,-1.238254,57.413615,0.024307,-0.034103,1.013672,0.011165,0.032225,0.008491,62.142151,24.782669,-146.635086,,,
729608751.596643,-1.394735,-1.234168,57.416724,0.023926,-0.033081,1.01355,0.011165,0.032225,0.008491,62.172699,24.673645,-146.64949,,,
729608751.599904,-1.39575,-1.224933,57.419806,0.023926,-0.033081,1.01355,-0.004869,0.036455,0.009167,62.172699,24.673645,-146.64949,,,
729608751.603257,-1.39575,-1.224933,57.419806,0.023926,-0.033081,1.01355,-0.004869,0.036455,0.009167,62.172699,24.673645,-146.64949,,,
729608751.606622,-1.393883,-1.220249,57.422626,0.024124,-0.028168,1.015747,-0.004869,0.036455,0.009167,62.172699,24.673645,-146.64949,,,
729608751.609907,-1.395546,-1.215197,57.425392,0.024124,-0.028168,1.015747,-0.005715,0.019529,0.008014,62.172699,24.673645,-146.64949,,,
729608751.613256,-1.395546,-1.215197,57.425392,0.024124,-0.028168,1.015747,-0.005715,0.019529,0.008014,62.172699,24.673645,-146.64949,,,
729608751.616592,-1.395571,-1.213435,57.427992,0.024155,-0.030319,1.012177,-0.005715,0.019529,0.008014,62.172699,24.673645,-146.64949,,,
729608751.619738,-1.397196,-1.21228,57.430661,0.024155,-0.030319,1.012177,-0.005795,0.008787,0.006984,62.172699,24.673645,-146.64949,,,
729608751.623365,-1.397196,-1.21228,57.430661,0.024155,-0.030319,1.012177,-0.005795,0.008787,0.006984,62.172699,24.673645,-146.64949,,,
729608751.626575,-1.397648,-1.211501,57.434045,0.022476,-0.033401,1.0112,-0.005795,0.008787,0.006984,62.172699,24.673645,-146.64949,,,
729608751.629912,-1.397586,-1.213149,57.439486,0.022476,-0.033401,1.0112,-0.00017,-0.000843,0.016633,62.172699,24.673645,-146.64949,,,
729608751.633235,-1.397586,-1.213149,57.439486,0.022476,-0.033401,1.0112,-0.00017,-0.000843,0.016633,62.172699,24.673645,-146.64949,,,
729608751.636643,-1.39745,-1.214379,57.447817,0.021439,-0.034073,1.012222,-0.00017,-0.000843,0.016633,62.051788,24.755508,-146.799728,,,
729608751.639946,-1.396293,-1.216311,57.45828,0.021439,-0.034073,1.012222,0.006449,-0.004755,0.033581,62.051788,24.755508,-146.799728,,,
729608751.64325,-1.396293,-1.216311,57.45828,0.021439,-0.034073,1.012222,0.006449,-0.004755,0.033581,62.051788,24.755508,-146.799728,,,
729608751.646605,-1.396261,-1.217835,57.469255,0.02652,-0.031586,1.008514,0.006449,-0.004755,0.033581,62.051788,24.755508,-146.799728,,,
729608751.649929,-1.396066,-1.217684,57.479647,0.02652,-0.031586,1.008514,0.001939,0.002708,0.034921,62.051788,24.755508,-146.799728,,,
729608751.653327,-1.396066,-1.217684,57.479647,0.02652,-0.031586,1.008514,0.001939,0.002708,0.034921,62.051788,24.755508,-146.799728,,,
729608751.656612,-1.398328,-1.217386,57.488489,0.035828,-0.020401,1.002319,0.001939,0.002708,0.034921,62.051788,24.755508,-146.799728,,,
729608751.659895,-1.401292,-1.215577,57.496124,0.035828,-0.020401,1.002319,-0.005932,0.008055,0.024055,62.051788,24.755508,-146.799728,,,
729608751.663349,-1.401292,-1.215577,57.496124,0.035828,-0.020401,1.002319,-0.005932,0.008055,0.024055,62.051788,24.755508,-146.799728,,,
729608751.666589,-1.408453,-1.213985,57.503814,0.035233,-0.014313,0.995255,-0.005932,0.008055,0.024055,62.051788,24.755508,-146.799728,,,
729608751.669911,-1.41665,-1.21106,57.511559,0.035233,-0.014313,0.995255,-0.02357,0.012999,0.023933,62.051788,24.755508,-146.799728,,,
729608751.673333,-1.41665,-1.21106,57.511559,0.035233,-0.014313,0.995255,-0.02357,0.012999,0.023933,62.051788,24.755508,-146.799728,,,
729608751.676669,-1.431661,-1.208403,57.51982,0.028656,-0.015381,0.986404,-0.02357,0.012999,0.023933,62.121964,24.729797,-146.638,,,
729608751.679903,-1.448261,-1.205095,57.528886,0.028656,-0.015381,0.986404,-0.057511,0.01457,0.029267,62.121964,24.729797,-146.638,,,
729608751.683239,-1.448261,-1.205095,57.528886,0.028656,-0.015381,0.986404,-0.057511,0.01457,0.029267,62.121964,24.729797,-146.638,,,
729608751.686597,-1.470011,-1.203583,57.538221,0.028351,-0.014526,0.979218,-0.057511,0.01457,0.029267,62.121964,24.729797,-146.638,,,
729608751.689962,-1.493905,-1.203304,57.547649,0.028351,-0.014526,0.979218,-0.080598,0.004445,0.03276,62.121964,24.729797,-146.638,,,
729608751.693258,-1.493905,-1.203304,57.547649,0.028351,-0.014526,0.979218,-0.080598,0.004445,0.03276,62.121964,24.729797,-146.638,,,
729608751.696594,-1.5205,-1.206787,57.557208,0.026047,-0.01326,0.979156,-0.080598,0.004445,0.03276,62.121964,24.729797,-146.638,,,
729608751.699901,-1.546876,-1.211733,57.566859,0.026047,-0.01326,0.979156,-0.091446,-0.01548,0.035606,62.121964,24.729797,-146.638,,,
729608751.703259,-1.546876,-1.211733,57.566859,0.026047,-0.01326,0.979156,-0.091446,-0.01548,0.035606,62.121964,24.729797,-146.638,,,
729608751.70665,-1.574161,-1.218912,57.576954,0.023651,-0.01709,0.984818,-0.091446,-0.01548,0.035606,62.121964,24.729797,-146.638,,,
729608751.709905,-1.597801,-1.225936,57.588197,0.023651,-0.01709,0.984818,-0.083891,-0.023481,0.037579,62.121964,24.729797,-146.638,,,
729608751.713329,-1.597801,-1.225936,57.588197,0.023651,-0.01709,0.984818,-0.083891,-0.023481,0.037579,62.121964,24.729797,-146.638,,,
729608751.71661,-1.619543,-1.232745,57.600651,0.028198,-0.023697,0.999115,-0.083891,-0.023481,0.037579,62.121964,24.729797,-146.638,,,
729608751.71991,-1.635189,-1.238016,57.614568,0.028198,-0.023697,0.999115,-0.052519,-0.018689,0.046664,61.950531,24.853317,-146.931564,,,
729608751.723265,-1.635189,-1.238016,57.614568,0.028198,-0.023697,0.999115,-0.052519,-0.018689,0.046664,61.950531,24.853317,-146.931564,,,
729608751.726642,-1.647772,-1.24144,57.62929,0.030457,-0.02655,1.007538,-0.052519,-0.018689,0.046664,61.950531,24.853317,-146.931564,,,
729608751.729898,-1.654269,-1.241014,57.644488,0.030457,-0.02655,1.007538,-0.017893,0.004966,0.051724,61.950531,24.853317,-146.931564,,,
729608751.73326,-1.654269,-1.241014,57.644488,0.030457,-0.02655,1.007538,-0.017893,0.004966,0.051724,61.950531,24.853317,-146.931564,,,
729608751.736582,-1.656454,-1.240342,57.659277,0.040298,-0.020065,1.007019,-0.017893,0.004966,0.051724,61.950531,24.853317,-146.931564,,,
729608751.739914,-1.658843,-1.230419,57.672284,0.040298,-0.020065,1.007019,-0.004141,0.037335,0.044068,61.950531,24.853317,-146.931564,,,
729608751.743244,-1.658843,-1.230419,57.672284,0.040298,-0.020065,1.007019,-0.004141,0.037335,0.044068,61.950531,24.853317,-146.931564,,,
729608751.746577,-1.657195,-1.219729,57.68262,0.047272,-0.006516,0.996872,-0.004141,0.037335,0.044068,61.950531,24.853317,-146.931564,,,
729608751.749899,-1.660516,-1.197702,57.691094,0.047272,-0.006516,0.996872,-0.010811,0.078832,0.027779,61.950531,24.853317,-146.931564,,,
729608751.753316,-1.660516,-1.197702,57.691094,0.047272,-0.006516,0.996872,-0.010811,0.078832,0.027779,61.950531,24.853317,-146.931564,,,
729608751.756632,-1.66141,-1.174483,57.698709,0.045959,-0.000977,0.989258,-0.010811,0.078832,0.027779,61.950531,24.853317,-146.931564,,,
729608751.759906,-1.669339,-1.144682,57.705955,0.045959,-0.000977,0.989258,-0.027008,0.107347,0.021871,62.321777,24.982849,-147.045929,,,
729608751.763256,-1.669339,-1.144682,57.705955,0.045959,-0.000977,0.989258,-0.027008,0.107347,0.021871,62.321777,24.982849,-147.045929,,,
729608751.766668,-1.675882,-1.115183,57.712974,0.041183,-0.010986,0.9841,-0.027008,0.107347,0.021871,62.321777,24.982849,-147.045929,,,
729608751.769894,-1.68938,-1.081265,57.719956,0.041183,-0.010986,0.9841,-0.044984,0.1204,0.025658,62.321777,24.982849,-147.045929,,,
729608751.773326,-1.68938,-1.081265,57.719956,0.041183,-0.010986,0.9841,-0.044984,0.1204,0.025658,62.321777,24.982849,-147.045929,,,
729608751.776582,-1.699972,-1.050963,57.72643,0.035721,-0.015625,0.977966,-0.044984,0.1204,0.025658,62.321777,24.982849,-147.045929,,,
729608751.779911,-1.716538,-1.019753,57.732786,0.035721,-0.015625,0.977966,-0.055806,0.111224,0.020126,62.321777,24.982849,-147.045929,,,
729608751.783268,-1.716538,-1.019753,57.732786,0.035721,-0.015625,0.977966,-0.055806,0.111224,0.020126,62.321777,24.982849,-147.045929,,,
729608751.786586,-1.728356,-0.995055,57.738279,0.02272,-0.016953,0.977417,-0.055806,0.111224,0.020126,62.321777,24.982849,-147.045929,,,
729608751.789964,-1.742889,-0.973936,57.743138,0.02272,-0.016953,0.977417,-0.049013,0.076847,0.015526,62.321777,24.982849,-147.045929,,,
729608751.793302,-1.742889,-0.973936,57.743138,0.02272,-0.016953,0.977417,-0.049013,0.076847,0.015526,62.321777,24.982849,-147.045929,,,
729608751.796584,-1.751427,-0.962523,57.747555,0.012054,-0.021881,0.980682,-0.049013,0.076847,0.015526,62.321777,24.982849,-147.045929,,,
729608751.799911,-1.759211,-0.95409,57.751925,0.012054,-0.021881,0.980682,-0.027965,0.032569,0.013839,62.238358,25.054184,-147.180649,,,
729608751.803261,-1.759211,-0.95409,57.751925,0.012054,-0.021881,0.980682,-0.027965,0.032569,0.013839,62.238358,25.054184,-147.180649,,,
729608751.806645,-1.762878,-0.955428,57.756402,0.006424,-0.02858,0.985519,-0.027965,0.032569,0.013839,62.238358,25.054184,-147.180649,,,
729608751.809897,-1.76618,-0.957617,57.761174,0.006424,-0.02858,0.985519,-0.008619,-0.004807,0.015295,62.238358,25.054184,-147.180649,,,
729608751.813263,-1.76618,-0.957617,57.761174,0.006424,-0.02858,0.985519,-0.008619,-0.004807,0.015295,62.238358,25.054184,-147.180649,,,
729608751.816594,-1.765714,-0.971031,57.765931,0.008942,-0.030548,0.981689,-0.008619,-0.004807,0.015295,62.238358,25.054184,-147.180649,,,
729608751.819902,-1.766225,-0.983765,57.770584,0.008942,-0.030548,0.981689,-0.001219,-0.044367,0.015191,62.238358,25.054184,-147.180649,,,
729608751.823308,-1.766225,-0.983765,57.770584,0.008942,-0.030548,0.981689,-0.001219,-0.044367,0.015191,62.238358,25.054184,-147.180649,,,
729608751.826583,-1.761461,-1.008728,57.77395,0.014633,-0.022766,0.979111,-0.001219,-0.044367,0.015191,62.238358,25.054184,-147.180649,,,
729608751.829909,-1.762661,-1.026944,57.776295,0.014633,-0.022766,0.979111,-0.001916,-0.060016,0.005429,62.238358,25.054184,-147.180649,,,
729608751.83328,-1.762661,-1.026944,57.776295,0.014633,-0.022766,0.979111,-0.001916,-0.060016,0.005429,62.238358,25.054184,-147.180649,,,
729608751.836575,-1.75763,-1.052244,57.776972,0.026047,-0.015747,0.980316,-0.001916,-0.060016,0.005429,62.238358,25.054184,-147.180649,,,
729608751.839959,-1.761025,-1.066951,57.776784,0.026047,-0.015747,0.980316,-0.011962,-0.047841,-0.00431,62.11264,25.146103,-147.099731,,,
729608751.843242,-1.761025,-1.066951,57.776784,0.026047,-0.015747,0.980316,-0.011962,-0.047841,-0.00431,62.11264,25.146103,-147.099731,,,
729608751.846626,-1.759369,-1.084829,57.776742,0.029556,-0.0186,0.990341,-0.011962,-0.047841,-0.00431,62.11264,25.146103,-147.099731,,,
729608751.849953,-1.763106,-1.093619,57.778858,0.029556,-0.0186,0.990341,-0.011829,-0.025404,0.004253,62.11264,25.146103,-147.099731,,,
729608751.853244,-1.763106,-1.093619,57.778858,0.029556,-0.0186,0.990341,-0.011829,-0.025404,0.004253,62.11264,25.146103,-147.099731,,,
729608751.856649,-1.761077,-1.106505,57.782229,0.024277,-0.02948,1.000336,-0.011829,-0.025404,0.004253,62.11264,25.146103,-147.099731,,,
729608751.859927,-1.761596,-1.110649,57.786022,0.024277,-0.02948,1.000336,-0.003771,-0.010166,0.013157,62.11264,25.146103,-147.099731,,,
729608751.863244,-1.761596,-1.110649,57.786022,0.024277,-0.02948,1.000336,-0.003771,-0.010166,0.013157,62.11264,25.146103,-147.099731,,,
729608751.866595,-1.756267,-1.11583,57.789137,0.028259,-0.028305,1.006302,-0.003771,-0.010166,0.013157,62.11264,25.146103,-147.099731,,,
729608751.86996,-1.75366,-1.11626,57.790506,0.028259,-0.028305,1.006302,0.006942,0.003492,0.002506,62.11264,25.146103,-147.099731,,,
729608751.873312,-1.75366,-1.11626,57.790506,0.028259,-0.028305,1.006302,0.006942,0.003492,0.002506,62.11264,25.146103,-147.099731,,,
729608751.876567,-1.746718,-1.113394,57.789365,0.032944,-0.0168,1.006927,0.006942,0.003492,0.002506,62.11264,25.146103,-147.099731,,,
729608751.879983,-1.74251,-1.110782,57.785812,0.032944,-0.0168,1.006927,0.013788,0.011316,-0.013396,62.11264,25.146103,-147.099731,,,
729608751.88325,-1.74251,-1.110782,57.785812,0.032944,-0.0168,1.006927,0.013788,0.011316,-0.013396,62.420959,25.041626,-147.034073,,,
729608751.886639,-1.735865,-1.104265,57.780749,0.03064,-0.01503,1.005966,0.013788,0.011316,-0.013396,62.420959,25.041626,-147.034073,,,
729608751.889992,-1.730311,-1.101973,57.774061,0.03064,-0.01503,1.005966,0.018275,0.012581,-0.026531,62.420959,25.041626,-147.034073,,,
729608751.89325,-1.730311,-1.101973,57.774061,0.03064,-0.01503,1.005966,0.018275,0.012581,-0.026531,62.420959,25.041626,-147.034073,,,
729608751.896593,-1.725167,-1.096408,57.765333,0.028107,-0.016769,1.001816,0.018275,0.012581,-0.026531,62.420959,25.041626,-147.034073,,,
729608751.899984,-1.719207,-1.095607,57.754097,0.028107,-0.016769,1.001816,0.022684,0.005605,-0.04069,62.420959,25.041626,-147.034073,,,
729608751.903226,-1.719207,-1.095607,57.754097,0.028107,-0.016769,1.001816,0.022684,0.005605,-0.04069,62.420959,25.041626,-147.034073,,,
729608751.906601,-1.711457,-1.093364,57.741529,0.024094,-0.020081,1.003876,0.022684,0.005605,-0.04069,62.420959,25.041626,-147.034073,,,
729608751.909914,-1.702079,-1.093909,57.728066,0.024094,-0.020081,1.003876,0.032405,0.003327,-0.049884,62.420959,25.041626,-147.034073,,,
729608751.913313,-1.702079,-1.093909,57.728066,0.024094,-0.020081,1.003876,0.032405,0.003327,-0.049884,62.420959,25.041626,-147.034073,,,
729608751.916585,-1.686221,-1.095991,57.714114,0.015045,-0.025284,1.010803,0.032405,0.003327,-0.049884,62.420959,25.041626,-147.034073,,,
729608751.9199,-1.670342,-1.097456,57.700072,0.015045,-0.025284,1.010803,0.054354,-0.000624,-0.052295,62.420959,25.041626,-147.034073,,,
729608751.923328,-1.670342,-1.097456,57.700072,0.015045,-0.025284,1.010803,0.054354,-0.000624,-0.052295,62.504272,24.819748,-146.881104,,,
729608751.926624,-1.645608,-1.101963,57.685604,0.009933,-0.032669,1.016953,0.054354,-0.000624,-0.052295,62.504272,24.819748,-146.881104,,,
729608751.929897,-1.62059,-1.099757,57.671162,0.009933,-0.032669,1.016953,0.088118,0.017358,-0.052336,62.504272,24.819748,-146.881104,,,
729608751.93324,-1.62059,-1.099757,57.671162,0.009933,-0.032669,1.016953,0.088118,0.017358,-0.052336,62.504272,24.819748,-146.881104,,,
729608751.936569,-1.590286,-1.097467,57.657162,0.004242,-0.038849,1.026138,0.088118,0.017358,-0.052336,62.504272,24.819748,-146.881104,,,
729608751.939951,-1.555917,-1.091894,57.64514,0.004242,-0.038849,1.026138,0.121608,0.024846,-0.045782,62.504272,24.819748,-146.881104,,,
729608751.943244,-1.555917,-1.091894,57.64514,0.004242,-0.038849,1.026138,0.121608,0.024846,-0.045782,62.504272,24.819748,-146.881104,,,
729608751.946566,-1.518822,-1.087801,57.635452,-0.007141,-0.043365,1.021454,0.121608,0.024846,-0.045782,62.504272,24.819748,-146.881104,,,
729608751.94995,-1.478566,-1.079852,57.628327,-0.007141,-0.043365,1.021454,0.141883,0.029827,-0.031071,62.504272,24.819748,-146.881104,,,
729608751.953382,-1.478566,-1.079852,57.628327,-0.007141,-0.043365,1.021454,0.141883,0.029827,-0.031071,62.504272,24.819748,-146.881104,,,
729608751.956703,-1.435063,-1.074003,57.624018,-0.017303,-0.046005,1.014267,0.141883,0.029827,-0.031071,62.504272,24.819748,-146.881104,,,
729608751.959939,-1.392403,-1.060704,57.622556,-0.017303,-0.046005,1.014267,0.150614,0.050609,-0.007897,62.504272,24.819748,-146.881104,,,
729608751.963256,-1.392403,-1.060704,57.622556,-0.017303,-0.046005,1.014267,0.150614,0.050609,-0.007897,62.367523,24.651489,-147.13652,,,
729608751.966635,-1.345808,-1.049755,57.623437,-0.010361,-0.033203,1.006912,0.150614,0.050609,-0.007897,62.367523,24.651489,-147.13652,,,
729608751.969955,-1.301361,-1.034345,57.625803,-0.010361,-0.033203,1.006912,0.154822,0.055485,0.003423,62.367523,24.651489,-147.13652,,,
729608751.973388,-1.301361,-1.034345,57.625803,-0.010361,-0.033203,1.006912,0.154822,0.055485,0.003423,62.367523,24.651489,-147.13652,,,
729608751.976578,-1.254238,-1.023814,57.628347,0.00058,-0.01889,0.995346,0.154822,0.055485,0.003423,62.367523,24.651489,-147.13652,,,
729608751.979938,-1.209592,-1.010913,57.630852,0.00058,-0.01889,0.995346,0.154999,0.048614,0.004802,62.367523,24.651489,-147.13652,,,
729608751.983261,-1.209592,-1.010913,57.630852,0.00058,-0.01889,0.995346,0.154999,0.048614,0.004802,62.367523,24.651489,-147.13652,,,
729608751.986583,-1.165606,-1.002184,57.633523,0.006973,-0.010696,0.984268,0.154999,0.048614,0.004802,62.367523,24.651489,-147.13652,,,
729608751.99002,-1.124376,-0.992267,57.637172,0.006973,-0.010696,0.984268,0.14495,0.038103,0.010633,62.367523,24.651489,-147.13652,,,
729608751.993256,-1.124376,-0.992267,57.637172,0.006973,-0.010696,0.984268,0.14495,0.038103,0.010633,62.367523,24.651489,-147.13652,,,
729608751.996578,-1.086726,-0.984802,57.641898,0.012192,-0.009445,0.97496,0.14495,0.038103,0.010633,62.367523,24.651489,-147.13652,,,
729608751.999992,-1.05075,-0.979811,57.647506,0.012192,-0.009445,0.97496,0.126741,0.0206,0.01563,62.367523,24.651489,-147.13652,,,
729608752.003226,-1.05075,-0.979811,57.647506,0.012192,-0.009445,0.97496,0.126741,0.0206,0.01563,62.473236,24.377945,-147.204376,,,
729608752.006605,-1.020694,-0.975832,57.654384,0.015671,-0.007584,0.968735,0.126741,0.0206,0.01563,62.473236,24.377945,-147.204376,,,
729608752.00999,-1.020694,-0.977202,57.662931,0.015671,-0.007584,0.968735,0.126741,0.0206,0.01563,62.473236,24.377945,-147.204376,,,
729608752.013342,-0.989502,-0.977202,57.662931,0.015671,-0.007584,0.968735,0.108869,-0.003898,0.026546,62.473236,24.377945,-147.204376,,,
729608752.016606,-0.966531,-0.978548,57.67305,0.012772,-0.007065,0.970367,0.108869,-0.003898,0.026546,62.473236,24.377945,-147.204376,,,
729608752.019925,-0.966531,-0.978548,57.67305,0.012772,-0.007065,0.970367,0.09519,-0.019427,0.037563,62.473236,24.377945,-147.204376,,,
729608752.023268,-0.939329,-0.985393,57.684822,0.012772,-0.007065,0.970367,0.09519,-0.019427,0.037563,62.473236,24.377945,-147.204376,,,
729608752.026574,-0.920668,-0.987171,57.698722,0.008575,-0.009842,0.978668,0.09519,-0.019427,0.037563,62.473236,24.377945,-147.204376,,,
729608752.029932,-0.920668,-0.987171,57.698722,0.008575,-0.009842,0.978668,0.09519,-0.019427,0.037563,62.473236,24.377945,-147.204376,,,
729608752.033246,-0.895978,-0.996868,57.714115,0.008575,-0.009842,0.978668,0.087688,-0.0334,0.050422,62.473236,24.377945,-147.204376,,,
729608752.036649,-0.882323,-0.996527,57.730645,0.011932,-0.01033,0.98291,0.087688,-0.0334,0.050422,62.473236,24.377945,-147.204376,,,
729608752.039969,-0.882323,-0.996527,57.730645,0.011932,-0.01033,0.98291,0.087688,-0.0334,0.050422,62.473236,24.377945,-147.204376,,,
729608752.043239,-0.86298,-1.006277,57.747857,0.011932,-0.01033,0.98291,0.068883,-0.032664,0.06009,62.473236,24.377945,-147.204376,,,
729608752.046603,-0.854874,-1.003116,57.765955,0.018585,-0.009125,0.985291,0.068883,-0.032664,0.06009,62.453247,24.390564,-147.088348,,,
729608752.049952,-0.854874,-1.003116,57.765955,0.018585,-0.009125,0.985291,0.040207,-0.013099,0.0643,62.453247,24.390564,-147.088348,,,
729608752.053238,-0.844118,-1.007779,57.785092,0.018585,-0.009125,0.985291,0.040207,-0.013099,0.0643,62.453247,24.390564,-147.088348,,,
729608752.056647,-0.840259,-1.003802,57.805506,0.017975,-0.00618,0.988113,0.040207,-0.013099,0.0643,62.453247,24.390564,-147.088348,,,
729608752.059918,-0.840259,-1.003802,57.805506,0.017975,-0.00618,0.988113,0.040207,-0.013099,0.0643,62.453247,24.390564,-147.088348,,,
729608752.063239,-0.836897,-1.006018,57.826187,0.017975,-0.00618,0.988113,0.015038,-0.004506,0.070249,62.453247,24.390564,-147.088348,,,
729608752.066574,-0.83508,-1.003747,57.846762,0.021667,-0.010406,0.990845,0.015038,-0.004506,0.070249,62.453247,24.390564,-147.088348,,,
729608752.069949,-0.83508,-1.003747,57.846762,0.021667,-0.010406,0.990845,0.015038,-0.004506,0.070249,62.453247,24.390564,-147.088348,,,
729608752.073316,-0.83478,-1.006239,57.866687,0.021667,-0.010406,0.990845,0.001632,-0.005881,0.067959,62.453247,24.390564,-147.088348,,,
729608752.076564,-0.834387,-1.006909,57.885964,0.022461,-0.016769,1.000626,0.001632,-0.005881,0.067959,62.453247,24.390564,-147.088348,,,
729608752.079908,-0.834387,-1.006909,57.885964,0.022461,-0.016769,1.000626,0.001632,-0.005881,0.067959,62.453247,24.390564,-147.088348,,,
729608752.083255,-0.835642,-1.009513,57.904848,0.022461,-0.016769,1.000626,-0.000247,-0.007105,0.062822,62.453247,24.390564,-147.088348,,,
729608752.086563,-0.834763,-1.010149,57.924206,0.021057,-0.021317,1.003494,-0.000247,-0.007105,0.062822,62.401398,24.253738,-147.116592,,,
729608752.08992,-0.834763,-1.010149,57.924206,0.021057,-0.021317,1.003494,-0.000247,-0.007105,0.062822,62.401398,24.253738,-147.116592,,,
729608752.093261,-0.836213,-1.00855,57.944587,0.021057,-0.021317,1.003494,-0.004507,0.005324,0.068787,62.401398,24.253738,-147.116592,,,
729608752.096598,-0.83687,-1.000975,57.966188,0.019363,-0.023849,1.009018,-0.004507,0.005324,0.068787,62.401398,24.253738,-147.116592,,,
729608752.099977,-0.83687,-1.000975,57.966188,0.019363,-0.023849,1.009018,-0.004507,0.005324,0.068787,62.401398,24.253738,-147.116592,,,
729608752.103259,-0.842116,-0.987837,57.988025,0.019363,-0.023849,1.009018,-0.018047,0.046417,0.072277,62.401398,24.253738,-147.116592,,,
729608752.106612,-0.848485,-0.967131,58.009428,0.022751,-0.021393,1.007172,-0.018047,0.046417,0.072277,62.401398,24.253738,-147.116592,,,
729608752.109961,-0.848485,-0.967131,58.009428,0.022751,-0.021393,1.007172,-0.018047,0.046417,0.072277,62.401398,24.253738,-147.116592,,,
729608752.113297,-0.860072,-0.945334,58.030416,0.022751,-0.021393,1.007172,-0.039232,0.080219,0.070484,62.401398,24.253738,-147.116592,,,
729608752.116582,-0.874857,-0.918763,58.051097,0.0177,-0.020248,0.999161,-0.039232,0.080219,0.070484,62.401398,24.253738,-147.116592,,,
729608752.119936,-0.874857,-0.918763,58.051097,0.0177,-0.020248,0.999161,-0.039232,0.080219,0.070484,62.401398,24.253738,-147.116592,,,
729608752.123294,-0.895305,-0.893642,58.070874,0.0177,-0.020248,0.999161,-0.069406,0.091922,0.067916,62.401398,24.253738,-147.116592,,,
729608752.126565,-0.917583,-0.870551,58.089052,0.011108,-0.019897,0.992905,-0.069406,0.091922,0.067916,62.336533,24.448029,-146.702942,,,
729608752.129955,-0.917583,-0.870551,58.089052,0.011108,-0.019897,0.992905,-0.069406,0.091922,0.067916,62.336533,24.448029,-146.702942,,,
729608752.133247,-0.944735,-0.850174,58.105931,0.011108,-0.019897,0.992905,-0.094868,0.074717,0.058244,62.336533,24.448029,-146.702942,,,
729608752.136568,-0.971749,-0.836483,58.12212,-0.001083,-0.022308,0.987442,-0.094868,0.074717,0.058244,62.336533,24.448029,-146.702942,,,
729608752.139996,-0.971749,-0.836483,58.12212,-0.001083,-0.022308,0.987442,-0.094868,0.074717,0.058244,62.336533,24.448029,-146.702942,,,
729608752.14324,-1.002505,-0.828565,58.138836,-0.001083,-0.022308,0.987442,-0.103359,0.029281,0.059494,62.336533,24.448029,-146.702942,,,
729608752.14657,-1.029397,-0.829839,58.156956,-0.019928,-0.038803,0.990005,-0.103359,0.029281,0.059494,62.336533,24.448029,-146.702942,,,
729608752.149919,-1.029397,-0.829839,58.156956,-0.019928,-0.038803,0.990005,-0.103359,0.029281,0.059494,62.336533,24.448029,-146.702942,,,
729608752.153294,-1.057975,-0.836058,58.176898,-0.019928,-0.038803,0.990005,-0.100899,-0.019104,0.068206,62.336533,24.448029,-146.702942,,,
729608752.156604,-1.085601,-0.850051,58.198752,-0.021667,-0.049622,0.997421,-0.100899,-0.019104,0.068206,62.336533,24.448029,-146.702942,,,
729608752.159914,-1.085601,-0.850051,58.198752,-0.021667,-0.049622,0.997421,-0.100899,-0.019104,0.068206,62.336533,24.448029,-146.702942,,,
729608752.163255,-1.113177,-0.864561,58.221665,-0.021667,-0.049622,0.997421,-0.094448,-0.048887,0.079088,62.336533,24.448029,-146.702942,,,
729608752.166565,-1.139022,-0.882744,58.244706,-0.013321,-0.043335,1.008545,-0.094448,-0.048887,0.079088,62.463776,24.507034,-146.614395,,,
729608752.16991,-1.139022,-0.882744,58.244706,-0.013321,-0.043335,1.008545,-0.094448,-0.048887,0.079088,62.463776,24.507034,-146.614395,,,
729608752.17331,-1.16377,-0.899679,58.268241,-0.013321,-0.043335,1.008545,-0.084268,-0.057681,0.080981,62.463776,24.507034,-146.614395,,,
729608752.176571,-1.18858,-0.918285,58.292358,-0.005875,-0.035751,1.011856,-0.084268,-0.057681,0.080981,62.463776,24.507034,-146.614395,,,
729608752.180002,-1.18858,-0.918285,58.292358,-0.005875,-0.035751,1.011856,-0.084268,-0.057681,0.080981,62.463776,24.507034,-146.614395,,,
729608752.183307,-1.211227,-0.934609,58.316941,-0.005875,-0.035751,1.011856,-0.078378,-0.056566,0.085847,62.463776,24.507034,-146.614395,,,
729608752.186564,-1.233783,-0.950537,58.34276,0.003479,-0.038208,1.018127,-0.078378,-0.056566,0.085847,62.463776,24.507034,-146.614395,,,
729608752.189978,-1.233783,-0.950537,58.34276,0.003479,-0.038208,1.018127,-0.078378,-0.056566,0.085847,62.463776,24.507034,-146.614395,,,
729608752.193308,-1.25567,-0.96182,58.369706,0.003479,-0.038208,1.018127,-0.071843,-0.037293,0.092732,62.463776,24.507034,-146.614395,,,
729608752.196561,-1.276963,-0.971391,58.396695,0.013062,-0.044571,1.018784,-0.071843,-0.037293,0.092732,62.463776,24.507034,-146.614395,,,
729608752.199924,-1.276963,-0.971391,58.396695,0.013062,-0.044571,1.018784,-0.071843,-0.037293,0.092732,62.463776,24.507034,-146.614395,,,
729608752.203237,-1.298799,-0.978151,58.424064,0.013062,-0.044571,1.018784,-0.072179,-0.021799,0.094019,62.463776,24.507034,-146.614395,,,
729608752.206612,-1.319254,-0.982865,58.451391,0.021057,-0.04303,1.019135,-0.072179,-0.021799,0.094019,62.463776,24.507034,-146.614395,,,
729608752.209931,-1.319254,-0.982865,58.451391,0.021057,-0.04303,1.019135,-0.072179,-0.021799,0.094019,62.311218,24.618713,-146.357971,,,
729608752.213244,-1.340049,-0.988348,58.478024,0.021057,-0.04303,1.019135,-0.068832,-0.018216,0.091815,62.311218,24.618713,-146.357971,,,
729608752.216577,-1.359915,-0.989236,58.503461,0.032593,-0.033157,1.015686,-0.068832,-0.018216,0.091815,62.311218,24.618713,-146.357971,,,
729608752.219982,-1.359915,-0.989236,58.503461,0.032593,-0.033157,1.015686,-0.068832,-0.018216,0.091815,62.311218,24.618713,-146.357971,,,
729608752.223299,-1.380663,-0.99443,58.526932,0.032593,-0.033157,1.015686,-0.069265,-0.016671,0.082549,62.311218,24.618713,-146.357971,,,
729608752.226568,-1.403847,-0.989093,58.54866,0.039627,-0.02774,1.009171,-0.069265,-0.016671,0.082549,62.311218,24.618713,-146.357971,,,
729608752.229921,-1.403847,-0.989093,58.54866,0.039627,-0.02774,1.009171,-0.069265,-0.016671,0.082549,62.311218,24.618713,-146.357971,,,
729608752.233245,-1.423822,-0.994586,58.568066,0.039627,-0.02774,1.009171,-0.069107,-0.018372,0.068275,62.311218,24.618713,-146.357971,,,
729608752.236576,-1.449767,-0.987846,58.58683,0.04248,-0.028427,1.005447,-0.069107,-0.018372,0.068275,62.311218,24.618713,-146.357971,,,
729608752.239961,-1.449767,-0.987846,58.58683,0.04248,-0.028427,1.005447,-0.069107,-0.018372,0.068275,62.311218,24.618713,-146.357971,,,
729608752.24327,-1.468856,-0.995307,58.604748,0.04248,-0.028427,1.005447,-0.065008,-0.027394,0.062602,62.311218,24.618713,-146.357971,,,
729608752.246569,-1.494537,-0.990969,58.621464,0.044495,-0.034119,1.00058,-0.065008,-0.027394,0.062602,62.311218,24.618713,-146.357971,,,
729608752.249905,-1.494537,-0.990969,58.621464,0.044495,-0.034119,1.00058,-0.065008,-0.027394,0.062602,62.268387,24.891006,-146.408173,,,
729608752.25327,-1.513649,-0.996984,58.636633,0.044495,-0.034119,1.00058,-0.065745,-0.019473,0.053845,62.268387,24.891006,-146.408173,,,
729608752.256615,-1.534924,-0.995649,58.651231,0.044037,-0.032745,1.004471,-0.065745,-0.019473,0.053845,62.268387,24.891006,-146.408173,,,
729608752.259981,-1.534924,-0.995649,58.651231,0.044037,-0.032745,1.004471,-0.065745,-0.019473,0.053845,62.268387,24.891006,-146.408173,,,
729608752.263247,-1.55237,-1.004494,58.664964,0.044037,-0.032745,1.004471,-0.059537,-0.028473,0.046514,62.268387,24.891006,-146.408173,,,
729608752.266576,-1.570975,-1.011105,58.678374,0.041016,-0.033951,1.004456,-0.059537,-0.028473,0.046514,62.268387,24.891006,-146.408173,,,
729608752.269902,-1.570975,-1.011105,58.678374,0.041016,-0.033951,1.004456,-0.059537,-0.028473,0.046514,62.268387,24.891006,-146.408173,,,
729608752.273367,-1.587327,-1.023136,58.690912,0.041016,-0.033951,1.004456,-0.053812,-0.040665,0.042431,62.268387,24.891006,-146.408173,,,
729608752.276556,-1.607103,-1.033046,58.703014,0.035828,-0.036804,1.00563,-0.053812,-0.040665,0.042431,62.268387,24.891006,-146.408173,,,
729608752.279918,-1.607103,-1.033046,58.703014,0.035828,-0.036804,1.00563,-0.053812,-0.040665,0.042431,62.268387,24.891006,-146.408173,,,
729608752.283243,-1.623933,-1.045585,58.714696,0.035828,-0.036804,1.00563,-0.055271,-0.040645,0.039427,62.268387,24.891006,-146.408173,,,
729608752.28657,-1.643838,-1.058873,58.726249,0.034103,-0.037964,1.008423,-0.055271,-0.040645,0.039427,62.268387,24.891006,-146.408173,,,
729608752.289947,-1.643838,-1.058873,58.726249,0.034103,-0.037964,1.008423,-0.055271,-0.040645,0.039427,61.9702,24.983871,-146.530457,,,
729608752.29325,-1.658754,-1.07456,58.737974,0.034103,-0.037964,1.008423,-0.051295,-0.053659,0.037273,61.9702,24.983871,-146.530457,,,
729608752.296573,-1.673992,-1.09502,58.749375,0.032211,-0.037277,1.007599,-0.051295,-0.053659,0.037273,61.9702,24.983871,-146.530457,,,
729608752.299989,-1.673992,-1.09502,58.749375,0.032211,-0.037277,1.007599,-0.051295,-0.053659,0.037273,61.9702,24.983871,-146.530457,,,
729608752.303252,-1.688006,-1.114641,58.759156,0.032211,-0.037277,1.007599,-0.048217,-0.068943,0.032766,61.9702,24.983871,-146.530457,,,
729608752.306593,-1.702713,-1.139375,58.767404,0.032532,-0.033264,1.004929,-0.048217,-0.068943,0.032766,61.9702,24.983871,-146.530457,,,
729608752.309927,-1.702713,-1.139375,58.767404,0.032532,-0.033264,1.004929,-0.048217,-0.068943,0.032766,61.9702,24.983871,-146.530457,,,
729608752.313287,-1.718651,-1.158568,58.77463,0.032532,-0.033264,1.004929,-0.05461,-0.063369,0.021988,61.9702,24.983871,-146.530457,,,
729608752.31656,-1.734881,-1.184245,58.78059,0.032089,-0.030899,1.003418,-0.05461,-0.063369,0.021988,61.9702,24.983871,-146.530457,,,
729608752.319925,-1.734881,-1.184245,58.78059,0.032089,-0.030899,1.003418,-0.05461,-0.063369,0.021988,61.9702,24.983871,-146.530457,,,
729608752.323289,-1.752288,-1.20283,58.787114,0.032089,-0.030899,1.003418,-0.056029,-0.062379,0.0232,61.9702,24.983871,-146.530457,,,
729608752.326568,-1.770028,-1.229149,58.793513,0.037613,-0.032303,1.001724,-0.056029,-0.062379,0.0232,61.9702,24.983871,-146.530457,,,
729608752.329937,-1.770028,-1.229149,58.793513,0.037613,-0.032303,1.001724,-0.056029,-0.062379,0.0232,61.9702,24.983871,-146.530457,,,
729608752.333248,-1.787027,-1.24836,58.798711,0.037613,-0.032303,1.001724,-0.06017,-0.06449,0.017527,61.895462,25.318176,-146.547287,,,
729608752.336576,-1.804719,-1.276577,58.80101,0.040985,-0.032211,1.003143,-0.06017,-0.06449,0.017527,61.895462,25.318176,-146.547287,,,
729608752.339963,-1.804719,-1.276577,58.80101,0.040985,-0.032211,1.003143,-0.06017,-0.06449,0.017527,61.895462,25.318176,-146.547287,,,
729608752.343257,-1.822163,-1.298813,58.801156,0.040985,-0.032211,1.003143,-0.059754,-0.073399,-7.3e-05,61.895462,25.318176,-146.547287,,,
729608752.346572,-1.839859,-1.328978,58.799634,0.041,-0.027649,1.000992,-0.059754,-0.073399,-7.3e-05,61.895462,25.318176,-146.547287,,,
729608752.349918,-1.839859,-1.328978,58.799634,0.041,-0.027649,1.000992,-0.059754,-0.073399,-7.3e-05,61.895462,25.318176,-146.547287,,,
729608752.353312,-1.856629,-1.352575,58.79811,0.041,-0.027649,1.000992,-0.059164,-0.08021,-0.005069,61.895462,25.318176,-146.547287,,,
729608752.356595,-1.873489,-1.38047,58.797331,0.031143,-0.031311,1.005798,-0.059164,-0.08021,-0.005069,61.895462,25.318176,-146.547287,,,
729608752.359913,-1.873489,-1.38047,58.797331,0.031143,-0.031311,1.005798,-0.059164,-0.08021,-0.005069,61.895462,25.318176,-146.547287,,,
729608752.363243,-1.887711,-1.402484,58.797575,0.031143,-0.031311,1.005798,-0.048735,-0.074176,0.002042,61.895462,25.318176,-146.547287,,,
729608752.366572,-1.901194,-1.426649,58.797965,0.03064,-0.04158,1.013306,-0.048735,-0.074176,0.002042,61.895462,25.318176,-146.547287,,,
729608752.369918,-1.901194,-1.426649,58.797965,0.03064,-0.04158,1.013306,-0.048735,-0.074176,0.002042,61.895462,25.318176,-146.547287,,,
729608752.373313,-1.91098,-1.447244,58.797115,0.03064,-0.04158,1.013306,-0.035355,-0.067063,-0.004076,61.960312,25.366959,-146.330902,,,
729608752.376567,-1.918902,-1.469944,58.794213,0.037247,-0.040924,1.017914,-0.035355,-0.067063,-0.004076,61.960312,25.366959,-146.330902,,,
729608752.379985,-1.918902,-1.469944,58.794213,0.037247,-0.040924,1.017914,-0.035355,-0.067063,-0.004076,61.960312,25.366959,-146.330902,,,
729608752.383253,-1.922458,-1.490119,58.789967,0.037247,-0.040924,1.017914,-0.008809,-0.064454,-0.015525,61.960312,25.366959,-146.330902,,,
729608752.386573,-1.923636,-1.5125,58.784523,0.034958,-0.035446,1.020172,-0.008809,-0.064454,-0.015525,61.960312,25.366959,-146.330902,,,
729608752.389963,-1.923636,-1.5125,58.784523,0.034958,-0.035446,1.020172,-0.008809,-0.064454,-0.015525,61.960312,25.366959,-146.330902,,,
729608752.393287,-1.922887,-1.53189,58.779136,0.034958,-0.035446,1.020172,0.002556,-0.06456,-0.02232,61.960312,25.366959,-146.330902,,,
729608752.396559,-1.922173,-1.551913,58.773615,0.033752,-0.038315,1.012482,0.002556,-0.06456,-0.02232,61.960312,25.366959,-146.330902,,,
729608752.39993,-1.922173,-1.551913,58.773615,0.033752,-0.038315,1.012482,0.002556,-0.06456,-0.02232,61.960312,25.366959,-146.330902,,,
729608752.403249,-1.92281,-1.569122,58.767385,0.033752,-0.038315,1.012482,-0.000281,-0.054851,-0.022516,61.960312,25.366959,-146.330902,,,
729608752.406613,-1.923739,-1.589293,58.760312,0.036209,-0.037354,1.005478,-0.000281,-0.054851,-0.022516,61.960312,25.366959,-146.330902,,,
729608752.409895,-1.923739,-1.589293,58.760312,0.036209,-0.037354,1.005478,-0.000281,-0.054851,-0.022516,61.960312,25.366959,-146.330902,,,
729608752.413252,-1.926274,-1.607971,58.75225,0.036209,-0.037354,1.005478,-0.009166,-0.061666,-0.028827,61.648514,25.322159,-146.231842,,,
729608752.416564,-1.929324,-1.632337,58.742828,0.034821,-0.032074,0.998825,-0.009166,-0.061666,-0.028827,61.648514,25.322159,-146.231842,,,
729608752.419989,-1.929324,-1.632337,58.742828,0.034821,-0.032074,0.998825,-0.009166,-0.061666,-0.028827,61.648514,25.322159,-146.231842,,,
729608752.423266,-1.931937,-1.654551,58.732542,0.034821,-0.032074,0.998825,-0.008435,-0.073438,-0.037655,61.648514,25.322159,-146.231842,,,
729608752.426569,-1.932737,-1.683763,58.721915,0.032562,-0.031219,0.999847,-0.008435,-0.073438,-0.037655,61.648514,25.322159,-146.231842,,,
729608752.429916,-1.932737,-1.683763,58.721915,0.032562,-0.031219,0.999847,-0.008435,-0.073438,-0.037655,61.648514,25.322159,-146.231842,,,
729608752.433234,-1.934678,-1.7101,58.711009,0.032562,-0.031219,0.999847,-0.004947,-0.086832,-0.040439,61.648514,25.322159,-146.231842,,,
729608752.436565,-1.933816,-1.738857,58.69878,0.031357,-0.036041,0.997437,-0.004947,-0.086832,-0.040439,61.648514,25.322159,-146.231842,,,
729608752.439966,-1.933816,-1.738857,58.69878,0.031357,-0.036041,0.997437,-0.004947,-0.086832,-0.040439,61.648514,25.322159,-146.231842,,,
729608752.443284,-1.933479,-1.766495,58.68547,0.031357,-0.036041,0.997437,-0.001103,-0.094563,-0.048553,61.648514,25.322159,-146.231842,,,
729608752.446561,-1.933415,-1.793207,58.670968,0.040085,-0.033096,0.997421,-0.001103,-0.094563,-0.048553,61.648514,25.322159,-146.231842,,,
729608752.449899,-1.933415,-1.793207,58.670968,0.040085,-0.033096,0.997421,-0.001103,-0.094563,-0.048553,61.648514,25.322159,-146.231842,,,
729608752.453238,-1.931786,-1.819868,58.655834,0.040085,-0.033096,0.997421,0.003518,-0.088489,-0.055497,61.510986,25.3414,-146.449982,,,
729608752.456608,-1.93243,-1.845985,58.640417,0.042191,-0.033264,1.000153,0.003518,-0.088489,-0.055497,61.510986,25.3414,-146.449982,,,
729608752.459905,-1.93243,-1.845985,58.640417,0.042191,-0.033264,1.000153,0.003518,-0.088489,-0.055497,61.510986,25.3414,-146.449982,,,
729608752.463239,-1.929957,-1.868457,58.624848,0.042191,-0.033264,1.000153,0.007339,-0.072772,-0.054457,61.510986,25.3414,-146.449982,,,
729608752.46657,-1.927094,-1.889877,58.609275,0.039352,-0.037521,1.002518,0.007339,-0.072772,-0.054457,61.510986,25.3414,-146.449982,,,
729608752.469965,-1.927094,-1.889877,58.609275,0.039352,-0.037521,1.002518,0.007339,-0.072772,-0.054457,61.510986,25.3414,-146.449982,,,
729608752.473293,-1.921926,-1.90905,58.594318,0.039352,-0.037521,1.002518,0.017124,-0.064006,-0.055943,61.510986,25.3414,-146.449982,,,
729608752.476567,-1.916332,-1.927769,58.580071,0.035873,-0.042267,1.00296,0.017124,-0.064006,-0.055943,61.510986,25.3414,-146.449982,,,
729608752.47992,-1.916332,-1.927769,58.580071,0.035873,-0.042267,1.00296,0.017124,-0.064006,-0.055943,61.510986,25.3414,-146.449982,,,
729608752.483323,-1.90871,-1.945681,58.566424,0.035873,-0.042267,1.00296,0.029037,-0.057738,-0.048604,61.510986,25.3414,-146.449982,,,
729608752.486578,-1.901014,-1.961987,58.553293,0.03389,-0.046829,1.002243,0.029037,-0.057738,-0.048604,61.510986,25.3414,-146.449982,,,
729608752.489958,-1.901014,-1.961987,58.553293,0.03389,-0.046829,1.002243,0.029037,-0.057738,-0.048604,61.510986,25.3414,-146.449982,,,
729608752.493258,-1.891344,-1.975818,58.540075,0.03389,-0.046829,1.002243,0.033113,-0.04427,-0.048968,61.510986,25.3414,-146.449982,,,
729608752.496574,-1.881123,-1.988335,58.526295,0.031799,-0.039612,1.005829,0.033113,-0.04427,-0.048968,61.304382,25.334122,-146.203964,,,
729608752.499915,-1.881123,-1.988335,58.526295,0.031799,-0.039612,1.005829,0.033113,-0.04427,-0.048968,61.304382,25.334122,-146.203964,,,
729608752.503259,-1.86878,-1.99911,58.511622,0.031799,-0.039612,1.005829,0.040697,-0.031852,-0.052765,61.304382,25.334122,-146.203964,,,
729608752.506615,-1.853373,-2.008216,58.496038,0.030701,-0.033325,1.005173,0.040697,-0.031852,-0.052765,61.304382,25.334122,-146.203964,,,
729608752.509975,-1.853373,-2.008216,58.496038,0.030701,-0.033325,1.005173,0.040697,-0.031852,-0.052765,61.304382,25.334122,-146.203964,,,
729608752.513251,-1.835663,-2.016845,58.479926,0.030701,-0.033325,1.005173,0.059379,-0.026227,-0.057351,61.304382,25.334122,-146.203964,,,
729608752.51657,-1.817345,-2.02333,58.46355,0.027405,-0.035858,1.004639,0.059379,-0.026227,-0.057351,61.304382,25.334122,-146.203964,,,
729608752.519909,-1.817345,-2.02333,58.46355,0.027405,-0.035858,1.004639,0.059379,-0.026227,-0.057351,61.304382,25.334122,-146.203964,,,
729608752.523313,-1.79781,-2.030848,58.447563,0.027405,-0.035858,1.004639,0.065576,-0.019047,-0.059612,61.304382,25.334122,-146.203964,,,
729608752.526568,-1.780084,-2.038554,58.433149,0.021896,-0.035675,0.99704,0.065576,-0.019047,-0.059612,61.304382,25.334122,-146.203964,,,
729608752.529918,-1.780084,-2.038554,58.433149,0.021896,-0.035675,0.99704,0.065576,-0.019047,-0.059612,61.304382,25.334122,-146.203964,,,
729608752.533264,-1.761413,-2.046389,58.420261,0.021896,-0.035675,0.99704,0.06434,-0.023752,-0.050038,61.304382,25.334122,-146.203964,,,
729608752.53662,-1.74404,-2.058241,58.408603,0.01767,-0.036758,0.987793,0.06434,-0.023752,-0.050038,61.368103,25.076721,-146.287506,,,
729608752.539907,-1.74404,-2.058241,58.408603,0.01767,-0.036758,0.987793,0.06434,-0.023752,-0.050038,61.368103,25.076721,-146.287506,,,
729608752.543244,-1.728634,-2.07041,58.397476,0.01767,-0.036758,0.987793,0.053039,-0.039503,-0.041825,61.368103,25.076721,-146.287506,,,
729608752.546575,-1.718132,-2.087263,58.385384,0.023575,-0.030258,0.978729,0.053039,-0.039503,-0.041825,61.368103,25.076721,-146.287506,,,
729608752.549904,-1.718132,-2.087263,58.385384,0.023575,-0.030258,0.978729,0.053039,-0.039503,-0.041825,61.368103,25.076721,-146.287506,,,
729608752.553242,-1.707469,-2.10586,58.37224,0.023575,-0.030258,0.978729,0.03587,-0.060695,-0.048109,61.368103,25.076721,-146.287506,,,
729608752.556606,-1.701043,-2.127622,58.358105,0.031525,-0.019913,0.979034,0.03587,-0.060695,-0.048109,61.368103,25.076721,-146.287506,,,
729608752.559964,-1.701043,-2.127622,58.358105,0.031525,-0.019913,0.979034,0.03587,-0.060695,-0.048109,61.368103,25.076721,-146.287506,,,
729608752.563268,-1.691788,-2.152827,58.3426,0.031525,-0.019913,0.979034,0.029659,-0.082977,-0.058574,61.368103,25.076721,-146.287506,,,
729608752.566569,-1.687754,-2.180832,58.326167,0.03244,-0.017715,0.984177,0.029659,-0.082977,-0.058574,61.368103,25.076721,-146.287506,,,
729608752.57002,-1.687754,-2.180832,58.326167,0.03244,-0.017715,0.984177,0.029659,-0.082977,-0.058574,61.368103,25.076721,-146.287506,,,
729608752.573289,-1.678844,-2.211668,58.309987,0.03244,-0.017715,0.984177,0.029322,-0.103143,-0.058659,61.368103,25.076721,-146.287506,,,
729608752.57657,-1.674815,-2.239914,58.295224,0.028152,-0.025131,0.982224,0.029322,-0.103143,-0.058659,60.994461,25.129547,-146.476425,,,
729608752.579922,-1.674815,-2.239914,58.295224,0.028152,-0.025131,0.982224,0.029322,-0.103143,-0.058659,60.994461,25.129547,-146.476425,,,
729608752.583243,-1.66821,-2.26758,58.282311,0.028152,-0.025131,0.982224,0.021534,-0.092487,-0.046824,60.994461,25.129547,-146.476425,,,
729608752.58657,-1.663758,-2.288915,58.271565,0.032425,-0.032242,0.987686,0.021534,-0.092487,-0.046824,60.994461,25.129547,-146.476425,,,
729608752.589917,-1.663758,-2.288915,58.271565,0.032425,-0.032242,0.987686,0.021534,-0.092487,-0.046824,60.994461,25.129547,-146.476425,,,
729608752.593244,-1.657812,-2.309247,58.26282,0.032425,-0.032242,0.987686,0.021606,-0.068318,-0.032514,60.994461,25.129547,-146.476425,,,
729608752.596573,-1.652774,-2.321996,58.25541,0.040512,-0.032257,0.99263,0.021606,-0.068318,-0.032514,60.994461,25.129547,-146.476425,,,
729608752.599962,-1.652774,-2.321996,58.25541,0.040512,-0.032257,0.99263,0.021606,-0.068318,-0.032514,60.994461,25.129547,-146.476425,,,
729608752.60324,-1.644712,-2.334993,58.248021,0.040512,-0.032257,0.99263,0.02457,-0.042205,-0.028435,60.994461,25.129547,-146.476425,,,
729608752.606568,-1.637113,-2.34049,58.240251,0.046387,-0.027542,1.0009,0.02457,-0.042205,-0.028435,60.994461,25.129547,-146.476425,,,
729608752.609928,-1.637113,-2.34049,58.240251,0.046387,-0.027542,1.0009,0.02457,-0.042205,-0.028435,60.994461,25.129547,-146.476425,,,
729608752.613231,-1.626021,-2.35009,58.231022,0.046387,-0.027542,1.0009,0.039978,-0.02893,-0.037142,60.994461,25.129547,-146.476425,,,
729608752.616568,-1.616636,-2.35154,58.220724,0.047745,-0.025299,0.997192,0.039978,-0.02893,-0.037142,61.32196,24.849625,-146.41423,,,
729608752.619909,-1.616636,-2.35154,58.220724,0.047745,-0.025299,0.997192,0.039978,-0.02893,-0.037142,61.32196,24.849625,-146.41423,,,
729608752.623232,-1.604017,-2.35952,58.209015,0.047745,-0.025299,0.997192,0.043373,-0.022703,-0.044513,61.32196,24.849625,-146.41423,,,
729608752.626565,-1.593297,-2.359446,58.196609,0.043182,-0.022705,0.994492,0.043373,-0.022703,-0.044513,61.32196,24.849625,-146.41423,,,
729608752.629916,-1.593297,-2.359446,58.196609,0.043182,-0.022705,0.994492,0.043373,-0.022703,-0.044513,61.32196,24.849625,-146.41423,,,
729608752.633233,-1.580291,-2.365011,58.184625,0.043182,-0.022705,0.994492,0.040458,-0.015998,-0.044691,61.32196,24.849625,-146.41423,,,
729608752.636569,-1.565771,-2.366674,58.174345,0.037094,-0.024963,0.991165,0.040458,-0.015998,-0.044691,61.32196,24.849625,-146.41423,,,
729608752.640002,-1.565771,-2.366674,58.174345,0.037094,-0.024963,0.991165,0.040458,-0.015998,-0.044691,61.32196,24.849625,-146.41423,,,
729608752.643257,-1.552102,-2.372423,58.166282,0.037094,-0.024963,0.991165,0.049771,-0.014929,-0.031294,61.32196,24.849625,-146.41423,,,
729608752.646572,-1.53556,-2.374401,58.160133,0.027557,-0.031357,0.986252,0.049771,-0.014929,-0.031294,61.32196,24.849625,-146.41423,,,
729608752.64991,-1.53556,-2.374401,58.160133,0.027557,-0.031357,0.986252,0.049771,-0.014929,-0.031294,61.32196,24.849625,-146.41423,,,
729608752.6533,-1.522898,-2.377635,58.15483,0.027557,-0.031357,0.986252,0.045583,-0.008846,-0.020186,61.32196,24.849625,-146.41423,,,
729608752.656568,-1.509808,-2.376608,58.149688,0.028351,-0.028702,0.982117,0.045583,-0.008846,-0.020186,61.32196,24.849625,-146.41423,,,
729608752.659918,-1.509808,-2.376608,58.149688,0.028351,-0.028702,0.982117,0.045583,-0.008846,-0.020186,61.223984,24.804733,-146.867447,,,
729608752.663256,-1.500015,-2.3807,58.143093,0.028351,-0.028702,0.982117,0.034718,-0.011054,-0.024499,61.223984,24.804733,-146.867447,,,
729608752.666573,-1.494324,-2.382833,58.135254,0.035538,-0.016602,0.973694,0.034718,-0.011054,-0.024499,61.223984,24.804733,-146.867447,,,
729608752.669918,-1.494324,-2.382833,58.135254,0.035538,-0.016602,0.973694,0.034718,-0.011054,-0.024499,61.223984,24.804733,-146.867447,,,
729608752.673243,-1.489978,-2.390457,58.126308,0.035538,-0.016602,0.973694,0.012417,-0.023147,-0.03613,61.223984,24.804733,-146.867447,,,
729608752.676573,-1.489991,-2.399505,58.116845,0.032974,-0.01181,0.969788,0.012417,-0.023147,-0.03613,61.223984,24.804733,-146.867447,,,
729608752.679961,-1.489991,-2.399505,58.116845,0.032974,-0.01181,0.969788,0.012417,-0.023147,-0.03613,61.223984,24.804733,-146.867447,,,
729608752.683242,-1.490235,-2.411725,58.108028,0.032974,-0.01181,0.969788,-0.001271,-0.037724,-0.032057,61.223984,24.804733,-146.867447,,,
729608752.686576,-1.491706,-2.427229,58.100379,0.027908,-0.020813,0.972397,-0.001271,-0.037724,-0.032057,61.223984,24.804733,-146.867447,,,
729608752.689927,-1.491706,-2.427229,58.100379,0.027908,-0.020813,0.972397,-0.001271,-0.037724,-0.032057,61.223984,24.804733,-146.867447,,,
729608752.693305,-1.491447,-2.444819,58.094286,0.027908,-0.020813,0.972397,-0.005012,-0.059381,-0.024776,61.223984,24.804733,-146.867447,,,
729608752.69656,-1.489285,-2.465133,58.089706,0.026291,-0.031311,0.985001,-0.005012,-0.059381,-0.024776,61.223984,24.804733,-146.867447,,,
729608752.699934,-1.489285,-2.465133,58.089706,0.026291,-0.031311,0.985001,-0.005012,-0.059381,-0.024776,61.054855,24.763275,-146.690857,,,
729608752.703251,-1.48464,-2.484913,58.086953,0.026291,-0.031311,0.985001,0.01592,-0.066529,-0.010351,61.054855,24.763275,-146.690857,,,
729608752.706577,-1.48464,-2.484913,58.086953,0.03064,-0.032913,0.995789,0.01592,-0.066529,-0.010351,61.054855,24.763275,-146.690857,,,
729608752.709919,-1.477726,-2.503825,58.086014,0.03064,-0.032913,0.995789,0.01592,-0.066529,-0.010351,61.054855,24.763275,-146.690857,,,
729608752.713235,-1.470072,-2.518839,58.085623,0.03064,-0.032913,0.995789,0.028004,-0.049267,-0.003574,61.054855,24.763275,-146.690857,,,
729608752.716568,-1.461153,-2.527498,58.084829,0.04126,-0.024734,1.000412,0.028004,-0.049267,-0.003574,61.054855,24.763275,-146.690857,,,
729608752.719977,-1.461153,-2.527498,58.084829,0.04126,-0.024734,1.000412,0.028004,-0.049267,-0.003574,61.054855,24.763275,-146.690857,,,
729608752.723249,-1.452821,-2.531513,58.083224,0.04126,-0.024734,1.000412,0.028069,-0.009267,-0.008416,61.054855,24.763275,-146.690857,,,
729608752.726568,-1.452821,-2.531513,58.083224,0.047546,-0.01799,0.996078,0.028069,-0.009267,-0.008416,61.054855,24.763275,-146.690857,,,
729608752.729922,-1.44686,-2.526913,58.081135,0.047546,-0.01799,0.996078,0.028069,-0.009267,-0.008416,61.054855,24.763275,-146.690857,,,
729608752.733272,-1.441365,-2.521125,58.079523,0.047546,-0.01799,0.996078,0.01884,0.023306,-0.008717,61.054855,24.763275,-146.690857,,,
729608752.73656,-1.441365,-2.505771,58.079687,0.041977,-0.022949,0.988892,0.01884,0.023306,-0.008717,61.054855,24.763275,-146.690857,,,
729608752.739909,-1.439699,-2.505771,58.079687,0.041977,-0.022949,0.988892,0.01884,0.023306,-0.008717,60.916321,24.714554,-146.764557,,,
729608752.743233,-1.438902,-2.493243,58.081765,0.041977,-0.022949,0.988892,0.005503,0.047089,0.008478,60.916321,24.714554,-146.764557,,,
729608752.746594,-1.438902,-2.493243,58.081765,0.032272,-0.030624,0.983109,0.005503,0.047089,0.008478,60.916321,24.714554,-146.764557,,,
