Time (sec),Pitch (deg),Roll (deg),Yaw(deg),X-Acceleration (g),Y-Acceleration (g),Z-Acceleration (g),Pitch Rate (deg/sec),Roll Rate (deg/sec),Yaw Rate (deg/sec),Magnetic Field in X direction (uT),Magnetic Field in Y direction (uT),Magnetic Field in Z Direction (uT),Latitude (deg),Longitude (deg),Altitude (m)
729600705.113636,2.117767,-0.423972,-0.70428,0.000839,0.031662,1.007492,-0.007171,-0.012245,0.004545,66.085953,8.579819,-147.446655,,,
729600705.116979,2.118226,-0.430182,-0.70036,-0.006317,0.027908,1.009796,0.009527,-0.022387,0.015485,66.085953,8.579819,-147.446655,,,
729600705.120347,2.121527,-0.439271,-0.695013,-0.006317,0.027908,1.009796,0.009527,-0.022387,0.015485,66.085953,8.579819,-147.446655,,,
729600705.123645,2.121527,-0.439271,-0.695013,-0.006317,0.027908,1.009796,0.009527,-0.022387,0.015485,66.085953,8.579819,-147.446655,,,
729600705.126964,2.125494,-0.450527,-0.689003,-0.011887,0.030838,1.001709,0.021851,-0.040884,0.020103,66.085953,8.579819,-147.446655,,,
729600705.130292,2.131965,-0.464453,-0.683077,-0.011887,0.030838,1.001709,0.021851,-0.040884,0.020103,66.085953,8.579819,-147.446655,,,
729600705.133635,2.131965,-0.464453,-0.683077,-0.011887,0.030838,1.001709,0.021851,-0.040884,0.020103,66.085953,8.579819,-147.446655,,,
729600705.137029,2.137814,-0.479093,-0.678685,-0.006775,0.04007,0.997772,0.026603,-0.055115,0.009709,66.085953,8.579819,-147.446655,,,
729600705.140288,2.144726,-0.496442,-0.675153,-0.006775,0.04007,0.997772,0.026603,-0.055115,0.009709,66.085953,8.579819,-147.446655,,,
729600705.143714,2.144726,-0.496442,-0.675153,-0.006775,0.04007,0.997772,0.026603,-0.055115,0.009709,66.085953,8.579819,-147.446655,,,
729600705.146956,2.150523,-0.511427,-0.671896,0.003601,0.047012,0.996475,0.026129,-0.051513,0.00825,65.941833,8.606369,-147.446686,,,
729600705.150312,2.158262,-0.525975,-0.66897,0.003601,0.047012,0.996475,0.026129,-0.051513,0.00825,65.941833,8.606369,-147.446686,,,
729600705.153697,2.158262,-0.525975,-0.66897,0.003601,0.047012,0.996475,0.026129,-0.051513,0.00825,65.941833,8.606369,-147.446686,,,
729600705.156975,2.164959,-0.536001,-0.665982,0.007339,0.042664,1.002716,0.025036,-0.032995,0.009151,65.941833,8.606369,-147.446686,,,
729600705.160299,2.171866,-0.544828,-0.662847,0.007339,0.042664,1.002716,0.025036,-0.032995,0.009151,65.941833,8.606369,-147.446686,,,
729600705.163636,2.171866,-0.544828,-0.662847,0.007339,0.042664,1.002716,0.025036,-0.032995,0.009151,65.941833,8.606369,-147.446686,,,
729600705.166995,2.177578,-0.548745,-0.658824,0.01561,0.040344,1.009323,0.02255,-0.009611,0.015713,65.941833,8.606369,-147.446686,,,
729600705.170347,2.184083,-0.550322,-0.653252,0.01561,0.040344,1.009323,0.02255,-0.009611,0.015713,65.941833,8.606369,-147.446686,,,
729600705.173648,2.184083,-0.550322,-0.653252,0.01561,0.040344,1.009323,0.02255,-0.009611,0.015713,65.941833,8.606369,-147.446686,,,
729600705.177041,2.189893,-0.546604,-0.646404,0.017426,0.038925,1.009079,0.024607,0.018318,0.024875,65.941833,8.606369,-147.446686,,,
729600705.180296,2.197345,-0.540755,-0.638689,0.017426,0.038925,1.009079,0.024607,0.018318,0.024875,65.941833,8.606369,-147.446686,,,
729600705.183644,2.197345,-0.540755,-0.638689,0.017426,0.038925,1.009079,0.024607,0.018318,0.024875,65.941833,8.606369,-147.446686,,,
729600705.187006,2.20447,-0.529527,-0.630792,0.014771,0.039902,1.012863,0.03237,0.041687,0.026634,65.857056,8.736893,-147.249863,,,
729600705.19029,2.214358,-0.518728,-0.62256,0.014771,0.039902,1.012863,0.03237,0.041687,0.026634,65.857056,8.736893,-147.249863,,,
729600705.193628,2.214358,-0.518728,-0.62256,0.014771,0.039902,1.012863,0.03237,0.041687,0.026634,65.857056,8.736893,-147.249863,,,
729600705.196975,2.224035,-0.504768,-0.61387,0.008148,0.039093,1.013779,0.045602,0.040021,0.030659,65.857056,8.736893,-147.249863,,,
729600705.200292,2.238321,-0.495494,-0.605093,0.008148,0.039093,1.013779,0.045602,0.040021,0.030659,65.857056,8.736893,-147.249863,,,
729600705.203692,2.238321,-0.495494,-0.605093,0.008148,0.039093,1.013779,0.045602,0.040021,0.030659,65.857056,8.736893,-147.249863,,,
729600705.20697,2.254424,-0.484964,-0.597355,0.008606,0.035522,1.007431,0.063015,0.023084,0.024283,65.857056,8.736893,-147.249863,,,
729600705.210387,2.272855,-0.481047,-0.590467,0.008606,0.035522,1.007431,0.063015,0.023084,0.024283,65.857056,8.736893,-147.249863,,,
729600705.213635,2.272855,-0.481047,-0.590467,0.008606,0.035522,1.007431,0.063015,0.023084,0.024283,65.857056,8.736893,-147.249863,,,
729600705.216997,2.29254,-0.478641,-0.584356,0.006012,0.033249,1.001633,0.068209,-0.002906,0.019442,65.857056,8.736893,-147.249863,,,
729600705.220323,2.311741,-0.482759,-0.578696,0.006012,0.033249,1.001633,0.068209,-0.002906,0.019442,65.857056,8.736893,-147.249863,,,
729600705.223683,2.311741,-0.482759,-0.578696,0.006012,0.033249,1.001633,0.068209,-0.002906,0.019442,65.857056,8.736893,-147.249863,,,
729600705.22698,2.331274,-0.489885,-0.574073,0.001617,0.031342,0.994949,0.062568,-0.027722,0.012423,65.834732,8.620468,-147.54335,,,
729600705.23033,2.348024,-0.500576,-0.570291,0.001617,0.031342,0.994949,0.062568,-0.027722,0.012423,65.834732,8.620468,-147.54335,,,
729600705.23364,2.348024,-0.500576,-0.570291,0.001617,0.031342,0.994949,0.062568,-0.027722,0.012423,65.834732,8.620468,-147.54335,,,
729600705.237014,2.362982,-0.513597,-0.566857,0.00647,0.029266,0.994034,0.050092,-0.043521,0.010065,65.834732,8.620468,-147.54335,,,
729600705.240291,2.376224,-0.527309,-0.563259,0.00647,0.029266,0.994034,0.050092,-0.043521,0.010065,65.834732,8.620468,-147.54335,,,
729600705.243718,2.376224,-0.527309,-0.563259,0.00647,0.029266,0.994034,0.050092,-0.043521,0.010065,65.834732,8.620468,-147.54335,,,
729600705.246967,2.388456,-0.542409,-0.558963,0.007599,0.027618,0.993347,0.045586,-0.042731,0.014539,65.834732,8.620468,-147.54335,,,
729600705.250309,2.401324,-0.554955,-0.554385,0.007599,0.027618,0.993347,0.045586,-0.042731,0.014539,65.834732,8.620468,-147.54335,,,
729600705.253679,2.401324,-0.554955,-0.554385,0.007599,0.027618,0.993347,0.045586,-0.042731,0.014539,65.834732,8.620468,-147.54335,,,
729600705.256961,2.413192,-0.56636,-0.549964,0.013885,0.028656,1.003616,0.042149,-0.026232,0.013067,65.834732,8.620468,-147.54335,,,
729600705.260306,2.424889,-0.573136,-0.545099,0.013885,0.028656,1.003616,0.042149,-0.026232,0.013067,65.834732,8.620468,-147.54335,,,
729600705.263694,2.424889,-0.573136,-0.545099,0.013885,0.028656,1.003616,0.042149,-0.026232,0.013067,65.834732,8.620468,-147.54335,,,
729600705.266994,2.435098,-0.577389,-0.539667,0.022461,0.03183,1.003265,0.035455,-0.004945,0.016917,65.791199,8.566559,-147.825989,,,
729600705.270345,2.443983,-0.579104,-0.533595,0.022461,0.03183,1.003265,0.035455,-0.004945,0.016917,65.791199,8.566559,-147.825989,,,
729600705.273653,2.443983,-0.579104,-0.533595,0.022461,0.03183,1.003265,0.035455,-0.004945,0.016917,65.791199,8.566559,-147.825989,,,
729600705.276964,2.450144,-0.579048,-0.526595,0.019592,0.034637,0.996567,0.023865,0.004254,0.023659,65.791199,8.566559,-147.825989,,,
729600705.280294,2.456569,-0.57925,-0.519167,0.019592,0.034637,0.996567,0.023865,0.004254,0.023659,65.791199,8.566559,-147.825989,,,
729600705.283635,2.456569,-0.57925,-0.519167,0.019592,0.034637,0.996567,0.023865,0.004254,0.023659,65.791199,8.566559,-147.825989,,,
729600705.287039,2.46128,-0.579794,-0.512152,0.020523,0.035736,0.992966,0.022455,-4.4e-05,0.020895,65.791199,8.566559,-147.825989,,,
729600705.290325,2.467367,-0.581508,-0.506617,0.020523,0.035736,0.992966,0.022455,-4.4e-05,0.020895,65.791199,8.566559,-147.825989,,,
729600705.293633,2.467367,-0.581508,-0.506617,0.020523,0.035736,0.992966,0.022455,-4.4e-05,0.020895,65.791199,8.566559,-147.825989,,,
729600705.296981,2.471466,-0.582615,-0.50299,0.027054,0.036514,0.99437,0.021578,-0.005997,0.008066,65.791199,8.566559,-147.825989,,,
729600705.300285,2.477734,-0.585908,-0.500907,0.027054,0.036514,0.99437,0.021578,-0.005997,0.008066,65.791199,8.566559,-147.825989,,,
729600705.303645,2.477734,-0.585908,-0.500907,0.027054,0.036514,0.99437,0.021578,-0.005997,0.008066,65.791199,8.566559,-147.825989,,,
729600705.306993,2.482539,-0.588253,-0.50008,0.025467,0.032059,0.995209,0.027585,-0.009216,-0.000322,65.791199,8.566559,-147.825989,,,
729600705.3103,2.49182,-0.592037,-0.499632,0.025467,0.032059,0.995209,0.027585,-0.009216,-0.000322,65.77623,8.473648,-147.757599,,,
729600705.313706,2.49182,-0.592037,-0.499632,0.025467,0.032059,0.995209,0.027585,-0.009216,-0.000322,65.77623,8.473648,-147.757599,,,
729600705.316956,2.501216,-0.595033,-0.499049,0.024277,0.029282,0.998474,0.046973,-0.00717,0.000519,65.77623,8.473648,-147.757599,,,
729600705.320377,2.515026,-0.597152,-0.498234,0.024277,0.029282,0.998474,0.046973,-0.00717,0.000519,65.77623,8.473648,-147.757599,,,
729600705.323666,2.515026,-0.597152,-0.498234,0.024277,0.029282,0.998474,0.046973,-0.00717,0.000519,65.77623,8.473648,-147.757599,,,
729600705.326972,2.526604,-0.597525,-0.496758,0.026215,0.033463,0.999603,0.05236,0.004213,0.00507,65.77623,8.473648,-147.757599,,,
729600705.330318,2.540792,-0.596986,-0.494119,0.026215,0.033463,0.999603,0.05236,0.004213,0.00507,65.77623,8.473648,-147.757599,,,
729600705.333703,2.540792,-0.596986,-0.494119,0.026215,0.033463,0.999603,0.05236,0.004213,0.00507,65.77623,8.473648,-147.757599,,,
729600705.336915,2.55055,-0.596784,-0.490787,0.02475,0.041702,0.987595,0.040488,0.011212,0.009615,65.77623,8.473648,-147.757599,,,
729600705.340347,2.560174,-0.593883,-0.487507,0.02475,0.041702,0.987595,0.040488,0.011212,0.009615,65.77623,8.473648,-147.757599,,,
729600705.34366,2.560174,-0.593883,-0.487507,0.02475,0.041702,0.987595,0.040488,0.011212,0.009615,65.77623,8.473648,-147.757599,,,
729600705.346984,2.563522,-0.592149,-0.485169,0.025223,0.051056,0.973557,0.011093,0.017819,0.002713,65.77623,8.473648,-147.757599,,,
729600705.350362,2.564616,-0.587921,-0.48375,0.025223,0.051056,0.973557,0.011093,0.017819,0.002713,65.869034,8.386871,-147.599579,,,
729600705.35369,2.564616,-0.587921,-0.48375,0.025223,0.051056,0.973557,0.011093,0.017819,0.002713,65.869034,8.386871,-147.599579,,,
729600705.356958,2.560938,-0.584883,-0.482443,0.024994,0.057068,0.967529,-0.010866,0.019936,0.001707,65.869034,8.386871,-147.599579,,,
729600705.360354,2.55636,-0.579961,-0.482086,0.024994,0.057068,0.967529,-0.010866,0.019936,0.001707,65.869034,8.386871,-147.599579,,,
729600705.363698,2.55636,-0.579961,-0.482086,0.024994,0.057068,0.967529,-0.010866,0.019936,0.001707,65.869034,8.386871,-147.599579,,,
729600705.36698,2.548364,-0.577825,-0.482347,0.021454,0.050217,0.97261,-0.024275,0.017342,-0.003223,65.869034,8.386871,-147.599579,,,
729600705.370363,2.540771,-0.574862,-0.482711,0.021454,0.050217,0.97261,-0.024275,0.017342,-0.003223,65.869034,8.386871,-147.599579,,,
729600705.373636,2.540771,-0.574862,-0.482711,0.021454,0.050217,0.97261,-0.024275,0.017342,-0.003223,65.869034,8.386871,-147.599579,,,
729600705.377024,2.53151,-0.57712,-0.482455,0.018112,0.048752,0.975693,-0.024065,0.002446,0.000169,65.869034,8.386871,-147.599579,,,
729600705.3803,2.524574,-0.578751,-0.481844,0.018112,0.048752,0.975693,-0.024065,0.002446,0.000169,65.869034,8.386871,-147.599579,,,
729600705.383643,2.524574,-0.578751,-0.481844,0.018112,0.048752,0.975693,-0.024065,0.002446,0.000169,65.869034,8.386871,-147.599579,,,
729600705.387026,2.515842,-0.585622,-0.480899,0.016495,0.047714,0.980042,-0.020361,-0.014745,0.001606,65.869034,8.386871,-147.599579,,,
729600705.390291,2.510276,-0.591734,-0.480975,0.016495,0.047714,0.980042,-0.020361,-0.014745,0.001606,65.86348,8.371826,-147.670837,,,
729600705.393624,2.510276,-0.591734,-0.480975,0.016495,0.047714,0.980042,-0.020361,-0.014745,0.001606,65.86348,8.371826,-147.670837,,,
729600705.396988,2.502814,-0.602243,-0.482608,0.019699,0.05188,0.983994,-0.016704,-0.028179,-0.010021,65.86348,8.371826,-147.670837,,,
729600705.400342,2.498198,-0.612177,-0.48605,0.019699,0.05188,0.983994,-0.016704,-0.028179,-0.010021,65.86348,8.371826,-147.670837,,,
729600705.403668,2.498198,-0.612177,-0.48605,0.019699,0.05188,0.983994,-0.016704,-0.028179,-0.010021,65.86348,8.371826,-147.670837,,,
729600705.406959,2.494101,-0.626696,-0.491047,0.025284,0.055023,0.987366,-0.004504,-0.041307,-0.021806,65.86348,8.371826,-147.670837,,,
729600705.410345,2.493156,-0.63895,-0.497086,0.025284,0.055023,0.987366,-0.004504,-0.041307,-0.021806,65.86348,8.371826,-147.670837,,,
729600705.413673,2.493156,-0.63895,-0.497086,0.025284,0.055023,0.987366,-0.004504,-0.041307,-0.021806,65.86348,8.371826,-147.670837,,,
729600705.416721,2.493266,-0.652906,-0.503201,0.020996,0.053513,0.995377,8e-06,-0.03804,-0.02304,65.86348,8.371826,-147.670837,,,
729600705.420376,2.493172,-0.663149,-0.509201,0.020996,0.053513,0.995377,8e-06,-0.03804,-0.02304,65.86348,8.371826,-147.670837,,,
729600705.423617,2.493172,-0.663149,-0.509201,0.020996,0.053513,0.995377,8e-06,-0.03804,-0.02304,65.86348,8.371826,-147.670837,,,
729600705.426968,2.494553,-0.672617,-0.514378,0.013947,0.050613,0.998093,-0.003335,-0.015523,-0.018019,65.86348,8.371826,-147.670837,,,
729600705.430342,2.493401,-0.676717,-0.518325,0.013947,0.050613,0.998093,-0.003335,-0.015523,-0.018019,65.86348,8.371826,-147.670837,,,
729600705.433634,2.493401,-0.676717,-0.518325,0.013947,0.050613,0.998093,-0.003335,-0.015523,-0.018019,65.610352,8.341919,-147.673462,,,
729600705.437088,2.492987,-0.680508,-0.520671,0.009491,0.049789,0.998764,-0.013494,0.000811,-0.007364,65.610352,8.341919,-147.673462,,,
729600705.440334,2.487987,-0.68027,-0.521582,0.009491,0.049789,0.998764,-0.013494,0.000811,-0.007364,65.610352,8.341919,-147.673462,,,
729600705.44365,2.487987,-0.68027,-0.521582,0.009491,0.049789,0.998764,-0.013494,0.000811,-0.007364,65.610352,8.341919,-147.673462,,,
729600705.44698,2.481723,-0.679186,-0.521651,0.005417,0.048279,0.996338,-0.031112,0.017421,-0.001714,65.610352,8.341919,-147.673462,,,
729600705.45035,2.481723,-0.67409,-0.521957,0.005417,0.048279,0.996338,-0.031112,0.017421,-0.001714,65.610352,8.341919,-147.673462,,,
729600705.453676,2.471588,-0.67409,-0.521957,0.005417,0.048279,0.996338,-0.031112,0.017421,-0.001714,65.610352,8.341919,-147.673462,,,
729600705.456972,2.460467,-0.668295,-0.522766,0.000153,0.045227,0.997223,-0.045359,0.027554,-0.005295,65.610352,8.341919,-147.673462,,,
729600705.460335,2.447461,-0.661812,-0.525224,0.000153,0.045227,0.997223,-0.045359,0.027554,-0.005295,65.610352,8.341919,-147.673462,,,
729600705.463704,2.447461,-0.661812,-0.525224,0.000153,0.045227,0.997223,-0.045359,0.027554,-0.005295,65.610352,8.341919,-147.673462,,,
729600705.466968,2.436269,-0.657599,-0.528829,-0.0009,0.04483,1.003159,-0.042003,0.018788,-0.013687,65.610352,8.341919,-147.673462,,,
729600705.470402,2.42549,-0.654609,-0.532747,-0.0009,0.04483,1.003159,-0.042003,0.018788,-0.013687,65.610352,8.341919,-147.673462,,,
729600705.473646,2.42549,-0.654609,-0.532747,-0.0009,0.04483,1.003159,-0.042003,0.018788,-0.013687,65.781982,8.314484,-147.621948,,,
729600705.477025,2.420292,-0.656003,-0.536784,-0.006088,0.037872,1.006073,-0.018702,0.001887,-0.015364,65.781982,8.314484,-147.621948,,,
729600705.480291,2.420292,-0.656003,-0.536784,-0.006088,0.037872,1.006073,-0.018702,0.001887,-0.015364,65.781982,8.314484,-147.621948,,,
729600705.48363,2.417033,-0.6581,-0.540963,-0.006088,0.037872,1.006073,-0.018702,0.001887,-0.015364,65.781982,8.314484,-147.621948,,,
729600705.487015,2.419878,-0.666026,-0.544281,-0.010712,0.032303,1.01149,0.007904,-0.022018,-0.010364,65.781982,8.314484,-147.621948,,,
729600705.490363,2.419878,-0.674549,-0.546471,-0.010712,0.032303,1.01149,0.007904,-0.022018,-0.010364,65.781982,8.314484,-147.621948,,,
729600705.493631,2.423875,-0.674549,-0.546471,-0.010712,0.032303,1.01149,0.007904,-0.022018,-0.010364,65.781982,8.314484,-147.621948,,,
729600705.497005,2.432849,-0.687446,-0.548014,-0.010757,0.029099,1.012039,0.029805,-0.044345,-0.006466,65.781982,8.314484,-147.621948,,,
729600705.500328,2.432849,-0.687446,-0.548014,-0.010757,0.029099,1.012039,0.029805,-0.044345,-0.006466,65.781982,8.314484,-147.621948,,,
729600705.503666,2.442359,-0.703047,-0.548545,-0.010757,0.029099,1.012039,0.029805,-0.044345,-0.006466,65.781982,8.314484,-147.621948,,,
729600705.507053,2.454862,-0.721529,-0.548722,-0.009247,0.029556,1.007904,0.040922,-0.065202,-0.004147,65.781982,8.314484,-147.621948,,,
729600705.510308,2.454862,-0.721529,-0.548722,-0.009247,0.029556,1.007904,0.040922,-0.065202,-0.004147,65.781982,8.314484,-147.621948,,,
729600705.513634,2.467199,-0.741295,-0.549887,-0.009247,0.029556,1.007904,0.040922,-0.065202,-0.004147,65.677933,8.556519,-147.710693,,,
729600705.516969,2.481361,-0.759947,-0.551968,0.000168,0.03717,1.005936,0.044317,-0.063127,-0.010383,65.677933,8.556519,-147.710693,,,
729600705.520346,2.481361,-0.759947,-0.551968,0.000168,0.03717,1.005936,0.044317,-0.063127,-0.010383,65.677933,8.556519,-147.710693,,,
729600705.523623,2.494203,-0.777679,-0.554832,0.000168,0.03717,1.005936,0.044317,-0.063127,-0.010383,65.677933,8.556519,-147.710693,,,
729600705.526968,2.507387,-0.790932,-0.558156,0.008392,0.039505,1.007095,0.042519,-0.044718,-0.013075,65.677933,8.556519,-147.710693,,,
729600705.530321,2.507387,-0.790932,-0.558156,0.008392,0.039505,1.007095,0.042519,-0.044718,-0.013075,65.677933,8.556519,-147.710693,,,
729600705.533644,2.518122,-0.803329,-0.56104,0.008392,0.039505,1.007095,0.042519,-0.044718,-0.013075,65.677933,8.556519,-147.710693,,,
729600705.537025,2.526938,-0.809529,-0.562595,0.004562,0.037964,1.002701,0.027933,-0.019039,-0.002888,65.677933,8.556519,-147.710693,,,
729600705.540316,2.526938,-0.809529,-0.562595,0.004562,0.037964,1.002701,0.027933,-0.019039,-0.002888,65.677933,8.556519,-147.710693,,,
729600705.543661,2.533681,-0.814124,-0.56138,0.004562,0.037964,1.002701,0.027933,-0.019039,-0.002888,65.677933,8.556519,-147.710693,,,
729600705.546832,2.537501,-0.812323,-0.557554,0.001831,0.039795,1.001099,0.010486,0.006549,0.016418,65.677933,8.556519,-147.710693,,,
729600705.550329,2.537501,-0.812323,-0.557554,0.001831,0.039795,1.001099,0.010486,0.006549,0.016418,65.677933,8.556519,-147.710693,,,
729600705.553697,2.539466,-0.811382,-0.551062,0.001831,0.039795,1.001099,0.010486,0.006549,0.016418,65.694443,8.277298,-147.61528,,,
729600705.556965,2.537045,-0.805701,-0.543084,0.00412,0.043655,0.995163,-0.007634,0.010873,0.028283,65.694443,8.277298,-147.61528,,,
729600705.560311,2.537045,-0.805701,-0.543084,0.00412,0.043655,0.995163,-0.007634,0.010873,0.028283,65.694443,8.277298,-147.61528,,,
729600705.563634,2.535064,-0.80373,-0.534537,0.00412,0.043655,0.995163,-0.007634,0.010873,0.028283,65.694443,8.277298,-147.61528,,,
729600705.566958,2.531301,-0.79711,-0.526971,0.010269,0.045273,0.991867,-0.003241,0.011908,0.022743,65.694443,8.277298,-147.61528,,,
729600705.570352,2.531301,-0.79711,-0.526971,0.010269,0.045273,0.991867,-0.003241,0.011908,0.022743,65.694443,8.277298,-147.61528,,,
729600705.573639,2.531011,-0.795198,-0.521686,0.010269,0.045273,0.991867,-0.003241,0.011908,0.022743,65.694443,8.277298,-147.61528,,,
729600705.57696,2.529721,-0.789437,-0.519175,0.01918,0.046646,0.998764,0.009757,0.00702,0.004649,65.694443,8.277298,-147.61528,,,
729600705.580363,2.529721,-0.789437,-0.519175,0.01918,0.046646,0.998764,0.009757,0.00702,0.004649,65.694443,8.277298,-147.61528,,,
729600705.583613,2.533127,-0.7889,-0.517606,0.01918,0.046646,0.998764,0.009757,0.00702,0.004649,65.694443,8.277298,-147.61528,,,
729600705.587029,2.535923,-0.785339,-0.516636,0.017822,0.04686,0.996521,0.021239,0.003103,0.00146,65.694443,8.277298,-147.61528,,,
729600705.5903,2.535923,-0.785339,-0.516636,0.017822,0.04686,0.996521,0.021239,0.003103,0.00146,65.694443,8.277298,-147.61528,,,
729600705.59366,2.543348,-0.785766,-0.515103,0.017822,0.04686,0.996521,0.021239,0.003103,0.00146,65.694443,8.277298,-147.61528,,,
729600705.596955,2.551951,-0.785353,-0.512644,0.010818,0.043762,0.998672,0.036948,-0.001335,0.008184,65.638351,8.47966,-147.733719,,,
729600705.600297,2.551951,-0.785353,-0.512644,0.010818,0.043762,0.998672,0.036948,-0.001335,0.008184,65.638351,8.47966,-147.733719,,,
729600705.603664,2.562185,-0.787325,-0.508398,0.010818,0.043762,0.998672,0.036948,-0.001335,0.008184,65.638351,8.47966,-147.733719,,,
729600705.606961,2.570586,-0.789084,-0.501034,0.006744,0.050262,0.99147,0.031534,-0.006225,0.030322,65.638351,8.47966,-147.733719,,,
729600705.610294,2.570586,-0.789084,-0.501034,0.006744,0.050262,0.99147,0.031534,-0.006225,0.030322,65.638351,8.47966,-147.733719,,,
729600705.613638,2.577634,-0.792274,-0.490931,0.006744,0.050262,0.99147,0.031534,-0.006225,0.030322,65.638351,8.47966,-147.733719,,,
729600705.616959,2.579386,-0.795118,-0.478658,-0.000504,0.053024,0.97757,0.004486,-0.016425,0.046442,65.638351,8.47966,-147.733719,,,
729600705.620362,2.579386,-0.795118,-0.478658,-0.000504,0.053024,0.97757,0.004486,-0.016425,0.046442,65.638351,8.47966,-147.733719,,,
729600705.623677,2.578878,-0.802779,-0.464939,-0.000504,0.053024,0.97757,0.004486,-0.016425,0.046442,65.638351,8.47966,-147.733719,,,
729600705.626968,2.57469,-0.809751,-0.451973,0.006683,0.060028,0.971207,-0.015903,-0.026748,0.04216,65.638351,8.47966,-147.733719,,,
729600705.630312,2.57469,-0.809751,-0.451973,0.006683,0.060028,0.971207,-0.015903,-0.026748,0.04216,65.638351,8.47966,-147.733719,,,
729600705.633703,2.569271,-0.819057,-0.440623,0.006683,0.060028,0.971207,-0.015903,-0.026748,0.04216,65.638351,8.47966,-147.733719,,,
729600705.637011,2.56408,-0.827354,-0.432183,0.022705,0.063904,0.979248,-0.014831,-0.030768,0.022391,65.594543,8.408234,-147.661972,,,
729600705.640283,2.56408,-0.827354,-0.432183,0.022705,0.063904,0.979248,-0.014831,-0.030768,0.022391,65.594543,8.408234,-147.661972,,,
729600705.643652,2.560298,-0.836336,-0.426574,0.022705,0.063904,0.979248,-0.014831,-0.030768,0.022391,65.594543,8.408234,-147.661972,,,
729600705.646961,2.559192,-0.843974,-0.422565,0.030258,0.060013,0.995316,0.00192,-0.023506,0.011058,65.594543,8.408234,-147.661972,,,
729600705.650312,2.559192,-0.843974,-0.422565,0.030258,0.060013,0.995316,0.00192,-0.023506,0.011058,65.594543,8.408234,-147.661972,,,
729600705.653689,2.560705,-0.850938,-0.419337,0.030258,0.060013,0.995316,0.00192,-0.023506,0.011058,65.594543,8.408234,-147.661972,,,
729600705.65696,2.563951,-0.858094,-0.416343,0.025986,0.053513,1.004013,0.011619,-0.016684,0.008937,65.594543,8.408234,-147.661972,,,
729600705.660351,2.563951,-0.858094,-0.416343,0.025986,0.053513,1.004013,0.011619,-0.016684,0.008937,65.594543,8.408234,-147.661972,,,
729600705.663648,2.566995,-0.863936,-0.413239,0.025986,0.053513,1.004013,0.011619,-0.016684,0.008937,65.594543,8.408234,-147.661972,,,
729600705.666961,2.569773,-0.8695,-0.409506,0.02211,0.054413,0.993591,0.009131,-0.015514,0.013381,65.594543,8.408234,-147.661972,,,
729600705.670333,2.569773,-0.8695,-0.409506,0.02211,0.054413,0.993591,0.009131,-0.015514,0.013381,65.594543,8.408234,-147.661972,,,
729600705.673634,2.569874,-0.875359,-0.405415,0.02211,0.054413,0.993591,0.009131,-0.015514,0.013381,65.594543,8.408234,-147.661972,,,
729600705.676964,2.566117,-0.880808,-0.401288,0.018814,0.061035,0.982925,-0.019051,-0.019736,0.014318,65.646332,8.559067,-147.539276,,,
729600705.680299,2.566117,-0.880808,-0.401288,0.018814,0.061035,0.982925,-0.019051,-0.019736,0.014318,65.646332,8.559067,-147.539276,,,
729600705.683704,2.557911,-0.887958,-0.396415,0.018814,0.061035,0.982925,-0.019051,-0.019736,0.014318,65.646332,8.559067,-147.539276,,,
729600705.686993,2.546522,-0.893237,-0.391085,0.015732,0.066254,0.972885,-0.050944,-0.022196,0.018737,65.646332,8.559067,-147.539276,,,
729600705.690289,2.546522,-0.893237,-0.391085,0.015732,0.066254,0.972885,-0.050944,-0.022196,0.018737,65.646332,8.559067,-147.539276,,,
729600705.693644,2.53006,-0.900784,-0.385738,0.015732,0.066254,0.972885,-0.050944,-0.022196,0.018737,65.646332,8.559067,-147.539276,,,
729600705.696963,2.512216,-0.90517,-0.38103,0.021179,0.068207,0.975006,-0.074701,-0.018938,0.015469,65.646332,8.559067,-147.539276,,,
729600705.700291,2.512216,-0.90517,-0.38103,0.021179,0.068207,0.975006,-0.074701,-0.018938,0.015469,65.646332,8.559067,-147.539276,,,
729600705.703688,2.489638,-0.910882,-0.377035,0.021179,0.068207,0.975006,-0.074701,-0.018938,0.015469,65.646332,8.559067,-147.539276,,,
729600705.706951,2.469709,-0.914413,-0.374179,0.027985,0.064224,0.985275,-0.081484,-0.008005,0.00785,65.646332,8.559067,-147.539276,,,
729600705.710287,2.469709,-0.914413,-0.374179,0.027985,0.064224,0.985275,-0.081484,-0.008005,0.00785,65.646332,8.559067,-147.539276,,,
729600705.713625,2.446755,-0.916378,-0.371939,0.027985,0.064224,0.985275,-0.081484,-0.008005,0.00785,65.646332,8.559067,-147.539276,,,
729600705.716958,2.42893,-0.917128,-0.370668,0.028046,0.05661,0.999619,-0.072439,0.015566,0.000342,65.514725,8.593597,-147.555267,,,
729600705.720383,2.42893,-0.917128,-0.370668,0.028046,0.05661,0.999619,-0.072439,0.015566,0.000342,65.514725,8.593597,-147.555267,,,
729600705.723637,2.40935,-0.911681,-0.370548,0.028046,0.05661,0.999619,-0.072439,0.015566,0.000342,65.514725,8.593597,-147.555267,,,
729600705.726959,2.395818,-0.905056,-0.370497,0.023407,0.049301,1.014984,-0.048342,0.040688,-0.001251,65.514725,8.593597,-147.555267,,,
729600705.730299,2.395818,-0.905056,-0.370497,0.023407,0.049301,1.014984,-0.048342,0.040688,-0.001251,65.514725,8.593597,-147.555267,,,
729600705.733621,2.383821,-0.893306,-0.37095,0.023407,0.049301,1.014984,-0.048342,0.040688,-0.001251,65.514725,8.593597,-147.555267,,,
729600705.737,2.378393,-0.881554,-0.371091,0.015198,0.042938,1.021561,-0.01609,0.051262,-1e-05,65.514725,8.593597,-147.555267,,,
729600705.740291,2.378393,-0.881554,-0.371091,0.015198,0.042938,1.021561,-0.01609,0.051262,-1e-05,65.514725,8.593597,-147.555267,,,
729600705.743642,2.375889,-0.866827,-0.370893,0.015198,0.042938,1.021561,-0.01609,0.051262,-1e-05,65.514725,8.593597,-147.555267,,,
729600705.746962,2.380155,-0.851515,-0.370174,0.01149,0.042358,1.018921,0.011589,0.062423,0.002917,65.514725,8.593597,-147.555267,,,
729600705.750287,2.380155,-0.851515,-0.370174,0.01149,0.042358,1.018921,0.011589,0.062423,0.002917,65.514725,8.593597,-147.555267,,,
729600705.753741,2.385297,-0.834654,-0.368105,0.01149,0.042358,1.018921,0.011589,0.062423,0.002917,65.514725,8.593597,-147.555267,,,
729600705.756995,2.397617,-0.81805,-0.364702,0.007172,0.040741,1.01326,0.033021,0.06594,0.011685,65.514725,8.593597,-147.555267,,,
729600705.760416,2.397617,-0.81805,-0.364702,0.007172,0.040741,1.01326,0.033021,0.06594,0.011685,65.878174,8.63562,-147.632751,,,
729600705.763722,2.407764,-0.799932,-0.36063,0.007172,0.040741,1.01326,0.033021,0.06594,0.011685,65.878174,8.63562,-147.632751,,,
729600705.766969,2.423705,-0.782737,-0.35563,0.000702,0.041016,1.0047,0.040141,0.06312,0.017927,65.878174,8.63562,-147.632751,,,
729600705.770388,2.423705,-0.782737,-0.35563,0.000702,0.041016,1.0047,0.040141,0.06312,0.017927,65.878174,8.63562,-147.632751,,,
729600705.773672,2.434677,-0.766319,-0.349408,0.000702,0.041016,1.0047,0.040141,0.06312,0.017927,65.878174,8.63562,-147.632751,,,
729600705.776968,2.45,-0.753597,-0.342149,-0.002945,0.039688,0.997025,0.037067,0.052666,0.024564,65.878174,8.63562,-147.632751,,,
729600705.780295,2.45,-0.753597,-0.342149,-0.002945,0.039688,0.997025,0.037067,0.052666,0.024564,65.878174,8.63562,-147.632751,,,
729600705.783679,2.459516,-0.740631,-0.334095,-0.002945,0.039688,0.997025,0.037067,0.052666,0.024564,65.878174,8.63562,-147.632751,,,
729600705.787025,2.470404,-0.732294,-0.324483,-0.007706,0.039368,0.987854,0.024416,0.03974,0.03474,65.878174,8.63562,-147.632751,,,
729600705.790302,2.470404,-0.732294,-0.324483,-0.007706,0.039368,0.987854,0.024416,0.03974,0.03474,65.878174,8.63562,-147.632751,,,
729600705.793643,2.474754,-0.722723,-0.313615,-0.007706,0.039368,0.987854,0.024416,0.03974,0.03474,65.878174,8.63562,-147.632751,,,
729600705.79696,2.476062,-0.716819,-0.302731,-0.007019,0.040924,0.977921,-0.009289,0.031906,0.034454,65.878174,8.63562,-147.632751,,,
729600705.800289,2.476062,-0.716819,-0.302731,-0.007019,0.040924,0.977921,-0.009289,0.031906,0.034454,65.78006,8.691727,-147.899139,,,
729600705.803681,2.4712,-0.709656,-0.292168,-0.007019,0.040924,0.977921,-0.009289,0.031906,0.034454,65.78006,8.691727,-147.899139,,,
729600705.806988,2.463715,-0.705641,-0.280998,-0.004044,0.04808,0.976349,-0.031636,0.019011,0.038559,65.78006,8.691727,-147.899139,,,
729600705.810299,2.463715,-0.705641,-0.280998,-0.004044,0.04808,0.976349,-0.031636,0.019011,0.038559,65.78006,8.691727,-147.899139,,,
729600705.81365,2.453635,-0.702588,-0.269949,-0.004044,0.04808,0.976349,-0.031636,0.019011,0.038559,65.78006,8.691727,-147.899139,,,
729600705.816971,2.442013,-0.7014,-0.259634,0.005829,0.052505,0.98201,-0.040502,0.006528,0.033542,65.78006,8.691727,-147.899139,,,
729600705.820424,2.442013,-0.7014,-0.259634,0.005829,0.052505,0.98201,-0.040502,0.006528,0.033542,65.78006,8.691727,-147.899139,,,
729600705.823637,2.430431,-0.70139,-0.250206,0.005829,0.052505,0.98201,-0.040502,0.006528,0.033542,65.78006,8.691727,-147.899139,,,
729600705.826962,2.419185,-0.701937,-0.241711,0.013474,0.045944,0.992111,-0.036116,-0.000128,0.027118,65.78006,8.691727,-147.899139,,,
729600705.830325,2.419185,-0.701937,-0.241711,0.013474,0.045944,0.992111,-0.036116,-0.000128,0.027118,65.78006,8.691727,-147.899139,,,
729600705.833683,2.409831,-0.703585,-0.233847,0.013474,0.045944,0.992111,-0.036116,-0.000128,0.027118,65.78006,8.691727,-147.899139,,,
729600705.837074,2.403227,-0.705054,-0.225983,0.013428,0.035416,1.003754,-0.015219,-0.008015,0.02728,65.78006,8.691727,-147.899139,,,
729600705.840317,2.403227,-0.705054,-0.225983,0.013428,0.035416,1.003754,-0.015219,-0.008015,0.02728,65.768127,8.736435,-148.010437,,,
729600705.8437,2.400898,-0.710552,-0.217088,0.013428,0.035416,1.003754,-0.015219,-0.008015,0.02728,65.768127,8.736435,-148.010437,,,
729600705.846965,2.402107,-0.716241,-0.207291,0.011749,0.027161,1.009705,0.011212,-0.025709,0.033925,65.768127,8.736435,-148.010437,,,
729600705.850309,2.402107,-0.716241,-0.207291,0.011749,0.027161,1.009705,0.011212,-0.025709,0.033925,65.768127,8.736435,-148.010437,,,
729600705.853689,2.406018,-0.726268,-0.196741,0.011749,0.027161,1.009705,0.011212,-0.025709,0.033925,65.768127,8.736435,-148.010437,,,
729600705.856955,2.410857,-0.734987,-0.185447,0.013016,0.021729,1.009796,0.021128,-0.037714,0.039815,65.768127,8.736435,-148.010437,,,
729600705.860291,2.410857,-0.734987,-0.185447,0.013016,0.021729,1.009796,0.021128,-0.037714,0.039815,65.768127,8.736435,-148.010437,,,
729600705.863627,2.417115,-0.747811,-0.173858,0.013016,0.021729,1.009796,0.021128,-0.037714,0.039815,65.768127,8.736435,-148.010437,,,
729600705.866962,2.4228,-0.75832,-0.162509,0.010773,0.019791,1.003952,0.019395,-0.046718,0.039185,65.768127,8.736435,-148.010437,,,
729600705.870399,2.4228,-0.75832,-0.162509,0.010773,0.019791,1.003952,0.019395,-0.046718,0.039185,65.768127,8.736435,-148.010437,,,
729600705.873629,2.427326,-0.77366,-0.150789,0.010773,0.019791,1.003952,0.019395,-0.046718,0.039185,65.768127,8.736435,-148.010437,,,
729600705.876966,2.429826,-0.786008,-0.1396,0.00882,0.018692,0.997055,0.001803,-0.049895,0.036754,65.768127,8.736435,-148.010437,,,
729600705.880313,2.429826,-0.786008,-0.1396,0.00882,0.018692,0.997055,0.001803,-0.049895,0.036754,65.768127,8.736435,-148.010437,,,
729600705.883704,2.42841,-0.80069,-0.128173,0.00882,0.018692,0.997055,0.001803,-0.049895,0.036754,65.571899,8.60817,-148.064621,,,
729600705.887001,2.425697,-0.80999,-0.116026,0.011627,0.020889,0.992233,-0.018843,-0.031564,0.042876,65.571899,8.60817,-148.064621,,,
729600705.890301,2.425697,-0.80999,-0.116026,0.011627,0.020889,0.992233,-0.018843,-0.031564,0.042876,65.571899,8.60817,-148.064621,,,
729600705.893643,2.418917,-0.819177,-0.10354,0.011627,0.020889,0.992233,-0.018843,-0.031564,0.042876,65.571899,8.60817,-148.064621,,,
729600705.896959,2.412054,-0.824799,-0.091252,0.017212,0.022552,0.993881,-0.031693,-0.011429,0.041955,65.571899,8.60817,-148.064621,,,
729600705.900303,2.412054,-0.824799,-0.091252,0.017212,0.022552,0.993881,-0.031693,-0.011429,0.041955,65.571899,8.60817,-148.064621,,,
729600705.903694,2.402587,-0.82839,-0.079197,0.017212,0.022552,0.993881,-0.031693,-0.011429,0.041955,65.571899,8.60817,-148.064621,,,
729600705.90695,2.394341,-0.829302,-0.06763,0.02359,0.02475,1.000275,-0.022055,0.00628,0.038486,65.571899,8.60817,-148.064621,,,
729600705.910343,2.394341,-0.829302,-0.06763,0.02359,0.02475,1.000275,-0.022055,0.00628,0.038486,65.571899,8.60817,-148.064621,,,
729600705.913637,2.388534,-0.826714,-0.056852,0.02359,0.02475,1.000275,-0.022055,0.00628,0.038486,65.571899,8.60817,-148.064621,,,
729600705.916962,2.383616,-0.821105,-0.046647,0.027435,0.024246,1.008179,-0.004231,0.024131,0.0344,65.571899,8.60817,-148.064621,,,
729600705.920347,2.383616,-0.821105,-0.046647,0.027435,0.024246,1.008179,-0.004231,0.024131,0.0344,65.571899,8.60817,-148.064621,,,
729600705.92368,2.383933,-0.815548,-0.036497,0.027435,0.024246,1.008179,-0.004231,0.024131,0.0344,65.607803,8.730194,-147.989563,,,
729600705.926956,2.384125,-0.81043,-0.025856,0.022247,0.025879,1.009003,0.016163,0.019305,0.037578,65.607803,8.730194,-147.989563,,,
729600705.93029,2.384125,-0.81043,-0.025856,0.022247,0.025879,1.009003,0.016163,0.019305,0.037578,65.607803,8.730194,-147.989563,,,
729600705.933642,2.389114,-0.807526,-0.013895,0.022247,0.025879,1.009003,0.016163,0.019305,0.037578,65.607803,8.730194,-147.989563,,,
729600705.936994,2.391235,-0.807086,-0.001189,0.018463,0.030396,0.999557,0.022226,0.000911,0.04273,65.607803,8.730194,-147.989563,,,
729600705.940294,2.391235,-0.807086,-0.001189,0.018463,0.030396,0.999557,0.022226,0.000911,0.04273,65.607803,8.730194,-147.989563,,,
729600705.943639,2.396973,-0.809915,0.011561,0.018463,0.030396,0.999557,0.022226,0.000911,0.04273,65.607803,8.730194,-147.989563,,,
729600705.946962,2.397392,-0.814921,0.024403,0.021255,0.039703,0.988541,0.013349,-0.020039,0.043749,65.607803,8.730194,-147.989563,,,
729600705.950353,2.397392,-0.814921,0.024403,0.021255,0.039703,0.988541,0.013349,-0.020039,0.043749,65.607803,8.730194,-147.989563,,,
729600705.953675,2.39986,-0.823754,0.036516,0.021255,0.039703,0.988541,0.013349,-0.020039,0.043749,65.607803,8.730194,-147.989563,,,
729600705.956959,2.396429,-0.8347,0.047501,0.026093,0.04744,0.978073,0.000103,-0.040575,0.036283,65.607803,8.730194,-147.989563,,,
729600705.960308,2.396429,-0.8347,0.047501,0.026093,0.04744,0.978073,0.000103,-0.040575,0.036283,65.607803,8.730194,-147.989563,,,
729600705.963693,2.394246,-0.849367,0.057352,0.026093,0.04744,0.978073,0.000103,-0.040575,0.036283,65.257889,8.814804,-147.796509,,,
729600705.966951,2.385609,-0.866896,0.065186,0.033585,0.049606,0.976715,-0.0208,-0.062865,0.022662,65.257889,8.814804,-147.796509,,,
729600705.970351,2.385609,-0.866896,0.065186,0.033585,0.049606,0.976715,-0.0208,-0.062865,0.022662,65.257889,8.814804,-147.796509,,,
729600705.973633,2.377154,-0.886223,0.070905,0.033585,0.049606,0.976715,-0.0208,-0.062865,0.022662,65.257889,8.814804,-147.796509,,,
729600705.976955,2.36149,-0.906487,0.07532,0.03775,0.054367,0.974686,-0.049439,-0.064461,0.013846,65.257889,8.814804,-147.796509,,,
729600705.980309,2.36149,-0.906487,0.07532,0.03775,0.054367,0.974686,-0.049439,-0.064461,0.013846,65.257889,8.814804,-147.796509,,,
729600705.983638,2.344741,-0.925541,0.079095,0.03775,0.054367,0.974686,-0.049439,-0.064461,0.013846,65.257889,8.814804,-147.796509,,,
729600705.987003,2.321261,-0.94636,0.082624,0.036743,0.056107,0.978333,-0.076135,-0.06423,0.012122,65.257889,8.814804,-147.796509,,,
729600705.990287,2.321261,-0.94636,0.082624,0.036743,0.056107,0.978333,-0.076135,-0.06423,0.012122,65.257889,8.814804,-147.796509,,,
729600705.993641,2.297625,-0.965502,0.085936,0.036743,0.056107,0.978333,-0.076135,-0.06423,0.012122,65.257889,8.814804,-147.796509,,,
729600705.99696,2.268389,-0.985468,0.089713,0.035034,0.060135,0.975494,-0.095492,-0.058325,0.01532,65.257889,8.814804,-147.796509,,,
729600706.0003,2.268389,-0.985468,0.089713,0.035034,0.060135,0.975494,-0.095492,-0.058325,0.01532,65.257889,8.814804,-147.796509,,,
729600706.003673,2.240677,-1.002389,0.093995,0.035034,0.060135,0.975494,-0.095492,-0.058325,0.01532,65.243561,8.914032,-147.899887,,,
729600706.00696,2.211717,-1.018241,0.098594,0.034882,0.055298,0.986282,-0.089026,-0.047189,0.017403,65.243561,8.914032,-147.899887,,,
729600706.010306,2.211717,-1.018241,0.098594,0.034882,0.055298,0.986282,-0.089026,-0.047189,0.017403,65.243561,8.914032,-147.899887,,,
729600706.01364,2.186552,-1.032433,0.103565,0.034882,0.055298,0.986282,-0.089026,-0.047189,0.017403,65.243561,8.914032,-147.899887,,,
729600706.01696,2.162218,-1.04555,0.107619,0.036133,0.047012,0.999359,-0.07773,-0.039187,0.01082,65.243561,8.914032,-147.899887,,,
729600706.020345,2.162218,-1.04555,0.107619,0.036133,0.047012,0.999359,-0.07773,-0.039187,0.01082,65.243561,8.914032,-147.899887,,,
729600706.023635,2.141272,-1.057037,0.110975,0.036133,0.047012,0.999359,-0.07773,-0.039187,0.01082,65.243561,8.914032,-147.899887,,,
729600706.026958,2.124648,-1.067422,0.114057,0.034302,0.039932,1.005493,-0.056072,-0.025592,0.00835,65.243561,8.914032,-147.899887,,,
729600706.03035,2.124648,-1.067422,0.114057,0.034302,0.039932,1.005493,-0.056072,-0.025592,0.00835,65.243561,8.914032,-147.899887,,,
729600706.033644,2.109809,-1.075204,0.115555,0.034302,0.039932,1.005493,-0.056072,-0.025592,0.00835,65.243561,8.914032,-147.899887,,,
729600706.037008,2.100877,-1.085121,0.115386,0.029999,0.03566,1.012772,-0.031466,-0.027735,-0.004218,65.243561,8.914032,-147.899887,,,
729600706.040305,2.100877,-1.085121,0.115386,0.029999,0.03566,1.012772,-0.031466,-0.027735,-0.004218,65.243561,8.914032,-147.899887,,,
729600706.043664,2.094021,-1.094584,0.113579,0.029999,0.03566,1.012772,-0.031466,-0.027735,-0.004218,65.243561,8.914032,-147.899887,,,
729600706.046952,2.094331,-1.108184,0.110369,0.031448,0.037369,1.018356,-0.001623,-0.035613,-0.015288,65.224289,8.954651,-147.581818,,,
729600706.050302,2.094331,-1.108184,0.110369,0.031448,0.037369,1.018356,-0.001623,-0.035613,-0.015288,65.224289,8.954651,-147.581818,,,
729600706.053647,2.095119,-1.119899,0.105835,0.031448,0.037369,1.018356,-0.001623,-0.035613,-0.015288,65.224289,8.954651,-147.581818,,,
729600706.056991,2.1012,-1.135716,0.100552,0.028168,0.033585,1.016922,0.010799,-0.042229,-0.021527,65.224289,8.954651,-147.581818,,,
729600706.060317,2.1012,-1.135716,0.100552,0.028168,0.033585,1.016922,0.010799,-0.042229,-0.021527,65.224289,8.954651,-147.581818,,,
729600706.063648,2.104394,-1.149128,0.094514,0.028168,0.033585,1.016922,0.010799,-0.042229,-0.021527,65.224289,8.954651,-147.581818,,,
729600706.066964,2.111557,-1.166708,0.087781,0.021988,0.032166,1.008011,0.011017,-0.051057,-0.027158,65.224289,8.954651,-147.581818,,,
729600706.070296,2.111557,-1.166708,0.087781,0.021988,0.032166,1.008011,0.011017,-0.051057,-0.027158,65.224289,8.954651,-147.581818,,,
729600706.073633,2.113589,-1.182475,0.079752,0.021988,0.032166,1.008011,0.011017,-0.051057,-0.027158,65.224289,8.954651,-147.581818,,,
729600706.076965,2.117582,-1.202093,0.071204,0.024948,0.033997,1.00354,-0.004791,-0.059622,-0.031091,65.224289,8.954651,-147.581818,,,
729600706.080307,2.117582,-1.202093,0.071204,0.024948,0.033997,1.00354,-0.004791,-0.059622,-0.031091,65.224289,8.954651,-147.581818,,,
729600706.083695,2.114864,-1.218945,0.061994,0.024948,0.033997,1.00354,-0.004791,-0.059622,-0.031091,65.224289,8.954651,-147.581818,,,
729600706.086957,2.112741,-1.236042,0.052389,0.026627,0.035233,0.999588,-0.019574,-0.044104,-0.034175,65.022766,8.978165,-147.777588,,,
729600706.090298,2.112741,-1.236042,0.052389,0.026627,0.035233,0.999588,-0.019574,-0.044104,-0.034175,65.022766,8.978165,-147.777588,,,
729600706.093632,2.106101,-1.248282,0.042042,0.026627,0.035233,0.999588,-0.019574,-0.044104,-0.034175,65.022766,8.978165,-147.777588,,,
729600706.096966,2.099721,-1.260106,0.030326,0.033279,0.035065,1.002426,-0.02733,-0.024568,-0.04417,65.022766,8.978165,-147.777588,,,
729600706.10034,2.099721,-1.260106,0.030326,0.033279,0.035065,1.002426,-0.02733,-0.024568,-0.04417,65.022766,8.978165,-147.777588,,,
729600706.1037,2.09263,-1.265229,0.017886,0.033279,0.035065,1.002426,-0.02733,-0.024568,-0.04417,65.022766,8.978165,-147.777588,,,
729600706.10696,2.086773,-1.267553,0.004815,0.031555,0.031418,1.012466,-0.019728,0.007038,-0.049159,65.022766,8.978165,-147.777588,,,
729600706.110352,2.086773,-1.267553,0.004815,0.031555,0.031418,1.012466,-0.019728,0.007038,-0.049159,65.022766,8.978165,-147.777588,,,
729600706.113628,2.082738,-1.26374,-0.008499,0.031555,0.031418,1.012466,-0.019728,0.007038,-0.049159,65.022766,8.978165,-147.777588,,,
729600706.11696,2.081628,-1.257956,-0.021501,0.024536,0.023727,1.018677,0.001895,0.029714,-0.047734,65.022766,8.978165,-147.777588,,,
729600706.120308,2.081628,-1.257956,-0.021501,0.024536,0.023727,1.018677,0.001895,0.029714,-0.047734,65.022766,8.978165,-147.777588,,,
729600706.123703,2.084801,-1.248267,-0.034136,0.024536,0.023727,1.018677,0.001895,0.029714,-0.047734,65.022766,8.978165,-147.777588,,,
729600706.126948,2.084801,-1.248267,-0.045802,0.020889,0.019165,1.017746,0.034503,0.049473,-0.042143,65.269669,8.981842,-147.937714,,,
729600706.130306,2.09252,-1.237483,-0.045802,0.020889,0.019165,1.017746,0.034503,0.049473,-0.042143,65.269669,8.981842,-147.937714,,,
729600706.133628,2.103668,-1.222977,-0.056539,0.020889,0.019165,1.017746,0.034503,0.049473,-0.042143,65.269669,8.981842,-147.937714,,,
729600706.136953,2.116594,-1.208398,-0.066347,0.010834,0.021942,1.01445,0.052616,0.052975,-0.03607,65.269669,8.981842,-147.937714,,,
729600706.140293,2.116594,-1.208398,-0.066347,0.010834,0.021942,1.01445,0.052616,0.052975,-0.03607,65.269669,8.981842,-147.937714,,,
729600706.143624,2.132624,-1.195098,-0.075864,0.010834,0.021942,1.01445,0.052616,0.052975,-0.03607,65.269669,8.981842,-147.937714,,,
729600706.146996,2.132624,-1.195098,-0.085409,0.010254,0.027298,1.002533,0.064265,0.035087,-0.036606,65.269669,8.981842,-147.937714,,,
729600706.150387,2.149557,-1.184819,-0.085409,0.010254,0.027298,1.002533,0.064265,0.035087,-0.036606,65.269669,8.981842,-147.937714,,,
729600706.153649,2.16778,-1.176741,-0.095186,0.010254,0.027298,1.002533,0.064265,0.035087,-0.036606,65.269669,8.981842,-147.937714,,,
729600706.157013,2.16778,-1.171778,-0.105241,0.007446,0.033951,0.99118,0.059771,0.019866,-0.038669,65.269669,8.981842,-147.937714,,,
729600706.160334,2.184892,-1.171778,-0.105241,0.007446,0.033951,0.99118,0.059771,0.019866,-0.038669,65.269669,8.981842,-147.937714,,,
729600706.163623,2.201666,-1.167426,-0.115946,0.007446,0.033951,0.99118,0.059771,0.019866,-0.038669,65.269669,8.981842,-147.937714,,,
729600706.166978,2.201666,-1.166611,-0.127243,0.009674,0.03891,0.986023,0.056296,0.0054,-0.043106,65.370071,8.572891,-147.575806,,,
729600706.170314,2.217337,-1.166611,-0.127243,0.009674,0.03891,0.986023,0.056296,0.0054,-0.043106,65.370071,8.572891,-147.575806,,,
729600706.173734,2.232647,-1.16586,-0.13904,0.009674,0.03891,0.986023,0.056296,0.0054,-0.043106,65.370071,8.572891,-147.575806,,,
729600706.176989,2.232647,-1.16586,-0.149732,0.016846,0.043594,0.985046,0.046557,0.00525,-0.035801,65.370071,8.572891,-147.575806,,,
729600706.18029,2.245659,-1.167487,-0.149732,0.016846,0.043594,0.985046,0.046557,0.00525,-0.035801,65.370071,8.572891,-147.575806,,,
729600706.183648,2.258705,-1.166149,-0.158791,0.016846,0.043594,0.985046,0.046557,0.00525,-0.035801,65.370071,8.572891,-147.575806,,,
729600706.186991,2.258705,-1.166149,-0.158791,0.019592,0.048477,0.983276,0.034968,0.013794,-0.030536,65.370071,8.572891,-147.575806,,,
729600706.190305,2.268132,-1.164875,-0.167071,0.019592,0.048477,0.983276,0.034968,0.013794,-0.030536,65.370071,8.572891,-147.575806,,,
729600706.193626,2.277246,-1.160802,-0.175406,0.019592,0.048477,0.983276,0.034968,0.013794,-0.030536,65.370071,8.572891,-147.575806,,,
729600706.196982,2.277246,-1.160802,-0.175406,0.022873,0.051804,0.985077,0.028136,0.022616,-0.02566,65.370071,8.572891,-147.575806,,,
729600706.200358,2.281993,-1.156039,-0.183039,0.022873,0.051804,0.985077,0.028136,0.022616,-0.02566,65.370071,8.572891,-147.575806,,,
729600706.203641,2.290321,-1.150038,-0.189049,0.022873,0.051804,0.985077,0.028136,0.022616,-0.02566,65.370071,8.572891,-147.575806,,,
729600706.207095,2.290321,-1.150038,-0.189049,0.024918,0.052704,0.989075,0.028186,0.026248,-0.013585,65.370071,8.572891,-147.575806,,,
729600706.210296,2.2951,-1.142933,-0.193362,0.024918,0.052704,0.989075,0.028186,0.026248,-0.013585,65.467728,8.628082,-147.268768,,,
729600706.213706,2.302163,-1.135987,-0.196198,0.024918,0.052704,0.989075,0.028186,0.026248,-0.013585,65.467728,8.628082,-147.268768,,,
729600706.216945,2.302163,-1.135987,-0.196198,0.024918,0.052704,0.989075,0.028186,0.026248,-0.013585,65.467728,8.628082,-147.268768,,,
729600706.220302,2.305821,-1.127596,-0.197916,0.021317,0.052261,0.984222,0.02438,0.025103,-0.005226,65.467728,8.628082,-147.268768,,,
729600706.223641,2.312185,-1.121305,-0.19866,0.021317,0.052261,0.984222,0.02438,0.025103,-0.005226,65.467728,8.628082,-147.268768,,,
729600706.226978,2.312185,-1.121305,-0.19866,0.021317,0.052261,0.984222,0.023257,0.021613,0.000715,65.467728,8.628082,-147.268768,,,
729600706.230301,2.316561,-1.11388,-0.198622,0.01915,0.054459,0.985748,0.023257,0.021613,0.000715,65.467728,8.628082,-147.268768,,,
729600706.23362,2.322628,-1.10871,-0.197086,0.01915,0.054459,0.985748,0.023257,0.021613,0.000715,65.467728,8.628082,-147.268768,,,
729600706.236975,2.322628,-1.10871,-0.197086,0.01915,0.054459,0.985748,0.017283,0.02033,0.009816,65.467728,8.628082,-147.268768,,,
729600706.240342,2.327083,-1.101633,-0.194354,0.015564,0.055847,0.984772,0.017283,0.02033,0.009816,65.467728,8.628082,-147.268768,,,
729600706.243623,2.33227,-1.097422,-0.19147,0.015564,0.055847,0.984772,0.017283,0.02033,0.009816,65.467728,8.628082,-147.268768,,,
729600706.246971,2.33227,-1.097422,-0.19147,0.015564,0.055847,0.984772,0.022865,0.01622,0.006361,65.467728,8.628082,-147.268768,,,
729600706.250311,2.338271,-1.09262,-0.189117,0.021652,0.059021,0.987473,0.022865,0.01622,0.006361,65.385559,8.63765,-147.587646,,,
729600706.253623,2.344599,-1.088398,-0.186744,0.021652,0.059021,0.987473,0.022865,0.01622,0.006361,65.385559,8.63765,-147.587646,,,
729600706.257023,2.344599,-1.088398,-0.186744,0.021652,0.059021,0.987473,0.022865,0.01622,0.006361,65.385559,8.63765,-147.587646,,,
729600706.260298,2.350877,-1.08336,-0.184374,0.025421,0.058899,0.988342,0.016918,0.021293,0.006504,65.385559,8.63765,-147.587646,,,
729600706.263649,2.354898,-1.077586,-0.181869,0.025421,0.058899,0.988342,0.016918,0.021293,0.006504,65.385559,8.63765,-147.587646,,,
729600706.267002,2.354898,-1.077586,-0.181869,0.025421,0.058899,0.988342,0.016918,0.021293,0.006504,65.385559,8.63765,-147.587646,,,
729600706.2703,2.359111,-1.071477,-0.178765,0.019226,0.052414,0.983688,0.00703,0.025599,0.010821,65.385559,8.63765,-147.587646,,,
729600706.273619,2.359549,-1.065359,-0.175269,0.019226,0.052414,0.983688,0.00703,0.025599,0.010821,65.385559,8.63765,-147.587646,,,
729600706.276678,2.359549,-1.065359,-0.175269,0.019226,0.052414,0.983688,0.00703,0.025599,0.010821,65.385559,8.63765,-147.587646,,,
729600706.280326,2.360979,-1.061195,-0.170833,0.015961,0.051163,0.983627,-0.000511,0.019928,0.017166,65.385559,8.63765,-147.587646,,,
729600706.283625,2.361123,-1.057397,-0.165716,0.015961,0.051163,0.983627,-0.000511,0.019928,0.017166,65.385559,8.63765,-147.587646,,,
729600706.286995,2.361123,-1.057397,-0.165716,0.015961,0.051163,0.983627,-0.000511,0.019928,0.017166,65.385559,8.63765,-147.587646,,,
729600706.290292,2.363822,-1.056242,-0.160862,0.016541,0.048233,0.990234,0.002954,0.007149,0.015054,65.303238,8.734375,-147.831039,,,
729600706.293631,2.364999,-1.055874,-0.156002,0.016541,0.048233,0.990234,0.002954,0.007149,0.015054,65.303238,8.734375,-147.831039,,,
729600706.297018,2.364999,-1.055874,-0.156002,0.016541,0.048233,0.990234,0.002954,0.007149,0.015054,65.303238,8.734375,-147.831039,,,
729600706.300297,2.368672,-1.056228,-0.150905,0.011475,0.042496,0.994156,0.007228,0.005263,0.016531,65.303238,8.734375,-147.831039,,,
729600706.303697,2.370768,-1.056382,-0.145507,0.011475,0.042496,0.994156,0.007228,0.005263,0.016531,65.303238,8.734375,-147.831039,,,
729600706.307051,2.370768,-1.056382,-0.145507,0.011475,0.042496,0.994156,0.007228,0.005263,0.016531,65.303238,8.734375,-147.831039,,,
729600706.310301,2.376503,-1.057093,-0.139614,0.005981,0.038834,0.997513,0.017335,0.00036,0.019883,65.303238,8.734375,-147.831039,,,
729600706.313629,2.381417,-1.05817,-0.133638,0.005981,0.038834,0.997513,0.017335,0.00036,0.019883,65.303238,8.734375,-147.831039,,,
729600706.317046,2.381417,-1.05817,-0.133638,0.005981,0.038834,0.997513,0.017335,0.00036,0.019883,65.303238,8.734375,-147.831039,,,
729600706.320296,2.389165,-1.058493,-0.127728,0.00882,0.035995,0.998032,0.01846,0.002597,0.019529,65.303238,8.734375,-147.831039,,,
729600706.323629,2.393761,-1.058311,-0.121492,0.00882,0.035995,0.998032,0.01846,0.002597,0.019529,65.303238,8.734375,-147.831039,,,
729600706.327015,2.393761,-1.058311,-0.121492,0.00882,0.035995,0.998032,0.01846,0.002597,0.019529,65.303238,8.734375,-147.831039,,,
729600706.330291,2.400864,-1.058422,-0.114356,0.001862,0.033218,0.99765,0.013009,0.009279,0.025537,65.447327,8.437744,-147.63887,,,
729600706.333678,2.403988,-1.056431,-0.10607,0.001862,0.033218,0.99765,0.013009,0.009279,0.025537,65.447327,8.437744,-147.63887,,,
729600706.337016,2.403988,-1.056431,-0.10607,0.001862,0.033218,0.99765,0.013009,0.009279,0.025537,65.447327,8.437744,-147.63887,,,
729600706.340288,2.408649,-1.054524,-0.096691,-0.001877,0.03331,0.993683,0.004979,0.014547,0.033116,65.447327,8.437744,-147.63887,,,
729600706.343628,2.409085,-1.051097,-0.086447,-0.001877,0.03331,0.993683,0.004979,0.014547,0.033116,65.447327,8.437744,-147.63887,,,
729600706.346981,2.409085,-1.051097,-0.086447,-0.001877,0.03331,0.993683,0.004979,0.014547,0.033116,65.447327,8.437744,-147.63887,,,
729600706.350298,2.410158,-1.047663,-0.07597,-1.5e-05,0.039291,0.994003,-0.004238,0.01451,0.034933,65.447327,8.437744,-147.63887,,,
729600706.353624,2.408198,-1.044978,-0.065081,-1.5e-05,0.039291,0.994003,-0.004238,0.01451,0.034933,65.447327,8.437744,-147.63887,,,
729600706.356977,2.408198,-1.044978,-0.065081,-1.5e-05,0.039291,0.994003,-0.004238,0.01451,0.034933,65.447327,8.437744,-147.63887,,,
729600706.360298,2.406997,-1.041917,-0.053831,0.002853,0.038544,0.993301,-0.009589,0.014835,0.037676,65.447327,8.437744,-147.63887,,,
729600706.363621,2.403832,-1.038668,-0.043144,0.002853,0.038544,0.993301,-0.009589,0.014835,0.037676,65.447327,8.437744,-147.63887,,,
729600706.367106,2.403832,-1.038668,-0.043144,0.002853,0.038544,0.993301,-0.009589,0.014835,0.037676,65.447327,8.437744,-147.63887,,,
729600706.370285,2.40207,-1.033969,-0.032474,0.004822,0.035233,0.996902,-0.004997,0.0218,0.037642,65.447327,8.437744,-147.63887,,,
729600706.373629,2.400591,-1.028219,-0.02109,0.004822,0.035233,0.996902,-0.004997,0.0218,0.037642,65.422577,8.400009,-147.466476,,,
729600706.376966,2.400591,-1.028219,-0.02109,0.004822,0.035233,0.996902,-0.004997,0.0218,0.037642,65.422577,8.400009,-147.466476,,,
729600706.380357,2.400886,-1.020015,-0.008648,0.003616,0.031235,1.00473,0.007788,0.027447,0.045195,65.422577,8.400009,-147.466476,,,
729600706.383612,2.404331,-1.012962,0.005476,0.003616,0.031235,1.00473,0.007788,0.027447,0.045195,65.422577,8.400009,-147.466476,,,
729600706.386966,2.404331,-1.012962,0.005476,0.003616,0.031235,1.00473,0.007788,0.027447,0.045195,65.422577,8.400009,-147.466476,,,
729600706.390278,2.410131,-1.003239,0.020546,0.003372,0.025452,1.011841,0.029094,0.033839,0.051933,65.422577,8.400009,-147.466476,,,
729600706.393634,2.418768,-0.99505,0.03636,0.003372,0.025452,1.011841,0.029094,0.033839,0.051933,65.422577,8.400009,-147.466476,,,
729600706.396971,2.418768,-0.99505,0.03636,0.003372,0.025452,1.011841,0.029094,0.033839,0.051933,65.422577,8.400009,-147.466476,,,
729600706.4003,2.427966,-0.985747,0.052527,0.006866,0.029739,1.008301,0.04079,0.030071,0.054661,65.422577,8.400009,-147.466476,,,
729600706.403621,2.439398,-0.979298,0.068305,0.006866,0.029739,1.008301,0.04079,0.030071,0.054661,65.422577,8.400009,-147.466476,,,
729600706.407024,2.439398,-0.979298,0.068305,0.006866,0.029739,1.008301,0.04079,0.030071,0.054661,65.422577,8.400009,-147.466476,,,
729600706.410308,2.44951,-0.971961,0.082731,0.009476,0.03244,0.996674,0.044439,0.014459,0.04612,65.422577,8.400009,-147.466476,,,
729600706.413623,2.46129,-0.970641,0.096161,0.009476,0.03244,0.996674,0.044439,0.014459,0.04612,65.657028,8.643341,-147.569855,,,
729600706.417032,2.46129,-0.970641,0.096161,0.009476,0.03244,0.996674,0.044439,0.014459,0.04612,65.657028,8.643341,-147.569855,,,
729600706.420286,2.471998,-0.968414,0.108074,0.011368,0.036743,0.991791,0.046538,-0.002901,0.036529,65.657028,8.643341,-147.569855,,,
729600706.423627,2.485834,-0.970995,0.118636,0.011368,0.036743,0.991791,0.046538,-0.002901,0.036529,65.657028,8.643341,-147.569855,,,
729600706.426979,2.485834,-0.970995,0.118636,0.011368,0.036743,0.991791,0.046538,-0.002901,0.036529,65.657028,8.643341,-147.569855,,,
729600706.430352,2.500064,-0.971363,0.127428,0.01651,0.039871,0.997421,0.052707,-0.007115,0.024931,65.657028,8.643341,-147.569855,,,
729600706.433585,2.514208,-0.97414,0.135248,0.01651,0.039871,0.997421,0.052707,-0.007115,0.024931,65.657028,8.643341,-147.569855,,,
729600706.43698,2.514208,-0.97414,0.135248,0.01651,0.039871,0.997421,0.052707,-0.007115,0.024931,65.657028,8.643341,-147.569855,,,
729600706.440319,2.525936,-0.97345,0.14342,0.019119,0.040421,0.996536,0.043502,0.001797,0.02815,65.657028,8.643341,-147.569855,,,
729600706.44362,2.537179,-0.973751,0.152228,0.019119,0.040421,0.996536,0.043502,0.001797,0.02815,65.657028,8.643341,-147.569855,,,
729600706.44697,2.537179,-0.973751,0.152228,0.019119,0.040421,0.996536,0.043502,0.001797,0.02815,65.657028,8.643341,-147.569855,,,
729600706.450303,2.544299,-0.971835,0.161891,0.013779,0.039795,0.991333,0.027568,0.003378,0.035025,65.657028,8.643341,-147.569855,,,
729600706.453615,2.551043,-0.972586,0.172823,0.013779,0.039795,0.991333,0.027568,0.003378,0.035025,65.406815,8.437164,-147.503433,,,
729600706.456949,2.551043,-0.972586,0.172823,0.013779,0.039795,0.991333,0.027568,0.003378,0.035025,65.406815,8.437164,-147.503433,,,
729600706.460042,2.553012,-0.971724,0.183918,0.016922,0.044006,0.985245,0.014014,-0.002382,0.037094,65.406815,8.437164,-147.503433,,,
729600706.463659,2.555689,-0.973844,0.194844,0.016922,0.044006,0.985245,0.014014,-0.002382,0.037094,65.406815,8.437164,-147.503433,,,
729600706.467054,2.555689,-0.973844,0.194844,0.016922,0.044006,0.985245,0.014014,-0.002382,0.037094,65.406815,8.437164,-147.503433,,,
729600706.470315,2.554418,-0.973739,0.204868,0.020401,0.045868,0.98378,0.008728,-0.001597,0.031559,65.406815,8.437164,-147.503433,,,
729600706.473696,2.557817,-0.975818,0.21334,0.020401,0.045868,0.98378,0.008728,-0.001597,0.031559,65.406815,8.437164,-147.503433,,,
729600706.476997,2.557817,-0.975818,0.21334,0.020401,0.045868,0.98378,0.008728,-0.001597,0.031559,65.406815,8.437164,-147.503433,,,
729600706.480387,2.560787,-0.976745,0.219744,0.030212,0.044189,0.995407,0.022601,-0.004054,0.017388,65.406815,8.437164,-147.503433,,,
729600706.483622,2.568285,-0.978572,0.224184,0.030212,0.044189,0.995407,0.022601,-0.004054,0.017388,65.406815,8.437164,-147.503433,,,
729600706.486997,2.568285,-0.978572,0.224184,0.030212,0.044189,0.995407,0.022601,-0.004054,0.017388,65.406815,8.437164,-147.503433,,,
729600706.490325,2.576545,-0.977608,0.226548,0.03833,0.04213,1.003876,0.040521,0.005946,0.002996,65.406815,8.437164,-147.503433,,,
729600706.4937,2.58867,-0.97635,0.227157,0.03833,0.04213,1.003876,0.040521,0.005946,0.002996,65.406815,8.437164,-147.503433,,,
729600706.496971,2.58867,-0.97635,0.227157,0.03833,0.04213,1.003876,0.040521,0.005946,0.002996,65.399963,8.408279,-147.794205,,,
729600706.500311,2.601376,-0.973443,0.226588,0.035965,0.042786,1.006378,0.052583,0.012043,-0.005194,65.399963,8.408279,-147.794205,,,
729600706.503618,2.616159,-0.971046,0.225773,0.035965,0.042786,1.006378,0.052583,0.012043,-0.005194,65.399963,8.408279,-147.794205,,,
729600706.506948,2.616159,-0.971046,0.225773,0.035965,0.042786,1.006378,0.052583,0.012043,-0.005194,65.399963,8.408279,-147.794205,,,
729600706.510308,2.629414,-0.968864,0.224886,0.031921,0.04512,0.998947,0.04766,0.012473,-0.005702,65.399963,8.408279,-147.794205,,,
729600706.513661,2.643104,-0.96612,0.224101,0.031921,0.04512,0.998947,0.04766,0.012473,-0.005702,65.399963,8.408279,-147.794205,,,
729600706.517028,2.643104,-0.96612,0.224101,0.031921,0.04512,0.998947,0.04766,0.012473,-0.005702,65.399963,8.408279,-147.794205,,,
729600706.520297,2.655571,-0.963501,0.223466,0.027603,0.044586,0.996094,0.046688,0.011361,-0.004667,65.399963,8.408279,-147.794205,,,
729600706.523627,2.66708,-0.961139,0.22222,0.027603,0.044586,0.996094,0.046688,0.011361,-0.004667,65.399963,8.408279,-147.794205,,,
729600706.52697,2.66708,-0.961139,0.22222,0.027603,0.044586,0.996094,0.046688,0.011361,-0.004667,65.399963,8.408279,-147.794205,,,
729600706.530351,2.674222,-0.9589,0.220651,0.029907,0.047623,0.987061,0.022503,0.008013,-0.006345,65.399963,8.408279,-147.794205,,,
729600706.533617,2.678436,-0.957671,0.21923,0.029907,0.047623,0.987061,0.022503,0.008013,-0.006345,65.399963,8.408279,-147.794205,,,
729600706.53696,2.678436,-0.957671,0.21923,0.029907,0.047623,0.987061,0.022503,0.008013,-0.006345,65.50119,8.423172,-147.763458,,,
729600706.540313,2.679216,-0.957351,0.217687,0.027435,0.049042,0.980469,-0.000668,0.003818,-0.00693,65.50119,8.423172,-147.763458,,,
729600706.543621,2.676852,-0.956876,0.216103,0.027435,0.049042,0.980469,-0.000668,0.003818,-0.00693,65.50119,8.423172,-147.763458,,,
729600706.547034,2.676852,-0.956876,0.216103,0.027435,0.049042,0.980469,-0.000668,0.003818,-0.00693,65.50119,8.423172,-147.763458,,,
729600706.550302,2.671139,-0.957682,0.214771,0.025726,0.048096,0.980865,-0.023025,0.002474,-0.005171,65.50119,8.423172,-147.763458,,,
729600706.553658,2.663785,-0.958235,0.213838,0.025726,0.048096,0.980865,-0.023025,0.002474,-0.005171,65.50119,8.423172,-147.763458,,,
729600706.55703,2.663785,-0.958235,0.213838,0.025726,0.048096,0.980865,-0.023025,0.002474,-0.005171,65.50119,8.423172,-147.763458,,,
729600706.560294,2.654675,-0.962332,0.213209,0.028534,0.052032,0.985291,-0.032583,0.000315,-0.003951,65.50119,8.423172,-147.763458,,,
729600706.563619,2.64559,-0.963402,0.212012,0.028534,0.052032,0.985291,-0.032583,0.000315,-0.003951,65.50119,8.423172,-147.763458,,,
729600706.567041,2.64559,-0.963402,0.212012,0.028534,0.052032,0.985291,-0.032583,0.000315,-0.003951,65.50119,8.423172,-147.763458,,,
729600706.570297,2.636821,-0.968345,0.210051,0.02948,0.046982,0.99324,-0.024113,-0.002234,-0.010457,65.50119,8.423172,-147.763458,,,
729600706.573628,2.63137,-0.969606,0.207349,0.02948,0.046982,0.99324,-0.024113,-0.002234,-0.010457,65.50119,8.423172,-147.763458,,,
729600706.576958,2.63137,-0.969606,0.207349,0.02948,0.046982,0.99324,-0.024113,-0.002234,-0.010457,65.441162,8.491287,-147.448807,,,
729600706.580351,2.628417,-0.973904,0.204256,0.030716,0.045898,1.004608,-0.003255,-0.002646,-0.014486,65.441162,8.491287,-147.448807,,,
729600706.583657,2.628799,-0.975148,0.199871,0.030716,0.045898,1.004608,-0.003255,-0.002646,-0.014486,65.441162,8.491287,-147.448807,,,
729600706.586965,2.628799,-0.975148,0.199871,0.030716,0.045898,1.004608,-0.003255,-0.002646,-0.014486,65.441162,8.491287,-147.448807,,,
729600706.590294,2.631865,-0.979174,0.194705,0.023987,0.042313,1.009766,0.016799,-0.006237,-0.021012,65.441162,8.491287,-147.448807,,,
729600706.593627,2.637376,-0.981853,0.188956,0.023987,0.042313,1.009766,0.016799,-0.006237,-0.021012,65.441162,8.491287,-147.448807,,,
729600706.596966,2.637376,-0.981853,0.188956,0.023987,0.042313,1.009766,0.016799,-0.006237,-0.021012,65.441162,8.491287,-147.448807,,,
729600706.600302,2.645061,-0.986963,0.182955,0.024277,0.041367,1.009033,0.031156,-0.009738,-0.023632,65.441162,8.491287,-147.448807,,,
