Time (sec),Pitch (deg),Roll (deg),Yaw(deg),X-Acceleration (g),Y-Acceleration (g),Z-Acceleration (g),Pitch Rate (deg/sec),Roll Rate (deg/sec),Yaw Rate (deg/sec),Magnetic Field in X direction (uT),Magnetic Field in Y direction (uT),Magnetic Field in Z Direction (uT),Latitude (deg),Longitude (deg),Altitude (m)
729605829.26052,-3.191638,1.596051,55.815041,-0.031464,-0.056961,0.985565,-0.026601,-0.039468,-0.004275,63.027542,26.24855,-147.341248,,,
729605829.263782,-3.191638,1.596051,55.815041,-0.031464,-0.056961,0.985565,-0.026601,-0.039468,-0.004275,63.027542,26.24855,-147.341248,,,
729605829.267134,-3.201846,1.582389,55.817099,-0.031464,-0.056961,0.985565,-0.028757,-0.043044,0.005273,63.027542,26.24855,-147.341248,,,
729605829.270516,-3.201846,1.569091,55.819446,-0.031464,-0.056961,0.985565,-0.028757,-0.043044,0.005273,63.027542,26.24855,-147.341248,,,
729605829.273838,-3.209538,1.569091,55.819446,-0.028427,-0.057587,0.990936,-0.028757,-0.043044,0.005273,63.027542,26.24855,-147.341248,,,
729605829.27713,-3.217293,1.555348,55.820994,-0.028427,-0.057587,0.990936,-0.021103,-0.046615,0.000996,63.027542,26.24855,-147.341248,,,
729605829.280464,-3.217293,1.555348,55.820994,-0.028427,-0.057587,0.990936,-0.021103,-0.046615,0.000996,63.027542,26.24855,-147.341248,,,
729605829.283788,-3.222373,1.540838,55.821073,-0.017685,-0.054016,0.995834,-0.021103,-0.046615,0.000996,62.560303,26.103546,-147.418213,,,
729605829.28712,-3.228122,1.526492,55.819582,-0.017685,-0.054016,0.995834,-0.015379,-0.04945,-0.008396,62.560303,26.103546,-147.418213,,,
729605829.290476,-3.228122,1.526492,55.819582,-0.017685,-0.054016,0.995834,-0.015379,-0.04945,-0.008396,62.560303,26.103546,-147.418213,,,
729605829.293805,-3.232171,1.51055,55.817059,-0.019424,-0.053421,0.993256,-0.015379,-0.04945,-0.008396,62.560303,26.103546,-147.418213,,,
729605829.297176,-3.235882,1.494829,55.813689,-0.019424,-0.053421,0.993256,-0.00972,-0.058288,-0.013317,62.560303,26.103546,-147.418213,,,
729605829.300459,-3.235882,1.494829,55.813689,-0.019424,-0.053421,0.993256,-0.00972,-0.058288,-0.013317,62.560303,26.103546,-147.418213,,,
729605829.303797,-3.2373,1.475591,55.809299,-0.024063,-0.05687,0.992126,-0.00972,-0.058288,-0.013317,62.560303,26.103546,-147.418213,,,
729605829.307124,-3.235125,1.456097,55.803813,-0.024063,-0.05687,0.992126,0.008497,-0.064031,-0.02098,62.560303,26.103546,-147.418213,,,
729605829.31051,-3.235125,1.456097,55.803813,-0.024063,-0.05687,0.992126,0.008497,-0.064031,-0.02098,62.560303,26.103546,-147.418213,,,
729605829.313799,-3.231233,1.436807,55.796644,-0.018204,-0.060883,1.006531,0.008497,-0.064031,-0.02098,62.560303,26.103546,-147.418213,,,
729605829.317115,-3.224125,1.41667,55.787975,-0.018204,-0.060883,1.006531,0.022592,-0.066177,-0.034809,62.560303,26.103546,-147.418213,,,
729605829.3205,-3.224125,1.41667,55.787975,-0.018204,-0.060883,1.006531,0.022592,-0.066177,-0.034809,62.560303,26.103546,-147.418213,,,
729605829.323876,-3.216128,1.394549,55.777933,-0.013657,-0.062347,1.010529,0.022592,-0.066177,-0.034809,62.560303,26.103546,-147.418213,,,
729605829.327127,-3.206903,1.373235,55.765885,-0.013657,-0.062347,1.010529,0.028254,-0.071848,-0.044133,62.728317,25.900055,-147.229004,,,
729605829.330531,-3.206903,1.373235,55.765885,-0.013657,-0.062347,1.010529,0.028254,-0.071848,-0.044133,62.728317,25.900055,-147.229004,,,
729605829.333782,-3.19871,1.353604,55.752304,-0.017197,-0.064117,1.004501,0.028254,-0.071848,-0.044133,62.728317,25.900055,-147.229004,,,
729605829.337124,-3.190106,1.340142,55.737551,-0.017197,-0.064117,1.004501,0.030442,-0.045219,-0.053576,62.728317,25.900055,-147.229004,,,
729605829.340473,-3.190106,1.340142,55.737551,-0.017197,-0.064117,1.004501,0.030442,-0.045219,-0.053576,62.728317,25.900055,-147.229004,,,
729605829.343803,-3.182442,1.32856,55.721649,-0.018799,-0.061874,1.013275,0.030442,-0.045219,-0.053576,62.728317,25.900055,-147.229004,,,
729605829.347194,-3.1753,1.322423,55.705642,-0.018799,-0.061874,1.013275,0.027781,-0.019212,-0.058826,62.728317,25.900055,-147.229004,,,
729605829.350466,-3.1753,1.322423,55.705642,-0.018799,-0.061874,1.013275,0.027781,-0.019212,-0.058826,62.728317,25.900055,-147.229004,,,
729605829.353867,-3.166789,1.317116,55.689597,-0.017426,-0.063187,1.008667,0.027781,-0.019212,-0.058826,62.728317,25.900055,-147.229004,,,
729605829.357172,-3.158185,1.314991,55.674663,-0.017426,-0.063187,1.008667,0.033393,-0.001881,-0.051278,62.728317,25.900055,-147.229004,,,
729605829.360598,-3.158185,1.314991,55.674663,-0.017426,-0.063187,1.008667,0.033393,-0.001881,-0.051278,62.728317,25.900055,-147.229004,,,
729605829.363837,-3.148784,1.31352,55.660658,-0.020111,-0.068802,1.004959,0.033393,-0.001881,-0.051278,62.728317,25.900055,-147.229004,,,
729605829.367139,-3.138297,1.31052,55.647632,-0.020111,-0.068802,1.004959,0.038707,0.001313,-0.041743,62.558792,25.945648,-147.450821,,,
729605829.370484,-3.138297,1.31052,55.647632,-0.020111,-0.068802,1.004959,0.038707,0.001313,-0.041743,62.558792,25.945648,-147.450821,,,
729605829.373864,-3.127277,1.31016,55.635409,-0.024643,-0.069138,0.999741,0.038707,0.001313,-0.041743,62.558792,25.945648,-147.450821,,,
729605829.377119,-3.116119,1.311333,55.623751,-0.024643,-0.069138,0.999741,0.03999,0.011652,-0.039668,62.558792,25.945648,-147.450821,,,
729605829.380472,-3.116119,1.311333,55.623751,-0.024643,-0.069138,0.999741,0.03999,0.011652,-0.039668,62.558792,25.945648,-147.450821,,,
729605829.383787,-3.105812,1.313363,55.612512,-0.026535,-0.066666,0.997299,0.03999,0.011652,-0.039668,62.558792,25.945648,-147.450821,,,
729605829.387123,-3.098053,1.315243,55.601438,-0.026535,-0.066666,0.997299,0.029077,0.011883,-0.037611,62.558792,25.945648,-147.450821,,,
729605829.390485,-3.098053,1.315243,55.601438,-0.026535,-0.066666,0.997299,0.029077,0.011883,-0.037611,62.558792,25.945648,-147.450821,,,
729605829.393794,-3.091177,1.315855,55.59061,-0.029572,-0.064713,0.987839,0.029077,0.011883,-0.037611,62.558792,25.945648,-147.450821,,,
729605829.397179,-3.086763,1.312553,55.580259,-0.029572,-0.064713,0.987839,0.021589,-0.000652,-0.03652,62.558792,25.945648,-147.450821,,,
729605829.400445,-3.086763,1.312553,55.580259,-0.029572,-0.064713,0.987839,0.021589,-0.000652,-0.03652,62.558792,25.945648,-147.450821,,,
729605829.4038,-3.08188,1.308952,55.570802,-0.032654,-0.064209,0.978973,0.021589,-0.000652,-0.03652,62.558792,25.945648,-147.450821,,,
729605829.407115,-3.079034,1.301127,55.56165,-0.032654,-0.064209,0.978973,0.019507,-0.015627,-0.031062,62.368393,26.126083,-147.737595,,,
729605829.41051,-3.079034,1.301127,55.56165,-0.032654,-0.064209,0.978973,0.019507,-0.015627,-0.031062,62.368393,26.126083,-147.737595,,,
729605829.413794,-3.073062,1.293261,55.553326,-0.034332,-0.063675,0.983429,0.019507,-0.015627,-0.031062,62.368393,26.126083,-147.737595,,,
729605829.417124,-3.067053,1.281705,55.546473,-0.034332,-0.063675,0.983429,0.028237,-0.032894,-0.024868,62.368393,26.126083,-147.737595,,,
729605829.420459,-3.067053,1.281705,55.546473,-0.034332,-0.063675,0.983429,0.028237,-0.032894,-0.024868,62.368393,26.126083,-147.737595,,,
729605829.423843,-3.056933,1.269792,55.540501,-0.031433,-0.060944,0.987167,0.028237,-0.032894,-0.024868,62.368393,26.126083,-147.737595,,,
729605829.427106,-3.045746,1.256062,55.534181,-0.031433,-0.060944,0.987167,0.046815,-0.039519,-0.021226,62.368393,26.126083,-147.737595,,,
729605829.430462,-3.045746,1.256062,55.534181,-0.031433,-0.060944,0.987167,0.046815,-0.039519,-0.021226,62.368393,26.126083,-147.737595,,,
729605829.433783,-3.030712,1.243547,55.527956,-0.031097,-0.0578,0.995331,0.046815,-0.039519,-0.021226,62.368393,26.126083,-147.737595,,,
729605829.437118,-3.016409,1.229701,55.521813,-0.031097,-0.0578,0.995331,0.060369,-0.039577,-0.022882,62.368393,26.126083,-147.737595,,,
729605829.440457,-3.016409,1.229701,55.521813,-0.031097,-0.0578,0.995331,0.060369,-0.039577,-0.022882,62.368393,26.126083,-147.737595,,,
729605829.443798,-2.998749,1.218136,55.515405,-0.023743,-0.049866,0.992554,0.060369,-0.039577,-0.022882,62.368393,26.126083,-147.737595,,,
729605829.44712,-2.985044,1.209347,55.50882,-0.023743,-0.049866,0.992554,0.060103,-0.023293,-0.022511,62.485107,25.805115,-147.393936,,,
729605829.450454,-2.985044,1.209347,55.50882,-0.023743,-0.049866,0.992554,0.060103,-0.023293,-0.022511,62.485107,25.805115,-147.393936,,,
729605829.453804,-2.96948,1.20487,55.5029,-0.018906,-0.044952,0.991577,0.060103,-0.023293,-0.022511,62.485107,25.805115,-147.393936,,,
729605829.457119,-2.958832,1.205784,55.498649,-0.018906,-0.044952,0.991577,0.049693,0.007626,-0.01331,62.485107,25.805115,-147.393936,,,
729605829.460509,-2.958832,1.205784,55.498649,-0.018906,-0.044952,0.991577,0.049693,0.007626,-0.01331,62.485107,25.805115,-147.393936,,,
729605829.463815,-2.947215,1.207707,55.496982,-0.026093,-0.042496,0.990128,0.049693,0.007626,-0.01331,62.485107,25.805115,-147.393936,,,
729605829.467113,-2.942624,1.212019,55.498007,-0.026093,-0.042496,0.990128,0.024297,0.011109,0.004916,62.485107,25.805115,-147.393936,,,
729605829.470467,-2.942624,1.212019,55.498007,-0.026093,-0.042496,0.990128,0.024297,0.011109,0.004916,62.485107,25.805115,-147.393936,,,
729605829.473849,-2.939833,1.214459,55.501069,-0.032486,-0.044205,0.971542,0.024297,0.011109,0.004916,62.485107,25.805115,-147.393936,,,
729605829.477113,-2.943769,1.219721,55.50532,-0.032486,-0.044205,0.971542,-0.008039,0.011297,0.011188,62.485107,25.805115,-147.393936,,,
729605829.480451,-2.943769,1.219721,55.50532,-0.032486,-0.044205,0.971542,-0.008039,0.011297,0.011188,62.485107,25.805115,-147.393936,,,
729605829.483794,-2.94853,1.221845,55.509119,-0.034821,-0.042236,0.966415,-0.008039,0.011297,0.011188,62.485107,25.805115,-147.393936,,,
729605829.487121,-2.959009,1.226292,55.512493,-0.034821,-0.042236,0.966415,-0.027937,0.006493,0.006623,62.485107,25.805115,-147.393936,,,
729605829.490461,-2.959009,1.226292,55.512493,-0.034821,-0.042236,0.966415,-0.027937,0.006493,0.006623,62.489441,25.807648,-147.004807,,,
729605829.493794,-2.968919,1.22595,55.515117,-0.038666,-0.040558,0.968994,-0.027937,0.006493,0.006623,62.489441,25.807648,-147.004807,,,
729605829.497121,-2.982487,1.226126,55.517932,-0.038666,-0.040558,0.968994,-0.041548,-0.009094,0.004881,62.489441,25.807648,-147.004807,,,
729605829.500456,-2.982487,1.226126,55.517932,-0.038666,-0.040558,0.968994,-0.041548,-0.009094,0.004881,62.489441,25.807648,-147.004807,,,
729605829.503801,-2.993399,1.219048,55.521635,-0.046249,-0.045868,0.970276,-0.041548,-0.009094,0.004881,62.489441,25.807648,-147.004807,,,
729605829.507118,-3.004364,1.208997,55.527963,-0.046249,-0.045868,0.970276,-0.032548,-0.046722,0.02005,62.489441,25.807648,-147.004807,,,
729605829.510469,-3.004364,1.208997,55.527963,-0.046249,-0.045868,0.970276,-0.032548,-0.046722,0.02005,62.489441,25.807648,-147.004807,,,
729605829.513847,-3.012357,1.191847,55.537233,-0.050339,-0.05574,0.974228,-0.032548,-0.046722,0.02005,62.489441,25.807648,-147.004807,,,
729605829.517116,-3.020116,1.17331,55.548289,-0.050339,-0.05574,0.974228,-0.024645,-0.070602,0.036275,62.489441,25.807648,-147.004807,,,
729605829.520466,-3.020116,1.17331,55.548289,-0.050339,-0.05574,0.974228,-0.024645,-0.070602,0.036275,62.489441,25.807648,-147.004807,,,
729605829.52379,-3.026336,1.151126,55.560663,-0.044647,-0.05896,0.979156,-0.024645,-0.070602,0.036275,62.489441,25.807648,-147.004807,,,
729605829.527126,-3.031253,1.126889,55.574364,-0.044647,-0.05896,0.979156,-0.022679,-0.085244,0.049027,62.489441,25.807648,-147.004807,,,
729605829.530445,-3.031253,1.126889,55.574364,-0.044647,-0.05896,0.979156,-0.022679,-0.085244,0.049027,62.487518,25.695038,-147.181061,,,
729605829.533784,-3.035988,1.100343,55.588382,-0.033997,-0.057327,0.988235,-0.022679,-0.085244,0.049027,62.487518,25.695038,-147.181061,,,
729605829.537112,-3.038952,1.07292,55.602258,-0.033997,-0.057327,0.988235,-0.015319,-0.094646,0.045529,62.487518,25.695038,-147.181061,,,
729605829.540552,-3.038952,1.07292,55.602258,-0.033997,-0.057327,0.988235,-0.015319,-0.094646,0.045529,62.487518,25.695038,-147.181061,,,
729605829.543816,-3.042924,1.045286,55.615967,-0.023376,-0.052673,0.997864,-0.015319,-0.094646,0.045529,62.487518,25.695038,-147.181061,,,
729605829.547136,-3.044972,1.020516,55.629039,-0.023376,-0.052673,0.997864,-0.009973,-0.090833,0.042507,62.487518,25.695038,-147.181061,,,
729605829.55046,-3.044972,1.020516,55.629039,-0.023376,-0.052673,0.997864,-0.009973,-0.090833,0.042507,62.487518,25.695038,-147.181061,,,
729605829.553889,-3.04786,0.995856,55.641289,-0.020599,-0.051331,1.005997,-0.009973,-0.090833,0.042507,62.487518,25.695038,-147.181061,,,
729605829.557112,-3.05025,0.975923,55.653349,-0.020599,-0.051331,1.005997,-0.012635,-0.079327,0.039598,62.487518,25.695038,-147.181061,,,
729605829.560464,-3.05025,0.975923,55.653349,-0.020599,-0.051331,1.005997,-0.012635,-0.079327,0.039598,62.487518,25.695038,-147.181061,,,
729605829.56381,-3.055077,0.954267,55.664737,-0.016342,-0.052902,1.005234,-0.012635,-0.079327,0.039598,62.487518,25.695038,-147.181061,,,
729605829.567118,-3.059676,0.939036,55.676327,-0.016342,-0.052902,1.005234,-0.023579,-0.0655,0.038911,62.487518,25.695038,-147.181061,,,
729605829.570448,-3.059676,0.939036,55.676327,-0.016342,-0.052902,1.005234,-0.023579,-0.0655,0.038911,62.115524,25.772125,-147.189316,,,
729605829.573799,-3.068331,0.922497,55.687816,-0.012863,-0.056213,0.999695,-0.023579,-0.0655,0.038911,62.115524,25.772125,-147.189316,,,
729605829.577115,-3.077211,0.915088,55.69969,-0.012863,-0.056213,0.999695,-0.037674,-0.046434,0.038239,62.115524,25.772125,-147.189316,,,
729605829.580514,-3.077211,0.915088,55.69969,-0.012863,-0.056213,0.999695,-0.037674,-0.046434,0.038239,62.115524,25.772125,-147.189316,,,
729605829.583778,-3.089494,0.904259,55.711293,-0.008591,-0.058777,0.999863,-0.037674,-0.046434,0.038239,62.115524,25.772125,-147.189316,,,
729605829.587116,-3.10287,0.905145,55.723118,-0.008591,-0.058777,0.999863,-0.049532,-0.021231,0.037288,62.115524,25.772125,-147.189316,,,
729605829.590466,-3.10287,0.905145,55.723118,-0.008591,-0.058777,0.999863,-0.049532,-0.021231,0.037288,62.115524,25.772125,-147.189316,,,
729605829.593876,-3.117979,0.900574,55.734287,-0.007401,-0.058624,1.000031,-0.049532,-0.021231,0.037288,62.115524,25.772125,-147.189316,,,
729605829.597122,-3.133875,0.906708,55.746446,-0.007401,-0.058624,1.000031,-0.053599,-0.006222,0.039693,62.115524,25.772125,-147.189316,,,
729605829.600453,-3.133875,0.906708,55.746446,-0.007401,-0.058624,1.000031,-0.053599,-0.006222,0.039693,62.115524,25.772125,-147.189316,,,
729605829.603792,-3.147027,0.906077,55.758994,-0.011749,-0.064316,1.000626,-0.053599,-0.006222,0.039693,62.115524,25.772125,-147.189316,,,
729605829.607125,-3.158535,0.914729,55.772084,-0.011749,-0.064316,1.000626,-0.034581,0.00649,0.041855,62.115524,25.772125,-147.189316,,,
729605829.610455,-3.158535,0.914729,55.772084,-0.011749,-0.064316,1.000626,-0.034581,0.00649,0.041855,62.067307,25.990784,-147.142212,,,
729605829.613863,-3.165337,0.918641,55.785037,-0.009125,-0.068039,1.012558,-0.034581,0.00649,0.041855,62.067307,25.990784,-147.142212,,,
729605829.617179,-3.16684,0.927885,55.798978,-0.009125,-0.068039,1.012558,0.001676,0.024429,0.046074,62.067307,25.990784,-147.142212,,,
729605829.62053,-3.16684,0.927885,55.798978,-0.009125,-0.068039,1.012558,0.001676,0.024429,0.046074,62.067307,25.990784,-147.142212,,,
729605829.623792,-3.163398,0.934199,55.813129,-0.006302,-0.065903,1.022232,0.001676,0.024429,0.046074,62.067307,25.990784,-147.142212,,,
729605829.627128,-3.154818,0.940023,55.827015,-0.006302,-0.065903,1.022232,0.031737,0.016909,0.046459,62.067307,25.990784,-147.142212,,,
729605829.630456,-3.154818,0.940023,55.827015,-0.006302,-0.065903,1.022232,0.031737,0.016909,0.046459,62.067307,25.990784,-147.142212,,,
729605829.633785,-3.144237,0.942312,55.840545,-0.005508,-0.063934,1.012878,0.031737,0.016909,0.046459,62.067307,25.990784,-147.142212,,,
729605829.637117,-3.131001,0.943251,55.853496,-0.005508,-0.063934,1.012878,0.046975,-0.001528,0.043659,62.067307,25.990784,-147.142212,,,
729605829.640469,-3.131001,0.943251,55.853496,-0.005508,-0.063934,1.012878,0.046975,-0.001528,0.043659,62.067307,25.990784,-147.142212,,,
729605829.643903,-3.116429,0.943016,55.864644,-0.000519,-0.060394,0.99971,0.046975,-0.001528,0.043659,62.067307,25.990784,-147.142212,,,
729605829.647117,-3.101169,0.943964,55.873632,-0.000519,-0.060394,0.99971,0.050509,0.00897,0.029638,62.067307,25.990784,-147.142212,,,
729605829.650456,-3.101169,0.943964,55.873632,-0.000519,-0.060394,0.99971,0.050509,0.00897,0.029638,62.067307,25.990784,-147.142212,,,
729605829.65381,-3.087206,0.947796,55.880654,0.008789,-0.051254,1.002136,0.050509,0.00897,0.029638,62.12384,25.928574,-147.382812,,,
729605829.657121,-3.076737,0.951984,55.885409,0.008789,-0.051254,1.002136,0.035604,0.022066,0.013909,62.12384,25.928574,-147.382812,,,
729605829.660529,-3.076737,0.951984,55.885409,0.008789,-0.051254,1.002136,0.035604,0.022066,0.013909,62.12384,25.928574,-147.382812,,,
729605829.663793,-3.068475,0.958166,55.888305,0.012711,-0.045364,0.995224,0.035604,0.022066,0.013909,62.12384,25.928574,-147.382812,,,
729605829.667118,-3.063881,0.961923,55.88979,0.012711,-0.045364,0.995224,0.017987,0.026908,0.004375,62.12384,25.928574,-147.382812,,,
729605829.670463,-3.063881,0.961923,55.88979,0.012711,-0.045364,0.995224,0.017987,0.026908,0.004375,62.12384,25.928574,-147.382812,,,
729605829.673783,-3.061437,0.967814,55.890134,0.010452,-0.049576,0.989899,0.017987,0.026908,0.004375,62.12384,25.928574,-147.382812,,,
729605829.677118,-3.063252,0.972042,55.888552,0.010452,-0.049576,0.989899,-0.000847,0.02796,-0.00682,62.12384,25.928574,-147.382812,,,
729605829.680471,-3.063252,0.972042,55.888552,0.010452,-0.049576,0.989899,-0.000847,0.02796,-0.00682,62.12384,25.928574,-147.382812,,,
729605829.683861,-3.06618,0.979383,55.885113,0.007614,-0.050858,0.993378,-0.000847,0.02796,-0.00682,62.12384,25.928574,-147.382812,,,
729605829.687107,-3.073829,0.985177,55.879799,0.007614,-0.050858,0.993378,-0.01965,0.025587,-0.021592,62.12384,25.928574,-147.382812,,,
729605829.690452,-3.073829,0.985177,55.879799,0.007614,-0.050858,0.993378,-0.01965,0.025587,-0.021592,62.12384,25.928574,-147.382812,,,
729605829.693779,-3.080417,0.989925,55.873002,0.003464,-0.049911,0.992905,-0.01965,0.025587,-0.021592,62.125229,26.11084,-147.475647,,,
729605829.697117,-3.088932,0.988767,55.864416,0.003464,-0.049911,0.992905,-0.016077,0.003302,-0.033841,62.125229,26.11084,-147.475647,,,
729605829.700451,-3.088932,0.988767,55.864416,0.003464,-0.049911,0.992905,-0.016077,0.003302,-0.033841,62.125229,26.11084,-147.475647,,,
729605829.70379,-3.091837,0.989322,55.854318,-0.003464,-0.050873,0.99054,-0.016077,0.003302,-0.033841,62.125229,26.11084,-147.475647,,,
729605829.707117,-3.092532,0.990247,55.842572,-0.003464,-0.050873,0.99054,0.011061,0.024596,-0.040684,62.125229,26.11084,-147.475647,,,
729605829.710549,-3.092532,0.990247,55.842572,-0.003464,-0.050873,0.99054,0.011061,0.024596,-0.040684,62.125229,26.11084,-147.475647,,,
729605829.713808,-3.086045,0.9988,55.82979,-0.005035,-0.054199,1.020523,0.011061,0.024596,-0.040684,62.125229,26.11084,-147.475647,,,
729605829.717121,-3.075608,1.007032,55.816572,-0.005035,-0.054199,1.020523,0.050779,0.049817,-0.045415,62.125229,26.11084,-147.475647,,,
729605829.720464,-3.075608,1.007032,55.816572,-0.005035,-0.054199,1.020523,0.050779,0.049817,-0.045415,62.125229,26.11084,-147.475647,,,
729605829.723835,-3.058208,1.022431,55.804376,0.000732,-0.058426,1.026642,0.050779,0.049817,-0.045415,62.125229,26.11084,-147.475647,,,
729605829.727122,-3.038205,1.037329,55.793749,0.000732,-0.058426,1.026642,0.075575,0.080197,-0.033485,62.125229,26.11084,-147.475647,,,
729605829.73048,-3.038205,1.037329,55.793749,0.000732,-0.058426,1.026642,0.075575,0.080197,-0.033485,62.125229,26.11084,-147.475647,,,
729605829.733791,-3.015593,1.063469,55.78589,-0.01355,-0.065521,1.017273,0.075575,0.080197,-0.033485,62.226456,25.876465,-147.453995,,,
729605829.737121,-2.991055,1.086505,55.779892,-0.01355,-0.065521,1.017273,0.085197,0.114119,-0.016554,62.226456,25.876465,-147.453995,,,
729605829.740479,-2.991055,1.086505,55.779892,-0.01355,-0.065521,1.017273,0.085197,0.114119,-0.016554,62.226456,25.876465,-147.453995,,,
729605829.743815,-2.967143,1.120695,55.776084,-0.022858,-0.06279,1.007629,0.085197,0.114119,-0.016554,62.226456,25.876465,-147.453995,,,
729605829.74712,-2.943351,1.147675,55.773917,-0.022858,-0.06279,1.007629,0.078038,0.124882,-0.003839,62.226456,25.876465,-147.453995,,,
729605829.75045,-2.943351,1.147675,55.773917,-0.022858,-0.06279,1.007629,0.078038,0.124882,-0.003839,62.226456,25.876465,-147.453995,,,
729605829.753811,-2.922614,1.181538,55.773646,-0.025925,-0.055237,0.992432,0.078038,0.124882,-0.003839,62.226456,25.876465,-147.453995,,,
729605829.757121,-2.90515,1.206042,55.773293,-0.025925,-0.055237,0.992432,0.056333,0.113678,0.002272,62.226456,25.876465,-147.453995,,,
729605829.760457,-2.90515,1.206042,55.773293,-0.025925,-0.055237,0.992432,0.056333,0.113678,0.002272,62.226456,25.876465,-147.453995,,,
729605829.763887,-2.892121,1.23625,55.773355,-0.033249,-0.049698,0.979965,0.056333,0.113678,0.002272,62.226456,25.876465,-147.453995,,,
729605829.767113,-2.883154,1.256339,55.772381,-0.033249,-0.049698,0.979965,0.028199,0.100432,-0.006255,62.226456,25.876465,-147.453995,,,
729605829.770468,-2.883154,1.256339,55.772381,-0.033249,-0.049698,0.979965,0.028199,0.100432,-0.006255,62.226456,25.876465,-147.453995,,,
729605829.77381,-2.877892,1.280353,55.769835,-0.028671,-0.042709,0.977692,0.028199,0.100432,-0.006255,62.393814,25.719376,-147.462952,,,
729605829.777255,-2.876741,1.293203,55.764749,-0.028671,-0.042709,0.977692,0.002566,0.065331,-0.021016,62.393814,25.719376,-147.462952,,,
729605829.780478,-2.876741,1.293203,55.764749,-0.028671,-0.042709,0.977692,0.002566,0.065331,-0.021016,62.393814,25.719376,-147.462952,,,
729605829.783811,-2.879529,1.307703,55.759254,-0.03627,-0.039429,0.971985,0.002566,0.065331,-0.021016,62.393814,25.719376,-147.462952,,,
729605829.787117,-2.885861,1.312594,55.753284,-0.03627,-0.039429,0.971985,-0.020533,0.03336,-0.023687,62.393814,25.719376,-147.462952,,,
729605829.790453,-2.885861,1.312594,55.753284,-0.03627,-0.039429,0.971985,-0.020533,0.03336,-0.023687,62.393814,25.719376,-147.462952,,,
729605829.793802,-2.893423,1.315305,55.74726,-0.045914,-0.043411,0.971512,-0.020533,0.03336,-0.023687,62.393814,25.719376,-147.462952,,,
729605829.79711,-2.902122,1.303986,55.741331,-0.045914,-0.043411,0.971512,-0.028707,-0.021223,-0.022245,62.393814,25.719376,-147.462952,,,
729605829.80045,-2.902122,1.303986,55.741331,-0.045914,-0.043411,0.971512,-0.028707,-0.021223,-0.022245,62.393814,25.719376,-147.462952,,,
729605829.803848,-2.909863,1.291017,55.735729,-0.046295,-0.049179,0.967697,-0.028707,-0.021223,-0.022245,62.393814,25.719376,-147.462952,,,
729605829.807107,-2.91745,1.268602,55.729181,-0.046295,-0.049179,0.967697,-0.015485,-0.060522,-0.023568,62.393814,25.719376,-147.462952,,,
729605829.810458,-2.91745,1.268602,55.729181,-0.046295,-0.049179,0.967697,-0.015485,-0.060522,-0.023568,62.393814,25.719376,-147.462952,,,
729605829.813795,-2.920275,1.249128,55.722201,-0.038345,-0.050674,0.983566,-0.015485,-0.060522,-0.023568,62.393814,25.719376,-147.462952,,,
729605829.817117,-2.923394,1.225304,55.714452,-0.038345,-0.050674,0.983566,0.001625,-0.076985,-0.028875,62.768005,25.693436,-147.440506,,,
729605829.820465,-2.923394,1.225304,55.714452,-0.038345,-0.050674,0.983566,0.001625,-0.076985,-0.028875,62.768005,25.693436,-147.440506,,,
729605829.823797,-2.921928,1.1989,55.70645,-0.027588,-0.050705,0.990768,0.001625,-0.076985,-0.028875,62.768005,25.693436,-147.440506,,,
729605829.827113,-2.92109,1.171228,55.69905,-0.027588,-0.050705,0.990768,0.011884,-0.095778,-0.028982,62.768005,25.693436,-147.440506,,,
729605829.830533,-2.92109,1.171228,55.69905,-0.027588,-0.050705,0.990768,0.011884,-0.095778,-0.028982,62.768005,25.693436,-147.440506,,,
729605829.833779,-2.917804,1.142853,55.692695,-0.021683,-0.056152,0.988678,0.011884,-0.095778,-0.028982,62.768005,25.693436,-147.440506,,,
729605829.837115,-2.915935,1.11873,55.687276,-0.021683,-0.056152,0.988678,0.006959,-0.087852,-0.019971,62.768005,25.693436,-147.440506,,,
729605829.840462,-2.915935,1.11873,55.687276,-0.021683,-0.056152,0.988678,0.006959,-0.087852,-0.019971,62.768005,25.693436,-147.440506,,,
729605829.843838,-2.915927,1.094756,55.682424,-0.017441,-0.056335,0.990585,0.006959,-0.087852,-0.019971,62.768005,25.693436,-147.440506,,,
729605829.847104,-2.91805,1.077493,55.67801,-0.017441,-0.056335,0.990585,-0.012011,-0.066609,-0.018867,62.768005,25.693436,-147.440506,,,
729605829.850448,-2.91805,1.077493,55.67801,-0.017441,-0.056335,0.990585,-0.012011,-0.066609,-0.018867,62.768005,25.693436,-147.440506,,,
729605829.853782,-2.923249,1.060025,55.672606,-0.008865,-0.054077,0.992096,-0.012011,-0.066609,-0.018867,62.768005,25.693436,-147.440506,,,
729605829.857118,-2.929693,1.049187,55.666168,-0.008865,-0.054077,0.992096,-0.031855,-0.041738,-0.024469,62.383224,25.942108,-147.638641,,,
729605829.860456,-2.929693,1.049187,55.666168,-0.008865,-0.054077,0.992096,-0.031855,-0.041738,-0.024469,62.383224,25.942108,-147.638641,,,
729605829.863886,-2.941212,1.038235,55.65952,-0.004227,-0.051285,0.992859,-0.031855,-0.041738,-0.024469,62.383224,25.942108,-147.638641,,,
729605829.867131,-2.952482,1.035409,55.65335,-0.004227,-0.051285,0.992859,-0.047295,-0.025713,-0.026482,62.383224,25.942108,-147.638641,,,
729605829.870531,-2.952482,1.035409,55.65335,-0.004227,-0.051285,0.992859,-0.047295,-0.025713,-0.026482,62.383224,25.942108,-147.638641,,,
729605829.8738,-2.966438,1.02767,55.646489,-0.011093,-0.054474,0.99437,-0.047295,-0.025713,-0.026482,62.383224,25.942108,-147.638641,,,
729605829.877124,-2.979576,1.026766,55.64005,-0.011093,-0.054474,0.99437,-0.049051,-0.025505,-0.027432,62.383224,25.942108,-147.638641,,,
729605829.880469,-2.979576,1.026766,55.64005,-0.011093,-0.054474,0.99437,-0.049051,-0.025505,-0.027432,62.383224,25.942108,-147.638641,,,
729605829.883794,-2.993885,1.016689,55.632797,-0.018524,-0.061493,0.995834,-0.049051,-0.025505,-0.027432,62.383224,25.942108,-147.638641,,,
729605829.887123,-3.00854,1.011993,55.624735,-0.018524,-0.061493,0.995834,-0.048608,-0.038167,-0.031512,62.383224,25.942108,-147.638641,,,
729605829.890467,-3.00854,1.011993,55.624735,-0.018524,-0.061493,0.995834,-0.048608,-0.038167,-0.031512,62.383224,25.942108,-147.638641,,,
729605829.893891,-3.022692,0.996856,55.614713,-0.017654,-0.06427,0.992584,-0.048608,-0.038167,-0.031512,62.383224,25.942108,-147.638641,,,
729605829.897118,-3.034842,0.981798,55.603126,-0.017654,-0.06427,0.992584,-0.038344,-0.064258,-0.044539,62.44104,25.981461,-146.850372,,,
729605829.900532,-3.034842,0.981798,55.603126,-0.017654,-0.06427,0.992584,-0.038344,-0.064258,-0.044539,62.44104,25.981461,-146.850372,,,
729605829.903806,-3.045053,0.959817,55.589012,-0.015121,-0.067291,0.993713,-0.038344,-0.064258,-0.044539,62.44104,25.981461,-146.850372,,,
729605829.907153,-3.052735,0.93688,55.57243,-0.015121,-0.067291,0.993713,-0.021206,-0.081652,-0.05979,62.44104,25.981461,-146.850372,,,
729605829.910451,-3.052735,0.93688,55.57243,-0.015121,-0.067291,0.993713,-0.021206,-0.081652,-0.05979,62.44104,25.981461,-146.850372,,,
729605829.913787,-3.057559,0.910553,55.554103,-0.008621,-0.05867,0.998657,-0.021206,-0.081652,-0.05979,62.44104,25.981461,-146.850372,,,
729605829.917119,-3.06022,0.884438,55.535364,-0.008621,-0.05867,0.998657,-0.002295,-0.088921,-0.065896,62.44104,25.981461,-146.850372,,,
729605829.920556,-3.06022,0.884438,55.535364,-0.008621,-0.05867,0.998657,-0.002295,-0.088921,-0.065896,62.44104,25.981461,-146.850372,,,
729605829.923796,-3.059246,0.858497,55.517128,-0.008148,-0.054657,1.003464,-0.002295,-0.088921,-0.065896,62.44104,25.981461,-146.850372,,,
729605829.927124,-3.055167,0.834675,55.499885,-0.008148,-0.054657,1.003464,0.020283,-0.074579,-0.059314,62.44104,25.981461,-146.850372,,,
729605829.930453,-3.055167,0.834675,55.499885,-0.008148,-0.054657,1.003464,0.020283,-0.074579,-0.059314,62.44104,25.981461,-146.850372,,,
729605829.93379,-3.047936,0.81458,55.484614,-0.009232,-0.056366,1.007996,0.020283,-0.074579,-0.059314,62.44104,25.981461,-146.850372,,,
729605829.937158,-3.038864,0.796947,55.471657,-0.009232,-0.056366,1.007996,0.034973,-0.043804,-0.046641,62.44104,25.981461,-146.850372,,,
729605829.940461,-3.038864,0.796947,55.471657,-0.009232,-0.056366,1.007996,0.034973,-0.043804,-0.046641,62.440338,25.705536,-147.225861,,,
729605829.943875,-3.028703,0.786294,55.460514,-0.009903,-0.057556,1.004257,0.034973,-0.043804,-0.046641,62.440338,25.705536,-147.225861,,,
729605829.947106,-3.028703,0.786294,55.451587,-0.009903,-0.057556,1.004257,0.034103,-0.013587,-0.031011,62.440338,25.705536,-147.225861,,,
729605829.950504,-3.019058,0.77747,55.451587,-0.009903,-0.057556,1.004257,0.034103,-0.013587,-0.031011,62.440338,25.705536,-147.225861,,,
729605829.953775,-3.011312,0.77319,55.445473,-0.015915,-0.061478,0.994446,0.034103,-0.013587,-0.031011,62.440338,25.705536,-147.225861,,,
729605829.957116,-3.007173,0.770121,55.440822,-0.015915,-0.061478,0.994446,0.016576,-0.008265,-0.015652,62.440338,25.705536,-147.225861,,,
729605829.960462,-3.007173,0.770121,55.440822,-0.015915,-0.061478,0.994446,0.016576,-0.008265,-0.015652,62.440338,25.705536,-147.225861,,,
729605829.963787,-3.006451,0.766034,55.436316,-0.017746,-0.056915,0.976807,0.016576,-0.008265,-0.015652,62.440338,25.705536,-147.225861,,,
729605829.967116,-3.006451,0.766034,55.436316,-0.017746,-0.056915,0.976807,-0.013571,-0.0144,-0.023641,62.440338,25.705536,-147.225861,,,
729605829.970532,-3.012204,0.762389,55.43062,-0.017746,-0.056915,0.976807,-0.013571,-0.0144,-0.023641,62.440338,25.705536,-147.225861,,,
729605829.973811,-3.019935,0.757106,55.42252,-0.011292,-0.046021,0.970184,-0.013571,-0.0144,-0.023641,62.440338,25.705536,-147.225861,,,
729605829.977117,-3.019935,0.752708,55.411866,-0.011292,-0.046021,0.970184,-0.04522,-0.013294,-0.043097,62.440338,25.705536,-147.225861,,,
729605829.980463,-3.034585,0.752708,55.411866,-0.011292,-0.046021,0.970184,-0.04522,-0.013294,-0.043097,62.199326,25.66835,-147.443344,,,
729605829.983808,-3.050456,0.74626,55.398438,-0.006439,-0.041718,0.974258,-0.04522,-0.013294,-0.043097,62.199326,25.66835,-147.443344,,,
729605829.987114,-3.050456,0.74626,55.398438,-0.006439,-0.041718,0.974258,-0.064968,-0.025377,-0.058045,62.199326,25.66835,-147.443344,,,
729605829.990468,-3.071635,0.737687,55.382761,-0.006439,-0.041718,0.974258,-0.064968,-0.025377,-0.058045,62.199326,25.66835,-147.443344,,,
729605829.993806,-3.092311,0.72761,55.365775,-0.003448,-0.043213,0.976669,-0.064968,-0.025377,-0.058045,62.199326,25.66835,-147.443344,,,
729605829.997115,-3.092311,0.72761,55.365775,-0.003448,-0.043213,0.976669,-0.073308,-0.030438,-0.060179,62.199326,25.66835,-147.443344,,,
729605830.000457,-3.114405,0.716102,55.348973,-0.003448,-0.043213,0.976669,-0.073308,-0.030438,-0.060179,62.199326,25.66835,-147.443344,,,
729605830.003802,-3.136105,0.706874,55.333792,-0.010742,-0.05159,0.991623,-0.073308,-0.030438,-0.060179,62.199326,25.66835,-147.443344,,,
729605830.007174,-3.136105,0.706874,55.333792,-0.010742,-0.05159,0.991623,-0.070186,-0.017916,-0.043963,62.199326,25.66835,-147.443344,,,
729605830.010445,-3.15655,0.698184,55.32109,-0.010742,-0.05159,0.991623,-0.070186,-0.017916,-0.043963,62.199326,25.66835,-147.443344,,,
729605830.013781,-3.174568,0.692412,55.311505,-0.018845,-0.055054,0.999466,-0.070186,-0.017916,-0.043963,62.199326,25.66835,-147.443344,,,
729605830.017152,-3.174568,0.692412,55.311505,-0.018845,-0.055054,0.999466,-0.045784,-0.006769,-0.027221,62.199326,25.66835,-147.443344,,,
729605830.020456,-3.188886,0.688022,55.303746,-0.018845,-0.055054,0.999466,-0.045784,-0.006769,-0.027221,62.185959,26.01767,-147.11882,,,
729605830.023789,-3.199575,0.68666,55.296779,-0.013657,-0.057617,1.010422,-0.045784,-0.006769,-0.027221,62.185959,26.01767,-147.11882,,,
729605830.027149,-3.199575,0.68666,55.296779,-0.013657,-0.057617,1.010422,-0.02625,0.009002,-0.02698,62.185959,26.01767,-147.11882,,,
729605830.03045,-3.208376,0.687839,55.289654,-0.013657,-0.057617,1.010422,-0.02625,0.009002,-0.02698,62.185959,26.01767,-147.11882,,,
729605830.033797,-3.213674,0.691221,55.282275,-0.009552,-0.055176,1.008972,-0.02625,0.009002,-0.02698,62.185959,26.01767,-147.11882,,,
729605830.037119,-3.213674,0.691221,55.282275,-0.009552,-0.055176,1.008972,-0.010028,0.023994,-0.024803,62.185959,26.01767,-147.11882,,,
729605830.040449,-3.218088,0.697772,55.27558,-0.009552,-0.055176,1.008972,-0.010028,0.023994,-0.024803,62.185959,26.01767,-147.11882,,,
729605830.04378,-3.219916,0.704449,55.269663,-0.022537,-0.058563,1.005096,-0.010028,0.023994,-0.024803,62.185959,26.01767,-147.11882,,,
729605830.047115,-3.219916,0.704449,55.269663,-0.022537,-0.058563,1.005096,-0.00338,0.034183,-0.01433,62.185959,26.01767,-147.11882,,,
729605830.050453,-3.220362,0.713976,55.265332,-0.022537,-0.058563,1.005096,-0.00338,0.034183,-0.01433,62.185959,26.01767,-147.11882,,,
729605830.05378,-3.221874,0.723862,55.26269,-0.028198,-0.058121,1.002563,-0.00338,0.034183,-0.01433,62.185959,26.01767,-147.11882,,,
729605830.057113,-3.221874,0.723862,55.26269,-0.028198,-0.058121,1.002563,-0.00338,0.034183,-0.005656,62.185959,26.01767,-147.11882,,,
729605830.060447,-3.22237,0.732807,55.261604,-0.028198,-0.058121,1.002563,-0.01132,0.034696,-0.005656,62.107178,25.96228,-147.605545,,,
729605830.06378,-3.226276,0.742526,55.262286,-0.029663,-0.056,0.995773,-0.01132,0.034696,-0.005656,62.107178,25.96228,-147.605545,,,
729605830.067128,-3.226276,0.742526,55.262286,-0.029663,-0.056,0.995773,-0.01132,0.034696,-0.005656,62.107178,25.96228,-147.605545,,,
729605830.070471,-3.229316,0.750835,55.263706,-0.029663,-0.056,0.995773,-0.021149,0.038605,0.003624,62.107178,25.96228,-147.605545,,,
729605830.073785,-3.237753,0.760778,55.265249,-0.027359,-0.055084,0.994385,-0.021149,0.038605,0.003624,62.107178,25.96228,-147.605545,,,
729605830.07722,-3.237753,0.760778,55.265249,-0.027359,-0.055084,0.994385,-0.036575,0.030536,0.000899,62.107178,25.96228,-147.605545,,,
729605830.080472,-3.246477,0.767188,55.266439,-0.027359,-0.055084,0.994385,-0.036575,0.030536,0.000899,62.107178,25.96228,-147.605545,,,
729605830.083787,-3.258078,0.773714,55.26696,-0.026016,-0.051743,0.992508,-0.036575,0.030536,0.000899,62.107178,25.96228,-147.605545,,,
729605830.087204,-3.258078,0.773714,55.26696,-0.026016,-0.051743,0.992508,-0.036575,0.030536,0.000899,62.107178,25.96228,-147.605545,,,
729605830.090554,-3.269047,0.77761,55.266889,-0.026016,-0.051743,0.992508,-0.039135,0.013457,-0.003635,62.107178,25.96228,-147.605545,,,
729605830.093914,-3.28026,0.777709,55.266104,-0.02565,-0.049606,0.996597,-0.039135,0.013457,-0.003635,62.107178,25.96228,-147.605545,,,
729605830.097184,-3.28026,0.777709,55.266104,-0.02565,-0.049606,0.996597,-0.039135,0.013457,-0.003635,62.107178,25.96228,-147.605545,,,
729605830.100509,-3.290731,0.77467,55.264191,-0.02565,-0.049606,0.996597,-0.0365,-0.015533,-0.011459,62.107178,25.96228,-147.605545,,,
729605830.103446,-3.300381,0.765539,55.261458,-0.019821,-0.05127,0.99115,-0.0365,-0.015533,-0.011459,62.581589,25.885452,-147.225204,,,
729605830.107225,-3.300381,0.765539,55.261458,-0.019821,-0.05127,0.99115,-0.0365,-0.015533,-0.011459,62.581589,25.885452,-147.225204,,,
729605830.110454,-3.307542,0.752004,55.258465,-0.019821,-0.05127,0.99115,-0.023861,-0.039234,-0.010987,62.581589,25.885452,-147.225204,,,
729605830.113803,-3.312279,0.737977,55.255841,-0.017899,-0.054474,0.996277,-0.023861,-0.039234,-0.010987,62.581589,25.885452,-147.225204,,,
729605830.117153,-3.312279,0.737977,55.255841,-0.017899,-0.054474,0.996277,-0.023861,-0.039234,-0.010987,62.581589,25.885452,-147.225204,,,
729605830.120456,-3.313878,0.724263,55.253483,-0.017899,-0.054474,0.996277,-0.007951,-0.045352,-0.013236,62.581589,25.885452,-147.225204,,,
729605830.123781,-3.313303,0.711016,55.2512,-0.01265,-0.055725,1.008362,-0.007951,-0.045352,-0.013236,62.581589,25.885452,-147.225204,,,
729605830.127168,-3.313303,0.711016,55.2512,-0.01265,-0.055725,1.008362,-0.007951,-0.045352,-0.013236,62.581589,25.885452,-147.225204,,,
729605830.130468,-3.310868,0.702728,55.249641,-0.01265,-0.055725,1.008362,0.015258,-0.035773,-0.006812,62.581589,25.885452,-147.225204,,,
729605830.133805,-3.307001,0.693815,55.248587,-0.00386,-0.056274,1.011887,0.015258,-0.035773,-0.006812,62.581589,25.885452,-147.225204,,,
729605830.137153,-3.307001,0.693815,55.248587,-0.00386,-0.056274,1.011887,0.015258,-0.035773,-0.006812,62.581589,25.885452,-147.225204,,,
729605830.140547,-3.301965,0.693347,55.248658,-0.00386,-0.056274,1.011887,0.016373,-0.010021,-0.002498,62.581589,25.885452,-147.225204,,,
729605830.143782,-3.296076,0.693185,55.248741,-0.000107,-0.054062,1.014313,0.016373,-0.010021,-0.002498,62.423386,25.759735,-146.993073,,,
729605830.147172,-3.296076,0.693185,55.248741,-0.000107,-0.054062,1.014313,0.016373,-0.010021,-0.002498,62.423386,25.759735,-146.993073,,,
729605830.150448,-3.288847,0.701884,55.248679,-0.000107,-0.054062,1.014313,0.025401,0.022767,-0.0049,62.423386,25.759735,-146.993073,,,
729605830.153786,-3.281537,0.709478,55.249076,-0.000412,-0.0522,1.017944,0.025401,0.022767,-0.0049,62.423386,25.759735,-146.993073,,,
729605830.15717,-3.281537,0.709478,55.249076,-0.000412,-0.0522,1.017944,0.025401,0.022767,-0.0049,62.423386,25.759735,-146.993073,,,
729605830.16047,-3.273754,0.722639,55.250777,-0.000412,-0.0522,1.017944,0.027163,0.036835,0.00358,62.423386,25.759735,-146.993073,,,
729605830.163788,-3.267583,0.733186,55.253472,-0.006104,-0.051331,1.008896,0.027163,0.036835,0.00358,62.423386,25.759735,-146.993073,,,
729605830.167131,-3.267583,0.733186,55.253472,-0.006104,-0.051331,1.008896,0.027163,0.036835,0.00358,62.423386,25.759735,-146.993073,,,
729605830.170471,-3.261685,0.747775,55.257745,-0.006104,-0.051331,1.008896,0.018223,0.044386,0.015113,62.423386,25.759735,-146.993073,,,
729605830.173782,-3.258784,0.758411,55.262093,-0.009796,-0.051743,0.997711,0.018223,0.044386,0.015113,62.423386,25.759735,-146.993073,,,
729605830.177218,-3.258784,0.758411,55.262093,-0.009796,-0.051743,0.997711,0.018223,0.044386,0.015113,62.423386,25.759735,-146.993073,,,
729605830.180452,-3.256638,0.769744,55.265168,-0.009796,-0.051743,0.997711,0.000755,0.03405,0.006898,62.423386,25.759735,-146.993073,,,
729605830.183781,-3.258287,0.775364,55.265637,-0.008209,-0.049637,0.990051,0.000755,0.03405,0.006898,62.346252,25.815704,-147.353348,,,
729605830.187129,-3.258287,0.775364,55.265637,-0.008209,-0.049637,0.990051,0.000755,0.03405,0.006898,62.346252,25.815704,-147.353348,,,
729605830.190526,-3.26134,0.778294,55.263254,-0.008209,-0.049637,0.990051,-0.013794,0.003751,-0.011394,62.346252,25.815704,-147.353348,,,
729605830.193778,-3.265131,0.774861,55.257646,-0.008087,-0.050537,0.986252,-0.013794,0.003751,-0.011394,62.346252,25.815704,-147.353348,,,
729605830.197112,-3.265131,0.774861,55.257646,-0.008087,-0.050537,0.986252,-0.013794,0.003751,-0.011394,62.346252,25.815704,-147.353348,,,
729605830.200452,-3.268575,0.767303,55.249291,-0.008087,-0.050537,0.986252,-0.011985,-0.029025,-0.035359,62.346252,25.815704,-147.353348,,,
729605830.20379,-3.271439,0.753992,55.238509,-0.013458,-0.055115,0.991318,-0.011985,-0.029025,-0.035359,62.346252,25.815704,-147.353348,,,
729605830.207134,-3.271439,0.753992,55.238509,-0.013458,-0.055115,0.991318,-0.011985,-0.029025,-0.035359,62.346252,25.815704,-147.353348,,,
729605830.210462,-3.269967,0.735425,55.226823,-0.013458,-0.055115,0.991318,0.009304,-0.060718,-0.042175,62.346252,25.815704,-147.353348,,,
729605830.213786,-3.262956,0.716703,55.215828,-0.018005,-0.062256,1.001526,0.009304,-0.060718,-0.042175,62.346252,25.815704,-147.353348,,,
729605830.217116,-3.262956,0.716703,55.215828,-0.018005,-0.062256,1.001526,0.009304,-0.060718,-0.042175,62.346252,25.815704,-147.353348,,,
729605830.220464,-3.249529,0.695478,55.205735,-0.018005,-0.062256,1.001526,0.054218,-0.062575,-0.03501,62.346252,25.815704,-147.353348,,,
729605830.223788,-3.231098,0.676857,55.196619,-0.017761,-0.065338,1.020355,0.054218,-0.062575,-0.03501,62.19043,25.741943,-147.439957,,,
729605830.227128,-3.231098,0.676857,55.196619,-0.017761,-0.065338,1.020355,0.054218,-0.062575,-0.03501,62.19043,25.741943,-147.439957,,,
729605830.230522,-3.207751,0.655786,55.188483,-0.017761,-0.065338,1.020355,0.083518,-0.056853,-0.027561,62.19043,25.741943,-147.439957,,,
729605830.23378,-3.183226,0.639045,55.181877,-0.013336,-0.064957,1.013931,0.083518,-0.056853,-0.027561,62.19043,25.741943,-147.439957,,,
729605830.237129,-3.183226,0.639045,55.181877,-0.013336,-0.064957,1.013931,0.083518,-0.056853,-0.027561,62.19043,25.741943,-147.439957,,,
729605830.240461,-3.158344,0.622616,55.176645,-0.013336,-0.064957,1.013931,0.083543,-0.043972,-0.01788,62.19043,25.741943,-147.439957,,,
729605830.243784,-3.136672,0.611469,55.172612,-0.017807,-0.063904,0.999496,0.083543,-0.043972,-0.01788,62.19043,25.741943,-147.439957,,,
729605830.247108,-3.136672,0.611469,55.172612,-0.017807,-0.063904,0.999496,0.083543,-0.043972,-0.01788,62.19043,25.741943,-147.439957,,,
729605830.250478,-3.117373,0.601394,55.168862,-0.017807,-0.063904,0.999496,0.063885,-0.026143,-0.013133,62.19043,25.741943,-147.439957,,,
729605830.253786,-3.102395,0.592875,55.164269,-0.016098,-0.05513,0.988739,0.063885,-0.026143,-0.013133,62.19043,25.741943,-147.439957,,,
729605830.257209,-3.102395,0.592875,55.164269,-0.016098,-0.05513,0.988739,0.063885,-0.026143,-0.013133,62.19043,25.741943,-147.439957,,,
729605830.260469,-3.091275,0.583167,55.157571,-0.016098,-0.05513,0.988739,0.032933,-0.031134,-0.024343,62.19043,25.741943,-147.439957,,,
729605830.263781,-3.084679,0.569036,55.148744,-0.010391,-0.046936,0.972198,0.032933,-0.031134,-0.024343,62.19043,25.741943,-147.439957,,,
729605830.267124,-3.084679,0.569036,55.148744,-0.010391,-0.046936,0.972198,0.032933,-0.031134,-0.024343,62.127075,25.904922,-147.17337,,,
729605830.270467,-3.080748,0.549405,55.137152,-0.010391,-0.046936,0.972198,0.010122,-0.067233,-0.042252,62.127075,25.904922,-147.17337,,,
729605830.273829,-3.080938,0.527425,55.123386,-0.014496,-0.046341,0.968155,0.010122,-0.067233,-0.042252,62.127075,25.904922,-147.17337,,,
729605830.277153,-3.080938,0.527425,55.123386,-0.014496,-0.046341,0.968155,0.010122,-0.067233,-0.042252,62.127075,25.904922,-147.17337,,,
729605830.280466,-3.08253,0.503737,55.107882,-0.014496,-0.046341,0.968155,-0.004508,-0.077277,-0.056503,62.127075,25.904922,-147.17337,,,
729605830.283806,-3.084675,0.478502,55.091103,-0.015503,-0.047379,0.980988,-0.004508,-0.077277,-0.056503,62.127075,25.904922,-147.17337,,,
729605830.287116,-3.084675,0.478502,55.091103,-0.015503,-0.047379,0.980988,-0.004508,-0.077277,-0.056503,62.127075,25.904922,-147.17337,,,
729605830.290476,-3.087849,0.453264,55.0746,-0.015503,-0.047379,0.980988,-0.006743,-0.091905,-0.060225,62.127075,25.904922,-147.17337,,,
729605830.293779,-3.09012,0.423042,55.058644,-0.01918,-0.051376,0.985352,-0.006743,-0.091905,-0.060225,62.127075,25.904922,-147.17337,,,
729605830.297222,-3.09012,0.423042,55.058644,-0.01918,-0.051376,0.985352,-0.006743,-0.091905,-0.060225,62.127075,25.904922,-147.17337,,,
729605830.300435,-3.093895,0.390501,55.044373,-0.01918,-0.051376,0.985352,-0.006801,-0.121313,-0.049163,62.127075,25.904922,-147.17337,,,
729605830.30379,-3.095858,0.349462,55.032278,-0.024261,-0.056732,0.973495,-0.006801,-0.121313,-0.049163,62.127075,25.904922,-147.17337,,,
729605830.30713,-3.095858,0.349462,55.032278,-0.024261,-0.056732,0.973495,-0.006801,-0.121313,-0.049163,61.812195,25.707626,-147.215607,,,
729605830.310535,-3.098907,0.308429,55.021455,-0.024261,-0.056732,0.973495,-0.003142,-0.146175,-0.038342,61.812195,25.707626,-147.215607,,,
729605830.313785,-3.09957,0.267302,55.011065,-0.021973,-0.059418,0.98436,-0.003142,-0.146175,-0.038342,61.812195,25.707626,-147.215607,,,
729605830.317125,-3.09957,0.267302,55.011065,-0.021973,-0.059418,0.98436,-0.003142,-0.146175,-0.038342,61.812195,25.707626,-147.215607,,,
729605830.320474,-3.102091,0.232614,55.00155,-0.021973,-0.059418,0.98436,0.002108,-0.119574,-0.034878,61.812195,25.707626,-147.215607,,,
729605830.323787,-3.101467,0.200433,54.993273,-0.012085,-0.063141,1.005112,0.002108,-0.119574,-0.034878,61.812195,25.707626,-147.215607,,,
729605830.327132,-3.101467,0.200433,54.993273,-0.012085,-0.063141,1.005112,0.002108,-0.119574,-0.034878,61.812195,25.707626,-147.215607,,,
729605830.330475,-3.101417,0.178377,54.986711,-0.012085,-0.063141,1.005112,0.006149,-0.080771,-0.022862,61.812195,25.707626,-147.215607,,,
729605830.333782,-3.099784,0.160222,54.981502,-0.00293,-0.066833,1.006485,0.006149,-0.080771,-0.022862,61.812195,25.707626,-147.215607,,,
729605830.33719,-3.099784,0.160222,54.981502,-0.00293,-0.066833,1.006485,0.006149,-0.080771,-0.022862,61.812195,25.707626,-147.215607,,,
729605830.340454,-3.098056,0.153321,54.977987,-0.00293,-0.066833,1.006485,0.005145,-0.022572,-0.011374,61.812195,25.707626,-147.215607,,,
729605830.343778,-3.097754,0.151236,54.976161,0.004669,-0.064438,1.008209,0.005145,-0.022572,-0.011374,61.812195,25.707626,-147.215607,,,
729605830.34711,-3.097754,0.151236,54.976161,0.004669,-0.064438,1.008209,0.005145,-0.022572,-0.011374,61.754822,25.56572,-147.212555,,,
729605830.350447,-3.09856,0.157926,54.976667,0.004669,-0.064438,1.008209,-0.011251,0.024745,0.000166,61.754822,25.56572,-147.212555,,,
729605830.353785,-3.103235,0.167772,54.978536,0.002136,-0.059265,1.001892,-0.011251,0.024745,0.000166,61.754822,25.56572,-147.212555,,,
729605830.357121,-3.103235,0.167772,54.978536,0.002136,-0.059265,1.001892,-0.011251,0.024745,0.000166,61.754822,25.56572,-147.212555,,,
729605830.360456,-3.109954,0.185509,54.981311,0.002136,-0.059265,1.001892,-0.029353,0.055926,0.006739,61.754822,25.56572,-147.212555,,,
729605830.363788,-3.120751,0.202337,54.984254,-0.000458,-0.057159,0.99707,-0.029353,0.055926,0.006739,61.754822,25.56572,-147.212555,,,
729605830.367134,-3.120751,0.202337,54.984254,-0.000458,-0.057159,0.99707,-0.029353,0.055926,0.006739,61.754822,25.56572,-147.212555,,,
729605830.370465,-3.132276,0.222295,54.98709,-0.000458,-0.057159,0.99707,-0.044223,0.061772,0.007451,61.754822,25.56572,-147.212555,,,
729605830.373784,-3.146867,0.237077,54.989261,-0.001495,-0.054031,0.985275,-0.044223,0.061772,0.007451,61.754822,25.56572,-147.212555,,,
729605830.377209,-3.146867,0.237077,54.989261,-0.001495,-0.054031,0.985275,-0.044223,0.061772,0.007451,61.754822,25.56572,-147.212555,,,
729605830.380452,-3.163296,0.252973,54.991077,-0.001495,-0.054031,0.985275,-0.056833,0.039285,0.003438,61.754822,25.56572,-147.212555,,,
729605830.383781,-3.181055,0.2618,54.990968,-0.002441,-0.051346,0.97963,-0.056833,0.039285,0.003438,61.754822,25.56572,-147.212555,,,
729605830.38712,-3.181055,0.2618,54.990968,-0.002441,-0.051346,0.97963,-0.056833,0.039285,0.003438,61.911102,25.705109,-147.057205,,,
729605830.390525,-3.200247,0.273532,54.98926,-0.002441,-0.051346,0.97963,-0.062835,0.0188,-0.006464,61.911102,25.705109,-147.057205,,,
729605830.393779,-3.218836,0.276471,54.985977,-0.001373,-0.050003,0.984421,-0.062835,0.0188,-0.006464,61.911102,25.705109,-147.057205,,,
729605830.397133,-3.218836,0.276471,54.985977,-0.001373,-0.050003,0.984421,-0.062835,0.0188,-0.006464,61.911102,25.705109,-147.057205,,,
729605830.400451,-3.2385,0.281,54.981983,-0.001373,-0.050003,0.984421,-0.064679,0.007089,-0.016691,61.911102,25.705109,-147.057205,,,
729605830.403785,-3.257402,0.280887,54.977829,-0.000458,-0.054657,0.988815,-0.064679,0.007089,-0.016691,61.911102,25.705109,-147.057205,,,
729605830.407112,-3.257402,0.280887,54.977829,-0.000458,-0.054657,0.988815,-0.064679,0.007089,-0.016691,61.911102,25.705109,-147.057205,,,
729605830.410482,-3.277212,0.280282,54.974873,-0.000458,-0.054657,0.988815,-0.063128,-0.001546,-0.010237,61.911102,25.705109,-147.057205,,,
729605830.413845,-3.294424,0.277788,54.973225,-0.002899,-0.058746,0.986008,-0.063128,-0.001546,-0.010237,61.911102,25.705109,-147.057205,,,
729605830.417147,-3.294424,0.277788,54.973225,-0.002899,-0.058746,0.986008,-0.063128,-0.001546,-0.010237,61.911102,25.705109,-147.057205,,,
729605830.420492,-3.311063,0.274213,54.972709,-0.002899,-0.058746,0.986008,-0.050128,-0.004121,-0.001981,61.911102,25.705109,-147.057205,,,
729605830.423791,-3.322768,0.274215,54.972808,-0.001282,-0.060867,0.996811,-0.050128,-0.004121,-0.001981,61.911102,25.705109,-147.057205,,,
729605830.427225,-3.322768,0.274215,54.972808,-0.001282,-0.060867,0.996811,-0.050128,-0.004121,-0.001981,61.911102,25.705109,-147.057205,,,
729605830.430462,-3.331769,0.274075,54.972049,-0.001282,-0.060867,0.996811,-0.025494,0.013195,-0.003413,61.794373,25.708496,-147.336517,,,
729605830.433794,-3.337509,0.277895,54.970751,0.007629,-0.055283,1.00853,-0.025494,0.013195,-0.003413,61.794373,25.708496,-147.336517,,,
729605830.437153,-3.337509,0.277895,54.970751,0.007629,-0.055283,1.00853,-0.025494,0.013195,-0.003413,61.794373,25.708496,-147.336517,,,
729605830.440508,-3.340768,0.280929,54.969554,0.007629,-0.055283,1.00853,-0.009719,0.02097,-0.005889,61.794373,25.708496,-147.336517,,,
729605830.443776,-3.34347,0.286666,54.968957,0.004211,-0.056229,1.000488,-0.009719,0.02097,-0.005889,61.794373,25.708496,-147.336517,,,
729605830.447182,-3.34347,0.286666,54.968957,0.004211,-0.056229,1.000488,-0.009719,0.02097,-0.005889,61.794373,25.708496,-147.336517,,,
729605830.450457,-3.3468,0.293769,54.968531,0.004211,-0.056229,1.000488,-0.013169,0.032624,-0.001115,61.794373,25.708496,-147.336517,,,
729605830.45378,-3.351611,0.305214,54.968382,-0.002182,-0.056671,0.997025,-0.013169,0.032624,-0.001115,61.794373,25.708496,-147.336517,,,
729605830.457126,-3.351611,0.305214,54.968382,-0.002182,-0.056671,0.997025,-0.013169,0.032624,-0.001115,61.794373,25.708496,-147.336517,,,
729605830.460444,-3.356822,0.318614,54.968625,-0.002182,-0.056671,0.997025,-0.022873,0.055322,-0.001058,61.794373,25.708496,-147.336517,,,
729605830.463781,-3.36459,0.333727,54.96865,0.000168,-0.051666,0.998016,-0.022873,0.055322,-0.001058,61.794373,25.708496,-147.336517,,,
729605830.467112,-3.36459,0.333727,54.96865,0.000168,-0.051666,0.998016,-0.022873,0.055322,-0.001058,61.794373,25.708496,-147.336517,,,
729605830.470443,-3.371589,0.347408,54.968452,0.000168,-0.051666,0.998016,-0.02536,0.054424,-0.002108,62.012329,25.927094,-147.019058,,,
729605830.473787,-3.380154,0.361208,54.968273,-0.002014,-0.051575,0.994278,-0.02536,0.054424,-0.002108,62.012329,25.927094,-147.019058,,,
729605830.477129,-3.380154,0.361208,54.968273,-0.002014,-0.051575,0.994278,-0.02536,0.054424,-0.002108,62.012329,25.927094,-147.019058,,,
729605830.480549,-3.388036,0.373231,54.967674,-0.002014,-0.051575,0.994278,-0.032845,0.049249,-0.003494,62.012329,25.927094,-147.019058,,,
729605830.483781,-3.398407,0.386548,54.966921,-0.006027,-0.05127,0.992798,-0.032845,0.049249,-0.003494,62.012329,25.927094,-147.019058,,,
729605830.48713,-3.398407,0.386548,54.966921,-0.006027,-0.05127,0.992798,-0.032845,0.049249,-0.003494,62.012329,25.927094,-147.019058,,,
729605830.490458,-3.409051,0.398073,54.965786,-0.006027,-0.05127,0.992798,-0.038909,0.048742,-0.004794,62.012329,25.927094,-147.019058,,,
729605830.493784,-3.419554,0.410339,54.965072,-0.010681,-0.05275,0.993362,-0.038909,0.048742,-0.004794,62.012329,25.927094,-147.019058,,,
729605830.497129,-3.419554,0.410339,54.965072,-0.010681,-0.05275,0.993362,-0.038909,0.048742,-0.004794,62.012329,25.927094,-147.019058,,,
729605830.500446,-3.428982,0.420398,54.965247,-0.010681,-0.05275,0.993362,-0.03215,0.039955,0.001807,62.012329,25.927094,-147.019058,,,
729605830.503784,-3.437388,0.429323,54.966095,-0.013504,-0.057907,0.995499,-0.03215,0.039955,0.001807,62.012329,25.927094,-147.019058,,,
729605830.506953,-3.437388,0.429323,54.966095,-0.013504,-0.057907,0.995499,-0.03215,0.039955,0.001807,62.012329,25.927094,-147.019058,,,
729605830.51048,-3.443917,0.432347,54.96716,-0.013504,-0.057907,0.995499,-0.018342,0.019573,0.002592,61.983688,26.050354,-147.073105,,,
729605830.51379,-3.449037,0.432843,54.968915,-0.00885,-0.057571,0.996567,-0.018342,0.019573,0.002592,61.983688,26.050354,-147.073105,,,
729605830.517114,-3.449037,0.432843,54.968915,-0.00885,-0.057571,0.996567,-0.018342,0.019573,0.002592,61.983688,26.050354,-147.073105,,,
729605830.520526,-3.451153,0.424661,54.970076,-0.00885,-0.057571,0.996567,-0.008235,-0.014798,0.003662,61.983688,26.050354,-147.073105,,,
729605830.523779,-3.453033,0.417479,54.970043,-0.004013,-0.053879,0.99527,-0.008235,-0.014798,0.003662,61.983688,26.050354,-147.073105,,,
729605830.527129,-3.453033,0.417479,54.970043,-0.004013,-0.053879,0.99527,-0.008235,-0.014798,0.003662,61.983688,26.050354,-147.073105,,,
729605830.53046,-3.453884,0.405617,54.967705,-0.004013,-0.053879,0.99527,-0.006952,-0.034315,-0.012006,61.983688,26.050354,-147.073105,,,
729605830.533807,-3.455507,0.39436,54.96299,0.001541,-0.048264,0.998322,-0.006952,-0.034315,-0.012006,61.983688,26.050354,-147.073105,,,
729605830.537129,-3.455507,0.39436,54.96299,0.001541,-0.048264,0.998322,-0.006952,-0.034315,-0.012006,61.983688,26.050354,-147.073105,,,
729605830.540447,-3.457182,0.381075,54.955871,0.001541,-0.048264,0.998322,-0.007224,-0.034586,-0.028915,61.983688,26.050354,-147.073105,,,
729605830.543788,-3.460709,0.36948,54.946983,0.010162,-0.047089,0.999557,-0.007224,-0.034586,-0.028915,61.983688,26.050354,-147.073105,,,
729605830.547198,-3.460709,0.36948,54.946983,0.010162,-0.047089,0.999557,-0.007224,-0.034586,-0.028915,61.983688,26.050354,-147.073105,,,
729605830.550445,-3.462684,0.357652,54.936909,0.010162,-0.047089,0.999557,-0.013522,-0.026317,-0.037531,61.983688,26.050354,-147.073105,,,
729605830.553782,-3.467702,0.350131,54.926311,0.009781,-0.052216,0.998978,-0.013522,-0.026317,-0.037531,61.704529,26.019104,-147.327866,,,
729605830.557131,-3.467702,0.350131,54.926311,0.009781,-0.052216,0.998978,-0.013522,-0.026317,-0.037531,61.704529,26.019104,-147.327866,,,
729605830.560508,-3.47237,0.343861,54.915071,0.009781,-0.052216,0.998978,-0.020781,-0.013418,-0.041077,61.704529,26.019104,-147.327866,,,
729605830.563864,-3.4798,0.339076,54.903204,0.013458,-0.053055,0.996597,-0.020781,-0.013418,-0.041077,61.704529,26.019104,-147.327866,,,
729605830.567131,-3.4798,0.339076,54.903204,0.013458,-0.053055,0.996597,-0.020781,-0.013418,-0.041077,61.704529,26.019104,-147.327866,,,
729605830.570468,-3.486717,0.334985,54.890698,0.013458,-0.053055,0.996597,-0.030125,-0.009599,-0.043865,61.704529,26.019104,-147.327866,,,
729605830.573781,-3.49618,0.3311,54.877654,0.014343,-0.055847,0.992798,-0.030125,-0.009599,-0.043865,61.704529,26.019104,-147.327866,,,
729605830.577129,-3.49618,0.3311,54.877654,0.014343,-0.055847,0.992798,-0.030125,-0.009599,-0.043865,61.704529,26.019104,-147.327866,,,
729605830.580453,-3.504915,0.330304,54.864505,0.014343,-0.055847,0.992798,-0.036059,-0.001826,-0.048069,61.704529,26.019104,-147.327866,,,
729605830.583784,-3.514937,0.328885,54.851612,0.007339,-0.057159,0.993622,-0.036059,-0.001826,-0.048069,61.704529,26.019104,-147.327866,,,
729605830.587111,-3.514937,0.328885,54.851612,0.007339,-0.057159,0.993622,-0.036059,-0.001826,-0.048069,61.704529,26.019104,-147.327866,,,
729605830.590475,-3.523891,0.330099,54.839973,0.007339,-0.057159,0.993622,-0.033906,0.004062,-0.043864,61.704529,26.019104,-147.327866,,,
729605830.593785,-3.531746,0.33015,54.829941,-0.002502,-0.06221,0.996582,-0.033906,0.004062,-0.043864,61.770752,26.078186,-147.20816,,,
729605830.597203,-3.531746,0.33015,54.829941,-0.002502,-0.06221,0.996582,-0.033906,0.004062,-0.043864,61.770752,26.078186,-147.20816,,,
729605830.600435,-3.536059,0.331318,54.821947,-0.002502,-0.06221,0.996582,-0.015229,0.007602,-0.027447,61.770752,26.078186,-147.20816,,,
729605830.603778,-3.537128,0.333773,54.816213,-0.010132,-0.066772,0.999161,-0.015229,0.007602,-0.027447,61.770752,26.078186,-147.20816,,,
729605830.607167,-3.537128,0.333773,54.816213,-0.010132,-0.066772,0.999161,-0.015229,0.007602,-0.027447,61.770752,26.078186,-147.20816,,,
729605830.610501,-3.53171,0.337451,54.811888,-0.010132,-0.066772,0.999161,0.016414,0.023332,-0.014243,61.770752,26.078186,-147.20816,,,
729605830.613857,-3.525711,0.34337,54.808234,-0.005768,-0.066986,1.009064,0.016414,0.023332,-0.014243,61.770752,26.078186,-147.20816,,,
729605830.617131,-3.525711,0.34337,54.808234,-0.005768,-0.066986,1.009064,0.016414,0.023332,-0.014243,61.770752,26.078186,-147.20816,,,
729605830.620458,-3.516384,0.347354,54.805743,-0.005768,-0.066986,1.009064,0.02594,0.026377,-0.005466,61.770752,26.078186,-147.20816,,,
729605830.623779,-3.510235,0.355241,54.804877,-0.004272,-0.064041,0.995605,0.02594,0.026377,-0.005466,61.770752,26.078186,-147.20816,,,
729605830.627133,-3.510235,0.355241,54.804877,-0.004272,-0.064041,0.995605,0.02594,0.026377,-0.005466,61.770752,26.078186,-147.20816,,,
729605830.630441,-3.504013,0.36086,54.804427,-0.004272,-0.064041,0.995605,0.01209,0.038876,-0.002102,61.770752,26.078186,-147.20816,,,
729605830.633788,-3.50345,0.372707,54.804299,-0.005127,-0.061584,0.990036,0.01209,0.038876,-0.002102,61.761932,26.280701,-147.193222,,,
729605830.637207,-3.50345,0.372707,54.804299,-0.005127,-0.061584,0.990036,0.01209,0.038876,-0.002102,61.761932,26.280701,-147.193222,,,
729605830.640491,-3.504409,0.381395,54.80358,-0.005127,-0.061584,0.990036,-0.01143,0.049163,-0.004698,61.761932,26.280701,-147.193222,,,
729605830.643783,-3.509611,0.394173,54.802379,-0.002228,-0.059372,0.985718,-0.01143,0.049163,-0.004698,61.761932,26.280701,-147.193222,,,
729605830.647129,-3.509611,0.394173,54.802379,-0.002228,-0.059372,0.985718,-0.01143,0.049163,-0.004698,61.761932,26.280701,-147.193222,,,
729605830.650452,-3.515277,0.399422,54.799733,-0.002228,-0.059372,0.985718,-0.025547,0.039468,-0.010404,61.761932,26.280701,-147.193222,,,
729605830.653793,-3.523268,0.4074,54.796359,-0.003403,-0.062103,0.984833,-0.025547,0.039468,-0.010404,61.761932,26.280701,-147.193222,,,
729605830.657125,-3.523268,0.4074,54.796359,-0.003403,-0.062103,0.984833,-0.025547,0.039468,-0.010404,61.761932,26.280701,-147.193222,,,
729605830.660469,-3.53072,0.407343,54.791774,-0.003403,-0.062103,0.984833,-0.027145,0.017047,-0.016711,61.761932,26.280701,-147.193222,,,
729605830.663784,-3.539186,0.409468,54.7861,-0.006348,-0.064987,0.986694,-0.027145,0.017047,-0.016711,61.761932,26.280701,-147.193222,,,
729605830.66712,-3.539186,0.409468,54.7861,-0.006348,-0.064987,0.986694,-0.027145,0.017047,-0.016711,61.761932,26.280701,-147.193222,,,
729605830.670471,-3.547429,0.406134,54.778902,-0.006348,-0.064987,0.986694,-0.029231,-0.000249,-0.025555,61.761932,26.280701,-147.193222,,,
729605830.673853,-3.556499,0.40379,54.771388,-0.008545,-0.067215,0.989426,-0.029231,-0.000249,-0.025555,61.818268,26.207382,-146.974152,,,
729605830.676993,-3.556499,0.40379,54.771388,-0.008545,-0.067215,0.989426,-0.029231,-0.000249,-0.025555,61.818268,26.207382,-146.974152,,,
729605830.680481,-3.566168,0.400411,54.763666,-0.008545,-0.067215,0.989426,-0.029422,-0.006434,-0.027689,61.818268,26.207382,-146.974152,,,
729605830.683851,-3.57474,0.39637,54.756301,-0.010178,-0.068771,0.990631,-0.029422,-0.006434,-0.027689,61.818268,26.207382,-146.974152,,,
729605830.687122,-3.57474,0.39637,54.756301,-0.010178,-0.068771,0.990631,-0.029422,-0.006434,-0.027689,61.818268,26.207382,-146.974152,,,
729605830.690528,-3.582985,0.39209,54.749618,-0.010178,-0.068771,0.990631,-0.02601,-0.010907,-0.023995,61.818268,26.207382,-146.974152,,,
729605830.693804,-3.58971,0.387217,54.743233,-0.009995,-0.071091,0.993179,-0.02601,-0.010907,-0.023995,61.818268,26.207382,-146.974152,,,
729605830.697134,-3.58971,0.387217,54.743233,-0.009995,-0.071091,0.993179,-0.02601,-0.010907,-0.023995,61.818268,26.207382,-146.974152,,,
729605830.700465,-3.595959,0.382415,54.73719,-0.009995,-0.071091,0.993179,-0.016046,-0.007732,-0.022494,61.818268,26.207382,-146.974152,,,
729605830.70384,-3.599861,0.378949,54.731833,-0.011307,-0.071762,0.998474,-0.016046,-0.007732,-0.022494,61.818268,26.207382,-146.974152,,,
