Time (sec),Pitch (deg),Roll (deg),Yaw(deg),X-Acceleration (g),Y-Acceleration (g),Z-Acceleration (g),Pitch Rate (deg/sec),Roll Rate (deg/sec),Yaw Rate (deg/sec),Magnetic Field in X direction (uT),Magnetic Field in Y direction (uT),Magnetic Field in Z Direction (uT),Latitude (deg),Longitude (deg),Altitude (m)
729605357.761797,1.550838,0.782483,33.411139,-0.010773,0.039948,0.972595,-0.032916,0.04078,-0.010724,62.984665,16.475479,-148.594254,,,
729605357.765164,1.53669,0.793185,33.409083,-0.012329,0.045242,0.966415,-0.032916,0.04078,-0.010724,62.984665,16.475479,-148.594254,,,
729605357.768552,1.53669,0.793185,33.409083,-0.012329,0.045242,0.966415,-0.032916,0.04078,-0.010724,62.984665,16.475479,-148.594254,,,
729605357.771787,1.520159,0.801182,33.407949,-0.012329,0.045242,0.966415,-0.069285,0.037717,-0.004321,63.231857,16.396408,-148.567307,,,
729605357.77527,1.497054,0.808831,33.408089,-0.013,0.046524,0.965256,-0.069285,0.037717,-0.004321,63.231857,16.396408,-148.567307,,,
729605357.778488,1.497054,0.808831,33.408089,-0.013,0.046524,0.965256,-0.069285,0.037717,-0.004321,63.231857,16.396408,-148.567307,,,
729605357.781874,1.470491,0.813747,33.408676,-0.013,0.046524,0.965256,-0.098662,0.022931,-0.000461,63.231857,16.396408,-148.567307,,,
729605357.785108,1.43856,0.81762,33.409339,-0.006439,0.046844,0.964615,-0.098662,0.022931,-0.000461,63.231857,16.396408,-148.567307,,,
729605357.788515,1.43856,0.81762,33.409339,-0.006439,0.046844,0.964615,-0.098662,0.022931,-0.000461,63.231857,16.396408,-148.567307,,,
729605357.791832,1.403934,0.821655,33.409933,-0.006439,0.046844,0.964615,-0.125136,0.019132,-0.001002,63.231857,16.396408,-148.567307,,,
729605357.795117,1.365787,0.828866,33.409839,0.005249,0.047882,0.9785,-0.125136,0.019132,-0.001002,63.231857,16.396408,-148.567307,,,
729605357.798511,1.365787,0.828866,33.409839,0.005249,0.047882,0.9785,-0.125136,0.019132,-0.001002,63.231857,16.396408,-148.567307,,,
729605357.801791,1.327286,0.839596,33.409194,0.005249,0.047882,0.9785,-0.135982,0.04278,-0.004739,63.231857,16.396408,-148.567307,,,
729605357.805111,1.287868,0.85367,33.408111,0.011353,0.042648,0.995148,-0.135982,0.04278,-0.004739,63.231857,16.396408,-148.567307,,,
729605357.80853,1.287868,0.85367,33.408111,0.011353,0.042648,0.995148,-0.135982,0.04278,-0.004739,63.231857,16.396408,-148.567307,,,
729605357.81179,1.251199,0.870988,33.406559,0.011353,0.042648,0.995148,-0.127565,0.06629,-0.009372,63.074417,16.848495,-148.941513,,,
729605357.815117,1.217096,0.890273,33.404847,0.01207,0.030746,1.006851,-0.127565,0.06629,-0.009372,63.074417,16.848495,-148.941513,,,
729605357.818572,1.217096,0.890273,33.404847,0.01207,0.030746,1.006851,-0.127565,0.06629,-0.009372,63.074417,16.848495,-148.941513,,,
729605357.821791,1.189241,0.911347,33.403822,0.01207,0.030746,1.006851,-0.095805,0.080466,-0.008653,63.074417,16.848495,-148.941513,,,
729605357.825175,1.166696,0.934943,33.403426,0.001938,0.016418,1.020462,-0.095805,0.080466,-0.008653,63.074417,16.848495,-148.941513,,,
729605357.82844,1.166696,0.934943,33.403426,0.001938,0.016418,1.020462,-0.095805,0.080466,-0.008653,63.074417,16.848495,-148.941513,,,
729605357.831886,1.151596,0.958379,33.402836,0.001938,0.016418,1.020462,-0.047919,0.088908,-0.005901,63.074417,16.848495,-148.941513,,,
729605357.835118,1.140114,0.98204,33.401226,0.000381,0.011032,1.027481,-0.047919,0.088908,-0.005901,63.074417,16.848495,-148.941513,,,
729605357.838462,1.140114,0.98204,33.401226,0.000381,0.011032,1.027481,-0.047919,0.088908,-0.005901,63.074417,16.848495,-148.941513,,,
729605357.841819,1.1331,1.004433,33.39877,0.000381,0.011032,1.027481,-0.030075,0.079599,-0.010488,63.074417,16.848495,-148.941513,,,
729605357.845124,1.125956,1.025945,33.395181,-0.000488,0.015137,1.014938,-0.030075,0.079599,-0.010488,63.074417,16.848495,-148.941513,,,
729605357.848471,1.125956,1.025945,33.395181,-0.000488,0.015137,1.014938,-0.030075,0.079599,-0.010488,63.074417,16.848495,-148.941513,,,
729605357.851793,1.122341,1.046145,33.389583,-0.000488,0.015137,1.014938,-0.019801,0.074184,-0.023887,63.074417,16.848495,-148.941513,,,
729605357.855119,1.11476,1.066731,33.382156,-0.004379,0.019684,1.009003,-0.019801,0.074184,-0.023887,63.484619,16.703735,-148.944839,,,
729605357.858469,1.11476,1.066731,33.382156,-0.004379,0.019684,1.009003,-0.019801,0.074184,-0.023887,63.484619,16.703735,-148.944839,,,
729605357.861803,1.109522,1.087323,33.373045,-0.004379,0.019684,1.009003,-0.028095,0.078399,-0.035242,63.484619,16.703735,-148.944839,,,
729605357.865122,1.100312,1.109154,33.363165,-0.010315,0.01683,1.007172,-0.028095,0.078399,-0.035242,63.484619,16.703735,-148.944839,,,
729605357.868504,1.100312,1.109154,33.363165,-0.010315,0.01683,1.007172,-0.028095,0.078399,-0.035242,63.484619,16.703735,-148.944839,,,
729605357.871783,1.094357,1.128114,33.353295,-0.010315,0.01683,1.007172,-0.031908,0.072972,-0.038513,63.484619,16.703735,-148.944839,,,
729605357.875192,1.083488,1.148159,33.343265,-0.015106,0.010574,1.00415,-0.031908,0.072972,-0.038513,63.484619,16.703735,-148.944839,,,
729605357.878471,1.083488,1.148159,33.343265,-0.015106,0.010574,1.00415,-0.031908,0.072972,-0.038513,63.484619,16.703735,-148.944839,,,
729605357.881866,1.07606,1.164133,33.332981,-0.015106,0.010574,1.00415,-0.036739,0.068603,-0.035612,63.484619,16.703735,-148.944839,,,
729605357.885134,1.065014,1.183262,33.322718,-0.019241,0.007507,1.002914,-0.036739,0.068603,-0.035612,63.484619,16.703735,-148.944839,,,
729605357.888452,1.065014,1.183262,33.322718,-0.019241,0.007507,1.002914,-0.036739,0.068603,-0.035612,63.484619,16.703735,-148.944839,,,
729605357.891857,1.056705,1.198652,33.312716,-0.019241,0.007507,1.002914,-0.038041,0.072473,-0.039493,63.484619,16.703735,-148.944839,,,
729605357.895115,1.047347,1.21966,33.302283,-0.018066,0.007645,1.008484,-0.038041,0.072473,-0.039493,63.703644,16.801514,-149.19342,,,
729605357.898478,1.047347,1.21966,33.302283,-0.018066,0.007645,1.008484,-0.038041,0.072473,-0.039493,63.703644,16.801514,-149.19342,,,
729605357.901798,1.041899,1.23802,33.291239,-0.018066,0.007645,1.008484,-0.017925,0.078764,-0.042746,63.703644,16.801514,-149.19342,,,
729605357.905113,1.039475,1.26095,33.278653,-0.020508,0.005646,1.018387,-0.017925,0.078764,-0.042746,63.703644,16.801514,-149.19342,,,
729605357.908511,1.039475,1.26095,33.278653,-0.020508,0.005646,1.018387,-0.017925,0.078764,-0.042746,63.703644,16.801514,-149.19342,,,
729605357.911802,1.040634,1.282177,33.264461,-0.020508,0.005646,1.018387,0.00973,0.088435,-0.050506,63.703644,16.801514,-149.19342,,,
729605357.915137,1.045932,1.306178,33.248958,-0.018814,0.002975,1.017517,0.00973,0.088435,-0.050506,63.703644,16.801514,-149.19342,,,
729605357.918609,1.045932,1.306178,33.248958,-0.018814,0.002975,1.017517,0.00973,0.088435,-0.050506,63.703644,16.801514,-149.19342,,,
729605357.921782,1.05308,1.326629,33.232853,-0.018814,0.002975,1.017517,0.03461,0.083545,-0.057901,63.703644,16.801514,-149.19342,,,
729605357.925156,1.063612,1.349035,33.216968,-0.024094,0.00296,1.005371,0.03461,0.083545,-0.057901,63.703644,16.801514,-149.19342,,,
729605357.928464,1.063612,1.349035,33.216968,-0.024094,0.00296,1.005371,0.03461,0.083545,-0.057901,63.703644,16.801514,-149.19342,,,
729605357.931869,1.075256,1.367922,33.202061,-0.024094,0.00296,1.005371,0.046068,0.079345,-0.050964,63.703644,16.801514,-149.19342,,,
729605357.93511,1.087325,1.388388,33.188838,-0.029617,0.006805,0.999023,0.046068,0.079345,-0.050964,63.939362,16.818909,-148.746918,,,
729605357.938448,1.087325,1.388388,33.188838,-0.029617,0.006805,0.999023,0.046068,0.079345,-0.050964,63.939362,16.818909,-148.746918,,,
729605357.941826,1.099247,1.404917,33.178256,-0.029617,0.006805,0.999023,0.04086,0.067252,-0.035435,63.939362,16.818909,-148.746918,,,
729605357.94512,1.110341,1.422249,33.17,-0.036118,0.004913,0.988556,0.04086,0.067252,-0.035435,63.939362,16.818909,-148.746918,,,
729605357.948479,1.110341,1.422249,33.17,-0.036118,0.004913,0.988556,0.04086,0.067252,-0.035435,63.939362,16.818909,-148.746918,,,
729605357.951793,1.118703,1.437345,33.163268,-0.036118,0.004913,0.988556,0.03311,0.057418,-0.02133,63.939362,16.818909,-148.746918,,,
729605357.955119,1.124934,1.453008,33.156991,-0.034225,0.008041,0.982681,0.03311,0.057418,-0.02133,63.939362,16.818909,-148.746918,,,
729605357.958461,1.124934,1.453008,33.156991,-0.034225,0.008041,0.982681,0.03311,0.057418,-0.02133,63.939362,16.818909,-148.746918,,,
729605357.961818,1.126588,1.466441,33.150125,-0.034225,0.008041,0.982681,0.008702,0.052908,-0.0259,63.939362,16.818909,-148.746918,,,
729605357.96512,1.126355,1.479828,33.141048,-0.026337,0.0159,0.97818,0.008702,0.052908,-0.0259,63.939362,16.818909,-148.746918,,,
729605357.968555,1.126355,1.479828,33.141048,-0.026337,0.0159,0.97818,0.008702,0.052908,-0.0259,63.939362,16.818909,-148.746918,,,
729605357.971804,1.122312,1.491173,33.130099,-0.026337,0.0159,0.97818,-0.008088,0.043712,-0.040346,63.939362,16.818909,-148.746918,,,
729605357.975179,1.11901,1.50241,33.117539,-0.026947,0.020554,0.98027,-0.008088,0.043712,-0.040346,63.921829,16.882843,-149.322784,,,
729605357.978474,1.11901,1.50241,33.117539,-0.026947,0.020554,0.98027,-0.008088,0.043712,-0.040346,63.921829,16.882843,-149.322784,,,
729605357.981868,1.113749,1.5122,33.10319,-0.026947,0.020554,0.98027,-0.01211,0.039193,-0.055264,63.921829,16.882843,-149.322784,,,
729605357.985117,1.109832,1.522801,33.088394,-0.03038,0.01474,0.989441,-0.01211,0.039193,-0.055264,63.921829,16.882843,-149.322784,,,
729605357.988475,1.109832,1.522801,33.088394,-0.03038,0.01474,0.989441,-0.01211,0.039193,-0.055264,63.921829,16.882843,-149.322784,,,
729605357.991838,1.10331,1.532131,33.074126,-0.03038,0.01474,0.989441,-0.0159,0.038118,-0.050975,63.921829,16.882843,-149.322784,,,
729605357.995125,1.097298,1.542092,33.060999,-0.033112,0.010513,0.986038,-0.0159,0.038118,-0.050975,63.921829,16.882843,-149.322784,,,
729605357.998472,1.097298,1.542092,33.060999,-0.033112,0.010513,0.986038,-0.0159,0.038118,-0.050975,63.921829,16.882843,-149.322784,,,
729605358.001796,1.087093,1.550615,33.049043,-0.033112,0.010513,0.986038,-0.028122,0.034712,-0.043311,63.921829,16.882843,-149.322784,,,
729605358.005109,1.076531,1.559587,33.037987,-0.030777,0.012833,0.978119,-0.028122,0.034712,-0.043311,63.921829,16.882843,-149.322784,,,
729605358.008447,1.076531,1.559587,33.037987,-0.030777,0.012833,0.978119,-0.028122,0.034712,-0.043311,63.921829,16.882843,-149.322784,,,
729605358.011784,1.061407,1.568538,33.027355,-0.030777,0.012833,0.978119,-0.047839,0.034642,-0.039413,63.921829,16.882843,-149.322784,,,
729605358.015137,1.04527,1.577812,33.016694,-0.030106,0.016113,0.978088,-0.047839,0.034642,-0.039413,63.921829,16.882843,-149.322784,,,
729605358.01856,1.04527,1.577812,33.016694,-0.030106,0.016113,0.978088,-0.047839,0.034642,-0.039413,64.394958,16.702744,-148.884323,,,
729605358.021815,1.024214,1.587983,33.005972,-0.030106,0.016113,0.978088,-0.068534,0.035831,-0.039374,64.394958,16.702744,-148.884323,,,
729605358.02516,1.001737,1.597615,32.995262,-0.027008,0.015549,0.976517,-0.068534,0.035831,-0.039374,64.394958,16.702744,-148.884323,,,
729605358.028479,1.001737,1.597615,32.995262,-0.027008,0.015549,0.976517,-0.068534,0.035831,-0.039374,64.394958,16.702744,-148.884323,,,
729605358.031888,0.975276,1.608535,32.984056,-0.027008,0.015549,0.976517,-0.087785,0.034035,-0.044197,64.394958,16.702744,-148.884323,,,
729605358.03512,0.948119,1.618937,32.971745,-0.024918,0.015091,0.981445,-0.087785,0.034035,-0.044197,64.394958,16.702744,-148.884323,,,
729605358.038191,0.948119,1.618937,32.971745,-0.024918,0.015091,0.981445,-0.087785,0.034035,-0.044197,64.394958,16.702744,-148.884323,,,
729605358.041824,0.919047,1.6301,32.958779,-0.024918,0.015091,0.981445,-0.096026,0.04067,-0.048309,64.394958,16.702744,-148.884323,,,
729605358.045119,0.890844,1.640189,32.945918,-0.026962,0.009644,0.989273,-0.096026,0.04067,-0.048309,64.394958,16.702744,-148.884323,,,
729605358.04847,0.890844,1.640189,32.945918,-0.026962,0.009644,0.989273,-0.096026,0.04067,-0.048309,64.394958,16.702744,-148.884323,,,
729605358.051805,0.863645,1.648164,32.932922,-0.026962,0.009644,0.989273,-0.095209,0.029814,-0.051394,64.394958,16.702744,-148.884323,,,
729605358.055116,0.837136,1.654184,32.919647,-0.029053,0.004288,0.992126,-0.095209,0.029814,-0.051394,64.394958,16.702744,-148.884323,,,
729605358.058528,0.837136,1.654184,32.919647,-0.029053,0.004288,0.992126,-0.095209,0.029814,-0.051394,64.465027,17.157486,-149.03215,,,
729605358.061806,0.814332,1.659312,32.906208,-0.029053,0.004288,0.992126,-0.075389,0.020145,-0.053326,64.465027,17.157486,-149.03215,,,
729605358.06513,0.794505,1.663792,32.891812,-0.026199,0.002472,1.001801,-0.075389,0.020145,-0.053326,64.465027,17.157486,-149.03215,,,
729605358.068555,0.794505,1.663792,32.891812,-0.026199,0.002472,1.001801,-0.075389,0.020145,-0.053326,64.465027,17.157486,-149.03215,,,
729605358.07179,0.777102,1.667306,32.876686,-0.026199,0.002472,1.001801,-0.054874,0.014586,-0.055603,64.465027,17.157486,-149.03215,,,
729605358.075126,0.761564,1.66856,32.861198,-0.025818,0.002548,1.005966,-0.054874,0.014586,-0.055603,64.465027,17.157486,-149.03215,,,
729605358.078467,0.761564,1.66856,32.861198,-0.025818,0.002548,1.005966,-0.054874,0.014586,-0.055603,64.465027,17.157486,-149.03215,,,
729605358.081806,0.746234,1.669141,32.845704,-0.025818,0.002548,1.005966,-0.048807,0.004461,-0.056658,64.465027,17.157486,-149.03215,,,
729605358.085178,0.730551,1.669833,32.830345,-0.030777,0.004944,1.002274,-0.048807,0.004461,-0.056658,64.465027,17.157486,-149.03215,,,
729605358.088471,0.730551,1.669833,32.830345,-0.030777,0.004944,1.002274,-0.048807,0.004461,-0.056658,64.465027,17.157486,-149.03215,,,
729605358.091903,0.713671,1.672701,32.814626,-0.030777,0.004944,1.002274,-0.060238,0.014259,-0.059788,64.465027,17.157486,-149.03215,,,
729605358.095119,0.694147,1.677363,32.79838,-0.029449,0.008743,1.002289,-0.060238,0.014259,-0.059788,64.465027,17.157486,-149.03215,,,
729605358.100471,0.672324,1.68389,32.781997,-0.029449,0.008743,1.002289,-0.078536,0.026993,-0.06036,64.326584,16.978714,-149.154434,,,
729605358.101563,0.672324,1.68389,32.781997,-0.029449,0.008743,1.002289,-0.078536,0.026993,-0.06036,64.326584,16.978714,-149.154434,,,
729605358.105145,0.648513,1.69177,32.76601,-0.024612,0.010864,0.999771,-0.078536,0.026993,-0.06036,64.326584,16.978714,-149.154434,,,
729605358.10845,0.648513,1.69177,32.76601,-0.024612,0.010864,0.999771,-0.078536,0.026993,-0.06036,64.326584,16.978714,-149.154434,,,
729605358.111804,0.624696,1.701092,32.749857,-0.024612,0.010864,0.999771,-0.082793,0.037808,-0.060586,64.326584,16.978714,-149.154434,,,
729605358.11511,0.599779,1.713121,32.733199,-0.023193,0.00824,1.008133,-0.082793,0.037808,-0.060586,64.326584,16.978714,-149.154434,,,
729605358.118454,0.599779,1.713121,32.733199,-0.023193,0.00824,1.008133,-0.082793,0.037808,-0.060586,64.326584,16.978714,-149.154434,,,
729605358.12182,0.575748,1.726258,32.716546,-0.023193,0.00824,1.008133,-0.079951,0.048189,-0.06033,64.326584,16.978714,-149.154434,,,
729605358.125174,0.552402,1.740259,32.699989,-0.026489,0.006378,1.012802,-0.079951,0.048189,-0.06033,64.326584,16.978714,-149.154434,,,
729605358.128472,0.552402,1.740259,32.699989,-0.026489,0.006378,1.012802,-0.079951,0.048189,-0.06033,64.326584,16.978714,-149.154434,,,
729605358.1319,0.529961,1.753429,32.683623,-0.026489,0.006378,1.012802,-0.073145,0.047538,-0.061181,64.326584,16.978714,-149.154434,,,
729605358.135149,0.508995,1.765548,32.667033,-0.0298,0.008942,1.011444,-0.073145,0.047538,-0.061181,64.326584,16.978714,-149.154434,,,
729605358.138464,0.508995,1.765548,32.667033,-0.0298,0.008942,1.011444,-0.073145,0.047538,-0.061181,64.683792,17.151123,-149.100189,,,
729605358.141893,0.488028,1.775882,32.649201,-0.0298,0.008942,1.011444,-0.068023,0.039614,-0.068049,64.683792,17.151123,-149.100189,,,
729605358.145112,0.467916,1.785883,32.630366,-0.02916,0.01239,1.007294,-0.068023,0.039614,-0.068049,64.683792,17.151123,-149.100189,,,
729605358.14847,0.467916,1.785883,32.630366,-0.02916,0.01239,1.007294,-0.068023,0.039614,-0.068049,64.683792,17.151123,-149.100189,,,
729605358.151798,0.447067,1.794548,32.610761,-0.02916,0.01239,1.007294,-0.068171,0.036228,-0.073432,64.683792,17.151123,-149.100189,,,
729605358.15512,0.427383,1.803306,32.590251,-0.032455,0.012497,1.006775,-0.068171,0.036228,-0.073432,64.683792,17.151123,-149.100189,,,
729605358.158471,0.427383,1.803306,32.590251,-0.032455,0.012497,1.006775,-0.068171,0.036228,-0.073432,64.683792,17.151123,-149.100189,,,
729605358.161807,0.408741,1.811955,32.56931,-0.032455,0.012497,1.006775,-0.056853,0.035764,-0.078159,64.683792,17.151123,-149.100189,,,
729605358.16519,0.393974,1.823302,32.548118,-0.035126,0.006378,1.013779,-0.056853,0.035764,-0.078159,64.683792,17.151123,-149.100189,,,
729605358.168468,0.393974,1.823302,32.548118,-0.035126,0.006378,1.013779,-0.056853,0.035764,-0.078159,64.683792,17.151123,-149.100189,,,
729605358.171803,0.382922,1.836771,32.526642,-0.035126,0.006378,1.013779,-0.030594,0.051427,-0.077766,64.683792,17.151123,-149.100189,,,
729605358.175115,0.375507,1.851315,32.505732,-0.037643,-0.001511,1.025787,-0.030594,0.051427,-0.077766,64.683792,17.151123,-149.100189,,,
729605358.17853,0.375507,1.851315,32.505732,-0.037643,-0.001511,1.025787,-0.030594,0.051427,-0.077766,64.683792,17.151123,-149.100189,,,
729605358.181797,0.371724,1.865325,32.485978,-0.037643,-0.001511,1.025787,-0.0091,0.053025,-0.070287,64.610016,17.312332,-148.836761,,,
729605358.185112,0.369969,1.878855,32.467416,-0.047165,-0.00563,1.016754,-0.0091,0.053025,-0.070287,64.610016,17.312332,-148.836761,,,
729605358.188462,0.369969,1.878855,32.467416,-0.047165,-0.00563,1.016754,-0.0091,0.053025,-0.070287,64.610016,17.312332,-148.836761,,,
729605358.191843,0.370867,1.889996,32.449853,-0.047165,-0.00563,1.016754,0.007252,0.04499,-0.061812,64.610016,17.312332,-148.836761,,,
729605358.195125,0.372414,1.901435,32.43357,-0.053864,-0.001923,1.017776,0.007252,0.04499,-0.061812,64.610016,17.312332,-148.836761,,,
729605358.19847,0.372414,1.901435,32.43357,-0.053864,-0.001923,1.017776,0.007252,0.04499,-0.061812,64.610016,17.312332,-148.836761,,,
729605358.201802,0.374164,1.909842,32.418119,-0.053864,-0.001923,1.017776,0.00882,0.035152,-0.057725,64.610016,17.312332,-148.836761,,,
729605358.205119,0.374969,1.916972,32.402551,-0.053223,0.003815,1.010971,0.00882,0.035152,-0.057725,64.610016,17.312332,-148.836761,,,
729605358.208465,0.374969,1.916972,32.402551,-0.053223,0.003815,1.010971,0.00882,0.035152,-0.057725,64.610016,17.312332,-148.836761,,,
729605358.211801,0.373914,1.922064,32.38717,-0.053223,0.003815,1.010971,-0.003984,0.023511,-0.056244,64.610016,17.312332,-148.836761,,,
729605358.215115,0.370345,1.926998,32.37169,-0.052963,0.007614,0.998566,-0.003984,0.023511,-0.056244,64.610016,17.312332,-148.836761,,,
729605358.218457,0.370345,1.926998,32.37169,-0.052963,0.007614,0.998566,-0.003984,0.023511,-0.056244,64.610016,17.312332,-148.836761,,,
729605358.22183,0.364671,1.930724,32.356085,-0.052963,0.007614,0.998566,-0.022316,0.019172,-0.057231,64.823425,17.290787,-149.221054,,,
729605358.225183,0.35634,1.93401,32.340472,-0.050385,0.009354,0.997696,-0.022316,0.019172,-0.057231,64.823425,17.290787,-149.221054,,,
729605358.228481,0.35634,1.93401,32.340472,-0.050385,0.009354,0.997696,-0.022316,0.019172,-0.057231,64.823425,17.290787,-149.221054,,,
729605358.231808,0.347347,1.934885,32.324752,-0.050385,0.009354,0.997696,-0.03115,0.006153,-0.058637,64.823425,17.290787,-149.221054,,,
729605358.235116,0.337176,1.934172,32.309072,-0.048569,0.01062,0.99762,-0.03115,0.006153,-0.058637,64.823425,17.290787,-149.221054,,,
729605358.238461,0.337176,1.934172,32.309072,-0.048569,0.01062,0.99762,-0.03115,0.006153,-0.058637,64.823425,17.290787,-149.221054,,,
729605358.241786,0.328163,1.931977,32.293502,-0.048569,0.01062,0.99762,-0.032967,-0.006033,-0.058273,64.823425,17.290787,-149.221054,,,
729605358.245119,0.318804,1.928835,32.277931,-0.04895,0.006134,1.000748,-0.032967,-0.006033,-0.058273,64.823425,17.290787,-149.221054,,,
729605358.24846,0.318804,1.928835,32.277931,-0.04895,0.006134,1.000748,-0.032967,-0.006033,-0.058273,64.823425,17.290787,-149.221054,,,
729605358.251807,0.309424,1.9251,32.262504,-0.04895,0.006134,1.000748,-0.028278,-0.012163,-0.057636,64.823425,17.290787,-149.221054,,,
729605358.255116,0.300874,1.920088,32.247479,-0.050446,0.002945,1.002396,-0.028278,-0.012163,-0.057636,64.823425,17.290787,-149.221054,,,
729605358.258445,0.300874,1.920088,32.247479,-0.050446,0.002945,1.002396,-0.028278,-0.012163,-0.057636,64.823425,17.290787,-149.221054,,,
729605358.261788,0.291839,1.914848,32.232611,-0.050446,0.002945,1.002396,-0.025381,-0.020697,-0.053793,64.750793,17.348923,-149.034027,,,
729605358.265117,0.284903,1.906832,32.217337,-0.05278,0.002716,0.999985,-0.025381,-0.020697,-0.053793,64.750793,17.348923,-149.034027,,,
729605358.268558,0.284903,1.906832,32.217337,-0.05278,0.002716,0.999985,-0.025381,-0.020697,-0.053793,64.750793,17.348923,-149.034027,,,
729605358.271795,0.278176,1.899046,32.201961,-0.05278,0.002716,0.999985,-0.014826,-0.032399,-0.055649,64.750793,17.348923,-149.034027,,,
729605358.275119,0.275155,1.889539,32.187189,-0.052017,0.002457,1.001312,-0.014826,-0.032399,-0.055649,64.750793,17.348923,-149.034027,,,
729605358.278465,0.275155,1.889539,32.187189,-0.052017,0.002457,1.001312,-0.014826,-0.032399,-0.055649,64.750793,17.348923,-149.034027,,,
729605358.281858,0.274998,1.883516,32.173378,-0.052017,0.002457,1.001312,0.007751,-0.025446,-0.047501,64.750793,17.348923,-149.034027,,,
729605358.285111,0.278604,1.877377,32.160596,-0.049393,-0.002472,1.012787,0.007751,-0.025446,-0.047501,64.750793,17.348923,-149.034027,,,
729605358.288445,0.278604,1.877377,32.160596,-0.049393,-0.002472,1.012787,0.007751,-0.025446,-0.047501,64.750793,17.348923,-149.034027,,,
729605358.291805,0.285046,1.877124,32.14846,-0.049393,-0.002472,1.012787,0.027159,-0.004563,-0.042427,64.750793,17.348923,-149.034027,,,
729605358.295117,0.293286,1.877385,32.137502,-0.046753,-0.00177,1.016571,0.027159,-0.004563,-0.042427,64.750793,17.348923,-149.034027,,,
729605358.298456,0.293286,1.877385,32.137502,-0.046753,-0.00177,1.016571,0.027159,-0.004563,-0.042427,64.750793,17.348923,-149.034027,,,
729605358.301825,0.301548,1.882767,32.128528,-0.046753,-0.00177,1.016571,0.02858,0.016965,-0.029781,64.8246,17.461685,-149.258438,,,
729605358.305111,0.307383,1.888205,32.121218,-0.0504,-0.000168,1.00444,0.02858,0.016965,-0.029781,64.8246,17.461685,-149.258438,,,
729605358.308515,0.307383,1.888205,32.121218,-0.0504,-0.000168,1.00444,0.02858,0.016965,-0.029781,64.8246,17.461685,-149.258438,,,
729605358.311783,0.3105,1.897721,32.115481,-0.0504,-0.000168,1.00444,0.008084,0.029055,-0.020255,64.8246,17.461685,-149.258438,,,
729605358.315116,0.308443,1.905209,32.110926,-0.049606,0.007172,0.993942,0.008084,0.029055,-0.020255,64.8246,17.461685,-149.258438,,,
729605358.318471,0.308443,1.905209,32.110926,-0.049606,0.007172,0.993942,0.008084,0.029055,-0.020255,64.8246,17.461685,-149.258438,,,
729605358.321779,0.302791,1.91329,32.106594,-0.049606,0.007172,0.993942,-0.022458,0.024453,-0.016652,64.8246,17.461685,-149.258438,,,
729605358.325129,0.293374,1.918089,32.102627,-0.0504,0.012695,0.983109,-0.022458,0.024453,-0.016652,64.8246,17.461685,-149.258438,,,
729605358.328455,0.293374,1.918089,32.102627,-0.0504,0.012695,0.983109,-0.022458,0.024453,-0.016652,64.8246,17.461685,-149.258438,,,
729605358.331843,0.282474,1.923308,32.098431,-0.0504,0.012695,0.983109,-0.036139,0.011814,-0.016153,64.8246,17.461685,-149.258438,,,
729605358.335106,0.272115,1.925334,32.093352,-0.045502,0.01239,0.994064,-0.036139,0.011814,-0.016153,64.8246,17.461685,-149.258438,,,
729605358.338459,0.272115,1.925334,32.093352,-0.045502,0.01239,0.994064,-0.036139,0.011814,-0.016153,64.8246,17.461685,-149.258438,,,
729605358.341787,0.262846,1.928058,32.087348,-0.045502,0.01239,0.994064,-0.028456,0.003148,-0.025126,64.8246,17.461685,-149.258438,,,
729605358.34511,0.256452,1.926613,32.080637,-0.044479,0.006027,1.006561,-0.028456,0.003148,-0.025126,64.818512,17.44519,-149.156891,,,
729605358.348446,0.256452,1.926613,32.080637,-0.044479,0.006027,1.006561,-0.028456,0.003148,-0.025126,64.818512,17.44519,-149.156891,,,
729605358.351792,0.252899,1.925339,32.073894,-0.044479,0.006027,1.006561,-0.010367,-0.009902,-0.024174,64.818512,17.44519,-149.156891,,,
729605358.355107,0.252551,1.920051,32.067541,-0.046722,0.000336,1.006393,-0.010367,-0.009902,-0.024174,64.818512,17.44519,-149.156891,,,
729605358.3585,0.252551,1.920051,32.067541,-0.046722,0.000336,1.006393,-0.010367,-0.009902,-0.024174,64.818512,17.44519,-149.156891,,,
729605358.361789,0.255301,1.915859,32.061367,-0.046722,0.000336,1.006393,0.015393,-0.018504,-0.022199,64.818512,17.44519,-149.156891,,,
729605358.365117,0.261191,1.908535,32.05549,-0.04277,0.002319,1.008713,0.015393,-0.018504,-0.022199,64.818512,17.44519,-149.156891,,,
729605358.368454,0.261191,1.908535,32.05549,-0.04277,0.002319,1.008713,0.015393,-0.018504,-0.022199,64.818512,17.44519,-149.156891,,,
729605358.371848,0.266699,1.902141,32.050413,-0.04277,0.002319,1.008713,0.02492,-0.025624,-0.019002,64.818512,17.44519,-149.156891,,,
729605358.375096,0.271819,1.893924,32.046444,-0.043015,0.004898,1.001038,0.02492,-0.025624,-0.019002,64.818512,17.44519,-149.156891,,,
729605358.378461,0.271819,1.893924,32.046444,-0.043015,0.004898,1.001038,0.02492,-0.025624,-0.019002,64.818512,17.44519,-149.156891,,,
729605358.381791,0.274383,1.887837,32.043947,-0.043015,0.004898,1.001038,0.010442,-0.024359,-0.007149,64.818512,17.44519,-149.156891,,,
729605358.385125,0.275264,1.880596,32.042958,-0.042923,0.007996,0.99263,0.010442,-0.024359,-0.007149,64.831543,17.205383,-149.168396,,,
729605358.38846,0.275264,1.880596,32.042958,-0.042923,0.007996,0.99263,0.010442,-0.024359,-0.007149,64.831543,17.205383,-149.168396,,,
729605358.391792,0.272399,1.876309,32.042902,-0.042923,0.007996,0.99263,-0.011884,-0.017767,-0.000928,64.831543,17.205383,-149.168396,,,
729605358.395111,0.266891,1.870912,32.043254,-0.035065,0.01239,0.992279,-0.011884,-0.017767,-0.000928,64.831543,17.205383,-149.168396,,,
729605358.398537,0.266891,1.870912,32.043254,-0.035065,0.01239,0.992279,-0.011884,-0.017767,-0.000928,64.831543,17.205383,-149.168396,,,
729605358.401773,0.26116,1.86917,32.043677,-0.035065,0.01239,0.992279,-0.021715,-0.007974,-0.000707,64.831543,17.205383,-149.168396,,,
729605358.405124,0.25507,1.867131,32.04351,-0.030441,0.012299,0.999756,-0.021715,-0.007974,-0.000707,64.831543,17.205383,-149.168396,,,
729605358.408453,0.25507,1.867131,32.04351,-0.030441,0.012299,0.999756,-0.021715,-0.007974,-0.000707,64.831543,17.205383,-149.168396,,,
729605358.411784,0.250618,1.867908,32.04259,-0.030441,0.012299,0.999756,-0.013765,-0.00368,-0.006626,64.831543,17.205383,-149.168396,,,
729605358.415188,0.246384,1.867139,32.040781,-0.029556,0.009048,1.004776,-0.013765,-0.00368,-0.006626,64.831543,17.205383,-149.168396,,,
729605358.418457,0.246384,1.867139,32.040781,-0.029556,0.009048,1.004776,-0.013765,-0.00368,-0.006626,64.831543,17.205383,-149.168396,,,
729605358.42185,0.243811,1.869262,32.038303,-0.029556,0.009048,1.004776,-0.008849,0.005231,-0.011167,64.831543,17.205383,-149.168396,,,
729605358.425174,0.240547,1.870161,32.036299,-0.032822,0.009079,1.004745,-0.008849,0.005231,-0.011167,64.775558,17.450684,-149.10553,,,
729605358.428445,0.240547,1.870161,32.036299,-0.032822,0.009079,1.004745,-0.008849,0.005231,-0.011167,64.775558,17.450684,-149.10553,,,
729605358.431802,0.236419,1.872081,32.035032,-0.032822,0.009079,1.004745,-0.011825,0.005749,-0.007764,64.775558,17.450684,-149.10553,,,
729605358.435114,0.230764,1.871172,32.034232,-0.036362,0.00943,0.995117,-0.011825,0.005749,-0.007764,64.775558,17.450684,-149.10553,,,
729605358.438454,0.230764,1.871172,32.034232,-0.036362,0.00943,0.995117,-0.011825,0.005749,-0.007764,64.775558,17.450684,-149.10553,,,
729605358.441854,0.222114,1.869704,32.033763,-0.036362,0.00943,0.995117,-0.029747,-0.008438,-0.005303,64.775558,17.450684,-149.10553,,,
729605358.445146,0.222114,1.869704,32.033763,-0.036362,0.00943,0.995117,-0.029747,-0.008438,-0.005303,64.775558,17.450684,-149.10553,,,
729605358.448514,0.212564,1.864525,32.033393,-0.035828,0.010406,0.985489,-0.029747,-0.008438,-0.005303,64.775558,17.450684,-149.10553,,,
729605358.451795,0.202613,1.858811,32.032377,-0.035828,0.010406,0.985489,-0.033924,-0.023092,-0.005777,64.775558,17.450684,-149.10553,,,
729605358.455197,0.191514,1.85002,32.030607,-0.030563,0.014114,0.989975,-0.033924,-0.023092,-0.005777,64.775558,17.450684,-149.10553,,,
729605358.458465,0.191514,1.85002,32.030607,-0.030563,0.014114,0.989975,-0.033924,-0.023092,-0.005777,64.775558,17.450684,-149.10553,,,
729605358.461837,0.180193,1.840583,32.028191,-0.030563,0.014114,0.989975,-0.037986,-0.035858,-0.012337,64.775558,17.450684,-149.10553,,,
729605358.465197,0.16929,1.828046,32.02458,-0.025421,0.014587,0.992752,-0.037986,-0.035858,-0.012337,64.775558,17.450684,-149.10553,,,
729605358.468457,0.16929,1.828046,32.02458,-0.025421,0.014587,0.992752,-0.037986,-0.035858,-0.012337,64.884842,17.458969,-149.122284,,,
729605358.471797,0.160474,1.815584,32.020208,-0.025421,0.014587,0.992752,-0.031183,-0.0445,-0.016776,64.884842,17.458969,-149.122284,,,
729605358.475163,0.15117,1.800807,32.016029,-0.026672,0.013062,0.99855,-0.031183,-0.0445,-0.016776,64.884842,17.458969,-149.122284,,,
729605358.478447,0.15117,1.800807,32.016029,-0.026672,0.013062,0.99855,-0.031183,-0.0445,-0.016776,64.884842,17.458969,-149.122284,,,
729605358.481787,0.143372,1.785053,32.01188,-0.026672,0.013062,0.99855,-0.031691,-0.050465,-0.01655,64.884842,17.458969,-149.122284,,,
729605358.48515,0.133675,1.768437,32.008397,-0.028885,0.012863,0.997101,-0.031691,-0.050465,-0.01655,64.884842,17.458969,-149.122284,,,
729605358.488502,0.133675,1.768437,32.008397,-0.028885,0.012863,0.997101,-0.031691,-0.050465,-0.01655,64.884842,17.458969,-149.122284,,,
729605358.49178,0.12399,1.751366,32.00572,-0.028885,0.012863,0.997101,-0.038489,-0.055194,-0.012085,64.884842,17.458969,-149.122284,,,
729605358.495145,0.112436,1.734916,32.00405,-0.029709,0.012009,0.996521,-0.038489,-0.055194,-0.012085,64.884842,17.458969,-149.122284,,,
729605358.498453,0.112436,1.734916,32.00405,-0.029709,0.012009,0.996521,-0.038489,-0.055194,-0.012085,64.884842,17.458969,-149.122284,,,
729605358.501843,0.10061,1.718717,32.00347,-0.029709,0.012009,0.996521,-0.042482,-0.053114,-0.003308,64.884842,17.458969,-149.122284,,,
729605358.505105,0.10061,1.702752,32.003617,-0.031357,0.010635,1.000519,-0.042482,-0.053114,-0.003308,64.884842,17.458969,-149.122284,,,
729605358.508462,0.087401,1.702752,32.003617,-0.031357,0.010635,1.000519,-0.042482,-0.053114,-0.003308,64.704453,17.598755,-148.729889,,,
729605358.511787,0.074899,1.687468,32.005095,-0.031357,0.010635,1.000519,-0.045404,-0.052963,0.003179,64.704453,17.598755,-148.729889,,,
729605358.51519,0.0607,1.671876,32.006998,-0.030884,0.007629,1.001114,-0.045404,-0.052963,0.003179,64.704453,17.598755,-148.729889,,,
729605358.518462,0.0607,1.671876,32.006998,-0.030884,0.007629,1.001114,-0.045404,-0.052963,0.003179,64.704453,17.598755,-148.729889,,,
729605358.521798,0.04748,1.657158,32.007766,-0.030884,0.007629,1.001114,-0.04895,-0.052637,-0.001087,64.704453,17.598755,-148.729889,,,
729605358.525109,0.04748,1.657158,32.007766,-0.030884,0.007629,1.001114,-0.04895,-0.052637,-0.001087,64.704453,17.598755,-148.729889,,,
729605358.528528,0.033937,1.640671,32.006952,-0.025589,0.010437,1.004547,-0.04895,-0.052637,-0.001087,64.704453,17.598755,-148.729889,,,
729605358.531789,0.023266,1.624503,32.0046,-0.025589,0.010437,1.004547,-0.03783,-0.055774,-0.011507,64.704453,17.598755,-148.729889,,,
729605358.535124,0.023266,1.624503,32.0046,-0.025589,0.010437,1.004547,-0.03783,-0.055774,-0.011507,64.704453,17.598755,-148.729889,,,
729605358.538514,0.013281,1.607986,32.0015,-0.025864,0.006226,1.013382,-0.03783,-0.055774,-0.011507,64.704453,17.598755,-148.729889,,,
729605358.541482,0.006463,1.592625,31.998224,-0.025864,0.006226,1.013382,-0.028361,-0.047138,-0.016594,64.704453,17.598755,-148.729889,,,
729605358.54516,0.006463,1.592625,31.998224,-0.025864,0.006226,1.013382,-0.028361,-0.047138,-0.016594,64.704453,17.598755,-148.729889,,,
729605358.548437,-0.001273,1.579809,31.994876,-0.032104,-0.003326,1.018753,-0.028361,-0.047138,-0.016594,64.68335,17.494995,-149.229752,,,
729605358.551781,-0.005746,1.57055,31.991867,-0.032104,-0.003326,1.018753,-0.017182,-0.024597,-0.011397,64.68335,17.494995,-149.229752,,,
729605358.555204,-0.005746,1.57055,31.989052,-0.032104,-0.003326,1.018753,-0.017182,-0.024597,-0.011397,64.68335,17.494995,-149.229752,,,
729605358.558455,-0.01008,1.564567,31.989052,-0.031555,-0.009613,1.023468,-0.017182,-0.024597,-0.011397,64.68335,17.494995,-149.229752,,,
729605358.561772,-0.010355,1.56124,31.986193,-0.031555,-0.009613,1.023468,-0.002586,-0.006795,-0.011622,64.68335,17.494995,-149.229752,,,
729605358.565139,-0.010355,1.56124,31.986193,-0.031555,-0.009613,1.023468,-0.002586,-0.006795,-0.011622,64.68335,17.494995,-149.229752,,,
729605358.568512,-0.010488,1.560932,31.983306,-0.027466,-0.011169,1.023956,-0.002586,-0.006795,-0.011622,64.68335,17.494995,-149.229752,,,
729605358.571788,-0.00682,1.563674,31.981249,-0.027466,-0.011169,1.023956,0.013467,0.012732,-0.008783,64.68335,17.494995,-149.229752,,,
729605358.575119,-0.00682,1.563674,31.981249,-0.027466,-0.011169,1.023956,0.013467,0.012732,-0.008783,64.68335,17.494995,-149.229752,,,
729605358.578472,-0.002676,1.568193,31.980412,-0.035858,-0.012146,1.017151,0.013467,0.012732,-0.008783,64.68335,17.494995,-149.229752,,,
729605358.58181,0.004081,1.574232,31.980606,-0.035858,-0.012146,1.017151,0.020538,0.022813,0.002178,64.68335,17.494995,-149.229752,,,
729605358.585157,0.004081,1.574232,31.980606,-0.035858,-0.012146,1.017151,0.020538,0.022813,0.002178,64.68335,17.494995,-149.229752,,,
729605358.588463,0.01034,1.579701,31.981951,-0.04306,-0.01181,1.010391,0.020538,0.022813,0.002178,64.655579,17.662521,-149.226044,,,
729605358.591773,0.018157,1.584321,31.983579,-0.04306,-0.01181,1.010391,0.025042,0.015288,0.006074,64.655579,17.662521,-149.226044,,,
729605358.595171,0.018157,1.584321,31.983579,-0.04306,-0.01181,1.010391,0.025042,0.015288,0.006074,64.655579,17.662521,-149.226044,,,
729605358.598452,0.025293,1.58657,31.985373,-0.039078,-0.009995,0.998566,0.025042,0.015288,0.006074,64.655579,17.662521,-149.226044,,,
729605358.601791,0.034971,1.587762,31.986793,-0.039078,-0.009995,0.998566,0.0338,0.004835,0.003397,64.655579,17.662521,-149.226044,,,
729605358.605141,0.034971,1.587762,31.986793,-0.039078,-0.009995,0.998566,0.0338,0.004835,0.003397,64.655579,17.662521,-149.226044,,,
729605358.608512,0.046048,1.588528,31.98696,-0.034729,-0.007401,1.000092,0.0338,0.004835,0.003397,64.655579,17.662521,-149.226044,,,
729605358.61178,0.060477,1.588737,31.986404,-0.034729,-0.007401,1.000092,0.047445,0.00669,-0.004753,64.655579,17.662521,-149.226044,,,
729605358.615124,0.060477,1.588737,31.986404,-0.034729,-0.007401,1.000092,0.047445,0.00669,-0.004753,64.655579,17.662521,-149.226044,,,
729605358.618465,0.07486,1.589417,31.985637,-0.035538,-0.007553,1.003174,0.047445,0.00669,-0.004753,64.655579,17.662521,-149.226044,,,
729605358.621846,0.089301,1.589849,31.98494,-0.035538,-0.007553,1.003174,0.050269,0.00664,-0.003551,64.655579,17.662521,-149.226044,,,
729605358.625157,0.089301,1.589849,31.98494,-0.035538,-0.007553,1.003174,0.050269,0.00664,-0.003551,64.655579,17.662521,-149.226044,,,
729605358.628509,0.102473,1.590672,31.984635,-0.039749,-0.007477,0.992157,0.050269,0.00664,-0.003551,64.655579,17.662521,-149.226044,,,
729605358.631838,0.112754,1.592495,31.985255,-0.039749,-0.007477,0.992157,0.03764,0.01036,0.000643,64.652206,17.627274,-149.089081,,,
729605358.635218,0.112754,1.592495,31.985255,-0.039749,-0.007477,0.992157,0.03764,0.01036,0.000643,64.652206,17.627274,-149.089081,,,
729605358.638456,0.12179,1.593617,31.986566,-0.033157,-0.004578,0.984787,0.03764,0.01036,0.000643,64.652206,17.627274,-149.089081,,,
729605358.641793,0.12717,1.594241,31.988662,-0.033157,-0.004578,0.984787,0.022671,0.002708,0.008025,64.652206,17.627274,-149.089081,,,
729605358.645122,0.12717,1.594241,31.988662,-0.033157,-0.004578,0.984787,0.022671,0.002708,0.008025,64.652206,17.627274,-149.089081,,,
729605358.648521,0.132182,1.59477,31.991998,-0.026215,0.001694,0.976089,0.022671,0.002708,0.008025,64.652206,17.627274,-149.089081,,,
729605358.651772,0.133413,1.597031,31.99614,-0.026215,0.001694,0.976089,0.006774,0.013252,0.012581,64.652206,17.627274,-149.089081,,,
729605358.655124,0.133413,1.597031,31.99614,-0.026215,0.001694,0.976089,0.006774,0.013252,0.012581,64.652206,17.627274,-149.089081,,,
729605358.65844,0.134849,1.601635,32.00036,-0.020035,0.005188,0.982681,0.006774,0.013252,0.012581,64.652206,17.627274,-149.089081,,,
729605358.661781,0.133624,1.609573,32.004492,-0.020035,0.005188,0.982681,0.003806,0.028356,0.014407,64.652206,17.627274,-149.089081,,,
729605358.665124,0.133624,1.609573,32.004492,-0.020035,0.005188,0.982681,0.003806,0.028356,0.014407,64.652206,17.627274,-149.089081,,,
729605358.668467,0.134565,1.617011,32.007822,-0.013474,0.006302,0.988068,0.003806,0.028356,0.014407,64.652206,17.627274,-149.089081,,,
729605358.671771,0.134931,1.624709,32.010159,-0.013474,0.006302,0.988068,0.009175,0.022035,0.007858,64.685272,17.347046,-149.196167,,,
729605358.675168,0.134931,1.624709,32.010159,-0.013474,0.006302,0.988068,0.009175,0.022035,0.007858,64.685272,17.347046,-149.196167,,,
729605358.678449,0.137078,1.628186,32.01213,-0.014648,0.005249,0.985291,0.009175,0.022035,0.007858,64.685272,17.347046,-149.196167,,,
729605358.681779,0.136298,1.629671,32.013921,-0.014648,0.005249,0.985291,0.000499,0.000423,0.005319,64.685272,17.347046,-149.196167,,,
729605358.685121,0.136298,1.629671,32.013921,-0.014648,0.005249,0.985291,0.000499,0.000423,0.005319,64.685272,17.347046,-149.196167,,,
729605358.688522,0.134329,1.626443,32.016254,-0.019241,0.007599,0.979004,0.000499,0.000423,0.005319,64.685272,17.347046,-149.196167,,,
729605358.691794,0.128638,1.620864,32.018501,-0.019241,0.007599,0.979004,-0.017419,-0.020518,0.00436,64.685272,17.347046,-149.196167,,,
729605358.695183,0.128638,1.620864,32.018501,-0.019241,0.007599,0.979004,-0.017419,-0.020518,0.00436,64.685272,17.347046,-149.196167,,,
729605358.698501,0.122207,1.611997,32.019497,-0.017197,0.011414,0.980316,-0.017419,-0.020518,0.00436,64.685272,17.347046,-149.196167,,,
729605358.701782,0.113124,1.601861,32.019284,-0.017197,0.011414,0.980316,-0.026545,-0.038272,-0.003047,64.685272,17.347046,-149.196167,,,
729605358.705133,0.113124,1.601861,32.019284,-0.017197,0.011414,0.980316,-0.026545,-0.038272,-0.003047,64.685272,17.347046,-149.196167,,,
729605358.708469,0.103607,1.589505,32.017645,-0.010925,0.013611,0.985092,-0.026545,-0.038272,-0.003047,64.685272,17.347046,-149.196167,,,
729605358.711786,0.090782,1.578993,32.015063,-0.010925,0.013611,0.985092,-0.040167,-0.036025,-0.010799,64.811447,17.529388,-149.128479,,,
729605358.715215,0.090782,1.578993,32.015063,-0.010925,0.013611,0.985092,-0.040167,-0.036025,-0.010799,64.811447,17.529388,-149.128479,,,
729605358.718442,0.076758,1.568816,32.012403,-0.013535,0.008453,0.994446,-0.040167,-0.036025,-0.010799,64.811447,17.529388,-149.128479,,,
729605358.72178,0.0611,1.560616,32.00983,-0.013535,0.008453,0.994446,-0.050259,-0.025848,-0.012233,64.811447,17.529388,-149.128479,,,
729605358.725131,0.0611,1.560616,32.00983,-0.013535,0.008453,0.994446,-0.050259,-0.025848,-0.012233,64.811447,17.529388,-149.128479,,,
729605358.728526,0.046244,1.553922,32.007396,-0.013901,0.004013,0.999268,-0.050259,-0.025848,-0.012233,64.811447,17.529388,-149.128479,,,
729605358.731775,0.032418,1.549767,32.005829,-0.013901,0.004013,0.999268,-0.047716,-0.009702,-0.00767,64.811447,17.529388,-149.128479,,,
729605358.735126,0.032418,1.549767,32.005829,-0.013901,0.004013,0.999268,-0.047716,-0.009702,-0.00767,64.811447,17.529388,-149.128479,,,
729605358.738462,0.019416,1.549703,32.005687,-0.014755,0.000992,1.005936,-0.047716,-0.009702,-0.00767,64.811447,17.529388,-149.128479,,,
729605358.741782,0.009184,1.552425,32.006705,-0.014755,0.000992,1.005936,-0.03751,0.019591,0.00119,64.811447,17.529388,-149.128479,,,
729605358.745126,0.009184,1.552425,32.006705,-0.014755,0.000992,1.005936,-0.03751,0.019591,0.00119,64.811447,17.529388,-149.128479,,,
729605358.748472,0.001061,1.559311,32.008318,-0.01445,-0.00087,1.015213,-0.03751,0.019591,0.00119,64.811447,17.529388,-149.128479,,,
729605358.751781,-0.002948,1.566874,32.009484,-0.01445,-0.00087,1.015213,-0.01169,0.035867,-0.000644,64.666489,17.631271,-149.255615,,,
729605358.755191,-0.002948,1.566874,32.009484,-0.01445,-0.00087,1.015213,-0.01169,0.035867,-0.000644,64.666489,17.631271,-149.255615,,,
729605358.758452,-0.003772,1.577493,32.009423,-0.014557,-0.001968,1.015533,-0.01169,0.035867,-0.000644,64.666489,17.631271,-149.255615,,,
729605358.761783,-0.00061,1.58774,32.007728,-0.014557,-0.001968,1.015533,0.013911,0.043021,-0.007179,64.666489,17.631271,-149.255615,,,
729605358.765116,-0.00061,1.58774,32.007728,-0.014557,-0.001968,1.015533,0.013911,0.043021,-0.007179,64.666489,17.631271,-149.255615,,,
729605358.768531,0.005059,1.599746,32.005251,-0.020401,-0.002853,1.016357,0.013911,0.043021,-0.007179,64.666489,17.631271,-149.255615,,,
729605358.771768,0.014361,1.610016,32.002045,-0.020401,-0.002853,1.016357,0.030848,0.040556,-0.013636,64.666489,17.631271,-149.255615,,,
729605358.775113,0.014361,1.610016,32.002045,-0.020401,-0.002853,1.016357,0.030848,0.040556,-0.013636,64.666489,17.631271,-149.255615,,,
729605358.778447,0.023516,1.620033,31.997841,-0.027969,-0.00412,1.009399,0.030848,0.040556,-0.013636,64.666489,17.631271,-149.255615,,,
729605358.781773,0.034455,1.62538,31.993654,-0.027969,-0.00412,1.009399,0.033827,0.023255,-0.015919,64.666489,17.631271,-149.255615,,,
729605358.785117,0.034455,1.62538,31.993654,-0.027969,-0.00412,1.009399,0.033827,0.023255,-0.015919,64.666489,17.631271,-149.255615,,,
729605358.788473,0.04245,1.628007,31.989719,-0.029999,-0.000732,0.997086,0.033827,0.023255,-0.015919,64.666489,17.631271,-149.255615,,,
729605358.79149,0.048646,1.624887,31.985819,-0.029999,-0.000732,0.997086,0.015411,-0.001613,-0.013452,64.666489,17.631271,-149.255615,,,
729605358.795199,0.048646,1.624887,31.985819,-0.029999,-0.000732,0.997086,0.015411,-0.001613,-0.013452,64.788132,17.465988,-149.394791,,,
729605358.798456,0.049473,1.621254,31.981824,-0.036987,0.00148,0.98671,0.015411,-0.001613,-0.013452,64.788132,17.465988,-149.394791,,,
729605358.801783,0.048297,1.614159,31.978367,-0.036987,0.00148,0.98671,-0.010098,-0.016142,-0.013432,64.788132,17.465988,-149.394791,,,
729605358.805117,0.048297,1.614159,31.978367,-0.036987,0.00148,0.98671,-0.010098,-0.016142,-0.013432,64.788132,17.465988,-149.394791,,,
729605358.808497,0.043731,1.60756,31.975979,-0.037399,0.00441,0.984695,-0.010098,-0.016142,-0.013432,64.788132,17.465988,-149.394791,,,
729605358.811774,0.036084,1.598649,31.973823,-0.037399,0.00441,0.984695,-0.031717,-0.021948,-0.009686,64.788132,17.465988,-149.394791,,,
729605358.815115,0.036084,1.598649,31.973823,-0.037399,0.00441,0.984695,-0.031717,-0.021948,-0.009686,64.788132,17.465988,-149.394791,,,
729605358.81845,0.025676,1.591539,31.97209,-0.036819,0.004791,0.985489,-0.031717,-0.021948,-0.009686,64.788132,17.465988,-149.394791,,,
729605358.821776,0.014642,1.584589,31.97108,-0.036819,0.004791,0.985489,-0.040085,-0.013894,-0.007262,64.788132,17.465988,-149.394791,,,
729605358.825124,0.014642,1.584589,31.97108,-0.036819,0.004791,0.985489,-0.040085,-0.013894,-0.007262,64.788132,17.465988,-149.394791,,,
729605358.828449,0.003907,1.582201,31.970339,-0.032349,0.003464,0.996368,-0.040085,-0.013894,-0.007262,64.788132,17.465988,-149.394791,,,
729605358.831779,-0.006936,1.581689,31.970092,-0.032349,0.003464,0.996368,-0.033137,0.0099,-0.00162,64.788132,17.465988,-149.394791,,,
729605358.835112,-0.006936,1.581689,31.970092,-0.032349,0.003464,0.996368,-0.033137,0.0099,-0.00162,64.723114,17.814087,-149.134735,,,
729605358.838455,-0.017354,1.585901,31.97128,-0.031464,0.001678,0.999008,-0.033137,0.0099,-0.00162,64.723114,17.814087,-149.134735,,,
729605358.841798,-0.027578,1.591595,31.973924,-0.031464,0.001678,0.999008,-0.03219,0.028051,0.008144,64.723114,17.814087,-149.134735,,,
729605358.845191,-0.027578,1.591595,31.973924,-0.031464,0.001678,0.999008,-0.03219,0.028051,0.008144,64.723114,17.814087,-149.134735,,,
729605358.848467,-0.037002,1.601759,31.977107,-0.03537,0.000656,0.997284,-0.03219,0.028051,0.008144,64.723114,17.814087,-149.134735,,,
729605358.851783,-0.044432,1.614168,31.981097,-0.03537,0.000656,0.997284,-0.020161,0.052525,0.013042,64.723114,17.814087,-149.134735,,,
729605358.855116,-0.044432,1.614168,31.981097,-0.03537,0.000656,0.997284,-0.020161,0.052525,0.013042,64.723114,17.814087,-149.134735,,,
729605358.858486,-0.048042,1.630383,31.985638,-0.039505,-0.001923,1.006958,-0.020161,0.052525,0.013042,64.723114,17.814087,-149.134735,,,
729605358.861784,-0.049791,1.649232,31.990457,-0.039505,-0.001923,1.006958,-0.003003,0.07198,0.012892,64.723114,17.814087,-149.134735,,,
729605358.865137,-0.049791,1.649232,31.990457,-0.039505,-0.001923,1.006958,-0.003003,0.07198,0.012892,64.723114,17.814087,-149.134735,,,
729605358.868454,-0.049809,1.667724,31.996324,-0.04567,-0.006577,1.009293,-0.003003,0.07198,0.012892,64.723114,17.814087,-149.134735,,,
729605358.871783,-0.049316,1.683618,32.003863,-0.04567,-0.006577,1.009293,0.001381,0.055491,0.027497,64.723114,17.814087,-149.134735,,,
729605358.875113,-0.049316,1.683618,32.003863,-0.04567,-0.006577,1.009293,0.001381,0.055491,0.027497,64.84552,17.494736,-149.414795,,,
729605358.878456,-0.050245,1.69435,32.013228,-0.058105,-0.008514,0.991516,0.001381,0.055491,0.027497,64.84552,17.494736,-149.414795,,,
729605358.881781,-0.053819,1.700081,32.023792,-0.058105,-0.008514,0.991516,-0.018974,0.012784,0.035411,64.84552,17.494736,-149.414795,,,
729605358.885178,-0.053819,1.700081,32.023792,-0.058105,-0.008514,0.991516,-0.018974,0.012784,0.035411,64.84552,17.494736,-149.414795,,,
729605358.888457,-0.062585,1.698338,32.035055,-0.05542,-0.002518,0.978195,-0.018974,0.012784,0.035411,64.84552,17.494736,-149.414795,,,
729605358.891781,-0.075516,1.691135,32.045989,-0.05542,-0.002518,0.978195,-0.050239,-0.031234,0.03477,64.84552,17.494736,-149.414795,,,
729605358.895115,-0.075516,1.691135,32.045989,-0.05542,-0.002518,0.978195,-0.050239,-0.031234,0.03477,64.84552,17.494736,-149.414795,,,
729605358.898519,-0.093284,1.677849,32.056241,-0.050201,0.002747,0.975357,-0.050239,-0.031234,0.03477,64.84552,17.494736,-149.414795,,,
729605358.901771,-0.1142,1.662167,32.065641,-0.050201,0.002747,0.975357,-0.078801,-0.058205,0.030246,64.84552,17.494736,-149.414795,,,
729605358.90511,-0.1142,1.662167,32.065641,-0.050201,0.002747,0.975357,-0.078801,-0.058205,0.030246,64.84552,17.494736,-149.414795,,,
729605358.908458,-0.139387,1.64345,32.073919,-0.041229,0.002823,0.982346,-0.078801,-0.058205,0.030246,64.84552,17.494736,-149.414795,,,
729605358.911779,-0.166505,1.623613,32.081514,-0.041229,0.002823,0.982346,-0.097885,-0.065969,0.023756,64.84552,17.494736,-149.414795,,,
729605358.915106,-0.166505,1.623613,32.081514,-0.041229,0.002823,0.982346,-0.097885,-0.065969,0.023756,64.493393,17.806274,-149.160263,,,
729605358.918467,-0.195553,1.603911,32.088582,-0.033875,-0.000305,0.99263,-0.097885,-0.065969,0.023756,64.493393,17.806274,-149.160263,,,
729605358.921824,-0.223391,1.586637,32.096105,-0.033875,-0.000305,0.99263,-0.097915,-0.05647,0.021679,64.493393,17.806274,-149.160263,,,
729605358.925102,-0.223391,1.586637,32.096105,-0.033875,-0.000305,0.99263,-0.097915,-0.05647,0.021679,64.493393,17.806274,-149.160263,,,
729605358.928464,-0.25023,1.571638,32.104519,-0.029449,-0.005936,1.00676,-0.097915,-0.05647,0.021679,64.493393,17.806274,-149.160263,,,
729605358.931779,-0.275311,1.561662,32.114171,-0.029449,-0.005936,1.00676,-0.087472,-0.033613,0.0323,64.493393,17.806274,-149.160263,,,
729605358.935167,-0.275311,1.561662,32.114171,-0.029449,-0.005936,1.00676,-0.087472,-0.033613,0.0323,64.493393,17.806274,-149.160263,,,
729605358.938442,-0.299101,1.553555,32.125425,-0.026001,-0.007645,1.010925,-0.087472,-0.033613,0.0323,64.493393,17.806274,-149.160263,,,
729605358.941774,-0.319581,1.549112,32.137853,-0.026001,-0.007645,1.010925,-0.071862,-0.017995,0.038885,64.493393,17.806274,-149.160263,,,
729605358.945122,-0.319581,1.549112,32.137853,-0.026001,-0.007645,1.010925,-0.071862,-0.017995,0.038885,64.493393,17.806274,-149.160263,,,
729605358.948535,-0.337305,1.544644,32.150849,-0.024643,-0.010315,1.012314,-0.071862,-0.017995,0.038885,64.493393,17.806274,-149.160263,,,
729605358.951773,-0.352321,1.544669,32.164082,-0.024643,-0.010315,1.012314,-0.051168,-0.005644,0.043008,64.493393,17.806274,-149.160263,,,
729605358.95513,-0.352321,1.544669,32.164082,-0.024643,-0.010315,1.012314,-0.051168,-0.005644,0.043008,64.493393,17.806274,-149.160263,,,
729605358.958464,-0.364357,1.543456,32.177464,-0.019577,-0.006821,1.0121,-0.051168,-0.005644,0.043008,64.661682,18.006439,-149.145935,,,
729605358.961781,-0.373923,1.548097,32.190404,-0.019577,-0.006821,1.0121,-0.031589,0.00759,0.041421,64.661682,18.006439,-149.145935,,,
729605358.965119,-0.373923,1.548097,32.190404,-0.019577,-0.006821,1.0121,-0.031589,0.00759,0.041421,64.661682,18.006439,-149.145935,,,
729605358.968471,-0.381072,1.551141,32.202239,-0.022873,-0.007553,1.012161,-0.031589,0.00759,0.041421,64.661682,18.006439,-149.145935,,,
729605358.971776,-0.385556,1.55914,32.213389,-0.022873,-0.007553,1.012161,-0.0156,0.021943,0.036711,64.661682,18.006439,-149.145935,,,
729605358.975181,-0.385556,1.55914,32.213389,-0.022873,-0.007553,1.012161,-0.0156,0.021943,0.036711,64.661682,18.006439,-149.145935,,,
729605358.97845,-0.389422,1.564224,32.224335,-0.027512,-0.010681,1.015213,-0.0156,0.021943,0.036711,64.661682,18.006439,-149.145935,,,
729605358.981774,-0.39137,1.570575,32.234764,-0.027512,-0.010681,1.015213,-0.013126,0.01343,0.033336,64.661682,18.006439,-149.145935,,,
729605358.985114,-0.39137,1.570575,32.234764,-0.027512,-0.010681,1.015213,-0.013126,0.01343,0.033336,64.661682,18.006439,-149.145935,,,
729605358.988506,-0.394367,1.572752,32.244725,-0.02887,-0.010117,1.002472,-0.013126,0.01343,0.033336,64.661682,18.006439,-149.145935,,,
729605358.991767,-0.396509,1.574962,32.25431,-0.02887,-0.010117,1.002472,-0.010242,0.004882,0.031282,64.661682,18.006439,-149.145935,,,
729605358.995139,-0.396509,1.574962,32.25431,-0.02887,-0.010117,1.002472,-0.010242,0.004882,0.031282,64.661682,18.006439,-149.145935,,,
729605358.998455,-0.400161,1.574215,32.263053,-0.027924,-0.007385,1.001434,-0.010242,0.004882,0.031282,64.595932,18.091125,-149.215851,,,
729605359.001863,-0.403932,1.571354,32.27033,-0.027924,-0.007385,1.001434,-0.016876,-0.010834,0.021883,64.595932,18.091125,-149.215851,,,
729605359.005098,-0.403932,1.571354,32.27033,-0.027924,-0.007385,1.001434,-0.016876,-0.010834,0.021883,64.595932,18.091125,-149.215851,,,
729605359.008462,-0.409035,1.564863,32.276473,-0.024429,-0.003952,0.997726,-0.016876,-0.010834,0.021883,64.595932,18.091125,-149.215851,,,
729605359.01178,-0.414482,1.555121,32.281702,-0.024429,-0.003952,0.997726,-0.020782,-0.031461,0.013651,64.595932,18.091125,-149.215851,,,
729605359.015212,-0.414482,1.555121,32.281702,-0.024429,-0.003952,0.997726,-0.020782,-0.031461,0.013651,64.595932,18.091125,-149.215851,,,
729605359.018463,-0.419969,1.543188,32.285375,-0.022964,-0.004868,0.994232,-0.020782,-0.031461,0.013651,64.595932,18.091125,-149.215851,,,
729605359.021785,-0.424872,1.530361,32.287141,-0.022964,-0.004868,0.994232,-0.017621,-0.042447,0.000912,64.595932,18.091125,-149.215851,,,
729605359.025112,-0.424872,1.530361,32.287141,-0.022964,-0.004868,0.994232,-0.017621,-0.042447,0.000912,64.595932,18.091125,-149.215851,,,
729605359.02852,-0.428208,1.517479,32.286641,-0.015778,-0.004257,1.000031,-0.017621,-0.042447,0.000912,64.595932,18.091125,-149.215851,,,
729605359.031771,-0.430128,1.503693,32.284869,-0.015778,-0.004257,1.000031,-0.00409,-0.043558,-0.007756,64.595932,18.091125,-149.215851,,,
729605359.035129,-0.430128,1.503693,32.284869,-0.015778,-0.004257,1.000031,-0.00409,-0.043558,-0.007756,64.595932,18.091125,-149.215851,,,
729605359.038446,-0.429174,1.489978,32.282889,-0.01442,-0.00798,1.002853,-0.00409,-0.043558,-0.007756,64.370148,18.1539,-149.199341,,,
729605359.041779,-0.424747,1.476869,32.281104,-0.01442,-0.00798,1.002853,0.016592,-0.039961,-0.007382,64.370148,18.1539,-149.199341,,,
729605359.045122,-0.424747,1.476869,32.281104,-0.01442,-0.00798,1.002853,0.016592,-0.039961,-0.007382,64.370148,18.1539,-149.199341,,,
729605359.048461,-0.417498,1.467882,32.279398,-0.019882,-0.011765,1.00827,0.016592,-0.039961,-0.007382,64.370148,18.1539,-149.199341,,,
729605359.051777,-0.408537,1.462804,32.277984,-0.019882,-0.011765,1.00827,0.032874,-0.008343,-0.004275,64.370148,18.1539,-149.199341,,,
729605359.055167,-0.408537,1.462804,32.277984,-0.019882,-0.011765,1.00827,0.032874,-0.008343,-0.004275,64.370148,18.1539,-149.199341,,,
729605359.058453,-0.39849,1.461992,32.277945,-0.015152,-0.007721,1.006927,0.032874,-0.008343,-0.004275,64.370148,18.1539,-149.199341,,,
729605359.061777,-0.388689,1.465778,32.279358,-0.015152,-0.007721,1.006927,0.037648,0.018422,0.005378,64.370148,18.1539,-149.199341,,,
729605359.065113,-0.388689,1.465778,32.279358,-0.015152,-0.007721,1.006927,0.037648,0.018422,0.005378,64.370148,18.1539,-149.199341,,,
729605359.068485,-0.377664,1.474267,32.28192,-0.015457,-0.004517,1.000076,0.037648,0.018422,0.005378,64.370148,18.1539,-149.199341,,,
729605359.071792,-0.365677,1.487865,32.285058,-0.015457,-0.004517,1.000076,0.043831,0.052471,0.009947,64.370148,18.1539,-149.199341,,,
729605359.075143,-0.365677,1.487865,32.285058,-0.015457,-0.004517,1.000076,0.043831,0.052471,0.009947,64.370148,18.1539,-149.199341,,,
729605359.078442,-0.352402,1.504748,32.287918,-0.010712,-0.001358,1.003235,0.043831,0.052471,0.009947,64.515579,17.953064,-149.001526,,,
729605359.081811,-0.338487,1.523534,32.290043,-0.010712,-0.001358,1.003235,0.051221,0.070553,0.007374,64.515579,17.953064,-149.001526,,,
729605359.085136,-0.338487,1.523534,32.290043,-0.010712,-0.001358,1.003235,0.051221,0.070553,0.007374,64.515579,17.953064,-149.001526,,,
729605359.088443,-0.325229,1.54213,32.290977,-0.010681,-0.000397,0.995163,0.051221,0.070553,0.007374,64.515579,17.953064,-149.001526,,,
729605359.091843,-0.31394,1.558634,32.291042,-0.010681,-0.000397,0.995163,0.039229,0.060549,-5.9e-05,64.515579,17.953064,-149.001526,,,
729605359.095112,-0.31394,1.558634,32.291042,-0.010681,-0.000397,0.995163,0.039229,0.060549,-5.9e-05,64.515579,17.953064,-149.001526,,,
729605359.098495,-0.305928,1.57307,32.290497,-0.021881,0.002747,0.975922,0.039229,0.060549,-5.9e-05,64.515579,17.953064,-149.001526,,,
729605359.101834,-0.301055,1.583269,32.288703,-0.021881,0.002747,0.975922,0.017646,0.039687,-0.010005,64.515579,17.953064,-149.001526,,,
729605359.105186,-0.301055,1.583269,32.288703,-0.021881,0.002747,0.975922,0.017646,0.039687,-0.010005,64.515579,17.953064,-149.001526,,,
729605359.108519,-0.299339,1.590287,32.285256,-0.023605,0.007248,0.970856,0.017646,0.039687,-0.010005,64.515579,17.953064,-149.001526,,,
729605359.11181,-0.300264,1.591124,32.280593,-0.023605,0.007248,0.970856,-0.002322,0.007605,-0.018414,64.515579,17.953064,-149.001526,,,
729605359.115107,-0.300264,1.591124,32.280593,-0.023605,0.007248,0.970856,-0.002322,0.007605,-0.018414,64.515579,17.953064,-149.001526,,,
729605359.118519,-0.302654,1.588808,32.274823,-0.022537,0.007401,0.974274,-0.002322,0.007605,-0.018414,64.515579,17.953064,-149.001526,,,
729605359.121764,-0.306315,1.581095,32.267632,-0.022537,0.007401,0.974274,-0.007283,-0.022615,-0.025723,64.527725,18.103378,-149.239792,,,
729605359.125115,-0.306315,1.581095,32.267632,-0.022537,0.007401,0.974274,-0.007283,-0.022615,-0.025723,64.527725,18.103378,-149.239792,,,
729605359.128465,-0.310041,1.571582,32.259089,-0.023987,0.00119,0.979721,-0.007283,-0.022615,-0.025723,64.527725,18.103378,-149.239792,,,
729605359.131896,-0.315461,1.55804,32.249944,-0.023987,0.00119,0.979721,-0.014494,-0.043826,-0.033283,64.527725,18.103378,-149.239792,,,
729605359.135117,-0.315461,1.55804,32.249944,-0.023987,0.00119,0.979721,-0.014494,-0.043826,-0.033283,64.527725,18.103378,-149.239792,,,
729605359.138469,-0.321715,1.543469,32.240461,-0.02507,0.001511,0.983368,-0.014494,-0.043826,-0.033283,64.527725,18.103378,-149.239792,,,
729605359.141774,-0.33012,1.526955,32.230312,-0.02507,0.001511,0.983368,-0.027583,-0.049041,-0.038375,64.527725,18.103378,-149.239792,,,
729605359.145218,-0.33012,1.526955,32.230312,-0.02507,0.001511,0.983368,-0.027583,-0.049041,-0.038375,64.527725,18.103378,-149.239792,,,
729605359.148461,-0.340421,1.512019,32.220427,-0.025284,0.001602,0.987732,-0.027583,-0.049041,-0.038375,64.527725,18.103378,-149.239792,,,
729605359.151784,-0.351897,1.496713,32.211628,-0.025284,0.001602,0.987732,-0.040979,-0.039977,-0.033279,64.527725,18.103378,-149.239792,,,
729605359.155124,-0.351897,1.496713,32.211628,-0.025284,0.001602,0.987732,-0.040979,-0.039977,-0.033279,64.527725,18.103378,-149.239792,,,
729605359.158507,-0.365572,1.484935,32.204513,-0.02655,-0.002609,0.991913,-0.040979,-0.039977,-0.033279,64.527725,18.103378,-149.239792,,,
729605359.161773,-0.380033,1.473298,32.199164,-0.02655,-0.002609,0.991913,-0.053258,-0.026953,-0.02208,64.474304,18.222595,-149.278229,,,
729605359.165123,-0.380033,1.473298,32.199164,-0.02655,-0.002609,0.991913,-0.053258,-0.026953,-0.02208,64.474304,18.222595,-149.278229,,,
729605359.168451,-0.395564,1.465627,32.195208,-0.025986,-0.008041,0.99556,-0.053258,-0.026953,-0.02208,64.474304,18.222595,-149.278229,,,
729605359.171772,-0.4094,1.459823,32.191671,-0.025986,-0.008041,0.99556,-0.047206,-0.009799,-0.014104,64.474304,18.222595,-149.278229,,,
729605359.175124,-0.4094,1.459823,32.191671,-0.025986,-0.008041,0.99556,-0.047206,-0.009799,-0.014104,64.474304,18.222595,-149.278229,,,
729605359.178459,-0.42172,1.459316,32.188327,-0.021545,-0.010223,1.006104,-0.047206,-0.009799,-0.014104,64.474304,18.222595,-149.278229,,,
729605359.181778,-0.429517,1.463089,32.185198,-0.021545,-0.010223,1.006104,-0.031287,0.020604,-0.014378,64.474304,18.222595,-149.278229,,,
729605359.185178,-0.429517,1.463089,32.185198,-0.021545,-0.010223,1.006104,-0.031287,0.020604,-0.014378,64.474304,18.222595,-149.278229,,,
729605359.188458,-0.434636,1.471499,32.181822,-0.021667,-0.012909,1.016846,-0.031287,0.020604,-0.014378,64.474304,18.222595,-149.278229,,,
729605359.191793,-0.433555,1.483691,32.17825,-0.021667,-0.012909,1.016846,-0.000965,0.051417,-0.01544,64.474304,18.222595,-149.278229,,,
729605359.195137,-0.433555,1.483691,32.17825,-0.021667,-0.012909,1.016846,-0.000965,0.051417,-0.01544,64.474304,18.222595,-149.278229,,,
729605359.198533,-0.431313,1.499119,32.17444,-0.023819,-0.015854,1.027588,-0.000965,0.051417,-0.01544,64.474304,18.222595,-149.278229,,,
729605359.201774,-0.431313,1.514691,32.170774,-0.023819,-0.015854,1.027588,0.020244,0.059201,-0.013846,64.510986,18.144852,-149.489029,,,
729605359.20512,-0.424834,1.514691,32.170774,-0.023819,-0.015854,1.027588,0.020244,0.059201,-0.013846,64.510986,18.144852,-149.489029,,,
729605359.208462,-0.418334,1.529241,32.167928,-0.029373,-0.01622,1.014801,0.020244,0.059201,-0.013846,64.510986,18.144852,-149.489029,,,
729605359.21178,-0.411295,1.541593,32.165849,-0.029373,-0.01622,1.014801,0.024399,0.045704,-0.008635,64.510986,18.144852,-149.489029,,,
729605359.215126,-0.411295,1.541593,32.165849,-0.029373,-0.01622,1.014801,0.024399,0.045704,-0.008635,64.510986,18.144852,-149.489029,,,
729605359.218454,-0.406718,1.55194,32.164252,-0.038834,-0.014114,0.998291,0.024399,0.045704,-0.008635,64.510986,18.144852,-149.489029,,,
729605359.221777,-0.406718,1.55194,32.164252,-0.038834,-0.014114,0.998291,0.004328,0.026163,-0.005676,64.510986,18.144852,-149.489029,,,
