Time (sec),Pitch (deg),Roll (deg),Yaw(deg),X-Acceleration (g),Y-Acceleration (g),Z-Acceleration (g),Pitch Rate (deg/sec),Roll Rate (deg/sec),Yaw Rate (deg/sec),Magnetic Field in X direction (uT),Magnetic Field in Y direction (uT),Magnetic Field in Z Direction (uT),Latitude (deg),Longitude (deg),Altitude (m)
729606717.99328,2.8499,-1.792533,54.655866,0.02121,0.040222,1.013916,-0.023016,-0.012077,0.005907,60.853989,20.117569,-147.110397,,,
729606717.996694,2.8499,-1.792533,54.655866,0.02121,0.040222,1.013916,-0.023016,-0.012077,0.005907,60.853989,20.117569,-147.110397,,,
729606718.000013,2.846867,-1.800238,54.659317,0.02121,0.040222,1.013916,-0.023016,-0.012077,0.005907,60.853989,20.117569,-147.110397,,,
729606718.003283,2.842039,-1.802943,54.66415,0.026154,0.040649,1.015945,-0.017604,-0.005228,0.014889,60.853989,20.117569,-147.110397,,,
729606718.006626,2.842039,-1.802943,54.66415,0.026154,0.040649,1.015945,-0.017604,-0.005228,0.014889,60.853989,20.117569,-147.110397,,,
729606718.010002,2.84065,-1.806303,54.670302,0.026154,0.040649,1.015945,-0.017604,-0.005228,0.014889,60.853989,20.117569,-147.110397,,,
729606718.013277,2.839176,-1.808177,54.677299,0.030975,0.038483,1.018509,-0.003014,-0.003173,0.024395,60.853989,20.117569,-147.110397,,,
729606718.016663,2.839176,-1.808177,54.677299,0.030975,0.038483,1.018509,-0.003014,-0.003173,0.024395,60.853989,20.117569,-147.110397,,,
729606718.019941,2.838652,-1.809359,54.68463,0.030975,0.038483,1.018509,-0.003014,-0.003173,0.024395,60.858704,20.218628,-147.293808,,,
729606718.023277,2.839811,-1.813003,54.691891,0.040054,0.041031,1.010178,0.005688,-0.007559,0.024393,60.858704,20.218628,-147.293808,,,
729606718.026626,2.839811,-1.813003,54.691891,0.040054,0.041031,1.010178,0.005688,-0.007559,0.024393,60.858704,20.218628,-147.293808,,,
729606718.03001,2.840977,-1.81123,54.69826,0.040054,0.041031,1.010178,0.005688,-0.007559,0.024393,60.858704,20.218628,-147.293808,,,
729606718.033374,2.843524,-1.814765,54.703438,0.050735,0.046875,1.006104,0.013012,-0.011327,0.016879,60.858704,20.218628,-147.293808,,,
729606718.036639,2.843524,-1.814765,54.703438,0.050735,0.046875,1.006104,0.013012,-0.011327,0.016879,60.858704,20.218628,-147.293808,,,
729606718.039949,2.84529,-1.81583,54.706661,0.050735,0.046875,1.006104,0.013012,-0.011327,0.016879,60.858704,20.218628,-147.293808,,,
729606718.043298,2.846886,-1.824444,54.708025,0.054001,0.053375,0.993256,0.006782,-0.026243,-0.000172,60.858704,20.218628,-147.293808,,,
729606718.046704,2.846886,-1.824444,54.708025,0.054001,0.053375,0.993256,0.006782,-0.026243,-0.000172,60.858704,20.218628,-147.293808,,,
729606718.050024,2.846665,-1.83027,54.706974,0.054001,0.053375,0.993256,0.006782,-0.026243,-0.000172,60.858704,20.218628,-147.293808,,,
729606718.05327,2.84653,-1.841658,54.704593,0.054581,0.054352,0.987198,0.001529,-0.036942,-0.00998,60.858704,20.218628,-147.293808,,,
729606718.056717,2.84653,-1.841658,54.704593,0.054581,0.054352,0.987198,0.001529,-0.036942,-0.00998,60.858704,20.218628,-147.293808,,,
729606718.060041,2.844609,-1.849972,54.701266,0.054581,0.054352,0.987198,0.001529,-0.036942,-0.00998,60.858704,20.218628,-147.293808,,,
729606718.063271,2.843031,-1.862804,54.69824,0.047897,0.053101,0.988937,-0.007792,-0.042941,-0.013603,60.746338,20.303146,-146.97171,,,
729606718.06671,2.843031,-1.862804,54.69824,0.047897,0.053101,0.988937,-0.007792,-0.042941,-0.013603,60.746338,20.303146,-146.97171,,,
729606718.069943,2.838307,-1.871609,54.695342,0.047897,0.053101,0.988937,-0.007792,-0.042941,-0.013603,60.746338,20.303146,-146.97171,,,
729606718.073283,2.834205,-1.884545,54.693315,0.043839,0.053192,0.989273,-0.013948,-0.042442,-0.006434,60.746338,20.303146,-146.97171,,,
729606718.076623,2.834205,-1.884545,54.693315,0.043839,0.053192,0.989273,-0.013948,-0.042442,-0.006434,60.746338,20.303146,-146.97171,,,
729606718.080036,2.827079,-1.890925,54.691043,0.043839,0.053192,0.989273,-0.013948,-0.042442,-0.006434,60.746338,20.303146,-146.97171,,,
729606718.083308,2.821315,-1.898767,54.687722,0.044769,0.056244,0.995804,-0.017319,-0.023822,-0.010891,60.746338,20.303146,-146.97171,,,
729606718.086687,2.821315,-1.898767,54.687722,0.044769,0.056244,0.995804,-0.017319,-0.023822,-0.010891,60.746338,20.303146,-146.97171,,,
729606718.089948,2.812872,-1.90187,54.683056,0.044769,0.056244,0.995804,-0.017319,-0.023822,-0.010891,60.746338,20.303146,-146.97171,,,
729606718.093283,2.807988,-1.906002,54.677318,0.04541,0.056412,0.998383,-0.021522,-0.015034,-0.022133,60.746338,20.303146,-146.97171,,,
729606718.096695,2.807988,-1.906002,54.677318,0.04541,0.056412,0.998383,-0.021522,-0.015034,-0.022133,60.746338,20.303146,-146.97171,,,
729606718.100008,2.803253,-1.909346,54.67039,0.04541,0.056412,0.998383,-0.021522,-0.015034,-0.022133,60.746338,20.303146,-146.97171,,,
729606718.103265,2.803365,-1.912783,54.662985,0.039642,0.050552,1.002609,-0.001654,-0.009546,-0.028502,60.604568,20.403152,-146.842789,,,
729606718.10662,2.803365,-1.912783,54.662985,0.039642,0.050552,1.002609,-0.001654,-0.009546,-0.028502,60.604568,20.403152,-146.842789,,,
729606718.110041,2.804304,-1.920957,54.65592,0.039642,0.050552,1.002609,-0.001654,-0.009546,-0.028502,60.604568,20.403152,-146.842789,,,
729606718.113268,2.807921,-1.924117,54.648935,0.030701,0.046799,1.00853,0.014058,-0.009125,-0.027093,60.604568,20.403152,-146.842789,,,
729606718.116681,2.807921,-1.924117,54.648935,0.030701,0.046799,1.00853,0.014058,-0.009125,-0.027093,60.604568,20.403152,-146.842789,,,
729606718.119943,2.812694,-1.935554,54.642918,0.030701,0.046799,1.00853,0.014058,-0.009125,-0.027093,60.604568,20.403152,-146.842789,,,
729606718.123276,2.817957,-1.939506,54.637234,0.025574,0.047195,0.999771,0.018611,-0.01208,-0.024274,60.604568,20.403152,-146.842789,,,
729606718.126631,2.817957,-1.939506,54.637234,0.025574,0.047195,0.999771,0.018611,-0.01208,-0.024274,60.604568,20.403152,-146.842789,,,
729606718.130031,2.824801,-1.952667,54.632423,0.025574,0.047195,0.999771,0.018611,-0.01208,-0.024274,60.604568,20.403152,-146.842789,,,
729606718.133342,2.831347,-1.956938,54.627419,0.022858,0.052429,1.001312,0.023193,-0.012548,-0.019154,60.604568,20.403152,-146.842789,,,
729606718.136655,2.831347,-1.956938,54.627419,0.022858,0.052429,1.001312,0.023193,-0.012548,-0.019154,60.604568,20.403152,-146.842789,,,
729606718.139952,2.838316,-1.969354,54.62328,0.022858,0.052429,1.001312,0.023193,-0.012548,-0.019154,60.604568,20.403152,-146.842789,,,
729606718.143281,2.84331,-1.972936,54.619302,0.021164,0.055206,0.996674,0.017104,-0.008481,-0.014018,60.538269,20.23703,-146.902878,,,
729606718.146706,2.84331,-1.972936,54.619302,0.021164,0.055206,0.996674,0.017104,-0.008481,-0.014018,60.538269,20.23703,-146.902878,,,
729606718.150011,2.848802,-1.980674,54.616117,0.021164,0.055206,0.996674,0.017104,-0.008481,-0.014018,60.538269,20.23703,-146.902878,,,
729606718.153293,2.853983,-1.982775,54.613011,0.020981,0.055771,0.99646,0.016697,-0.002799,-0.012308,60.538269,20.23703,-146.902878,,,
729606718.156626,2.853983,-1.982775,54.613011,0.020981,0.055771,0.99646,0.016697,-0.002799,-0.012308,60.538269,20.23703,-146.902878,,,
729606718.159957,2.860763,-1.988186,54.610553,0.020981,0.055771,0.99646,0.016697,-0.002799,-0.012308,60.538269,20.23703,-146.902878,,,
729606718.163283,2.866792,-1.989096,54.608854,0.022385,0.057129,0.999481,0.019505,0.000249,-0.007272,60.538269,20.23703,-146.902878,,,
729606718.166667,2.866792,-1.989096,54.608854,0.022385,0.057129,0.999481,0.019505,0.000249,-0.007272,60.538269,20.23703,-146.902878,,,
729606718.170022,2.875188,-1.994668,54.608485,0.022385,0.057129,0.999481,0.019505,0.000249,-0.007272,60.538269,20.23703,-146.902878,,,
729606718.173291,2.882905,-1.996321,54.608989,0.023407,0.056076,0.993378,0.026734,-0.005872,-0.001515,60.538269,20.23703,-146.902878,,,
729606718.176709,2.882905,-1.996321,54.608989,0.023407,0.056076,0.993378,0.026734,-0.005872,-0.001515,60.538269,20.23703,-146.902878,,,
729606718.179886,2.891642,-2.003335,54.61053,0.023407,0.056076,0.993378,0.026734,-0.005872,-0.001515,60.538269,20.23703,-146.902878,,,
729606718.183361,2.899279,-2.007279,54.612442,0.026474,0.055359,0.985031,0.026135,-0.010116,0.004399,60.443558,20.063263,-146.911438,,,
729606718.186629,2.899279,-2.007279,54.612442,0.026474,0.055359,0.985031,0.026135,-0.010116,0.004399,60.443558,20.063263,-146.911438,,,
729606718.190038,2.905091,-2.011754,54.614847,0.026474,0.055359,0.985031,0.026135,-0.010116,0.004399,60.443558,20.063263,-146.911438,,,
729606718.193279,2.909504,-2.015545,54.617115,0.032318,0.057281,0.980682,0.014884,-0.008123,0.00677,60.443558,20.063263,-146.911438,,,
729606718.196695,2.909504,-2.015545,54.617115,0.032318,0.057281,0.980682,0.014884,-0.008123,0.00677,60.443558,20.063263,-146.911438,,,
729606718.199998,2.910318,-2.016037,54.618706,0.032318,0.057281,0.980682,0.014884,-0.008123,0.00677,60.443558,20.063263,-146.911438,,,
729606718.203267,2.909846,-2.019539,54.619695,0.036163,0.062607,0.977371,-0.000105,-0.008291,0.00189,60.443558,20.063263,-146.911438,,,
729606718.206603,2.909846,-2.019539,54.619695,0.036163,0.062607,0.977371,-0.000105,-0.008291,0.00189,60.443558,20.063263,-146.911438,,,
729606718.209964,2.906607,-2.017769,54.619537,0.036163,0.062607,0.977371,-0.000105,-0.008291,0.00189,60.443558,20.063263,-146.911438,,,
729606718.213379,2.90199,-2.01918,54.619147,0.037781,0.061279,0.980881,-0.013781,-0.004662,-0.002623,60.443558,20.063263,-146.911438,,,
729606718.216675,2.90199,-2.01918,54.619147,0.037781,0.061279,0.980881,-0.013781,-0.004662,-0.002623,60.443558,20.063263,-146.911438,,,
729606718.219947,2.896838,-2.013381,54.618073,0.037781,0.061279,0.980881,-0.013781,-0.004662,-0.002623,60.443558,20.063263,-146.911438,,,
729606718.223279,2.890126,-2.011851,54.617853,0.035828,0.05191,0.988022,-0.024156,0.009145,-0.002254,60.443558,20.063263,-146.911438,,,
729606718.226692,2.890126,-2.011851,54.617853,0.035828,0.05191,0.988022,-0.024156,0.009145,-0.002254,60.373932,20.130386,-146.944519,,,
729606718.229999,2.884462,-2.004109,54.618654,0.035828,0.05191,0.988022,-0.024156,0.009145,-0.002254,60.373932,20.130386,-146.944519,,,
729606718.233336,2.878008,-2.002742,54.620846,0.031555,0.047501,0.99057,-0.022071,0.007683,0.007343,60.373932,20.130386,-146.944519,,,
729606718.236627,2.878008,-2.002742,54.620846,0.031555,0.047501,0.99057,-0.022071,0.007683,0.007343,60.373932,20.130386,-146.944519,,,
729606718.239934,2.873734,-1.996464,54.624118,0.031555,0.047501,0.99057,-0.022071,0.007683,0.007343,60.373932,20.130386,-146.944519,,,
729606718.243271,2.869591,-1.995943,54.628652,0.029419,0.04512,0.993073,-0.014252,0.003932,0.013486,60.373932,20.130386,-146.944519,,,
729606718.246718,2.869591,-1.995943,54.628652,0.029419,0.04512,0.993073,-0.014252,0.003932,0.013486,60.373932,20.130386,-146.944519,,,
729606718.250031,2.867703,-1.989767,54.633237,0.029419,0.04512,0.993073,-0.014252,0.003932,0.013486,60.373932,20.130386,-146.944519,,,
729606718.253284,2.865366,-1.988274,54.638192,0.031982,0.046371,0.995316,-0.009047,0.009025,0.018518,60.373932,20.130386,-146.944519,,,
729606718.256628,2.865366,-1.988274,54.638192,0.031982,0.046371,0.995316,-0.009047,0.009025,0.018518,60.373932,20.130386,-146.944519,,,
729606718.25994,2.864857,-1.982939,54.642639,0.031982,0.046371,0.995316,-0.009047,0.009025,0.018518,60.373932,20.130386,-146.944519,,,
729606718.263283,2.863086,-1.981664,54.64647,0.037842,0.050095,0.990845,-0.005357,0.008214,0.012082,60.373932,20.130386,-146.944519,,,
729606718.266673,2.863086,-1.981664,54.64647,0.037842,0.050095,0.990845,-0.005357,0.008214,0.012082,60.473587,20.228943,-146.974915,,,
729606718.269946,2.862904,-1.97851,54.649737,0.037842,0.050095,0.990845,-0.005357,0.008214,0.012082,60.473587,20.228943,-146.974915,,,
729606718.273277,2.860626,-1.978509,54.653111,0.038849,0.05072,0.991531,-0.006455,0.003866,0.011077,60.473587,20.228943,-146.974915,,,
729606718.276689,2.860626,-1.978509,54.653111,0.038849,0.05072,0.991531,-0.006455,0.003866,0.011077,60.473587,20.228943,-146.974915,,,
729606718.280008,2.859309,-1.978748,54.656414,0.038849,0.05072,0.991531,-0.006455,0.003866,0.011077,60.473587,20.228943,-146.974915,,,
729606718.283329,2.854473,-1.97822,54.659175,0.035049,0.052414,0.985626,-0.016157,0.00493,0.010221,60.473587,20.228943,-146.974915,,,
729606718.286601,2.854473,-1.97822,54.659175,0.035049,0.052414,0.985626,-0.016157,0.00493,0.010221,60.473587,20.228943,-146.974915,,,
729606718.290035,2.851638,-1.978619,54.660893,0.035049,0.052414,0.985626,-0.016157,0.00493,0.010221,60.473587,20.228943,-146.974915,,,
729606718.293263,2.845576,-1.977072,54.661879,0.034332,0.055206,0.989929,-0.022971,0.008946,0.003941,60.473587,20.228943,-146.974915,,,
729606718.296682,2.845576,-1.977072,54.661879,0.034332,0.055206,0.989929,-0.022971,0.008946,0.003941,60.473587,20.228943,-146.974915,,,
729606718.300015,2.841766,-1.977075,54.662885,0.034332,0.055206,0.989929,-0.022971,0.008946,0.003941,60.473587,20.228943,-146.974915,,,
729606718.303263,2.836043,-1.977082,54.664285,0.033203,0.053848,0.994461,-0.019424,0.005359,0.005098,60.473587,20.228943,-146.974915,,,
729606718.306603,2.836043,-1.977082,54.664285,0.033203,0.053848,0.994461,-0.019424,0.005359,0.005098,60.445312,20.408417,-146.893494,,,
729606718.309933,2.830439,-1.978168,54.666316,0.033203,0.053848,0.994461,-0.019424,0.005359,0.005098,60.445312,20.408417,-146.893494,,,
729606718.313315,2.825085,-1.979176,54.669087,0.029953,0.051422,0.992264,-0.017768,-0.000908,0.010114,60.445312,20.408417,-146.893494,,,
729606718.316664,2.825085,-1.979176,54.669087,0.029953,0.051422,0.992264,-0.017768,-0.000908,0.010114,60.445312,20.408417,-146.893494,,,
729606718.319944,2.819442,-1.977524,54.67207,0.029953,0.051422,0.992264,-0.017768,-0.000908,0.010114,60.445312,20.408417,-146.893494,,,
729606718.323297,2.814707,-1.975722,54.674448,0.031693,0.053619,0.996231,-0.017639,0.009075,0.00532,60.445312,20.408417,-146.893494,,,
729606718.326671,2.814707,-1.975722,54.674448,0.031693,0.053619,0.996231,-0.017639,0.009075,0.00532,60.445312,20.408417,-146.893494,,,
729606718.33004,2.809793,-1.97172,54.676,0.031693,0.053619,0.996231,-0.017639,0.009075,0.00532,60.445312,20.408417,-146.893494,,,
729606718.333298,2.807074,-1.96895,54.67704,0.034607,0.060806,0.995667,-0.0072,0.013028,0.001588,60.445312,20.408417,-146.893494,,,
729606718.336651,2.807074,-1.96895,54.67704,0.034607,0.060806,0.995667,-0.0072,0.013028,0.001588,60.445312,20.408417,-146.893494,,,
729606718.339937,2.805226,-1.964548,54.678213,0.034607,0.060806,0.995667,-0.0072,0.013028,0.001588,60.445312,20.408417,-146.893494,,,
729606718.343356,2.8047,-1.958295,54.680399,0.033127,0.058929,0.998169,0.001382,0.021966,0.005704,60.445312,20.408417,-146.893494,,,
729606718.346695,2.8047,-1.958295,54.680399,0.033127,0.058929,0.998169,0.001382,0.021966,0.005704,60.418808,20.383362,-146.621216,,,
729606718.350025,2.806755,-1.95215,54.683481,0.033127,0.058929,0.998169,0.001382,0.021966,0.005704,60.418808,20.383362,-146.621216,,,
729606718.353323,2.809914,-1.943104,54.686912,0.03418,0.056396,1.003159,0.011066,0.036377,0.009983,60.418808,20.383362,-146.621216,,,
729606718.356631,2.809914,-1.943104,54.686912,0.03418,0.056396,1.003159,0.011066,0.036377,0.009983,60.418808,20.383362,-146.621216,,,
729606718.35995,2.814587,-1.936253,54.690961,0.03418,0.056396,1.003159,0.011066,0.036377,0.009983,60.418808,20.383362,-146.621216,,,
729606718.36334,2.820058,-1.928756,54.694909,0.034698,0.058029,1.002777,0.021441,0.028657,0.012343,60.418808,20.383362,-146.621216,,,
729606718.366619,2.820058,-1.928756,54.694909,0.034698,0.058029,1.002777,0.021441,0.028657,0.012343,60.418808,20.383362,-146.621216,,,
729606718.370007,2.827782,-1.923106,54.698384,0.034698,0.058029,1.002777,0.021441,0.028657,0.012343,60.418808,20.383362,-146.621216,,,
729606718.373318,2.835265,-1.917635,54.701232,0.031616,0.059662,1.000244,0.026343,0.020616,0.008501,60.418808,20.383362,-146.621216,,,
729606718.376685,2.835265,-1.917635,54.701232,0.031616,0.059662,1.000244,0.026343,0.020616,0.008501,60.418808,20.383362,-146.621216,,,
729606718.380042,2.845152,-1.91341,54.70388,0.031616,0.059662,1.000244,0.026343,0.020616,0.008501,60.418808,20.383362,-146.621216,,,
729606718.383301,2.854033,-1.909447,54.70686,0.030334,0.054367,1.00441,0.032539,0.01472,0.006919,60.418808,20.383362,-146.621216,,,
729606718.386641,2.854033,-1.909447,54.70686,0.030334,0.054367,1.00441,0.032539,0.01472,0.006919,60.418808,20.383362,-146.621216,,,
729606718.389948,2.863206,-1.90509,54.71062,0.030334,0.054367,1.00441,0.032539,0.01472,0.006919,60.562485,20.180161,-146.716797,,,
729606718.393321,2.871004,-1.902024,54.715594,0.03096,0.053055,1.001022,0.03061,0.014018,0.013787,60.562485,20.180161,-146.716797,,,
729606718.39667,2.871004,-1.902024,54.715594,0.03096,0.053055,1.001022,0.03061,0.014018,0.013787,60.562485,20.180161,-146.716797,,,
729606718.399969,2.877939,-1.897561,54.721657,0.03096,0.053055,1.001022,0.03061,0.014018,0.013787,60.562485,20.180161,-146.716797,,,
729606718.403358,2.883504,-1.893997,54.7293,0.034866,0.054871,0.997101,0.023992,0.015001,0.027003,60.562485,20.180161,-146.716797,,,
729606718.406599,2.883504,-1.893997,54.7293,0.034866,0.054871,0.997101,0.023992,0.015001,0.027003,60.562485,20.180161,-146.716797,,,
729606718.409958,2.889914,-1.890213,54.738801,0.034866,0.054871,0.997101,0.023992,0.015001,0.027003,60.562485,20.180161,-146.716797,,,
729606718.413302,2.893924,-1.886825,54.749062,0.039795,0.057114,0.995422,0.016644,0.016327,0.03589,60.562485,20.180161,-146.716797,,,
729606718.416645,2.893924,-1.886825,54.749062,0.039795,0.057114,0.995422,0.016644,0.016327,0.03589,60.562485,20.180161,-146.716797,,,
729606718.419971,2.899953,-1.884163,54.760076,0.039795,0.057114,0.995422,0.016644,0.016327,0.03589,60.562485,20.180161,-146.716797,,,
729606718.423333,2.903998,-1.880094,54.77181,0.040512,0.057251,0.996811,0.018203,0.020216,0.039393,60.562485,20.180161,-146.716797,,,
729606718.426675,2.903998,-1.880094,54.77181,0.040512,0.057251,0.996811,0.018203,0.020216,0.039393,60.562485,20.180161,-146.716797,,,
729606718.430009,2.909128,-1.877272,54.783085,0.040512,0.057251,0.996811,0.018203,0.020216,0.039393,60.385025,20.201447,-146.661514,,,
729606718.433343,2.912697,-1.875994,54.793022,0.043808,0.056793,0.999817,0.015703,0.010877,0.032799,60.385025,20.201447,-146.661514,,,
729606718.43662,2.912697,-1.875994,54.793022,0.043808,0.056793,0.999817,0.015703,0.010877,0.032799,60.385025,20.201447,-146.661514,,,
729606718.440028,2.916995,-1.876594,54.801347,0.043808,0.056793,0.999817,0.015703,0.010877,0.032799,60.385025,20.201447,-146.661514,,,
729606718.443329,2.920035,-1.877867,54.808472,0.043808,0.056793,0.999817,0.010876,-0.003626,0.023244,60.385025,20.201447,-146.661514,,,
729606718.446635,2.920035,-1.877867,54.808472,0.045135,0.057205,0.996979,0.010876,-0.003626,0.023244,60.385025,20.201447,-146.661514,,,
729606718.45001,2.924659,-1.880448,54.814295,0.045135,0.057205,0.996979,0.010876,-0.003626,0.023244,60.385025,20.201447,-146.661514,,,
729606718.453296,2.927226,-1.883659,54.81896,0.042831,0.056442,1.005661,0.010208,-0.008124,0.016279,60.385025,20.201447,-146.661514,,,
729606718.456599,2.927226,-1.883659,54.81896,0.042831,0.056442,1.005661,0.010208,-0.008124,0.016279,60.385025,20.201447,-146.661514,,,
729606718.459952,2.930268,-1.886788,54.822993,0.042831,0.056442,1.005661,0.010208,-0.008124,0.016279,60.385025,20.201447,-146.661514,,,
729606718.463399,2.930299,-1.891619,54.825831,0.04071,0.05246,1.005508,3.1e-05,-0.013331,0.007284,60.385025,20.201447,-146.661514,,,
729606718.466712,2.930299,-1.891619,54.825831,0.04071,0.05246,1.005508,3.1e-05,-0.013331,0.007284,60.385025,20.201447,-146.661514,,,
729606718.469933,2.928919,-1.894664,54.827299,0.04071,0.05246,1.005508,3.1e-05,-0.013331,0.007284,60.297531,20.215897,-146.941132,,,
729606718.473368,2.925362,-1.898544,54.828431,0.04071,0.05246,1.005508,-0.009982,-0.00897,0.003023,60.297531,20.215897,-146.941132,,,
729606718.476607,2.925362,-1.898544,54.828431,0.036591,0.047836,1.00444,-0.009982,-0.00897,0.003023,60.297531,20.215897,-146.941132,,,
729606718.480043,2.92051,-1.901254,54.829846,0.036591,0.047836,1.00444,-0.009982,-0.00897,0.003023,60.297531,20.215897,-146.941132,,,
729606718.48336,2.914211,-1.904102,54.833091,0.036591,0.047836,1.00444,-0.019908,-0.006453,0.010557,60.297531,20.215897,-146.941132,,,
729606718.486624,2.914211,-1.904102,54.833091,0.028839,0.040466,1.007019,-0.019908,-0.006453,0.010557,60.297531,20.215897,-146.941132,,,
729606718.489946,2.910222,-1.908548,54.838582,0.028839,0.040466,1.007019,-0.019908,-0.006453,0.010557,60.297531,20.215897,-146.941132,,,
729606718.493304,2.910222,-1.908548,54.838582,0.028839,0.040466,1.007019,-0.007452,-0.002603,0.025649,60.297531,20.215897,-146.941132,,,
729606718.496601,2.908428,-1.910527,54.845906,0.021622,0.029175,1.014816,-0.007452,-0.002603,0.025649,60.297531,20.215897,-146.941132,,,
729606718.5,2.911484,-1.914053,54.855903,0.021622,0.029175,1.014816,-0.007452,-0.002603,0.025649,60.297531,20.215897,-146.941132,,,
729606718.503348,2.911484,-1.914053,54.855903,0.021622,0.029175,1.014816,-0.007452,0.006676,0.040277,60.297531,20.215897,-146.941132,,,
729606718.506674,2.915795,-1.91377,54.867833,0.019379,0.02298,1.023621,0.015856,0.006676,0.040277,60.297531,20.215897,-146.941132,,,
729606718.509932,2.924275,-1.91577,54.88084,0.019379,0.02298,1.023621,0.015856,0.006676,0.040277,60.43129,20.474564,-146.728195,,,
729606718.513383,2.924275,-1.91577,54.893722,0.019379,0.02298,1.023621,0.015856,0.006676,0.040277,60.43129,20.474564,-146.728195,,,
729606718.516664,2.933987,-1.913741,54.893722,0.027222,0.029327,1.01712,0.038154,0.013934,0.043997,60.43129,20.474564,-146.728195,,,
729606718.520023,2.946703,-1.915856,54.905923,0.027222,0.029327,1.01712,0.038154,0.013934,0.043997,60.43129,20.474564,-146.728195,,,
729606718.523535,2.958177,-1.91215,54.916609,0.035751,0.039963,1.007477,0.04095,0.016821,0.03519,60.43129,20.474564,-146.728195,,,
729606718.526605,2.958177,-1.91215,54.916609,0.035751,0.039963,1.007477,0.04095,0.016821,0.03519,60.43129,20.474564,-146.728195,,,
729606718.529951,2.970145,-1.911576,54.926102,0.035751,0.039963,1.007477,0.04095,0.016821,0.03519,60.43129,20.474564,-146.728195,,,
729606718.533349,2.970145,-1.911576,54.926102,0.035751,0.039963,1.007477,0.04095,0.016821,0.03519,60.43129,20.474564,-146.728195,,,
729606718.536599,2.979637,-1.905486,54.933977,0.034088,0.045303,0.99234,0.033094,0.025227,0.024514,60.43129,20.474564,-146.728195,,,
729606718.540021,2.987337,-1.9036,54.940704,0.034088,0.045303,0.99234,0.033094,0.025227,0.024514,60.43129,20.474564,-146.728195,,,
729606718.543387,2.987337,-1.9036,54.940704,0.034088,0.045303,0.99234,0.033094,0.025227,0.024514,60.43129,20.474564,-146.728195,,,
729606718.546607,2.991808,-1.899845,54.946189,0.030426,0.050476,0.97551,0.015716,0.019965,0.021614,60.43129,20.474564,-146.728195,,,
729606718.550049,2.993376,-1.900233,54.951909,0.030426,0.050476,0.97551,0.015716,0.019965,0.021614,60.43129,20.474564,-146.728195,,,
729606718.553292,2.993376,-1.900233,54.951909,0.030426,0.050476,0.97551,0.015716,0.019965,0.021614,60.529831,20.173752,-146.767136,,,
729606718.556619,2.992894,-1.899295,54.958013,0.02771,0.050537,0.967163,-0.00029,0.008619,0.018411,60.529831,20.173752,-146.767136,,,
729606718.560025,2.988412,-1.899892,54.964891,0.02771,0.050537,0.967163,-0.00029,0.008619,0.018411,60.529831,20.173752,-146.767136,,,
729606718.563267,2.988412,-1.899892,54.964891,0.02771,0.050537,0.967163,-0.00029,0.008619,0.018411,60.529831,20.173752,-146.767136,,,
729606718.56667,2.98301,-1.901107,54.972942,0.030197,0.049286,0.965469,-0.017258,0.000547,0.026148,60.529831,20.173752,-146.767136,,,
729606718.569955,2.972516,-1.89921,54.981483,0.030197,0.049286,0.965469,-0.017258,0.000547,0.026148,60.529831,20.173752,-146.767136,,,
729606718.573327,2.972516,-1.89921,54.981483,0.030197,0.049286,0.965469,-0.017258,0.000547,0.026148,60.529831,20.173752,-146.767136,,,
729606718.576628,2.964707,-1.899617,54.990156,0.0354,0.049164,0.968521,-0.024347,-0.000843,0.031351,60.529831,20.173752,-146.767136,,,
729606718.579933,2.951468,-1.893391,54.998459,0.0354,0.049164,0.968521,-0.024347,-0.000843,0.031351,60.529831,20.173752,-146.767136,,,
729606718.583327,2.951468,-1.893391,54.998459,0.0354,0.049164,0.968521,-0.024347,-0.000843,0.031351,60.529831,20.173752,-146.767136,,,
729606718.586664,2.943308,-1.89008,55.006902,0.040253,0.049622,0.975876,-0.025955,0.017406,0.029503,60.529831,20.173752,-146.767136,,,
729606718.589652,2.929845,-1.879095,55.015171,0.040253,0.049622,0.975876,-0.025955,0.017406,0.029503,60.529831,20.173752,-146.767136,,,
729606718.593347,2.929845,-1.879095,55.015171,0.040253,0.049622,0.975876,-0.025955,0.017406,0.029503,60.425903,20.381592,-146.956787,,,
729606718.596599,2.922464,-1.871796,55.023476,0.042236,0.052414,0.980164,-0.021556,0.028876,0.029872,60.425903,20.381592,-146.956787,,,
729606718.599982,2.910473,-1.863809,55.03179,0.042236,0.052414,0.980164,-0.021556,0.028876,0.029872,60.425903,20.381592,-146.956787,,,
729606718.603332,2.910473,-1.863809,55.03179,0.042236,0.052414,0.980164,-0.021556,0.028876,0.029872,60.425903,20.381592,-146.956787,,,
729606718.606616,2.900885,-1.856597,55.040557,0.038956,0.052429,0.974487,-0.030457,0.029532,0.0309,60.425903,20.381592,-146.956787,,,
729606718.609946,2.887354,-1.851284,55.049806,0.038956,0.052429,0.974487,-0.030457,0.029532,0.0309,60.425903,20.381592,-146.956787,,,
729606718.613296,2.887354,-1.851284,55.049806,0.038956,0.052429,0.974487,-0.030457,0.029532,0.0309,60.425903,20.381592,-146.956787,,,
729606718.616604,2.872968,-1.845941,55.058928,0.035843,0.050247,0.969254,-0.049985,0.022366,0.031719,60.425903,20.381592,-146.956787,,,
729606718.619951,2.855774,-1.84282,55.067395,0.035843,0.050247,0.969254,-0.049985,0.022366,0.031719,60.425903,20.381592,-146.956787,,,
729606718.623289,2.855774,-1.84282,55.067395,0.035843,0.050247,0.969254,-0.049985,0.022366,0.031719,60.425903,20.381592,-146.956787,,,
729606718.626608,2.83788,-1.841835,55.075404,0.034164,0.0522,0.967911,-0.060777,0.007224,0.029141,60.425903,20.381592,-146.956787,,,
729606718.629935,2.820035,-1.842858,55.082718,0.034164,0.0522,0.967911,-0.060777,0.007224,0.029141,60.425903,20.381592,-146.956787,,,
729606718.633312,2.820035,-1.842858,55.082718,0.034164,0.0522,0.967911,-0.060777,0.007224,0.029141,60.350571,20.550476,-146.881195,,,
729606718.636655,2.800978,-1.846908,55.088853,0.039551,0.055206,0.9776,-0.066136,-0.011429,0.020944,60.350571,20.550476,-146.881195,,,
729606718.639939,2.782043,-1.85057,55.093331,0.039551,0.055206,0.9776,-0.066136,-0.011429,0.020944,60.350571,20.550476,-146.881195,,,
729606718.643279,2.782043,-1.85057,55.093331,0.039551,0.055206,0.9776,-0.066136,-0.011429,0.020944,60.350571,20.550476,-146.881195,,,
729606718.646657,2.763348,-1.855242,55.095854,0.046555,0.056549,0.989868,-0.063454,-0.013208,0.006508,60.350571,20.550476,-146.881195,,,
729606718.650081,2.744959,-1.859918,55.096962,0.046555,0.056549,0.989868,-0.063454,-0.013208,0.006508,60.350571,20.550476,-146.881195,,,
729606718.653286,2.744959,-1.859918,55.096962,0.046555,0.056549,0.989868,-0.063454,-0.013208,0.006508,60.350571,20.550476,-146.881195,,,
729606718.65663,2.726283,-1.863486,55.096996,0.046677,0.053619,0.999222,-0.063764,-0.009227,-0.000415,60.350571,20.550476,-146.881195,,,
729606718.659957,2.709151,-1.86682,55.095972,0.046677,0.053619,0.999222,-0.063764,-0.009227,-0.000415,60.350571,20.550476,-146.881195,,,
729606718.663361,2.709151,-1.86682,55.095972,0.046677,0.053619,0.999222,-0.063764,-0.009227,-0.000415,60.350571,20.550476,-146.881195,,,
729606718.666649,2.692341,-1.866062,55.093932,0.04364,0.048645,1.006363,-0.058138,0.005774,-0.006257,60.350571,20.550476,-146.881195,,,
729606718.669947,2.677028,-1.865207,55.091466,0.04364,0.048645,1.006363,-0.058138,0.005774,-0.006257,60.350571,20.550476,-146.881195,,,
729606718.673305,2.677028,-1.865207,55.091466,0.04364,0.048645,1.006363,-0.058138,0.005774,-0.006257,60.350571,20.550476,-146.881195,,,
729606718.6766,2.662278,-1.858902,55.089277,0.040054,0.042816,1.014572,-0.051678,0.024158,-0.008069,60.619904,20.471985,-146.829224,,,
729606718.679957,2.650432,-1.853511,55.087752,0.040054,0.042816,1.014572,-0.051678,0.024158,-0.008069,60.619904,20.471985,-146.829224,,,
729606718.683318,2.650432,-1.853511,55.087752,0.040054,0.042816,1.014572,-0.051678,0.024158,-0.008069,60.619904,20.471985,-146.829224,,,
729606718.68666,2.639397,-1.844876,55.087278,0.031937,0.039658,1.015839,-0.036175,0.030459,-0.001458,60.619904,20.471985,-146.829224,,,
729606718.690002,2.630183,-1.838324,55.088288,0.031937,0.039658,1.015839,-0.036175,0.030459,-0.001458,60.619904,20.471985,-146.829224,,,
729606718.693271,2.630183,-1.838324,55.088288,0.031937,0.039658,1.015839,-0.036175,0.030459,-0.001458,60.619904,20.471985,-146.829224,,,
729606718.696682,2.621386,-1.830748,55.089546,0.022415,0.03537,1.01329,-0.027543,0.03073,0.006519,60.619904,20.471985,-146.829224,,,
729606718.699992,2.614958,-1.826769,55.091842,0.022415,0.03537,1.01329,-0.027543,0.03073,0.006519,60.619904,20.471985,-146.829224,,,
729606718.703324,2.614958,-1.826769,55.091842,0.022415,0.03537,1.01329,-0.027543,0.03073,0.006519,60.619904,20.471985,-146.829224,,,
729606718.706596,2.608069,-1.825604,55.095083,0.017685,0.033798,1.011032,-0.021125,0.009756,0.009809,60.619904,20.471985,-146.829224,,,
729606718.70995,2.604227,-1.831079,55.098202,0.017685,0.033798,1.011032,-0.021125,0.009756,0.009809,60.619904,20.471985,-146.829224,,,
729606718.713274,2.604227,-1.831079,55.098202,0.017685,0.033798,1.011032,-0.021125,0.009756,0.009809,60.619904,20.471985,-146.829224,,,
729606718.716707,2.600552,-1.839039,55.101077,0.019394,0.033691,1.010925,-0.01057,-0.026112,0.010685,60.625381,20.535431,-146.590897,,,
729606718.719938,2.600452,-1.85586,55.103864,0.019394,0.033691,1.010925,-0.01057,-0.026112,0.010685,60.625381,20.535431,-146.590897,,,
729606718.723279,2.600452,-1.85586,55.103864,0.019394,0.033691,1.010925,-0.01057,-0.026112,0.010685,60.625381,20.535431,-146.590897,,,
729606718.72661,2.598773,-1.871499,55.104895,0.027924,0.034561,1.013077,-0.003344,-0.048993,0.002326,60.625381,20.535431,-146.590897,,,
729606718.730019,2.599567,-1.894977,55.103961,0.027924,0.034561,1.013077,-0.003344,-0.048993,0.002326,60.625381,20.535431,-146.590897,,,
729606718.733322,2.599567,-1.894977,55.103961,0.027924,0.034561,1.013077,-0.003344,-0.048993,0.002326,60.625381,20.535431,-146.590897,,,
729606718.736627,2.59804,-1.912996,55.100678,0.042221,0.038498,1.009995,-0.003022,-0.061501,-0.011158,60.625381,20.535431,-146.590897,,,
729606718.739944,2.597769,-1.935668,55.095875,0.042221,0.038498,1.009995,-0.003022,-0.061501,-0.011158,60.625381,20.535431,-146.590897,,,
729606718.743329,2.597769,-1.935668,55.095875,0.042221,0.038498,1.009995,-0.003022,-0.061501,-0.011158,60.625381,20.535431,-146.590897,,,
729606718.746629,2.596326,-1.952239,55.089575,0.053726,0.044556,1.00708,-0.002284,-0.057084,-0.021124,60.625381,20.535431,-146.590897,,,
729606718.749993,2.595027,-1.968514,55.082346,0.053726,0.044556,1.00708,-0.002284,-0.057084,-0.021124,60.625381,20.535431,-146.590897,,,
729606718.753326,2.595027,-1.968514,55.082346,0.053726,0.044556,1.00708,-0.002284,-0.057084,-0.021124,60.625381,20.535431,-146.590897,,,
729606718.756605,2.593803,-1.977259,55.073942,0.059631,0.045303,1.007935,-0.003053,-0.031145,-0.030893,60.725052,20.4189,-146.768814,,,
729606718.759953,2.591885,-1.982277,55.064473,0.059631,0.045303,1.007935,-0.003053,-0.031145,-0.030893,60.725052,20.4189,-146.768814,,,
729606718.763281,2.591885,-1.982277,55.064473,0.059631,0.045303,1.007935,-0.003053,-0.031145,-0.030893,60.725052,20.4189,-146.768814,,,
729606718.766699,2.591634,-1.98131,55.054443,0.061356,0.04509,1.012894,-0.001903,0.007243,-0.037284,60.725052,20.4189,-146.768814,,,
729606718.769925,2.590996,-1.973483,55.043791,0.061356,0.04509,1.012894,-0.001903,0.007243,-0.037284,60.725052,20.4189,-146.768814,,,
729606718.773268,2.590996,-1.973483,55.043791,0.061356,0.04509,1.012894,-0.001903,0.007243,-0.037284,60.725052,20.4189,-146.768814,,,
729606718.776603,2.592926,-1.964736,55.033252,0.054306,0.043243,1.009644,0.004284,0.033509,-0.038895,60.725052,20.4189,-146.768814,,,
729606718.78002,2.592864,-1.947107,55.024006,0.054306,0.043243,1.009644,0.004284,0.033509,-0.038895,60.725052,20.4189,-146.768814,,,
729606718.783374,2.592864,-1.947107,55.024006,0.054306,0.043243,1.009644,0.004284,0.033509,-0.038895,60.725052,20.4189,-146.768814,,,
729606718.786603,2.595372,-1.93476,55.016838,0.038895,0.038422,1.005692,0.008726,0.044353,-0.028291,60.725052,20.4189,-146.768814,,,
729606718.789967,2.595135,-1.917286,55.011512,0.038895,0.038422,1.005692,0.008726,0.044353,-0.028291,60.725052,20.4189,-146.768814,,,
729606718.793338,2.595135,-1.917286,55.011512,0.038895,0.038422,1.005692,0.008726,0.044353,-0.028291,60.725052,20.4189,-146.768814,,,
729606718.796593,2.59667,-1.911348,55.008585,0.025406,0.037399,0.991058,0.009417,0.018962,-0.01211,60.784546,20.207825,-146.897537,,,
729606718.799987,2.594958,-1.906233,55.006004,0.025406,0.037399,0.991058,0.009417,0.018962,-0.01211,60.784546,20.207825,-146.897537,,,
729606718.803269,2.594958,-1.906233,55.006004,0.025406,0.037399,0.991058,0.009417,0.018962,-0.01211,60.784546,20.207825,-146.897537,,,
729606718.806663,2.595138,-1.911171,55.003607,0.019608,0.044769,0.981583,0.000512,-0.013958,-0.009252,60.784546,20.207825,-146.897537,,,
729606718.809944,2.592821,-1.920564,55.000064,0.019608,0.044769,0.981583,0.000512,-0.013958,-0.009252,60.784546,20.207825,-146.897537,,,
729606718.813282,2.592821,-1.920564,55.000064,0.019608,0.044769,0.981583,0.000512,-0.013958,-0.009252,60.784546,20.207825,-146.897537,,,
729606718.816651,2.592693,-1.933178,54.993885,0.027695,0.05127,0.984879,-0.001457,-0.042182,-0.025329,60.784546,20.207825,-146.897537,,,
729606718.819976,2.592238,-1.954025,54.985292,0.027695,0.05127,0.984879,-0.001457,-0.042182,-0.025329,60.784546,20.207825,-146.897537,,,
729606718.823274,2.592238,-1.954025,54.985292,0.027695,0.05127,0.984879,-0.001457,-0.042182,-0.025329,60.784546,20.207825,-146.897537,,,
729606718.826623,2.593739,-1.970332,54.974384,0.036636,0.051926,0.996613,0.003573,-0.055626,-0.03749,60.784546,20.207825,-146.897537,,,
729606718.829953,2.596813,-1.995833,54.962827,0.036636,0.051926,0.996613,0.003573,-0.055626,-0.03749,60.784546,20.207825,-146.897537,,,
729606718.833361,2.596813,-1.995833,54.962827,0.036636,0.051926,0.996613,0.003573,-0.055626,-0.03749,60.784546,20.207825,-146.897537,,,
729606718.836606,2.601623,-2.010974,54.950543,0.039337,0.046051,1.001633,0.01375,-0.050915,-0.044426,60.784546,20.207825,-146.897537,,,
729606718.839948,2.607732,-2.033024,54.939701,0.039337,0.046051,1.001633,0.01375,-0.050915,-0.044426,60.774551,20.091278,-146.69075,,,
729606718.843281,2.607732,-2.033024,54.939701,0.039337,0.046051,1.001633,0.01375,-0.050915,-0.044426,60.774551,20.091278,-146.69075,,,
729606718.846694,2.615384,-2.041803,54.930288,0.036835,0.041931,1.007156,0.027365,-0.028537,-0.035149,60.774551,20.091278,-146.69075,,,
729606718.849988,2.623805,-2.057243,54.923215,0.036835,0.041931,1.007156,0.027365,-0.028537,-0.035149,60.774551,20.091278,-146.69075,,,
729606718.85328,2.623805,-2.057243,54.923215,0.036835,0.041931,1.007156,0.027365,-0.028537,-0.035149,60.774551,20.091278,-146.69075,,,
729606718.856621,2.632979,-2.060821,54.91767,0.034103,0.047089,1.000488,0.031977,-0.010467,-0.022479,60.774551,20.091278,-146.69075,,,
729606718.860005,2.641036,-2.066426,54.91358,0.034103,0.047089,1.000488,0.031977,-0.010467,-0.022479,60.774551,20.091278,-146.69075,,,
729606718.863274,2.641036,-2.066426,54.91358,0.034103,0.047089,1.000488,0.031977,-0.010467,-0.022479,60.774551,20.091278,-146.69075,,,
729606718.866614,2.649831,-2.064359,54.909271,0.037476,0.057495,0.995026,0.03218,0.010763,-0.017778,60.774551,20.091278,-146.69075,,,
729606718.869962,2.656981,-2.05888,54.904407,0.037476,0.057495,0.995026,0.03218,0.010763,-0.017778,60.774551,20.091278,-146.69075,,,
729606718.873306,2.656981,-2.05888,54.904407,0.037476,0.057495,0.995026,0.03218,0.010763,-0.017778,60.774551,20.091278,-146.69075,,,
729606718.87661,2.665438,-2.05324,54.899447,0.034851,0.059097,0.992035,0.030173,0.022976,-0.021677,60.774551,20.091278,-146.69075,,,
729606718.879963,2.671879,-2.042811,54.894091,0.034851,0.059097,0.992035,0.030173,0.022976,-0.021677,60.800003,20.009766,-146.761856,,,
729606718.883272,2.671879,-2.042811,54.894091,0.034851,0.059097,0.992035,0.030173,0.022976,-0.021677,60.800003,20.009766,-146.761856,,,
729606718.88667,2.67865,-2.039755,54.887973,0.033203,0.059402,0.986969,0.024102,0.015039,-0.023166,60.800003,20.009766,-146.761856,,,
729606718.889932,2.684545,-2.033139,54.879886,0.033203,0.059402,0.986969,0.024102,0.015039,-0.023166,60.800003,20.009766,-146.761856,,,
729606718.893268,2.684545,-2.033139,54.879886,0.033203,0.059402,0.986969,0.024102,0.015039,-0.023166,60.800003,20.009766,-146.761856,,,
729606718.896614,2.689627,-2.034132,54.870798,0.032593,0.061218,0.978882,0.016907,-0.003515,-0.030615,60.800003,20.009766,-146.761856,,,
729606718.900021,2.695203,-2.034776,54.861002,0.032593,0.061218,0.978882,0.016907,-0.003515,-0.030615,60.800003,20.009766,-146.761856,,,
729606718.903254,2.695203,-2.034776,54.861002,0.032593,0.061218,0.978882,0.016907,-0.003515,-0.030615,60.800003,20.009766,-146.761856,,,
729606718.90661,2.699099,-2.037527,54.851051,0.030289,0.061325,0.981354,0.013667,-0.008946,-0.035992,60.800003,20.009766,-146.761856,,,
729606718.909945,2.703471,-2.041517,54.84172,0.030289,0.061325,0.981354,0.013667,-0.008946,-0.035992,60.800003,20.009766,-146.761856,,,
729606718.913348,2.703471,-2.041517,54.84172,0.030289,0.061325,0.981354,0.013667,-0.008946,-0.035992,60.800003,20.009766,-146.761856,,,
729606718.916614,2.708043,-2.043596,54.833817,0.023605,0.054001,0.988724,0.016789,-0.00695,-0.032993,60.800003,20.009766,-146.761856,,,
729606718.919941,2.712933,-2.046281,54.8274,0.023605,0.054001,0.988724,0.016789,-0.00695,-0.032993,60.626083,20.166656,-147.364777,,,
729606718.923371,2.712933,-2.046281,54.8274,0.023605,0.054001,0.988724,0.016789,-0.00695,-0.032993,60.626083,20.166656,-147.364777,,,
729606718.926623,2.718991,-2.046921,54.823099,0.016281,0.046524,0.996536,0.023892,-0.000253,-0.015148,60.626083,20.166656,-147.364777,,,
729606718.929941,2.723588,-2.045708,54.821543,0.016281,0.046524,0.996536,0.023892,-0.000253,-0.015148,60.626083,20.166656,-147.364777,,,
729606718.933284,2.723588,-2.045708,54.821543,0.016281,0.046524,0.996536,0.023892,-0.000253,-0.015148,60.626083,20.166656,-147.364777,,,
729606718.936639,2.728077,-2.043549,54.821813,0.018127,0.044983,0.994476,0.012907,0.009256,-0.001128,60.626083,20.166656,-147.364777,,,
729606718.939935,2.732107,-2.040148,54.823497,0.018127,0.044983,0.994476,0.012907,0.009256,-0.001128,60.626083,20.166656,-147.364777,,,
729606718.943286,2.732107,-2.040148,54.823497,0.018127,0.044983,0.994476,0.012907,0.009256,-0.001128,60.626083,20.166656,-147.364777,,,
729606718.946623,2.734907,-2.036783,54.826161,0.025833,0.045486,0.994766,0.009322,0.014481,0.008858,60.626083,20.166656,-147.364777,,,
729606718.950006,2.739393,-2.033785,54.828662,0.025833,0.045486,0.994766,0.009322,0.014481,0.008858,60.626083,20.166656,-147.364777,,,
729606718.953278,2.739393,-2.033785,54.828662,0.025833,0.045486,0.994766,0.009322,0.014481,0.008858,60.626083,20.166656,-147.364777,,,
729606718.956615,2.741025,-2.029164,54.830444,0.030411,0.045959,0.998199,0.006716,0.017578,0.004314,60.626083,20.166656,-147.364777,,,
729606718.959939,2.744476,-2.022997,54.83124,0.030411,0.045959,0.998199,0.006716,0.017578,0.004314,60.569351,20.081146,-146.990158,,,
729606718.96335,2.744476,-2.022997,54.83124,0.030411,0.045959,0.998199,0.006716,0.017578,0.004314,60.569351,20.081146,-146.990158,,,
729606718.966611,2.745339,-2.016253,54.830574,0.033325,0.045761,1.000992,0.00392,0.027824,-0.006276,60.569351,20.081146,-146.990158,,,
729606718.969953,2.748906,-2.00759,54.828895,0.033325,0.045761,1.000992,0.00392,0.027824,-0.006276,60.569351,20.081146,-146.990158,,,
729606718.973274,2.748906,-2.00759,54.828895,0.033325,0.045761,1.000992,0.00392,0.027824,-0.006276,60.569351,20.081146,-146.990158,,,
729606718.976682,2.749208,-1.999514,54.82751,0.032822,0.041443,1.00116,0.002091,0.031272,-0.00718,60.569351,20.081146,-146.990158,,,
729606718.979925,2.752421,-1.990945,54.826657,0.032822,0.041443,1.00116,0.002091,0.031272,-0.00718,60.569351,20.081146,-146.990158,,,
729606718.983287,2.752421,-1.990945,54.826657,0.032822,0.041443,1.00116,0.002091,0.031272,-0.00718,60.569351,20.081146,-146.990158,,,
729606718.986618,2.75208,-1.984328,54.827115,0.030075,0.037994,0.996262,-0.003463,0.027675,0.001164,60.569351,20.081146,-146.990158,,,
729606718.990015,2.754059,-1.976835,54.82987,0.030075,0.037994,0.996262,-0.003463,0.027675,0.001164,60.569351,20.081146,-146.990158,,,
729606718.993277,2.754059,-1.976835,54.82987,0.030075,0.037994,0.996262,-0.003463,0.027675,0.001164,60.569351,20.081146,-146.990158,,,
729606718.996637,2.752514,-1.972778,54.834583,0.025635,0.037018,0.995224,-0.006415,0.017566,0.015957,60.569351,20.081146,-146.990158,,,
729606718.999948,2.750402,-1.964184,54.840296,0.025635,0.037018,0.995224,-0.006415,0.017566,0.015957,60.569351,20.081146,-146.990158,,,
729606719.003289,2.750402,-1.964184,54.840296,0.025635,0.037018,0.995224,-0.006415,0.017566,0.015957,60.753952,20.165878,-147.078339,,,
729606719.006605,2.747716,-1.961983,54.847435,0.025726,0.04007,0.994186,-0.006581,0.012585,0.020786,60.753952,20.165878,-147.078339,,,
729606719.009949,2.744952,-1.95285,54.85427,0.025726,0.04007,0.994186,-0.006581,0.012585,0.020786,60.753952,20.165878,-147.078339,,,
729606719.01327,2.744952,-1.95285,54.85427,0.025726,0.04007,0.994186,-0.006581,0.012585,0.020786,60.753952,20.165878,-147.078339,,,
729606719.016679,2.742538,-1.952529,54.860812,0.030594,0.041061,0.996582,-0.005288,0.006472,0.021401,60.753952,20.165878,-147.078339,,,
729606719.019943,2.739087,-1.947689,54.866389,0.030594,0.041061,0.996582,-0.005288,0.006472,0.021401,60.753952,20.165878,-147.078339,,,
729606719.02328,2.739087,-1.947689,54.866389,0.030594,0.041061,0.996582,-0.005288,0.006472,0.021401,60.753952,20.165878,-147.078339,,,
729606719.026625,2.735503,-1.947564,54.871033,0.038452,0.044373,0.995819,-0.007649,0.003157,0.016011,60.753952,20.165878,-147.078339,,,
729606719.029996,2.730074,-1.944622,54.87421,0.038452,0.044373,0.995819,-0.007649,0.003157,0.016011,60.753952,20.165878,-147.078339,,,
729606719.033267,2.730074,-1.944622,54.87421,0.038452,0.044373,0.995819,-0.007649,0.003157,0.016011,60.753952,20.165878,-147.078339,,,
729606719.036613,2.723148,-1.944569,54.876416,0.044678,0.049988,0.991135,-0.021216,0.006168,0.007129,60.753952,20.165878,-147.078339,,,
729606719.039947,2.714068,-1.944229,54.878191,0.044678,0.049988,0.991135,-0.021216,0.006168,0.007129,60.753952,20.165878,-147.078339,,,
729606719.043352,2.714068,-1.944229,54.878191,0.044678,0.049988,0.991135,-0.021216,0.006168,0.007129,60.641266,20.166245,-147.143188,,,
729606719.046609,2.703204,-1.945543,54.880268,0.039963,0.049759,0.986465,-0.036744,-0.00162,0.005099,60.641266,20.166245,-147.143188,,,
729606719.049955,2.689648,-1.946274,54.882641,0.039963,0.049759,0.986465,-0.036744,-0.00162,0.005099,60.641266,20.166245,-147.143188,,,
729606719.053265,2.689648,-1.946274,54.882641,0.039963,0.049759,0.986465,-0.036744,-0.00162,0.005099,60.641266,20.166245,-147.143188,,,
729606719.056604,2.674725,-1.946077,54.885548,0.036575,0.048264,0.989273,-0.04964,0.002528,0.010715,60.641266,20.166245,-147.143188,,,
729606719.059946,2.657238,-1.944019,54.88866,0.036575,0.048264,0.989273,-0.04964,0.002528,0.010715,60.641266,20.166245,-147.143188,,,
729606719.06323,2.657238,-1.944019,54.88866,0.036575,0.048264,0.989273,-0.04964,0.002528,0.010715,60.641266,20.166245,-147.143188,,,
729606719.066675,2.640685,-1.942771,54.89177,0.040527,0.04689,0.994141,-0.058731,0.009999,0.01023,60.641266,20.166245,-147.143188,,,
729606719.069974,2.622189,-1.939783,54.894442,0.040527,0.04689,0.994141,-0.058731,0.009999,0.01023,60.641266,20.166245,-147.143188,,,
729606719.073281,2.622189,-1.939783,54.894442,0.040527,0.04689,0.994141,-0.058731,0.009999,0.01023,60.641266,20.166245,-147.143188,,,
729606719.076611,2.606111,-1.93964,54.895986,0.043167,0.043945,0.99881,-0.058853,0.002243,0.00631,60.641266,20.166245,-147.143188,,,
729606719.080012,2.589046,-1.937044,54.896438,0.043167,0.043945,0.99881,-0.058853,0.002243,0.00631,60.641266,20.166245,-147.143188,,,
729606719.083256,2.589046,-1.937044,54.896438,0.043167,0.043945,0.99881,-0.058853,0.002243,0.00631,60.746231,20.337936,-146.946442,,,
729606719.086611,2.573223,-1.939075,54.896894,0.039978,0.040634,1.00032,-0.056336,-0.005078,0.000772,60.746231,20.337936,-146.946442,,,
729606719.089945,2.556743,-1.939993,54.896816,0.039978,0.040634,1.00032,-0.056336,-0.005078,0.000772,60.746231,20.337936,-146.946442,,,
729606719.093291,2.556743,-1.939993,54.896816,0.039978,0.040634,1.00032,-0.056336,-0.005078,0.000772,60.746231,20.337936,-146.946442,,,
729606719.096678,2.54188,-1.945509,54.896863,0.034698,0.038879,1.002228,-0.051622,-0.016488,0.005696,60.746231,20.337936,-146.946442,,,
729606719.099995,2.527504,-1.952617,54.897902,0.034698,0.038879,1.002228,-0.051622,-0.016488,0.005696,60.746231,20.337936,-146.946442,,,
729606719.103363,2.527504,-1.952617,54.897902,0.034698,0.038879,1.002228,-0.051622,-0.016488,0.005696,60.746231,20.337936,-146.946442,,,
729606719.106616,2.51458,-1.962486,54.899495,0.032486,0.038132,1.005142,-0.046967,-0.032182,0.006557,60.746231,20.337936,-146.946442,,,
729606719.109972,2.503353,-1.977838,54.901661,0.032486,0.038132,1.005142,-0.046967,-0.032182,0.006557,60.746231,20.337936,-146.946442,,,
729606719.113283,2.503353,-1.977838,54.901661,0.032486,0.038132,1.005142,-0.046967,-0.032182,0.006557,60.746231,20.337936,-146.946442,,,
729606719.116662,2.492495,-1.991755,54.904397,0.033463,0.040558,1.001266,-0.036531,-0.044173,0.00864,60.746231,20.337936,-146.946442,,,
729606719.119977,2.483709,-2.009641,54.907211,0.033463,0.040558,1.001266,-0.036531,-0.044173,0.00864,60.746231,20.337936,-146.946442,,,
729606719.123402,2.483709,-2.009641,54.907211,0.033463,0.040558,1.001266,-0.036531,-0.044173,0.00864,60.796509,20.4711,-146.820404,,,
729606719.126624,2.473469,-2.023667,54.91037,0.037979,0.045563,1.005219,-0.037052,-0.046196,0.011943,60.796509,20.4711,-146.820404,,,
729606719.129991,2.463653,-2.037743,54.914471,0.037979,0.045563,1.005219,-0.037052,-0.046196,0.011943,60.796509,20.4711,-146.820404,,,
729606719.133382,2.463653,-2.037743,54.914471,0.037979,0.045563,1.005219,-0.037052,-0.046196,0.011943,60.796509,20.4711,-146.820404,,,
729606719.136627,2.450529,-2.049009,54.918403,0.044464,0.048447,1.00087,-0.044792,-0.034909,0.015359,60.796509,20.4711,-146.820404,,,
729606719.13994,2.436689,-2.059787,54.922122,0.044464,0.048447,1.00087,-0.044792,-0.034909,0.015359,60.796509,20.4711,-146.820404,,,
729606719.143315,2.436689,-2.059787,54.922122,0.044464,0.048447,1.00087,-0.044792,-0.034909,0.015359,60.796509,20.4711,-146.820404,,,
729606719.146603,2.420201,-2.067967,54.925309,0.055359,0.054504,0.998123,-0.056267,-0.022051,0.010412,60.796509,20.4711,-146.820404,,,
729606719.149933,2.402664,-2.077733,54.927479,0.055359,0.054504,0.998123,-0.056267,-0.022051,0.010412,60.796509,20.4711,-146.820404,,,
729606719.153271,2.402664,-2.077733,54.927479,0.055359,0.054504,0.998123,-0.056267,-0.022051,0.010412,60.796509,20.4711,-146.820404,,,
729606719.156656,2.383696,-2.085136,54.927912,0.05896,0.058777,0.997208,-0.065774,-0.02445,0.003534,60.796509,20.4711,-146.820404,,,
729606719.159923,2.365334,-2.095328,54.926115,0.05896,0.058777,0.997208,-0.065774,-0.02445,0.003534,60.796509,20.4711,-146.820404,,,
729606719.163273,2.365334,-2.095328,54.926115,0.05896,0.058777,0.997208,-0.065774,-0.02445,0.003534,60.796509,20.4711,-146.820404,,,
729606719.166608,2.348182,-2.103572,54.921405,0.054855,0.056229,1.001831,-0.058903,-0.024163,-0.014262,60.650848,20.749542,-147.116241,,,
729606719.169941,2.332732,-2.113313,54.914123,0.054855,0.056229,1.001831,-0.058903,-0.024163,-0.014262,60.650848,20.749542,-147.116241,,,
729606719.173268,2.332732,-2.113313,54.914123,0.054855,0.056229,1.001831,-0.058903,-0.024163,-0.014262,60.650848,20.749542,-147.116241,,,
729606719.176616,2.319571,-2.124081,54.904903,0.050888,0.051376,1.006989,-0.04737,-0.034753,-0.031664,60.650848,20.749542,-147.116241,,,
729606719.179933,2.307859,-2.134785,54.894291,0.050888,0.051376,1.006989,-0.04737,-0.034753,-0.031664,60.650848,20.749542,-147.116241,,,
729606719.183303,2.307859,-2.134785,54.894291,0.050888,0.051376,1.006989,-0.04737,-0.034753,-0.031664,60.650848,20.749542,-147.116241,,,
729606719.186607,2.297703,-2.146977,54.88354,0.045761,0.047226,1.006668,-0.035735,-0.043671,-0.037362,60.650848,20.749542,-147.116241,,,
729606719.189934,2.287231,-2.156533,54.873614,0.045761,0.047226,1.006668,-0.035735,-0.043671,-0.037362,60.650848,20.749542,-147.116241,,,
729606719.193266,2.287231,-2.156533,54.873614,0.045761,0.047226,1.006668,-0.035735,-0.043671,-0.037362,60.650848,20.749542,-147.116241,,,
729606719.196659,2.276849,-2.167109,54.865296,0.033981,0.0448,1.003387,-0.034767,-0.035193,-0.029145,60.650848,20.749542,-147.116241,,,
729606719.199935,2.267048,-2.174815,54.858997,0.033981,0.0448,1.003387,-0.034767,-0.035193,-0.029145,60.650848,20.749542,-147.116241,,,
729606719.203276,2.267048,-2.174815,54.858997,0.033981,0.0448,1.003387,-0.034767,-0.035193,-0.029145,60.650848,20.749542,-147.116241,,,
729606719.206609,2.256708,-2.181843,54.854799,0.025116,0.039856,1.003525,-0.039458,-0.025464,-0.014962,60.354401,20.744812,-147.029236,,,
729606719.209943,2.256708,-2.18794,54.852699,0.025116,0.039856,1.003525,-0.039458,-0.025464,-0.014962,60.354401,20.744812,-147.029236,,,
729606719.213329,2.248593,-2.18794,54.852699,0.025116,0.039856,1.003525,-0.039458,-0.025464,-0.014962,60.354401,20.744812,-147.029236,,,
729606719.216717,2.241102,-2.191319,54.852489,0.022171,0.033524,1.009888,-0.026067,-0.007858,-0.000965,60.354401,20.744812,-147.029236,,,
729606719.219957,2.23893,-2.1958,54.85359,0.022171,0.033524,1.009888,-0.026067,-0.007858,-0.000965,60.354401,20.744812,-147.029236,,,
729606719.223369,2.23893,-2.1958,54.85359,0.022171,0.033524,1.009888,-0.026067,-0.007858,-0.000965,60.354401,20.744812,-147.029236,,,
729606719.226621,2.237585,-2.195542,54.855145,0.020874,0.029984,1.020355,-0.003125,0.005796,0.005474,60.354401,20.744812,-147.029236,,,
729606719.229943,2.237585,-2.195542,54.855145,0.020874,0.029984,1.020355,-0.003125,0.005796,0.005474,60.354401,20.744812,-147.029236,,,
729606719.23332,2.242264,-2.203107,54.857088,0.020874,0.029984,1.020355,-0.003125,0.005796,0.005474,60.354401,20.744812,-147.029236,,,
729606719.236609,2.245601,-2.202183,54.858437,0.023819,0.032272,1.01265,0.011584,0.004194,0.000813,60.354401,20.744812,-147.029236,,,
729606719.239966,2.255251,-2.208506,54.859712,0.023819,0.032272,1.01265,0.011584,0.004194,0.000813,60.354401,20.744812,-147.029236,,,
729606719.243283,2.255251,-2.208506,54.859712,0.023819,0.032272,1.01265,0.011584,0.004194,0.000813,60.354401,20.744812,-147.029236,,,
729606719.246608,2.262647,-2.207284,54.860752,0.02327,0.033188,1.010071,0.027416,0.008459,0.000602,60.666199,20.815872,-147.026093,,,
729606719.249998,2.262647,-2.21355,54.862355,0.02327,0.033188,1.010071,0.027416,0.008459,0.000602,60.666199,20.815872,-147.026093,,,
729606719.253325,2.27374,-2.21355,54.862355,0.02327,0.033188,1.010071,0.027416,0.008459,0.000602,60.666199,20.815872,-147.026093,,,
729606719.256701,2.281715,-2.216862,54.863713,0.023712,0.03685,0.994736,0.026203,-0.008733,0.001799,60.666199,20.815872,-147.026093,,,
729606719.259948,2.281715,-2.216862,54.863713,0.023712,0.03685,0.994736,0.026203,-0.008733,0.001799,60.666199,20.815872,-147.026093,,,
729606719.263353,2.291491,-2.226194,54.864927,0.023712,0.03685,0.994736,0.026203,-0.008733,0.001799,60.666199,20.815872,-147.026093,,,
729606719.266599,2.29866,-2.232777,54.865371,0.0289,0.043365,0.988815,0.027136,-0.0206,-0.000213,60.666199,20.815872,-147.026093,,,
729606719.269945,2.29866,-2.232777,54.865371,0.0289,0.043365,0.988815,0.027136,-0.0206,-0.000213,60.666199,20.815872,-147.026093,,,
729606719.273285,2.305819,-2.240616,54.865395,0.0289,0.043365,0.988815,0.027136,-0.0206,-0.000213,60.666199,20.815872,-147.026093,,,
729606719.276605,2.310728,-2.246976,54.864841,0.031143,0.044785,0.987518,0.017726,-0.01991,-0.002211,60.666199,20.815872,-147.026093,,,
729606719.279948,2.310728,-2.246976,54.864841,0.031143,0.044785,0.987518,0.017726,-0.01991,-0.002211,60.666199,20.815872,-147.026093,,,
729606719.283262,2.316111,-2.248241,54.863413,0.031143,0.044785,0.987518,0.017726,-0.01991,-0.002211,60.666199,20.815872,-147.026093,,,
729606719.286631,2.321296,-2.250229,54.861908,0.03389,0.043472,0.991135,0.016936,-0.001786,-0.007853,60.666199,20.815872,-147.026093,,,
729606719.289995,2.321296,-2.250229,54.861908,0.03389,0.043472,0.991135,0.016936,-0.001786,-0.007853,60.399567,20.84108,-146.981613,,,
729606719.2933,2.326202,-2.244072,54.860817,0.03389,0.043472,0.991135,0.016936,-0.001786,-0.007853,60.399567,20.84108,-146.981613,,,
729606719.296606,2.332493,-2.243245,54.861117,0.039215,0.042892,0.99176,0.022372,0.006384,6.3e-05,60.399567,20.84108,-146.981613,,,
729606719.299944,2.332493,-2.243245,54.861117,0.039215,0.042892,0.99176,0.022372,0.006384,6.3e-05,60.399567,20.84108,-146.981613,,,
729606719.303383,2.337712,-2.233729,54.861831,0.039215,0.042892,0.99176,0.022372,0.006384,6.3e-05,60.399567,20.84108,-146.981613,,,
729606719.30661,2.345478,-2.23039,54.863342,0.038574,0.044205,0.987,0.02569,0.015018,0.003413,60.399567,20.84108,-146.981613,,,
729606719.309934,2.345478,-2.23039,54.863342,0.038574,0.044205,0.987,0.02569,0.015018,0.003413,60.399567,20.84108,-146.981613,,,
729606719.313276,2.350538,-2.220294,54.86547,0.038574,0.044205,0.987,0.02569,0.015018,0.003413,60.399567,20.84108,-146.981613,,,
729606719.316606,2.357539,-2.21811,54.868667,0.032776,0.042908,0.979141,0.025766,0.011653,0.008991,60.399567,20.84108,-146.981613,,,
729606719.319934,2.357539,-2.21811,54.868667,0.032776,0.042908,0.979141,0.025766,0.011653,0.008991,60.399567,20.84108,-146.981613,,,
729606719.323278,2.362358,-2.211727,54.871692,0.032776,0.042908,0.979141,0.025766,0.011653,0.008991,60.399567,20.84108,-146.981613,,,
729606719.326592,2.368426,-2.213383,54.875186,0.031921,0.044464,0.974945,0.021209,-0.002622,0.010847,60.399567,20.84108,-146.981613,,,
729606719.329923,2.368426,-2.213383,54.875186,0.031921,0.044464,0.974945,0.021209,-0.002622,0.010847,60.32016,20.551453,-147.217529,,,
729606719.333271,2.372111,-2.210123,54.878549,0.031921,0.044464,0.974945,0.021209,-0.002622,0.010847,60.32016,20.551453,-147.217529,,,
729606719.336614,2.375902,-2.213641,54.881548,0.031372,0.044525,0.976883,0.01704,-0.00825,0.009393,60.32016,20.551453,-147.217529,,,
729606719.339957,2.375902,-2.213641,54.881548,0.031372,0.044525,0.976883,0.01704,-0.00825,0.009393,60.32016,20.551453,-147.217529,,,
729606719.343359,2.378259,-2.211688,54.884457,0.031372,0.044525,0.976883,0.01704,-0.00825,0.009393,60.32016,20.551453,-147.217529,,,
729606719.346595,2.37988,-2.21411,54.888092,0.031189,0.042007,0.980377,0.007829,-0.004236,0.012129,60.32016,20.551453,-147.217529,,,
729606719.349944,2.37988,-2.21411,54.888092,0.031189,0.042007,0.980377,0.007829,-0.004236,0.012129,60.32016,20.551453,-147.217529,,,
729606719.353282,2.381599,-2.21328,54.892434,0.031189,0.042007,0.980377,0.007829,-0.004236,0.012129,60.32016,20.551453,-147.217529,,,
729606719.356606,2.382295,-2.215466,54.897679,0.035553,0.040344,0.988266,0.004822,-0.005009,0.018527,60.32016,20.551453,-147.217529,,,
729606719.359942,2.382295,-2.215466,54.897679,0.035553,0.040344,0.988266,0.004822,-0.005009,0.018527,60.32016,20.551453,-147.217529,,,
729606719.363316,2.383337,-2.21439,54.903016,0.035553,0.040344,0.988266,0.004822,-0.005009,0.018527,60.32016,20.551453,-147.217529,,,
729606719.366599,2.383299,-2.214454,54.908264,0.045105,0.041153,0.989395,-0.002183,0.006158,0.014843,60.32016,20.551453,-147.217529,,,
729606719.369942,2.383299,-2.214454,54.908264,0.045105,0.041153,0.989395,-0.002183,0.006158,0.014843,60.27774,20.718338,-147.206024,,,
729606719.373276,2.383131,-2.212069,54.912651,0.045105,0.041153,0.989395,-0.002183,0.006158,0.014843,60.27774,20.718338,-147.206024,,,
729606719.376606,2.381648,-2.209451,54.915362,0.056335,0.044434,0.988586,-0.005061,0.013341,0.008894,60.27774,20.718338,-147.206024,,,
729606719.379941,2.381648,-2.209451,54.915362,0.056335,0.044434,0.988586,-0.005061,0.013341,0.008894,60.27774,20.718338,-147.206024,,,
729606719.383274,2.380089,-2.207789,54.915938,0.056335,0.044434,0.988586,-0.005061,0.013341,0.008894,60.27774,20.718338,-147.206024,,,
729606719.386604,2.378114,-2.206459,54.914977,0.061813,0.046829,0.986755,-0.007307,0.008877,-0.00532,60.27774,20.718338,-147.206024,,,
729606719.389947,2.378114,-2.206459,54.914977,0.061813,0.046829,0.986755,-0.007307,0.008877,-0.00532,60.27774,20.718338,-147.206024,,,
729606719.393358,2.376935,-2.206017,54.912506,0.061813,0.046829,0.986755,-0.007307,0.008877,-0.00532,60.27774,20.718338,-147.206024,,,
729606719.396589,2.375046,-2.207463,54.908736,0.060272,0.042084,0.987259,-0.006262,-0.003386,-0.014623,60.27774,20.718338,-147.206024,,,
729606719.399951,2.375046,-2.207463,54.908736,0.060272,0.042084,0.987259,-0.006262,-0.003386,-0.014623,60.27774,20.718338,-147.206024,,,
729606719.403278,2.373918,-2.208805,54.903804,0.060272,0.042084,0.987259,-0.006262,-0.003386,-0.014623,60.27774,20.718338,-147.206024,,,
729606719.406604,2.372946,-2.214751,54.897228,0.058548,0.037338,0.99707,-0.003789,-0.01954,-0.023161,60.27774,20.718338,-147.206024,,,
729606719.409931,2.372946,-2.214751,54.897228,0.058548,0.037338,0.99707,-0.003789,-0.01954,-0.023161,60.414658,20.65596,-146.99939,,,
729606719.413278,2.374102,-2.221515,54.888524,0.058548,0.037338,0.99707,-0.003789,-0.01954,-0.023161,60.414658,20.65596,-146.99939,,,
729606719.416603,2.376406,-2.231896,54.878109,0.062698,0.032547,1.00946,0.004923,-0.036396,-0.037294,60.414658,20.65596,-146.99939,,,
729606719.419984,2.376406,-2.231896,54.878109,0.062698,0.032547,1.00946,0.004923,-0.036396,-0.037294,60.414658,20.65596,-146.99939,,,
729606719.423269,2.380969,-2.238486,54.865891,0.062698,0.032547,1.00946,0.004923,-0.036396,-0.037294,60.414658,20.65596,-146.99939,,,
729606719.426594,2.386434,-2.244409,54.852192,0.066223,0.032089,1.024719,0.019358,-0.01781,-0.051156,60.414658,20.65596,-146.99939,,,
729606719.43002,2.386434,-2.244409,54.852192,0.066223,0.032089,1.024719,0.019358,-0.01781,-0.051156,60.414658,20.65596,-146.99939,,,
729606719.433277,2.394048,-2.244294,54.83693,0.066223,0.032089,1.024719,0.019358,-0.01781,-0.051156,60.414658,20.65596,-146.99939,,,
729606719.436606,2.403422,-2.243591,54.820857,0.065033,0.028885,1.032089,0.029158,0.004014,-0.058646,60.414658,20.65596,-146.99939,,,
729606719.439945,2.403422,-2.243591,54.820857,0.065033,0.028885,1.032089,0.029158,0.004014,-0.058646,60.414658,20.65596,-146.99939,,,
729606719.443346,2.413415,-2.23972,54.804721,0.065033,0.028885,1.032089,0.029158,0.004014,-0.058646,60.414658,20.65596,-146.99939,,,
729606719.446587,2.424204,-2.233058,54.789143,0.055923,0.03093,1.030914,0.038252,0.024465,-0.056595,60.414658,20.65596,-146.99939,,,
729606719.449944,2.424204,-2.233058,54.789143,0.055923,0.03093,1.030914,0.038252,0.024465,-0.056595,60.414658,20.65596,-146.99939,,,
729606719.453275,2.435734,-2.228269,54.7746,0.055923,0.03093,1.030914,0.038252,0.024465,-0.056595,60.287674,20.536026,-146.988998,,,
729606719.456593,2.448538,-2.218929,54.760272,0.045563,0.031448,1.025803,0.045607,0.032259,-0.051826,60.287674,20.536026,-146.988998,,,
729606719.459953,2.448538,-2.218929,54.760272,0.045563,0.031448,1.025803,0.045607,0.032259,-0.051826,60.287674,20.536026,-146.988998,,,
729606719.463272,2.464033,-2.219765,54.747,0.045563,0.031448,1.025803,0.045607,0.032259,-0.051826,60.287674,20.536026,-146.988998,,,
