Time (sec),Pitch (deg),Roll (deg),Yaw(deg),X-Acceleration (g),Y-Acceleration (g),Z-Acceleration (g),Pitch Rate (deg/sec),Roll Rate (deg/sec),Yaw Rate (deg/sec),Magnetic Field in X direction (uT),Magnetic Field in Y direction (uT),Magnetic Field in Z Direction (uT),Latitude (deg),Longitude (deg),Altitude (m)
729608030.90036,1.121288,-1.955112,47.996503,0.029831,0.025055,1.015182,0.027749,-0.08186,0.01907,59.998917,21.54686,-148.060989,,,
729608030.903708,1.129245,-1.979209,48.002728,0.029831,0.025055,1.015182,0.027749,-0.08186,0.01907,59.998917,21.54686,-148.060989,,,
729608030.907044,1.141167,-1.997978,48.009448,0.031433,0.020737,1.016556,0.051063,-0.068893,0.022188,59.998917,21.54686,-148.060989,,,
729608030.910397,1.141167,-1.997978,48.009448,0.031433,0.020737,1.016556,0.051063,-0.068893,0.022188,59.998917,21.54686,-148.060989,,,
729608030.913735,1.155717,-2.018056,48.016756,0.031433,0.020737,1.016556,0.051063,-0.068893,0.022188,59.998917,21.54686,-148.060989,,,
729608030.917043,1.171398,-2.032105,48.024841,0.034027,0.024002,1.010223,0.056866,-0.048799,0.026469,59.998917,21.54686,-148.060989,,,
729608030.920412,1.171398,-2.032105,48.024841,0.034027,0.024002,1.010223,0.056866,-0.048799,0.026469,59.998917,21.54686,-148.060989,,,
729608030.923732,1.187309,-2.046094,48.033721,0.034027,0.024002,1.010223,0.056866,-0.048799,0.026469,59.998917,21.54686,-148.060989,,,
729608030.927028,1.203296,-2.053755,48.042676,0.030319,0.022079,1.005096,0.052757,-0.025658,0.026813,59.998917,21.54686,-148.060989,,,
729608030.930467,1.203296,-2.053755,48.042676,0.030319,0.022079,1.005096,0.052757,-0.025658,0.026813,59.998917,21.54686,-148.060989,,,
729608030.933704,1.217672,-2.061436,48.051673,0.030319,0.022079,1.005096,0.052757,-0.025658,0.026813,59.998917,21.54686,-148.060989,,,
729608030.937041,1.231666,-2.064905,48.059871,0.02478,0.015457,1.001251,0.041517,-0.011441,0.021017,59.998917,21.54686,-148.060989,,,
729608030.940378,1.231666,-2.064905,48.059871,0.02478,0.015457,1.001251,0.041517,-0.011441,0.021017,59.793335,21.478668,-147.975296,,,
729608030.943768,1.241925,-2.069606,48.066591,0.02478,0.015457,1.001251,0.041517,-0.011441,0.021017,59.793335,21.478668,-147.975296,,,
729608030.947022,1.251812,-2.072183,48.071162,0.019501,0.01297,0.999924,0.028035,-0.015699,0.009786,59.793335,21.478668,-147.975296,,,
729608030.950411,1.251812,-2.072183,48.071162,0.019501,0.01297,0.999924,0.028035,-0.015699,0.009786,59.793335,21.478668,-147.975296,,,
729608030.955297,1.259797,-2.078985,48.073782,0.019501,0.01297,0.999924,0.028035,-0.015699,0.009786,59.793335,21.478668,-147.975296,,,
729608030.956876,1.270121,-2.087915,48.074748,0.010269,0.018265,1.003586,0.038411,-0.053174,-0.001835,59.793335,21.478668,-147.975296,,,
729608030.960413,1.270121,-2.087915,48.074748,0.010269,0.018265,1.003586,0.038411,-0.053174,-0.001835,59.793335,21.478668,-147.975296,,,
729608030.963689,1.281681,-2.105793,48.074255,0.010269,0.018265,1.003586,0.038411,-0.053174,-0.001835,59.793335,21.478668,-147.975296,,,
729608030.96703,1.297971,-2.130162,48.072766,0.004135,0.032303,1.009079,0.066008,-0.105713,-0.011651,59.793335,21.478668,-147.975296,,,
729608030.970372,1.297971,-2.130162,48.072766,0.004135,0.032303,1.009079,0.066008,-0.105713,-0.011651,59.793335,21.478668,-147.975296,,,
729608030.973706,1.318241,-2.163358,48.07113,0.004135,0.032303,1.009079,0.066008,-0.105713,-0.011651,59.793335,21.478668,-147.975296,,,
729608030.977029,1.34446,-2.201688,48.069664,-0.007294,0.037018,1.01593,0.100034,-0.149428,-0.008829,59.793335,21.478668,-147.975296,,,
729608030.980359,1.34446,-2.201688,48.069664,-0.007294,0.037018,1.01593,0.100034,-0.149428,-0.008829,59.736404,21.25946,-147.882812,,,
729608030.983714,1.374597,-2.247112,48.068566,-0.007294,0.037018,1.01593,0.100034,-0.149428,-0.008829,59.736404,21.25946,-147.882812,,,
729608030.987055,1.409314,-2.295282,48.068786,-0.010712,0.027969,1.018723,0.140578,-0.179076,0.002309,59.736404,21.25946,-147.882812,,,
729608030.990367,1.409314,-2.295282,48.068786,-0.010712,0.027969,1.018723,0.140578,-0.179076,0.002309,59.736404,21.25946,-147.882812,,,
729608030.993813,1.451125,-2.347712,48.072114,-0.010712,0.027969,1.018723,0.140578,-0.179076,0.002309,59.736404,21.25946,-147.882812,,,
729608030.996857,1.451125,-2.347712,48.072114,-0.010712,0.027969,1.018723,0.140578,-0.179076,0.002309,59.736404,21.25946,-147.882812,,,
729608031.000411,1.498894,-2.400491,48.079634,-0.011749,0.011963,1.026886,0.188324,-0.186491,0.029267,59.736404,21.25946,-147.882812,,,
729608031.003716,1.553825,-2.455742,48.091936,-0.011749,0.011963,1.026886,0.188324,-0.186491,0.029267,59.736404,21.25946,-147.882812,,,
729608031.007063,1.614328,-2.508434,48.109145,-0.003754,0.002457,1.023956,0.227478,-0.178134,0.057163,59.736404,21.25946,-147.882812,,,
729608031.010449,1.614328,-2.508434,48.109145,-0.003754,0.002457,1.023956,0.227478,-0.178134,0.057163,59.736404,21.25946,-147.882812,,,
729608031.013739,1.679351,-2.558415,48.130234,-0.003754,0.002457,1.023956,0.227478,-0.178134,0.057163,59.736404,21.25946,-147.882812,,,
729608031.017123,1.743176,-2.596112,48.153865,0.01619,0.006836,1.014359,0.230897,-0.105428,0.077358,59.736404,21.25946,-147.882812,,,
729608031.020356,1.743176,-2.596112,48.153865,0.01619,0.006836,1.014359,0.230897,-0.105428,0.077358,59.410019,20.753769,-147.740509,,,
729608031.023675,1.807292,-2.625019,48.179383,0.01619,0.006836,1.014359,0.230897,-0.105428,0.077358,59.410019,20.753769,-147.740509,,,
729608031.027048,1.807292,-2.625019,48.179383,0.01619,0.006836,1.014359,0.230897,-0.105428,0.077358,59.410019,20.753769,-147.740509,,,
729608031.030359,1.86468,-2.638353,48.205708,0.04538,0.018921,1.005692,0.201464,-0.028422,0.08237,59.410019,20.753769,-147.740509,,,
729608031.033714,1.919601,-2.645911,48.232759,0.04538,0.018921,1.005692,0.201464,-0.028422,0.08237,59.410019,20.753769,-147.740509,,,
729608031.037091,1.964743,-2.64014,48.25967,0.066101,0.028076,0.975906,0.155371,0.025346,0.084743,59.410019,20.753769,-147.740509,,,
729608031.040394,1.964743,-2.64014,48.25967,0.066101,0.028076,0.975906,0.155371,0.025346,0.084743,59.410019,20.753769,-147.740509,,,
729608031.043772,2.006492,-2.632684,48.285366,0.066101,0.028076,0.975906,0.155371,0.025346,0.084743,59.410019,20.753769,-147.740509,,,
729608031.047019,2.006492,-2.632684,48.285366,0.066101,0.028076,0.975906,0.155371,0.025346,0.084743,59.410019,20.753769,-147.740509,,,
729608031.050381,2.0412,-2.61441,48.307638,0.076767,0.038742,0.961945,0.113298,0.057362,0.061615,59.410019,20.753769,-147.740509,,,
729608031.053721,2.071665,-2.600411,48.326533,0.076767,0.038742,0.961945,0.113298,0.057362,0.061615,59.410019,20.753769,-147.740509,,,
729608031.057072,2.097503,-2.583709,48.342189,0.083237,0.044983,0.951096,0.084498,0.035886,0.042462,59.410019,20.753769,-147.740509,,,
729608031.060441,2.097503,-2.583709,48.342189,0.083237,0.044983,0.951096,0.084498,0.035886,0.042462,59.466934,20.815384,-147.531799,,,
729608031.063688,2.120745,-2.57556,48.355361,0.083237,0.044983,0.951096,0.084498,0.035886,0.042462,59.466934,20.815384,-147.531799,,,
729608031.067084,2.120745,-2.57556,48.355361,0.076859,0.041321,0.947861,0.079193,0.008543,0.027238,59.466934,20.815384,-147.531799,,,
729608031.070454,2.142608,-2.566946,48.365778,0.076859,0.041321,0.947861,0.079193,0.008543,0.027238,59.466934,20.815384,-147.531799,,,
729608031.073716,2.164285,-2.567424,48.374628,0.076859,0.041321,0.947861,0.079193,0.008543,0.027238,59.466934,20.815384,-147.531799,,,
729608031.077165,2.184152,-2.569611,48.382733,0.069351,0.035385,0.957474,0.07628,-0.031377,0.0241,59.466934,20.815384,-147.531799,,,
729608031.080355,2.184152,-2.569611,48.382733,0.069351,0.035385,0.957474,0.07628,-0.031377,0.0241,59.466934,20.815384,-147.531799,,,
729608031.083707,2.20489,-2.58085,48.390879,0.069351,0.035385,0.957474,0.07628,-0.031377,0.0241,59.466934,20.815384,-147.531799,,,
729608031.08705,2.20489,-2.58085,48.390879,0.069351,0.035385,0.957474,0.07628,-0.031377,0.0241,59.466934,20.815384,-147.531799,,,
729608031.090381,2.222552,-2.591603,48.39922,0.064056,0.030396,0.958862,0.070506,-0.046354,0.029731,59.466934,20.815384,-147.531799,,,
729608031.093757,2.241837,-2.605951,48.408757,0.064056,0.030396,0.958862,0.070506,-0.046354,0.029731,59.466934,20.815384,-147.531799,,,
729608031.097032,2.241837,-2.605951,48.408757,0.064056,0.030396,0.958862,0.070506,-0.046354,0.029731,59.466934,20.815384,-147.531799,,,
729608031.100398,2.258122,-2.615479,48.419549,0.05806,0.029053,0.971069,0.063426,-0.031401,0.036013,59.466934,20.815384,-147.531799,,,
729608031.103703,2.275259,-2.625267,48.431477,0.05806,0.029053,0.971069,0.063426,-0.031401,0.036013,59.465134,20.657318,-147.969971,,,
729608031.107038,2.275259,-2.625267,48.431477,0.05806,0.029053,0.971069,0.063426,-0.031401,0.036013,59.465134,20.657318,-147.969971,,,
729608031.110385,2.288721,-2.632754,48.444308,0.061157,0.031067,0.977814,0.050348,-0.016832,0.042837,59.465134,20.657318,-147.969971,,,
729608031.113701,2.300845,-2.637886,48.457528,0.061157,0.031067,0.977814,0.050348,-0.016832,0.042837,59.465134,20.657318,-147.969971,,,
729608031.117076,2.300845,-2.637886,48.457528,0.061157,0.031067,0.977814,0.050348,-0.016832,0.042837,59.465134,20.657318,-147.969971,,,
729608031.120436,2.308478,-2.63853,48.470883,0.061966,0.033157,0.978287,0.023196,0.019712,0.044886,59.465134,20.657318,-147.969971,,,
729608031.123705,2.31324,-2.633267,48.484189,0.061966,0.033157,0.978287,0.023196,0.019712,0.044886,59.465134,20.657318,-147.969971,,,
729608031.127091,2.31324,-2.633267,48.484189,0.061966,0.033157,0.978287,0.023196,0.019712,0.044886,59.465134,20.657318,-147.969971,,,
729608031.130377,2.313664,-2.626997,48.497063,0.061127,0.032608,0.978439,-0.004499,0.036885,0.040848,59.465134,20.657318,-147.969971,,,
729608031.133772,2.311206,-2.617687,48.508957,0.061127,0.032608,0.978439,-0.004499,0.036885,0.040848,59.465134,20.657318,-147.969971,,,
729608031.137071,2.311206,-2.617687,48.508957,0.061127,0.032608,0.978439,-0.004499,0.036885,0.040848,59.465134,20.657318,-147.969971,,,
729608031.140388,2.306841,-2.612082,48.520015,0.065613,0.033936,0.973373,-0.020634,0.02669,0.037241,59.465134,20.657318,-147.969971,,,
729608031.143709,2.300468,-2.605658,48.529679,0.065613,0.033936,0.973373,-0.020634,0.02669,0.037241,59.58548,20.344849,-148.115051,,,
729608031.147089,2.300468,-2.605658,48.529679,0.065613,0.033936,0.973373,-0.020634,0.02669,0.037241,59.58548,20.344849,-148.115051,,,
729608031.150374,2.293578,-2.606142,48.538225,0.060196,0.034439,0.972,-0.027884,0.004397,0.025685,59.58548,20.344849,-148.115051,,,
729608031.153717,2.285174,-2.606762,48.54542,0.060196,0.034439,0.972,-0.027884,0.004397,0.025685,59.58548,20.344849,-148.115051,,,
729608031.157101,2.285174,-2.606762,48.54542,0.060196,0.034439,0.972,-0.027884,0.004397,0.025685,59.58548,20.344849,-148.115051,,,
729608031.160373,2.275943,-2.612438,48.551062,0.060654,0.035126,0.976105,-0.032072,-0.013361,0.01572,59.58548,20.344849,-148.115051,,,
729608031.163695,2.266351,-2.617039,48.554998,0.060654,0.035126,0.976105,-0.032072,-0.013361,0.01572,59.58548,20.344849,-148.115051,,,
729608031.16711,2.266351,-2.617039,48.554998,0.060654,0.035126,0.976105,-0.032072,-0.013361,0.01572,59.58548,20.344849,-148.115051,,,
729608031.170358,2.256226,-2.623925,48.557718,0.062912,0.038071,0.981369,-0.033847,-0.018291,0.006177,59.58548,20.344849,-148.115051,,,
729608031.173697,2.246564,-2.629059,48.559893,0.062912,0.038071,0.981369,-0.033847,-0.018291,0.006177,59.58548,20.344849,-148.115051,,,
729608031.177102,2.246564,-2.629059,48.559893,0.062912,0.038071,0.981369,-0.033847,-0.018291,0.006177,59.58548,20.344849,-148.115051,,,
729608031.180367,2.236228,-2.634243,48.562394,0.059219,0.032211,0.985611,-0.03079,-0.007634,0.011006,59.58548,20.344849,-148.115051,,,
729608031.183703,2.226315,-2.635842,48.565554,0.059219,0.032211,0.985611,-0.03079,-0.007634,0.011006,59.537354,20.45462,-148.074799,,,
729608031.187084,2.226315,-2.635842,48.565554,0.059219,0.032211,0.985611,-0.03079,-0.007634,0.011006,59.537354,20.45462,-148.074799,,,
729608031.190357,2.216167,-2.634773,48.569627,0.060196,0.027435,0.993759,-0.034707,0.021326,0.017057,59.537354,20.45462,-148.074799,,,
729608031.193693,2.205704,-2.629689,48.574026,0.060196,0.027435,0.993759,-0.034707,0.021326,0.017057,59.537354,20.45462,-148.074799,,,
729608031.197097,2.205704,-2.629689,48.574026,0.060196,0.027435,0.993759,-0.034707,0.021326,0.017057,59.537354,20.45462,-148.074799,,,
729608031.200377,2.193488,-2.623359,48.578496,0.060089,0.028564,0.992401,-0.043512,0.034351,0.01313,59.537354,20.45462,-148.074799,,,
729608031.203695,2.180848,-2.614897,48.582404,0.060089,0.028564,0.992401,-0.043512,0.034351,0.01313,59.537354,20.45462,-148.074799,,,
729608031.207038,2.180848,-2.614897,48.582404,0.060089,0.028564,0.992401,-0.043512,0.034351,0.01313,59.537354,20.45462,-148.074799,,,
729608031.210464,2.167047,-2.60693,48.584645,0.057236,0.034103,0.990967,-0.050572,0.036054,0.001956,59.537354,20.45462,-148.074799,,,
729608031.2137,2.152614,-2.597633,48.585121,0.057236,0.034103,0.990967,-0.050572,0.036054,0.001956,59.537354,20.45462,-148.074799,,,
729608031.217156,2.152614,-2.597633,48.585121,0.057236,0.034103,0.990967,-0.050572,0.036054,0.001956,59.537354,20.45462,-148.074799,,,
729608031.220373,2.137435,-2.59033,48.58358,0.057114,0.037476,0.993469,-0.052446,0.032109,-0.00826,59.537354,20.45462,-148.074799,,,
729608031.223707,2.123195,-2.582071,48.580412,0.057114,0.037476,0.993469,-0.052446,0.032109,-0.00826,59.535645,20.743256,-148.2612,,,
729608031.227052,2.123195,-2.582071,48.580412,0.057114,0.037476,0.993469,-0.052446,0.032109,-0.00826,59.535645,20.743256,-148.2612,,,
729608031.230374,2.110083,-2.576395,48.57706,0.052673,0.03302,0.997177,-0.045616,0.026474,-0.01198,59.535645,20.743256,-148.2612,,,
729608031.233773,2.098243,-2.569584,48.573517,0.052673,0.03302,0.997177,-0.045616,0.026474,-0.01198,59.535645,20.743256,-148.2612,,,
729608031.237094,2.098243,-2.569584,48.573517,0.052673,0.03302,0.997177,-0.045616,0.026474,-0.01198,59.535645,20.743256,-148.2612,,,
729608031.240381,2.087037,-2.565396,48.570697,0.04451,0.029205,1.002335,-0.035443,0.020745,-0.008514,59.535645,20.743256,-148.2612,,,
729608031.243715,2.076895,-2.559798,48.569313,0.04451,0.029205,1.002335,-0.035443,0.020745,-0.008514,59.535645,20.743256,-148.2612,,,
729608031.247127,2.076895,-2.559798,48.569313,0.04451,0.029205,1.002335,-0.035443,0.020745,-0.008514,59.535645,20.743256,-148.2612,,,
729608031.250361,2.067453,-2.556723,48.568983,0.040283,0.025406,1.001587,-0.035628,0.027061,-0.001767,59.535645,20.743256,-148.2612,,,
729608031.253697,2.057089,-2.550033,48.569038,0.040283,0.025406,1.001587,-0.035628,0.027061,-0.001767,59.535645,20.743256,-148.2612,,,
729608031.257033,2.057089,-2.550033,48.569038,0.040283,0.025406,1.001587,-0.035628,0.027061,-0.001767,59.535645,20.743256,-148.2612,,,
729608031.260512,2.045962,-2.545591,48.569538,0.042297,0.029709,1.00029,-0.038699,0.028478,0.003558,59.535645,20.743256,-148.2612,,,
729608031.263692,2.03419,-2.53802,48.570526,0.042297,0.029709,1.00029,-0.038699,0.028478,0.003558,59.535645,20.743256,-148.2612,,,
729608031.267044,2.03419,-2.53802,48.570526,0.042297,0.029709,1.00029,-0.038699,0.028478,0.003558,59.641113,20.77153,-147.92955,,,
729608031.270371,2.020598,-2.533937,48.572016,0.045212,0.035065,0.997101,-0.041649,0.029643,0.005906,59.641113,20.77153,-147.92955,,,
729608031.273705,2.00839,-2.526845,48.573502,0.045212,0.035065,0.997101,-0.041649,0.029643,0.005906,59.641113,20.77153,-147.92955,,,
729608031.277041,2.00839,-2.526845,48.573502,0.045212,0.035065,0.997101,-0.041649,0.029643,0.005906,59.641113,20.77153,-147.92955,,,
729608031.280367,1.995113,-2.523223,48.575505,0.043243,0.035538,0.99707,-0.037889,0.02366,0.008909,59.641113,20.77153,-147.92955,,,
729608031.283703,1.984276,-2.517409,48.578025,0.043243,0.035538,0.99707,-0.037889,0.02366,0.008909,59.641113,20.77153,-147.92955,,,
729608031.287036,1.984276,-2.517409,48.578025,0.043243,0.035538,0.99707,-0.037889,0.02366,0.008909,59.641113,20.77153,-147.92955,,,
729608031.290376,1.9747,-2.51642,48.581588,0.041977,0.027863,1.001358,-0.021904,0.014589,0.014296,59.641113,20.77153,-147.92955,,,
729608031.293702,1.968208,-2.514046,48.586025,0.041977,0.027863,1.001358,-0.021904,0.014589,0.014296,59.641113,20.77153,-147.92955,,,
729608031.297074,1.968208,-2.514046,48.586025,0.041977,0.027863,1.001358,-0.021904,0.014589,0.014296,59.641113,20.77153,-147.92955,,,
729608031.300365,1.963852,-2.515187,48.590693,0.039276,0.027344,1.008301,-0.015837,0.009481,0.013378,59.641113,20.77153,-147.92955,,,
729608031.303795,1.959017,-2.513598,48.593906,0.039276,0.027344,1.008301,-0.015837,0.009481,0.013378,59.641113,20.77153,-147.92955,,,
729608031.307064,1.959017,-2.513598,48.593906,0.039276,0.027344,1.008301,-0.015837,0.009481,0.013378,59.573547,20.933624,-147.603745,,,
729608031.310471,1.954146,-2.513982,48.595767,0.045593,0.034836,1.006622,-0.020073,0.011223,0.003117,59.573547,20.933624,-147.603745,,,
729608031.313693,1.947973,-2.511512,48.59621,0.045593,0.034836,1.006622,-0.020073,0.011223,0.003117,59.573547,20.933624,-147.603745,,,
729608031.316893,1.947973,-2.511512,48.59621,0.045593,0.034836,1.006622,-0.020073,0.011223,0.003117,59.573547,20.933624,-147.603745,,,
729608031.320438,1.93991,-2.509198,48.595228,0.04866,0.04129,1.002625,-0.029146,0.016332,-0.004818,59.573547,20.933624,-147.603745,,,
729608031.323698,1.931205,-2.50579,48.59341,0.04866,0.04129,1.002625,-0.029146,0.016332,-0.004818,59.573547,20.933624,-147.603745,,,
729608031.327039,1.931205,-2.50579,48.59341,0.04866,0.04129,1.002625,-0.029146,0.016332,-0.004818,59.573547,20.933624,-147.603745,,,
729608031.330402,1.920068,-2.501873,48.590521,0.050186,0.040634,0.99884,-0.033768,0.011305,-0.010061,59.573547,20.933624,-147.603745,,,
729608031.333763,1.910063,-2.499784,48.587068,0.050186,0.040634,0.99884,-0.033768,0.011305,-0.010061,59.573547,20.933624,-147.603745,,,
729608031.337047,1.910063,-2.499784,48.587068,0.050186,0.040634,0.99884,-0.033768,0.011305,-0.010061,59.573547,20.933624,-147.603745,,,
729608031.34038,1.898914,-2.49878,48.583708,0.044174,0.035324,0.996017,-0.033222,-0.002542,-0.012954,59.573547,20.933624,-147.603745,,,
729608031.343723,1.889592,-2.500119,48.580643,0.044174,0.035324,0.996017,-0.033222,-0.002542,-0.012954,59.573547,20.933624,-147.603745,,,
729608031.347046,1.889592,-2.500119,48.580643,0.044174,0.035324,0.996017,-0.033222,-0.002542,-0.012954,59.640152,20.838745,-147.789856,,,
729608031.350393,1.880712,-2.503559,48.578579,0.036072,0.030487,0.995575,-0.030219,-0.010614,-0.001954,59.640152,20.838745,-147.789856,,,
729608031.353701,1.871733,-2.507921,48.578536,0.036072,0.030487,0.995575,-0.030219,-0.010614,-0.001954,59.640152,20.838745,-147.789856,,,
729608031.357057,1.871733,-2.507921,48.578536,0.036072,0.030487,0.995575,-0.030219,-0.010614,-0.001954,59.640152,20.838745,-147.789856,,,
729608031.360444,1.864789,-2.514007,48.581485,0.028458,0.025604,0.997253,-0.021043,-0.022498,0.019288,59.640152,20.838745,-147.789856,,,
729608031.36369,1.858606,-2.52146,48.587619,0.028458,0.025604,0.997253,-0.021043,-0.022498,0.019288,59.640152,20.838745,-147.789856,,,
729608031.367044,1.858606,-2.52146,48.587619,0.028458,0.025604,0.997253,-0.021043,-0.022498,0.019288,59.640152,20.838745,-147.789856,,,
729608031.370366,1.852333,-2.527846,48.59666,0.025711,0.021454,0.9991,-0.018711,-0.010137,0.034759,59.640152,20.838745,-147.789856,,,
729608031.373697,1.846393,-2.531286,48.607935,0.025711,0.021454,0.9991,-0.018711,-0.010137,0.034759,59.640152,20.838745,-147.789856,,,
729608031.377047,1.846393,-2.531286,48.607935,0.025711,0.021454,0.9991,-0.018711,-0.010137,0.034759,59.640152,20.838745,-147.789856,,,
729608031.380376,1.838882,-2.531107,48.620473,0.032516,0.028183,1.004211,-0.023158,0.006924,0.044793,59.640152,20.838745,-147.789856,,,
729608031.383701,1.832066,-2.530763,48.633782,0.032516,0.028183,1.004211,-0.023158,0.006924,0.044793,59.640152,20.838745,-147.789856,,,
729608031.387035,1.832066,-2.530763,48.633782,0.032516,0.028183,1.004211,-0.023158,0.006924,0.044793,59.794266,21.061707,-147.656738,,,
729608031.390381,1.825012,-2.530608,48.647676,0.037064,0.034882,1.000275,-0.021789,0.001836,0.046387,59.794266,21.061707,-147.656738,,,
729608031.393697,1.817291,-2.531945,48.661176,0.037064,0.034882,1.000275,-0.021789,0.001836,0.046387,59.794266,21.061707,-147.656738,,,
729608031.397036,1.817291,-2.531945,48.661176,0.037064,0.034882,1.000275,-0.021789,0.001836,0.046387,59.794266,21.061707,-147.656738,,,
729608031.400367,1.810146,-2.535097,48.673225,0.044449,0.041306,0.995514,-0.032185,-0.005658,0.036535,59.794266,21.061707,-147.656738,,,
729608031.403713,1.799865,-2.539105,48.683353,0.044449,0.041306,0.995514,-0.032185,-0.005658,0.036535,59.794266,21.061707,-147.656738,,,
729608031.407044,1.799865,-2.539105,48.683353,0.044449,0.041306,0.995514,-0.032185,-0.005658,0.036535,59.794266,21.061707,-147.656738,,,
729608031.410363,1.789186,-2.54603,48.691368,0.048248,0.046341,0.990631,-0.050021,-0.019468,0.025377,59.794266,21.061707,-147.656738,,,
729608031.413697,1.774387,-2.553487,48.697887,0.048248,0.046341,0.990631,-0.050021,-0.019468,0.025377,59.794266,21.061707,-147.656738,,,
729608031.417046,1.774387,-2.553487,48.697887,0.048248,0.046341,0.990631,-0.050021,-0.019468,0.025377,59.794266,21.061707,-147.656738,,,
729608031.42038,1.758792,-2.563615,48.703581,0.046555,0.046448,0.987854,-0.061034,-0.035125,0.018747,59.794266,21.061707,-147.656738,,,
729608031.423701,1.740502,-2.57513,48.708667,0.046555,0.046448,0.987854,-0.061034,-0.035125,0.018747,59.794266,21.061707,-147.656738,,,
729608031.427141,1.740502,-2.57513,48.708667,0.046555,0.046448,0.987854,-0.061034,-0.035125,0.018747,59.794266,21.061707,-147.656738,,,
729608031.430384,1.721998,-2.586908,48.713227,0.045547,0.043915,0.99379,-0.063519,-0.045383,0.018896,59.581482,20.999771,-147.558914,,,
729608031.43371,1.702613,-2.600924,48.717808,0.045547,0.043915,0.99379,-0.063519,-0.045383,0.018896,59.581482,20.999771,-147.558914,,,
729608031.437036,1.702613,-2.600924,48.717808,0.045547,0.043915,0.99379,-0.063519,-0.045383,0.018896,59.581482,20.999771,-147.558914,,,
729608031.440445,1.682651,-2.612047,48.72238,0.04567,0.043182,0.998337,-0.067153,-0.039613,0.01608,59.581482,20.999771,-147.558914,,,
729608031.443695,1.662592,-2.624041,48.726854,0.04567,0.043182,0.998337,-0.067153,-0.039613,0.01608,59.581482,20.999771,-147.558914,,,
729608031.447051,1.662592,-2.624041,48.726854,0.04567,0.043182,0.998337,-0.067153,-0.039613,0.01608,59.581482,20.999771,-147.558914,,,
729608031.45039,1.641116,-2.629983,48.731556,0.044296,0.040451,1.006683,-0.066649,-0.027202,0.023058,59.581482,20.999771,-147.558914,,,
729608031.453698,1.621511,-2.6387,48.736949,0.044296,0.040451,1.006683,-0.066649,-0.027202,0.023058,59.581482,20.999771,-147.558914,,,
729608031.457048,1.621511,-2.6387,48.736949,0.044296,0.040451,1.006683,-0.066649,-0.027202,0.023058,59.581482,20.999771,-147.558914,,,
729608031.460386,1.602078,-2.643956,48.742829,0.043671,0.03653,1.011444,-0.06157,-0.026832,0.023326,59.581482,20.999771,-147.558914,,,
729608031.463699,1.584512,-2.653189,48.749219,0.043671,0.03653,1.011444,-0.06157,-0.026832,0.023326,59.581482,20.999771,-147.558914,,,
729608031.467027,1.584512,-2.653189,48.749219,0.043671,0.03653,1.011444,-0.06157,-0.026832,0.023326,59.581482,20.999771,-147.558914,,,
729608031.470389,1.569825,-2.662318,48.756079,0.040634,0.032227,1.011337,-0.046122,-0.040184,0.024218,59.462494,21.282639,-147.652756,,,
729608031.473698,1.556028,-2.675765,48.762884,0.040634,0.032227,1.011337,-0.046122,-0.040184,0.024218,59.462494,21.282639,-147.652756,,,
729608031.477091,1.556028,-2.675765,48.762884,0.040634,0.032227,1.011337,-0.046122,-0.040184,0.024218,59.462494,21.282639,-147.652756,,,
729608031.480376,1.546497,-2.690749,48.768696,0.040192,0.028412,1.01239,-0.03423,-0.05774,0.016492,59.462494,21.282639,-147.652756,,,
729608031.483701,1.536139,-2.70962,48.773092,0.040192,0.028412,1.01239,-0.03423,-0.05774,0.016492,59.462494,21.282639,-147.652756,,,
729608031.487044,1.536139,-2.70962,48.773092,0.040192,0.028412,1.01239,-0.03423,-0.05774,0.016492,59.462494,21.282639,-147.652756,,,
729608031.490442,1.530468,-2.731897,48.776083,0.044739,0.027267,1.014984,-0.026829,-0.080759,0.006144,59.462494,21.282639,-147.652756,,,
729608031.493684,1.522965,-2.756487,48.778175,0.044739,0.027267,1.014984,-0.026829,-0.080759,0.006144,59.462494,21.282639,-147.652756,,,
729608031.497058,1.522965,-2.756487,48.778175,0.044739,0.027267,1.014984,-0.026829,-0.080759,0.006144,59.462494,21.282639,-147.652756,,,
729608031.500383,1.520135,-2.782012,48.779507,0.048706,0.02417,1.012253,-0.024271,-0.085756,0.003687,59.462494,21.282639,-147.652756,,,
729608031.503697,1.514046,-2.807165,48.780214,0.048706,0.02417,1.012253,-0.024271,-0.085756,0.003687,59.462494,21.282639,-147.652756,,,
729608031.507049,1.514046,-2.807165,48.780214,0.048706,0.02417,1.012253,-0.024271,-0.085756,0.003687,59.462494,21.282639,-147.652756,,,
729608031.510367,1.513332,-2.830757,48.781003,0.050201,0.021835,1.018097,-0.007405,-0.077577,0.001334,59.620682,21.220535,-147.904022,,,
729608031.513696,1.51106,-2.8534,48.782537,0.050201,0.021835,1.018097,-0.007405,-0.077577,0.001334,59.620682,21.220535,-147.904022,,,
729608031.517049,1.51106,-2.8534,48.782537,0.050201,0.021835,1.018097,-0.007405,-0.077577,0.001334,59.620682,21.220535,-147.904022,,,
729608031.520377,1.514656,-2.873067,48.785311,0.052582,0.019836,1.024643,0.011865,-0.061631,0.010975,59.620682,21.220535,-147.904022,,,
729608031.523699,1.518762,-2.890647,48.789256,0.052582,0.019836,1.024643,0.011865,-0.061631,0.010975,59.620682,21.220535,-147.904022,,,
729608031.52712,1.518762,-2.890647,48.789256,0.052582,0.019836,1.024643,0.011865,-0.061631,0.010975,59.620682,21.220535,-147.904022,,,
729608031.530374,1.52885,-2.904245,48.794182,0.053848,0.013947,1.027695,0.033423,-0.040324,0.017908,59.620682,21.220535,-147.904022,,,
729608031.533712,1.538533,-2.916182,48.799937,0.053848,0.013947,1.027695,0.033423,-0.040324,0.017908,59.620682,21.220535,-147.904022,,,
729608031.537081,1.538533,-2.916182,48.799937,0.053848,0.013947,1.027695,0.033423,-0.040324,0.017908,59.620682,21.220535,-147.904022,,,
729608031.540405,1.552624,-2.923615,48.805291,0.06102,0.016327,1.021393,0.047023,-0.020725,0.015213,59.620682,21.220535,-147.904022,,,
729608031.543706,1.566404,-2.929963,48.809759,0.06102,0.016327,1.021393,0.047023,-0.020725,0.015213,59.620682,21.220535,-147.904022,,,
729608031.547055,1.566404,-2.929963,48.809759,0.06102,0.016327,1.021393,0.047023,-0.020725,0.015213,59.620682,21.220535,-147.904022,,,
729608031.5504,1.582602,-2.932698,48.8134,0.064911,0.024063,1.012512,0.053885,-0.006039,0.009143,59.183884,21.126556,-147.720093,,,
729608031.553697,1.597904,-2.935779,48.817113,0.064911,0.024063,1.012512,0.053885,-0.006039,0.009143,59.183884,21.126556,-147.720093,,,
729608031.557045,1.597904,-2.935779,48.817113,0.064911,0.024063,1.012512,0.053885,-0.006039,0.009143,59.183884,21.126556,-147.720093,,,
729608031.56038,1.614474,-2.936236,48.821329,0.058136,0.026688,1.007935,0.060146,-0.005161,0.011382,59.183884,21.126556,-147.720093,,,
729608031.5637,1.631981,-2.939914,48.82623,0.058136,0.026688,1.007935,0.060146,-0.005161,0.011382,59.183884,21.126556,-147.720093,,,
729608031.567121,1.631981,-2.939914,48.82623,0.058136,0.026688,1.007935,0.060146,-0.005161,0.011382,59.183884,21.126556,-147.720093,,,
729608031.570384,1.649018,-2.943803,48.832296,0.051102,0.022125,0.996246,0.059754,-0.015116,0.017939,59.183884,21.126556,-147.720093,,,
729608031.573696,1.665557,-2.949755,48.839084,0.051102,0.022125,0.996246,0.059754,-0.015116,0.017939,59.183884,21.126556,-147.720093,,,
729608031.577055,1.665557,-2.949755,48.839084,0.051102,0.022125,0.996246,0.059754,-0.015116,0.017939,59.183884,21.126556,-147.720093,,,
729608031.580451,1.680365,-2.955408,48.845007,0.052246,0.023102,0.988052,0.049234,-0.019068,0.015079,59.183884,21.126556,-147.720093,,,
729608031.583708,1.693976,-2.962228,48.850111,0.052246,0.023102,0.988052,0.049234,-0.019068,0.015079,59.183884,21.126556,-147.720093,,,
729608031.587032,1.693976,-2.962228,48.850111,0.052246,0.023102,0.988052,0.049234,-0.019068,0.015079,59.183884,21.126556,-147.720093,,,
729608031.590408,1.704819,-2.968767,48.854518,0.056122,0.029861,0.989395,0.040701,-0.020978,0.010176,59.183884,21.126556,-147.720093,,,
729608031.5937,1.716106,-2.976388,48.858206,0.056122,0.029861,0.989395,0.040701,-0.020978,0.010176,59.178223,21.193069,-147.80983,,,
729608031.597039,1.716106,-2.976388,48.858206,0.056122,0.029861,0.989395,0.040701,-0.020978,0.010176,59.178223,21.193069,-147.80983,,,
729608031.600399,1.726347,-2.984979,48.861564,0.058197,0.029678,0.989014,0.043935,-0.029247,0.007972,59.178223,21.193069,-147.80983,,,
729608031.603696,1.73865,-2.994067,48.864517,0.058197,0.029678,0.989014,0.043935,-0.029247,0.007972,59.178223,21.193069,-147.80983,,,
729608031.60711,1.73865,-2.994067,48.864517,0.058197,0.029678,0.989014,0.043935,-0.029247,0.007972,59.178223,21.193069,-147.80983,,,
729608031.61037,1.749041,-3.002767,48.866389,0.060486,0.027206,0.990402,0.049816,-0.027311,-3.1e-05,59.178223,21.193069,-147.80983,,,
729608031.613753,1.762681,-3.010791,48.866786,0.060486,0.027206,0.990402,0.049816,-0.027311,-3.1e-05,59.178223,21.193069,-147.80983,,,
729608031.617073,1.762681,-3.010791,48.866786,0.060486,0.027206,0.990402,0.049816,-0.027311,-3.1e-05,59.178223,21.193069,-147.80983,,,
729608031.620466,1.773212,-3.018323,48.86609,0.065399,0.031647,0.989105,0.048297,-0.013844,-0.008453,59.178223,21.193069,-147.80983,,,
729608031.623529,1.786527,-3.023325,48.864683,0.065399,0.031647,0.989105,0.048297,-0.013844,-0.008453,59.178223,21.193069,-147.80983,,,
729608031.627082,1.786527,-3.023325,48.864683,0.065399,0.031647,0.989105,0.048297,-0.013844,-0.008453,59.178223,21.193069,-147.80983,,,
729608031.630389,1.796872,-3.028335,48.862938,0.064713,0.03537,0.983383,0.040993,-0.001448,-0.010717,59.178223,21.193069,-147.80983,,,
729608031.633706,1.80805,-3.029817,48.861037,0.064713,0.03537,0.983383,0.040993,-0.001448,-0.010717,59.157211,21.178589,-147.768692,,,
729608031.637061,1.80805,-3.029817,48.861037,0.064713,0.03537,0.983383,0.040993,-0.001448,-0.010717,59.157211,21.178589,-147.768692,,,
729608031.640399,1.815691,-3.031366,48.859669,0.060715,0.037598,0.979889,0.026052,0.004541,-0.007347,59.157211,21.178589,-147.768692,,,
729608031.643699,1.822335,-3.031254,48.858872,0.060715,0.037598,0.979889,0.026052,0.004541,-0.007347,59.157211,21.178589,-147.768692,,,
729608031.647138,1.822335,-3.031254,48.858872,0.060715,0.037598,0.979889,0.026052,0.004541,-0.007347,59.157211,21.178589,-147.768692,,,
729608031.65038,1.826925,-3.032032,48.858308,0.057617,0.035446,0.976364,0.021666,-0.001065,-0.005665,59.157211,21.178589,-147.768692,,,
729608031.653728,1.832764,-3.033595,48.857358,0.057617,0.035446,0.976364,0.021666,-0.001065,-0.005665,59.157211,21.178589,-147.768692,,,
729608031.657067,1.832764,-3.033595,48.857358,0.057617,0.035446,0.976364,0.021666,-0.001065,-0.005665,59.157211,21.178589,-147.768692,,,
729608031.660452,1.83668,-3.035406,48.855805,0.054779,0.03389,0.979538,0.019276,-0.008725,-0.010326,59.157211,21.178589,-147.768692,,,
729608031.663705,1.842102,-3.037962,48.854428,0.054779,0.03389,0.979538,0.019276,-0.008725,-0.010326,59.157211,21.178589,-147.768692,,,
729608031.667053,1.842102,-3.037962,48.854428,0.054779,0.03389,0.979538,0.019276,-0.008725,-0.010326,59.157211,21.178589,-147.768692,,,
729608031.670458,1.846074,-3.040954,48.8538,0.052811,0.031631,0.982941,0.014123,-0.002722,-0.002781,59.157211,21.178589,-147.768692,,,
729608031.673698,1.85002,-3.042716,48.853411,0.052811,0.031631,0.982941,0.014123,-0.002722,-0.002781,59.157135,21.070282,-147.787521,,,
729608031.677053,1.85002,-3.042716,48.853411,0.052811,0.031631,0.982941,0.014123,-0.002722,-0.002781,59.157135,21.070282,-147.787521,,,
729608031.680379,1.852711,-3.044439,48.853642,0.048279,0.029251,0.986206,0.009929,0.002391,0.003229,59.157135,21.070282,-147.787521,,,
729608031.683695,1.855565,-3.044647,48.854705,0.048279,0.029251,0.986206,0.009929,0.002391,0.003229,59.157135,21.070282,-147.787521,,,
729608031.687049,1.855565,-3.044647,48.854705,0.048279,0.029251,0.986206,0.009929,0.002391,0.003229,59.157135,21.070282,-147.787521,,,
729608031.690362,1.857342,-3.045242,48.855214,0.048981,0.031769,0.988541,0.008238,0.003601,0.000564,59.157135,21.070282,-147.787521,,,
729608031.693697,1.858455,-3.044034,48.855033,0.048981,0.031769,0.988541,0.008238,0.003601,0.000564,59.157135,21.070282,-147.787521,,,
729608031.697122,1.858455,-3.044034,48.855033,0.048981,0.031769,0.988541,0.008238,0.003601,0.000564,59.157135,21.070282,-147.787521,,,
729608031.700372,1.85758,-3.043485,48.854287,0.047058,0.033035,0.987244,-0.003546,0.016397,-0.002504,59.157135,21.070282,-147.787521,,,
729608031.703707,1.855835,-3.039587,48.853235,0.047058,0.033035,0.987244,-0.003546,0.016397,-0.002504,59.157135,21.070282,-147.787521,,,
729608031.707049,1.855835,-3.039587,48.853235,0.047058,0.033035,0.987244,-0.003546,0.016397,-0.002504,59.157135,21.070282,-147.787521,,,
729608031.710433,1.85339,-3.038404,48.85309,0.043106,0.033691,0.984238,-0.008862,0.012211,0.005523,59.157135,21.070282,-147.787521,,,
729608031.7137,1.849344,-3.036391,48.853669,0.043106,0.033691,0.984238,-0.008862,0.012211,0.005523,59.217438,20.91716,-147.443466,,,
729608031.717048,1.849344,-3.036391,48.853669,0.043106,0.033691,0.984238,-0.008862,0.012211,0.005523,59.217438,20.91716,-147.443466,,,
729608031.720369,1.84532,-3.038175,48.855181,0.038757,0.031326,0.982727,-0.017321,0.001229,0.005791,59.217438,20.91716,-147.443466,,,
729608031.723695,1.840354,-3.039752,48.857263,0.038757,0.031326,0.982727,-0.017321,0.001229,0.005791,59.217438,20.91716,-147.443466,,,
729608031.727035,1.840354,-3.039752,48.857263,0.038757,0.031326,0.982727,-0.017321,0.001229,0.005791,59.217438,20.91716,-147.443466,,,
729608031.730373,1.837059,-3.043919,48.858936,0.040482,0.028519,0.985153,-0.013154,-0.013344,0.004938,59.217438,20.91716,-147.443466,,,
729608031.733695,1.833988,-3.049591,48.860205,0.040482,0.028519,0.985153,-0.013154,-0.013344,0.004938,59.217438,20.91716,-147.443466,,,
729608031.737071,1.833988,-3.049591,48.860205,0.040482,0.028519,0.985153,-0.013154,-0.013344,0.004938,59.217438,20.91716,-147.443466,,,
729608031.740367,1.831577,-3.057378,48.861692,0.046661,0.027496,0.987076,-0.0106,-0.021651,0.004642,59.217438,20.91716,-147.443466,,,
729608031.743692,1.827935,-3.064995,48.863344,0.046661,0.027496,0.987076,-0.0106,-0.021651,0.004642,59.217438,20.91716,-147.443466,,,
729608031.747034,1.827935,-3.064995,48.863344,0.046661,0.027496,0.987076,-0.0106,-0.021651,0.004642,59.217438,20.91716,-147.443466,,,
729608031.750453,1.823275,-3.072504,48.865367,0.04483,0.023972,0.986389,-0.018312,-0.018501,0.007188,59.217438,20.91716,-147.443466,,,
729608031.753696,1.817813,-3.078521,48.86747,0.04483,0.023972,0.986389,-0.018312,-0.018501,0.007188,59.217438,20.91716,-147.443466,,,
729608031.757057,1.817813,-3.078521,48.86747,0.04483,0.023972,0.986389,-0.018312,-0.018501,0.007188,58.995255,21.141998,-147.891205,,,
729608031.760389,1.811651,-3.082983,48.870285,0.0466,0.023666,0.986679,-0.019543,-0.010141,0.010192,58.995255,21.141998,-147.891205,,,
729608031.763702,1.805436,-3.086671,48.87418,0.0466,0.023666,0.986679,-0.019543,-0.010141,0.010192,58.995255,21.141998,-147.891205,,,
729608031.767045,1.805436,-3.086671,48.87418,0.0466,0.023666,0.986679,-0.019543,-0.010141,0.010192,58.995255,21.141998,-147.891205,,,
729608031.770386,1.798385,-3.088213,48.878964,0.047913,0.021942,0.984375,-0.025235,-8e-05,0.019351,58.995255,21.141998,-147.891205,,,
729608031.773698,1.790402,-3.088754,48.884609,0.047913,0.021942,0.984375,-0.025235,-8e-05,0.019351,58.995255,21.141998,-147.891205,,,
729608031.777088,1.790402,-3.088754,48.884609,0.047913,0.021942,0.984375,-0.025235,-8e-05,0.019351,58.995255,21.141998,-147.891205,,,
729608031.780396,1.781321,-3.086633,48.890559,0.045258,0.021652,0.978424,-0.032293,0.01211,0.02447,58.995255,21.141998,-147.891205,,,
729608031.783693,1.770509,-3.084786,48.897368,0.045258,0.021652,0.978424,-0.032293,0.01211,0.02447,58.995255,21.141998,-147.891205,,,
729608031.787052,1.770509,-3.084786,48.897368,0.045258,0.021652,0.978424,-0.032293,0.01211,0.02447,58.995255,21.141998,-147.891205,,,
729608031.790438,1.758104,-3.083271,48.904901,0.042633,0.024353,0.972672,-0.045167,0.001349,0.028008,58.995255,21.141998,-147.891205,,,
729608031.793691,1.743617,-3.083445,48.912781,0.042633,0.024353,0.972672,-0.045167,0.001349,0.028008,58.995255,21.141998,-147.891205,,,
729608031.797056,1.743617,-3.083445,48.912781,0.042633,0.024353,0.972672,-0.045167,0.001349,0.028008,59.012589,21.20755,-147.695038,,,
729608031.800383,1.727676,-3.081177,48.920754,0.041245,0.023956,0.967087,-0.057154,0.009513,0.029018,59.012589,21.20755,-147.695038,,,
729608031.803765,1.710127,-3.079517,48.928238,0.041245,0.023956,0.967087,-0.057154,0.009513,0.029018,59.012589,21.20755,-147.695038,,,
729608031.807048,1.710127,-3.079517,48.928238,0.041245,0.023956,0.967087,-0.057154,0.009513,0.029018,59.012589,21.20755,-147.695038,,,
729608031.810387,1.692125,-3.077163,48.934905,0.043503,0.027328,0.974319,-0.062236,-0.00076,0.021272,59.012589,21.20755,-147.695038,,,
729608031.81373,1.674099,-3.079103,48.940785,0.043503,0.027328,0.974319,-0.062236,-0.00076,0.021272,59.012589,21.20755,-147.695038,,,
729608031.817099,1.674099,-3.079103,48.940785,0.043503,0.027328,0.974319,-0.062236,-0.00076,0.021272,59.012589,21.20755,-147.695038,,,
729608031.820385,1.655918,-3.082036,48.946304,0.040359,0.023407,0.973373,-0.061807,-0.010619,0.019639,59.012589,21.20755,-147.695038,,,
729608031.823709,1.637586,-3.086757,48.95173,0.040359,0.023407,0.973373,-0.061807,-0.010619,0.019639,59.012589,21.20755,-147.695038,,,
729608031.827051,1.637586,-3.086757,48.95173,0.040359,0.023407,0.973373,-0.061807,-0.010619,0.019639,59.012589,21.20755,-147.695038,,,
729608031.830374,1.618269,-3.090579,48.956024,0.041336,0.025009,0.978897,-0.065005,-0.011841,0.011297,59.012589,21.20755,-147.695038,,,
729608031.833773,1.59885,-3.094607,48.958864,0.041336,0.025009,0.978897,-0.065005,-0.011841,0.011297,59.012589,21.20755,-147.695038,,,
729608031.837024,1.59885,-3.094607,48.958864,0.041336,0.025009,0.978897,-0.065005,-0.011841,0.011297,58.80748,21.413986,-147.37204,,,
729608031.840364,1.579547,-3.098201,48.960486,0.048462,0.030548,0.98436,-0.061213,-0.012729,0.005198,58.80748,21.413986,-147.37204,,,
729608031.843719,1.560724,-3.102398,48.961415,0.048462,0.030548,0.98436,-0.061213,-0.012729,0.005198,58.80748,21.413986,-147.37204,,,
729608031.847057,1.560724,-3.102398,48.961415,0.048462,0.030548,0.98436,-0.061213,-0.012729,0.005198,58.80748,21.413986,-147.37204,,,
729608031.850391,1.541129,-3.104421,48.962089,0.050491,0.029648,0.986984,-0.067034,0.002841,0.003752,58.80748,21.413986,-147.37204,,,
729608031.85376,1.521327,-3.104446,48.962504,0.050491,0.029648,0.986984,-0.067034,0.002841,0.003752,58.80748,21.413986,-147.37204,,,
729608031.857097,1.521327,-3.104446,48.962504,0.050491,0.029648,0.986984,-0.067034,0.002841,0.003752,58.80748,21.413986,-147.37204,,,
729608031.860382,1.500285,-3.100674,48.963548,0.047577,0.023117,0.995132,-0.068634,0.022275,0.007128,58.80748,21.413986,-147.37204,,,
729608031.863758,1.479739,-3.094755,48.965609,0.047577,0.023117,0.995132,-0.068634,0.022275,0.007128,58.80748,21.413986,-147.37204,,,
729608031.867042,1.479739,-3.094755,48.965609,0.047577,0.023117,0.995132,-0.068634,0.022275,0.007128,58.80748,21.413986,-147.37204,,,
729608031.870443,1.459937,-3.086924,48.967996,0.047943,0.018799,1.000732,-0.0622,0.02817,0.011834,58.80748,21.413986,-147.37204,,,
729608031.873725,1.441841,-3.080216,48.970355,0.047943,0.018799,1.000732,-0.0622,0.02817,0.011834,58.80748,21.413986,-147.37204,,,
729608031.87705,1.441841,-3.080216,48.970355,0.047943,0.018799,1.000732,-0.0622,0.02817,0.011834,58.80748,21.413986,-147.37204,,,
729608031.880366,1.425265,-3.071979,48.973223,0.048431,0.017654,1.003616,-0.050054,0.028843,0.0129,58.74736,21.516891,-147.636749,,,
729608031.883725,1.410818,-3.064899,48.977298,0.048431,0.017654,1.003616,-0.050054,0.028843,0.0129,58.74736,21.516891,-147.636749,,,
729608031.886822,1.410818,-3.064899,48.977298,0.048431,0.017654,1.003616,-0.050054,0.028843,0.0129,58.74736,21.516891,-147.636749,,,
729608031.890395,1.399534,-3.057018,48.982212,0.043137,0.016647,1.015961,-0.032476,0.022211,0.02047,58.74736,21.516891,-147.636749,,,
729608031.893731,1.390337,-3.052867,48.988049,0.043137,0.016647,1.015961,-0.032476,0.022211,0.02047,58.74736,21.516891,-147.636749,,,
729608031.897105,1.390337,-3.052867,48.988049,0.043137,0.016647,1.015961,-0.032476,0.022211,0.02047,58.74736,21.516891,-147.636749,,,
729608031.900371,1.384066,-3.050613,48.994293,0.047745,0.016159,1.017197,-0.012846,-0.000717,0.020483,58.74736,21.516891,-147.636749,,,
729608031.903741,1.379817,-3.052449,49.000245,0.047745,0.016159,1.017197,-0.012846,-0.000717,0.020483,58.74736,21.516891,-147.636749,,,
729608031.90679,1.379817,-3.052449,49.000245,0.047745,0.016159,1.017197,-0.012846,-0.000717,0.020483,58.74736,21.516891,-147.636749,,,
729608031.910394,1.37642,-3.053784,49.005033,0.055603,0.020279,1.012207,-0.008555,-0.015477,0.014253,58.74736,21.516891,-147.636749,,,
729608031.913769,1.373262,-3.059707,49.008273,0.055603,0.020279,1.012207,-0.008555,-0.015477,0.014253,58.74736,21.516891,-147.636749,,,
729608031.917036,1.373262,-3.059707,49.008273,0.055603,0.020279,1.012207,-0.008555,-0.015477,0.014253,58.74736,21.516891,-147.636749,,,
729608031.920426,1.371519,-3.066675,49.010174,0.063171,0.025467,1.009003,-0.005319,-0.032828,0.001748,58.886505,21.486938,-147.629227,,,
729608031.923764,1.369669,-3.077226,49.010863,0.063171,0.025467,1.009003,-0.005319,-0.032828,0.001748,58.886505,21.486938,-147.629227,,,
729608031.927039,1.369669,-3.077226,49.010863,0.063171,0.025467,1.009003,-0.005319,-0.032828,0.001748,58.886505,21.486938,-147.629227,,,
729608031.930379,1.369605,-3.089021,49.010257,0.070389,0.028305,1.006882,-0.004131,-0.043673,-0.006244,58.886505,21.486938,-147.629227,,,
729608031.933754,1.36808,-3.102053,49.008221,0.070389,0.028305,1.006882,-0.004131,-0.043673,-0.006244,58.886505,21.486938,-147.629227,,,
729608031.937031,1.36808,-3.102053,49.008221,0.070389,0.028305,1.006882,-0.004131,-0.043673,-0.006244,58.886505,21.486938,-147.629227,,,
729608031.940366,1.366776,-3.114112,49.004631,0.073776,0.029099,1.005493,-0.007557,-0.042434,-0.017261,58.886505,21.486938,-147.629227,,,
729608031.943736,1.364975,-3.126457,48.999385,0.073776,0.029099,1.005493,-0.007557,-0.042434,-0.017261,58.886505,21.486938,-147.629227,,,
729608031.947081,1.364975,-3.126457,48.999385,0.073776,0.029099,1.005493,-0.007557,-0.042434,-0.017261,58.886505,21.486938,-147.629227,,,
729608031.950357,1.362452,-3.136299,48.992516,0.077011,0.027786,1.006973,-0.005814,-0.033227,-0.02711,58.886505,21.486938,-147.629227,,,
729608031.953736,1.361284,-3.146221,48.984913,0.077011,0.027786,1.006973,-0.005814,-0.033227,-0.02711,58.886505,21.486938,-147.629227,,,
729608031.957029,1.361284,-3.146221,48.984913,0.077011,0.027786,1.006973,-0.005814,-0.033227,-0.02711,58.886505,21.486938,-147.629227,,,
729608031.960378,1.360395,-3.153855,48.976816,0.074448,0.024994,1.009583,0.006866,-0.026861,-0.030253,58.737015,21.61235,-147.301514,,,
729608031.963762,1.362467,-3.16228,48.968351,0.074448,0.024994,1.009583,0.006866,-0.026861,-0.030253,58.737015,21.61235,-147.301514,,,
729608031.967041,1.362467,-3.16228,48.968351,0.074448,0.024994,1.009583,0.006866,-0.026861,-0.030253,58.737015,21.61235,-147.301514,,,
729608031.970367,1.365202,-3.168293,48.960733,0.066147,0.02034,1.012924,0.019285,-0.025495,-0.024854,58.737015,21.61235,-147.301514,,,
729608031.973779,1.370701,-3.175864,48.953951,0.066147,0.02034,1.012924,0.019285,-0.025495,-0.024854,58.737015,21.61235,-147.301514,,,
729608031.977029,1.370701,-3.175864,48.953951,0.066147,0.02034,1.012924,0.019285,-0.025495,-0.024854,58.737015,21.61235,-147.301514,,,
729608031.980363,1.37606,-3.181065,48.947678,0.058685,0.020844,1.013626,0.029317,-0.021256,-0.021854,58.737015,21.61235,-147.301514,,,
729608031.983709,1.37606,-3.186841,48.942793,0.058685,0.020844,1.013626,0.029317,-0.021256,-0.021854,58.737015,21.61235,-147.301514,,,
729608031.987121,1.385273,-3.186841,48.942793,0.058685,0.020844,1.013626,0.029317,-0.021256,-0.021854,58.737015,21.61235,-147.301514,,,
729608031.990446,1.395247,-3.189619,48.93904,0.053909,0.019104,1.015533,0.04221,-0.000376,-0.014989,58.737015,21.61235,-147.301514,,,
729608031.993685,1.395247,-3.189619,48.93904,0.053909,0.019104,1.015533,0.04221,-0.000376,-0.014989,58.737015,21.61235,-147.301514,,,
729608031.997053,1.407531,-3.189589,48.936494,0.053909,0.019104,1.015533,0.04221,-0.000376,-0.014989,58.737015,21.61235,-147.301514,,,
729608032.000366,1.420907,-3.185161,48.934452,0.053482,0.017181,1.012009,0.049022,0.034407,-0.007538,58.819885,21.450211,-147.294754,,,
729608032.003721,1.420907,-3.185161,48.932914,0.053482,0.017181,1.012009,0.049022,0.034407,-0.007538,58.819885,21.450211,-147.294754,,,
729608032.007056,1.434916,-3.174297,48.932914,0.053482,0.017181,1.012009,0.049022,0.034407,-0.007538,58.819885,21.450211,-147.294754,,,
729608032.01036,1.449733,-3.160587,48.9322,0.053757,0.017609,1.012146,0.051097,0.065515,-0.00564,58.819885,21.450211,-147.294754,,,
729608032.01381,1.464335,-3.142692,48.931963,0.053757,0.017609,1.012146,0.051097,0.065515,-0.00564,58.819885,21.450211,-147.294754,,,
729608032.017043,1.464335,-3.142692,48.931963,0.053757,0.017609,1.012146,0.051097,0.065515,-0.00564,58.819885,21.450211,-147.294754,,,
729608032.020373,1.479462,-3.128402,48.932851,0.050247,0.022705,1.004654,0.052953,0.058526,-0.000893,58.819885,21.450211,-147.294754,,,
729608032.023701,1.479462,-3.128402,48.932851,0.050247,0.022705,1.004654,0.052953,0.058526,-0.000893,58.819885,21.450211,-147.294754,,,
729608032.027099,1.493942,-3.113229,48.934276,0.050247,0.022705,1.004654,0.052953,0.058526,-0.000893,58.819885,21.450211,-147.294754,,,
729608032.030366,1.507898,-3.103923,48.935165,0.040588,0.023712,0.993134,0.046865,0.040505,-0.003212,58.819885,21.450211,-147.294754,,,
729608032.033721,1.507898,-3.103923,48.935165,0.040588,0.023712,0.993134,0.046865,0.040505,-0.003212,58.819885,21.450211,-147.294754,,,
729608032.037043,1.52118,-3.094818,48.935234,0.040588,0.023712,0.993134,0.046865,0.040505,-0.003212,58.819885,21.450211,-147.294754,,,
729608032.040372,1.534449,-3.093769,48.934539,0.045807,0.025085,0.988297,0.043639,0.005574,-0.009373,58.819885,21.450211,-147.294754,,,
729608032.043722,1.534449,-3.093769,48.934539,0.045807,0.025085,0.988297,0.043639,0.005574,-0.009373,58.783554,21.254349,-147.490601,,,
729608032.047059,1.546883,-3.094132,48.932763,0.045807,0.025085,0.988297,0.043639,0.005574,-0.009373,58.783554,21.254349,-147.490601,,,
729608032.05037,1.556588,-3.100049,48.931168,0.045837,0.027954,0.980682,0.035253,-0.014098,-0.008745,58.783554,21.254349,-147.490601,,,
729608032.05375,1.556588,-3.100049,48.931168,0.045837,0.027954,0.980682,0.035253,-0.014098,-0.008745,58.783554,21.254349,-147.490601,,,
729608032.057055,1.565915,-3.104856,48.929719,0.045837,0.027954,0.980682,0.035253,-0.014098,-0.008745,58.783554,21.254349,-147.490601,,,
729608032.060378,1.572165,-3.111459,48.928343,0.043655,0.026932,0.984283,0.024341,-0.018302,-0.004092,58.783554,21.254349,-147.490601,,,
729608032.063717,1.572165,-3.111459,48.928343,0.043655,0.026932,0.984283,0.024341,-0.018302,-0.004092,58.783554,21.254349,-147.490601,,,
729608032.067101,1.578042,-3.116699,48.927154,0.043655,0.026932,0.984283,0.024341,-0.018302,-0.004092,58.783554,21.254349,-147.490601,,,
729608032.07037,1.58052,-3.120533,48.926128,0.051407,0.031372,0.986465,0.009917,-0.004693,-0.004482,58.783554,21.254349,-147.490601,,,
729608032.073726,1.58052,-3.120533,48.926128,0.051407,0.031372,0.986465,0.009917,-0.004693,-0.004482,58.783554,21.254349,-147.490601,,,
729608032.077072,1.582371,-3.12154,48.924974,0.051407,0.031372,0.986465,0.009917,-0.004693,-0.004482,58.783554,21.254349,-147.490601,,,
729608032.080373,1.580176,-3.11943,48.924188,0.05101,0.033859,0.984924,-0.003359,0.016197,-0.001172,58.783554,21.254349,-147.490601,,,
729608032.083722,1.580176,-3.11943,48.924188,0.05101,0.033859,0.984924,-0.003359,0.016197,-0.001172,58.992065,21.098724,-147.333618,,,
729608032.087063,1.578454,-3.115854,48.924659,0.05101,0.033859,0.984924,-0.003359,0.016197,-0.001172,58.992065,21.098724,-147.333618,,,
729608032.090375,1.574183,-3.110463,48.926604,0.045547,0.030075,0.986618,-0.004816,0.028044,0.011397,58.992065,21.098724,-147.333618,,,
729608032.093764,1.574183,-3.110463,48.926604,0.045547,0.030075,0.986618,-0.004816,0.028044,0.011397,58.992065,21.098724,-147.333618,,,
729608032.097053,1.572586,-3.102459,48.93057,0.045547,0.030075,0.986618,-0.004816,0.028044,0.011397,58.992065,21.098724,-147.333618,,,
729608032.100372,1.570473,-3.091235,48.936655,0.043457,0.021454,0.994751,0.000426,0.047282,0.023449,58.992065,21.098724,-147.333618,,,
729608032.103729,1.570473,-3.091235,48.936655,0.043457,0.021454,0.994751,0.000426,0.047282,0.023449,58.992065,21.098724,-147.333618,,,
729608032.107104,1.571129,-3.079275,48.944605,0.043457,0.021454,0.994751,0.000426,0.047282,0.023449,58.992065,21.098724,-147.333618,,,
729608032.110365,1.57204,-3.067335,48.953821,0.044998,0.019424,0.995117,0.008842,0.033238,0.030802,58.992065,21.098724,-147.333618,,,
729608032.113716,1.57204,-3.067335,48.953821,0.044998,0.019424,0.995117,0.008842,0.033238,0.030802,58.992065,21.098724,-147.333618,,,
729608032.117056,1.573706,-3.059611,48.963702,0.044998,0.019424,0.995117,0.008842,0.033238,0.030802,58.992065,21.098724,-147.333618,,,
729608032.12037,1.57329,-3.050526,48.972601,0.043365,0.021973,0.987518,-0.006196,0.026438,0.02762,58.992065,21.098724,-147.333618,,,
729608032.123706,1.57329,-3.050526,48.972601,0.043365,0.021973,0.987518,-0.006196,0.026438,0.02762,59.109848,21.451447,-147.312149,,,
729608032.127055,1.570298,-3.044346,48.980224,0.043365,0.021973,0.987518,-0.006196,0.026438,0.02762,59.109848,21.451447,-147.312149,,,
729608032.130372,1.564142,-3.039145,48.987722,0.042755,0.027405,0.985565,-0.024535,0.010426,0.023532,59.109848,21.451447,-147.312149,,,
729608032.133755,1.564142,-3.039145,48.987722,0.042755,0.027405,0.985565,-0.024535,0.010426,0.023532,59.109848,21.451447,-147.312149,,,
729608032.137045,1.555515,-3.037401,48.994813,0.042755,0.027405,0.985565,-0.024535,0.010426,0.023532,59.109848,21.451447,-147.312149,,,
729608032.140373,1.545677,-3.037288,49.001646,0.045166,0.026367,0.985306,-0.032797,-0.011889,0.024609,59.109848,21.451447,-147.312149,,,
729608032.143704,1.545677,-3.037288,49.001646,0.045166,0.026367,0.985306,-0.032797,-0.011889,0.024609,59.109848,21.451447,-147.312149,,,
729608032.147123,1.53603,-3.041765,49.008556,0.045166,0.026367,0.985306,-0.032797,-0.011889,0.024609,59.109848,21.451447,-147.312149,,,
729608032.150357,1.527314,-3.046967,49.01437,0.052536,0.025452,0.994186,-0.028485,-0.019193,0.019177,59.109848,21.451447,-147.312149,,,
729608032.153715,1.527314,-3.046967,49.01437,0.052536,0.025452,0.994186,-0.028485,-0.019193,0.019177,59.109848,21.451447,-147.312149,,,
729608032.157041,1.519319,-3.053108,49.019087,0.052536,0.025452,0.994186,-0.028485,-0.019193,0.019177,59.109848,21.451447,-147.312149,,,
729608032.160369,1.5135,-3.058441,49.022076,0.062134,0.026962,1.001266,-0.019106,-0.01377,0.004189,59.109848,21.451447,-147.312149,,,
729608032.163698,1.5135,-3.058441,49.022076,0.062134,0.026962,1.001266,-0.019106,-0.01377,0.004189,58.993118,21.373398,-147.501053,,,
729608032.167046,1.507453,-3.062191,49.023294,0.062134,0.026962,1.001266,-0.019106,-0.01377,0.004189,58.993118,21.373398,-147.501053,,,
729608032.170364,1.50474,-3.06218,49.023975,0.064499,0.028015,1.00737,-0.007288,0.010232,0.00171,58.993118,21.373398,-147.501053,,,
729608032.173695,1.50474,-3.06218,49.023975,0.064499,0.028015,1.00737,-0.007288,0.010232,0.00171,58.993118,21.373398,-147.501053,,,
729608032.177051,1.502718,-3.058988,49.024952,0.064499,0.028015,1.00737,-0.007288,0.010232,0.00171,58.993118,21.373398,-147.501053,,,
729608032.18036,1.502955,-3.0493,49.026837,0.066223,0.025253,1.013046,0.011045,0.041447,0.008548,58.993118,21.373398,-147.501053,,,
729608032.18375,1.502955,-3.0493,49.026837,0.066223,0.025253,1.013046,0.011045,0.041447,0.008548,58.993118,21.373398,-147.501053,,,
729608032.187044,1.507178,-3.037381,49.029828,0.066223,0.025253,1.013046,0.011045,0.041447,0.008548,58.993118,21.373398,-147.501053,,,
729608032.190369,1.513864,-3.021351,49.033483,0.068054,0.022537,1.016998,0.036681,0.059538,0.010695,58.993118,21.373398,-147.501053,,,
729608032.19372,1.513864,-3.021351,49.033483,0.068054,0.022537,1.016998,0.036681,0.059538,0.010695,58.993118,21.373398,-147.501053,,,
729608032.19713,1.524663,-3.005417,49.036854,0.068054,0.022537,1.016998,0.036681,0.059538,0.010695,58.993118,21.373398,-147.501053,,,
729608032.200375,1.536015,-2.986811,49.038878,0.065323,0.030365,1.008926,0.049149,0.065214,-0.001971,58.993118,21.373398,-147.501053,,,
729608032.20371,1.536015,-2.986811,49.038878,0.065323,0.030365,1.008926,0.049149,0.065214,-0.001971,58.993118,21.373398,-147.501053,,,
729608032.207061,1.549735,-2.968918,49.0396,0.065323,0.030365,1.008926,0.049149,0.065214,-0.001971,59.103668,21.294525,-147.664352,,,
729608032.210371,1.563702,-2.949196,49.038828,0.05957,0.036575,0.999008,0.044562,0.065804,-0.011617,59.103668,21.294525,-147.664352,,,
729608032.213729,1.563702,-2.949196,49.038828,0.05957,0.036575,0.999008,0.044562,0.065804,-0.011617,59.103668,21.294525,-147.664352,,,
729608032.21705,1.576484,-2.931872,49.037049,0.05957,0.036575,0.999008,0.044562,0.065804,-0.011617,59.103668,21.294525,-147.664352,,,
729608032.220375,1.587362,-2.914951,49.034445,0.055008,0.038925,0.989975,0.033264,0.052776,-0.012216,59.103668,21.294525,-147.664352,,,
729608032.223813,1.587362,-2.914951,49.034445,0.055008,0.038925,0.989975,0.033264,0.052776,-0.012216,59.103668,21.294525,-147.664352,,,
729608032.227168,1.596381,-2.901215,49.031408,0.055008,0.038925,0.989975,0.033264,0.052776,-0.012216,59.103668,21.294525,-147.664352,,,
729608032.230372,1.60322,-2.889255,49.028168,0.053619,0.038162,0.980316,0.01808,0.03726,-0.013832,59.103668,21.294525,-147.664352,,,
729608032.233816,1.60322,-2.889255,49.028168,0.053619,0.038162,0.980316,0.01808,0.03726,-0.013832,59.103668,21.294525,-147.664352,,,
729608032.237054,1.608822,-2.879249,49.02381,0.053619,0.038162,0.980316,0.01808,0.03726,-0.013832,59.103668,21.294525,-147.664352,,,
729608032.240373,1.613024,-2.872325,49.018521,0.05307,0.041779,0.982407,0.016705,0.031262,-0.021435,59.103668,21.294525,-147.664352,,,
729608032.24373,1.613024,-2.872325,49.018521,0.05307,0.041779,0.982407,0.016705,0.031262,-0.021435,59.103668,21.294525,-147.664352,,,
729608032.247042,1.617789,-2.864906,49.013043,0.05307,0.041779,0.982407,0.016705,0.031262,-0.021435,59.140289,21.331375,-147.571335,,,
729608032.250378,1.62337,-2.861124,49.007784,0.05571,0.04068,0.991196,0.021798,0.02162,-0.021774,59.140289,21.331375,-147.571335,,,
729608032.253706,1.62337,-2.861124,49.007784,0.05571,0.04068,0.991196,0.021798,0.02162,-0.021774,59.140289,21.331375,-147.571335,,,
729608032.257132,1.629545,-2.856288,49.002773,0.05571,0.04068,0.991196,0.021798,0.02162,-0.021774,59.140289,21.331375,-147.571335,,,
729608032.26037,1.63529,-2.854846,48.99855,0.056931,0.03978,0.990173,0.02208,0.017312,-0.016939,59.140289,21.331375,-147.571335,,,
729608032.263725,1.63529,-2.854846,48.99855,0.056931,0.03978,0.990173,0.02208,0.017312,-0.016939,59.140289,21.331375,-147.571335,,,
729608032.267042,1.641009,-2.85048,48.995329,0.056931,0.03978,0.990173,0.02208,0.017312,-0.016939,59.140289,21.331375,-147.571335,,,
729608032.270405,1.644675,-2.8491,48.99296,0.054306,0.038605,0.997208,0.013734,0.016083,-0.007184,59.140289,21.331375,-147.571335,,,
729608032.273726,1.644675,-2.8491,48.99296,0.054306,0.038605,0.997208,0.013734,0.016083,-0.007184,59.140289,21.331375,-147.571335,,,
729608032.277044,1.64865,-2.844966,48.991513,0.054306,0.038605,0.997208,0.013734,0.016083,-0.007184,59.140289,21.331375,-147.571335,,,
729608032.280377,1.65236,-2.843487,48.990996,0.055679,0.038742,1.001572,0.016166,0.022282,-0.004041,59.140289,21.331375,-147.571335,,,
729608032.283698,1.65236,-2.843487,48.990996,0.055679,0.038742,1.001572,0.016166,0.022282,-0.004041,59.140289,21.331375,-147.571335,,,
729608032.287038,1.656669,-2.836902,48.990629,0.055679,0.038742,1.001572,0.016166,0.022282,-0.004041,59.368973,21.163055,-147.543793,,,
729608032.290369,1.662159,-2.829408,48.990169,0.058212,0.037048,1.013428,0.015993,0.043407,-0.0038,59.368973,21.163055,-147.543793,,,
729608032.293787,1.662159,-2.829408,48.990169,0.058212,0.037048,1.013428,0.015993,0.043407,-0.0038,59.368973,21.163055,-147.543793,,,
729608032.297043,1.667177,-2.817125,48.989577,0.058212,0.037048,1.013428,0.015993,0.043407,-0.0038,59.368973,21.163055,-147.543793,,,
729608032.300367,1.674585,-2.804149,48.988967,0.056274,0.035965,1.02037,0.022069,0.058806,-0.009288,59.368973,21.163055,-147.543793,,,
729608032.303713,1.674585,-2.804149,48.988967,0.056274,0.035965,1.02037,0.022069,0.058806,-0.009288,59.368973,21.163055,-147.543793,,,
729608032.307113,1.680618,-2.788205,48.987886,0.056274,0.035965,1.02037,0.022069,0.058806,-0.009288,59.368973,21.163055,-147.543793,,,
729608032.310358,1.688555,-2.771721,48.987132,0.049042,0.032822,1.020187,0.025988,0.067352,-0.003733,59.368973,21.163055,-147.543793,,,
729608032.313717,1.688555,-2.771721,48.987132,0.049042,0.032822,1.020187,0.025988,0.067352,-0.003733,59.368973,21.163055,-147.543793,,,
729608032.317047,1.695233,-2.753015,48.987075,0.049042,0.032822,1.020187,0.025988,0.067352,-0.003733,59.368973,21.163055,-147.543793,,,
729608032.320373,1.704829,-2.736252,48.988231,0.038345,0.0271,1.019424,0.030784,0.059615,0.003395,59.368973,21.163055,-147.543793,,,
729608032.323719,1.704829,-2.736252,48.988231,0.038345,0.0271,1.019424,0.030784,0.059615,0.003395,59.368973,21.163055,-147.543793,,,
729608032.32706,1.713022,-2.720932,48.990672,0.038345,0.0271,1.019424,0.030784,0.059615,0.003395,59.616562,21.135025,-147.574768,,,
729608032.330377,1.724139,-2.711011,48.993429,0.027832,0.021103,1.009781,0.032805,0.033113,0.007182,59.616562,21.135025,-147.574768,,,
729608032.3338,1.724139,-2.711011,48.993429,0.027832,0.021103,1.009781,0.032805,0.033113,0.007182,59.616562,21.135025,-147.574768,,,
729608032.337051,1.733357,-2.704843,48.996486,0.027832,0.021103,1.009781,0.032805,0.033113,0.007182,59.616562,21.135025,-147.574768,,,
729608032.340367,1.745115,-2.705766,49.000285,0.024445,0.018753,1.003052,0.039334,-0.008191,0.012912,59.616562,21.135025,-147.574768,,,
729608032.343716,1.745115,-2.705766,49.000285,0.024445,0.018753,1.003052,0.039334,-0.008191,0.012912,59.616562,21.135025,-147.574768,,,
729608032.34703,1.756063,-2.710595,49.004835,0.024445,0.018753,1.003052,0.039334,-0.008191,0.012912,59.616562,21.135025,-147.574768,,,
729608032.350378,1.769056,-2.722615,49.010052,0.026672,0.01886,1.001175,0.042982,-0.044375,0.015649,59.616562,21.135025,-147.574768,,,
729608032.353714,1.769056,-2.722615,49.010052,0.026672,0.01886,1.001175,0.042982,-0.044375,0.015649,59.616562,21.135025,-147.574768,,,
729608032.357061,1.781744,-2.737808,49.015483,0.026672,0.01886,1.001175,0.042982,-0.044375,0.015649,59.616562,21.135025,-147.574768,,,
729608032.360364,1.797269,-2.757588,49.02066,0.033722,0.019028,1.00444,0.055006,-0.06712,0.013966,59.616562,21.135025,-147.574768,,,
729608032.363719,1.797269,-2.757588,49.02066,0.033722,0.019028,1.00444,0.055006,-0.06712,0.013966,59.616562,21.135025,-147.574768,,,
729608032.367083,1.812975,-2.778178,49.025859,0.033722,0.019028,1.00444,0.055006,-0.06712,0.013966,59.616562,21.135025,-147.574768,,,
729608032.370384,1.832564,-2.801066,49.031645,0.045883,0.019379,1.006287,0.071589,-0.067247,0.014601,59.40451,21.113861,-147.542755,,,
