Time (sec),Pitch (deg),Roll (deg),Yaw(deg),X-Acceleration (g),Y-Acceleration (g),Z-Acceleration (g),Pitch Rate (deg/sec),Roll Rate (deg/sec),Yaw Rate (deg/sec),Magnetic Field in X direction (uT),Magnetic Field in Y direction (uT),Magnetic Field in Z Direction (uT),Latitude (deg),Longitude (deg),Altitude (m)
729607897.309935,0.65083,-0.755763,20.512837,0.009705,0.00354,1.005676,-0.05746,0.028096,-0.029601,62.31868,15.396896,-147.724976,,,
729607897.313257,0.635807,-0.749994,20.505873,0.00444,0.001968,1.003601,-0.053515,0.030105,-0.022722,62.31868,15.396896,-147.724976,,,
729607897.316659,0.635807,-0.749994,20.505873,0.00444,0.001968,1.003601,-0.053515,0.030105,-0.022722,62.31868,15.396896,-147.724976,,,
729607897.319937,0.620789,-0.742582,20.50006,0.00444,0.001968,1.003601,-0.053515,0.030105,-0.022722,62.31868,15.396896,-147.724976,,,
729607897.323312,0.607506,-0.738978,20.494613,0.00415,0.00354,0.996948,-0.042241,0.017571,-0.018849,62.31868,15.396896,-147.724976,,,
729607897.326577,0.607506,-0.738978,20.494613,0.00415,0.00354,0.996948,-0.042241,0.017571,-0.018849,62.31868,15.396896,-147.724976,,,
729607897.329996,0.595608,-0.735519,20.488977,0.00415,0.00354,0.996948,-0.042241,0.017571,-0.018849,62.31868,15.396896,-147.724976,,,
729607897.333235,0.584181,-0.737562,20.482685,0.009369,0.004501,0.996414,-0.037233,-0.00518,-0.027038,62.31868,15.396896,-147.724976,,,
729607897.336582,0.584181,-0.737562,20.482685,0.009369,0.004501,0.996414,-0.037233,-0.00518,-0.027038,62.31868,15.396896,-147.724976,,,
729607897.339978,0.574289,-0.741103,20.474589,0.009369,0.004501,0.996414,-0.037233,-0.00518,-0.027038,62.31868,15.396896,-147.724976,,,
729607897.343246,0.563541,-0.749206,20.464764,0.011597,0.010773,0.993271,-0.038737,-0.023587,-0.038654,62.31868,15.396896,-147.724976,,,
729607897.346585,0.563541,-0.749206,20.464764,0.011597,0.010773,0.993271,-0.038737,-0.023587,-0.038654,62.31868,15.396896,-147.724976,,,
729607897.349916,0.553118,-0.757386,20.453748,0.011597,0.010773,0.993271,-0.038737,-0.023587,-0.038654,62.437103,15.430298,-147.630646,,,
729607897.353251,0.540708,-0.767265,20.441981,0.010132,0.009766,0.992462,-0.044521,-0.027699,-0.040676,62.437103,15.430298,-147.630646,,,
729607897.35659,0.540708,-0.767265,20.441981,0.010132,0.009766,0.992462,-0.044521,-0.027699,-0.040676,62.437103,15.430298,-147.630646,,,
729607897.359922,0.528106,-0.77612,20.430737,0.010132,0.009766,0.992462,-0.044521,-0.027699,-0.040676,62.437103,15.430298,-147.630646,,,
729607897.363247,0.514014,-0.785116,20.420438,0.010269,0.003418,0.997055,-0.046565,-0.021508,-0.034754,62.437103,15.430298,-147.630646,,,
729607897.366644,0.514014,-0.785116,20.420438,0.010269,0.003418,0.997055,-0.046565,-0.021508,-0.034754,62.437103,15.430298,-147.630646,,,
729607897.369932,0.499967,-0.791772,20.411456,0.010269,0.003418,0.997055,-0.046565,-0.021508,-0.034754,62.437103,15.430298,-147.630646,,,
729607897.37332,0.484801,-0.797084,20.402649,0.009048,0.002441,0.999664,-0.053734,-0.007678,-0.031614,62.437103,15.430298,-147.630646,,,
729607897.376588,0.484801,-0.797084,20.402649,0.009048,0.002441,0.999664,-0.053734,-0.007678,-0.031614,62.437103,15.430298,-147.630646,,,
729607897.380015,0.46883,-0.798754,20.392833,0.009048,0.002441,0.999664,-0.053734,-0.007678,-0.031614,62.437103,15.430298,-147.630646,,,
729607897.383236,0.451402,-0.796755,20.38242,0.010101,0.00351,1.004684,-0.059405,0.01597,-0.035804,62.437103,15.430298,-147.630646,,,
729607897.386552,0.451402,-0.796755,20.38242,0.010101,0.00351,1.004684,-0.059405,0.01597,-0.035804,62.437103,15.430298,-147.630646,,,
729607897.389921,0.434595,-0.792598,20.371994,0.010101,0.00351,1.004684,-0.059405,0.01597,-0.035804,62.688416,15.285782,-147.621506,,,
729607897.393242,0.4179,-0.786986,20.362325,0.004211,0.002609,1.007111,-0.051577,0.019358,-0.03457,62.688416,15.285782,-147.621506,,,
729607897.396587,0.4179,-0.786986,20.362325,0.004211,0.002609,1.007111,-0.051577,0.019358,-0.03457,62.688416,15.285782,-147.621506,,,
729607897.39992,0.403352,-0.782679,20.353801,0.004211,0.002609,1.007111,-0.051577,0.019358,-0.03457,62.688416,15.285782,-147.621506,,,
729607897.403241,0.390286,-0.777294,20.346335,-0.003464,-0.001373,1.008469,-0.035859,0.016219,-0.024391,62.688416,15.285782,-147.621506,,,
729607897.406613,0.390286,-0.777294,20.346335,-0.003464,-0.001373,1.008469,-0.035859,0.016219,-0.024391,62.688416,15.285782,-147.621506,,,
729607897.409934,0.380494,-0.773993,20.33953,-0.003464,-0.001373,1.008469,-0.035859,0.016219,-0.024391,62.688416,15.285782,-147.621506,,,
729607897.41542,0.37252,-0.771646,20.333073,-0.007782,-0.00296,1.008774,-0.020235,0.006411,-0.023313,62.688416,15.285782,-147.621506,,,
729607897.416321,0.37252,-0.771646,20.333073,-0.007782,-0.00296,1.008774,-0.020235,0.006411,-0.023313,62.688416,15.285782,-147.621506,,,
729607897.419898,0.366955,-0.770852,20.326357,-0.007782,-0.00296,1.008774,-0.020235,0.006411,-0.023313,62.688416,15.285782,-147.621506,,,
729607897.423002,0.364029,-0.770676,20.319235,-0.006546,-0.001099,1.006592,-0.007406,-0.000917,-0.026756,62.688416,15.285782,-147.621506,,,
729607897.426636,0.364029,-0.770676,20.319235,-0.006546,-0.001099,1.006592,-0.007406,-0.000917,-0.026756,62.688416,15.285782,-147.621506,,,
729607897.429969,0.362682,-0.772254,20.31194,-0.006546,-0.001099,1.006592,-0.007406,-0.000917,-0.026756,62.688416,15.285782,-147.621506,,,
729607897.433237,0.36269,-0.774557,20.30485,-0.006241,-0.001175,1.00972,-0.002544,-0.007807,-0.023135,62.477188,15.32283,-147.940186,,,
729607897.436583,0.36269,-0.774557,20.30485,-0.006241,-0.001175,1.00972,-0.002544,-0.007807,-0.023135,62.477188,15.32283,-147.940186,,,
729607897.439965,0.361953,-0.777634,20.298867,-0.006241,-0.001175,1.00972,-0.002544,-0.007807,-0.023135,62.477188,15.32283,-147.940186,,,
729607897.443247,0.360854,-0.781118,20.294102,-0.011841,-0.001709,1.004654,-0.002588,-0.011598,-0.017026,62.477188,15.32283,-147.940186,,,
729607897.446587,0.360854,-0.781118,20.294102,-0.011841,-0.001709,1.004654,-0.002588,-0.011598,-0.017026,62.477188,15.32283,-147.940186,,,
729607897.449931,0.359946,-0.785566,20.290329,-0.011841,-0.001709,1.004654,-0.002588,-0.011598,-0.017026,62.477188,15.32283,-147.940186,,,
729607897.453252,0.358727,-0.789345,20.287744,-0.010147,-0.003448,1.004028,-0.004473,-0.010908,-0.005121,62.477188,15.32283,-147.940186,,,
729607897.456568,0.358727,-0.789345,20.287744,-0.010147,-0.003448,1.004028,-0.004473,-0.010908,-0.005121,62.477188,15.32283,-147.940186,,,
729607897.459912,0.357645,-0.793219,20.286491,-0.010147,-0.003448,1.004028,-0.004473,-0.010908,-0.005121,62.477188,15.32283,-147.940186,,,
729607897.46325,0.355673,-0.795956,20.286095,-0.001678,-0.00293,1.006271,-0.004145,-0.003826,0.000511,62.477188,15.32283,-147.940186,,,
729607897.466661,0.355673,-0.795956,20.286095,-0.001678,-0.00293,1.006271,-0.004145,-0.003826,0.000511,62.477188,15.32283,-147.940186,,,
729607897.469924,0.354497,-0.798305,20.286214,-0.001678,-0.00293,1.006271,-0.004145,-0.003826,0.000511,62.477188,15.32283,-147.940186,,,
729607897.473241,0.353562,-0.798433,20.286938,0.00441,-0.001785,1.004745,-0.001126,0.002945,0.004596,62.530701,15.339645,-147.706726,,,
729607897.476587,0.353562,-0.798433,20.286938,0.00441,-0.001785,1.004745,-0.001126,0.002945,0.004596,62.530701,15.339645,-147.706726,,,
729607897.479908,0.353216,-0.79762,20.287933,0.00441,-0.001785,1.004745,-0.001126,0.002945,0.004596,62.530701,15.339645,-147.706726,,,
729607897.483253,0.354314,-0.793493,20.288771,0.011688,0.000748,1.003189,0.013898,0.013691,0.001176,62.530701,15.339645,-147.706726,,,
729607897.48658,0.354314,-0.793493,20.288771,0.011688,0.000748,1.003189,0.013898,0.013691,0.001176,62.530701,15.339645,-147.706726,,,
729607897.490012,0.359746,-0.789976,20.289284,0.011688,0.000748,1.003189,0.013898,0.013691,0.001176,62.530701,15.339645,-147.706726,,,
729607897.493238,0.367887,-0.784407,20.289505,0.013199,0.003464,1.007614,0.04032,0.011319,-0.003515,62.530701,15.339645,-147.706726,,,
729607897.496591,0.367887,-0.784407,20.289505,0.013199,0.003464,1.007614,0.04032,0.011319,-0.003515,62.530701,15.339645,-147.706726,,,
729607897.499919,0.380118,-0.78262,20.289497,0.013199,0.003464,1.007614,0.04032,0.011319,-0.003515,62.530701,15.339645,-147.706726,,,
729607897.503247,0.392823,-0.778897,20.289263,0.012756,0.003174,1.001434,0.048536,0.006441,-0.002311,62.530701,15.339645,-147.706726,,,
729607897.506576,0.392823,-0.778897,20.289263,0.012756,0.003174,1.001434,0.048536,0.006441,-0.002311,62.530701,15.339645,-147.706726,,,
729607897.509927,0.406473,-0.777774,20.288931,0.012756,0.003174,1.001434,0.048536,0.006441,-0.002311,62.530701,15.339645,-147.706726,,,
729607897.513246,0.418099,-0.77434,20.288183,0.012894,0.00563,0.992844,0.038551,0.007411,-0.00445,62.514648,15.475784,-147.504059,,,
729607897.516654,0.418099,-0.77434,20.288183,0.012894,0.00563,0.992844,0.038551,0.007411,-0.00445,62.514648,15.475784,-147.504059,,,
729607897.519916,0.429036,-0.773513,20.286195,0.012894,0.00563,0.992844,0.038551,0.007411,-0.00445,62.514648,15.475784,-147.504059,,,
729607897.523249,0.437153,-0.771043,20.282811,0.017059,0.01442,0.987885,0.026584,-0.002554,-0.016522,62.514648,15.475784,-147.504059,,,
729607897.526587,0.437153,-0.771043,20.282811,0.017059,0.01442,0.987885,0.026584,-0.002554,-0.016522,62.514648,15.475784,-147.504059,,,
729607897.529983,0.444404,-0.773001,20.278053,0.017059,0.01442,0.987885,0.026584,-0.002554,-0.016522,62.514648,15.475784,-147.504059,,,
729607897.533244,0.447317,-0.772569,20.271378,0.019379,0.02066,0.979614,0.008008,-0.003077,-0.028415,62.514648,15.475784,-147.504059,,,
729607897.53658,0.447317,-0.772569,20.271378,0.019379,0.02066,0.979614,0.008008,-0.003077,-0.028415,62.514648,15.475784,-147.504059,,,
729607897.539919,0.448933,-0.774285,20.263536,0.019379,0.02066,0.979614,0.008008,-0.003077,-0.028415,62.514648,15.475784,-147.504059,,,
729607897.543246,0.44746,-0.772479,20.255135,0.016922,0.019073,0.983826,-0.004338,0.003547,-0.033831,62.514648,15.475784,-147.504059,,,
729607897.546584,0.44746,-0.772479,20.255135,0.016922,0.019073,0.983826,-0.004338,0.003547,-0.033831,62.514648,15.475784,-147.504059,,,
729607897.54992,0.445546,-0.772173,20.24639,0.016922,0.019073,0.983826,-0.004338,0.003547,-0.033831,62.514648,15.475784,-147.504059,,,
729607897.55327,0.441366,-0.770396,20.237386,0.01561,0.007721,0.987473,-0.010379,0.004212,-0.032148,62.467102,15.447083,-147.668365,,,
729607897.55658,0.441366,-0.770396,20.237386,0.01561,0.007721,0.987473,-0.010379,0.004212,-0.032148,62.467102,15.447083,-147.668365,,,
729607897.559931,0.437959,-0.77013,20.229294,0.01561,0.007721,0.987473,-0.010379,0.004212,-0.032148,62.467102,15.447083,-147.668365,,,
729607897.563284,0.433546,-0.769963,20.222651,0.012756,-0.002335,0.989059,-0.008281,-0.00138,-0.021301,62.467102,15.447083,-147.668365,,,
729607897.566586,0.433546,-0.769963,20.222651,0.012756,-0.002335,0.989059,-0.008281,-0.00138,-0.021301,62.467102,15.447083,-147.668365,,,
729607897.569973,0.431102,-0.771354,20.216847,0.012756,-0.002335,0.989059,-0.008281,-0.00138,-0.021301,62.467102,15.447083,-147.668365,,,
729607897.573239,0.42936,-0.774619,20.211357,0.006744,-0.006042,0.993347,0.001879,-0.017733,-0.020841,62.467102,15.447083,-147.668365,,,
729607897.576594,0.42936,-0.774619,20.211357,0.006744,-0.006042,0.993347,0.001879,-0.017733,-0.020841,62.467102,15.447083,-147.668365,,,
729607897.579923,0.430435,-0.780839,20.20562,0.006744,-0.006042,0.993347,0.001879,-0.017733,-0.020841,62.467102,15.447083,-147.668365,,,
729607897.583239,0.433554,-0.79001,20.199327,0.008972,-0.001114,0.995605,0.022677,-0.03351,-0.02551,62.467102,15.447083,-147.668365,,,
729607897.586577,0.433554,-0.79001,20.199327,0.008972,-0.001114,0.995605,0.022677,-0.03351,-0.02551,62.467102,15.447083,-147.668365,,,
729607897.589917,0.439846,-0.80056,20.191919,0.008972,-0.001114,0.995605,0.022677,-0.03351,-0.02551,62.467102,15.447083,-147.668365,,,
729607897.593246,0.449069,-0.810951,20.18367,0.013947,0.006119,1.001862,0.042128,-0.034212,-0.03305,62.467102,15.447083,-147.668365,,,
729607897.596671,0.449069,-0.810951,20.18367,0.013947,0.006119,1.001862,0.042128,-0.034212,-0.03305,62.624588,15.49263,-147.701172,,,
729607897.599923,0.461843,-0.820811,20.174636,0.013947,0.006119,1.001862,0.042128,-0.034212,-0.03305,62.624588,15.49263,-147.701172,,,
729607897.603249,0.477862,-0.828905,20.164684,0.022766,0.011261,1.003647,0.058862,-0.018672,-0.037466,62.624588,15.49263,-147.701172,,,
729607897.606606,0.477862,-0.828905,20.164684,0.022766,0.011261,1.003647,0.058862,-0.018672,-0.037466,62.624588,15.49263,-147.701172,,,
729607897.609967,0.494955,-0.834405,20.154508,0.022766,0.011261,1.003647,0.058862,-0.018672,-0.037466,62.624588,15.49263,-147.701172,,,
729607897.613243,0.512792,-0.837842,20.144441,0.02623,0.01236,1.000015,0.056366,0.001973,-0.037744,62.624588,15.49263,-147.701172,,,
729607897.616592,0.512792,-0.837842,20.144441,0.02623,0.01236,1.000015,0.056366,0.001973,-0.037744,62.624588,15.49263,-147.701172,,,
729607897.61997,0.528606,-0.837433,20.135125,0.02623,0.01236,1.000015,0.056366,0.001973,-0.037744,62.624588,15.49263,-147.701172,,,
729607897.623234,0.545268,-0.834177,20.12704,0.022202,0.011124,0.993011,0.051956,0.022654,-0.026419,62.624588,15.49263,-147.701172,,,
729607897.626591,0.545268,-0.834177,20.12704,0.022202,0.011124,0.993011,0.051956,0.022654,-0.026419,62.624588,15.49263,-147.701172,,,
729607897.629956,0.559683,-0.827112,20.120002,0.022202,0.011124,0.993011,0.051956,0.022654,-0.026419,62.624588,15.49263,-147.701172,,,
729607897.633231,0.574451,-0.817724,20.114359,0.020981,0.012344,0.992157,0.049704,0.040929,-0.013673,62.624588,15.49263,-147.701172,,,
729607897.636567,0.574451,-0.817724,20.114359,0.020981,0.012344,0.992157,0.049704,0.040929,-0.013673,62.601761,15.406509,-147.651047,,,
729607897.639925,0.588397,-0.80627,20.110282,0.020981,0.012344,0.992157,0.049704,0.040929,-0.013673,62.601761,15.406509,-147.651047,,,
729607897.643237,0.60005,-0.792764,20.106679,0.023682,0.015854,0.988174,0.04524,0.055247,-0.015899,62.601761,15.406509,-147.651047,,,
729607897.646639,0.60005,-0.792764,20.106679,0.023682,0.015854,0.988174,0.04524,0.055247,-0.015899,62.601761,15.406509,-147.651047,,,
729607897.649903,0.612478,-0.777413,20.102697,0.023682,0.015854,0.988174,0.04524,0.055247,-0.015899,62.601761,15.406509,-147.651047,,,
729607897.653228,0.622321,-0.760507,20.098234,0.025345,0.022934,0.990967,0.039613,0.059814,-0.019414,62.601761,15.406509,-147.651047,,,
729607897.656609,0.622321,-0.760507,20.098234,0.025345,0.022934,0.990967,0.039613,0.059814,-0.019414,62.601761,15.406509,-147.651047,,,
729607897.659971,0.63318,-0.745014,20.093116,0.025345,0.022934,0.990967,0.039613,0.059814,-0.019414,62.601761,15.406509,-147.651047,,,
729607897.663229,0.641247,-0.730727,20.087633,0.020096,0.026154,0.985626,0.03258,0.043887,-0.020824,62.601761,15.406509,-147.651047,,,
729607897.666593,0.641247,-0.730727,20.087633,0.020096,0.026154,0.985626,0.03258,0.043887,-0.020824,62.601761,15.406509,-147.651047,,,
729607897.669906,0.650031,-0.719294,20.08226,0.020096,0.026154,0.985626,0.03258,0.043887,-0.020824,62.601761,15.406509,-147.651047,,,
729607897.673248,0.657445,-0.710257,20.077185,0.012177,0.0242,0.985275,0.028986,0.026123,-0.017666,62.601761,15.406509,-147.651047,,,
729607897.676569,0.657445,-0.710257,20.077185,0.012177,0.0242,0.985275,0.028986,0.026123,-0.017666,62.53183,15.219254,-147.676544,,,
729607897.679903,0.665546,-0.704491,20.072383,0.012177,0.0242,0.985275,0.028986,0.026123,-0.017666,62.53183,15.219254,-147.676544,,,
729607897.683238,0.673911,-0.703016,20.067318,0.011337,0.021393,0.992538,0.035877,0.002797,-0.019849,62.53183,15.219254,-147.676544,,,
729607897.686623,0.673911,-0.703016,20.067318,0.011337,0.021393,0.992538,0.035877,0.002797,-0.019849,62.53183,15.219254,-147.676544,,,
729607897.68992,0.68396,-0.703429,20.061694,0.011337,0.021393,0.992538,0.035877,0.002797,-0.019849,62.53183,15.219254,-147.676544,,,
729607897.693244,0.694993,-0.707932,20.055534,0.011795,0.018845,0.999741,0.040722,-0.012838,-0.024941,62.53183,15.219254,-147.676544,,,
729607897.696645,0.694993,-0.707932,20.055534,0.011795,0.018845,0.999741,0.040722,-0.012838,-0.024941,62.53183,15.219254,-147.676544,,,
729607897.699912,0.706358,-0.712118,20.048824,0.011795,0.018845,0.999741,0.040722,-0.012838,-0.024941,62.53183,15.219254,-147.676544,,,
729607897.703244,0.717575,-0.718253,20.042453,0.011551,0.017899,1.003738,0.036518,-0.012648,-0.020293,62.53183,15.219254,-147.676544,,,
729607897.706592,0.717575,-0.718253,20.042453,0.011551,0.017899,1.003738,0.036518,-0.012648,-0.020293,62.53183,15.219254,-147.676544,,,
729607897.709989,0.727906,-0.722339,20.037772,0.011551,0.017899,1.003738,0.036518,-0.012648,-0.020293,62.53183,15.219254,-147.676544,,,
729607897.71324,0.738194,-0.725086,20.034978,0.013733,0.015182,1.00589,0.035035,0.00519,-0.007318,62.53183,15.219254,-147.676544,,,
729607897.716599,0.738194,-0.725086,20.034978,0.013733,0.015182,1.00589,0.035035,0.00519,-0.007318,62.53183,15.219254,-147.676544,,,
729607897.719944,0.748686,-0.724007,20.033384,0.013733,0.015182,1.00589,0.035035,0.00519,-0.007318,62.475616,15.041199,-147.547485,,,
729607897.723241,0.758727,-0.720968,20.032983,0.016418,0.014328,1.011307,0.033601,0.026427,0.001214,62.475616,15.041199,-147.547485,,,
729607897.726641,0.758727,-0.720968,20.032983,0.016418,0.014328,1.011307,0.033601,0.026427,0.001214,62.475616,15.041199,-147.547485,,,
729607897.729924,0.768279,-0.713849,20.033788,0.016418,0.014328,1.011307,0.033601,0.026427,0.001214,62.475616,15.041199,-147.547485,,,
729607897.733245,0.777714,-0.704974,20.035898,0.017075,0.014893,1.011002,0.02727,0.048285,0.007757,62.475616,15.041199,-147.547485,,,
729607897.736636,0.777714,-0.704974,20.035898,0.017075,0.014893,1.011002,0.02727,0.048285,0.007757,62.475616,15.041199,-147.547485,,,
729607897.73993,0.785067,-0.691387,20.038707,0.017075,0.014893,1.011002,0.02727,0.048285,0.007757,62.475616,15.041199,-147.547485,,,
729607897.743237,0.793781,-0.677314,20.041792,0.014282,0.015076,1.01123,0.026097,0.057698,0.008979,62.475616,15.041199,-147.547485,,,
729607897.746599,0.793781,-0.677314,20.041792,0.014282,0.015076,1.01123,0.026097,0.057698,0.008979,62.475616,15.041199,-147.547485,,,
729607897.749985,0.801144,-0.662216,20.044521,0.014282,0.015076,1.01123,0.026097,0.057698,0.008979,62.475616,15.041199,-147.547485,,,
729607897.753248,0.810053,-0.649153,20.04636,0.013397,0.016739,1.006516,0.030504,0.044414,0.001582,62.475616,15.041199,-147.547485,,,
729607897.756604,0.810053,-0.649153,20.04636,0.013397,0.016739,1.006516,0.030504,0.044414,0.001582,62.475616,15.041199,-147.547485,,,
729607897.759932,0.818328,-0.63813,20.047412,0.013397,0.016739,1.006516,0.030504,0.044414,0.001582,62.741547,15.022629,-147.593185,,,
729607897.763242,0.828239,-0.630331,20.047644,0.010925,0.016312,1.003525,0.032608,0.022922,-0.002262,62.741547,15.022629,-147.593185,,,
729607897.766585,0.828239,-0.630331,20.047644,0.010925,0.016312,1.003525,0.032608,0.022922,-0.002262,62.741547,15.022629,-147.593185,,,
729607897.769916,0.837743,-0.626149,20.047414,0.010925,0.016312,1.003525,0.032608,0.022922,-0.002262,62.741547,15.022629,-147.593185,,,
729607897.773237,0.848812,-0.626132,20.046062,0.007675,0.013412,1.006485,0.040897,-0.009369,-0.013174,62.741547,15.022629,-147.593185,,,
729607897.776642,0.848812,-0.626132,20.046062,0.007675,0.013412,1.006485,0.040897,-0.009369,-0.013174,62.741547,15.022629,-147.593185,,,
729607897.779922,0.861121,-0.631066,20.042957,0.007675,0.013412,1.006485,0.040897,-0.009369,-0.013174,62.741547,15.022629,-147.593185,,,
729607897.783275,0.874776,-0.641097,20.038696,0.00618,0.011536,1.006897,0.046342,-0.041509,-0.018429,62.741547,15.022629,-147.593185,,,
729607897.786566,0.874776,-0.641097,20.038696,0.00618,0.011536,1.006897,0.046342,-0.041509,-0.018429,62.741547,15.022629,-147.593185,,,
729607897.789991,0.888143,-0.654305,20.033442,0.00618,0.011536,1.006897,0.046342,-0.041509,-0.018429,62.741547,15.022629,-147.593185,,,
729607897.793232,0.901588,-0.668661,20.028155,0.006653,0.00885,1.004822,0.048833,-0.047736,-0.018268,62.741547,15.022629,-147.593185,,,
729607897.796583,0.901588,-0.668661,20.028155,0.006653,0.00885,1.004822,0.048833,-0.047736,-0.018268,62.741547,15.022629,-147.593185,,,
729607897.799926,0.915333,-0.682583,20.023787,0.006653,0.00885,1.004822,0.048833,-0.047736,-0.018268,62.777969,14.826553,-147.746964,,,
729607897.803237,0.928566,-0.697015,20.020493,0.008621,0.005356,1.011444,0.045943,-0.047315,-0.011699,62.777969,14.826553,-147.746964,,,
729607897.806598,0.928566,-0.697015,20.020493,0.008621,0.005356,1.011444,0.045943,-0.047315,-0.011699,62.777969,14.826553,-147.746964,,,
729607897.809913,0.94146,-0.712042,20.01869,0.008621,0.005356,1.011444,0.045943,-0.047315,-0.011699,62.777969,14.826553,-147.746964,,,
729607897.813249,0.9543,-0.727833,20.017603,0.01088,0.004471,1.00914,0.046839,-0.046237,-0.006164,62.777969,14.826553,-147.746964,,,
729607897.816643,0.9543,-0.727833,20.017603,0.01088,0.004471,1.00914,0.046839,-0.046237,-0.006164,62.777969,14.826553,-147.746964,,,
729607897.819914,0.967109,-0.74176,20.016329,0.01088,0.004471,1.00914,0.046839,-0.046237,-0.006164,62.777969,14.826553,-147.746964,,,
729607897.823292,0.980479,-0.75412,20.014731,0.011749,0.00679,1.011124,0.050226,-0.033139,-0.008995,62.777969,14.826553,-147.746964,,,
729607897.826633,0.980479,-0.75412,20.014731,0.011749,0.00679,1.011124,0.050226,-0.033139,-0.008995,62.777969,14.826553,-147.746964,,,
729607897.829921,0.995438,-0.764641,20.01267,0.011749,0.00679,1.011124,0.050226,-0.033139,-0.008995,62.777969,14.826553,-147.746964,,,
729607897.833339,1.011652,-0.774028,20.010094,0.013733,0.006256,1.018906,0.065087,-0.024136,-0.011212,62.777969,14.826553,-147.746964,,,
729607897.836592,1.011652,-0.774028,20.010094,0.013733,0.006256,1.018906,0.065087,-0.024136,-0.011212,62.777969,14.826553,-147.746964,,,
729607897.839936,1.030074,-0.782194,20.007162,0.013733,0.006256,1.018906,0.065087,-0.024136,-0.011212,62.654099,14.829987,-147.597763,,,
729607897.843309,1.050634,-0.789255,20.004296,0.01059,0.005249,1.021423,0.079745,-0.0185,-0.01297,62.654099,14.829987,-147.597763,,,
729607897.846608,1.050634,-0.789255,20.004296,0.01059,0.005249,1.021423,0.079745,-0.0185,-0.01297,62.654099,14.829987,-147.597763,,,
729607897.849934,1.07393,-0.794385,20.00147,0.01059,0.005249,1.021423,0.079745,-0.0185,-0.01297,62.654099,14.829987,-147.597763,,,
729607897.853231,1.07393,-0.794385,20.00147,0.01059,0.005249,1.021423,0.097153,0.011542,-0.017146,62.654099,14.829987,-147.597763,,,
729607897.856594,1.099391,-0.794808,19.998103,0.005234,0.003784,1.0242,0.097153,0.011542,-0.017146,62.654099,14.829987,-147.597763,,,
729607897.859909,1.127994,-0.793089,19.994287,0.005234,0.003784,1.0242,0.097153,0.011542,-0.017146,62.654099,14.829987,-147.597763,,,
729607897.863316,1.156888,-0.7924,19.990299,0.002838,0.007309,1.027344,0.101303,-0.00427,-0.0165,62.654099,14.829987,-147.597763,,,
729607897.866588,1.156888,-0.7924,19.990299,0.002838,0.007309,1.027344,0.101303,-0.00427,-0.0165,62.654099,14.829987,-147.597763,,,
729607897.869916,1.185869,-0.794584,19.986457,0.002838,0.007309,1.027344,0.101303,-0.00427,-0.0165,62.654099,14.829987,-147.597763,,,
729607897.873346,1.212712,-0.795604,19.983346,0.000595,0.011978,0.998047,0.094473,0.002768,-0.008866,62.654099,14.829987,-147.597763,,,
729607897.87658,1.212712,-0.795604,19.983346,0.000595,0.011978,0.998047,0.094473,0.002768,-0.008866,62.654099,14.829987,-147.597763,,,
729607897.879907,1.239065,-0.795129,19.981333,0.000595,0.011978,0.998047,0.094473,0.002768,-0.008866,62.654099,14.829987,-147.597763,,,
729607897.883279,1.239065,-0.792979,19.980535,-0.001816,0.01564,1.005798,0.076615,0.004557,-0.003699,62.590561,14.692337,-147.703445,,,
729607897.886572,1.2614,-0.792979,19.980535,-0.001816,0.01564,1.005798,0.076615,0.004557,-0.003699,62.590561,14.692337,-147.703445,,,
729607897.889926,1.28303,-0.792769,19.980475,-0.001816,0.01564,1.005798,0.076615,0.004557,-0.003699,62.590561,14.692337,-147.703445,,,
729607897.893269,1.28303,-0.792769,19.980475,-0.001816,0.01564,1.005798,0.064651,0.005105,0.001025,62.590561,14.692337,-147.703445,,,
729607897.896636,1.3007,-0.792584,19.981153,0.000931,0.021973,0.99559,0.064651,0.005105,0.001025,62.590561,14.692337,-147.703445,,,
729607897.899912,1.318897,-0.790798,19.983047,0.000931,0.021973,0.99559,0.064651,0.005105,0.001025,62.590561,14.692337,-147.703445,,,
729607897.903216,1.318897,-0.790798,19.983047,0.00676,0.025024,1.00209,0.061934,0.025531,0.001173,62.590561,14.692337,-147.703445,,,
729607897.906597,1.334264,-0.785527,19.984998,0.00676,0.025024,1.00209,0.061934,0.025531,0.001173,62.590561,14.692337,-147.703445,,,
729607897.909977,1.351623,-0.778933,19.986032,0.00676,0.025024,1.00209,0.061934,0.025531,0.001173,62.590561,14.692337,-147.703445,,,
729607897.913305,1.351623,-0.778933,19.986032,0.00676,0.025024,1.00209,0.065087,0.017116,-0.007894,62.590561,14.692337,-147.703445,,,
729607897.916567,1.36792,-0.773602,19.986031,0.011963,0.031174,1.005127,0.065087,0.017116,-0.007894,62.590561,14.692337,-147.703445,,,
729607897.919876,1.387444,-0.770941,19.984997,0.011963,0.031174,1.005127,0.065087,0.017116,-0.007894,62.590561,14.692337,-147.703445,,,
729607897.92331,1.406181,-0.770278,19.983761,0.013123,0.031067,0.994522,0.076341,0.001321,-0.007592,62.681305,14.417374,-147.587479,,,
729607897.926615,1.406181,-0.770278,19.983761,0.013123,0.031067,0.994522,0.076341,0.001321,-0.007592,62.681305,14.417374,-147.587479,,,
729607897.92993,1.427999,-0.771332,19.982662,0.013123,0.031067,0.994522,0.076341,0.001321,-0.007592,62.681305,14.417374,-147.587479,,,
729607897.93326,1.427999,-0.771332,19.982662,0.013123,0.031067,0.994522,0.076341,0.001321,-0.007592,62.681305,14.417374,-147.587479,,,
729607897.936553,1.446909,-0.772718,19.981467,0.009811,0.02951,0.991913,0.074591,-0.006125,-0.004947,62.681305,14.417374,-147.587479,,,
729607897.939911,1.467388,-0.776491,19.980514,0.009811,0.02951,0.991913,0.074591,-0.006125,-0.004947,62.681305,14.417374,-147.587479,,,
729607897.943247,1.467388,-0.776491,19.980514,0.009811,0.02951,0.991913,0.073894,-0.023841,-0.00983,62.681305,14.417374,-147.587479,,,
729607897.946659,1.485618,-0.781161,19.978991,0.015091,0.032761,0.981979,0.073894,-0.023841,-0.00983,62.681305,14.417374,-147.587479,,,
729607897.949943,1.506038,-0.788842,19.976187,0.015091,0.032761,0.981979,0.073894,-0.023841,-0.00983,62.681305,14.417374,-147.587479,,,
729607897.953324,1.506038,-0.788842,19.976187,0.015091,0.032761,0.981979,0.065278,-0.036604,-0.019817,62.681305,14.417374,-147.587479,,,
729607897.956582,1.523562,-0.796986,19.971969,0.021194,0.038666,0.978638,0.065278,-0.036604,-0.019817,62.681305,14.417374,-147.587479,,,
729607897.959994,1.541381,-0.807682,19.966569,0.021194,0.038666,0.978638,0.065278,-0.036604,-0.019817,62.681305,14.417374,-147.587479,,,
729607897.963298,1.541381,-0.807682,19.966569,0.021194,0.038666,0.978638,0.065278,-0.036604,-0.019817,62.57869,14.343567,-147.521439,,,
729607897.966595,1.554618,-0.816201,19.960144,0.020782,0.038025,0.976151,0.045968,-0.03158,-0.025339,62.57869,14.343567,-147.521439,,,
729607897.969919,1.566966,-0.825298,19.953456,0.020782,0.038025,0.976151,0.045968,-0.03158,-0.025339,62.57869,14.343567,-147.521439,,,
729607897.973357,1.566966,-0.825298,19.953456,0.020782,0.038025,0.976151,0.03635,-0.019963,-0.024195,62.57869,14.343567,-147.521439,,,
729607897.976582,1.577016,-0.831345,19.94704,0.018372,0.032867,0.981567,0.03635,-0.019963,-0.024195,62.57869,14.343567,-147.521439,,,
729607897.979915,1.58726,-0.837384,19.940992,0.018372,0.032867,0.981567,0.03635,-0.019963,-0.024195,62.57869,14.343567,-147.521439,,,
729607897.98331,1.58726,-0.837384,19.940992,0.018372,0.032867,0.981567,0.03635,-0.019963,-0.024195,62.57869,14.343567,-147.521439,,,
729607897.986637,1.597501,-0.839149,19.935273,0.021362,0.028564,0.987167,0.041715,0.0016,-0.017699,62.57869,14.343567,-147.521439,,,
729607897.989907,1.609203,-0.838395,19.930029,0.021362,0.028564,0.987167,0.041715,0.0016,-0.017699,62.57869,14.343567,-147.521439,,,
729607897.993316,1.609203,-0.838395,19.930029,0.021362,0.028564,0.987167,0.041715,0.0016,-0.017699,62.57869,14.343567,-147.521439,,,
729607897.996577,1.621316,-0.83425,19.925529,0.020966,0.027893,0.996384,0.039096,0.02051,-0.016407,62.57869,14.343567,-147.521439,,,
729607897.999915,1.632695,-0.82845,19.921434,0.020966,0.027893,0.996384,0.039096,0.02051,-0.016407,62.57869,14.343567,-147.521439,,,
729607898.003342,1.632695,-0.82845,19.921434,0.020966,0.027893,0.996384,0.039096,0.02051,-0.016407,62.57869,14.343567,-147.521439,,,
729607898.006589,1.642728,-0.820882,19.917099,0.019592,0.028732,0.987656,0.030031,0.029873,-0.019157,62.542938,14.251038,-147.445129,,,
729607898.009904,1.651218,-0.813644,19.912334,0.019592,0.028732,0.987656,0.030031,0.029873,-0.019157,62.542938,14.251038,-147.445129,,,
729607898.01336,1.651218,-0.813644,19.912334,0.019592,0.028732,0.987656,0.030031,0.029873,-0.019157,62.542938,14.251038,-147.445129,,,
729607898.016584,1.659318,-0.807484,19.90673,0.01857,0.033463,0.984299,0.027427,0.014405,-0.022764,62.542938,14.251038,-147.445129,,,
729607898.019912,1.665212,-0.803805,19.900403,0.01857,0.033463,0.984299,0.027427,0.014405,-0.022764,62.542938,14.251038,-147.445129,,,
729607898.023286,1.665212,-0.803805,19.900403,0.01857,0.033463,0.984299,0.027427,0.014405,-0.022764,62.542938,14.251038,-147.445129,,,
729607898.026634,1.669437,-0.802222,19.893891,0.021332,0.035889,0.976807,0.011147,0.000895,-0.028086,62.542938,14.251038,-147.445129,,,
729607898.029898,1.672033,-0.80281,19.886824,0.021332,0.035889,0.976807,0.011147,0.000895,-0.028086,62.542938,14.251038,-147.445129,,,
729607898.03325,1.672033,-0.80281,19.886824,0.021332,0.035889,0.976807,0.011147,0.000895,-0.028086,62.542938,14.251038,-147.445129,,,
729607898.036529,1.674038,-0.804883,19.87921,0.016418,0.031509,0.976822,-0.001357,-0.002348,-0.029076,62.542938,14.251038,-147.445129,,,
729607898.03991,1.673392,-0.805592,19.871554,0.016418,0.031509,0.976822,-0.001357,-0.002348,-0.029076,62.542938,14.251038,-147.445129,,,
729607898.043288,1.673392,-0.805592,19.871554,0.016418,0.031509,0.976822,-0.001357,-0.002348,-0.029076,62.542938,14.251038,-147.445129,,,
729607898.046586,1.673332,-0.80604,19.863642,0.01593,0.027863,0.986465,-0.004617,0.009772,-0.032215,62.563721,14.229691,-147.555573,,,
729607898.049902,1.671915,-0.804308,19.854997,0.01593,0.027863,0.986465,-0.004617,0.009772,-0.032215,62.563721,14.229691,-147.555573,,,
729607898.053236,1.671915,-0.804308,19.854997,0.01593,0.027863,0.986465,-0.004617,0.009772,-0.032215,62.563721,14.229691,-147.555573,,,
729607898.056589,1.670438,-0.801779,19.84497,0.021866,0.029099,0.992554,-0.008122,0.016188,-0.039473,62.563721,14.229691,-147.555573,,,
729607898.05991,1.667282,-0.797914,19.833904,0.021866,0.029099,0.992554,-0.008122,0.016188,-0.039473,62.563721,14.229691,-147.555573,,,
729607898.063268,1.667282,-0.797914,19.833904,0.021866,0.029099,0.992554,-0.008122,0.016188,-0.039473,62.563721,14.229691,-147.555573,,,
729607898.066653,1.662552,-0.794096,19.822727,0.020172,0.029236,0.986084,-0.020779,0.019151,-0.039457,62.563721,14.229691,-147.555573,,,
729607898.0699,1.657083,-0.788827,19.811612,0.020172,0.029236,0.986084,-0.020779,0.019151,-0.039457,62.563721,14.229691,-147.555573,,,
729607898.073243,1.657083,-0.788827,19.811612,0.020172,0.029236,0.986084,-0.020779,0.019151,-0.039457,62.563721,14.229691,-147.555573,,,
729607898.07659,1.651585,-0.784691,19.800734,0.012253,0.026306,0.985947,-0.022067,0.015333,-0.040036,62.563721,14.229691,-147.555573,,,
729607898.079904,1.645044,-0.782761,19.789737,0.012253,0.026306,0.985947,-0.022067,0.015333,-0.040036,62.563721,14.229691,-147.555573,,,
729607898.083252,1.645044,-0.782761,19.789737,0.012253,0.026306,0.985947,-0.022067,0.015333,-0.040036,62.563721,14.229691,-147.555573,,,
729607898.086632,1.637614,-0.78496,19.77891,0.005264,0.025375,0.98317,-0.023909,-0.009784,-0.04028,62.766159,14.038162,-147.546402,,,
729607898.089997,1.630335,-0.788087,19.768354,0.005264,0.025375,0.98317,-0.023909,-0.009784,-0.04028,62.766159,14.038162,-147.546402,,,
729607898.093236,1.630335,-0.788087,19.768354,0.005264,0.025375,0.98317,-0.023909,-0.009784,-0.04028,62.766159,14.038162,-147.546402,,,
729607898.096604,1.623637,-0.791093,19.758178,0.000793,0.023163,0.991409,-0.023713,-0.005711,-0.033164,62.766159,14.038162,-147.546402,,,
729607898.099915,1.616986,-0.793799,19.748781,0.000793,0.023163,0.991409,-0.023713,-0.005711,-0.033164,62.766159,14.038162,-147.546402,,,
729607898.10329,1.616986,-0.793799,19.748781,0.000793,0.023163,0.991409,-0.023713,-0.005711,-0.033164,62.766159,14.038162,-147.546402,,,
729607898.10658,1.61041,-0.798426,19.74034,0.00589,0.022171,0.999435,-0.031825,-0.010638,-0.030993,62.766159,14.038162,-147.546402,,,
729607898.109922,1.602027,-0.801856,19.732341,0.00589,0.022171,0.999435,-0.031825,-0.010638,-0.030993,62.766159,14.038162,-147.546402,,,
729607898.113269,1.602027,-0.801856,19.732341,0.00589,0.022171,0.999435,-0.031825,-0.010638,-0.030993,62.766159,14.038162,-147.546402,,,
729607898.116615,1.59306,-0.802695,19.725463,0.008072,0.02298,0.99379,-0.035323,0.013295,-0.019547,62.766159,14.038162,-147.546402,,,
729607898.11989,1.581717,-0.798858,19.720156,0.008072,0.02298,0.99379,-0.035323,0.013295,-0.019547,62.766159,14.038162,-147.546402,,,
729607898.123318,1.581717,-0.798858,19.720156,0.008072,0.02298,0.99379,-0.035323,0.013295,-0.019547,62.766159,14.038162,-147.546402,,,
729607898.12669,1.568927,-0.79142,19.715467,0.004532,0.024902,1.002609,-0.049678,0.035935,-0.015084,62.663254,14.164795,-147.371033,,,
729607898.129923,1.554737,-0.782336,19.711475,0.004532,0.024902,1.002609,-0.049678,0.035935,-0.015084,62.663254,14.164795,-147.371033,,,
729607898.133285,1.554737,-0.782336,19.711475,0.004532,0.024902,1.002609,-0.049678,0.035935,-0.015084,62.663254,14.164795,-147.371033,,,
729607898.136633,1.539962,-0.773584,19.708033,0.002182,0.026764,0.996674,-0.052076,0.037852,-0.013131,62.663254,14.164795,-147.371033,,,
729607898.139914,1.524257,-0.764365,19.704556,0.002182,0.026764,0.996674,-0.052076,0.037852,-0.013131,62.663254,14.164795,-147.371033,,,
729607898.143321,1.524257,-0.764365,19.704556,0.002182,0.026764,0.996674,-0.052076,0.037852,-0.013131,62.663254,14.164795,-147.371033,,,
729607898.14659,1.508946,-0.756678,19.700684,0.001831,0.029434,0.993378,-0.051919,0.029976,-0.015221,62.663254,14.164795,-147.371033,,,
729607898.149906,1.494105,-0.748908,19.695662,0.001831,0.029434,0.993378,-0.051919,0.029976,-0.015221,62.663254,14.164795,-147.371033,,,
729607898.153261,1.494105,-0.748908,19.695662,0.001831,0.029434,0.993378,-0.051919,0.029976,-0.015221,62.663254,14.164795,-147.371033,,,
729607898.156644,1.480318,-0.743086,19.689173,0.006195,0.030167,0.994644,-0.043695,0.018609,-0.026295,62.663254,14.164795,-147.371033,,,
729607898.159907,1.468078,-0.739367,19.68173,0.006195,0.030167,0.994644,-0.043695,0.018609,-0.026295,62.663254,14.164795,-147.371033,,,
729607898.163263,1.468078,-0.739367,19.68173,0.006195,0.030167,0.994644,-0.043695,0.018609,-0.026295,62.663254,14.164795,-147.371033,,,
729607898.166577,1.458845,-0.737554,19.674025,0.006332,0.032578,0.997192,-0.0257,0.002185,-0.025243,62.593445,14.173553,-147.699127,,,
729607898.169907,1.452045,-0.737781,19.666692,0.006332,0.032578,0.997192,-0.0257,0.002185,-0.025243,62.593445,14.173553,-147.699127,,,
729607898.173254,1.452045,-0.737781,19.666692,0.006332,0.032578,0.997192,-0.0257,0.002185,-0.025243,62.593445,14.173553,-147.699127,,,
729607898.176589,1.447539,-0.737188,19.660359,0.000641,0.031418,1.001282,-0.00928,0.00109,-0.020624,62.593445,14.173553,-147.699127,,,
729607898.179912,1.444785,-0.737577,19.655178,0.000641,0.031418,1.001282,-0.00928,0.00109,-0.020624,62.593445,14.173553,-147.699127,,,
729607898.183351,1.444785,-0.737577,19.655178,0.000641,0.031418,1.001282,-0.00928,0.00109,-0.020624,62.593445,14.173553,-147.699127,,,
729607898.186572,1.442497,-0.736514,19.651877,-0.001587,0.029114,1.001816,-0.005309,0.002931,-0.006023,62.593445,14.173553,-147.699127,,,
729607898.18991,1.440602,-0.736137,19.650393,-0.001587,0.029114,1.001816,-0.005309,0.002931,-0.006023,62.593445,14.173553,-147.699127,,,
729607898.193256,1.440602,-0.736137,19.650393,-0.001587,0.029114,1.001816,-0.005309,0.002931,-0.006023,62.593445,14.173553,-147.699127,,,
729607898.196639,1.437523,-0.733554,19.650039,0.00119,0.031387,0.996384,-0.010469,0.013608,0.003115,62.593445,14.173553,-147.699127,,,
729607898.199898,1.433567,-0.729906,19.651274,0.00119,0.031387,0.996384,-0.010469,0.013608,0.003115,62.593445,14.173553,-147.699127,,,
729607898.203246,1.433567,-0.729906,19.651274,0.00119,0.031387,0.996384,-0.010469,0.013608,0.003115,62.593445,14.173553,-147.699127,,,
729607898.206589,1.428186,-0.72458,19.653887,0.001297,0.035278,0.992508,-0.021458,0.018802,0.009833,62.593445,14.173553,-147.699127,,,
729607898.209904,1.421022,-0.71987,19.657134,0.001297,0.035278,0.992508,-0.021458,0.018802,0.009833,62.57132,14.138214,-147.315247,,,
729607898.213253,1.421022,-0.71987,19.657134,0.001297,0.035278,0.992508,-0.021458,0.018802,0.009833,62.57132,14.138214,-147.315247,,,
729607898.216593,1.412693,-0.714571,19.660126,-0.003662,0.041016,0.987106,-0.030112,0.016747,0.009361,62.57132,14.138214,-147.315247,,,
729607898.219905,1.403578,-0.711276,19.663347,-0.003662,0.041016,0.987106,-0.030112,0.016747,0.009361,62.57132,14.138214,-147.315247,,,
729607898.223313,1.403578,-0.711276,19.663347,-0.003662,0.041016,0.987106,-0.030112,0.016747,0.009361,62.57132,14.138214,-147.315247,,,
729607898.226584,1.394295,-0.708004,19.667048,-0.004105,0.04332,0.985641,-0.035024,0.006833,0.012361,62.57132,14.138214,-147.315247,,,
729607898.229912,1.383529,-0.707705,19.671029,-0.004105,0.04332,0.985641,-0.035024,0.006833,0.012361,62.57132,14.138214,-147.315247,,,
729607898.233261,1.383529,-0.707705,19.671029,-0.004105,0.04332,0.985641,-0.035024,0.006833,0.012361,62.57132,14.138214,-147.315247,,,
729607898.236628,1.373202,-0.707723,19.67567,-0.003113,0.041245,0.98558,-0.036839,-0.002876,0.018492,62.57132,14.138214,-147.315247,,,
729607898.239901,1.362908,-0.709772,19.681007,-0.003113,0.041245,0.98558,-0.036839,-0.002876,0.018492,62.57132,14.138214,-147.315247,,,
729607898.243258,1.362908,-0.709772,19.681007,-0.003113,0.041245,0.98558,-0.036839,-0.002876,0.018492,62.57132,14.138214,-147.315247,,,
729607898.246586,1.354283,-0.712752,19.686568,0.001068,0.035828,0.992905,-0.028323,-0.013544,0.016688,62.57132,14.138214,-147.315247,,,
729607898.249906,1.346403,-0.718331,19.691381,0.001068,0.035828,0.992905,-0.028323,-0.013544,0.016688,62.620209,14.470184,-147.581726,,,
729607898.253315,1.346403,-0.718331,19.691381,0.001068,0.035828,0.992905,-0.028323,-0.013544,0.016688,62.620209,14.470184,-147.581726,,,
729607898.256618,1.342344,-0.723904,19.695515,0.005661,0.034576,0.998917,-0.012319,-0.023265,0.014562,62.620209,14.470184,-147.581726,,,
729607898.25991,1.3389,-0.731312,19.699256,0.005661,0.034576,0.998917,-0.012319,-0.023265,0.014562,62.620209,14.470184,-147.581726,,,
729607898.263321,1.3389,-0.731312,19.699256,0.005661,0.034576,0.998917,-0.012319,-0.023265,0.014562,62.620209,14.470184,-147.581726,,,
729607898.266582,1.337145,-0.737683,19.702608,0.011566,0.032684,1.003159,-0.005396,-0.027085,0.010946,62.620209,14.470184,-147.581726,,,
729607898.269907,1.335531,-0.746416,19.706546,0.011566,0.032684,1.003159,-0.005396,-0.027085,0.010946,62.620209,14.470184,-147.581726,,,
729607898.273249,1.335531,-0.746416,19.706546,0.011566,0.032684,1.003159,-0.005396,-0.027085,0.010946,62.620209,14.470184,-147.581726,,,
729607898.276645,1.334254,-0.753672,19.710968,0.015427,0.03093,1.00029,-0.007536,-0.027905,0.01819,62.620209,14.470184,-147.581726,,,
729607898.27991,1.331773,-0.761853,19.716539,0.015427,0.03093,1.00029,-0.007536,-0.027905,0.01819,62.620209,14.470184,-147.581726,,,
729607898.283259,1.331773,-0.761853,19.716539,0.015427,0.03093,1.00029,-0.007536,-0.027905,0.01819,62.620209,14.470184,-147.581726,,,
729607898.286531,1.329875,-0.768268,19.723323,0.01886,0.03241,1.004028,-0.011695,-0.02075,0.025609,62.620209,14.470184,-147.581726,,,
729607898.289913,1.326111,-0.774399,19.730841,0.01886,0.03241,1.004028,-0.011695,-0.02075,0.025609,62.598846,14.40596,-147.067062,,,
729607898.293256,1.326111,-0.774399,19.730841,0.01886,0.03241,1.004028,-0.011695,-0.02075,0.025609,62.598846,14.40596,-147.067062,,,
729607898.296583,1.324058,-0.775978,19.739148,0.018768,0.030823,1.005661,-0.013794,0.00259,0.03119,62.598846,14.40596,-147.067062,,,
729607898.299915,1.319594,-0.775903,19.748136,0.018768,0.030823,1.005661,-0.013794,0.00259,0.03119,62.598846,14.40596,-147.067062,,,
729607898.303239,1.319594,-0.775903,19.748136,0.018768,0.030823,1.005661,-0.013794,0.00259,0.03119,62.598846,14.40596,-147.067062,,,
729607898.306591,1.317683,-0.769853,19.757489,0.015549,0.024628,1.012314,-0.011041,0.026871,0.034761,62.598846,14.40596,-147.067062,,,
729607898.309903,1.314034,-0.762941,19.767678,0.015549,0.024628,1.012314,-0.011041,0.026871,0.034761,62.598846,14.40596,-147.067062,,,
729607898.313274,1.314034,-0.762941,19.767678,0.015549,0.024628,1.012314,-0.011041,0.026871,0.034761,62.598846,14.40596,-147.067062,,,
729607898.316661,1.312588,-0.753002,19.778282,0.015015,0.018845,1.015823,-0.016181,0.03189,0.037279,62.598846,14.40596,-147.067062,,,
729607898.319905,1.308182,-0.745307,19.788437,0.015015,0.018845,1.015823,-0.016181,0.03189,0.037279,62.598846,14.40596,-147.067062,,,
729607898.323253,1.308182,-0.745307,19.788437,0.015015,0.018845,1.015823,-0.016181,0.03189,0.037279,62.598846,14.40596,-147.067062,,,
729607898.326591,1.304374,-0.738003,19.797645,0.012695,0.018814,1.007294,-0.025735,0.015822,0.028786,62.598846,14.40596,-147.067062,,,
729607898.329904,1.297169,-0.734892,19.805499,0.012695,0.018814,1.007294,-0.025735,0.015822,0.028786,62.614716,14.405533,-147.465881,,,
729607898.333276,1.297169,-0.734892,19.805499,0.012695,0.018814,1.007294,-0.025735,0.015822,0.028786,62.614716,14.405533,-147.465881,,,
729607898.336574,1.291759,-0.733189,19.81148,0.014465,0.017395,1.010452,-0.017905,-0.003842,0.016285,62.614716,14.405533,-147.465881,,,
729607898.339907,1.287457,-0.735797,19.815748,0.014465,0.017395,1.010452,-0.017905,-0.003842,0.016285,62.614716,14.405533,-147.465881,,,
729607898.343326,1.287457,-0.735797,19.815748,0.014465,0.017395,1.010452,-0.017905,-0.003842,0.016285,62.614716,14.405533,-147.465881,,,
729607898.346594,1.288553,-0.742116,19.818019,0.017044,0.013184,1.02594,0.012743,-0.032154,0.00045,62.614716,14.405533,-147.465881,,,
729607898.349919,1.293199,-0.753056,19.817803,0.017044,0.013184,1.02594,0.012743,-0.032154,0.00045,62.614716,14.405533,-147.465881,,,
729607898.353258,1.293199,-0.753056,19.817803,0.017044,0.013184,1.02594,0.012743,-0.032154,0.00045,62.614716,14.405533,-147.465881,,,
729607898.35665,1.303911,-0.767185,19.815566,0.024826,0.006393,1.031128,0.048456,-0.048883,-0.013318,62.614716,14.405533,-147.465881,,,
729607898.359898,1.31879,-0.781743,19.811473,0.024826,0.006393,1.031128,0.048456,-0.048883,-0.013318,62.614716,14.405533,-147.465881,,,
729607898.363259,1.31879,-0.781743,19.811473,0.024826,0.006393,1.031128,0.048456,-0.048883,-0.013318,62.614716,14.405533,-147.465881,,,
729607898.366599,1.339812,-0.795174,19.805228,0.03215,0.002823,1.036804,0.079691,-0.039397,-0.028381,62.614716,14.405533,-147.465881,,,
729607898.369908,1.363357,-0.806473,19.797725,0.03215,0.002823,1.036804,0.079691,-0.039397,-0.028381,62.614716,14.405533,-147.465881,,,
729607898.373262,1.363357,-0.806473,19.797725,0.03215,0.002823,1.036804,0.079691,-0.039397,-0.028381,62.61731,14.278229,-147.386826,,,
729607898.376585,1.389398,-0.817061,19.790139,0.03392,0.004242,1.037476,0.088963,-0.027828,-0.029481,62.61731,14.278229,-147.386826,,,
729607898.379913,1.414209,-0.824948,19.782988,0.03392,0.004242,1.037476,0.088963,-0.027828,-0.029481,62.61731,14.278229,-147.386826,,,
729607898.383238,1.414209,-0.824948,19.782988,0.03392,0.004242,1.037476,0.088963,-0.027828,-0.029481,62.61731,14.278229,-147.386826,,,
729607898.386591,1.438106,-0.830064,19.7764,0.030289,0.006485,1.019699,0.078748,-0.006317,-0.020851,62.61731,14.278229,-147.386826,,,
729607898.389915,1.459762,-0.831934,19.77054,0.030289,0.006485,1.019699,0.078748,-0.006317,-0.020851,62.61731,14.278229,-147.386826,,,
729607898.393311,1.459762,-0.831934,19.77054,0.030289,0.006485,1.019699,0.078748,-0.006317,-0.020851,62.61731,14.278229,-147.386826,,,
729607898.396594,1.477856,-0.830918,19.764899,0.029068,0.01474,1.01004,0.058381,0.015579,-0.023661,62.61731,14.278229,-147.386826,,,
729607898.399903,1.493673,-0.827085,19.758512,0.029068,0.01474,1.01004,0.058381,0.015579,-0.023661,62.61731,14.278229,-147.386826,,,
729607898.403251,1.493673,-0.827085,19.758512,0.029068,0.01474,1.01004,0.058381,0.015579,-0.023661,62.61731,14.278229,-147.386826,,,
729607898.406656,1.506811,-0.821445,19.750465,0.034714,0.023056,1.003403,0.044831,0.021705,-0.035864,62.61731,14.278229,-147.386826,,,
729607898.409905,1.519154,-0.815127,19.739853,0.034714,0.023056,1.003403,0.044831,0.021705,-0.035864,62.61731,14.278229,-147.386826,,,
729607898.413249,1.519154,-0.815127,19.739853,0.034714,0.023056,1.003403,0.044831,0.021705,-0.035864,62.618973,14.192841,-147.2005,,,
729607898.416597,1.529958,-0.807952,19.727324,0.032745,0.026123,0.998093,0.036354,0.030988,-0.0483,62.618973,14.192841,-147.2005,,,
729607898.419904,1.541028,-0.800111,19.713927,0.032745,0.026123,0.998093,0.036354,0.030988,-0.0483,62.618973,14.192841,-147.2005,,,
729607898.423261,1.541028,-0.800111,19.713927,0.032745,0.026123,0.998093,0.036354,0.030988,-0.0483,62.618973,14.192841,-147.2005,,,
729607898.426609,1.551142,-0.793347,19.699728,0.027191,0.021698,0.996719,0.037457,0.017406,-0.055906,62.618973,14.192841,-147.2005,,,
729607898.429907,1.561965,-0.788838,19.684328,0.027191,0.021698,0.996719,0.037457,0.017406,-0.055906,62.618973,14.192841,-147.2005,,,
729607898.433238,1.561965,-0.788838,19.684328,0.027191,0.021698,0.996719,0.037457,0.017406,-0.055906,62.618973,14.192841,-147.2005,,,
729607898.436583,1.570947,-0.787556,19.667249,0.025452,0.021484,0.987762,0.036631,0.001838,-0.065019,62.618973,14.192841,-147.2005,,,
729607898.439915,1.582604,-0.788623,19.648332,0.025452,0.021484,0.987762,0.036631,0.001838,-0.065019,62.618973,14.192841,-147.2005,,,
729607898.443304,1.582604,-0.788623,19.648332,0.025452,0.021484,0.987762,0.036631,0.001838,-0.065019,62.618973,14.192841,-147.2005,,,
729607898.4466,1.593016,-0.795076,19.628538,0.027603,0.024658,0.984268,0.048095,-0.029917,-0.072469,62.618973,14.192841,-147.2005,,,
729607898.449908,1.606574,-0.80463,19.608575,0.027603,0.024658,0.984268,0.048095,-0.029917,-0.072469,62.618973,14.192841,-147.2005,,,
729607898.453238,1.606574,-0.80463,19.608575,0.027603,0.024658,0.984268,0.048095,-0.029917,-0.072469,62.624786,14.232605,-147.32843,,,
729607898.456651,1.617006,-0.81917,19.588894,0.024673,0.024994,0.981903,0.040662,-0.044929,-0.067379,62.624786,14.232605,-147.32843,,,
729607898.459905,1.628166,-0.832283,19.570359,0.024673,0.024994,0.981903,0.040662,-0.044929,-0.067379,62.624786,14.232605,-147.32843,,,
729607898.463261,1.628166,-0.832283,19.570359,0.024673,0.024994,0.981903,0.040662,-0.044929,-0.067379,62.624786,14.232605,-147.32843,,,
729607898.466596,1.634636,-0.846728,19.553262,0.024719,0.025269,0.983109,0.023654,-0.043851,-0.058683,62.624786,14.232605,-147.32843,,,
729607898.469904,1.641282,-0.858516,19.536508,0.024719,0.025269,0.983109,0.023654,-0.043851,-0.058683,62.624786,14.232605,-147.32843,,,
729607898.473259,1.641282,-0.858516,19.536508,0.024719,0.025269,0.983109,0.023654,-0.043851,-0.058683,62.624786,14.232605,-147.32843,,,
729607898.476612,1.643371,-0.871277,19.519688,0.024933,0.028717,0.984619,0.008375,-0.034924,-0.059177,62.624786,14.232605,-147.32843,,,
729607898.479721,1.645593,-0.881431,19.502809,0.024933,0.028717,0.984619,0.008375,-0.034924,-0.059177,62.624786,14.232605,-147.32843,,,
729607898.483352,1.645593,-0.881431,19.502809,0.024933,0.028717,0.984619,0.008375,-0.034924,-0.059177,62.624786,14.232605,-147.32843,,,
729607898.486586,1.644603,-0.89142,19.486205,0.023468,0.032791,0.986816,-0.005672,-0.020167,-0.059107,62.624786,14.232605,-147.32843,,,
729607898.489914,1.642538,-0.896436,19.469974,0.023468,0.032791,0.986816,-0.005672,-0.020167,-0.059107,62.624786,14.232605,-147.32843,,,
729607898.493273,1.642538,-0.896436,19.469974,0.023468,0.032791,0.986816,-0.005672,-0.020167,-0.059107,62.624786,14.232605,-147.32843,,,
729607898.496652,1.638314,-0.901285,19.454733,0.016312,0.02858,0.985428,-0.01814,-0.004899,-0.050934,62.730637,14.259018,-147.240311,,,
729607898.499903,1.633492,-0.90326,19.440985,0.016312,0.02858,0.985428,-0.01814,-0.004899,-0.050934,62.730637,14.259018,-147.240311,,,
729607898.503284,1.633492,-0.90326,19.440985,0.016312,0.02858,0.985428,-0.01814,-0.004899,-0.050934,62.730637,14.259018,-147.240311,,,
729607898.506603,1.627832,-0.906983,19.428705,0.008789,0.026657,0.980637,-0.016976,-0.008065,-0.040859,62.730637,14.259018,-147.240311,,,
729607898.509908,1.622734,-0.909736,19.417611,0.008789,0.026657,0.980637,-0.016976,-0.008065,-0.040859,62.730637,14.259018,-147.240311,,,
729607898.513241,1.622734,-0.909736,19.417611,0.008789,0.026657,0.980637,-0.016976,-0.008065,-0.040859,62.730637,14.259018,-147.240311,,,
729607898.516595,1.617006,-0.913615,19.407418,0.005066,0.02951,0.979248,-0.013762,-0.006755,-0.03649,62.730637,14.259018,-147.240311,,,
729607898.519911,1.612099,-0.916233,19.397703,0.005066,0.02951,0.979248,-0.013762,-0.006755,-0.03649,62.730637,14.259018,-147.240311,,,
729607898.523336,1.612099,-0.916233,19.397703,0.005066,0.02951,0.979248,-0.013762,-0.006755,-0.03649,62.730637,14.259018,-147.240311,,,
729607898.526612,1.606011,-0.92102,19.388235,0.005005,0.031784,0.979965,-0.021381,-0.013865,-0.034048,62.730637,14.259018,-147.240311,,,
729607898.529911,1.599104,-0.926252,19.378681,0.005005,0.031784,0.979965,-0.021381,-0.013865,-0.034048,62.730637,14.259018,-147.240311,,,
729607898.533259,1.599104,-0.926252,19.378681,0.005005,0.031784,0.979965,-0.021381,-0.013865,-0.034048,62.730637,14.259018,-147.240311,,,
729607898.53665,1.5899,-0.934009,19.369077,0.003906,0.034424,0.974762,-0.037439,-0.019541,-0.034886,62.623367,14.072998,-147.233383,,,
729607898.53991,1.57846,-0.939783,19.359211,0.003906,0.034424,0.974762,-0.037439,-0.019541,-0.034886,62.623367,14.072998,-147.233383,,,
729607898.54326,1.57846,-0.939783,19.359211,0.003906,0.034424,0.974762,-0.037439,-0.019541,-0.034886,62.623367,14.072998,-147.233383,,,
729607898.54659,1.565398,-0.944636,19.348775,0.003799,0.034988,0.979141,-0.045699,-0.008803,-0.040607,62.623367,14.072998,-147.233383,,,
729607898.549911,1.552116,-0.947375,19.337832,0.003799,0.034988,0.979141,-0.045699,-0.008803,-0.040607,62.623367,14.072998,-147.233383,,,
729607898.553293,1.552116,-0.947375,19.337832,0.003799,0.034988,0.979141,-0.045699,-0.008803,-0.040607,62.623367,14.072998,-147.233383,,,
729607898.556586,1.538803,-0.949548,19.327205,0.004517,0.034958,0.985199,-0.047018,-0.000417,-0.035643,62.623367,14.072998,-147.233383,,,
729607898.559909,1.525615,-0.949195,19.317417,0.004517,0.034958,0.985199,-0.047018,-0.000417,-0.035643,62.623367,14.072998,-147.233383,,,
729607898.563304,1.525615,-0.949195,19.317417,0.004517,0.034958,0.985199,-0.047018,-0.000417,-0.035643,62.623367,14.072998,-147.233383,,,
729607898.566578,1.513177,-0.946808,19.30909,0.000366,0.030167,0.988586,-0.04326,0.01825,-0.024324,62.623367,14.072998,-147.233383,,,
729607898.569932,1.500199,-0.941444,19.30284,0.000366,0.030167,0.988586,-0.04326,0.01825,-0.024324,62.623367,14.072998,-147.233383,,,
729607898.57325,1.500199,-0.941444,19.30284,0.000366,0.030167,0.988586,-0.04326,0.01825,-0.024324,62.623367,14.072998,-147.233383,,,
729607898.576629,1.487465,-0.935012,19.298647,-0.001175,0.025391,0.988571,-0.04547,0.030207,-0.011578,62.649246,14.348663,-147.700714,,,
729607898.5799,1.474114,-0.927201,19.295832,-0.001175,0.025391,0.988571,-0.04547,0.030207,-0.011578,62.649246,14.348663,-147.700714,,,
729607898.583247,1.474114,-0.927201,19.295832,-0.001175,0.025391,0.988571,-0.04547,0.030207,-0.011578,62.649246,14.348663,-147.700714,,,
729607898.58658,1.460567,-0.919032,19.293962,0.000793,0.026596,0.985397,-0.047876,0.028778,-0.006924,62.649246,14.348663,-147.700714,,,
729607898.589911,1.44663,-0.911807,19.292635,0.000793,0.026596,0.985397,-0.047876,0.028778,-0.006924,62.649246,14.348663,-147.700714,,,
729607898.59326,1.44663,-0.911807,19.292635,0.000793,0.026596,0.985397,-0.047876,0.028778,-0.006924,62.649246,14.348663,-147.700714,,,
729607898.596587,1.432014,-0.903667,19.291522,-0.001236,0.03215,0.982071,-0.051165,0.031013,-0.002748,62.649246,14.348663,-147.700714,,,
729607898.599906,1.417206,-0.895557,19.29149,-0.001236,0.03215,0.982071,-0.051165,0.031013,-0.002748,62.649246,14.348663,-147.700714,,,
729607898.603289,1.417206,-0.895557,19.29149,-0.001236,0.03215,0.982071,-0.051165,0.031013,-0.002748,62.649246,14.348663,-147.700714,,,
729607898.606586,1.403812,-0.885728,19.292547,-0.001755,0.031647,0.987488,-0.044205,0.037573,0.004899,62.649246,14.348663,-147.700714,,,
729607898.609904,1.391377,-0.876152,19.294057,-0.001755,0.031647,0.987488,-0.044205,0.037573,0.004899,62.649246,14.348663,-147.700714,,,
729607898.61325,1.391377,-0.876152,19.294057,-0.001755,0.031647,0.987488,-0.044205,0.037573,0.004899,62.649246,14.348663,-147.700714,,,
729607898.616573,1.381405,-0.865861,19.296117,3.1e-05,0.030609,0.990189,-0.032879,0.040438,0.004897,62.727249,14.313873,-147.343674,,,
729607898.619896,1.37206,-0.855172,19.298165,3.1e-05,0.030609,0.990189,-0.032879,0.040438,0.004897,62.727249,14.313873,-147.343674,,,
729607898.623261,1.37206,-0.855172,19.298165,3.1e-05,0.030609,0.990189,-0.032879,0.040438,0.004897,62.727249,14.313873,-147.343674,,,
729607898.626597,1.363454,-0.841762,19.299659,0.003387,0.034988,0.986374,-0.03468,0.048865,0.003311,62.727249,14.313873,-147.343674,,,
729607898.629906,1.353054,-0.828122,19.300456,0.003387,0.034988,0.986374,-0.03468,0.048865,0.003311,62.727249,14.313873,-147.343674,,,
729607898.633263,1.353054,-0.828122,19.300456,0.003387,0.034988,0.986374,-0.03468,0.048865,0.003311,62.727249,14.313873,-147.343674,,,
729607898.63659,1.342717,-0.814765,19.300345,0.003616,0.041626,0.977661,-0.047206,0.042088,-0.005139,62.727249,14.313873,-147.343674,,,
729607898.639907,1.329566,-0.804532,19.299109,0.003616,0.041626,0.977661,-0.047206,0.042088,-0.005139,62.727249,14.313873,-147.343674,,,
729607898.643306,1.329566,-0.804532,19.299109,0.003616,0.041626,0.977661,-0.047206,0.042088,-0.005139,62.727249,14.313873,-147.343674,,,
729607898.646578,1.314798,-0.796311,19.297152,-0.000244,0.04454,0.968185,-0.05876,0.021058,-0.006938,62.727249,14.313873,-147.343674,,,
729607898.649906,1.297852,-0.791581,19.295518,-0.000244,0.04454,0.968185,-0.05876,0.021058,-0.006938,62.727249,14.313873,-147.343674,,,
729607898.653252,1.297852,-0.791581,19.295518,-0.000244,0.04454,0.968185,-0.05876,0.021058,-0.006938,62.727249,14.313873,-147.343674,,,
729607898.656624,1.280303,-0.786947,19.29464,-0.005417,0.038376,0.968719,-0.061398,0.01626,-0.000744,62.727249,14.313873,-147.343674,,,
729607898.65993,1.262897,-0.783823,19.294976,-0.005417,0.038376,0.968719,-0.061398,0.01626,-0.000744,62.743988,14.620178,-147.587708,,,
729607898.66327,1.262897,-0.783823,19.294976,-0.005417,0.038376,0.968719,-0.061398,0.01626,-0.000744,62.743988,14.620178,-147.587708,,,
729607898.666598,1.247835,-0.780954,19.296697,-0.000961,0.028107,0.984589,-0.045746,0.005466,0.008527,62.743988,14.620178,-147.587708,,,
729607898.669935,1.235445,-0.780776,19.299542,-0.000961,0.028107,0.984589,-0.045746,0.005466,0.008527,62.743988,14.620178,-147.587708,,,
729607898.673245,1.235445,-0.780776,19.299542,-0.000961,0.028107,0.984589,-0.045746,0.005466,0.008527,62.743988,14.620178,-147.587708,,,
729607898.676605,1.225983,-0.78128,19.303894,0.005417,0.020706,0.99173,-0.030224,0.002309,0.019164,62.743988,14.620178,-147.587708,,,
729607898.679906,1.216962,-0.781154,19.309709,0.005417,0.020706,0.99173,-0.030224,0.002309,0.019164,62.743988,14.620178,-147.587708,,,
729607898.683328,1.216962,-0.781154,19.309709,0.005417,0.020706,0.99173,-0.030224,0.002309,0.019164,62.743988,14.620178,-147.587708,,,
729607898.686574,1.209224,-0.776553,19.316054,0.010956,0.018372,0.997696,-0.026433,0.023876,0.026543,62.743988,14.620178,-147.587708,,,
729607898.689922,1.200757,-0.769493,19.322639,0.010956,0.018372,0.997696,-0.026433,0.023876,0.026543,62.743988,14.620178,-147.587708,,,
729607898.693285,1.200757,-0.769493,19.322639,0.010956,0.018372,0.997696,-0.026433,0.023876,0.026543,62.743988,14.620178,-147.587708,,,
729607898.6966,1.192241,-0.758682,19.32886,0.018936,0.024765,1.001663,-0.033972,0.044982,0.019186,62.743988,14.620178,-147.587708,,,
729607898.699937,1.182149,-0.746313,19.334576,0.018936,0.024765,1.001663,-0.033972,0.044982,0.019186,62.923141,14.766373,-147.538101,,,
729607898.70293,1.182149,-0.746313,19.334576,0.018936,0.024765,1.001663,-0.033972,0.044982,0.019186,62.923141,14.766373,-147.538101,,,
729607898.706682,1.173222,-0.73056,19.339753,0.022064,0.028427,1.001404,-0.032014,0.059064,0.016561,62.923141,14.766373,-147.538101,,,
729607898.70989,1.163506,-0.714809,19.344858,0.022064,0.028427,1.001404,-0.032014,0.059064,0.016561,62.923141,14.766373,-147.538101,,,
729607898.713292,1.163506,-0.714809,19.344858,0.022064,0.028427,1.001404,-0.032014,0.059064,0.016561,62.923141,14.766373,-147.538101,,,
729607898.716607,1.156232,-0.699087,19.350474,0.016449,0.027008,1.004608,-0.029943,0.049514,0.021211,62.923141,14.766373,-147.538101,,,
729607898.719983,1.147918,-0.686546,19.357202,0.016449,0.027008,1.004608,-0.029943,0.049514,0.021211,62.923141,14.766373,-147.538101,,,
729607898.723261,1.147918,-0.686546,19.357202,0.016449,0.027008,1.004608,-0.029943,0.049514,0.021211,62.923141,14.766373,-147.538101,,,
729607898.726665,1.143648,-0.675354,19.364723,0.010895,0.022675,1.003693,-0.020952,0.033998,0.028517,62.923141,14.766373,-147.538101,,,
729607898.729907,1.137894,-0.667349,19.373071,0.010895,0.022675,1.003693,-0.020952,0.033998,0.028517,62.923141,14.766373,-147.538101,,,
729607898.733353,1.137894,-0.667349,19.373071,0.010895,0.022675,1.003693,-0.020952,0.033998,0.028517,62.923141,14.766373,-147.538101,,,
729607898.736669,1.135649,-0.658864,19.381406,0.016357,0.024826,1.006912,-0.012366,0.022718,0.025435,62.923141,14.766373,-147.538101,,,
729607898.739911,1.131341,-0.652893,19.388371,0.016357,0.024826,1.006912,-0.012366,0.022718,0.025435,63.019592,14.735931,-147.239075,,,
729607898.743348,1.131341,-0.652893,19.388371,0.016357,0.024826,1.006912,-0.012366,0.022718,0.025435,63.019592,14.735931,-147.239075,,,
729607898.746598,1.128981,-0.645283,19.394496,0.023804,0.026062,1.008652,-0.011244,0.028097,0.016723,63.019592,14.735931,-147.239075,,,
729607898.749952,1.124747,-0.638256,19.399946,0.023804,0.026062,1.008652,-0.011244,0.028097,0.016723,63.019592,14.735931,-147.239075,,,
729607898.753332,1.124747,-0.638256,19.399946,0.023804,0.026062,1.008652,-0.011244,0.028097,0.016723,63.019592,14.735931,-147.239075,,,
729607898.75658,1.121034,-0.628241,19.404117,0.028976,0.028427,1.012741,-0.014348,0.039064,0.006944,63.019592,14.735931,-147.239075,,,
729607898.759951,1.116973,-0.618084,19.406349,0.028976,0.028427,1.012741,-0.014348,0.039064,0.006944,63.019592,14.735931,-147.239075,,,
729607898.763253,1.116973,-0.618084,19.406349,0.028976,0.028427,1.012741,-0.014348,0.039064,0.006944,63.019592,14.735931,-147.239075,,,
729607898.766598,1.112452,-0.607666,19.406831,0.027649,0.026276,1.009338,-0.01381,0.039031,-0.001806,63.019592,14.735931,-147.239075,,,
729607898.769954,1.108237,-0.597426,19.405869,0.027649,0.026276,1.009338,-0.01381,0.039031,-0.001806,63.019592,14.735931,-147.239075,,,
729607898.773245,1.108237,-0.597426,19.405869,0.027649,0.026276,1.009338,-0.01381,0.039031,-0.001806,63.019592,14.735931,-147.239075,,,
