Time (sec),Pitch (deg),Roll (deg),Yaw(deg),X-Acceleration (g),Y-Acceleration (g),Z-Acceleration (g),Pitch Rate (deg/sec),Roll Rate (deg/sec),Yaw Rate (deg/sec),Magnetic Field in X direction (uT),Magnetic Field in Y direction (uT),Magnetic Field in Z Direction (uT),Latitude (deg),Longitude (deg),Altitude (m)
729607174.091358,1.574073,2.352103,52.895864,-0.015472,0.030914,0.976837,0.018321,0.035911,-0.038996,65.045853,21.129959,-147.816711,,,
729607174.094689,1.574073,2.352103,52.895864,-0.015472,0.030914,0.976837,0.018321,0.035911,-0.038996,65.045853,21.129959,-147.816711,,,
729607174.098044,1.573346,2.36706,52.884886,-0.015472,0.030914,0.976837,0.018321,0.035911,-0.038996,65.045853,21.129959,-147.816711,,,
729607174.101364,1.573681,2.373705,52.875741,-0.024506,0.028183,0.974869,0.005818,0.025265,-0.033462,65.045853,21.129959,-147.816711,,,
729607174.104707,1.573681,2.373705,52.875741,-0.024506,0.028183,0.974869,0.005818,0.025265,-0.033462,65.045853,21.129959,-147.816711,,,
729607174.108042,1.569103,2.379719,52.868266,-0.024506,0.028183,0.974869,0.005818,0.025265,-0.033462,65.045853,21.129959,-147.816711,,,
729607174.111366,1.566467,2.384174,52.862791,-0.03479,0.028442,0.979614,-0.010519,0.017127,-0.021916,65.045853,21.129959,-147.816711,,,
729607174.114787,1.566467,2.384174,52.862791,-0.03479,0.028442,0.979614,-0.010519,0.017127,-0.021916,65.045853,21.129959,-147.816711,,,
729607174.118017,1.559538,2.384909,52.859155,-0.03479,0.028442,0.979614,-0.010519,0.017127,-0.021916,65.045853,21.129959,-147.816711,,,
729607174.121368,1.554117,2.388054,52.855325,-0.038055,0.030045,0.985672,-0.015826,0.01422,-0.014982,65.045853,21.129959,-147.816711,,,
729607174.124781,1.554117,2.388054,52.855325,-0.038055,0.030045,0.985672,-0.015826,0.01422,-0.014982,64.947495,21.393433,-147.390717,,,
729607174.128017,1.545084,2.384636,52.85121,-0.038055,0.030045,0.985672,-0.015826,0.01422,-0.014982,64.947495,21.393433,-147.390717,,,
729607174.131368,1.538478,2.384909,52.846923,-0.039078,0.032074,0.988876,-0.021011,0.004221,-0.017038,64.947495,21.393433,-147.390717,,,
729607174.134697,1.538478,2.384909,52.846923,-0.039078,0.032074,0.988876,-0.021011,0.004221,-0.017038,64.947495,21.393433,-147.390717,,,
729607174.13811,1.52865,2.374933,52.84336,-0.039078,0.032074,0.988876,-0.021011,0.004221,-0.017038,64.947495,21.393433,-147.390717,,,
729607174.141349,1.520504,2.374371,52.839939,-0.04808,0.025299,0.995865,-0.02723,0.001935,-0.015514,64.947495,21.393433,-147.390717,,,
729607174.144714,1.520504,2.374371,52.839939,-0.04808,0.025299,0.995865,-0.02723,0.001935,-0.015514,64.947495,21.393433,-147.390717,,,
729607174.148036,1.511805,2.359707,52.837133,-0.04808,0.025299,0.995865,-0.02723,0.001935,-0.015514,64.947495,21.393433,-147.390717,,,
729607174.151359,1.503563,2.357347,52.834922,-0.051636,0.019058,1.006607,-0.027175,-0.004912,-0.012104,64.947495,21.393433,-147.390717,,,
729607174.154702,1.503563,2.357347,52.834922,-0.051636,0.019058,1.006607,-0.027175,-0.004912,-0.012104,64.947495,21.393433,-147.390717,,,
729607174.158032,1.495668,2.340431,52.833564,-0.051636,0.019058,1.006607,-0.027175,-0.004912,-0.012104,64.947495,21.393433,-147.390717,,,
729607174.161365,1.486767,2.339561,52.831768,-0.048126,0.017899,1.0112,-0.033997,-0.00026,-0.008387,64.947495,21.393433,-147.390717,,,
729607174.164739,1.486767,2.339561,52.831768,-0.048126,0.017899,1.0112,-0.033997,-0.00026,-0.008387,64.947495,21.393433,-147.390717,,,
729607174.168022,1.479342,2.326314,52.830277,-0.048126,0.017899,1.0112,-0.033997,-0.00026,-0.008387,65.007782,21.567612,-147.763474,,,
729607174.171367,1.470654,2.328827,52.827476,-0.045517,0.022339,1.017395,-0.034624,0.012223,-0.012032,65.007782,21.567612,-147.763474,,,
729607174.174698,1.470654,2.328827,52.827476,-0.045517,0.022339,1.017395,-0.034624,0.012223,-0.012032,65.007782,21.567612,-147.763474,,,
729607174.178021,1.464351,2.322949,52.823624,-0.045517,0.022339,1.017395,-0.034624,0.012223,-0.012032,65.007782,21.567612,-147.763474,,,
729607174.181355,1.459539,2.327138,52.818622,-0.044312,0.026596,1.01889,-0.01692,0.015579,-0.020747,65.007782,21.567612,-147.763474,,,
729607174.184703,1.459539,2.327138,52.818622,-0.044312,0.026596,1.01889,-0.01692,0.015579,-0.020747,65.007782,21.567612,-147.763474,,,
729607174.188045,1.457736,2.32698,52.813163,-0.044312,0.026596,1.01889,-0.01692,0.015579,-0.020747,65.007782,21.567612,-147.763474,,,
729607174.191392,1.458306,2.332389,52.807501,-0.049194,0.021088,1.015976,0.001181,0.023068,-0.022836,65.007782,21.567612,-147.763474,,,
729607174.194684,1.458306,2.332389,52.807501,-0.049194,0.021088,1.015976,0.001181,0.023068,-0.022836,65.007782,21.567612,-147.763474,,,
729607174.198029,1.462448,2.335267,52.802173,-0.049194,0.021088,1.015976,0.001181,0.023068,-0.022836,65.007782,21.567612,-147.763474,,,
729607174.201367,1.467357,2.33685,52.797535,-0.05452,0.021896,1.00885,0.01918,0.006189,-0.015834,65.007782,21.567612,-147.763474,,,
729607174.204747,1.467357,2.33685,52.797535,-0.05452,0.021896,1.00885,0.01918,0.006189,-0.015834,65.007782,21.567612,-147.763474,,,
729607174.208023,1.474604,2.334768,52.794169,-0.05452,0.021896,1.00885,0.01918,0.006189,-0.015834,65.135986,21.18631,-147.537674,,,
729607174.211358,1.480846,2.331637,52.791908,-0.054657,0.024017,0.998657,0.024244,-0.009006,-0.006656,65.135986,21.18631,-147.537674,,,
729607174.214698,1.480846,2.331637,52.791908,-0.054657,0.024017,0.998657,0.024244,-0.009006,-0.006656,65.135986,21.18631,-147.537674,,,
729607174.218088,1.487928,2.327101,52.789581,-0.054657,0.024017,0.998657,0.024244,-0.009006,-0.006656,65.135986,21.18631,-147.537674,,,
729607174.221356,1.493408,2.320112,52.785962,-0.043289,0.027634,0.994171,0.019002,-0.023109,-0.013289,65.135986,21.18631,-147.537674,,,
729607174.224708,1.493408,2.320112,52.785962,-0.043289,0.027634,0.994171,0.019002,-0.023109,-0.013289,65.135986,21.18631,-147.537674,,,
729607174.228029,1.49781,2.317104,52.780045,-0.043289,0.027634,0.994171,0.019002,-0.023109,-0.013289,65.135986,21.18631,-147.537674,,,
729607174.231356,1.503275,2.310703,52.772612,-0.030777,0.033081,0.991928,0.021025,-0.019214,-0.02431,65.135986,21.18631,-147.537674,,,
729607174.234711,1.503275,2.310703,52.772612,-0.030777,0.033081,0.991928,0.021025,-0.019214,-0.02431,65.135986,21.18631,-147.537674,,,
729607174.238045,1.506032,2.309908,52.764814,-0.030777,0.033081,0.991928,0.021025,-0.019214,-0.02431,65.135986,21.18631,-147.537674,,,
729607174.241362,1.509791,2.305721,52.757492,-0.031647,0.032883,0.992477,0.013888,-0.01127,-0.028832,65.135986,21.18631,-147.537674,,,
729607174.244685,1.509791,2.305721,52.757492,-0.031647,0.032883,0.992477,0.013888,-0.01127,-0.028832,65.135986,21.18631,-147.537674,,,
729607174.248032,1.511769,2.306819,52.750436,-0.031647,0.032883,0.992477,0.013888,-0.01127,-0.028832,64.661011,21.355835,-147.448975,,,
729607174.251352,1.515307,2.306886,52.744426,-0.036652,0.025543,0.991837,0.013969,0.003955,-0.02274,64.661011,21.355835,-147.448975,,,
729607174.254714,1.515307,2.306886,52.744426,-0.036652,0.025543,0.991837,0.013969,0.003955,-0.02274,64.661011,21.355835,-147.448975,,,
729607174.25812,1.518104,2.309723,52.739443,-0.036652,0.025543,0.991837,0.013969,0.003955,-0.02274,64.661011,21.355835,-147.448975,,,
729607174.261354,1.521372,2.310668,52.735008,-0.035568,0.023483,0.989273,0.013472,0.004255,-0.015722,64.661011,21.355835,-147.448975,,,
729607174.264717,1.521372,2.310668,52.735008,-0.035568,0.023483,0.989273,0.013472,0.004255,-0.015722,64.661011,21.355835,-147.448975,,,
729607174.26804,1.524277,2.311956,52.730564,-0.035568,0.023483,0.989273,0.013472,0.004255,-0.015722,64.661011,21.355835,-147.448975,,,
729607174.271357,1.526916,2.309395,52.725995,-0.036621,0.026993,0.982437,0.008971,-0.006905,-0.01668,64.661011,21.355835,-147.448975,,,
729607174.274712,1.526916,2.309395,52.725995,-0.036621,0.026993,0.982437,0.008971,-0.006905,-0.01668,64.661011,21.355835,-147.448975,,,
729607174.278041,1.527251,2.309351,52.721349,-0.036621,0.026993,0.982437,0.008971,-0.006905,-0.01668,64.661011,21.355835,-147.448975,,,
729607174.281359,1.528627,2.300805,52.7165,-0.040298,0.022675,0.983856,0.006093,-0.026979,-0.018172,64.661011,21.355835,-147.448975,,,
729607174.284699,1.528627,2.300805,52.7165,-0.040298,0.022675,0.983856,0.006093,-0.026979,-0.018172,64.661011,21.355835,-147.448975,,,
729607174.288097,1.528961,2.295364,52.710529,-0.040298,0.022675,0.983856,0.006093,-0.026979,-0.018172,64.661011,21.355835,-147.448975,,,
729607174.291396,1.529488,2.280239,52.704373,-0.038788,0.023499,0.981506,0.004488,-0.052224,-0.025154,64.831924,21.301422,-147.60939,,,
729607174.294744,1.529488,2.280239,52.704373,-0.038788,0.023499,0.981506,0.004488,-0.052224,-0.025154,64.831924,21.301422,-147.60939,,,
729607174.298132,1.529004,2.269963,52.697626,-0.038788,0.023499,0.981506,0.004488,-0.052224,-0.025154,64.831924,21.301422,-147.60939,,,
729607174.301414,1.527573,2.25662,52.690189,-0.032318,0.028229,0.988266,-0.004498,-0.043319,-0.027938,64.831924,21.301422,-147.60939,,,
729607174.304703,1.527573,2.25662,52.690189,-0.032318,0.028229,0.988266,-0.004498,-0.043319,-0.027938,64.831924,21.301422,-147.60939,,,
729607174.30804,1.52605,2.24548,52.683045,-0.032318,0.028229,0.988266,-0.004498,-0.043319,-0.027938,64.831924,21.301422,-147.60939,,,
729607174.311361,1.524583,2.239183,52.676935,-0.031815,0.02562,0.997284,-0.005148,-0.018854,-0.023508,64.831924,21.301422,-147.60939,,,
729607174.314795,1.524583,2.239183,52.676935,-0.031815,0.02562,0.997284,-0.005148,-0.018854,-0.023508,64.831924,21.301422,-147.60939,,,
729607174.31802,1.525302,2.232674,52.672328,-0.031815,0.02562,0.997284,-0.005148,-0.018854,-0.023508,64.831924,21.301422,-147.60939,,,
729607174.321412,1.524423,2.233717,52.668888,-0.037308,0.023071,1.00174,-0.004351,0.007621,-0.01341,64.831924,21.301422,-147.60939,,,
729607174.324766,1.524423,2.233717,52.668888,-0.037308,0.023071,1.00174,-0.004351,0.007621,-0.01341,64.831924,21.301422,-147.60939,,,
729607174.328028,1.525377,2.235275,52.666233,-0.037308,0.023071,1.00174,-0.004351,0.007621,-0.01341,64.831924,21.301422,-147.60939,,,
729607174.331396,1.52707,2.240386,52.66346,-0.036072,0.026779,1.000549,0.006444,0.021281,-0.010994,65.01445,21.129044,-147.522598,,,
729607174.334715,1.52707,2.240386,52.66346,-0.036072,0.026779,1.000549,0.006444,0.021281,-0.010994,65.01445,21.129044,-147.522598,,,
729607174.338099,1.528953,2.245483,52.660377,-0.036072,0.026779,1.000549,0.006444,0.021281,-0.010994,65.01445,21.129044,-147.522598,,,
729607174.341361,1.531378,2.250472,52.657594,-0.03949,0.030579,0.993073,0.010211,0.018441,-0.010867,65.01445,21.129044,-147.522598,,,
729607174.344696,1.531378,2.250472,52.657594,-0.03949,0.030579,0.993073,0.010211,0.018441,-0.010867,65.01445,21.129044,-147.522598,,,
729607174.348038,1.532962,2.251425,52.655307,-0.03949,0.030579,0.993073,0.010211,0.018441,-0.010867,65.01445,21.129044,-147.522598,,,
729607174.351358,1.532936,2.251035,52.653536,-0.049225,0.030258,0.983978,-0.000882,0.001277,-0.008265,65.01445,21.129044,-147.522598,,,
729607174.354703,1.532936,2.251035,52.653536,-0.049225,0.030258,0.983978,-0.000882,0.001277,-0.008265,65.01445,21.129044,-147.522598,,,
729607174.358056,1.530912,2.247016,52.652547,-0.049225,0.030258,0.983978,-0.000882,0.001277,-0.008265,65.01445,21.129044,-147.522598,,,
729607174.361407,1.527431,2.240406,52.652474,-0.051743,0.030106,0.980957,-0.011111,-0.019437,-0.00342,65.01445,21.129044,-147.522598,,,
729607174.364749,1.527431,2.240406,52.652474,-0.051743,0.030106,0.980957,-0.011111,-0.019437,-0.00342,65.01445,21.129044,-147.522598,,,
729607174.368028,1.522227,2.23199,52.653644,-0.051743,0.030106,0.980957,-0.011111,-0.019437,-0.00342,65.01445,21.129044,-147.522598,,,
729607174.371372,1.517086,2.220371,52.655627,-0.046814,0.031982,0.98616,-0.019861,-0.039704,0.004847,64.878632,21.413895,-147.532913,,,
729607174.374699,1.517086,2.220371,52.655627,-0.046814,0.031982,0.98616,-0.019861,-0.039704,0.004847,64.878632,21.413895,-147.532913,,,
729607174.378072,1.511996,2.207405,52.657971,-0.046814,0.031982,0.98616,-0.019861,-0.039704,0.004847,64.878632,21.413895,-147.532913,,,
729607174.381375,1.509277,2.196936,52.660415,-0.042328,0.036972,0.998215,-0.008447,-0.034362,0.005503,64.878632,21.413895,-147.532913,,,
729607174.384711,1.509277,2.196936,52.660415,-0.042328,0.036972,0.998215,-0.008447,-0.034362,0.005503,64.878632,21.413895,-147.532913,,,
729607174.388038,1.509144,2.186923,52.662857,-0.042328,0.036972,0.998215,-0.008447,-0.034362,0.005503,64.878632,21.413895,-147.532913,,,
729607174.391371,1.510229,2.183898,52.665486,-0.036179,0.042923,1.01265,0.00456,-0.005578,0.006611,64.878632,21.413895,-147.532913,,,
729607174.394707,1.510229,2.183898,52.665486,-0.036179,0.042923,1.01265,0.00456,-0.005578,0.006611,64.878632,21.413895,-147.532913,,,
729607174.398036,1.512019,2.182895,52.668736,-0.036179,0.042923,1.01265,0.00456,-0.005578,0.006611,64.878632,21.413895,-147.532913,,,
729607174.401385,1.514612,2.186215,52.673343,-0.038269,0.046143,1.008392,0.01003,0.013488,0.016859,64.878632,21.413895,-147.532913,,,
729607174.40476,1.514612,2.186215,52.673343,-0.038269,0.046143,1.008392,0.01003,0.013488,0.016859,64.878632,21.413895,-147.532913,,,
729607174.408039,1.515743,2.189837,52.6801,-0.038269,0.046143,1.008392,0.01003,0.013488,0.016859,64.878632,21.413895,-147.532913,,,
729607174.411408,1.515101,2.19328,52.68832,-0.041382,0.042236,0.996689,-0.001879,0.016438,0.026497,64.893433,21.409531,-147.879379,,,
729607174.414709,1.515101,2.19328,52.68832,-0.041382,0.042236,0.996689,-0.001879,0.016438,0.026497,64.893433,21.409531,-147.879379,,,
729607174.418094,1.512308,2.193474,52.697035,-0.041382,0.042236,0.996689,-0.001879,0.016438,0.026497,64.893433,21.409531,-147.879379,,,
729607174.421431,1.512308,2.190848,52.705418,-0.045197,0.045334,0.98349,-0.023368,-0.005388,0.025962,64.893433,21.409531,-147.879379,,,
729607174.4247,1.506042,2.190848,52.705418,-0.045197,0.045334,0.98349,-0.023368,-0.005388,0.025962,64.893433,21.409531,-147.879379,,,
729607174.428038,1.498867,2.186289,52.712443,-0.045197,0.045334,0.98349,-0.023368,-0.005388,0.025962,64.893433,21.409531,-147.879379,,,
729607174.431373,1.498867,2.186289,52.712443,-0.044876,0.044815,0.986526,-0.029453,-0.036816,0.018444,64.893433,21.409531,-147.879379,,,
729607174.434705,1.490191,2.174732,52.71806,-0.044876,0.044815,0.986526,-0.029453,-0.036816,0.018444,64.893433,21.409531,-147.879379,,,
729607174.438098,1.482466,2.165448,52.72229,-0.044876,0.044815,0.986526,-0.029453,-0.036816,0.018444,64.893433,21.409531,-147.879379,,,
729607174.441418,1.482466,2.165448,52.72229,-0.044876,0.044815,0.986526,-0.026761,-0.064602,0.005815,64.893433,21.409531,-147.879379,,,
729607174.444761,1.474387,2.146631,52.725383,-0.040634,0.044495,0.998657,-0.026761,-0.064602,0.005815,64.893433,21.409531,-147.879379,,,
729607174.448043,1.468886,2.132579,52.727389,-0.040634,0.044495,0.998657,-0.026761,-0.064602,0.005815,64.893433,21.409531,-147.879379,,,
729607174.451369,1.468886,2.132579,52.729288,-0.040634,0.044495,0.998657,-0.019245,-0.070184,0.003851,64.893433,21.409531,-147.879379,,,
729607174.454688,1.462683,2.112012,52.729288,-0.036789,0.037537,1.011978,-0.019245,-0.070184,0.003851,64.680923,21.417709,-147.620941,,,
729607174.458078,1.458846,2.097191,52.730874,-0.036789,0.037537,1.011978,-0.019245,-0.070184,0.003851,64.680923,21.417709,-147.620941,,,
729607174.46136,1.458846,2.097191,52.730874,-0.036789,0.037537,1.011978,-0.015174,-0.053809,0.006003,64.680923,21.417709,-147.620941,,,
729607174.46471,1.45479,2.081489,52.732999,-0.033813,0.030136,1.02095,-0.015174,-0.053809,0.006003,64.680923,21.417709,-147.620941,,,
729607174.468038,1.455326,2.070617,52.736368,-0.033813,0.030136,1.02095,-0.015174,-0.053809,0.006003,64.680923,21.417709,-147.620941,,,
729607174.471398,1.455326,2.070617,52.736368,-0.033813,0.030136,1.02095,-0.003537,-0.02395,0.015878,64.680923,21.417709,-147.620941,,,
729607174.474686,1.454644,2.062666,52.740758,-0.034042,0.027267,1.029327,-0.003537,-0.02395,0.015878,64.680923,21.417709,-147.620941,,,
729607174.478035,1.459741,2.058868,52.746014,-0.034042,0.027267,1.029327,-0.003537,-0.02395,0.015878,64.680923,21.417709,-147.620941,,,
729607174.481365,1.459741,2.058868,52.746014,-0.034042,0.027267,1.029327,0.00764,0.00068,0.01788,64.680923,21.417709,-147.620941,,,
729607174.484758,1.461994,2.058235,52.751797,-0.030838,0.025848,1.027283,0.00764,0.00068,0.01788,64.680923,21.417709,-147.620941,,,
729607174.488035,1.468996,2.061656,52.756544,-0.030838,0.025848,1.027283,0.00764,0.00068,0.01788,64.680923,21.417709,-147.620941,,,
729607174.491356,1.468996,2.061656,52.756544,-0.030838,0.025848,1.027283,0.00764,0.00068,0.01788,64.680923,21.417709,-147.620941,,,
729607174.494704,1.472577,2.063743,52.75992,-0.029312,0.026443,1.023148,0.013581,0.010059,0.013258,64.63385,21.496384,-147.502533,,,
729607174.498085,1.480275,2.068054,52.762495,-0.029312,0.026443,1.023148,0.013581,0.010059,0.013258,64.63385,21.496384,-147.502533,,,
729607174.501366,1.480275,2.068054,52.762495,-0.029312,0.026443,1.023148,0.013581,0.010059,0.013258,64.63385,21.496384,-147.502533,,,
729607174.504735,1.484599,2.066985,52.764242,-0.032074,0.02684,1.013489,0.017075,-0.000732,0.006122,64.63385,21.496384,-147.502533,,,
729607174.508028,1.494296,2.068466,52.764959,-0.032074,0.02684,1.013489,0.017075,-0.000732,0.006122,64.63385,21.496384,-147.502533,,,
729607174.511403,1.494296,2.068466,52.764959,-0.032074,0.02684,1.013489,0.017075,-0.000732,0.006122,64.63385,21.496384,-147.502533,,,
729607174.514716,1.500837,2.062518,52.765035,-0.035156,0.022263,1.010925,0.020214,-0.018127,-0.001263,64.63385,21.496384,-147.502533,,,
729607174.518037,1.512474,2.057689,52.764523,-0.035156,0.022263,1.010925,0.020214,-0.018127,-0.001263,64.63385,21.496384,-147.502533,,,
729607174.521435,1.512474,2.057689,52.764523,-0.035156,0.022263,1.010925,0.020214,-0.018127,-0.001263,64.63385,21.496384,-147.502533,,,
729607174.524692,1.521009,2.048583,52.76377,-0.031494,0.020035,1.008698,0.03235,-0.029941,-0.004803,64.63385,21.496384,-147.502533,,,
729607174.528039,1.533276,2.0402,52.763283,-0.031494,0.020035,1.008698,0.03235,-0.029941,-0.004803,64.63385,21.496384,-147.502533,,,
729607174.531364,1.533276,2.0402,52.763283,-0.031494,0.020035,1.008698,0.03235,-0.029941,-0.004803,64.63385,21.496384,-147.502533,,,
729607174.534694,1.541589,2.030319,52.762833,-0.029114,0.021622,1.006622,0.029289,-0.03059,-0.001049,64.54776,21.450119,-147.519089,,,
729607174.538022,1.550847,2.021289,52.761289,-0.029114,0.021622,1.006622,0.029289,-0.03059,-0.001049,64.54776,21.450119,-147.519089,,,
729607174.541354,1.550847,2.021289,52.761289,-0.029114,0.021622,1.006622,0.029289,-0.03059,-0.001049,64.54776,21.450119,-147.519089,,,
729607174.544699,1.557927,2.01356,52.758358,-0.027328,0.021698,1.007706,0.025959,-0.023403,-0.010533,64.54776,21.450119,-147.519089,,,
729607174.548113,1.564574,2.006168,52.753547,-0.027328,0.021698,1.007706,0.025959,-0.023403,-0.010533,64.54776,21.450119,-147.519089,,,
729607174.551409,1.564574,2.006168,52.753547,-0.027328,0.021698,1.007706,0.025959,-0.023403,-0.010533,64.54776,21.450119,-147.519089,,,
729607174.554702,1.571381,2.000063,52.746857,-0.023468,0.023193,1.004395,0.022912,-0.019355,-0.024144,64.54776,21.450119,-147.519089,,,
729607174.558052,1.577305,1.993063,52.739406,-0.023468,0.023193,1.004395,0.022912,-0.019355,-0.024144,64.54776,21.450119,-147.519089,,,
729607174.561451,1.577305,1.993063,52.739406,-0.023468,0.023193,1.004395,0.022912,-0.019355,-0.024144,64.54776,21.450119,-147.519089,,,
729607174.564695,1.58322,1.98697,52.732116,-0.028519,0.020523,1.002747,0.024124,-0.018926,-0.028865,64.54776,21.450119,-147.519089,,,
729607174.568036,1.589105,1.977188,52.725178,-0.028519,0.020523,1.002747,0.024124,-0.018926,-0.028865,64.54776,21.450119,-147.519089,,,
729607174.571392,1.589105,1.977188,52.725178,-0.028519,0.020523,1.002747,0.024124,-0.018926,-0.028865,64.54776,21.450119,-147.519089,,,
729607174.574679,1.596086,1.969579,52.718662,-0.032272,0.016205,0.998291,0.025682,-0.022911,-0.024025,64.431137,21.325546,-147.462494,,,
729607174.578038,1.60239,1.959976,52.712259,-0.032272,0.016205,0.998291,0.025682,-0.022911,-0.024025,64.431137,21.325546,-147.462494,,,
729607174.581396,1.60239,1.959976,52.712259,-0.032272,0.016205,0.998291,0.025682,-0.022911,-0.024025,64.431137,21.325546,-147.462494,,,
729607174.584728,1.608223,1.952627,52.7058,-0.032074,0.017685,0.991257,0.022664,-0.024158,-0.022162,64.431137,21.325546,-147.462494,,,
729607174.588071,1.612633,1.944811,52.699147,-0.032074,0.017685,0.991257,0.022664,-0.024158,-0.022162,64.431137,21.325546,-147.462494,,,
729607174.591347,1.612633,1.944811,52.699147,-0.032074,0.017685,0.991257,0.022664,-0.024158,-0.022162,64.431137,21.325546,-147.462494,,,
729607174.594701,1.617088,1.938529,52.692496,-0.032806,0.022552,0.985672,0.017047,-0.01958,-0.024293,64.431137,21.325546,-147.462494,,,
729607174.598034,1.619034,1.932617,52.686845,-0.032806,0.022552,0.985672,0.017047,-0.01958,-0.024293,64.431137,21.325546,-147.462494,,,
729607174.601447,1.619034,1.932617,52.686845,-0.032806,0.022552,0.985672,0.017047,-0.01958,-0.024293,64.431137,21.325546,-147.462494,,,
729607174.60478,1.621637,1.927486,52.68179,-0.036606,0.023743,0.98233,0.012617,-0.013591,-0.017112,64.431137,21.325546,-147.462494,,,
729607174.608034,1.621599,1.922263,52.677541,-0.036606,0.023743,0.98233,0.012617,-0.013591,-0.017112,64.431137,21.325546,-147.462494,,,
729607174.611367,1.621599,1.922263,52.677541,-0.036606,0.023743,0.98233,0.012617,-0.013591,-0.017112,64.431137,21.325546,-147.462494,,,
729607174.614758,1.621614,1.918013,52.674038,-0.03392,0.023285,0.979126,-0.001665,-0.013997,-0.014837,64.431137,21.325546,-147.462494,,,
729607174.618049,1.61909,1.910667,52.670707,-0.03392,0.023285,0.979126,-0.001665,-0.013997,-0.014837,64.637039,21.343643,-147.564117,,,
729607174.621362,1.61909,1.910667,52.670707,-0.03392,0.023285,0.979126,-0.001665,-0.013997,-0.014837,64.637039,21.343643,-147.564117,,,
729607174.624713,1.61684,1.905025,52.66714,-0.031967,0.025208,0.976608,-0.004966,-0.016168,-0.015958,64.637039,21.343643,-147.564117,,,
729607174.6281,1.612892,1.895809,52.663048,-0.031967,0.025208,0.976608,-0.004966,-0.016168,-0.015958,64.637039,21.343643,-147.564117,,,
729607174.631371,1.612892,1.895809,52.663048,-0.031967,0.025208,0.976608,-0.004966,-0.016168,-0.015958,64.637039,21.343643,-147.564117,,,
729607174.634738,1.610576,1.890595,52.658299,-0.028656,0.028244,0.978149,-0.010981,-0.015485,-0.019863,64.637039,21.343643,-147.564117,,,
729607174.63805,1.60657,1.881877,52.652821,-0.028656,0.028244,0.978149,-0.010981,-0.015485,-0.019863,64.637039,21.343643,-147.564117,,,
729607174.641459,1.60657,1.881877,52.652821,-0.028656,0.028244,0.978149,-0.010981,-0.015485,-0.019863,64.637039,21.343643,-147.564117,,,
729607174.644697,1.603161,1.876625,52.647075,-0.026886,0.029587,0.980423,-0.011197,-0.013065,-0.02133,64.637039,21.343643,-147.564117,,,
729607174.648032,1.596932,1.869464,52.642349,-0.026886,0.029587,0.980423,-0.011197,-0.013065,-0.02133,64.637039,21.343643,-147.564117,,,
729607174.651361,1.596932,1.869464,52.642349,-0.026886,0.029587,0.980423,-0.011197,-0.013065,-0.02133,64.637039,21.343643,-147.564117,,,
729607174.654765,1.591522,1.862856,52.638572,-0.0289,0.028442,0.978912,-0.016344,-0.021113,-0.013414,64.637039,21.343643,-147.564117,,,
729607174.658019,1.582424,1.855476,52.635883,-0.0289,0.028442,0.978912,-0.016344,-0.021113,-0.013414,64.641983,21.30603,-147.241287,,,
729607174.661369,1.582424,1.855476,52.635883,-0.0289,0.028442,0.978912,-0.016344,-0.021113,-0.013414,64.641983,21.30603,-147.241287,,,
729607174.664714,1.575394,1.846765,52.633509,-0.031006,0.026291,0.979538,-0.022045,-0.026329,-0.011589,64.641983,21.30603,-147.241287,,,
729607174.668083,1.566939,1.837719,52.630402,-0.031006,0.026291,0.979538,-0.022045,-0.026329,-0.011589,64.641983,21.30603,-147.241287,,,
729607174.671355,1.566939,1.837719,52.630402,-0.031006,0.026291,0.979538,-0.022045,-0.026329,-0.011589,64.641983,21.30603,-147.241287,,,
729607174.67472,1.560178,1.829709,52.62608,-0.030075,0.0298,0.987289,-0.022297,-0.026021,-0.015738,64.641983,21.30603,-147.241287,,,
729607174.678036,1.553104,1.823918,52.62119,-0.030075,0.0298,0.987289,-0.022297,-0.026021,-0.015738,64.641983,21.30603,-147.241287,,,
729607174.681454,1.553104,1.823918,52.62119,-0.030075,0.0298,0.987289,-0.022297,-0.026021,-0.015738,64.641983,21.30603,-147.241287,,,
729607174.684699,1.546601,1.818816,52.615654,-0.030655,0.029083,0.995911,-0.022527,-0.015854,-0.022401,64.641983,21.30603,-147.241287,,,
729607174.688053,1.539008,1.818022,52.609763,-0.030655,0.029083,0.995911,-0.022527,-0.015854,-0.022401,64.641983,21.30603,-147.241287,,,
729607174.691359,1.539008,1.818022,52.609763,-0.030655,0.029083,0.995911,-0.022527,-0.015854,-0.022401,64.641983,21.30603,-147.241287,,,
729607174.694762,1.532428,1.817113,52.605464,-0.033066,0.025635,1.00029,-0.023303,0.000187,-0.017161,64.641983,21.30603,-147.241287,,,
729607174.698022,1.525783,1.820202,52.603018,-0.033066,0.025635,1.00029,-0.023303,0.000187,-0.017161,64.384216,21.516846,-147.449295,,,
729607174.701371,1.525783,1.820202,52.603018,-0.033066,0.025635,1.00029,-0.023303,0.000187,-0.017161,64.384216,21.516846,-147.449295,,,
729607174.704721,1.520725,1.824471,52.601934,-0.039093,0.024139,1.006088,-0.016988,0.020196,-0.006112,64.384216,21.516846,-147.449295,,,
729607174.7081,1.516361,1.829098,52.602519,-0.039093,0.024139,1.006088,-0.016988,0.020196,-0.006112,64.384216,21.516846,-147.449295,,,
729607174.711375,1.516361,1.829098,52.602519,-0.039093,0.024139,1.006088,-0.016988,0.020196,-0.006112,64.384216,21.516846,-147.449295,,,
729607174.714701,1.513348,1.833514,52.604433,-0.039307,0.025391,1.003876,-0.00882,0.020044,0.00642,64.384216,21.516846,-147.449295,,,
729607174.718035,1.513086,1.835144,52.606641,-0.039307,0.025391,1.003876,-0.00882,0.020044,0.00642,64.384216,21.516846,-147.449295,,,
729607174.721436,1.513086,1.835144,52.606641,-0.039307,0.025391,1.003876,-0.00882,0.020044,0.00642,64.384216,21.516846,-147.449295,,,
729607174.7247,1.512305,1.836428,52.608729,-0.038193,0.027786,1.000397,-0.001011,0.006263,0.005123,64.384216,21.516846,-147.449295,,,
729607174.728052,1.511741,1.834388,52.610158,-0.038193,0.027786,1.000397,-0.001011,0.006263,0.005123,64.384216,21.516846,-147.449295,,,
729607174.731359,1.511741,1.834388,52.610158,-0.038193,0.027786,1.000397,-0.001011,0.006263,0.005123,64.384216,21.516846,-147.449295,,,
729607174.734765,1.510139,1.832503,52.610882,-0.039352,0.031616,0.996445,-0.004388,-0.00266,0.001415,64.384216,21.516846,-147.449295,,,
729607174.738005,1.508453,1.829085,52.611568,-0.039352,0.031616,0.996445,-0.004388,-0.00266,0.001415,64.550766,21.524567,-147.382172,,,
729607174.741381,1.508453,1.829085,52.611568,-0.039352,0.031616,0.996445,-0.004388,-0.00266,0.001415,64.550766,21.524567,-147.382172,,,
729607174.74469,1.505209,1.824996,52.612797,-0.041443,0.031265,0.995117,-0.011927,-0.012018,0.000705,64.550766,21.524567,-147.382172,,,
729607174.748072,1.501542,1.819092,52.615722,-0.041443,0.031265,0.995117,-0.011927,-0.012018,0.000705,64.550766,21.524567,-147.382172,,,
729607174.751345,1.501542,1.819092,52.615722,-0.041443,0.031265,0.995117,-0.011927,-0.012018,0.000705,64.550766,21.524567,-147.382172,,,
729607174.754684,1.49769,1.811887,52.620077,-0.042557,0.029556,0.996857,-0.014279,-0.022026,0.013112,64.550766,21.524567,-147.382172,,,
729607174.758045,1.495221,1.803284,52.625272,-0.042557,0.029556,0.996857,-0.014279,-0.022026,0.013112,64.550766,21.524567,-147.382172,,,
729607174.761434,1.495221,1.803284,52.625272,-0.042557,0.029556,0.996857,-0.014279,-0.022026,0.013112,64.550766,21.524567,-147.382172,,,
729607174.764709,1.491975,1.795952,52.631284,-0.043472,0.025177,1.00589,-0.013554,-0.022806,0.020499,64.550766,21.524567,-147.382172,,,
729607174.76804,1.489503,1.790755,52.637426,-0.043472,0.025177,1.00589,-0.013554,-0.022806,0.020499,64.550766,21.524567,-147.382172,,,
729607174.771372,1.489503,1.790755,52.637426,-0.043472,0.025177,1.00589,-0.013554,-0.022806,0.020499,64.550766,21.524567,-147.382172,,,
729607174.774764,1.487494,1.787741,52.643006,-0.037445,0.026398,1.015503,-0.008582,-0.006326,0.019698,64.550766,21.524567,-147.382172,,,
729607174.778023,1.485991,1.788145,52.648014,-0.037445,0.026398,1.015503,-0.008582,-0.006326,0.019698,64.550766,21.524567,-147.382172,,,
729607174.781371,1.485991,1.788145,52.648014,-0.037445,0.026398,1.015503,-0.008582,-0.006326,0.019698,64.453979,21.664474,-147.494934,,,
729607174.784682,1.485052,1.788765,52.653131,-0.032394,0.027359,1.013565,-0.003029,0.005319,0.015593,64.453979,21.664474,-147.494934,,,
729607174.788128,1.484682,1.794708,52.658933,-0.032394,0.027359,1.013565,-0.003029,0.005319,0.015593,64.453979,21.664474,-147.494934,,,
729607174.791364,1.484682,1.794708,52.658933,-0.032394,0.027359,1.013565,-0.003029,0.005319,0.015593,64.453979,21.664474,-147.494934,,,
729607174.794707,1.485617,1.797353,52.665877,-0.034332,0.021317,1.012253,0.002369,0.01171,0.022401,64.453979,21.664474,-147.494934,,,
729607174.79804,1.48664,1.802929,52.673871,-0.034332,0.021317,1.012253,0.002369,0.01171,0.022401,64.453979,21.664474,-147.494934,,,
729607174.801424,1.48664,1.802929,52.673871,-0.034332,0.021317,1.012253,0.002369,0.01171,0.022401,64.453979,21.664474,-147.494934,,,
729607174.80472,1.488907,1.804011,52.683139,-0.041016,0.017303,1.011292,0.007133,0.007218,0.032327,64.453979,21.664474,-147.494934,,,
729607174.808017,1.49369,1.806932,52.692429,-0.041016,0.017303,1.011292,0.007133,0.007218,0.032327,64.453979,21.664474,-147.494934,,,
729607174.811368,1.49369,1.806932,52.692429,-0.041016,0.017303,1.011292,0.007133,0.007218,0.032327,64.453979,21.664474,-147.494934,,,
729607174.814758,1.499876,1.804596,52.701525,-0.035721,0.020111,1.00827,0.020131,-0.004337,0.033662,64.453979,21.664474,-147.494934,,,
729607174.818098,1.509055,1.804352,52.710165,-0.035721,0.020111,1.00827,0.020131,-0.004337,0.033662,64.453979,21.664474,-147.494934,,,
729607174.821346,1.509055,1.804352,52.710165,-0.035721,0.020111,1.00827,0.020131,-0.004337,0.033662,64.292267,21.742828,-147.59903,,,
729607174.8247,1.518409,1.800434,52.718577,-0.0345,0.022491,1.010284,0.034173,-0.011998,0.028779,64.292267,21.742828,-147.59903,,,
729607174.828084,1.530006,1.802142,52.72694,-0.0345,0.022491,1.010284,0.034173,-0.011998,0.028779,64.292267,21.742828,-147.59903,,,
729607174.831355,1.530006,1.802142,52.72694,-0.0345,0.022491,1.010284,0.034173,-0.011998,0.028779,64.292267,21.742828,-147.59903,,,
729607174.834699,1.541273,1.799932,52.73546,-0.029831,0.020248,1.011307,0.039876,-0.003506,0.029022,64.292267,21.742828,-147.59903,,,
729607174.838029,1.552922,1.804801,52.743879,-0.029831,0.020248,1.011307,0.039876,-0.003506,0.029022,64.292267,21.742828,-147.59903,,,
729607174.8414,1.552922,1.804801,52.743879,-0.029831,0.020248,1.011307,0.039876,-0.003506,0.029022,64.292267,21.742828,-147.59903,,,
729607174.844697,1.563731,1.805861,52.751817,-0.02536,0.022125,1.006104,0.037597,0.007387,0.029727,64.292267,21.742828,-147.59903,,,
729607174.84804,1.573989,1.812615,52.758508,-0.02536,0.022125,1.006104,0.037597,0.007387,0.029727,64.292267,21.742828,-147.59903,,,
729607174.851355,1.573989,1.812615,52.758508,-0.02536,0.022125,1.006104,0.037597,0.007387,0.029727,64.292267,21.742828,-147.59903,,,
729607174.854745,1.585693,1.815847,52.764475,-0.022934,0.022858,1.002609,0.040363,0.014799,0.02175,64.292267,21.742828,-147.59903,,,
729607174.858019,1.598134,1.819994,52.769466,-0.022934,0.022858,1.002609,0.040363,0.014799,0.02175,64.292267,21.742828,-147.59903,,,
729607174.861352,1.598134,1.819994,52.769466,-0.022934,0.022858,1.002609,0.040363,0.014799,0.02175,64.318924,21.408981,-147.468079,,,
729607174.864687,1.612906,1.822167,52.773852,-0.029282,0.023041,0.999405,0.051157,0.009823,0.019151,64.318924,21.408981,-147.468079,,,
729607174.868069,1.629263,1.824344,52.778333,-0.029282,0.023041,0.999405,0.051157,0.009823,0.019151,64.318924,21.408981,-147.468079,,,
729607174.87136,1.629263,1.824344,52.778333,-0.029282,0.023041,0.999405,0.051157,0.009823,0.019151,64.318924,21.408981,-147.468079,,,
729607174.874692,1.647933,1.827215,52.783079,-0.037842,0.021133,1.001724,0.064041,0.016755,0.016559,64.318924,21.408981,-147.468079,,,
729607174.878038,1.666732,1.832969,52.788322,-0.037842,0.021133,1.001724,0.064041,0.016755,0.016559,64.318924,21.408981,-147.468079,,,
729607174.881397,1.666732,1.832969,52.788322,-0.037842,0.021133,1.001724,0.064041,0.016755,0.016559,64.318924,21.408981,-147.468079,,,
729607174.884703,1.689968,1.836384,52.794503,-0.040329,0.023224,1.000381,0.080473,0.014319,0.023758,64.318924,21.408981,-147.468079,,,
729607174.888026,1.712392,1.844074,52.801287,-0.040329,0.023224,1.000381,0.080473,0.014319,0.023758,64.318924,21.408981,-147.468079,,,
729607174.891408,1.712392,1.844074,52.801287,-0.040329,0.023224,1.000381,0.080473,0.014319,0.023758,64.318924,21.408981,-147.468079,,,
729607174.894797,1.738566,1.850352,52.808392,-0.042984,0.026642,0.994949,0.0896,0.026063,0.026152,64.318924,21.408981,-147.468079,,,
729607174.89804,1.763456,1.860874,52.81478,-0.042984,0.026642,0.994949,0.0896,0.026063,0.026152,64.318924,21.408981,-147.468079,,,
729607174.901415,1.763456,1.860874,52.81478,-0.042984,0.026642,0.994949,0.0896,0.026063,0.026152,64.318924,21.408981,-147.468079,,,
729607174.904703,1.791151,1.87262,52.820273,-0.046494,0.031906,1.000931,0.096984,0.046412,0.022444,64.263199,21.434586,-147.429459,,,
729607174.908088,1.818458,1.885743,52.824993,-0.046494,0.031906,1.000931,0.096984,0.046412,0.022444,64.263199,21.434586,-147.429459,,,
729607174.911353,1.818458,1.885743,52.824993,-0.046494,0.031906,1.000931,0.096984,0.046412,0.022444,64.263199,21.434586,-147.429459,,,
729607174.914688,1.848308,1.900062,52.829356,-0.051193,0.032028,0.998245,0.104943,0.056022,0.017438,64.263199,21.434586,-147.429459,,,
729607174.918024,1.875042,1.912317,52.834145,-0.051193,0.032028,0.998245,0.104943,0.056022,0.017438,64.263199,21.434586,-147.429459,,,
729607174.921355,1.875042,1.912317,52.834145,-0.051193,0.032028,0.998245,0.104943,0.056022,0.017438,64.263199,21.434586,-147.429459,,,
729607174.924688,1.903397,1.925962,52.839871,-0.057343,0.033997,0.988617,0.103019,0.053608,0.021401,64.263199,21.434586,-147.429459,,,
729607174.928038,1.927876,1.932751,52.847531,-0.057343,0.033997,0.988617,0.103019,0.053608,0.021401,64.263199,21.434586,-147.429459,,,
729607174.931351,1.927876,1.932751,52.847531,-0.057343,0.033997,0.988617,0.103019,0.053608,0.021401,64.263199,21.434586,-147.429459,,,
729607174.934685,1.951442,1.94139,52.857042,-0.062164,0.032776,0.972427,0.081879,0.036691,0.037306,64.263199,21.434586,-147.429459,,,
729607174.938038,1.969172,1.942995,52.868495,-0.062164,0.032776,0.972427,0.081879,0.036691,0.037306,64.263199,21.434586,-147.429459,,,
729607174.94136,1.969172,1.942995,52.868495,-0.062164,0.032776,0.972427,0.081879,0.036691,0.037306,64.263199,21.434586,-147.429459,,,
729607174.944758,1.985297,1.945228,52.88057,-0.058609,0.031631,0.966278,0.056938,0.012511,0.042743,64.303482,21.100372,-147.628479,,,
729607174.948038,1.994765,1.942963,52.892311,-0.058609,0.031631,0.966278,0.056938,0.012511,0.042743,64.303482,21.100372,-147.628479,,,
729607174.95136,1.994765,1.942963,52.892311,-0.058609,0.031631,0.966278,0.056938,0.012511,0.042743,64.303482,21.100372,-147.628479,,,
729607174.954693,2.003663,1.937339,52.903313,-0.043854,0.031631,0.963089,0.033304,-0.014075,0.03904,64.303482,21.100372,-147.628479,,,
729607174.958129,2.007246,1.931546,52.9132,-0.043854,0.031631,0.963089,0.033304,-0.014075,0.03904,64.303482,21.100372,-147.628479,,,
729607174.961363,2.007246,1.931546,52.9132,-0.043854,0.031631,0.963089,0.033304,-0.014075,0.03904,64.303482,21.100372,-147.628479,,,
729607174.964713,2.012174,1.9214,52.922377,-0.02951,0.034668,0.973694,0.016087,-0.031991,0.033851,64.303482,21.100372,-147.628479,,,
729607174.968033,2.013567,1.915208,52.930729,-0.02951,0.034668,0.973694,0.016087,-0.031991,0.033851,64.303482,21.100372,-147.628479,,,
729607174.971423,2.013567,1.915208,52.930729,-0.02951,0.034668,0.973694,0.016087,-0.031991,0.033851,64.303482,21.100372,-147.628479,,,
729607174.974732,2.016749,1.909063,52.93887,-0.022476,0.029327,0.986298,0.009595,-0.02009,0.026623,64.303482,21.100372,-147.628479,,,
729607174.978031,2.017902,1.911737,52.94775,-0.022476,0.029327,0.986298,0.009595,-0.02009,0.026623,64.303482,21.100372,-147.628479,,,
729607174.981364,2.017902,1.911737,52.94775,-0.022476,0.029327,0.986298,0.009595,-0.02009,0.026623,64.303482,21.100372,-147.628479,,,
729607174.984721,2.019294,1.911234,52.957506,-0.015076,0.027679,0.994843,0.006297,0.001831,0.033631,64.30011,21.159576,-147.526505,,,
729607174.988015,2.018607,1.918989,52.96711,-0.015076,0.027679,0.994843,0.006297,0.001831,0.033631,64.30011,21.159576,-147.526505,,,
729607174.991369,2.018607,1.918989,52.96711,-0.015076,0.027679,0.994843,0.006297,0.001831,0.033631,64.30011,21.159576,-147.526505,,,
729607174.994788,2.017536,1.922798,52.976108,-0.00473,0.03093,0.991043,-0.005304,0.018255,0.027729,64.30011,21.159576,-147.526505,,,
729607174.998034,2.014915,1.937384,52.98279,-0.00473,0.03093,0.991043,-0.005304,0.018255,0.027729,64.30011,21.159576,-147.526505,,,
729607175.001372,2.014915,1.937384,52.98279,-0.00473,0.03093,0.991043,-0.005304,0.018255,0.027729,64.30011,21.159576,-147.526505,,,
729607175.004699,2.011789,1.94371,52.987707,-0.001526,0.035736,0.991638,-0.011179,0.027078,0.015773,64.30011,21.159576,-147.526505,,,
729607175.008113,2.00779,1.960738,52.990116,-0.001526,0.035736,0.991638,-0.011179,0.027078,0.015773,64.30011,21.159576,-147.526505,,,
729607175.011361,2.00779,1.960738,52.990116,-0.001526,0.035736,0.991638,-0.011179,0.027078,0.015773,64.30011,21.159576,-147.526505,,,
729607175.014707,2.002993,1.965149,52.990719,-0.006729,0.033157,0.988449,-0.018654,0.018675,-9.3e-05,64.30011,21.159576,-147.526505,,,
729607175.018037,1.996648,1.9802,52.988484,-0.006729,0.033157,0.988449,-0.018654,0.018675,-9.3e-05,64.30011,21.159576,-147.526505,,,
729607175.021416,1.996648,1.9802,52.988484,-0.006729,0.033157,0.988449,-0.018654,0.018675,-9.3e-05,64.30011,21.159576,-147.526505,,,
729607175.02469,1.990065,1.982327,52.984556,-0.011017,0.034744,0.990768,-0.0223,0.011455,-0.014908,64.348267,21.274033,-147.529602,,,
729607175.028037,1.982234,1.993055,52.979289,-0.011017,0.034744,0.990768,-0.0223,0.011455,-0.014908,64.348267,21.274033,-147.529602,,,
729607175.03138,1.982234,1.993055,52.979289,-0.011017,0.034744,0.990768,-0.0223,0.011455,-0.014908,64.348267,21.274033,-147.529602,,,
729607175.034399,1.974478,1.996112,52.974099,-0.015915,0.032135,0.992004,-0.023689,0.011142,-0.021301,64.348267,21.274033,-147.529602,,,
729607175.038087,1.967034,2.001598,52.9684,-0.015915,0.032135,0.992004,-0.023689,0.011142,-0.021301,64.348267,21.274033,-147.529602,,,
729607175.041353,1.967034,2.001598,52.9684,-0.015915,0.032135,0.992004,-0.023689,0.011142,-0.021301,64.348267,21.274033,-147.529602,,,
729607175.044694,1.960616,2.006983,52.962802,-0.02182,0.030807,1.001556,-0.02161,0.021786,-0.021068,64.348267,21.274033,-147.529602,,,
729607175.048104,1.955363,2.011039,52.957939,-0.02182,0.030807,1.001556,-0.02161,0.021786,-0.021068,64.348267,21.274033,-147.529602,,,
729607175.051367,1.955363,2.011039,52.957939,-0.02182,0.030807,1.001556,-0.02161,0.021786,-0.021068,64.348267,21.274033,-147.529602,,,
729607175.054706,1.950909,2.020411,52.953133,-0.024155,0.032516,1.004471,-0.012991,0.034931,-0.021509,64.348267,21.274033,-147.529602,,,
729607175.058037,1.945889,2.025149,52.948593,-0.024155,0.032516,1.004471,-0.012991,0.034931,-0.021509,64.348267,21.274033,-147.529602,,,
729607175.061413,1.945889,2.025149,52.948593,-0.024155,0.032516,1.004471,-0.012991,0.034931,-0.021509,64.348267,21.274033,-147.529602,,,
729607175.064708,1.941912,2.037137,52.943589,-0.029221,0.035202,1.005722,-0.012498,0.042017,-0.017536,64.348267,21.274033,-147.529602,,,
729607175.068027,1.935827,2.039552,52.938847,-0.029221,0.035202,1.005722,-0.012498,0.042017,-0.017536,64.314087,21.405182,-147.659668,,,
729607175.071354,1.935827,2.039552,52.938847,-0.029221,0.035202,1.005722,-0.012498,0.042017,-0.017536,64.314087,21.405182,-147.659668,,,
729607175.074696,1.929365,2.049593,52.934666,-0.036804,0.036057,0.995255,-0.023025,0.039278,-0.015197,64.314087,21.405182,-147.659668,,,
729607175.07803,1.921132,2.043001,52.931967,-0.036804,0.036057,0.995255,-0.023025,0.039278,-0.015197,64.314087,21.405182,-147.659668,,,
729607175.081364,1.921132,2.043001,52.931967,-0.036804,0.036057,0.995255,-0.023025,0.039278,-0.015197,64.314087,21.405182,-147.659668,,,
729607175.084766,1.911225,2.046287,52.930465,-0.050003,0.035034,0.98999,-0.031912,0.014059,-0.006203,64.314087,21.405182,-147.659668,,,
729607175.088024,1.900573,2.03238,52.93177,-0.050003,0.035034,0.98999,-0.031912,0.014059,-0.006203,64.314087,21.405182,-147.659668,,,
729607175.091363,1.900573,2.03238,52.93177,-0.050003,0.035034,0.98999,-0.031912,0.014059,-0.006203,64.314087,21.405182,-147.659668,,,
729607175.094708,1.888981,2.027037,52.934289,-0.055359,0.032135,0.991364,-0.042608,-0.014313,0.006414,64.314087,21.405182,-147.659668,,,
729607175.098112,1.877666,2.005562,52.937686,-0.055359,0.032135,0.991364,-0.042608,-0.014313,0.006414,64.314087,21.405182,-147.659668,,,
729607175.101367,1.877666,2.005562,52.937686,-0.055359,0.032135,0.991364,-0.042608,-0.014313,0.006414,64.314087,21.405182,-147.659668,,,
729607175.104694,1.866874,1.991996,52.940659,-0.048233,0.037033,0.997742,-0.040483,-0.044872,0.008872,64.314087,21.405182,-147.659668,,,
729607175.108121,1.857913,1.966519,52.944275,-0.048233,0.037033,0.997742,-0.040483,-0.044872,0.008872,64.278488,21.354309,-147.735001,,,
729607175.111411,1.857913,1.966519,52.944275,-0.048233,0.037033,0.997742,-0.040483,-0.044872,0.008872,64.278488,21.354309,-147.735001,,,
729607175.114705,1.849929,1.951601,52.947826,-0.04129,0.038361,1.007599,-0.030828,-0.049023,0.01097,64.278488,21.354309,-147.735001,,,
729607175.11803,1.842634,1.931525,52.952564,-0.04129,0.038361,1.007599,-0.030828,-0.049023,0.01097,64.278488,21.354309,-147.735001,,,
729607175.12136,1.842634,1.931525,52.952564,-0.04129,0.038361,1.007599,-0.030828,-0.049023,0.01097,64.278488,21.354309,-147.735001,,,
729607175.124709,1.836387,1.920696,52.958466,-0.03772,0.034348,1.014404,-0.020847,-0.032086,0.019472,64.278488,21.354309,-147.735001,,,
729607175.128024,1.830444,1.907464,52.965729,-0.03772,0.034348,1.014404,-0.020847,-0.032086,0.019472,64.278488,21.354309,-147.735001,,,
729607175.131353,1.830444,1.907464,52.965729,-0.03772,0.034348,1.014404,-0.020847,-0.032086,0.019472,64.278488,21.354309,-147.735001,,,
729607175.13471,1.82606,1.901843,52.974033,-0.03241,0.031219,1.014832,-0.01168,-0.017874,0.028882,64.278488,21.354309,-147.735001,,,
729607175.138019,1.823744,1.894742,52.983707,-0.03241,0.031219,1.014832,-0.01168,-0.017874,0.028882,64.278488,21.354309,-147.735001,,,
729607175.141369,1.823744,1.894742,52.983707,-0.03241,0.031219,1.014832,-0.01168,-0.017874,0.028882,64.278488,21.354309,-147.735001,,,
729607175.144704,1.822082,1.892197,52.993808,-0.027008,0.029556,1.019272,-0.005724,-0.004017,0.032752,64.278488,21.354309,-147.735001,,,
729607175.148024,1.822792,1.889376,53.00325,-0.027008,0.029556,1.019272,-0.005724,-0.004017,0.032752,64.303482,21.451736,-147.727982,,,
729607175.151427,1.822792,1.889376,53.00325,-0.027008,0.029556,1.019272,-0.005724,-0.004017,0.032752,64.303482,21.451736,-147.727982,,,
729607175.154701,1.824177,1.885672,53.012275,-0.02478,0.036072,1.015305,0.004032,-0.008561,0.032163,64.303482,21.451736,-147.727982,,,
729607175.158047,1.827526,1.884231,53.019901,-0.02478,0.036072,1.015305,0.004032,-0.008561,0.032163,64.303482,21.451736,-147.727982,,,
729607175.161359,1.827526,1.884231,53.019901,-0.02478,0.036072,1.015305,0.004032,-0.008561,0.032163,64.303482,21.451736,-147.727982,,,
729607175.164761,1.830904,1.876959,53.025493,-0.022903,0.039673,1.013,0.012668,-0.024177,0.019684,64.303482,21.451736,-147.727982,,,
729607175.168038,1.835588,1.877344,53.028968,-0.022903,0.039673,1.013,0.012668,-0.024177,0.019684,64.303482,21.451736,-147.727982,,,
729607175.171363,1.835588,1.877344,53.028968,-0.022903,0.039673,1.013,0.012668,-0.024177,0.019684,64.303482,21.451736,-147.727982,,,
729607175.174704,1.841036,1.865952,53.031288,-0.020447,0.037643,1.007614,0.017753,-0.038809,0.005217,64.303482,21.451736,-147.727982,,,
729607175.178076,1.847871,1.862498,53.032013,-0.020447,0.037643,1.007614,0.017753,-0.038809,0.005217,64.303482,21.451736,-147.727982,,,
729607175.181382,1.847871,1.862498,53.032013,-0.020447,0.037643,1.007614,0.017753,-0.038809,0.005217,64.303482,21.451736,-147.727982,,,
729607175.184707,1.854997,1.848072,53.03211,-0.015182,0.032257,1.005432,0.025501,-0.046268,-0.000929,64.303482,21.451736,-147.727982,,,
729607175.188023,1.864204,1.838957,53.031052,-0.015182,0.032257,1.005432,0.025501,-0.046268,-0.000929,64.356476,21.228821,-147.501968,,,
729607175.191445,1.864204,1.838957,53.031052,-0.015182,0.032257,1.005432,0.025501,-0.046268,-0.000929,64.356476,21.228821,-147.501968,,,
729607175.1947,1.872737,1.824948,53.029162,-0.009964,0.034073,1.00293,0.028644,-0.045198,-0.006881,64.356476,21.228821,-147.501968,,,
729607175.198052,1.872737,1.824948,53.029162,-0.009964,0.034073,1.00293,0.028644,-0.045198,-0.006881,64.356476,21.228821,-147.501968,,,
729607175.201348,1.881861,1.816188,53.02626,-0.009964,0.034073,1.00293,0.028644,-0.045198,-0.006881,64.356476,21.228821,-147.501968,,,
729607175.20468,1.889946,1.806,53.022211,-0.009735,0.035446,1.000351,0.028112,-0.034581,-0.013816,64.356476,21.228821,-147.501968,,,
729607175.208027,1.897379,1.799837,53.017401,-0.009735,0.035446,1.000351,0.028112,-0.034581,-0.013816,64.356476,21.228821,-147.501968,,,
729607175.211361,1.897379,1.799837,53.017401,-0.009735,0.035446,1.000351,0.028112,-0.034581,-0.013816,64.356476,21.228821,-147.501968,,,
729607175.214683,1.905052,1.794974,53.012443,-0.0121,0.03598,0.999603,0.030145,-0.013283,-0.018008,64.356476,21.228821,-147.501968,,,
729607175.218078,1.905052,1.794974,53.012443,-0.0121,0.03598,0.999603,0.030145,-0.013283,-0.018008,64.356476,21.228821,-147.501968,,,
729607175.221355,1.912448,1.792697,53.007077,-0.0121,0.03598,0.999603,0.030145,-0.013283,-0.018008,64.356476,21.228821,-147.501968,,,
729607175.224687,1.920881,1.79324,53.002008,-0.021591,0.033081,1.000519,0.032699,0.005334,-0.016966,64.356476,21.228821,-147.501968,,,
729607175.228034,1.920881,1.791313,52.9981,-0.021591,0.033081,1.000519,0.032699,0.005334,-0.016966,64.356476,21.228821,-147.501968,,,
729607175.231415,1.929447,1.791313,52.9981,-0.021591,0.033081,1.000519,0.032699,0.005334,-0.016966,64.330032,21.275818,-147.711578,,,
729607175.234678,1.93832,1.791742,52.995203,-0.03421,0.034302,0.991974,0.031441,0.002846,-0.008938,64.330032,21.275818,-147.711578,,,
729607175.238024,1.93832,1.791742,52.995203,-0.03421,0.034302,0.991974,0.031441,0.002846,-0.008938,64.330032,21.275818,-147.711578,,,
729607175.241362,1.946649,1.788641,52.992624,-0.03421,0.034302,0.991974,0.031441,0.002846,-0.008938,64.330032,21.275818,-147.711578,,,
729607175.244688,1.95307,1.788163,52.989736,-0.041077,0.037476,0.986954,0.024265,0.002076,-0.008599,64.330032,21.275818,-147.711578,,,
729607175.248027,1.95307,1.788163,52.989736,-0.041077,0.037476,0.986954,0.024265,0.002076,-0.008599,64.330032,21.275818,-147.711578,,,
729607175.251369,1.958442,1.782543,52.986937,-0.041077,0.037476,0.986954,0.024265,0.002076,-0.008599,64.330032,21.275818,-147.711578,,,
729607175.25469,1.960574,1.779644,52.983664,-0.043915,0.044388,0.977631,0.010032,-0.009195,-0.01232,64.330032,21.275818,-147.711578,,,
729607175.258008,1.960574,1.779644,52.983664,-0.043915,0.044388,0.977631,0.010032,-0.009195,-0.01232,64.330032,21.275818,-147.711578,,,
729607175.261361,1.961614,1.769465,52.980614,-0.043915,0.044388,0.977631,0.010032,-0.009195,-0.01232,64.330032,21.275818,-147.711578,,,
729607175.264681,1.960691,1.762804,52.977781,-0.043335,0.047226,0.972794,-0.000212,-0.020263,-0.012738,64.330032,21.275818,-147.711578,,,
729607175.268031,1.960691,1.762804,52.977781,-0.043335,0.047226,0.972794,-0.000212,-0.020263,-0.012738,64.330032,21.275818,-147.711578,,,
729607175.271409,1.957921,1.746472,52.976377,-0.043335,0.047226,0.972794,-0.000212,-0.020263,-0.012738,64.337952,21.147675,-147.681793,,,
729607175.274672,1.954829,1.736177,52.975772,-0.045471,0.044983,0.973236,-0.010476,-0.033039,-0.003157,64.337952,21.147675,-147.681793,,,
729607175.278027,1.954829,1.736177,52.975772,-0.045471,0.044983,0.973236,-0.010476,-0.033039,-0.003157,64.337952,21.147675,-147.681793,,,
729607175.281357,1.951293,1.715214,52.976902,-0.045471,0.044983,0.973236,-0.010476,-0.033039,-0.003157,64.337952,21.147675,-147.681793,,,
729607175.284681,1.947953,1.702301,52.979567,-0.045059,0.037567,0.981583,-0.013559,-0.042401,0.008393,64.337952,21.147675,-147.681793,,,
729607175.288042,1.947953,1.702301,52.979567,-0.045059,0.037567,0.981583,-0.013559,-0.042401,0.008393,64.337952,21.147675,-147.681793,,,
729607175.291409,1.945314,1.679712,52.984203,-0.045059,0.037567,0.981583,-0.013559,-0.042401,0.008393,64.337952,21.147675,-147.681793,,,
729607175.294686,1.942803,1.665756,52.989521,-0.045364,0.032837,0.992905,-0.006378,-0.044105,0.018394,64.337952,21.147675,-147.681793,,,
729607175.298014,1.942803,1.665756,52.989521,-0.045364,0.032837,0.992905,-0.006378,-0.044105,0.018394,64.337952,21.147675,-147.681793,,,
729607175.301366,1.940666,1.645726,52.994937,-0.045364,0.032837,0.992905,-0.006378,-0.044105,0.018394,64.337952,21.147675,-147.681793,,,
729607175.304689,1.93897,1.633198,52.999461,-0.036133,0.037613,1.001694,-0.008971,-0.03984,0.014074,64.337952,21.147675,-147.681793,,,
729607175.308089,1.93897,1.633198,52.999461,-0.036133,0.037613,1.001694,-0.008971,-0.03984,0.014074,64.337952,21.147675,-147.681793,,,
729607175.311342,1.936545,1.620724,53.002375,-0.036133,0.037613,1.001694,-0.008971,-0.03984,0.014074,64.090607,21.129715,-147.814056,,,
729607175.314681,1.933083,1.61135,53.003432,-0.028549,0.042023,1.001755,-0.011934,-0.030292,0.002874,64.090607,21.129715,-147.814056,,,
729607175.318028,1.933083,1.61135,53.003432,-0.028549,0.042023,1.001755,-0.011934,-0.030292,0.002874,64.090607,21.129715,-147.814056,,,
729607175.321419,1.929483,1.608194,53.003218,-0.028549,0.042023,1.001755,-0.011934,-0.030292,0.002874,64.090607,21.129715,-147.814056,,,
729607175.324685,1.924979,1.601427,53.003091,-0.027893,0.034592,1.005936,-0.016454,-0.020129,-0.001591,64.090607,21.129715,-147.814056,,,
729607175.328035,1.924979,1.601427,53.003091,-0.027893,0.034592,1.005936,-0.016454,-0.020129,-0.001591,64.090607,21.129715,-147.814056,,,
729607175.331357,1.922148,1.600791,53.003781,-0.027893,0.034592,1.005936,-0.016454,-0.020129,-0.001591,64.090607,21.129715,-147.814056,,,
729607175.334688,1.918187,1.592531,53.005544,-0.032837,0.028275,1.007584,-0.015173,-0.025155,0.002832,64.090607,21.129715,-147.814056,,,
729607175.338034,1.918187,1.592531,53.005544,-0.032837,0.028275,1.007584,-0.015173,-0.025155,0.002832,64.090607,21.129715,-147.814056,,,
729607175.341414,1.918704,1.590504,53.007577,-0.032837,0.028275,1.007584,-0.015173,-0.025155,0.002832,64.090607,21.129715,-147.814056,,,
729607175.344733,1.918901,1.580342,53.010607,-0.035492,0.024109,1.01062,0.001982,-0.03066,0.011222,64.090607,21.129715,-147.814056,,,
729607175.348134,1.918901,1.580342,53.010607,-0.035492,0.024109,1.01062,0.001982,-0.03066,0.011222,64.090607,21.129715,-147.814056,,,
729607175.351394,1.924601,1.578519,53.014029,-0.035492,0.024109,1.01062,0.001982,-0.03066,0.011222,63.926422,21.158371,-147.492355,,,
729607175.354696,1.928947,1.570188,53.017596,-0.031525,0.02301,1.016464,0.015086,-0.02584,0.010697,63.926422,21.158371,-147.492355,,,
729607175.358043,1.928947,1.570188,53.017596,-0.031525,0.02301,1.016464,0.015086,-0.02584,0.010697,63.926422,21.158371,-147.492355,,,
729607175.361445,1.93667,1.572049,53.020313,-0.031525,0.02301,1.016464,0.015086,-0.02584,0.010697,63.926422,21.158371,-147.492355,,,
729607175.364687,1.943004,1.568136,53.023289,-0.025177,0.026001,1.015488,0.022248,-0.009022,0.008738,63.926422,21.158371,-147.492355,,,
729607175.368027,1.943004,1.568136,53.023289,-0.025177,0.026001,1.015488,0.022248,-0.009022,0.008738,63.926422,21.158371,-147.492355,,,
729607175.371362,1.949928,1.575814,53.02638,-0.025177,0.026001,1.015488,0.022248,-0.009022,0.008738,63.926422,21.158371,-147.492355,,,
729607175.374694,1.956398,1.577272,53.030287,-0.025162,0.024933,1.010818,0.023165,0.010694,0.013862,63.926422,21.158371,-147.492355,,,
729607175.378028,1.956398,1.577272,53.030287,-0.025162,0.024933,1.010818,0.023165,0.010694,0.013862,63.926422,21.158371,-147.492355,,,
729607175.381356,1.962533,1.585925,53.034205,-0.025162,0.024933,1.010818,0.023165,0.010694,0.013862,63.926422,21.158371,-147.492355,,,
729607175.384697,1.969124,1.586285,53.037857,-0.026505,0.028702,1.000107,0.021495,0.005785,0.011588,63.926422,21.158371,-147.492355,,,
729607175.388083,1.969124,1.586285,53.037857,-0.026505,0.028702,1.000107,0.021495,0.005785,0.011588,63.926422,21.158371,-147.492355,,,
729607175.391368,1.977405,1.588217,53.040539,-0.026505,0.028702,1.000107,0.021495,0.005785,0.011588,63.926422,21.158371,-147.492355,,,
729607175.394694,1.984481,1.588072,53.042324,-0.024704,0.033783,0.999268,0.026582,0.003499,0.005373,64.01503,21.152908,-147.342682,,,
729607175.398035,1.984481,1.588072,53.042324,-0.024704,0.033783,0.999268,0.026582,0.003499,0.005373,64.01503,21.152908,-147.342682,,,
729607175.401411,1.992898,1.587369,53.043279,-0.024704,0.033783,0.999268,0.026582,0.003499,0.005373,64.01503,21.152908,-147.342682,,,
729607175.404685,1.999891,1.586114,53.044149,-0.028824,0.033234,0.998413,0.024946,-0.001552,0.0022,64.01503,21.152908,-147.342682,,,
729607175.408042,1.999891,1.586114,53.044149,-0.028824,0.033234,0.998413,0.024946,-0.001552,0.0022,64.01503,21.152908,-147.342682,,,
729607175.411486,2.005091,1.585165,53.045502,-0.028824,0.033234,0.998413,0.024946,-0.001552,0.0022,64.01503,21.152908,-147.342682,,,
729607175.414688,2.010025,1.583152,53.047814,-0.02951,0.029297,0.992325,0.017731,-0.006909,0.005586,64.01503,21.152908,-147.342682,,,
729607175.41805,2.010025,1.583152,53.047814,-0.02951,0.029297,0.992325,0.017731,-0.006909,0.005586,64.01503,21.152908,-147.342682,,,
729607175.421363,2.011806,1.582667,53.051234,-0.02951,0.029297,0.992325,0.017731,-0.006909,0.005586,64.01503,21.152908,-147.342682,,,
729607175.424684,2.013954,1.579083,53.0552,-0.026886,0.031143,0.988922,0.007543,-0.008044,0.011826,64.01503,21.152908,-147.342682,,,
729607175.428069,2.013954,1.579083,53.0552,-0.026886,0.031143,0.988922,0.007543,-0.008044,0.011826,64.01503,21.152908,-147.342682,,,
729607175.43135,2.012,1.579059,53.059384,-0.026886,0.031143,0.988922,0.007543,-0.008044,0.011826,64.01503,21.152908,-147.342682,,,
729607175.434694,2.01143,1.576407,53.064446,-0.02858,0.029968,0.98996,-0.000975,-0.00875,0.017144,64.135117,20.949631,-147.637299,,,
729607175.438027,2.01143,1.576407,53.064446,-0.02858,0.029968,0.98996,-0.000975,-0.00875,0.017144,64.135117,20.949631,-147.637299,,,
729607175.441439,2.007357,1.575028,53.069649,-0.02858,0.029968,0.98996,-0.000975,-0.00875,0.017144,64.135117,20.949631,-147.637299,,,
729607175.444686,2.005204,1.574655,53.074644,-0.028061,0.028839,0.992599,-0.008703,0.001296,0.017561,64.135117,20.949631,-147.637299,,,
729607175.448035,2.005204,1.574655,53.074644,-0.028061,0.028839,0.992599,-0.008703,0.001296,0.017561,64.135117,20.949631,-147.637299,,,
729607175.451403,2.001236,1.573163,53.079687,-0.028061,0.028839,0.992599,-0.008703,0.001296,0.017561,64.135117,20.949631,-147.637299,,,
729607175.454686,1.999401,1.57286,53.084248,-0.022141,0.032196,0.994171,-0.008135,-0.000301,0.013621,64.135117,20.949631,-147.637299,,,
729607175.458057,1.999401,1.57286,53.084248,-0.022141,0.032196,0.994171,-0.008135,-0.000301,0.013621,64.135117,20.949631,-147.637299,,,
729607175.461358,1.995746,1.57053,53.087864,-0.022141,0.032196,0.994171,-0.008135,-0.000301,0.013621,64.135117,20.949631,-147.637299,,,
729607175.464695,1.993486,1.568334,53.091028,-0.021729,0.031601,0.989349,-0.007307,-0.0042,0.009679,64.135117,20.949631,-147.637299,,,
729607175.468085,1.993486,1.568334,53.091028,-0.021729,0.031601,0.989349,-0.007307,-0.0042,0.009679,64.135117,20.949631,-147.637299,,,
729607175.471354,1.989222,1.56477,53.09421,-0.021729,0.031601,0.989349,-0.007307,-0.0042,0.009679,64.135117,20.949631,-147.637299,,,
729607175.474699,1.984003,1.56134,53.097604,-0.023407,0.029617,0.986099,-0.014767,-0.010144,0.008946,64.043091,21.026642,-147.251633,,,
729607175.478022,1.984003,1.56134,53.097604,-0.023407,0.029617,0.986099,-0.014767,-0.010144,0.008946,64.043091,21.026642,-147.251633,,,
729607175.481421,1.976589,1.556943,53.101017,-0.023407,0.029617,0.986099,-0.014767,-0.010144,0.008946,64.043091,21.026642,-147.251633,,,
729607175.484687,1.966819,1.553747,53.104319,-0.020737,0.034561,0.983551,-0.032158,-0.01055,0.008388,64.043091,21.026642,-147.251633,,,
729607175.488028,1.966819,1.553747,53.104319,-0.020737,0.034561,0.983551,-0.032158,-0.01055,0.008388,64.043091,21.026642,-147.251633,,,
729607175.491359,1.95365,1.552004,53.107893,-0.020737,0.034561,0.983551,-0.032158,-0.01055,0.008388,64.043091,21.026642,-147.251633,,,
729607175.494692,1.939277,1.547436,53.111376,-0.019272,0.032608,0.984833,-0.051397,-0.010739,0.009609,64.043091,21.026642,-147.251633,,,
729607175.498028,1.939277,1.547436,53.111376,-0.019272,0.032608,0.984833,-0.051397,-0.010739,0.009609,64.043091,21.026642,-147.251633,,,
729607175.501359,1.923701,1.542052,53.114278,-0.019272,0.032608,0.984833,-0.051397,-0.010739,0.009609,64.043091,21.026642,-147.251633,,,
729607175.504802,1.908939,1.535827,53.116451,-0.015686,0.030319,0.98967,-0.051449,-0.019037,0.006883,64.043091,21.026642,-147.251633,,,
729607175.508085,1.908939,1.535827,53.116451,-0.015686,0.030319,0.98967,-0.051449,-0.019037,0.006883,64.043091,21.026642,-147.251633,,,
729607175.511377,1.894371,1.530415,53.119002,-0.015686,0.030319,0.98967,-0.051449,-0.019037,0.006883,64.043091,21.026642,-147.251633,,,
729607175.514696,1.88192,1.524374,53.122796,-0.020538,0.028015,1.003891,-0.045479,-0.017911,0.007866,64.043091,21.026642,-147.251633,,,
729607175.518028,1.88192,1.524374,53.122796,-0.020538,0.028015,1.003891,-0.045479,-0.017911,0.007866,63.921219,21.150055,-147.456177,,,
729607175.521437,1.870982,1.520656,53.126752,-0.020538,0.028015,1.003891,-0.045479,-0.017911,0.007866,63.921219,21.150055,-147.456177,,,
729607175.524674,1.862836,1.516688,53.130654,-0.024048,0.023865,1.013321,-0.02896,-0.012924,0.011583,63.921219,21.150055,-147.456177,,,
729607175.528034,1.862836,1.516688,53.130654,-0.024048,0.023865,1.013321,-0.02896,-0.012924,0.011583,63.921219,21.150055,-147.456177,,,
729607175.531344,1.856282,1.512994,53.135263,-0.024048,0.023865,1.013321,-0.02896,-0.012924,0.011583,63.921219,21.150055,-147.456177,,,
729607175.534705,1.853007,1.510191,53.139862,-0.01828,0.02356,1.015808,-0.010881,-0.005554,0.014769,63.921219,21.150055,-147.456177,,,
729607175.538024,1.853007,1.510191,53.139862,-0.01828,0.02356,1.015808,-0.010881,-0.005554,0.014769,63.921219,21.150055,-147.456177,,,
729607175.541362,1.851429,1.505559,53.14365,-0.01828,0.02356,1.015808,-0.010881,-0.005554,0.014769,63.921219,21.150055,-147.456177,,,
729607175.544693,1.851229,1.503389,53.146345,-0.015564,0.028961,1.014099,-0.001613,-0.00534,0.007831,63.921219,21.150055,-147.456177,,,
729607175.548038,1.851229,1.503389,53.146345,-0.015564,0.028961,1.014099,-0.001613,-0.00534,0.007831,63.921219,21.150055,-147.456177,,,
729607175.551367,1.851234,1.499517,53.147711,-0.015564,0.028961,1.014099,-0.001613,-0.00534,0.007831,63.921219,21.150055,-147.456177,,,
729607175.554684,1.851207,1.496403,53.148698,-0.017609,0.030838,1.006134,0.000904,-0.005136,0.001797,63.921219,21.150055,-147.456177,,,
729607175.558021,1.851207,1.496403,53.148698,-0.017609,0.030838,1.006134,0.000904,-0.005136,0.001797,63.83345,21.229904,-147.314835,,,
