Time (sec),Pitch (deg),Roll (deg),Yaw(deg),X-Acceleration (g),Y-Acceleration (g),Z-Acceleration (g),Pitch Rate (deg/sec),Roll Rate (deg/sec),Yaw Rate (deg/sec),Magnetic Field in X direction (uT),Magnetic Field in Y direction (uT),Magnetic Field in Z Direction (uT),Latitude (deg),Longitude (deg),Altitude (m)
729605973.5065,-0.437296,1.320911,47.77056,-0.025787,-0.004944,1.001984,-0.023267,0.035507,-0.062468,63.002686,21.753754,-148.464859,,,
729605973.509831,-0.437296,1.320911,47.77056,-0.025787,-0.004944,1.001984,-0.023267,0.035507,-0.062468,63.002686,21.753754,-148.464859,,,
729605973.513222,-0.447725,1.317742,47.751432,-0.025787,-0.004944,1.001984,-0.037592,0.024419,-0.069882,63.002686,21.753754,-148.464859,,,
729605973.516493,-0.459583,1.322791,47.731089,-0.028854,-0.003159,1.007187,-0.037592,0.024419,-0.069882,63.147049,21.769638,-148.380432,,,
729605973.519843,-0.459583,1.322791,47.731089,-0.028854,-0.003159,1.007187,-0.037592,0.024419,-0.069882,63.147049,21.769638,-148.380432,,,
729605973.523178,-0.470936,1.317464,47.710247,-0.028854,-0.003159,1.007187,-0.034556,0.014434,-0.0731,63.147049,21.769638,-148.380432,,,
729605973.526503,-0.482644,1.320005,47.689481,-0.029358,-0.004608,1.014832,-0.034556,0.014434,-0.0731,63.147049,21.769638,-148.380432,,,
729605973.529837,-0.482644,1.320005,47.689481,-0.029358,-0.004608,1.014832,-0.034556,0.014434,-0.0731,63.147049,21.769638,-148.380432,,,
729605973.533185,-0.495048,1.312892,47.668885,-0.029358,-0.004608,1.014832,-0.039927,0.004545,-0.074548,63.147049,21.769638,-148.380432,,,
729605973.536491,-0.507825,1.312465,47.649124,-0.029388,-0.006058,1.010101,-0.039927,0.004545,-0.074548,63.147049,21.769638,-148.380432,,,
729605973.539836,-0.507825,1.312465,47.649124,-0.029388,-0.006058,1.010101,-0.039927,0.004545,-0.074548,63.147049,21.769638,-148.380432,,,
729605973.543172,-0.522311,1.304286,47.630013,-0.029388,-0.006058,1.010101,-0.047029,0.00223,-0.065886,63.147049,21.769638,-148.380432,,,
729605973.546463,-0.537053,1.303619,47.611808,-0.030518,-0.003922,1.006744,-0.047029,0.00223,-0.065886,63.147049,21.769638,-148.380432,,,
729605973.549802,-0.537053,1.303619,47.611808,-0.030518,-0.003922,1.006744,-0.047029,0.00223,-0.065886,63.147049,21.769638,-148.380432,,,
729605973.553161,-0.553081,1.299526,47.594236,-0.030518,-0.003922,1.006744,-0.052897,0.00223,-0.061979,63.147049,21.769638,-148.380432,,,
729605973.556437,-0.568324,1.297349,47.576869,-0.026932,-0.002274,1.010117,-0.052897,0.00223,-0.061979,62.896667,22.066498,-148.274612,,,
729605973.559783,-0.568324,1.297349,47.576869,-0.026932,-0.002274,1.010117,-0.052897,0.00223,-0.061979,62.896667,22.066498,-148.274612,,,
729605973.563054,-0.582047,1.294868,47.559469,-0.026932,-0.002274,1.010117,-0.041343,-0.013342,-0.06208,62.896667,22.066498,-148.274612,,,
729605973.566479,-0.59317,1.289253,47.541756,-0.020004,-3.1e-05,1.014648,-0.041343,-0.013342,-0.06208,62.896667,22.066498,-148.274612,,,
729605973.569801,-0.59317,1.289253,47.541756,-0.020004,-3.1e-05,1.014648,-0.041343,-0.013342,-0.06208,62.896667,22.066498,-148.274612,,,
729605973.572903,-0.601162,1.28307,47.524327,-0.020004,-3.1e-05,1.014648,-0.024016,-0.024219,-0.060793,62.896667,22.066498,-148.274612,,,
729605973.576469,-0.605663,1.273362,47.507809,-0.02063,-3.1e-05,1.019821,-0.024016,-0.024219,-0.060793,62.896667,22.066498,-148.274612,,,
729605973.579808,-0.605663,1.273362,47.507809,-0.02063,-3.1e-05,1.019821,-0.024016,-0.024219,-0.060793,62.896667,22.066498,-148.274612,,,
729605973.583125,-0.605744,1.261637,47.492627,-0.02063,-3.1e-05,1.019821,0.003619,-0.038142,-0.053434,62.896667,22.066498,-148.274612,,,
729605973.586475,-0.602353,1.248315,47.478354,-0.01918,3.1e-05,1.022171,0.003619,-0.038142,-0.053434,62.896667,22.066498,-148.274612,,,
729605973.589803,-0.602353,1.248315,47.478354,-0.01918,3.1e-05,1.022171,0.003619,-0.038142,-0.053434,62.896667,22.066498,-148.274612,,,
729605973.593144,-0.592888,1.235621,47.464453,-0.01918,3.1e-05,1.022171,0.03685,-0.04442,-0.049996,62.896667,22.066498,-148.274612,,,
729605973.596493,-0.579078,1.222224,47.45091,-0.011749,0.001831,1.033096,0.03685,-0.04442,-0.049996,63.10704,21.793808,-148.289093,,,
729605973.599814,-0.579078,1.222224,47.45091,-0.011749,0.001831,1.033096,0.03685,-0.04442,-0.049996,63.10704,21.793808,-148.289093,,,
729605973.603171,-0.561315,1.209864,47.437764,-0.011749,0.001831,1.033096,0.065886,-0.045831,-0.046378,63.10704,21.793808,-148.289093,,,
729605973.606504,-0.542652,1.195726,47.425376,-0.009018,0.002213,1.028809,0.065886,-0.045831,-0.046378,63.10704,21.793808,-148.289093,,,
729605973.609842,-0.542652,1.195726,47.425376,-0.009018,0.002213,1.028809,0.065886,-0.045831,-0.046378,63.10704,21.793808,-148.289093,,,
729605973.613242,-0.524276,1.183597,47.414248,-0.009018,0.002213,1.028809,0.062446,-0.042472,-0.03556,63.10704,21.793808,-148.289093,,,
729605973.616483,-0.508635,1.17018,47.404435,-0.015152,0.003342,1.00679,0.062446,-0.042472,-0.03556,63.10704,21.793808,-148.289093,,,
729605973.619839,-0.508635,1.17018,47.404435,-0.015152,0.003342,1.00679,0.062446,-0.042472,-0.03556,63.10704,21.793808,-148.289093,,,
729605973.623178,-0.495534,1.159124,47.395276,-0.015152,0.003342,1.00679,0.042739,-0.041994,-0.031489,63.10704,21.793808,-148.289093,,,
729605973.626508,-0.486504,1.147145,47.38602,-0.010986,0.006577,0.99913,0.042739,-0.041994,-0.031489,63.10704,21.793808,-148.289093,,,
729605973.629846,-0.486504,1.147145,47.38602,-0.010986,0.006577,0.99913,0.042739,-0.041994,-0.031489,63.10704,21.793808,-148.289093,,,
729605973.63319,-0.480586,1.137896,47.375651,-0.010986,0.006577,0.99913,0.017199,-0.035093,-0.038762,63.10704,21.793808,-148.289093,,,
729605973.636499,-0.478732,1.125185,47.363769,-0.001755,0.007797,0.99353,0.017199,-0.035093,-0.038762,63.10704,21.793808,-148.289093,,,
729605973.639924,-0.478732,1.125185,47.363769,-0.001755,0.007797,0.99353,0.017199,-0.035093,-0.038762,62.777863,21.65477,-148.108978,,,
729605973.643217,-0.479378,1.112343,47.350886,-0.001755,0.007797,0.99353,-0.00729,-0.045732,-0.046839,62.777863,21.65477,-148.108978,,,
729605973.646504,-0.484428,1.098866,47.337293,-0.001114,0.010132,0.989655,-0.00729,-0.045732,-0.046839,62.777863,21.65477,-148.108978,,,
729605973.649858,-0.484428,1.098866,47.337293,-0.001114,0.010132,0.989655,-0.00729,-0.045732,-0.046839,62.777863,21.65477,-148.108978,,,
729605973.653238,-0.490271,1.086131,47.323242,-0.001114,0.010132,0.989655,-0.023752,-0.041888,-0.05101,62.777863,21.65477,-148.108978,,,
729605973.65649,-0.498994,1.073757,47.309154,-0.005493,0.005463,0.998306,-0.023752,-0.041888,-0.05101,62.777863,21.65477,-148.108978,,,
729605973.659826,-0.498994,1.073757,47.309154,-0.005493,0.005463,0.998306,-0.023752,-0.041888,-0.05101,62.777863,21.65477,-148.108978,,,
729605973.663191,-0.506545,1.063311,47.295129,-0.005493,0.005463,0.998306,-0.031143,-0.031393,-0.051342,62.777863,21.65477,-148.108978,,,
729605973.666501,-0.515377,1.053567,47.281745,-0.013336,0.000122,1.004745,-0.031143,-0.031393,-0.051342,62.777863,21.65477,-148.108978,,,
729605973.669848,-0.515377,1.053567,47.281745,-0.013336,0.000122,1.004745,-0.031143,-0.031393,-0.051342,62.777863,21.65477,-148.108978,,,
729605973.673177,-0.521624,1.044181,47.270217,-0.013336,0.000122,1.004745,-0.025046,-0.028906,-0.040572,62.777863,21.65477,-148.108978,,,
729605973.676593,-0.527984,1.036513,47.261963,-0.024384,-0.007431,1.008041,-0.025046,-0.028906,-0.040572,62.777863,21.65477,-148.108978,,,
729605973.679822,-0.527984,1.036513,47.261963,-0.024384,-0.007431,1.008041,-0.025046,-0.028906,-0.040572,63.064209,21.908218,-148.100693,,,
729605973.683175,-0.528914,1.028046,47.257022,-0.024384,-0.007431,1.008041,-0.005182,-0.014517,-0.015515,63.064209,21.908218,-148.100693,,,
729605973.686495,-0.527013,1.024598,47.25482,-0.033813,-0.016479,1.012238,-0.005182,-0.014517,-0.015515,63.064209,21.908218,-148.100693,,,
729605973.68991,-0.527013,1.024598,47.25482,-0.033813,-0.016479,1.012238,-0.005182,-0.014517,-0.015515,63.064209,21.908218,-148.100693,,,
729605973.693155,-0.517687,1.020457,47.254608,-0.033813,-0.016479,1.012238,0.029534,-0.002037,0.000524,63.064209,21.908218,-148.100693,,,
729605973.696494,-0.505722,1.019182,47.255498,-0.029282,-0.01445,1.023254,0.029534,-0.002037,0.000524,63.064209,21.908218,-148.100693,,,
729605973.699842,-0.505722,1.019182,47.255498,-0.029282,-0.01445,1.023254,0.029534,-0.002037,0.000524,63.064209,21.908218,-148.100693,,,
729605973.703236,-0.48866,1.017803,47.257853,-0.029282,-0.01445,1.023254,0.053473,0.004473,0.009714,63.064209,21.908218,-148.100693,,,
729605973.706495,-0.472899,1.018379,47.261822,-0.03096,-0.01207,1.009888,0.053473,0.004473,0.009714,63.064209,21.908218,-148.100693,,,
729605973.709832,-0.472899,1.018379,47.261822,-0.03096,-0.01207,1.009888,0.053473,0.004473,0.009714,63.064209,21.908218,-148.100693,,,
729605973.713191,-0.455488,1.016281,47.266164,-0.03096,-0.01207,1.009888,0.051126,0.007856,0.014242,63.064209,21.908218,-148.100693,,,
729605973.716499,-0.443113,1.016619,47.270522,-0.035843,-0.008835,0.992401,0.051126,0.007856,0.014242,63.064209,21.908218,-148.100693,,,
729605973.719831,-0.443113,1.016619,47.270522,-0.035843,-0.008835,0.992401,0.051126,0.007856,0.014242,62.85701,21.659882,-148.097321,,,
729605973.722935,-0.430582,1.009543,47.274505,-0.035843,-0.008835,0.992401,0.030201,-0.008104,0.011426,62.85701,21.659882,-148.097321,,,
729605973.726532,-0.425138,1.005073,47.277571,-0.03215,-0.004822,0.974869,0.030201,-0.008104,0.011426,62.85701,21.659882,-148.097321,,,
729605973.729901,-0.425138,1.005073,47.277571,-0.03215,-0.004822,0.974869,0.030201,-0.008104,0.011426,62.85701,21.659882,-148.097321,,,
729605973.733172,-0.421384,0.992504,47.279178,-0.03215,-0.004822,0.974869,-0.000102,-0.024848,0.003832,62.85701,21.659882,-148.097321,,,
729605973.736501,-0.424238,0.981885,47.279377,-0.029861,-0.001999,0.966293,-0.000102,-0.024848,0.003832,62.85701,21.659882,-148.097321,,,
729605973.739898,-0.424238,0.981885,47.279377,-0.029861,-0.001999,0.966293,-0.000102,-0.024848,0.003832,62.85701,21.659882,-148.097321,,,
729605973.743192,-0.42892,0.966553,47.278123,-0.029861,-0.001999,0.966293,-0.026462,-0.042775,-0.007531,62.85701,21.659882,-148.097321,,,
729605973.746516,-0.439915,0.952257,47.275898,-0.026077,-0.001816,0.966461,-0.026462,-0.042775,-0.007531,62.85701,21.659882,-148.097321,,,
729605973.749847,-0.439915,0.952257,47.275898,-0.026077,-0.001816,0.966461,-0.026462,-0.042775,-0.007531,62.85701,21.659882,-148.097321,,,
729605973.753183,-0.452342,0.936146,47.273232,-0.026077,-0.001816,0.966461,-0.046995,-0.056251,-0.00987,62.85701,21.659882,-148.097321,,,
729605973.756554,-0.467496,0.919011,47.270042,-0.027527,-0.003372,0.972321,-0.046995,-0.056251,-0.00987,62.85701,21.659882,-148.097321,,,
729605973.759841,-0.467496,0.919011,47.270042,-0.027527,-0.003372,0.972321,-0.046995,-0.056251,-0.00987,62.873291,21.631134,-148.344742,,,
729605973.763199,-0.483646,0.90529,47.266561,-0.027527,-0.003372,0.972321,-0.052936,-0.059525,-0.016626,62.873291,21.631134,-148.344742,,,
729605973.766499,-0.497959,0.886984,47.262988,-0.025803,-0.00795,0.986404,-0.052936,-0.059525,-0.016626,62.873291,21.631134,-148.344742,,,
729605973.76985,-0.497959,0.886984,47.262988,-0.025803,-0.00795,0.986404,-0.052936,-0.059525,-0.016626,62.873291,21.631134,-148.344742,,,
729605973.7732,-0.512864,0.874038,47.259758,-0.025803,-0.00795,0.986404,-0.044146,-0.060429,-0.013575,62.873291,21.631134,-148.344742,,,
729605973.776503,-0.524875,0.856547,47.257128,-0.028,-0.01564,0.993561,-0.044146,-0.060429,-0.013575,62.873291,21.631134,-148.344742,,,
729605973.779904,-0.524875,0.856547,47.257128,-0.028,-0.01564,0.993561,-0.044146,-0.060429,-0.013575,62.873291,21.631134,-148.344742,,,
729605973.783179,-0.536632,0.843654,47.256316,-0.028,-0.01564,0.993561,-0.035798,-0.055158,-0.004018,62.873291,21.631134,-148.344742,,,
729605973.786499,-0.547148,0.828128,47.256957,-0.028656,-0.019241,0.99469,-0.035798,-0.055158,-0.004018,62.873291,21.631134,-148.344742,,,
729605973.789827,-0.547148,0.828128,47.256957,-0.028656,-0.019241,0.99469,-0.035798,-0.055158,-0.004018,62.873291,21.631134,-148.344742,,,
729605973.793187,-0.556682,0.82088,47.258556,-0.028656,-0.019241,0.99469,-0.03072,-0.043613,0.006673,62.873291,21.631134,-148.344742,,,
729605973.7965,-0.564543,0.809499,47.261368,-0.0224,-0.018784,0.998962,-0.03072,-0.043613,0.006673,62.873291,21.631134,-148.344742,,,
729605973.799843,-0.564543,0.809499,47.261368,-0.0224,-0.018784,0.998962,-0.03072,-0.043613,0.006673,62.873291,21.631134,-148.344742,,,
729605973.803234,-0.570868,0.806573,47.265268,-0.0224,-0.018784,0.998962,-0.020798,-0.028726,0.01212,62.783463,21.712326,-147.811142,,,
729605973.806496,-0.576374,0.799023,47.270087,-0.019699,-0.017899,1.001648,-0.020798,-0.028726,0.01212,62.783463,21.712326,-147.811142,,,
729605973.809834,-0.576374,0.799023,47.270087,-0.019699,-0.017899,1.001648,-0.020798,-0.028726,0.01212,62.783463,21.712326,-147.811142,,,
729605973.813177,-0.581483,0.798434,47.275723,-0.019699,-0.017899,1.001648,-0.022737,-0.018062,0.018344,62.783463,21.712326,-147.811142,,,
729605973.8165,-0.589564,0.793108,47.281319,-0.017075,-0.013596,0.99202,-0.022737,-0.018062,0.018344,62.783463,21.712326,-147.811142,,,
729605973.819829,-0.589564,0.793108,47.281319,-0.017075,-0.013596,0.99202,-0.022737,-0.018062,0.018344,62.783463,21.712326,-147.811142,,,
729605973.823186,-0.597964,0.791741,47.286426,-0.017075,-0.013596,0.99202,-0.035242,-0.020292,0.015884,62.783463,21.712326,-147.811142,,,
729605973.826525,-0.609902,0.784079,47.289992,-0.011703,-0.007156,0.981766,-0.035242,-0.020292,0.015884,62.783463,21.712326,-147.811142,,,
729605973.82994,-0.609902,0.784079,47.289992,-0.011703,-0.007156,0.981766,-0.035242,-0.020292,0.015884,62.783463,21.712326,-147.811142,,,
729605973.83316,-0.623083,0.778995,47.291771,-0.011703,-0.007156,0.981766,-0.052408,-0.033414,0.002647,62.783463,21.712326,-147.811142,,,
729605973.836509,-0.640099,0.767657,47.292288,-0.003098,-0.005127,0.971832,-0.052408,-0.033414,0.002647,62.783463,21.712326,-147.811142,,,
729605973.839847,-0.640099,0.767657,47.292288,-0.003098,-0.005127,0.971832,-0.052408,-0.033414,0.002647,62.783463,21.712326,-147.811142,,,
729605973.843164,-0.657536,0.758785,47.291272,-0.003098,-0.005127,0.971832,-0.065009,-0.041971,-0.007171,62.752029,21.913971,-148.055801,,,
729605973.846496,-0.678149,0.744477,47.288582,0.005951,-0.00415,0.969742,-0.065009,-0.041971,-0.007171,62.752029,21.913971,-148.055801,,,
729605973.849845,-0.678149,0.744477,47.288582,0.005951,-0.00415,0.969742,-0.065009,-0.041971,-0.007171,62.752029,21.913971,-148.055801,,,
729605973.853226,-0.699183,0.731517,47.285251,0.005951,-0.00415,0.969742,-0.073926,-0.054042,-0.013447,62.752029,21.913971,-148.055801,,,
729605973.856491,-0.719153,0.713745,47.280862,0.015472,-0.000671,0.970154,-0.073926,-0.054042,-0.013447,62.752029,21.913971,-148.055801,,,
729605973.859829,-0.719153,0.713745,47.280862,0.015472,-0.000671,0.970154,-0.073926,-0.054042,-0.013447,62.752029,21.913971,-148.055801,,,
729605973.863185,-0.738307,0.697618,47.275281,0.015472,-0.000671,0.970154,-0.064217,-0.062659,-0.021984,62.752029,21.913971,-148.055801,,,
729605973.866487,-0.755908,0.679129,47.268907,0.02037,-0.001709,0.973343,-0.064217,-0.062659,-0.021984,62.752029,21.913971,-148.055801,,,
729605973.869836,-0.755908,0.679129,47.268907,0.02037,-0.001709,0.973343,-0.064217,-0.062659,-0.021984,62.752029,21.913971,-148.055801,,,
729605973.873249,-0.773862,0.666001,47.261902,0.02037,-0.001709,0.973343,-0.057638,-0.047351,-0.026977,62.752029,21.913971,-148.055801,,,
729605973.876483,-0.791575,0.656766,47.25398,0.023239,-0.004715,0.981354,-0.057638,-0.047351,-0.026977,62.752029,21.913971,-148.055801,,,
729605973.87989,-0.791575,0.656766,47.25398,0.023239,-0.004715,0.981354,-0.057638,-0.047351,-0.026977,62.752029,21.913971,-148.055801,,,
729605973.883151,-0.809223,0.656146,47.245307,0.023239,-0.004715,0.981354,-0.057969,0.003254,-0.034143,62.774277,22.033173,-147.933823,,,
729605973.886491,-0.825401,0.66126,47.237333,0.019791,-0.007477,0.98613,-0.057969,0.003254,-0.034143,62.774277,22.033173,-147.933823,,,
729605973.889836,-0.825401,0.66126,47.237333,0.019791,-0.007477,0.98613,-0.057969,0.003254,-0.034143,62.774277,22.033173,-147.933823,,,
729605973.893158,-0.842296,0.674329,47.230525,0.019791,-0.007477,0.98613,-0.061454,0.048464,-0.023562,62.774277,22.033173,-147.933823,,,
729605973.89649,-0.859939,0.693092,47.225327,0.01152,-0.013016,0.984985,-0.061454,0.048464,-0.023562,62.774277,22.033173,-147.933823,,,
729605973.899841,-0.859939,0.693092,47.225327,0.01152,-0.013016,0.984985,-0.061454,0.048464,-0.023562,62.774277,22.033173,-147.933823,,,
729605973.903162,-0.877419,0.719212,47.222663,0.01152,-0.013016,0.984985,-0.060601,0.098904,-0.007859,62.774277,22.033173,-147.933823,,,
729605973.90649,-0.895033,0.750336,47.223238,-0.000427,-0.020752,0.986496,-0.060601,0.098904,-0.007859,62.774277,22.033173,-147.933823,,,
729605973.909826,-0.895033,0.750336,47.223238,-0.000427,-0.020752,0.986496,-0.060601,0.098904,-0.007859,62.774277,22.033173,-147.933823,,,
729605973.913156,-0.91119,0.784778,47.226745,-0.000427,-0.020752,0.986496,-0.057875,0.129605,0.011998,62.774277,22.033173,-147.933823,,,
729605973.916498,-0.928609,0.821882,47.231891,-0.007553,-0.021439,0.988754,-0.057875,0.129605,0.011998,62.774277,22.033173,-147.933823,,,
729605973.919885,-0.928609,0.821882,47.231891,-0.007553,-0.021439,0.988754,-0.057875,0.129605,0.011998,62.774277,22.033173,-147.933823,,,
729605973.9232,-0.946589,0.854286,47.237542,-0.007553,-0.021439,0.988754,-0.067321,0.121233,0.017511,63.13266,22.162781,-148.107849,,,
729605973.926494,-0.968263,0.88609,47.243169,-0.012558,-0.016846,0.974213,-0.067321,0.121233,0.017511,63.13266,22.162781,-148.107849,,,
729605973.929835,-0.968263,0.88609,47.243169,-0.012558,-0.016846,0.974213,-0.067321,0.121233,0.017511,63.13266,22.162781,-148.107849,,,
729605973.933255,-0.990578,0.909713,47.247951,-0.012558,-0.016846,0.974213,-0.086858,0.097555,0.014838,63.13266,22.162781,-148.107849,,,
729605973.936491,-1.016265,0.934033,47.250871,-0.015366,-0.016083,0.966446,-0.086858,0.097555,0.014838,63.13266,22.162781,-148.107849,,,
729605973.939843,-1.016265,0.934033,47.250871,-0.015366,-0.016083,0.966446,-0.086858,0.097555,0.014838,63.13266,22.162781,-148.107849,,,
729605973.943166,-1.041688,0.947745,47.250259,-0.015366,-0.016083,0.966446,-0.096451,0.066324,-0.007728,63.13266,22.162781,-148.107849,,,
729605973.946501,-1.069181,0.961129,47.245423,-0.014557,-0.016434,0.978775,-0.096451,0.066324,-0.007728,63.13266,22.162781,-148.107849,,,
729605973.949845,-1.069181,0.961129,47.245423,-0.014557,-0.016434,0.978775,-0.096451,0.066324,-0.007728,63.13266,22.162781,-148.107849,,,
729605973.95318,-1.094005,0.961538,47.236246,-0.014557,-0.016434,0.978775,-0.088662,0.018625,-0.0374,63.13266,22.162781,-148.107849,,,
729605973.956501,-1.118347,0.960722,47.223445,-0.020447,-0.017502,0.988358,-0.088662,0.018625,-0.0374,63.13266,22.162781,-148.107849,,,
729605973.959829,-1.118347,0.960722,47.223445,-0.020447,-0.017502,0.988358,-0.088662,0.018625,-0.0374,63.13266,22.162781,-148.107849,,,
729605973.963187,-1.139408,0.94762,47.207085,-0.020447,-0.017502,0.988358,-0.075456,-0.022797,-0.060566,63.13266,22.162781,-148.107849,,,
729605973.966493,-1.159209,0.935492,47.189101,-0.030319,-0.025024,1.00029,-0.075456,-0.022797,-0.060566,63.099564,22.263245,-148.189743,,,
729605973.969879,-1.159209,0.935492,47.189101,-0.030319,-0.025024,1.00029,-0.075456,-0.022797,-0.060566,63.099564,22.263245,-148.189743,,,
729605973.973168,-1.17489,0.915256,47.171463,-0.030319,-0.025024,1.00029,-0.052561,-0.048485,-0.063364,63.099564,22.263245,-148.189743,,,
729605973.976521,-1.189121,0.899571,47.155726,-0.042236,-0.035477,1.013016,-0.052561,-0.048485,-0.063364,63.099564,22.263245,-148.189743,,,
729605973.979852,-1.189121,0.899571,47.155726,-0.042236,-0.035477,1.013016,-0.052561,-0.048485,-0.063364,63.099564,22.263245,-148.189743,,,
729605973.983242,-1.202208,0.880938,47.143026,-0.042236,-0.035477,1.013016,-0.045083,-0.044092,-0.043483,63.099564,22.263245,-148.189743,,,
729605973.986509,-1.215675,0.868173,47.133705,-0.042664,-0.039688,1.017365,-0.045083,-0.044092,-0.043483,63.099564,22.263245,-148.189743,,,
729605973.989848,-1.215675,0.868173,47.133705,-0.042664,-0.039688,1.017365,-0.045083,-0.044092,-0.043483,63.099564,22.263245,-148.189743,,,
729605973.993205,-1.229128,0.855497,47.126607,-0.042664,-0.039688,1.017365,-0.044207,-0.030689,-0.02595,63.099564,22.263245,-148.189743,,,
729605973.996557,-1.242652,0.848632,47.12054,-0.034134,-0.034241,1.017349,-0.044207,-0.030689,-0.02595,63.099564,22.263245,-148.189743,,,
729605973.999863,-1.242652,0.848632,47.12054,-0.034134,-0.034241,1.017349,-0.044207,-0.030689,-0.02595,63.099564,22.263245,-148.189743,,,
729605974.003215,-1.255954,0.844488,47.114672,-0.034134,-0.034241,1.017349,-0.046255,-0.001633,-0.023235,63.099564,22.263245,-148.189743,,,
729605974.006535,-1.268806,0.846714,47.108411,-0.029236,-0.032333,1.021927,-0.046255,-0.001633,-0.023235,63.300034,22.435043,-148.233032,,,
729605974.00993,-1.268806,0.846714,47.108411,-0.029236,-0.032333,1.021927,-0.046255,-0.001633,-0.023235,63.300034,22.435043,-148.233032,,,
729605974.013186,-1.279489,0.853591,47.101981,-0.029236,-0.032333,1.021927,-0.037592,0.032573,-0.023142,63.300034,22.435043,-148.233032,,,
729605974.016558,-1.290574,0.864513,47.095558,-0.02803,-0.033585,1.02951,-0.037592,0.032573,-0.023142,63.300034,22.435043,-148.233032,,,
729605974.019832,-1.290574,0.864513,47.095558,-0.02803,-0.033585,1.02951,-0.037592,0.032573,-0.023142,63.300034,22.435043,-148.233032,,,
729605974.023175,-1.300762,0.878807,47.089393,-0.02803,-0.033585,1.02951,-0.037553,0.053951,-0.02413,63.300034,22.435043,-148.233032,,,
729605974.026505,-1.3122,0.894899,47.083089,-0.030685,-0.034378,1.019608,-0.037553,0.053951,-0.02413,63.300034,22.435043,-148.233032,,,
729605974.029847,-1.3122,0.894899,47.083089,-0.030685,-0.034378,1.019608,-0.037553,0.053951,-0.02413,63.300034,22.435043,-148.233032,,,
729605974.033106,-1.322195,0.911248,47.075756,-0.030685,-0.034378,1.019608,-0.040759,0.061642,-0.029859,63.300034,22.435043,-148.233032,,,
729605974.036561,-1.334253,0.926363,47.067482,-0.027161,-0.032852,1.014313,-0.040759,0.061642,-0.029859,63.300034,22.435043,-148.233032,,,
729605974.039836,-1.334253,0.926363,47.067482,-0.027161,-0.032852,1.014313,-0.040759,0.061642,-0.029859,63.300034,22.435043,-148.233032,,,
729605974.043199,-1.346128,0.94107,47.057845,-0.027161,-0.032852,1.014313,-0.041143,0.04216,-0.036704,63.300034,22.435043,-148.233032,,,
729605974.046494,-1.356868,0.949029,47.047503,-0.026077,-0.032059,1.005402,-0.041143,0.04216,-0.036704,63.312912,22.598831,-148.078064,,,
729605974.049823,-1.356868,0.949029,47.047503,-0.026077,-0.032059,1.005402,-0.041143,0.04216,-0.036704,63.312912,22.598831,-148.078064,,,
729605974.053162,-1.365841,0.958369,47.036982,-0.026077,-0.032059,1.005402,-0.02521,0.015142,-0.041326,63.312912,22.598831,-148.078064,,,
729605974.0565,-1.370381,0.957766,47.025397,-0.029617,-0.03717,1.009033,-0.02521,0.015142,-0.041326,63.312912,22.598831,-148.078064,,,
729605974.059925,-1.370381,0.957766,47.025397,-0.029617,-0.03717,1.009033,-0.02521,0.015142,-0.041326,63.312912,22.598831,-148.078064,,,
729605974.06317,-1.37359,0.96171,47.013206,-0.029617,-0.03717,1.009033,0.002313,-0.01399,-0.045814,63.312912,22.598831,-148.078064,,,
729605974.06646,-1.370362,0.954275,47.000837,-0.028305,-0.040375,1.017761,0.002313,-0.01399,-0.045814,63.312912,22.598831,-148.078064,,,
729605974.069841,-1.370362,0.954275,47.000837,-0.028305,-0.040375,1.017761,0.002313,-0.01399,-0.045814,63.312912,22.598831,-148.078064,,,
729605974.073161,-1.366391,0.952965,46.989256,-0.028305,-0.040375,1.017761,0.024999,-0.024223,-0.042263,63.312912,22.598831,-148.078064,,,
729605974.076558,-1.358295,0.945781,46.9781,-0.027939,-0.039948,1.015533,0.024999,-0.024223,-0.042263,63.312912,22.598831,-148.078064,,,
729605974.079861,-1.358295,0.945781,46.9781,-0.027939,-0.039948,1.015533,0.024999,-0.024223,-0.042263,63.312912,22.598831,-148.078064,,,
729605974.083174,-1.351338,0.945148,46.968037,-0.027939,-0.039948,1.015533,0.03338,-0.012626,-0.032943,63.312912,22.598831,-148.078064,,,
729605974.086526,-1.342069,0.941717,46.959215,-0.027771,-0.03653,1.011169,0.03338,-0.012626,-0.032943,63.312912,22.598831,-148.078064,,,
729605974.089827,-1.342069,0.941717,46.959215,-0.027771,-0.03653,1.011169,0.03338,-0.012626,-0.032943,63.326996,22.38826,-148.081497,,,
729605974.093171,-1.334122,0.943304,46.95187,-0.027771,-0.03653,1.011169,0.033492,-0.002032,-0.024197,63.326996,22.38826,-148.081497,,,
729605974.096576,-1.326632,0.943236,46.945951,-0.023666,-0.032974,1.005402,0.033492,-0.002032,-0.024197,63.326996,22.38826,-148.081497,,,
729605974.099889,-1.326632,0.943236,46.945951,-0.023666,-0.032974,1.005402,0.033492,-0.002032,-0.024197,63.326996,22.38826,-148.081497,,,
729605974.102975,-1.323099,0.948508,46.941302,-0.023666,-0.032974,1.005402,0.018319,0.012168,-0.016383,63.326996,22.38826,-148.081497,,,
729605974.106625,-1.320148,0.952778,46.93745,-0.025345,-0.030334,0.998642,0.018319,0.012168,-0.016383,63.326996,22.38826,-148.081497,,,
729605974.109898,-1.320148,0.952778,46.93745,-0.025345,-0.030334,0.998642,0.018319,0.012168,-0.016383,63.326996,22.38826,-148.081497,,,
729605974.113157,-1.320731,0.960951,46.934412,-0.025345,-0.030334,0.998642,0.000496,0.021326,-0.010117,63.326996,22.38826,-148.081497,,,
729605974.116522,-1.322329,0.965756,46.931783,-0.025345,-0.030334,0.998642,0.000496,0.021326,-0.010117,63.326996,22.38826,-148.081497,,,
729605974.119843,-1.322329,0.965756,46.931783,-0.026138,-0.028656,0.994965,0.000496,0.021326,-0.010117,63.326996,22.38826,-148.081497,,,
729605974.123257,-1.327594,0.971716,46.929566,-0.026138,-0.028656,0.994965,-0.01542,0.016297,-0.012305,63.326996,22.38826,-148.081497,,,
729605974.126517,-1.327594,0.973824,46.927705,-0.019928,-0.025436,0.990967,-0.01542,0.016297,-0.012305,63.326996,22.38826,-148.081497,,,
729605974.129831,-1.334442,0.973824,46.927705,-0.019928,-0.025436,0.990967,-0.01542,0.016297,-0.012305,63.474274,22.489166,-148.225952,,,
729605974.133159,-1.345781,0.97769,46.926012,-0.019928,-0.025436,0.990967,-0.034786,0.008549,-0.010464,63.474274,22.489166,-148.225952,,,
729605974.136605,-1.358402,0.978498,46.923035,-0.015686,-0.025299,0.989914,-0.034786,0.008549,-0.010464,63.474274,22.489166,-148.225952,,,
729605974.139846,-1.358402,0.978498,46.923035,-0.015686,-0.025299,0.989914,-0.034786,0.008549,-0.010464,63.474274,22.489166,-148.225952,,,
729605974.143182,-1.375768,0.982151,46.918759,-0.015686,-0.025299,0.989914,-0.052142,0.002967,-0.01833,63.474274,22.489166,-148.225952,,,
729605974.146497,-1.375768,0.981676,46.913043,-0.015686,-0.025299,0.989914,-0.052142,0.002967,-0.01833,63.474274,22.489166,-148.225952,,,
729605974.149828,-1.391769,0.981676,46.913043,-0.010086,-0.022614,0.995224,-0.052142,0.002967,-0.01833,63.474274,22.489166,-148.225952,,,
729605974.15316,-1.410854,0.983174,46.90603,-0.010086,-0.022614,0.995224,-0.055223,-0.004521,-0.028794,63.474274,22.489166,-148.225952,,,
729605974.156496,-1.410854,0.983174,46.897891,-0.010086,-0.022614,0.995224,-0.055223,-0.004521,-0.028794,63.474274,22.489166,-148.225952,,,
729605974.15963,-1.42688,0.980613,46.897891,-0.005585,-0.021683,1.001038,-0.055223,-0.004521,-0.028794,63.474274,22.489166,-148.225952,,,
729605974.162899,-1.445081,0.980937,46.889211,-0.005585,-0.021683,1.001038,-0.05257,-0.010051,-0.031644,63.474274,22.489166,-148.225952,,,
729605974.166574,-1.445081,0.976552,46.880745,-0.005585,-0.021683,1.001038,-0.05257,-0.010051,-0.031644,63.474274,22.489166,-148.225952,,,
729605974.169819,-1.46033,0.976552,46.880745,-0.008545,-0.022461,1.002029,-0.05257,-0.010051,-0.031644,63.438049,22.777451,-148.082596,,,
729605974.173159,-1.476088,0.97379,46.872729,-0.008545,-0.022461,1.002029,-0.046124,-0.016632,-0.029731,63.438049,22.777451,-148.082596,,,
729605974.176495,-1.476088,0.97379,46.872729,-0.008545,-0.022461,1.002029,-0.046124,-0.016632,-0.029731,63.438049,22.777451,-148.082596,,,
729605974.179851,-1.489905,0.968062,46.865362,-0.015366,-0.023758,1.001862,-0.046124,-0.016632,-0.029731,63.438049,22.777451,-148.082596,,,
729605974.183158,-1.504845,0.965043,46.859974,-0.015366,-0.023758,1.001862,-0.046353,-0.011036,-0.01931,63.438049,22.777451,-148.082596,,,
729605974.186545,-1.504845,0.965043,46.859974,-0.015366,-0.023758,1.001862,-0.046353,-0.011036,-0.01931,63.438049,22.777451,-148.082596,,,
729605974.189837,-1.518783,0.960227,46.856966,-0.02182,-0.027832,1.003113,-0.046353,-0.011036,-0.01931,63.438049,22.777451,-148.082596,,,
729605974.193158,-1.533712,0.958367,46.856815,-0.02182,-0.027832,1.003113,-0.04748,-0.012588,0.000361,63.438049,22.777451,-148.082596,,,
729605974.19651,-1.533712,0.958367,46.856815,-0.02182,-0.027832,1.003113,-0.04748,-0.012588,0.000361,63.438049,22.777451,-148.082596,,,
729605974.199926,-1.548178,0.953662,46.858798,-0.023895,-0.032532,1.002487,-0.04748,-0.012588,0.000361,63.438049,22.777451,-148.082596,,,
729605974.20317,-1.561426,0.950459,46.861637,-0.023895,-0.032532,1.002487,-0.042926,-0.016022,0.007614,63.438049,22.777451,-148.082596,,,
729605974.206513,-1.561426,0.950459,46.861637,-0.023895,-0.032532,1.002487,-0.042926,-0.016022,0.007614,63.438049,22.777451,-148.082596,,,
729605974.209866,-1.571832,0.943786,46.864317,-0.016068,-0.027664,1.008514,-0.042926,-0.016022,0.007614,63.209579,22.669937,-148.169556,,,
729605974.213287,-1.579694,0.936233,46.866368,-0.016068,-0.027664,1.008514,-0.024913,-0.027668,0.003278,63.209579,22.669937,-148.169556,,,
729605974.216538,-1.579694,0.936233,46.866368,-0.016068,-0.027664,1.008514,-0.024913,-0.027668,0.003278,63.209579,22.669937,-148.169556,,,
729605974.219849,-1.586339,0.927084,46.867412,-0.01123,-0.021423,1.011536,-0.024913,-0.027668,0.003278,63.209579,22.669937,-148.169556,,,
729605974.223169,-1.59164,0.917079,46.867297,-0.01123,-0.021423,1.011536,-0.021578,-0.03061,-0.000549,63.209579,22.669937,-148.169556,,,
729605974.226515,-1.59164,0.917079,46.867297,-0.01123,-0.021423,1.011536,-0.021578,-0.03061,-0.000549,63.209579,22.669937,-148.169556,,,
729605974.229843,-1.598391,0.907247,46.8668,-0.01535,-0.01825,1.004639,-0.021578,-0.03061,-0.000549,63.209579,22.669937,-148.169556,,,
729605974.233195,-1.605546,0.894339,46.8656,-0.01535,-0.01825,1.004639,-0.028173,-0.034724,-0.010698,63.209579,22.669937,-148.169556,,,
729605974.236528,-1.605546,0.894339,46.8656,-0.01535,-0.01825,1.004639,-0.028173,-0.034724,-0.010698,63.209579,22.669937,-148.169556,,,
729605974.239893,-1.61605,0.882934,46.863808,-0.015366,-0.018265,0.995773,-0.028173,-0.034724,-0.010698,63.209579,22.669937,-148.169556,,,
729605974.243185,-1.628398,0.868014,46.862362,-0.015366,-0.018265,0.995773,-0.0474,-0.040612,-0.009323,63.209579,22.669937,-148.169556,,,
729605974.24655,-1.628398,0.868014,46.862362,-0.015366,-0.018265,0.995773,-0.0474,-0.040612,-0.009323,63.209579,22.669937,-148.169556,,,
729605974.249839,-1.645032,0.856339,46.861379,-0.010223,-0.018082,0.991989,-0.0474,-0.040612,-0.009323,63.209579,22.669937,-148.169556,,,
729605974.25316,-1.664061,0.845103,46.860836,-0.010223,-0.018082,0.991989,-0.070189,-0.027855,-0.003785,63.319946,22.623047,-148.111969,,,
729605974.256525,-1.664061,0.845103,46.860836,-0.010223,-0.018082,0.991989,-0.070189,-0.027855,-0.003785,63.319946,22.623047,-148.111969,,,
729605974.259835,-1.686985,0.836366,46.860978,-0.010834,-0.020981,0.991577,-0.070189,-0.027855,-0.003785,63.319946,22.623047,-148.111969,,,
729605974.263158,-1.711704,0.828996,46.861623,-0.010834,-0.020981,0.991577,-0.090672,-0.026156,0.001063,63.319946,22.623047,-148.111969,,,
729605974.266619,-1.711704,0.828996,46.861623,-0.010834,-0.020981,0.991577,-0.090672,-0.026156,0.001063,63.319946,22.623047,-148.111969,,,
729605974.269821,-1.737531,0.820227,46.862218,-0.008194,-0.018204,0.992447,-0.090672,-0.026156,0.001063,63.319946,22.623047,-148.111969,,,
729605974.273174,-1.760057,0.812204,46.861489,-0.008194,-0.018204,0.992447,-0.07373,-0.036311,-0.007504,63.319946,22.623047,-148.111969,,,
729605974.276506,-1.760057,0.812204,46.861489,-0.008194,-0.018204,0.992447,-0.07373,-0.036311,-0.007504,63.319946,22.623047,-148.111969,,,
729605974.27989,-1.777317,0.79913,46.8589,-0.004486,-0.020966,1.014618,-0.07373,-0.036311,-0.007504,63.319946,22.623047,-148.111969,,,
729605974.283162,-1.789876,0.78684,46.855029,-0.004486,-0.020966,1.014618,-0.036537,-0.048116,-0.018247,63.319946,22.623047,-148.111969,,,
729605974.286505,-1.789876,0.78684,46.855029,-0.004486,-0.020966,1.014618,-0.036537,-0.048116,-0.018247,63.319946,22.623047,-148.111969,,,
729605974.289834,-1.796924,0.771849,46.850639,-0.01236,-0.03302,1.030243,-0.036537,-0.048116,-0.018247,63.319946,22.623047,-148.111969,,,
729605974.2932,-1.796819,0.75634,46.846602,-0.01236,-0.03302,1.030243,0.002304,-0.050438,-0.015448,63.062805,22.999115,-148.188065,,,
729605974.296506,-1.796819,0.75634,46.846602,-0.01236,-0.03302,1.030243,0.002304,-0.050438,-0.015448,63.062805,22.999115,-148.188065,,,
729605974.299862,-1.79264,0.739036,46.843378,-0.023376,-0.038635,1.032928,0.002304,-0.050438,-0.015448,63.062805,22.999115,-148.188065,,,
729605974.303159,-1.782159,0.719178,46.841339,-0.023376,-0.038635,1.032928,0.034406,-0.065158,-0.007733,63.062805,22.999115,-148.188065,,,
729605974.306582,-1.782159,0.719178,46.841339,-0.023376,-0.038635,1.032928,0.034406,-0.065158,-0.007733,63.062805,22.999115,-148.188065,,,
729605974.309822,-1.770598,0.698358,46.840639,-0.024689,-0.040298,1.027084,0.034406,-0.065158,-0.007733,63.062805,22.999115,-148.188065,,,
729605974.313161,-1.755438,0.678402,46.841279,-0.024689,-0.040298,1.027084,0.045597,-0.074509,0.001945,63.062805,22.999115,-148.188065,,,
729605974.316495,-1.755438,0.678402,46.841279,-0.024689,-0.040298,1.027084,0.045597,-0.074509,0.001945,63.062805,22.999115,-148.188065,,,
729605974.319933,-1.742648,0.65607,46.843346,-0.023575,-0.040619,1.018112,0.045597,-0.074509,0.001945,63.062805,22.999115,-148.188065,,,
729605974.323191,-1.72907,0.632964,46.846289,-0.023575,-0.040619,1.018112,0.03957,-0.082963,0.01062,63.062805,22.999115,-148.188065,,,
729605974.326497,-1.72907,0.632964,46.846289,-0.023575,-0.040619,1.018112,0.03957,-0.082963,0.01062,63.062805,22.999115,-148.188065,,,
729605974.329855,-1.719726,0.608546,46.849451,-0.018936,-0.037399,1.008026,0.03957,-0.082963,0.01062,63.062805,22.999115,-148.188065,,,
729605974.333176,-1.710311,0.584884,46.852277,-0.018936,-0.037399,1.008026,0.025175,-0.077061,0.007534,62.942459,22.798706,-148.416183,,,
729605974.336527,-1.710311,0.584884,46.852277,-0.018936,-0.037399,1.008026,0.025175,-0.077061,0.007534,62.942459,22.798706,-148.416183,,,
729605974.339851,-1.704445,0.564205,46.853936,-0.011108,-0.030289,1.008392,0.025175,-0.077061,0.007534,62.942459,22.798706,-148.416183,,,
729605974.343187,-1.698822,0.546405,46.854034,-0.011108,-0.030289,1.008392,0.01383,-0.056658,-0.001136,62.942459,22.798706,-148.416183,,,
729605974.346495,-1.698822,0.546405,46.854034,-0.011108,-0.030289,1.008392,0.01383,-0.056658,-0.001136,62.942459,22.798706,-148.416183,,,
729605974.349848,-1.694875,0.530352,46.852839,-0.003738,-0.028595,1.01442,0.01383,-0.056658,-0.001136,62.942459,22.798706,-148.416183,,,
729605974.353164,-1.687718,0.515266,46.851273,-0.003738,-0.028595,1.01442,0.021687,-0.043051,-0.005828,62.942459,22.798706,-148.416183,,,
729605974.356516,-1.687718,0.515266,46.851273,-0.003738,-0.028595,1.01442,0.021687,-0.043051,-0.005828,62.942459,22.798706,-148.416183,,,
729605974.359824,-1.681495,0.503132,46.849773,-0.004547,-0.032288,1.01445,0.021687,-0.043051,-0.005828,62.942459,22.798706,-148.416183,,,
729605974.363161,-1.673279,0.491217,46.848766,-0.004547,-0.032288,1.01445,0.025448,-0.03356,-0.004973,62.942459,22.798706,-148.416183,,,
729605974.366311,-1.673279,0.491217,46.848766,-0.004547,-0.032288,1.01445,0.025448,-0.03356,-0.004973,62.942459,22.798706,-148.416183,,,
729605974.369914,-1.665558,0.48108,46.848871,-0.010086,-0.032166,1.00882,0.025448,-0.03356,-0.004973,62.942459,22.798706,-148.416183,,,
729605974.373157,-1.65883,0.473932,46.850315,-0.010086,-0.032166,1.00882,0.027326,-0.031134,0.003182,62.929321,22.616287,-148.103439,,,
729605974.376499,-1.65883,0.473932,46.850315,-0.010086,-0.032166,1.00882,0.027326,-0.031134,0.003182,62.929321,22.616287,-148.103439,,,
729605974.379854,-1.648715,0.464742,46.85188,-0.008911,-0.033646,1.002747,0.027326,-0.031134,0.003182,62.929321,22.616287,-148.103439,,,
729605974.383158,-1.636272,0.459283,46.852814,-0.008911,-0.033646,1.002747,0.054443,-0.032882,0.003508,62.929321,22.616287,-148.103439,,,
729605974.386509,-1.636272,0.459283,46.852814,-0.008911,-0.033646,1.002747,0.054443,-0.032882,0.003508,62.929321,22.616287,-148.103439,,,
729605974.38984,-1.617615,0.445708,46.852591,-0.002075,-0.029922,1.008957,0.054443,-0.032882,0.003508,62.929321,22.616287,-148.103439,,,
729605974.393158,-1.597299,0.433746,46.852188,-0.002075,-0.029922,1.008957,0.080566,-0.055464,-0.002964,62.929321,22.616287,-148.103439,,,
729605974.396528,-1.597299,0.433746,46.852188,-0.002075,-0.029922,1.008957,0.080566,-0.055464,-0.002964,62.929321,22.616287,-148.103439,,,
729605974.399867,-1.572727,0.416565,46.852486,-0.003342,-0.028687,1.005463,0.080566,-0.055464,-0.002964,62.929321,22.616287,-148.103439,,,
729605974.403165,-1.548492,0.403219,46.85354,-0.003342,-0.028687,1.005463,0.09185,-0.058575,0.001201,62.929321,22.616287,-148.103439,,,
729605974.406624,-1.548492,0.403219,46.85354,-0.003342,-0.028687,1.005463,0.09185,-0.058575,0.001201,62.929321,22.616287,-148.103439,,,
729605974.40982,-1.522341,0.385444,46.855145,-0.009125,-0.032745,1.004211,0.09185,-0.058575,0.001201,62.929321,22.616287,-148.103439,,,
729605974.413201,-1.49859,0.371136,46.857833,-0.009125,-0.032745,1.004211,0.08376,-0.05333,0.009085,62.929321,22.616287,-148.103439,,,
729605974.416513,-1.49859,0.371136,46.857833,-0.009125,-0.032745,1.004211,0.08376,-0.05333,0.009085,62.829636,22.654251,-148.040939,,,
729605974.419912,-1.476169,0.356141,46.86127,-0.006836,-0.032288,0.996262,0.08376,-0.05333,0.009085,62.829636,22.654251,-148.040939,,,
729605974.423158,-1.457458,0.342699,46.865109,-0.006836,-0.032288,0.996262,0.062255,-0.042076,0.012018,62.829636,22.654251,-148.040939,,,
729605974.426495,-1.457458,0.342699,46.865109,-0.006836,-0.032288,0.996262,0.062255,-0.042076,0.012018,62.829636,22.654251,-148.040939,,,
729605974.429849,-1.442731,0.330445,46.868194,0.000229,-0.03125,0.992691,0.062255,-0.042076,0.012018,62.829636,22.654251,-148.040939,,,
729605974.433164,-1.432682,0.318692,46.86924,0.000229,-0.03125,0.992691,0.035575,-0.03602,0.001965,62.829636,22.654251,-148.040939,,,
729605974.43649,-1.432682,0.318692,46.86924,0.000229,-0.03125,0.992691,0.035575,-0.03602,0.001965,62.829636,22.654251,-148.040939,,,
729605974.439907,-1.425165,0.309293,46.868197,0.007294,-0.023972,0.985992,0.035575,-0.03602,0.001965,62.829636,22.654251,-148.040939,,,
729605974.44316,-1.421497,0.30097,46.86534,0.007294,-0.023972,0.985992,0.015312,-0.02738,-0.01403,62.829636,22.654251,-148.040939,,,
729605974.446493,-1.421497,0.30097,46.86534,0.007294,-0.023972,0.985992,0.015312,-0.02738,-0.01403,62.829636,22.654251,-148.040939,,,
729605974.449852,-1.418091,0.292558,46.860461,0.005951,-0.022003,0.989349,0.015312,-0.02738,-0.01403,62.829636,22.654251,-148.040939,,,
729605974.453164,-1.416291,0.285666,46.854664,0.005951,-0.022003,0.989349,0.011049,-0.026048,-0.022491,62.829636,22.654251,-148.040939,,,
729605974.456532,-1.416291,0.285666,46.854664,0.005951,-0.022003,0.989349,0.011049,-0.026048,-0.022491,62.766357,22.305984,-147.909058,,,
729605974.459827,-1.412766,0.276078,46.848748,0.000443,-0.026108,0.993347,0.011049,-0.026048,-0.022491,62.766357,22.305984,-147.909058,,,
729605974.463166,-1.410093,0.265566,46.84288,0.000443,-0.026108,0.993347,0.016032,-0.03875,-0.021378,62.766357,22.305984,-147.909058,,,
729605974.466525,-1.410093,0.265566,46.84288,0.000443,-0.026108,0.993347,0.016032,-0.03875,-0.021378,62.766357,22.305984,-147.909058,,,
729605974.469877,-1.40471,0.252475,46.838212,-0.004181,-0.030869,0.990189,0.016032,-0.03875,-0.021378,62.766357,22.305984,-147.909058,,,
729605974.47316,-1.399394,0.236772,46.835134,-0.004181,-0.030869,0.990189,0.021887,-0.046772,-0.011179,62.766357,22.305984,-147.909058,,,
729605974.476496,-1.399394,0.236772,46.835134,-0.004181,-0.030869,0.990189,0.021887,-0.046772,-0.011179,62.766357,22.305984,-147.909058,,,
729605974.479846,-1.392401,0.222384,46.833308,-0.011658,-0.030518,0.991241,0.021887,-0.046772,-0.011179,62.766357,22.305984,-147.909058,,,
729605974.483161,-1.384994,0.209413,46.833046,-0.011658,-0.030518,0.991241,0.032039,-0.043572,-0.001239,62.766357,22.305984,-147.909058,,,
729605974.48651,-1.384994,0.209413,46.833046,-0.011658,-0.030518,0.991241,0.032039,-0.043572,-0.001239,62.766357,22.305984,-147.909058,,,
729605974.489843,-1.375631,0.196355,46.83462,-0.01207,-0.033691,0.995926,0.032039,-0.043572,-0.001239,62.766357,22.305984,-147.909058,,,
729605974.493164,-1.3667,0.185068,46.837319,-0.01207,-0.033691,0.995926,0.035937,-0.042959,0.010626,62.766357,22.305984,-147.909058,,,
729605974.496495,-1.3667,0.185068,46.837319,-0.01207,-0.033691,0.995926,0.035937,-0.042959,0.010626,62.66687,22.518707,-148.276474,,,
729605974.499863,-1.356355,0.17273,46.840357,-0.006454,-0.031509,0.995697,0.035937,-0.042959,0.010626,62.66687,22.518707,-148.276474,,,
729605974.503161,-1.348988,0.161911,46.843033,-0.006454,-0.031509,0.995697,0.031614,-0.035605,0.00876,62.66687,22.518707,-148.276474,,,
729605974.506559,-1.348988,0.161911,46.843033,-0.006454,-0.031509,0.995697,0.031614,-0.035605,0.00876,62.66687,22.518707,-148.276474,,,
729605974.509823,-1.341946,0.151227,46.844918,0.000519,-0.026733,0.989059,0.031614,-0.035605,0.00876,62.66687,22.518707,-148.276474,,,
729605974.513167,-1.338142,0.139853,46.846707,0.000519,-0.026733,0.989059,0.018236,-0.029944,0.004555,62.66687,22.518707,-148.276474,,,
729605974.516509,-1.338142,0.139853,46.846707,0.000519,-0.026733,0.989059,0.018236,-0.029944,0.004555,62.66687,22.518707,-148.276474,,,
729605974.5199,-1.335928,0.130984,46.848586,-0.004471,-0.025146,0.982559,0.018236,-0.029944,0.004555,62.66687,22.518707,-148.276474,,,
729605974.523155,-1.335553,0.11947,46.850404,-0.004471,-0.025146,0.982559,-0.001265,-0.023864,0.003746,62.66687,22.518707,-148.276474,,,
729605974.526491,-1.335553,0.11947,46.850404,-0.004471,-0.025146,0.982559,-0.001265,-0.023864,0.003746,62.66687,22.518707,-148.276474,,,
729605974.52985,-1.337281,0.111173,46.85266,-0.006088,-0.028198,0.978973,-0.001265,-0.023864,0.003746,62.66687,22.518707,-148.276474,,,
729605974.533159,-1.341382,0.100142,46.855504,-0.006088,-0.028198,0.978973,-0.013049,-0.032731,0.009015,62.66687,22.518707,-148.276474,,,
729605974.536496,-1.341382,0.100142,46.855504,-0.006088,-0.028198,0.978973,-0.013049,-0.032731,0.009015,62.517899,22.49147,-148.055695,,,
729605974.539832,-1.347479,0.089015,46.859584,-0.004425,-0.026199,0.974655,-0.013049,-0.032731,0.009015,62.517899,22.49147,-148.055695,,,
729605974.543171,-1.356941,0.077051,46.865117,-0.004425,-0.026199,0.974655,-0.029337,-0.039991,0.019829,62.517899,22.49147,-148.055695,,,
729605974.546574,-1.356941,0.077051,46.865117,-0.004425,-0.026199,0.974655,-0.029337,-0.039991,0.019829,62.517899,22.49147,-148.055695,,,
729605974.549831,-1.367301,0.064702,46.872327,-0.008926,-0.028793,0.97113,-0.029337,-0.039991,0.019829,62.517899,22.49147,-148.055695,,,
729605974.553161,-1.380148,0.053723,46.880916,-0.008926,-0.028793,0.97113,-0.04201,-0.037539,0.028879,62.517899,22.49147,-148.055695,,,
729605974.556549,-1.380148,0.053723,46.880916,-0.008926,-0.028793,0.97113,-0.04201,-0.037539,0.028879,62.517899,22.49147,-148.055695,,,
729605974.559866,-1.393082,0.041478,46.890524,-0.00441,-0.029297,0.97493,-0.04201,-0.037539,0.028879,62.517899,22.49147,-148.055695,,,
729605974.563233,-1.407715,0.032659,46.901021,-0.00441,-0.029297,0.97493,-0.047916,-0.039288,0.033133,62.517899,22.49147,-148.055695,,,
729605974.566483,-1.407715,0.032659,46.901021,-0.00441,-0.029297,0.97493,-0.047916,-0.039288,0.033133,62.517899,22.49147,-148.055695,,,
729605974.569829,-1.420946,0.020366,46.911308,0.001968,-0.028854,0.980713,-0.047916,-0.039288,0.033133,62.517899,22.49147,-148.055695,,,
729605974.573166,-1.433569,0.009529,46.921826,0.001968,-0.028854,0.980713,-0.039418,-0.044175,0.033277,62.517899,22.49147,-148.055695,,,
729605974.576492,-1.433569,0.009529,46.921826,0.001968,-0.028854,0.980713,-0.039418,-0.044175,0.033277,62.517899,22.49147,-148.055695,,,
729605974.579828,-1.443607,-0.003817,46.93266,0.008469,-0.031036,0.987869,-0.039418,-0.044175,0.033277,62.411591,22.640152,-148.357361,,,
729605974.583164,-1.451977,-0.016223,46.942692,0.008469,-0.031036,0.987869,-0.021602,-0.045737,0.033495,62.411591,22.640152,-148.357361,,,
729605974.586551,-1.451977,-0.016223,46.942692,0.008469,-0.031036,0.987869,-0.021602,-0.045737,0.033495,62.411591,22.640152,-148.357361,,,
729605974.589851,-1.457299,-0.028895,46.951487,0.009338,-0.027527,0.995117,-0.021602,-0.045737,0.033495,62.411591,22.640152,-148.357361,,,
729605974.59317,-1.461344,-0.039414,46.959348,0.009338,-0.027527,0.995117,-0.011316,-0.031622,0.025229,62.411591,22.640152,-148.357361,,,
729605974.596571,-1.461344,-0.039414,46.959348,0.009338,-0.027527,0.995117,-0.011316,-0.031622,0.025229,62.411591,22.640152,-148.357361,,,
729605974.599833,-1.465119,-0.046536,46.965967,0.010834,-0.024429,0.998245,-0.011316,-0.031622,0.025229,62.411591,22.640152,-148.357361,,,
729605974.603158,-1.469686,-0.049173,46.971446,0.010834,-0.024429,0.998245,-0.015106,-0.010078,0.015394,62.411591,22.640152,-148.357361,,,
729605974.606499,-1.469686,-0.049173,46.971446,0.010834,-0.024429,0.998245,-0.015106,-0.010078,0.015394,62.411591,22.640152,-148.357361,,,
729605974.609871,-1.475583,-0.052012,46.976479,0.010437,-0.023041,0.990524,-0.015106,-0.010078,0.015394,62.411591,22.640152,-148.357361,,,
729605974.613163,-1.483783,-0.052576,46.980904,0.010437,-0.023041,0.990524,-0.025783,-0.00485,0.012363,62.411591,22.640152,-148.357361,,,
729605974.616506,-1.483783,-0.052576,46.980904,0.010437,-0.023041,0.990524,-0.025783,-0.00485,0.012363,62.411591,22.640152,-148.357361,,,
729605974.619898,-1.492637,-0.054578,46.984281,0.010849,-0.022812,0.984909,-0.025783,-0.00485,0.012363,62.202942,22.713074,-148.330856,,,
729605974.623156,-1.50277,-0.055432,46.986466,0.010849,-0.022812,0.984909,-0.037162,-0.006438,0.004303,62.202942,22.713074,-148.330856,,,
729605974.626599,-1.50277,-0.055432,46.986466,0.010849,-0.022812,0.984909,-0.037162,-0.006438,0.004303,62.202942,22.713074,-148.330856,,,
729605974.629843,-1.514444,-0.058391,46.9872,0.011276,-0.023178,0.985306,-0.037162,-0.006438,0.004303,62.202942,22.713074,-148.330856,,,
729605974.633164,-1.527706,-0.060219,46.986871,0.011276,-0.023178,0.985306,-0.045652,-0.013238,-0.005319,62.202942,22.713074,-148.330856,,,
729605974.63649,-1.527706,-0.060219,46.986871,0.011276,-0.023178,0.985306,-0.045652,-0.013238,-0.005319,62.202942,22.713074,-148.330856,,,
729605974.639847,-1.54002,-0.065021,46.984951,0.004929,-0.023666,0.989914,-0.045652,-0.013238,-0.005319,62.202942,22.713074,-148.330856,,,
729605974.643165,-1.551628,-0.070062,46.981883,0.004929,-0.023666,0.989914,-0.038197,-0.016837,-0.013429,62.202942,22.713074,-148.330856,,,
729605974.646587,-1.551628,-0.070062,46.981883,0.004929,-0.023666,0.989914,-0.038197,-0.016837,-0.013429,62.202942,22.713074,-148.330856,,,
729605974.649829,-1.561996,-0.077355,46.978254,-0.001144,-0.029037,0.997818,-0.038197,-0.016837,-0.013429,62.202942,22.713074,-148.330856,,,
729605974.653206,-1.571622,-0.087499,46.974531,-0.001144,-0.029037,0.997818,-0.031666,-0.029729,-0.012623,62.202942,22.713074,-148.330856,,,
729605974.656503,-1.571622,-0.087499,46.974531,-0.001144,-0.029037,0.997818,-0.031666,-0.029729,-0.012623,62.202942,22.713074,-148.330856,,,
729605974.659818,-1.580767,-0.097485,46.97151,-0.005463,-0.035065,0.999054,-0.031666,-0.029729,-0.012623,62.396454,22.557053,-148.286285,,,
729605974.66316,-1.590496,-0.109037,46.969162,-0.005463,-0.035065,0.999054,-0.032365,-0.033087,-0.010461,62.396454,22.557053,-148.286285,,,
729605974.666529,-1.590496,-0.109037,46.969162,-0.005463,-0.035065,0.999054,-0.032365,-0.033087,-0.010461,62.396454,22.557053,-148.286285,,,
729605974.669925,-1.600042,-0.119769,46.967518,-0.006607,-0.034683,1.00148,-0.032365,-0.033087,-0.010461,62.396454,22.557053,-148.286285,,,
729605974.673159,-1.609805,-0.134058,46.965499,-0.006607,-0.034683,1.00148,-0.036145,-0.041691,-0.008232,62.396454,22.557053,-148.286285,,,
729605974.676514,-1.609805,-0.134058,46.965499,-0.006607,-0.034683,1.00148,-0.036145,-0.041691,-0.008232,62.396454,22.557053,-148.286285,,,
729605974.679924,-1.620004,-0.147228,46.962834,0.001663,-0.028732,1.002228,-0.036145,-0.041691,-0.008232,62.396454,22.557053,-148.286285,,,
729605974.683153,-1.62912,-0.161896,46.959655,0.001663,-0.028732,1.002228,-0.031594,-0.036083,-0.013651,62.396454,22.557053,-148.286285,,,
729605974.686511,-1.62912,-0.161896,46.959655,0.001663,-0.028732,1.002228,-0.031594,-0.036083,-0.013651,62.396454,22.557053,-148.286285,,,
729605974.689843,-1.638246,-0.17191,46.955828,0.005539,-0.027939,1.007477,-0.031594,-0.036083,-0.013651,62.396454,22.557053,-148.286285,,,
729605974.693152,-1.645694,-0.181172,46.951006,0.005539,-0.027939,1.007477,-0.028433,-0.017458,-0.020697,62.396454,22.557053,-148.286285,,,
729605974.696548,-1.645694,-0.181172,46.951006,0.005539,-0.027939,1.007477,-0.028433,-0.017458,-0.020697,62.396454,22.557053,-148.286285,,,
729605974.699825,-1.653323,-0.185567,46.945411,0.009048,-0.025391,1.012283,-0.028433,-0.017458,-0.020697,62.183853,22.726196,-148.230423,,,
729605974.703157,-1.659609,-0.190472,46.939469,0.009048,-0.025391,1.012283,-0.023292,-0.002452,-0.022513,62.183853,22.726196,-148.230423,,,
729605974.706506,-1.659609,-0.190472,46.939469,0.009048,-0.025391,1.012283,-0.023292,-0.002452,-0.022513,62.183853,22.726196,-148.230423,,,
729605974.709883,-1.666206,-0.190994,46.933325,0.009567,-0.023666,1.007019,-0.023292,-0.002452,-0.022513,62.183853,22.726196,-148.230423,,,
729605974.713158,-1.67049,-0.192441,46.926951,0.009567,-0.023666,1.007019,-0.016277,0.003985,-0.024574,62.183853,22.726196,-148.230423,,,
729605974.716506,-1.67049,-0.192441,46.926951,0.009567,-0.023666,1.007019,-0.016277,0.003985,-0.024574,62.183853,22.726196,-148.230423,,,
729605974.71985,-1.674613,-0.192331,46.920585,0.00975,-0.022202,1.002487,-0.016277,0.003985,-0.024574,62.183853,22.726196,-148.230423,,,
729605974.723153,-1.677461,-0.193127,46.914348,0.00975,-0.022202,1.002487,-0.008707,-0.002664,-0.0217,62.183853,22.726196,-148.230423,,,
729605974.726488,-1.677461,-0.193127,46.914348,0.00975,-0.022202,1.002487,-0.008707,-0.002664,-0.0217,62.183853,22.726196,-148.230423,,,
729605974.729844,-1.680169,-0.195349,46.908706,0.001709,-0.026886,0.997635,-0.008707,-0.002664,-0.0217,62.183853,22.726196,-148.230423,,,
729605974.733162,-1.682719,-0.196195,46.903845,0.001709,-0.026886,0.997635,-0.005024,-0.004933,-0.017607,62.183853,22.726196,-148.230423,,,
729605974.736572,-1.682719,-0.196195,46.903845,0.001709,-0.026886,0.997635,-0.005024,-0.004933,-0.017607,62.183853,22.726196,-148.230423,,,
729605974.739847,-1.685581,-0.199565,46.899429,-0.000473,-0.025177,0.993347,-0.005024,-0.004933,-0.017607,62.183853,22.726196,-148.230423,,,
729605974.74316,-1.690754,-0.200991,46.895338,-0.000473,-0.025177,0.993347,-0.015977,-0.013883,-0.015549,62.176056,22.788727,-148.135452,,,
729605974.746601,-1.690754,-0.200991,46.895338,-0.000473,-0.025177,0.993347,-0.015977,-0.013883,-0.015549,62.176056,22.788727,-148.135452,,,
729605974.749871,-1.695927,-0.206549,46.891008,0.001114,-0.02121,0.984543,-0.015977,-0.013883,-0.015549,62.176056,22.788727,-148.135452,,,
729605974.753159,-1.702219,-0.210034,46.88661,0.001114,-0.02121,0.984543,-0.019592,-0.020002,-0.01567,62.176056,22.788727,-148.135452,,,
729605974.756517,-1.702219,-0.210034,46.88661,0.001114,-0.02121,0.984543,-0.019592,-0.020002,-0.01567,62.176056,22.788727,-148.135452,,,
729605974.759893,-1.707697,-0.215963,46.881799,0.005142,-0.023605,0.988617,-0.019592,-0.020002,-0.01567,62.176056,22.788727,-148.135452,,,
729605974.763152,-1.712265,-0.221647,46.876849,0.005142,-0.023605,0.988617,-0.01551,-0.016751,-0.018715,62.176056,22.788727,-148.135452,,,
729605974.766504,-1.712265,-0.221647,46.876849,0.005142,-0.023605,0.988617,-0.01551,-0.016751,-0.018715,62.176056,22.788727,-148.135452,,,
729605974.769837,-1.716833,-0.226395,46.872724,0.002884,-0.024734,0.995361,-0.01551,-0.016751,-0.018715,62.176056,22.788727,-148.135452,,,
729605974.773158,-1.721324,-0.230742,46.869557,0.002884,-0.024734,0.995361,-0.01618,-0.009432,-0.011397,62.176056,22.788727,-148.135452,,,
729605974.776513,-1.721324,-0.230742,46.869557,0.002884,-0.024734,0.995361,-0.01618,-0.009432,-0.011397,62.176056,22.788727,-148.135452,,,
729605974.779831,-1.726498,-0.233363,46.867156,-0.002441,-0.026871,0.996643,-0.01618,-0.009432,-0.011397,62.176056,22.788727,-148.135452,,,
729605974.783172,-1.731235,-0.236892,46.86505,-0.002441,-0.026871,0.996643,-0.0208,-0.005627,-0.007928,62.241165,22.870895,-147.984177,,,
729605974.786506,-1.731235,-0.236892,46.86505,-0.002441,-0.026871,0.996643,-0.0208,-0.005627,-0.007928,62.241165,22.870895,-147.984177,,,
729605974.789855,-1.737225,-0.238709,46.86294,-0.002243,-0.028885,0.996475,-0.0208,-0.005627,-0.007928,62.241165,22.870895,-147.984177,,,
729605974.793156,-1.741723,-0.242623,46.860432,-0.002243,-0.028885,0.996475,-0.020635,-0.004981,-0.011416,62.241165,22.870895,-147.984177,,,
729605974.796606,-1.741723,-0.242623,46.860432,-0.002243,-0.028885,0.996475,-0.020635,-0.004981,-0.011416,62.241165,22.870895,-147.984177,,,
729605974.799848,-1.746466,-0.24595,46.858365,-0.002823,-0.030792,0.999161,-0.020635,-0.004981,-0.011416,62.241165,22.870895,-147.984177,,,
729605974.803168,-1.748219,-0.250953,46.857481,-0.002823,-0.030792,0.999161,-0.006726,-0.011221,-0.003474,62.241165,22.870895,-147.984177,,,
729605974.806511,-1.748219,-0.250953,46.857481,-0.002823,-0.030792,0.999161,-0.006726,-0.011221,-0.003474,62.241165,22.870895,-147.984177,,,
729605974.809928,-1.749254,-0.25591,46.857555,-0.004944,-0.033859,1.007202,-0.006726,-0.011221,-0.003474,62.241165,22.870895,-147.984177,,,
729605974.813156,-1.746703,-0.260273,46.858273,-0.004944,-0.033859,1.007202,0.011068,-0.016728,-0.000956,62.241165,22.870895,-147.984177,,,
729605974.816508,-1.746703,-0.260273,46.858273,-0.004944,-0.033859,1.007202,0.011068,-0.016728,-0.000956,62.241165,22.870895,-147.984177,,,
729605974.8199,-1.741,-0.266973,46.859256,-0.004623,-0.036758,1.009628,0.011068,-0.016728,-0.000956,62.241165,22.870895,-147.984177,,,
729605974.823162,-1.730492,-0.273499,46.860549,-0.004623,-0.036758,1.009628,0.037012,-0.024752,0.000981,62.186325,22.592209,-148.217545,,,
729605974.826514,-1.730492,-0.273499,46.860549,-0.004623,-0.036758,1.009628,0.037012,-0.024752,0.000981,62.186325,22.592209,-148.217545,,,
729605974.82985,-1.717627,-0.280219,46.861549,0.002625,-0.031036,1.012054,0.037012,-0.024752,0.000981,62.186325,22.592209,-148.217545,,,
729605974.833199,-1.717627,-0.284714,46.86219,0.002625,-0.031036,1.012054,0.060443,-0.016499,0.000818,62.186325,22.592209,-148.217545,,,
729605974.836502,-1.700478,-0.284714,46.86219,0.002625,-0.031036,1.012054,0.060443,-0.016499,0.000818,62.186325,22.592209,-148.217545,,,
729605974.839822,-1.682752,-0.289599,46.86291,0.00618,-0.028412,1.015701,0.060443,-0.016499,0.000818,62.186325,22.592209,-148.217545,,,
729605974.843157,-1.664565,-0.293771,46.864059,0.00618,-0.028412,1.015701,0.056274,-0.010275,0.003206,62.186325,22.592209,-148.217545,,,
729605974.846579,-1.664565,-0.293771,46.864059,0.00618,-0.028412,1.015701,0.056274,-0.010275,0.003206,62.186325,22.592209,-148.217545,,,
729605974.849842,-1.64948,-0.296733,46.866115,-0.000992,-0.028412,0.998199,0.056274,-0.010275,0.003206,62.186325,22.592209,-148.217545,,,
729605974.853159,-1.64948,-0.296733,46.866115,-0.000992,-0.028412,0.998199,0.040568,-0.004511,0.010275,62.186325,22.592209,-148.217545,,,
729605974.856512,-1.636469,-0.297654,46.869517,-0.000992,-0.028412,0.998199,0.040568,-0.004511,0.010275,62.186325,22.592209,-148.217545,,,
729605974.859924,-1.628102,-0.299609,46.87379,-0.006653,-0.026917,0.986145,0.040568,-0.004511,0.010275,62.186325,22.592209,-148.217545,,,
729605974.863156,-1.628102,-0.299609,46.87379,-0.006653,-0.026917,0.986145,0.007431,-0.007033,0.012673,62.078918,22.686172,-147.953568,,,
729605974.866507,-1.624689,-0.299587,46.878178,-0.006653,-0.026917,0.986145,0.007431,-0.007033,0.012673,62.078918,22.686172,-147.953568,,,
729605974.86983,-1.626711,-0.30294,46.882917,-0.000717,-0.022186,0.975464,0.007431,-0.007033,0.012673,62.078918,22.686172,-147.953568,,,
729605974.873151,-1.626711,-0.30294,46.882917,-0.000717,-0.022186,0.975464,-0.027752,-0.014492,0.018636,62.078918,22.686172,-147.953568,,,
729605974.876494,-1.633982,-0.305214,46.887973,-0.000717,-0.022186,0.975464,-0.027752,-0.014492,0.018636,62.078918,22.686172,-147.953568,,,
729605974.879822,-1.645176,-0.310263,46.892417,0.004837,-0.017639,0.970047,-0.027752,-0.014492,0.018636,62.078918,22.686172,-147.953568,,,
729605974.88316,-1.645176,-0.310263,46.892417,0.004837,-0.017639,0.970047,-0.052995,-0.019624,0.01006,62.078918,22.686172,-147.953568,,,
729605974.886552,-1.660242,-0.313231,46.895992,0.004837,-0.017639,0.970047,-0.052995,-0.019624,0.01006,62.078918,22.686172,-147.953568,,,
729605974.889835,-1.676909,-0.320063,46.898347,0.012634,-0.019135,0.972382,-0.052995,-0.019624,0.01006,62.078918,22.686172,-147.953568,,,
729605974.893149,-1.676909,-0.320063,46.898347,0.012634,-0.019135,0.972382,-0.070335,-0.0236,0.003052,62.078918,22.686172,-147.953568,,,
729605974.896501,-1.696926,-0.324688,46.900073,0.012634,-0.019135,0.972382,-0.070335,-0.0236,0.003052,62.078918,22.686172,-147.953568,,,
729605974.899877,-1.718181,-0.333101,46.900516,0.017944,-0.018066,0.974106,-0.070335,-0.0236,0.003052,62.078918,22.686172,-147.953568,,,
729605974.903167,-1.718181,-0.333101,46.900516,0.017944,-0.018066,0.974106,-0.078575,-0.028394,-0.005447,62.078918,22.686172,-147.953568,,,
729605974.906489,-1.742116,-0.339716,46.899559,0.017944,-0.018066,0.974106,-0.078575,-0.028394,-0.005447,62.126221,22.790604,-148.022827,,,
729605974.909831,-1.766904,-0.348773,46.89796,0.021545,-0.018738,0.971817,-0.078575,-0.028394,-0.005447,62.126221,22.790604,-148.022827,,,
729605974.91315,-1.766904,-0.348773,46.89796,0.021545,-0.018738,0.971817,-0.096118,-0.027165,-0.009627,62.126221,22.790604,-148.022827,,,
729605974.916497,-1.793571,-0.357026,46.895972,0.021545,-0.018738,0.971817,-0.096118,-0.027165,-0.009627,62.126221,22.790604,-148.022827,,,
729605974.919823,-1.822422,-0.364886,46.894106,0.022385,-0.023209,0.9673,-0.096118,-0.027165,-0.009627,62.126221,22.790604,-148.022827,,,
729605974.923149,-1.822422,-0.364886,46.894106,0.022385,-0.023209,0.9673,-0.1073,-0.020448,-0.004225,62.126221,22.790604,-148.022827,,,
729605974.926584,-1.852043,-0.371059,46.892978,0.022385,-0.023209,0.9673,-0.1073,-0.020448,-0.004225,62.126221,22.790604,-148.022827,,,
729605974.92984,-1.88325,-0.376089,46.892845,0.022278,-0.027817,0.970337,-0.1073,-0.020448,-0.004225,62.126221,22.790604,-148.022827,,,
729605974.93323,-1.88325,-0.376089,46.892845,0.022278,-0.027817,0.970337,-0.105664,-0.006075,0.008089,62.126221,22.790604,-148.022827,,,
729605974.936481,-1.913684,-0.376082,46.894862,0.022278,-0.027817,0.970337,-0.105664,-0.006075,0.008089,62.126221,22.790604,-148.022827,,,
729605974.939829,-1.944198,-0.375672,46.899594,0.01712,-0.035416,0.982407,-0.105664,-0.006075,0.008089,62.126221,22.790604,-148.022827,,,
729605974.943171,-1.944198,-0.375672,46.899594,0.01712,-0.035416,0.982407,-0.105664,-0.006075,0.008089,62.126221,22.790604,-148.022827,,,
729605974.946507,-1.972582,-0.369098,46.906816,0.01712,-0.035416,0.982407,-0.100221,0.0161,0.026342,62.060287,22.679031,-147.875687,,,
