Time (sec),Pitch (deg),Roll (deg),Yaw(deg),X-Acceleration (g),Y-Acceleration (g),Z-Acceleration (g),Pitch Rate (deg/sec),Roll Rate (deg/sec),Yaw Rate (deg/sec),Magnetic Field in X direction (uT),Magnetic Field in Y direction (uT),Magnetic Field in Z Direction (uT),Latitude (deg),Longitude (deg),Altitude (m)
729607973.140243,-2.857015,3.22771,30.718583,-0.070068,-0.040405,0.979706,-0.056016,0.009584,-0.061504,68.196075,20.194122,-149.48793,,,
729607973.143487,-2.873622,3.228652,30.702639,-0.070068,-0.040405,0.979706,-0.056016,0.009584,-0.061504,68.196075,20.194122,-149.48793,,,
729607973.146885,-2.873622,3.228652,30.702639,-0.070068,-0.040405,0.979706,-0.056016,0.009584,-0.061504,68.196075,20.194122,-149.48793,,,
729607973.150155,-2.887125,3.227875,30.687479,-0.078033,-0.048141,0.989349,-0.046482,0.002497,-0.055911,68.196075,20.194122,-149.48793,,,
729607973.153491,-2.90024,3.226268,30.672986,-0.078033,-0.048141,0.989349,-0.046482,0.002497,-0.055911,68.196075,20.194122,-149.48793,,,
729607973.156838,-2.90024,3.226268,30.672986,-0.078033,-0.048141,0.989349,-0.046482,0.002497,-0.055911,68.196075,20.194122,-149.48793,,,
729607973.160157,-2.909182,3.221279,30.658442,-0.079773,-0.050568,0.9897,-0.031359,-0.015414,-0.054222,68.196075,20.194122,-149.48793,,,
729607973.163493,-2.91869,3.214846,30.643022,-0.079773,-0.050568,0.9897,-0.031359,-0.015414,-0.054222,68.196075,20.194122,-149.48793,,,
729607973.166823,-2.91869,3.214846,30.643022,-0.079773,-0.050568,0.9897,-0.031359,-0.015414,-0.054222,68.196075,20.194122,-149.48793,,,
729607973.17016,-2.9263,3.20588,30.626895,-0.079712,-0.048126,0.98999,-0.030993,-0.032194,-0.061473,68.196075,20.194122,-149.48793,,,
729607973.173488,-2.936427,3.195178,30.610364,-0.079712,-0.048126,0.98999,-0.030993,-0.032194,-0.061473,68.196075,20.194122,-149.48793,,,
729607973.176846,-2.936427,3.195178,30.610364,-0.079712,-0.048126,0.98999,-0.030993,-0.032194,-0.061473,68.196075,20.194122,-149.48793,,,
729607973.180159,-2.945937,3.182878,30.593785,-0.078384,-0.043884,0.986893,-0.036311,-0.038632,-0.061333,68.118347,20.315125,-149.353088,,,
729607973.183492,-2.958328,3.169673,30.577712,-0.078384,-0.043884,0.986893,-0.036311,-0.038632,-0.061333,68.118347,20.315125,-149.353088,,,
729607973.186827,-2.958328,3.169673,30.577712,-0.078384,-0.043884,0.986893,-0.036311,-0.038632,-0.061333,68.118347,20.315125,-149.353088,,,
729607973.190185,-2.971012,3.155941,30.562367,-0.077957,-0.043839,0.984375,-0.051447,-0.040772,-0.054401,68.118347,20.315125,-149.353088,,,
729607973.193486,-2.987034,3.142926,30.548345,-0.077957,-0.043839,0.984375,-0.051447,-0.040772,-0.054401,68.118347,20.315125,-149.353088,,,
729607973.196834,-2.987034,3.142926,30.548345,-0.077957,-0.043839,0.984375,-0.051447,-0.040772,-0.054401,68.118347,20.315125,-149.353088,,,
729607973.200158,-3.003184,3.132306,30.535833,-0.074173,-0.044418,0.984589,-0.061429,-0.030992,-0.047006,68.118347,20.315125,-149.353088,,,
729607973.203488,-3.022312,3.123048,30.524244,-0.074173,-0.044418,0.984589,-0.061429,-0.030992,-0.047006,68.118347,20.315125,-149.353088,,,
729607973.206833,-3.022312,3.123048,30.524244,-0.074173,-0.044418,0.984589,-0.061429,-0.030992,-0.047006,68.118347,20.315125,-149.353088,,,
729607973.210178,-3.040724,3.116996,30.512954,-0.068344,-0.046036,0.992004,-0.065248,-0.010325,-0.044516,68.118347,20.315125,-149.353088,,,
729607973.213493,-3.060352,3.111809,30.501323,-0.068344,-0.046036,0.992004,-0.065248,-0.010325,-0.044516,68.118347,20.315125,-149.353088,,,
729607973.216821,-3.060352,3.111809,30.501323,-0.068344,-0.046036,0.992004,-0.065248,-0.010325,-0.044516,68.118347,20.315125,-149.353088,,,
729607973.220169,-3.078414,3.110604,30.489335,-0.064774,-0.045715,0.99733,-0.059995,-0.000882,-0.047156,68.172607,20.507172,-149.066833,,,
729607973.223487,-3.096298,3.108835,30.477097,-0.064774,-0.045715,0.99733,-0.059995,-0.000882,-0.047156,68.172607,20.507172,-149.066833,,,
729607973.226827,-3.096298,3.108835,30.477097,-0.064774,-0.045715,0.99733,-0.059995,-0.000882,-0.047156,68.172607,20.507172,-149.066833,,,
729607973.23023,-3.11118,3.110984,30.465388,-0.063217,-0.048782,0.99913,-0.043577,0.00778,-0.042304,68.172607,20.507172,-149.066833,,,
729607973.233483,-3.125107,3.112247,30.453946,-0.063217,-0.048782,0.99913,-0.043577,0.00778,-0.042304,68.172607,20.507172,-149.066833,,,
729607973.236822,-3.125107,3.112247,30.453946,-0.063217,-0.048782,0.99913,-0.043577,0.00778,-0.042304,68.172607,20.507172,-149.066833,,,
729607973.240179,-3.136053,3.119886,30.444021,-0.069382,-0.056335,1.003479,-0.030597,0.024506,-0.030854,68.172607,20.507172,-149.066833,,,
729607973.243517,-3.145081,3.126208,30.436026,-0.069382,-0.056335,1.003479,-0.030597,0.024506,-0.030854,68.172607,20.507172,-149.066833,,,
729607973.246827,-3.145081,3.126208,30.436026,-0.069382,-0.056335,1.003479,-0.030597,0.024506,-0.030854,68.172607,20.507172,-149.066833,,,
729607973.250155,-3.151285,3.138036,30.430356,-0.075684,-0.063461,1.00351,-0.020413,0.030785,-0.019991,68.172607,20.507172,-149.066833,,,
729607973.253488,-3.157801,3.145799,30.425403,-0.075684,-0.063461,1.00351,-0.020413,0.030785,-0.019991,68.172607,20.507172,-149.066833,,,
729607973.256856,-3.157801,3.145799,30.425403,-0.075684,-0.063461,1.00351,-0.020413,0.030785,-0.019991,68.172607,20.507172,-149.066833,,,
729607973.260162,-3.163864,3.158454,30.420347,-0.073639,-0.057877,0.991821,-0.030503,0.035284,-0.023415,68.172607,20.507172,-149.066833,,,
729607973.263493,-3.173818,3.168625,30.413978,-0.073639,-0.057877,0.991821,-0.030503,0.035284,-0.023415,68.429581,20.565857,-149.408463,,,
729607973.26682,-3.173818,3.168625,30.413978,-0.073639,-0.057877,0.991821,-0.030503,0.035284,-0.023415,68.429581,20.565857,-149.408463,,,
729607973.27017,-3.184346,3.183605,30.406143,-0.070679,-0.049011,0.986191,-0.048602,0.041263,-0.033148,68.429581,20.565857,-149.408463,,,
729607973.273535,-3.199625,3.193467,30.397497,-0.070679,-0.049011,0.986191,-0.048602,0.041263,-0.033148,68.429581,20.565857,-149.408463,,,
729607973.276839,-3.199625,3.193467,30.397497,-0.070679,-0.049011,0.986191,-0.048602,0.041263,-0.033148,68.429581,20.565857,-149.408463,,,
729607973.280232,-3.215217,3.204522,30.389375,-0.077805,-0.050659,0.981018,-0.057244,0.020852,-0.030721,68.429581,20.565857,-149.408463,,,
729607973.283487,-3.2335,3.208984,30.381776,-0.077805,-0.050659,0.981018,-0.057244,0.020852,-0.030721,68.429581,20.565857,-149.408463,,,
729607973.286823,-3.2335,3.208984,30.381776,-0.077805,-0.050659,0.981018,-0.057244,0.020852,-0.030721,68.429581,20.565857,-149.408463,,,
729607973.290165,-3.250415,3.214238,30.375537,-0.083298,-0.05954,0.983154,-0.06294,0.00912,-0.022406,68.429581,20.565857,-149.408463,,,
729607973.293497,-3.268085,3.215473,30.371011,-0.083298,-0.05954,0.983154,-0.06294,0.00912,-0.022406,68.429581,20.565857,-149.408463,,,
729607973.296833,-3.268085,3.215473,30.371011,-0.083298,-0.05954,0.983154,-0.06294,0.00912,-0.022406,68.429581,20.565857,-149.408463,,,
729607973.300152,-3.280989,3.216434,30.368708,-0.087234,-0.066589,0.993744,-0.045999,-2.9e-05,-0.007992,68.429581,20.565857,-149.408463,,,
729607973.30349,-3.294304,3.214583,30.367768,-0.087234,-0.066589,0.993744,-0.045999,-2.9e-05,-0.007992,68.428085,20.690628,-149.317551,,,
729607973.306847,-3.294304,3.214583,30.367768,-0.087234,-0.066589,0.993744,-0.045999,-2.9e-05,-0.007992,68.428085,20.690628,-149.317551,,,
729607973.310163,-3.304823,3.21455,30.367905,-0.07933,-0.067413,0.997467,-0.03902,0.000927,-0.000967,68.428085,20.690628,-149.317551,,,
729607973.31349,-3.315565,3.21405,30.369085,-0.07933,-0.067413,0.997467,-0.03902,0.000927,-0.000967,68.428085,20.690628,-149.317551,,,
729607973.31683,-3.315565,3.21405,30.369085,-0.07933,-0.067413,0.997467,-0.03902,0.000927,-0.000967,68.428085,20.690628,-149.317551,,,
729607973.320194,-3.324009,3.21642,30.371832,-0.074432,-0.066284,0.993698,-0.031282,0.006482,0.009825,68.428085,20.690628,-149.317551,,,
729607973.323481,-3.333183,3.218329,30.37561,-0.074432,-0.066284,0.993698,-0.031282,0.006482,0.009825,68.428085,20.690628,-149.317551,,,
729607973.326859,-3.333183,3.218329,30.37561,-0.074432,-0.066284,0.993698,-0.031282,0.006482,0.009825,68.428085,20.690628,-149.317551,,,
729607973.330199,-3.343755,3.225644,30.380851,-0.068085,-0.064362,0.989548,-0.03962,0.023188,0.016448,68.428085,20.690628,-149.317551,,,
729607973.333489,-3.355341,3.232549,30.38721,-0.068085,-0.064362,0.989548,-0.03962,0.023188,0.016448,68.428085,20.690628,-149.317551,,,
729607973.336823,-3.355341,3.232549,30.38721,-0.068085,-0.064362,0.989548,-0.03962,0.023188,0.016448,68.428085,20.690628,-149.317551,,,
729607973.340184,-3.368683,3.243498,30.39517,-0.061035,-0.05899,0.991104,-0.043216,0.027105,0.030886,68.428085,20.690628,-149.317551,,,
729607973.343485,-3.381357,3.250442,30.405314,-0.061035,-0.05899,0.991104,-0.043216,0.027105,0.030886,68.484146,20.8302,-149.301941,,,
729607973.346819,-3.381357,3.250442,30.405314,-0.061035,-0.05899,0.991104,-0.043216,0.027105,0.030886,68.484146,20.8302,-149.301941,,,
729607973.35016,-3.392438,3.259676,30.416727,-0.060196,-0.060684,0.990952,-0.043231,0.020853,0.03607,68.484146,20.8302,-149.301941,,,
729607973.353489,-3.403661,3.265529,30.427749,-0.060196,-0.060684,0.990952,-0.043231,0.020853,0.03607,68.484146,20.8302,-149.301941,,,
729607973.356818,-3.403661,3.265529,30.427749,-0.060196,-0.060684,0.990952,-0.043231,0.020853,0.03607,68.484146,20.8302,-149.301941,,,
729607973.360167,-3.411351,3.272107,30.439055,-0.05513,-0.0616,0.997696,-0.031668,0.005602,0.034243,68.484146,20.8302,-149.301941,,,
729607973.363491,-3.419324,3.272526,30.449699,-0.05513,-0.0616,0.997696,-0.031668,0.005602,0.034243,68.484146,20.8302,-149.301941,,,
729607973.366822,-3.419324,3.272526,30.449699,-0.05513,-0.0616,0.997696,-0.031668,0.005602,0.034243,68.484146,20.8302,-149.301941,,,
729607973.370158,-3.425749,3.275172,30.459221,-0.049042,-0.060028,0.999252,-0.022279,-0.007697,0.026478,68.484146,20.8302,-149.301941,,,
729607973.373483,-3.43264,3.272669,30.467281,-0.049042,-0.060028,0.999252,-0.022279,-0.007697,0.026478,68.484146,20.8302,-149.301941,,,
729607973.376832,-3.43264,3.272669,30.467281,-0.049042,-0.060028,0.999252,-0.022279,-0.007697,0.026478,68.484146,20.8302,-149.301941,,,
729607973.380204,-3.441451,3.2759,30.474394,-0.044556,-0.053497,0.998993,-0.035488,-0.002556,0.016519,68.484146,20.8302,-149.301941,,,
729607973.383491,-3.451825,3.274858,30.480488,-0.044556,-0.053497,0.998993,-0.035488,-0.002556,0.016519,68.639633,20.903534,-149.333694,,,
729607973.386822,-3.451825,3.274858,30.480488,-0.044556,-0.053497,0.998993,-0.035488,-0.002556,0.016519,68.639633,20.903534,-149.333694,,,
729607973.39016,-3.466356,3.27907,30.486651,-0.040161,-0.049301,0.996613,-0.055526,0.005832,0.012707,68.639633,20.903534,-149.333694,,,
729607973.393493,-3.482734,3.279959,30.491179,-0.040161,-0.049301,0.996613,-0.055526,0.005832,0.012707,68.639633,20.903534,-149.333694,,,
729607973.39682,-3.482734,3.279959,30.491179,-0.040161,-0.049301,0.996613,-0.055526,0.005832,0.012707,68.639633,20.903534,-149.333694,,,
729607973.40016,-3.503327,3.284562,30.494477,-0.034882,-0.046295,0.991409,-0.07381,0.005127,0.002337,68.639633,20.903534,-149.333694,,,
729607973.403488,-3.525102,3.285355,30.496521,-0.034882,-0.046295,0.991409,-0.07381,0.005127,0.002337,68.639633,20.903534,-149.333694,,,
729607973.406873,-3.525102,3.285355,30.496521,-0.034882,-0.046295,0.991409,-0.07381,0.005127,0.002337,68.639633,20.903534,-149.333694,,,
729607973.410151,-3.548785,3.286704,30.497058,-0.035065,-0.044876,0.990631,-0.080857,-0.003487,-0.009541,68.639633,20.903534,-149.333694,,,
729607973.413481,-3.572529,3.28392,30.495716,-0.035065,-0.044876,0.990631,-0.080857,-0.003487,-0.009541,68.639633,20.903534,-149.333694,,,
729607973.416822,-3.572529,3.28392,30.495716,-0.035065,-0.044876,0.990631,-0.080857,-0.003487,-0.009541,68.639633,20.903534,-149.333694,,,
729607973.420174,-3.594962,3.279661,30.493485,-0.040115,-0.049744,0.995941,-0.073595,-0.025283,-0.015274,68.639633,20.903534,-149.333694,,,
729607973.423483,-3.616046,3.271311,30.490769,-0.040115,-0.049744,0.995941,-0.073595,-0.025283,-0.015274,68.639633,20.903534,-149.333694,,,
729607973.426818,-3.616046,3.271311,30.490769,-0.040115,-0.049744,0.995941,-0.073595,-0.025283,-0.015274,68.591232,21.031128,-149.153702,,,
729607973.430219,-3.634769,3.261375,30.487145,-0.038437,-0.052841,1.00145,-0.055406,-0.034285,-0.019731,68.591232,21.031128,-149.153702,,,
729607973.433472,-3.650091,3.250182,30.48244,-0.038437,-0.052841,1.00145,-0.055406,-0.034285,-0.019731,68.591232,21.031128,-149.153702,,,
729607973.436821,-3.650091,3.250182,30.48244,-0.038437,-0.052841,1.00145,-0.055406,-0.034285,-0.019731,68.591232,21.031128,-149.153702,,,
729607973.440155,-3.661884,3.239495,30.476547,-0.03804,-0.056305,1.013153,-0.030046,-0.033165,-0.02956,68.591232,21.031128,-149.153702,,,
729607973.443482,-3.671206,3.228621,30.46899,-0.03804,-0.056305,1.013153,-0.030046,-0.033165,-0.02956,68.591232,21.031128,-149.153702,,,
729607973.446822,-3.671206,3.228621,30.46899,-0.03804,-0.056305,1.013153,-0.030046,-0.033165,-0.02956,68.591232,21.031128,-149.153702,,,
729607973.450169,-3.676851,3.216546,30.459837,-0.032471,-0.057175,1.016785,-0.011808,-0.033798,-0.040293,68.591232,21.031128,-149.153702,,,
729607973.453499,-3.680665,3.205656,30.448634,-0.032471,-0.057175,1.016785,-0.011808,-0.033798,-0.040293,68.591232,21.031128,-149.153702,,,
729607973.456818,-3.680665,3.205656,30.448634,-0.032471,-0.057175,1.016785,-0.011808,-0.033798,-0.040293,68.591232,21.031128,-149.153702,,,
729607973.460164,-3.681743,3.195107,30.434381,-0.036224,-0.05661,1.014648,-0.004963,-0.019898,-0.056889,68.591232,21.031128,-149.153702,,,
729607973.463489,-3.684207,3.188362,30.417864,-0.036224,-0.05661,1.014648,-0.004963,-0.019898,-0.056889,68.591232,21.031128,-149.153702,,,
729607973.46683,-3.684207,3.188362,30.417864,-0.036224,-0.05661,1.014648,-0.004963,-0.019898,-0.056889,68.489044,20.861328,-149.599319,,,
729607973.470158,-3.684918,3.18082,30.400358,-0.039429,-0.05246,1.011871,-0.009244,-0.006155,-0.062432,68.489044,20.861328,-149.599319,,,
729607973.473482,-3.688958,3.177065,30.382927,-0.039429,-0.05246,1.011871,-0.009244,-0.006155,-0.062432,68.489044,20.861328,-149.599319,,,
729607973.476844,-3.688958,3.177065,30.382927,-0.039429,-0.05246,1.011871,-0.009244,-0.006155,-0.062432,68.489044,20.861328,-149.599319,,,
729607973.480263,-3.692315,3.17157,30.365787,-0.048172,-0.056137,1.004089,-0.026213,0.000638,-0.063452,68.489044,20.861328,-149.599319,,,
729607973.483521,-3.701193,3.170456,30.349017,-0.048172,-0.056137,1.004089,-0.026213,0.000638,-0.063452,68.489044,20.861328,-149.599319,,,
729607973.486836,-3.701193,3.170456,30.349017,-0.048172,-0.056137,1.004089,-0.026213,0.000638,-0.063452,68.489044,20.861328,-149.599319,,,
729607973.490173,-3.709241,3.16766,30.331952,-0.055084,-0.057816,0.997986,-0.039612,0.016187,-0.061141,68.489044,20.861328,-149.599319,,,
729607973.493502,-3.722688,3.170465,30.314705,-0.055084,-0.057816,0.997986,-0.039612,0.016187,-0.061141,68.489044,20.861328,-149.599319,,,
729607973.49684,-3.722688,3.170465,30.314705,-0.055084,-0.057816,0.997986,-0.039612,0.016187,-0.061141,68.489044,20.861328,-149.599319,,,
729607973.500165,-3.734074,3.172475,30.296233,-0.051682,-0.056183,1.00145,-0.046255,0.026457,-0.06794,68.489044,20.861328,-149.599319,,,
729607973.503487,-3.748749,3.177731,30.277819,-0.051682,-0.056183,1.00145,-0.046255,0.026457,-0.06794,68.489044,20.861328,-149.599319,,,
729607973.506823,-3.748749,3.177731,30.277819,-0.051682,-0.056183,1.00145,-0.046255,0.026457,-0.06794,68.550598,21.117142,-149.483566,,,
729607973.510162,-3.761379,3.179947,30.259392,-0.055527,-0.057053,1.001694,-0.047311,0.023742,-0.069809,68.550598,21.117142,-149.483566,,,
729607973.513489,-3.77579,3.184627,30.24036,-0.055527,-0.057053,1.001694,-0.047311,0.023742,-0.069809,68.550598,21.117142,-149.483566,,,
729607973.516888,-3.77579,3.184627,30.24036,-0.055527,-0.057053,1.001694,-0.047311,0.023742,-0.069809,68.550598,21.117142,-149.483566,,,
729607973.520158,-3.787691,3.18575,30.221094,-0.059616,-0.060486,0.999695,-0.043984,0.0196,-0.068829,68.550598,21.117142,-149.483566,,,
729607973.523487,-3.800692,3.188648,30.203232,-0.059616,-0.060486,0.999695,-0.043984,0.0196,-0.068829,68.550598,21.117142,-149.483566,,,
729607973.52683,-3.800692,3.188648,30.203232,-0.059616,-0.060486,0.999695,-0.043984,0.0196,-0.068829,68.550598,21.117142,-149.483566,,,
729607973.530224,-3.809541,3.186665,30.186813,-0.066055,-0.066696,1.001434,-0.026382,0.007951,-0.053132,68.550598,21.117142,-149.483566,,,
729607973.533496,-3.81685,3.186222,30.17257,-0.066055,-0.066696,1.001434,-0.026382,0.007951,-0.053132,68.550598,21.117142,-149.483566,,,
729607973.53692,-3.81685,3.186222,30.17257,-0.066055,-0.066696,1.001434,-0.026382,0.007951,-0.053132,68.550598,21.117142,-149.483566,,,
729607973.540157,-3.819665,3.179012,30.160408,-0.074402,-0.078125,1.009186,-0.004589,-0.013102,-0.035662,68.550598,21.117142,-149.483566,,,
729607973.543539,-3.821454,3.173231,30.151,-0.074402,-0.078125,1.009186,-0.004589,-0.013102,-0.035662,68.550598,21.117142,-149.483566,,,
729607973.546753,-3.821454,3.173231,30.151,-0.074402,-0.078125,1.009186,-0.004589,-0.013102,-0.035662,68.550598,21.117142,-149.483566,,,
729607973.550163,-3.81792,3.162633,30.1425,-0.07196,-0.077087,1.010437,0.0163,-0.024391,-0.027856,68.274399,21.239288,-149.113724,,,
729607973.553491,-3.813834,3.153089,30.133895,-0.07196,-0.077087,1.010437,0.0163,-0.024391,-0.027856,68.274399,21.239288,-149.113724,,,
729607973.556838,-3.813834,3.153089,30.133895,-0.07196,-0.077087,1.010437,0.0163,-0.024391,-0.027856,68.274399,21.239288,-149.113724,,,
729607973.560163,-3.806211,3.140148,30.123803,-0.068588,-0.068069,1.01123,0.022822,-0.036668,-0.037133,68.274399,21.239288,-149.113724,,,
729607973.563548,-3.800374,3.128156,30.11222,-0.068588,-0.068069,1.01123,0.022822,-0.036668,-0.037133,68.274399,21.239288,-149.113724,,,
729607973.566886,-3.800374,3.128156,30.11222,-0.068588,-0.068069,1.01123,0.022822,-0.036668,-0.037133,68.274399,21.239288,-149.113724,,,
729607973.570172,-3.794035,3.115285,30.099859,-0.064148,-0.060211,1.006378,0.017933,-0.039453,-0.042435,68.274399,21.239288,-149.113724,,,
729607973.57353,-3.790179,3.102711,30.087818,-0.064148,-0.060211,1.006378,0.017933,-0.039453,-0.042435,68.274399,21.239288,-149.113724,,,
729607973.57684,-3.790179,3.102711,30.087818,-0.064148,-0.060211,1.006378,0.017933,-0.039453,-0.042435,68.274399,21.239288,-149.113724,,,
729607973.580223,-3.785734,3.091047,30.077209,-0.066605,-0.06366,1.001846,0.009301,-0.032379,-0.032655,68.274399,21.239288,-149.113724,,,
729607973.583522,-3.783953,3.08106,30.068589,-0.066605,-0.06366,1.001846,0.009301,-0.032379,-0.032655,68.274399,21.239288,-149.113724,,,
729607973.58682,-3.783953,3.08106,30.068589,-0.066605,-0.06366,1.001846,0.009301,-0.032379,-0.032655,68.274399,21.239288,-149.113724,,,
729607973.590167,-3.781744,3.072831,30.062179,-0.063324,-0.066391,0.995514,-0.002134,-0.017118,-0.017575,68.32869,20.934952,-149.319046,,,
729607973.593551,-3.782336,3.067422,30.058358,-0.063324,-0.066391,0.995514,-0.002134,-0.017118,-0.017575,68.32869,20.934952,-149.319046,,,
729607973.596814,-3.782336,3.067422,30.058358,-0.063324,-0.066391,0.995514,-0.002134,-0.017118,-0.017575,68.32869,20.934952,-149.319046,,,
729607973.600175,-3.78129,3.064661,30.057128,-0.060181,-0.068237,0.997192,0.006289,-0.011407,-0.000503,68.32869,20.934952,-149.319046,,,
729607973.603508,-3.779716,3.060358,30.057567,-0.060181,-0.068237,0.997192,0.006289,-0.011407,-0.000503,68.32869,20.934952,-149.319046,,,
729607973.606871,-3.779716,3.060358,30.057567,-0.060181,-0.068237,0.997192,0.006289,-0.011407,-0.000503,68.32869,20.934952,-149.319046,,,
729607973.610158,-3.775506,3.056345,30.059725,-0.054138,-0.067871,0.995499,0.017084,-0.019064,0.01083,68.32869,20.934952,-149.319046,,,
729607973.613535,-3.770158,3.049566,30.063152,-0.054138,-0.067871,0.995499,0.017084,-0.019064,0.01083,68.32869,20.934952,-149.319046,,,
729607973.61683,-3.770158,3.049566,30.063152,-0.054138,-0.067871,0.995499,0.017084,-0.019064,0.01083,68.32869,20.934952,-149.319046,,,
729607973.620163,-3.765391,3.045421,30.067753,-0.052444,-0.068832,0.988541,0.022842,-0.026444,0.017198,68.32869,20.934952,-149.319046,,,
729607973.623535,-3.765391,3.037109,30.073058,-0.052444,-0.068832,0.988541,0.022842,-0.026444,0.017198,68.32869,20.934952,-149.319046,,,
729607973.626829,-3.759675,3.037109,30.073058,-0.052444,-0.068832,0.988541,0.022842,-0.026444,0.017198,68.32869,20.934952,-149.319046,,,
729607973.630177,-3.756944,3.029027,30.079959,-0.054184,-0.068527,0.98439,0.013228,-0.046672,0.024522,68.088684,20.921707,-149.362137,,,
729607973.63357,-3.753993,3.01377,30.087762,-0.054184,-0.068527,0.98439,0.013228,-0.046672,0.024522,68.088684,20.921707,-149.362137,,,
729607973.636899,-3.753993,3.01377,30.087762,-0.054184,-0.068527,0.98439,0.013228,-0.046672,0.024522,68.088684,20.921707,-149.362137,,,
729607973.640148,-3.755101,2.998096,30.096216,-0.056259,-0.065842,0.972107,-0.014009,-0.069197,0.027293,68.088684,20.921707,-149.362137,,,
729607973.643489,-3.755101,2.998096,30.096216,-0.056259,-0.065842,0.972107,-0.014009,-0.069197,0.027293,68.088684,20.921707,-149.362137,,,
729607973.646903,-3.759219,2.977668,30.104534,-0.056259,-0.065842,0.972107,-0.014009,-0.069197,0.027293,68.088684,20.921707,-149.362137,,,
729607973.650156,-3.766102,2.957905,30.112066,-0.055664,-0.061249,0.970032,-0.031093,-0.078801,0.020478,68.088684,20.921707,-149.362137,,,
729607973.653488,-3.766102,2.957905,30.112066,-0.055664,-0.061249,0.970032,-0.031093,-0.078801,0.020478,68.088684,20.921707,-149.362137,,,
729607973.656834,-3.775094,2.934481,30.119043,-0.055664,-0.061249,0.970032,-0.031093,-0.078801,0.020478,68.088684,20.921707,-149.362137,,,
729607973.660154,-3.783068,2.912497,30.126175,-0.055756,-0.063431,0.9776,-0.02997,-0.081322,0.023527,68.088684,20.921707,-149.362137,,,
729607973.663479,-3.783068,2.912497,30.126175,-0.055756,-0.063431,0.9776,-0.02997,-0.081322,0.023527,68.088684,20.921707,-149.362137,,,
729607973.666845,-3.792208,2.888508,30.13359,-0.055756,-0.063431,0.9776,-0.02997,-0.081322,0.023527,68.088684,20.921707,-149.362137,,,
729607973.670156,-3.801399,2.865574,30.142026,-0.053223,-0.067581,0.99411,-0.033114,-0.097176,0.0295,67.996445,21.085068,-149.321808,,,
729607973.673528,-3.801399,2.865574,30.142026,-0.053223,-0.067581,0.99411,-0.033114,-0.097176,0.0295,67.996445,21.085068,-149.321808,,,
729607973.676843,-3.810619,2.835905,30.151421,-0.053223,-0.067581,0.99411,-0.033114,-0.097176,0.0295,67.996445,21.085068,-149.321808,,,
729607973.680154,-3.820774,2.804887,30.161771,-0.061661,-0.07428,0.985062,-0.035239,-0.113993,0.030927,67.996445,21.085068,-149.321808,,,
729607973.683491,-3.820774,2.804887,30.161771,-0.061661,-0.07428,0.985062,-0.035239,-0.113993,0.030927,67.996445,21.085068,-149.321808,,,
729607973.686849,-3.831568,2.773204,30.171127,-0.061661,-0.07428,0.985062,-0.035239,-0.113993,0.030927,67.996445,21.085068,-149.321808,,,
729607973.690154,-3.843731,2.746681,30.179308,-0.062592,-0.072678,1.000702,-0.044245,-0.087306,0.021763,67.996445,21.085068,-149.321808,,,
729607973.693493,-3.843731,2.746681,30.179308,-0.062592,-0.072678,1.000702,-0.044245,-0.087306,0.021763,67.996445,21.085068,-149.321808,,,
729607973.696882,-3.857029,2.721335,30.186998,-0.062592,-0.072678,1.000702,-0.044245,-0.087306,0.021763,67.996445,21.085068,-149.321808,,,
729607973.700171,-3.872109,2.699078,30.194981,-0.054321,-0.070084,1.012299,-0.056536,-0.071849,0.027407,67.996445,21.085068,-149.321808,,,
729607973.703496,-3.872109,2.699078,30.194981,-0.054321,-0.070084,1.012299,-0.056536,-0.071849,0.027407,67.996445,21.085068,-149.321808,,,
729607973.706835,-3.888547,2.679359,30.203956,-0.054321,-0.070084,1.012299,-0.056536,-0.071849,0.027407,67.996445,21.085068,-149.321808,,,
729607973.710151,-3.907466,2.665314,30.213429,-0.055298,-0.074234,1.006668,-0.070205,-0.039644,0.025876,67.82991,21.072769,-149.34227,,,
729607973.713503,-3.907466,2.665314,30.213429,-0.055298,-0.074234,1.006668,-0.070205,-0.039644,0.025876,67.82991,21.072769,-149.34227,,,
729607973.716826,-3.927874,2.653886,30.221333,-0.055298,-0.074234,1.006668,-0.070205,-0.039644,0.025876,67.82991,21.072769,-149.34227,,,
729607973.720158,-3.949759,2.646302,30.226692,-0.050919,-0.074432,1.01123,-0.079517,-0.025274,0.005193,67.82991,21.072769,-149.34227,,,
729607973.723539,-3.949759,2.646302,30.226692,-0.050919,-0.074432,1.01123,-0.079517,-0.025274,0.005193,67.82991,21.072769,-149.34227,,,
729607973.726813,-3.972513,2.638584,30.229292,-0.050919,-0.074432,1.01123,-0.079517,-0.025274,0.005193,67.82991,21.072769,-149.34227,,,
729607973.730159,-3.993309,2.633028,30.229872,-0.046051,-0.074112,1.013397,-0.068915,-0.025375,-0.009173,67.82991,21.072769,-149.34227,,,
729607973.733494,-3.993309,2.633028,30.229872,-0.046051,-0.074112,1.013397,-0.068915,-0.025375,-0.009173,67.82991,21.072769,-149.34227,,,
729607973.736823,-4.012562,2.62432,30.227925,-0.046051,-0.074112,1.013397,-0.068915,-0.025375,-0.009173,67.82991,21.072769,-149.34227,,,
729607973.740162,-4.026856,2.616275,30.223866,-0.04454,-0.082397,1.022415,-0.039464,-0.034921,-0.023007,67.82991,21.072769,-149.34227,,,
729607973.743503,-4.026856,2.616275,30.223866,-0.04454,-0.082397,1.022415,-0.039464,-0.034921,-0.023007,67.82991,21.072769,-149.34227,,,
729607973.746847,-4.037502,2.604739,30.218288,-0.04454,-0.082397,1.022415,-0.039464,-0.034921,-0.023007,67.82991,21.072769,-149.34227,,,
729607973.750151,-4.04253,2.592753,30.211845,-0.048553,-0.091827,1.02565,-0.00104,-0.04702,-0.026707,67.82991,21.072769,-149.34227,,,
729607973.753485,-4.04253,2.592753,30.211845,-0.048553,-0.091827,1.02565,-0.00104,-0.04702,-0.026707,67.616287,21.293655,-149.370667,,,
729607973.756834,-4.042344,2.578853,30.204743,-0.048553,-0.091827,1.02565,-0.00104,-0.04702,-0.026707,67.616287,21.293655,-149.370667,,,
729607973.760155,-4.036999,2.568304,30.197591,-0.047165,-0.099258,1.030411,0.031051,-0.03379,-0.023919,67.616287,21.293655,-149.370667,,,
729607973.76357,-4.036999,2.568304,30.197591,-0.047165,-0.099258,1.030411,0.031051,-0.03379,-0.023919,67.616287,21.293655,-149.370667,,,
729607973.766828,-4.028216,2.557507,30.190723,-0.047165,-0.099258,1.030411,0.031051,-0.03379,-0.023919,67.616287,21.293655,-149.370667,,,
729607973.770181,-4.018036,2.551731,30.185423,-0.044144,-0.096725,1.024246,0.043612,-0.021632,-0.016734,67.616287,21.293655,-149.370667,,,
729607973.77351,-4.018036,2.551731,30.185423,-0.044144,-0.096725,1.024246,0.043612,-0.021632,-0.016734,67.616287,21.293655,-149.370667,,,
729607973.77689,-4.006388,2.544627,30.180893,-0.044144,-0.096725,1.024246,0.043612,-0.021632,-0.016734,67.616287,21.293655,-149.370667,,,
729607973.780156,-3.995868,2.541465,30.176408,-0.042358,-0.08725,1.007355,0.030692,-0.007662,-0.017448,67.616287,21.293655,-149.370667,,,
729607973.783503,-3.995868,2.541465,30.176408,-0.042358,-0.08725,1.007355,0.030692,-0.007662,-0.017448,67.616287,21.293655,-149.370667,,,
729607973.786829,-3.987597,2.538365,30.171349,-0.042358,-0.08725,1.007355,0.030692,-0.007662,-0.017448,67.616287,21.293655,-149.370667,,,
729607973.790165,-3.982305,2.539004,30.167133,-0.036774,-0.075378,0.992416,0.011947,0.006625,-0.014335,67.616287,21.293655,-149.370667,,,
729607973.793497,-3.982305,2.539004,30.167133,-0.036774,-0.075378,0.992416,0.011947,0.006625,-0.014335,67.592911,21.443329,-149.524765,,,
729607973.796826,-3.979249,2.540471,30.163553,-0.036774,-0.075378,0.992416,0.011947,0.006625,-0.014335,67.592911,21.443329,-149.524765,,,
729607973.800164,-3.979095,2.545388,30.160515,-0.041748,-0.072357,0.986038,-0.004001,0.020405,-0.00872,67.592911,21.443329,-149.524765,,,
729607973.80349,-3.979095,2.545388,30.160515,-0.041748,-0.072357,0.986038,-0.004001,0.020405,-0.00872,67.592911,21.443329,-149.524765,,,
729607973.806947,-3.980689,2.549755,30.158166,-0.041748,-0.072357,0.986038,-0.004001,0.020405,-0.00872,67.592911,21.443329,-149.524765,,,
729607973.810164,-3.984761,2.553495,30.155796,-0.038727,-0.067795,0.979111,-0.016713,0.010706,-0.011996,67.592911,21.443329,-149.524765,,,
729607973.81352,-3.984761,2.553495,30.155796,-0.038727,-0.067795,0.979111,-0.016713,0.010706,-0.011996,67.592911,21.443329,-149.524765,,,
729607973.816906,-3.989621,2.554153,30.152715,-0.038727,-0.067795,0.979111,-0.016713,0.010706,-0.011996,67.592911,21.443329,-149.524765,,,
729607973.820162,-3.996598,2.551636,30.148799,-0.037262,-0.063187,0.974594,-0.021043,-0.009438,-0.021409,67.592911,21.443329,-149.524765,,,
729607973.8235,-3.996598,2.551636,30.148799,-0.037262,-0.063187,0.974594,-0.021043,-0.009438,-0.021409,67.592911,21.443329,-149.524765,,,
729607973.826839,-4.003125,2.546717,30.143753,-0.037262,-0.063187,0.974594,-0.021043,-0.009438,-0.021409,67.592911,21.443329,-149.524765,,,
729607973.830163,-4.012651,2.539702,30.137482,-0.035767,-0.058258,0.9729,-0.020706,-0.025608,-0.028733,67.592911,21.443329,-149.524765,,,
729607973.833499,-4.012651,2.539702,30.137482,-0.035767,-0.058258,0.9729,-0.020706,-0.025608,-0.028733,67.458344,21.430206,-149.605927,,,
729607973.83683,-4.018628,2.530237,30.129539,-0.035767,-0.058258,0.9729,-0.020706,-0.025608,-0.028733,67.458344,21.430206,-149.605927,,,
729607973.840165,-4.028389,2.519782,30.12012,-0.031281,-0.052795,0.97435,-0.014949,-0.03795,-0.035019,67.458344,21.430206,-149.605927,,,
729607973.843531,-4.028389,2.519782,30.12012,-0.031281,-0.052795,0.97435,-0.014949,-0.03795,-0.035019,67.458344,21.430206,-149.605927,,,
729607973.84684,-4.033929,2.506846,30.110004,-0.031281,-0.052795,0.97435,-0.014949,-0.03795,-0.035019,67.458344,21.430206,-149.605927,,,
729607973.85017,-4.042696,2.491249,30.099469,-0.027222,-0.049622,0.978821,-0.012536,-0.053787,-0.035966,67.458344,21.430206,-149.605927,,,
729607973.853515,-4.042696,2.491249,30.099469,-0.027222,-0.049622,0.978821,-0.012536,-0.053787,-0.035966,67.458344,21.430206,-149.605927,,,
729607973.856926,-4.046813,2.473786,30.08895,-0.027222,-0.049622,0.978821,-0.012536,-0.053787,-0.035966,67.458344,21.430206,-149.605927,,,
729607973.860153,-4.054263,2.455944,30.078977,-0.031067,-0.051193,0.976166,-0.015817,-0.055981,-0.032239,67.458344,21.430206,-149.605927,,,
729607973.863497,-4.054263,2.455944,30.078977,-0.031067,-0.051193,0.976166,-0.015817,-0.055981,-0.032239,67.458344,21.430206,-149.605927,,,
729607973.866831,-4.059027,2.438284,30.06996,-0.031067,-0.051193,0.976166,-0.015817,-0.055981,-0.032239,67.458344,21.430206,-149.605927,,,
729607973.870165,-4.065695,2.419617,30.062019,-0.033279,-0.05069,0.981415,-0.015215,-0.059212,-0.02834,67.458344,21.430206,-149.605927,,,
729607973.873496,-4.065695,2.419617,30.062019,-0.033279,-0.05069,0.981415,-0.015215,-0.059212,-0.02834,67.458344,21.430206,-149.605927,,,
729607973.876841,-4.071386,2.401246,30.05438,-0.033279,-0.05069,0.981415,-0.015215,-0.059212,-0.02834,67.347549,21.19754,-149.519669,,,
729607973.880156,-4.078827,2.382493,30.046029,-0.031494,-0.048492,0.981415,-0.028862,-0.05968,-0.033165,67.347549,21.19754,-149.519669,,,
729607973.883541,-4.078827,2.382493,30.046029,-0.031494,-0.048492,0.981415,-0.028862,-0.05968,-0.033165,67.347549,21.19754,-149.519669,,,
729607973.886816,-4.087666,2.365254,30.036582,-0.031494,-0.048492,0.981415,-0.028862,-0.05968,-0.033165,67.347549,21.19754,-149.519669,,,
729607973.890167,-4.098705,2.349972,30.025475,-0.029465,-0.039215,0.983704,-0.039297,-0.043986,-0.045606,67.347549,21.19754,-149.519669,,,
729607973.893498,-4.098705,2.349972,30.025475,-0.029465,-0.039215,0.983704,-0.039297,-0.043986,-0.045606,67.347549,21.19754,-149.519669,,,
729607973.896883,-4.112173,2.335576,30.012787,-0.029465,-0.039215,0.983704,-0.039297,-0.043986,-0.045606,67.347549,21.19754,-149.519669,,,
729607973.900156,-4.127184,2.321445,29.998531,-0.026321,-0.03447,0.984192,-0.058728,-0.038595,-0.056749,67.347549,21.19754,-149.519669,,,
729607973.903492,-4.127184,2.321445,29.998531,-0.026321,-0.03447,0.984192,-0.058728,-0.038595,-0.056749,67.347549,21.19754,-149.519669,,,
729607973.906828,-4.146513,2.308946,29.983239,-0.026321,-0.03447,0.984192,-0.058728,-0.038595,-0.056749,67.347549,21.19754,-149.519669,,,
729607973.910157,-4.167883,2.297425,29.966988,-0.031143,-0.036148,0.978378,-0.08521,-0.027172,-0.063456,67.347549,21.19754,-149.519669,,,
729607973.913499,-4.167883,2.297425,29.966988,-0.031143,-0.036148,0.978378,-0.08521,-0.027172,-0.063456,67.347549,21.19754,-149.519669,,,
729607973.916831,-4.19452,2.287741,29.949805,-0.031143,-0.036148,0.978378,-0.08521,-0.027172,-0.063456,67.26799,21.587509,-149.42131,,,
729607973.92017,-4.220922,2.278747,29.932711,-0.041031,-0.041168,0.982895,-0.10124,-0.016515,-0.063229,67.26799,21.587509,-149.42131,,,
729607973.92355,-4.220922,2.278747,29.932711,-0.041031,-0.041168,0.982895,-0.10124,-0.016515,-0.063229,67.26799,21.587509,-149.42131,,,
729607973.926822,-4.25099,2.272016,29.916778,-0.041031,-0.041168,0.982895,-0.10124,-0.016515,-0.063229,67.26799,21.587509,-149.42131,,,
729607973.930164,-4.279044,2.264911,29.902689,-0.051743,-0.050751,0.986649,-0.102682,-0.01054,-0.050522,67.26799,21.587509,-149.42131,,,
729607973.9335,-4.279044,2.264911,29.902689,-0.051743,-0.050751,0.986649,-0.102682,-0.01054,-0.050522,67.26799,21.587509,-149.42131,,,
729607973.936825,-4.307864,2.25933,29.891774,-0.051743,-0.050751,0.986649,-0.102682,-0.01054,-0.050522,67.26799,21.587509,-149.42131,,,
729607973.940155,-4.329768,2.251983,29.886043,-0.063461,-0.066406,1.003036,-0.067932,-0.027207,-0.006497,67.26799,21.587509,-149.42131,,,
729607973.94351,-4.329768,2.251983,29.886043,-0.063461,-0.066406,1.003036,-0.067932,-0.027207,-0.006497,67.26799,21.587509,-149.42131,,,
729607973.946871,-4.347357,2.243206,29.887617,-0.063461,-0.066406,1.003036,-0.067932,-0.027207,-0.006497,67.26799,21.587509,-149.42131,,,
729607973.950158,-4.354474,2.23069,29.89641,-0.079926,-0.08374,1.018433,-0.013349,-0.046907,0.041605,67.26799,21.587509,-149.42131,,,
729607973.953493,-4.354474,2.23069,29.89641,-0.079926,-0.08374,1.018433,-0.013349,-0.046907,0.041605,67.26799,21.587509,-149.42131,,,
729607973.956835,-4.356632,2.215798,29.911229,-0.079926,-0.08374,1.018433,-0.013349,-0.046907,0.041605,67.289948,21.573212,-149.290817,,,
729607973.96016,-4.349882,2.197765,29.930083,-0.083954,-0.085022,1.026886,0.020459,-0.071204,0.074008,67.289948,21.573212,-149.290817,,,
729607973.963503,-4.349882,2.197765,29.930083,-0.083954,-0.085022,1.026886,0.020459,-0.071204,0.074008,67.289948,21.573212,-149.290817,,,
729607973.966822,-4.343657,2.177472,29.951396,-0.083954,-0.085022,1.026886,0.020459,-0.071204,0.074008,67.289948,21.573212,-149.290817,,,
729607973.970168,-4.331348,2.153712,29.972951,-0.072571,-0.071808,1.019135,0.018726,-0.083401,0.069913,67.289948,21.573212,-149.290817,,,
729607973.973553,-4.331348,2.153712,29.972951,-0.072571,-0.071808,1.019135,0.018726,-0.083401,0.069913,67.289948,21.573212,-149.290817,,,
729607973.976827,-4.32503,2.130586,29.993114,-0.072571,-0.071808,1.019135,0.018726,-0.083401,0.069913,67.289948,21.573212,-149.290817,,,
729607973.980164,-4.31501,2.107119,30.012159,-0.055283,-0.057297,1.014404,0.00308,-0.075759,0.063968,67.289948,21.573212,-149.290817,,,
729607973.983505,-4.31501,2.107119,30.012159,-0.055283,-0.057297,1.014404,0.00308,-0.075759,0.063968,67.289948,21.573212,-149.290817,,,
729607973.986846,-4.314363,2.085737,30.03084,-0.055283,-0.057297,1.014404,0.00308,-0.075759,0.063968,67.289948,21.573212,-149.290817,,,
729607973.990163,-4.309765,2.062112,30.049143,-0.045837,-0.052429,1.011353,-0.01647,-0.08309,0.0615,67.289948,21.573212,-149.290817,,,
729607973.9935,-4.309765,2.062112,30.049143,-0.045837,-0.052429,1.011353,-0.01647,-0.08309,0.0615,67.289948,21.573212,-149.290817,,,
729607973.996824,-4.314484,2.039262,30.067378,-0.045837,-0.052429,1.011353,-0.01647,-0.08309,0.0615,66.978622,21.629807,-149.105743,,,
729607974.000159,-4.315669,2.017347,30.085437,-0.036453,-0.055435,1.00647,-0.032151,-0.072449,0.05962,66.978622,21.629807,-149.105743,,,
729607974.003492,-4.315669,2.017347,30.085437,-0.036453,-0.055435,1.00647,-0.032151,-0.072449,0.05962,66.978622,21.629807,-149.105743,,,
729607974.006829,-4.324626,1.99656,30.10293,-0.036453,-0.055435,1.00647,-0.032151,-0.072449,0.05962,66.978622,21.629807,-149.105743,,,
729607974.010162,-4.329866,1.979074,30.119747,-0.033112,-0.054337,1.014099,-0.036998,-0.067021,0.051578,66.978622,21.629807,-149.105743,,,
729607974.013544,-4.329866,1.979074,30.119747,-0.033112,-0.054337,1.014099,-0.036998,-0.067021,0.051578,66.978622,21.629807,-149.105743,,,
729607974.016832,-4.339605,1.959498,30.135638,-0.033112,-0.054337,1.014099,-0.036998,-0.067021,0.051578,66.978622,21.629807,-149.105743,,,
729607974.020184,-4.344904,1.943072,30.15118,-0.0298,-0.059433,1.015793,-0.022541,-0.073498,0.048947,66.978622,21.629807,-149.105743,,,
729607974.023498,-4.344904,1.943072,30.15118,-0.0298,-0.059433,1.015793,-0.022541,-0.073498,0.048947,66.978622,21.629807,-149.105743,,,
729607974.026879,-4.350095,1.921685,30.165923,-0.0298,-0.059433,1.015793,-0.022541,-0.073498,0.048947,66.978622,21.629807,-149.105743,,,
729607974.030153,-4.352208,1.906354,30.180687,-0.030258,-0.069687,1.020737,0.000407,-0.074684,0.046973,66.978622,21.629807,-149.105743,,,
729607974.033492,-4.352208,1.906354,30.180687,-0.030258,-0.069687,1.020737,0.000407,-0.074684,0.046973,66.978622,21.629807,-149.105743,,,
729607974.036825,-4.350811,1.884926,30.194748,-0.030258,-0.069687,1.020737,0.000407,-0.074684,0.046973,66.978622,21.629807,-149.105743,,,
729607974.04016,-4.347162,1.87201,30.210247,-0.027237,-0.075821,1.024521,0.028523,-0.070262,0.053015,66.890442,21.760956,-149.40918,,,
729607974.043493,-4.347162,1.87201,30.210247,-0.027237,-0.075821,1.024521,0.028523,-0.070262,0.053015,66.890442,21.760956,-149.40918,,,
729607974.046916,-4.338074,1.852021,30.226115,-0.027237,-0.075821,1.024521,0.028523,-0.070262,0.053015,66.890442,21.760956,-149.40918,,,
729607974.050148,-4.325483,1.840097,30.243174,-0.027863,-0.080185,1.025253,0.051197,-0.063651,0.060346,66.890442,21.760956,-149.40918,,,
729607974.053493,-4.325483,1.840097,30.243174,-0.027863,-0.080185,1.025253,0.051197,-0.063651,0.060346,66.890442,21.760956,-149.40918,,,
729607974.05685,-4.31023,1.822925,30.26015,-0.027863,-0.080185,1.025253,0.051197,-0.063651,0.060346,66.890442,21.760956,-149.40918,,,
729607974.060153,-4.290719,1.811706,30.277688,-0.028961,-0.079468,1.026199,0.064557,-0.050139,0.061744,66.890442,21.760956,-149.40918,,,
729607974.063544,-4.290719,1.811706,30.277688,-0.028961,-0.079468,1.026199,0.064557,-0.050139,0.061744,66.890442,21.760956,-149.40918,,,
729607974.066825,-4.272255,1.798693,30.295273,-0.028961,-0.079468,1.026199,0.064557,-0.050139,0.061744,66.890442,21.760956,-149.40918,,,
729607974.070164,-4.2523,1.789455,30.312263,-0.027374,-0.078476,1.019257,0.056422,-0.034972,0.057985,66.890442,21.760956,-149.40918,,,
729607974.073501,-4.2523,1.789455,30.312263,-0.027374,-0.078476,1.019257,0.056422,-0.034972,0.057985,66.890442,21.760956,-149.40918,,,
729607974.07691,-4.236199,1.780243,30.328098,-0.027374,-0.078476,1.019257,0.056422,-0.034972,0.057985,66.890442,21.760956,-149.40918,,,
729607974.080159,-4.219418,1.772316,30.343233,-0.026428,-0.076248,1.009735,0.048281,-0.029575,0.048914,66.703125,21.881088,-149.540039,,,
729607974.083502,-4.219418,1.772316,30.343233,-0.026428,-0.076248,1.009735,0.048281,-0.029575,0.048914,66.703125,21.881088,-149.540039,,,
729607974.086826,-4.205371,1.76365,30.357199,-0.026428,-0.076248,1.009735,0.048281,-0.029575,0.048914,66.703125,21.881088,-149.540039,,,
729607974.090158,-4.191599,1.755322,30.369973,-0.023514,-0.074677,1.003906,0.034854,-0.028284,0.042851,66.703125,21.881088,-149.540039,,,
729607974.093516,-4.191599,1.755322,30.369973,-0.023514,-0.074677,1.003906,0.034854,-0.028284,0.042851,66.703125,21.881088,-149.540039,,,
729607974.096829,-4.181225,1.746923,30.381748,-0.023514,-0.074677,1.003906,0.034854,-0.028284,0.042851,66.703125,21.881088,-149.540039,,,
729607974.100163,-4.170471,1.738039,30.392115,-0.024277,-0.074493,1.002747,0.032993,-0.031663,0.030485,66.703125,21.881088,-149.540039,,,
729607974.103492,-4.170471,1.738039,30.392115,-0.024277,-0.074493,1.002747,0.032993,-0.031663,0.030485,66.703125,21.881088,-149.540039,,,
729607974.106833,-4.160981,1.728481,30.400915,-0.024277,-0.074493,1.002747,0.032993,-0.031663,0.030485,66.703125,21.881088,-149.540039,,,
729607974.110161,-4.149824,1.717189,30.408348,-0.024857,-0.076324,0.998779,0.042719,-0.044753,0.025114,66.703125,21.881088,-149.540039,,,
729607974.113498,-4.149824,1.717189,30.408348,-0.024857,-0.076324,0.998779,0.042719,-0.044753,0.025114,66.703125,21.881088,-149.540039,,,
729607974.116883,-4.137611,1.703297,30.414589,-0.024857,-0.076324,0.998779,0.042719,-0.044753,0.025114,66.703125,21.881088,-149.540039,,,
729607974.120152,-4.122805,1.687414,30.420474,-0.024231,-0.082535,0.998932,0.058587,-0.052243,0.019295,66.816971,21.785049,-149.302658,,,
729607974.123515,-4.122805,1.687414,30.420474,-0.024231,-0.082535,0.998932,0.058587,-0.052243,0.019295,66.816971,21.785049,-149.302658,,,
729607974.126819,-4.104633,1.671563,30.425954,-0.024231,-0.082535,0.998932,0.058587,-0.052243,0.019295,66.816971,21.785049,-149.302658,,,
729607974.130159,-4.084462,1.656758,30.430987,-0.024124,-0.085449,1.005676,0.07819,-0.042645,0.019883,66.816971,21.785049,-149.302658,,,
729607974.133502,-4.084462,1.656758,30.430987,-0.024124,-0.085449,1.005676,0.07819,-0.042645,0.019883,66.816971,21.785049,-149.302658,,,
729607974.136823,-4.061357,1.643836,30.435839,-0.024124,-0.085449,1.005676,0.07819,-0.042645,0.019883,66.816971,21.785049,-149.302658,,,
729607974.140158,-4.036389,1.6325,30.441426,-0.023895,-0.087753,1.005371,0.096347,-0.033602,0.024468,66.816971,21.785049,-149.302658,,,
729607974.143598,-4.036389,1.6325,30.441426,-0.023895,-0.087753,1.005371,0.096347,-0.033602,0.024468,66.816971,21.785049,-149.302658,,,
729607974.146841,-4.009135,1.622818,30.448593,-0.023895,-0.087753,1.005371,0.096347,-0.033602,0.024468,66.816971,21.785049,-149.302658,,,
729607974.150167,-3.982186,1.614465,30.457222,-0.029343,-0.088287,0.998672,0.097459,-0.023938,0.035932,66.816971,21.785049,-149.302658,,,
729607974.15349,-3.982186,1.614465,30.457222,-0.029343,-0.088287,0.998672,0.097459,-0.023938,0.035932,66.816971,21.785049,-149.302658,,,
729607974.156848,-3.955672,1.607632,30.467708,-0.029343,-0.088287,0.998672,0.097459,-0.023938,0.035932,66.816971,21.785049,-149.302658,,,
729607974.160168,-3.932164,1.601873,30.479245,-0.028412,-0.083908,0.986771,0.081001,-0.017166,0.041759,66.494354,21.6203,-149.529953,,,
729607974.163508,-3.932164,1.601873,30.479245,-0.028412,-0.083908,0.986771,0.081001,-0.017166,0.041759,66.494354,21.6203,-149.529953,,,
729607974.16689,-3.910328,1.597317,30.490497,-0.028412,-0.083908,0.986771,0.081001,-0.017166,0.041759,66.494354,21.6203,-149.529953,,,
729607974.170157,-3.892207,1.59286,30.500868,-0.023926,-0.075836,0.978378,0.05973,-0.01185,0.034619,66.494354,21.6203,-149.529953,,,
729607974.173497,-3.892207,1.59286,30.500868,-0.023926,-0.075836,0.978378,0.05973,-0.01185,0.034619,66.494354,21.6203,-149.529953,,,
729607974.176829,-3.875511,1.588673,30.510244,-0.023926,-0.075836,0.978378,0.05973,-0.01185,0.034619,66.494354,21.6203,-149.529953,,,
729607974.180177,-3.862363,1.583109,30.518068,-0.016617,-0.071091,0.973999,0.043866,-0.017359,0.021686,66.494354,21.6203,-149.529953,,,
729607974.183493,-3.862363,1.583109,30.518068,-0.016617,-0.071091,0.973999,0.043866,-0.017359,0.021686,66.494354,21.6203,-149.529953,,,
729607974.186833,-3.851063,1.577258,30.524224,-0.016617,-0.071091,0.973999,0.043866,-0.017359,0.021686,66.494354,21.6203,-149.529953,,,
729607974.19016,-3.843878,1.569362,30.5287,-0.011368,-0.065598,0.965775,0.02103,-0.03028,0.009509,66.494354,21.6203,-149.529953,,,
729607974.193551,-3.843878,1.569362,30.5287,-0.011368,-0.065598,0.965775,0.02103,-0.03028,0.009509,66.494354,21.6203,-149.529953,,,
729607974.196837,-3.838462,1.559747,30.531227,-0.011368,-0.065598,0.965775,0.02103,-0.03028,0.009509,66.494354,21.6203,-149.529953,,,
729607974.200166,-3.838111,1.547934,30.53209,-0.013092,-0.059296,0.96077,0.002255,-0.043085,-0.000422,66.494354,21.6203,-149.529953,,,
729607974.203514,-3.838111,1.547934,30.53209,-0.013092,-0.059296,0.96077,0.002255,-0.043085,-0.000422,66.645355,21.360947,-149.486313,,,
729607974.206829,-3.837383,1.534493,30.531727,-0.013092,-0.059296,0.96077,0.002255,-0.043085,-0.000422,66.645355,21.360947,-149.486313,,,
729607974.210165,-3.840089,1.519371,30.530613,-0.021881,-0.062759,0.964584,-0.003328,-0.047866,-0.003607,66.645355,21.360947,-149.486313,,,
729607974.213494,-3.840089,1.519371,30.530613,-0.021881,-0.062759,0.964584,-0.003328,-0.047866,-0.003607,66.645355,21.360947,-149.486313,,,
729607974.216906,-3.839826,1.504946,30.530405,-0.021881,-0.062759,0.964584,-0.003328,-0.047866,-0.003607,66.645355,21.360947,-149.486313,,,
729607974.220158,-3.842035,1.490845,30.532077,-0.026276,-0.069489,0.971588,0.009095,-0.046945,0.009976,66.645355,21.360947,-149.486313,,,
729607974.223502,-3.842035,1.490845,30.532077,-0.026276,-0.069489,0.971588,0.009095,-0.046945,0.009976,66.645355,21.360947,-149.486313,,,
729607974.226845,-3.839005,1.477665,30.535327,-0.026276,-0.069489,0.971588,0.009095,-0.046945,0.009976,66.645355,21.360947,-149.486313,,,
729607974.230164,-3.836751,1.46486,30.539568,-0.024414,-0.068771,0.97876,0.027024,-0.044076,0.016398,66.645355,21.360947,-149.486313,,,
729607974.23351,-3.836751,1.46486,30.539568,-0.024414,-0.068771,0.97876,0.027024,-0.044076,0.016398,66.645355,21.360947,-149.486313,,,
729607974.236829,-3.829014,1.451221,30.544292,-0.024414,-0.068771,0.97876,0.027024,-0.044076,0.016398,66.645355,21.360947,-149.486313,,,
729607974.240163,-3.824154,1.437597,30.548247,-0.027206,-0.061569,0.974777,0.027748,-0.04598,0.010858,66.645355,21.360947,-149.486313,,,
729607974.243538,-3.824154,1.437597,30.548247,-0.027206,-0.061569,0.974777,0.027748,-0.04598,0.010858,66.501892,21.404572,-149.713455,,,
729607974.246828,-3.817513,1.423799,30.550588,-0.027206,-0.061569,0.974777,0.027748,-0.04598,0.010858,66.501892,21.404572,-149.713455,,,
729607974.250158,-3.815824,1.411577,30.55052,-0.023651,-0.049133,0.96701,-0.000198,-0.038599,-0.004077,66.501892,21.404572,-149.713455,,,
729607974.253492,-3.815824,1.411577,30.55052,-0.023651,-0.049133,0.96701,-0.000198,-0.038599,-0.004077,66.501892,21.404572,-149.713455,,,
729607974.256833,-3.817295,1.399573,30.548718,-0.023651,-0.049133,0.96701,-0.000198,-0.038599,-0.004077,66.501892,21.404572,-149.713455,,,
729607974.260172,-3.824301,1.386769,30.546492,-0.022598,-0.042358,0.959213,-0.031602,-0.040703,-0.014157,66.501892,21.404572,-149.713455,,,
729607974.263492,-3.824301,1.386769,30.546492,-0.022598,-0.042358,0.959213,-0.031602,-0.040703,-0.014157,66.501892,21.404572,-149.713455,,,
729607974.266899,-3.835322,1.373624,30.543085,-0.022598,-0.042358,0.959213,-0.031602,-0.040703,-0.014157,66.501892,21.404572,-149.713455,,,
729607974.270159,-3.85122,1.359681,30.539268,-0.025269,-0.04155,0.95575,-0.062166,-0.040064,-0.01675,66.501892,21.404572,-149.713455,,,
729607974.273513,-3.85122,1.359681,30.539268,-0.025269,-0.04155,0.95575,-0.062166,-0.040064,-0.01675,66.501892,21.404572,-149.713455,,,
729607974.276847,-3.870223,1.347402,30.535598,-0.025269,-0.04155,0.95575,-0.062166,-0.040064,-0.01675,66.501892,21.404572,-149.713455,,,
729607974.280196,-3.890965,1.333909,30.531907,-0.024719,-0.045563,0.963394,-0.076756,-0.043725,-0.014816,66.501892,21.404572,-149.713455,,,
729607974.283513,-3.890965,1.333909,30.531907,-0.024719,-0.045563,0.963394,-0.076756,-0.043725,-0.014816,66.332153,21.536758,-149.210236,,,
729607974.286828,-3.913336,1.320295,30.528656,-0.024719,-0.045563,0.963394,-0.076756,-0.043725,-0.014816,66.332153,21.536758,-149.210236,,,
729607974.290205,-3.913336,1.305953,30.524979,-0.026611,-0.051682,0.971863,-0.067499,-0.048961,-0.020482,66.332153,21.536758,-149.210236,,,
729607974.293557,-3.93446,1.305953,30.524979,-0.026611,-0.051682,0.971863,-0.067499,-0.048961,-0.020482,66.332153,21.536758,-149.210236,,,
729607974.296839,-3.953256,1.291449,30.520265,-0.026611,-0.051682,0.971863,-0.067499,-0.048961,-0.020482,66.332153,21.536758,-149.210236,,,
729607974.300154,-3.9698,1.277415,30.513726,-0.020477,-0.053909,0.98288,-0.051077,-0.043363,-0.02889,66.332153,21.536758,-149.210236,,,
729607974.303494,-3.9698,1.277415,30.513726,-0.020477,-0.053909,0.98288,-0.051077,-0.043363,-0.02889,66.332153,21.536758,-149.210236,,,
729607974.306853,-3.98381,1.263605,30.505876,-0.020477,-0.053909,0.98288,-0.051077,-0.043363,-0.02889,66.332153,21.536758,-149.210236,,,
729607974.310191,-3.98381,1.263605,30.505876,-0.015854,-0.057877,0.985992,-0.034016,-0.040533,-0.032114,66.332153,21.536758,-149.210236,,,
729607974.31352,-3.995384,1.250257,30.497439,-0.015854,-0.057877,0.985992,-0.034016,-0.040533,-0.032114,66.332153,21.536758,-149.210236,,,
729607974.316898,-4.004701,1.23844,30.488865,-0.015854,-0.057877,0.985992,-0.034016,-0.040533,-0.032114,66.332153,21.536758,-149.210236,,,
729607974.320226,-4.012605,1.229605,30.481007,-0.017105,-0.065369,0.991135,-0.025028,-0.020473,-0.027871,66.332153,21.536758,-149.210236,,,
729607974.323497,-4.012605,1.229605,30.481007,-0.017105,-0.065369,0.991135,-0.025028,-0.020473,-0.027871,66.450241,21.592758,-149.355591,,,
729607974.326833,-4.020542,1.223654,30.474167,-0.017105,-0.065369,0.991135,-0.025028,-0.020473,-0.027871,66.450241,21.592758,-149.355591,,,
729607974.330265,-4.020542,1.22137,30.468817,-0.022125,-0.072449,0.993774,-0.029506,0.001798,-0.015622,66.450241,21.592758,-149.355591,,,
729607974.333553,-4.027929,1.22137,30.468817,-0.022125,-0.072449,0.993774,-0.029506,0.001798,-0.015622,66.450241,21.592758,-149.355591,,,
729607974.336819,-4.036647,1.22147,30.464844,-0.022125,-0.072449,0.993774,-0.029506,0.001798,-0.015622,66.450241,21.592758,-149.355591,,,
729607974.340243,-4.043894,1.223135,30.4618,-0.028366,-0.076355,0.994766,-0.029701,0.014221,-0.011535,66.450241,21.592758,-149.355591,,,
729607974.34351,-4.043894,1.223135,30.4618,-0.028366,-0.076355,0.994766,-0.029701,0.014221,-0.011535,66.450241,21.592758,-149.355591,,,
729607974.346884,-4.052557,1.225633,30.458938,-0.028366,-0.076355,0.994766,-0.029701,0.014221,-0.011535,66.450241,21.592758,-149.355591,,,
729607974.350255,-4.052557,1.225633,30.458938,-0.028366,-0.076355,0.994766,-0.029701,0.014221,-0.011535,66.450241,21.592758,-149.355591,,,
729607974.353498,-4.059748,1.228163,30.455986,-0.02858,-0.076599,0.995087,-0.028407,0.010783,-0.012685,66.450241,21.592758,-149.355591,,,
729607974.356832,-4.068472,1.230122,30.453547,-0.02858,-0.076599,0.995087,-0.028407,0.010783,-0.012685,66.450241,21.592758,-149.355591,,,
729607974.360215,-4.068472,1.230122,30.453547,-0.037186,-0.079468,0.999908,-0.024465,0.005286,-0.005413,66.450241,21.592758,-149.355591,,,
729607974.363501,-4.075339,1.23226,30.452034,-0.037186,-0.079468,0.999908,-0.024465,0.005286,-0.005413,66.450241,21.592758,-149.355591,,,
729607974.366825,-4.08318,1.232678,30.451423,-0.037186,-0.079468,0.999908,-0.024465,0.005286,-0.005413,66.281616,21.523102,-149.254196,,,
729607974.370223,-4.08318,1.232678,30.451423,-0.037186,-0.079468,0.999908,-0.024465,0.005286,-0.005413,66.281616,21.523102,-149.254196,,,
729607974.373643,-4.087876,1.232255,30.451661,-0.036499,-0.084396,1.003769,-0.020332,-0.000225,-0.000124,66.281616,21.523102,-149.254196,,,
729607974.37685,-4.093626,1.230901,30.452587,-0.036499,-0.084396,1.003769,-0.020332,-0.000225,-0.000124,66.281616,21.523102,-149.254196,,,
729607974.380254,-4.093626,1.230901,30.452587,-0.036499,-0.084396,1.003769,-0.020332,-0.000225,-0.000124,66.281616,21.523102,-149.254196,,,
729607974.383517,-4.096913,1.230387,30.454164,-0.03334,-0.085953,1.004196,-0.014314,0.001927,0.006373,66.281616,21.523102,-149.254196,,,
729607974.386842,-4.100471,1.230314,30.456089,-0.03334,-0.085953,1.004196,-0.014314,0.001927,0.006373,66.281616,21.523102,-149.254196,,,
729607974.390203,-4.100471,1.230314,30.456089,-0.03334,-0.085953,1.004196,-0.014314,0.001927,0.006373,66.281616,21.523102,-149.254196,,,
729607974.393496,-4.099987,1.22983,30.457853,-0.030502,-0.087402,1.010849,0.002854,0.002854,0.001897,66.281616,21.523102,-149.254196,,,
729607974.396827,-4.098502,1.229636,30.459831,-0.030502,-0.087402,1.010849,0.002854,0.002854,0.001897,66.281616,21.523102,-149.254196,,,
729607974.400247,-4.098502,1.229636,30.459831,-0.030502,-0.087402,1.010849,0.002854,0.002854,0.001897,66.281616,21.523102,-149.254196,,,
729607974.403489,-4.092724,1.228306,30.462356,-0.02916,-0.087936,1.014282,0.025725,-0.004094,0.008104,66.281616,21.523102,-149.254196,,,
729607974.406822,-4.085228,1.22724,30.465391,-0.02916,-0.087936,1.014282,0.025725,-0.004094,0.008104,66.343491,21.487625,-149.166855,,,
729607974.410227,-4.085228,1.22724,30.465391,-0.02916,-0.087936,1.014282,0.025725,-0.004094,0.008104,66.343491,21.487625,-149.166855,,,
729607974.413539,-4.073874,1.225841,30.469223,-0.031113,-0.090454,1.014069,0.048648,0.002082,0.014506,66.343491,21.487625,-149.166855,,,
729607974.416817,-4.0598,1.226024,30.4739,-0.031113,-0.090454,1.014069,0.048648,0.002082,0.014506,66.343491,21.487625,-149.166855,,,
729607974.420209,-4.0598,1.226024,30.4739,-0.031113,-0.090454,1.014069,0.048648,0.002082,0.014506,66.343491,21.487625,-149.166855,,,
729607974.423497,-4.044964,1.227768,30.479289,-0.030701,-0.087006,1.012848,0.056734,0.001605,0.016765,66.343491,21.487625,-149.166855,,,
729607974.426822,-4.028219,1.228437,30.485214,-0.030701,-0.087006,1.012848,0.056734,0.001605,0.016765,66.343491,21.487625,-149.166855,,,
729607974.430208,-4.028219,1.228437,30.485214,-0.030701,-0.087006,1.012848,0.056734,0.001605,0.016765,66.343491,21.487625,-149.166855,,,
729607974.433496,-4.013168,1.23133,30.491634,-0.029099,-0.079239,1.004364,0.052169,0.012561,0.023379,66.343491,21.487625,-149.166855,,,
729607974.436822,-3.997818,1.234813,30.49888,-0.029099,-0.079239,1.004364,0.052169,0.012561,0.023379,66.343491,21.487625,-149.166855,,,
729607974.440226,-3.997818,1.234813,30.49888,-0.029099,-0.079239,1.004364,0.052169,0.012561,0.023379,66.343491,21.487625,-149.166855,,,
729607974.443494,-3.984666,1.242643,30.506871,-0.028488,-0.075394,1.003189,0.048747,0.027847,0.025103,66.343491,21.487625,-149.166855,,,
729607974.446822,-3.970973,1.250017,30.514743,-0.028488,-0.075394,1.003189,0.048747,0.027847,0.025103,66.308853,21.649826,-148.938812,,,
729607974.450164,-3.970973,1.250017,30.514743,-0.028488,-0.075394,1.003189,0.048747,0.027847,0.025103,66.308853,21.649826,-148.938812,,,
729607974.453493,-3.959621,1.26059,30.522788,-0.020554,-0.070572,1.001816,0.046238,0.028471,0.024167,66.308853,21.649826,-148.938812,,,
729607974.456829,-3.946707,1.268694,30.529617,-0.020554,-0.070572,1.001816,0.046238,0.028471,0.024167,66.308853,21.649826,-148.938812,,,
729607974.460211,-3.946707,1.268694,30.529617,-0.020554,-0.070572,1.001816,0.046238,0.028471,0.024167,66.308853,21.649826,-148.938812,,,
729607974.463495,-3.938771,1.278551,30.534762,-0.01413,-0.063522,0.99527,0.032719,0.033066,0.011706,66.308853,21.649826,-148.938812,,,
729607974.466823,-3.930724,1.286016,30.538074,-0.01413,-0.063522,0.99527,0.032719,0.033066,0.011706,66.308853,21.649826,-148.938812,,,
729607974.470156,-3.930724,1.286016,30.538074,-0.01413,-0.063522,0.99527,0.032719,0.033066,0.011706,66.308853,21.649826,-148.938812,,,
729607974.4735,-3.926615,1.294327,30.5408,-0.017471,-0.059921,0.990555,0.024653,0.022083,0.006539,66.308853,21.649826,-148.938812,,,
729607974.476821,-3.920232,1.299857,30.543696,-0.017471,-0.059921,0.990555,0.024653,0.022083,0.006539,66.308853,21.649826,-148.938812,,,
729607974.480258,-3.920232,1.299857,30.543696,-0.017471,-0.059921,0.990555,0.024653,0.022083,0.006539,66.308853,21.649826,-148.938812,,,
729607974.483491,-3.917218,1.305007,30.54602,-0.023056,-0.065994,0.991241,0.022831,0.014729,0.007582,66.308853,21.649826,-148.938812,,,
729607974.486859,-3.910772,1.307707,30.547977,-0.023056,-0.065994,0.991241,0.022831,0.014729,0.007582,66.336731,21.479141,-149.402527,,,
729607974.490177,-3.910772,1.307707,30.547977,-0.023056,-0.065994,0.991241,0.022831,0.014729,0.007582,66.336731,21.479141,-149.402527,,,
729607974.493564,-3.907654,1.30933,30.550856,-0.023773,-0.067139,0.992706,0.023069,-0.003265,0.00965,66.336731,21.479141,-149.402527,,,
729607974.496818,-3.901767,1.307543,30.554589,-0.023773,-0.067139,0.992706,0.023069,-0.003265,0.00965,66.336731,21.479141,-149.402527,,,
729607974.50018,-3.901767,1.307543,30.554589,-0.023773,-0.067139,0.992706,0.023069,-0.003265,0.00965,66.336731,21.479141,-149.402527,,,
729607974.503485,-3.899289,1.305859,30.559039,-0.027527,-0.068466,0.99295,0.022262,-0.00916,0.014633,66.336731,21.479141,-149.402527,,,
729607974.506825,-3.892869,1.302319,30.563539,-0.027527,-0.068466,0.99295,0.022262,-0.00916,0.014633,66.336731,21.479141,-149.402527,,,
729607974.510168,-3.892869,1.302319,30.563539,-0.027527,-0.068466,0.99295,0.022262,-0.00916,0.014633,66.336731,21.479141,-149.402527,,,
729607974.513507,-3.887507,1.298811,30.568257,-0.028671,-0.071198,1.000854,0.028073,-0.01898,0.014814,66.336731,21.479141,-149.402527,,,
729607974.516828,-3.878659,1.292523,30.573106,-0.028671,-0.071198,1.000854,0.028073,-0.01898,0.014814,66.336731,21.479141,-149.402527,,,
729607974.520157,-3.878659,1.292523,30.573106,-0.028671,-0.071198,1.000854,0.028073,-0.01898,0.014814,66.336731,21.479141,-149.402527,,,
729607974.523506,-3.870743,1.285281,30.578361,-0.024658,-0.070724,0.999619,0.033788,-0.033296,0.017335,66.336731,21.479141,-149.402527,,,
729607974.52683,-3.861614,1.275376,30.583462,-0.024658,-0.070724,0.999619,0.033788,-0.033296,0.017335,66.336731,21.479141,-149.402527,,,
729607974.530162,-3.861614,1.275376,30.583462,-0.024658,-0.070724,0.999619,0.033788,-0.033296,0.017335,66.228073,21.501007,-149.189484,,,
729607974.533601,-3.853662,1.265868,30.588183,-0.025345,-0.070816,1.000778,0.027876,-0.030912,0.016822,66.228073,21.501007,-149.189484,,,
729607974.536815,-3.845924,1.257535,30.592453,-0.025345,-0.070816,1.000778,0.027876,-0.030912,0.016822,66.228073,21.501007,-149.189484,,,
729607974.540181,-3.845924,1.257535,30.592453,-0.025345,-0.070816,1.000778,0.027876,-0.030912,0.016822,66.228073,21.501007,-149.189484,,,
729607974.543509,-3.840061,1.249575,30.596629,-0.019196,-0.06723,1.003342,0.013766,-0.018443,0.012092,66.228073,21.501007,-149.189484,,,
729607974.54684,-3.83669,1.244797,30.601151,-0.019196,-0.06723,1.003342,0.013766,-0.018443,0.012092,66.228073,21.501007,-149.189484,,,
729607974.550174,-3.83669,1.244797,30.601151,-0.019196,-0.06723,1.003342,0.013766,-0.018443,0.012092,66.228073,21.501007,-149.189484,,,
729607974.553533,-3.834218,1.241881,30.60603,-0.016739,-0.067932,1.001083,0.003558,0.002499,0.01654,66.228073,21.501007,-149.189484,,,
729607974.556856,-3.83292,1.241872,30.611725,-0.016739,-0.067932,1.001083,0.003558,0.002499,0.01654,66.228073,21.501007,-149.189484,,,
729607974.560164,-3.83292,1.241872,30.611725,-0.016739,-0.067932,1.001083,0.003558,0.002499,0.01654,66.228073,21.501007,-149.189484,,,
729607974.563491,-3.830263,1.243078,30.618757,-0.024292,-0.075073,1.001984,0.010725,0.005363,0.024889,66.228073,21.501007,-149.189484,,,
729607974.566819,-3.826324,1.245088,30.62684,-0.024292,-0.075073,1.001984,0.010725,0.005363,0.024889,66.228073,21.501007,-149.189484,,,
729607974.570197,-3.826324,1.245088,30.62684,-0.024292,-0.075073,1.001984,0.010725,0.005363,0.024889,66.184265,21.231903,-149.52301,,,
729607974.573499,-3.820209,1.246896,30.635194,-0.022781,-0.077271,1.008301,0.024784,0.000596,0.031757,66.184265,21.231903,-149.52301,,,
729607974.576826,-3.813016,1.246784,30.643718,-0.022781,-0.077271,1.008301,0.024784,0.000596,0.031757,66.184265,21.231903,-149.52301,,,
729607974.580168,-3.813016,1.246784,30.643718,-0.022781,-0.077271,1.008301,0.024784,0.000596,0.031757,66.184265,21.231903,-149.52301,,,
729607974.583553,-3.805323,1.245789,30.652168,-0.02179,-0.075684,1.002075,0.029328,-0.008947,0.025258,66.184265,21.231903,-149.52301,,,
