Time (sec),Pitch (deg),Roll (deg),Yaw(deg),X-Acceleration (g),Y-Acceleration (g),Z-Acceleration (g),Pitch Rate (deg/sec),Roll Rate (deg/sec),Yaw Rate (deg/sec),Magnetic Field in X direction (uT),Magnetic Field in Y direction (uT),Magnetic Field in Z Direction (uT),Latitude (deg),Longitude (deg),Altitude (m)
729601249.430925,1.540396,-0.601757,-19.615772,-0.008347,0.022568,0.994476,0.00992,0.039709,-0.05722,70.476974,7.862579,-147.496567,,,
729601249.434139,1.537677,-0.580983,-19.631286,-6.1e-05,0.027725,0.993378,0.00992,0.039709,-0.05722,70.476974,7.862579,-147.496567,,,
729601249.437474,1.537677,-0.580983,-19.631286,-6.1e-05,0.027725,0.993378,0.00992,0.039709,-0.05722,70.476974,7.862579,-147.496567,,,
729601249.440839,1.536329,-0.564692,-19.644713,-6.1e-05,0.027725,0.993378,-0.009725,0.063551,-0.043949,70.476974,7.862579,-147.496567,,,
729601249.444141,1.529528,-0.540546,-19.6563,-0.004944,0.028076,0.983536,-0.009725,0.063551,-0.043949,70.476974,7.862579,-147.496567,,,
729601249.447479,1.529528,-0.540546,-19.6563,-0.004944,0.028076,0.983536,-0.009725,0.063551,-0.043949,70.476974,7.862579,-147.496567,,,
729601249.450837,1.522744,-0.516609,-19.665927,-0.004944,0.028076,0.983536,-0.026943,0.09349,-0.030957,70.476974,7.862579,-147.496567,,,
729601249.454143,1.514096,-0.486682,-19.67384,-0.009659,0.028183,0.98703,-0.026943,0.09349,-0.030957,70.476974,7.862579,-147.496567,,,
729601249.457576,1.514096,-0.486682,-19.67384,-0.009659,0.028183,0.98703,-0.026943,0.09349,-0.030957,70.476974,7.862579,-147.496567,,,
729601249.460807,1.506012,-0.454048,-19.680151,-0.009659,0.028183,0.98703,-0.026163,0.120766,-0.020047,70.611099,8.238739,-147.576447,,,
729601249.464148,1.499188,-0.418911,-19.685204,-0.002533,0.030502,0.996414,-0.026163,0.120766,-0.020047,70.611099,8.238739,-147.576447,,,
729601249.467483,1.499188,-0.418911,-19.685204,-0.002533,0.030502,0.996414,-0.026163,0.120766,-0.020047,70.611099,8.238739,-147.576447,,,
729601249.470832,1.49473,-0.385362,-19.689714,-0.002533,0.030502,0.996414,-0.0123,0.11855,-0.016598,70.611099,8.238739,-147.576447,,,
729601249.474151,1.492223,-0.351835,-19.694271,-0.00148,0.026413,0.991852,-0.0123,0.11855,-0.016598,70.611099,8.238739,-147.576447,,,
729601249.477488,1.492223,-0.351835,-19.694271,-0.00148,0.026413,0.991852,-0.0123,0.11855,-0.016598,70.611099,8.238739,-147.576447,,,
729601249.480863,1.492616,-0.323161,-19.69937,-0.00148,0.026413,0.991852,0.006443,0.094107,-0.020641,70.611099,8.238739,-147.576447,,,
729601249.484141,1.493912,-0.298028,-19.705614,-0.001846,0.027283,0.983139,0.006443,0.094107,-0.020641,70.611099,8.238739,-147.576447,,,
729601249.487493,1.493912,-0.298028,-19.705614,-0.001846,0.027283,0.983139,0.006443,0.094107,-0.020641,70.611099,8.238739,-147.576447,,,
729601249.490836,1.496537,-0.280849,-19.71329,-0.001846,0.027283,0.983139,0.011073,0.053242,-0.031031,70.611099,8.238739,-147.576447,,,
729601249.494186,1.498386,-0.264561,-19.722517,-0.002274,0.033203,0.971756,0.011073,0.053242,-0.031031,70.611099,8.238739,-147.576447,,,
729601249.497475,1.498386,-0.264561,-19.722517,-0.002274,0.033203,0.971756,0.011073,0.053242,-0.031031,70.611099,8.238739,-147.576447,,,
729601249.500829,1.501072,-0.256714,-19.731781,-0.002274,0.033203,0.971756,0.008419,0.023787,-0.032017,70.648956,8.130981,-147.504654,,,
729601249.504153,1.502218,-0.248694,-19.740223,-0.005081,0.03656,0.970581,0.008419,0.023787,-0.032017,70.648956,8.130981,-147.504654,,,
729601249.507554,1.502218,-0.248694,-19.740223,-0.005081,0.03656,0.970581,0.008419,0.023787,-0.032017,70.648956,8.130981,-147.504654,,,
729601249.510801,1.502883,-0.246508,-19.74757,-0.005081,0.03656,0.970581,0.00157,0.005062,-0.024907,70.648956,8.130981,-147.504654,,,
729601249.514163,1.502677,-0.245714,-19.753713,-0.008972,0.0327,0.975479,0.00157,0.005062,-0.024907,70.648956,8.130981,-147.504654,,,
729601249.517489,1.502677,-0.245714,-19.753713,-0.008972,0.0327,0.975479,0.00157,0.005062,-0.024907,70.648956,8.130981,-147.504654,,,
729601249.520914,1.500585,-0.247508,-19.758881,-0.008972,0.0327,0.975479,-0.007559,-0.005324,-0.018327,70.648956,8.130981,-147.504654,,,
729601249.524142,1.497855,-0.24554,-19.763942,-0.006256,0.029617,0.981659,-0.007559,-0.005324,-0.018327,70.648956,8.130981,-147.504654,,,
729601249.52748,1.497855,-0.24554,-19.763942,-0.006256,0.029617,0.981659,-0.007559,-0.005324,-0.018327,70.648956,8.130981,-147.504654,,,
729601249.53084,1.493326,-0.244831,-19.769074,-0.006256,0.029617,0.981659,-0.018389,0.009698,-0.019485,70.648956,8.130981,-147.504654,,,
729601249.534149,1.488457,-0.238457,-19.774689,-0.004211,0.030365,0.991043,-0.018389,0.009698,-0.019485,70.648956,8.130981,-147.504654,,,
729601249.537494,1.488457,-0.238457,-19.774689,-0.004211,0.030365,0.991043,-0.018389,0.009698,-0.019485,70.648956,8.130981,-147.504654,,,
729601249.540817,1.481473,-0.232627,-19.780754,-0.004211,0.030365,0.991043,-0.026803,0.027767,-0.023193,70.686707,8.104156,-147.685486,,,
729601249.544146,1.473086,-0.2231,-19.786758,-0.006485,0.028748,0.99295,-0.026803,0.027767,-0.023193,70.686707,8.104156,-147.685486,,,
729601249.547481,1.473086,-0.2231,-19.786758,-0.006485,0.028748,0.99295,-0.026803,0.027767,-0.023193,70.686707,8.104156,-147.685486,,,
729601249.550812,1.461873,-0.213721,-19.792564,-0.006485,0.028748,0.99295,-0.041581,0.035782,-0.021987,70.686707,8.104156,-147.685486,,,
729601249.554146,1.448034,-0.201923,-19.797731,-0.007614,0.029709,0.992889,-0.041581,0.035782,-0.021987,70.686707,8.104156,-147.685486,,,
729601249.557537,1.448034,-0.201923,-19.797731,-0.007614,0.029709,0.992889,-0.041581,0.035782,-0.021987,70.686707,8.104156,-147.685486,,,
729601249.560859,1.431403,-0.190812,-19.801483,-0.007614,0.029709,0.992889,-0.060878,0.042206,-0.012443,70.686707,8.104156,-147.685486,,,
729601249.564249,1.414799,-0.178655,-19.80362,-0.011948,0.029449,0.988251,-0.060878,0.042206,-0.012443,70.686707,8.104156,-147.685486,,,
729601249.567492,1.414799,-0.178655,-19.80362,-0.011948,0.029449,0.988251,-0.060878,0.042206,-0.012443,70.686707,8.104156,-147.685486,,,
729601249.570908,1.396779,-0.167551,-19.804303,-0.011948,0.029449,0.988251,-0.062635,0.04291,-0.002577,70.686707,8.104156,-147.685486,,,
729601249.574138,1.381975,-0.154415,-19.803916,-0.014175,0.02565,0.993332,-0.062635,0.04291,-0.002577,70.686707,8.104156,-147.685486,,,
729601249.577505,1.381975,-0.154415,-19.803916,-0.014175,0.02565,0.993332,-0.062635,0.04291,-0.002577,70.686707,8.104156,-147.685486,,,
729601249.580817,1.365842,-0.142729,-19.802084,-0.014175,0.02565,0.993332,-0.053027,0.043949,0.007214,70.731369,8.260376,-147.488342,,,
729601249.584148,1.353721,-0.127845,-19.799155,-0.014343,0.017899,1.004959,-0.053027,0.043949,0.007214,70.731369,8.260376,-147.488342,,,
729601249.587484,1.353721,-0.127845,-19.799155,-0.014343,0.017899,1.004959,-0.053027,0.043949,0.007214,70.731369,8.260376,-147.488342,,,
729601249.590814,1.34099,-0.114604,-19.795135,-0.014343,0.017899,1.004959,-0.036388,0.05069,0.014325,70.731369,8.260376,-147.488342,,,
729601249.594146,1.3337,-0.097945,-19.790902,-0.016418,0.010422,1.013199,-0.036388,0.05069,0.014325,70.731369,8.260376,-147.488342,,,
729601249.597494,1.3337,-0.097945,-19.790902,-0.016418,0.010422,1.013199,-0.036388,0.05069,0.014325,70.731369,8.260376,-147.488342,,,
729601249.60082,1.325925,-0.08584,-19.786273,-0.016418,0.010422,1.013199,-0.022739,0.042783,0.016501,70.731369,8.260376,-147.488342,,,
729601249.604158,1.322071,-0.072446,-19.780568,-0.015732,0.008804,1.011749,-0.022739,0.042783,0.016501,70.731369,8.260376,-147.488342,,,
729601249.607534,1.322071,-0.072446,-19.780568,-0.015732,0.008804,1.011749,-0.022739,0.042783,0.016501,70.731369,8.260376,-147.488342,,,
729601249.610812,1.316482,-0.061517,-19.773739,-0.015732,0.008804,1.011749,-0.019061,0.039537,0.024037,70.731369,8.260376,-147.488342,,,
729601249.61415,1.312526,-0.050914,-19.766076,-0.020004,0.011444,1.010132,-0.019061,0.039537,0.024037,70.731369,8.260376,-147.488342,,,
729601249.617492,1.312526,-0.050914,-19.766076,-0.020004,0.011444,1.010132,-0.019061,0.039537,0.024037,70.731369,8.260376,-147.488342,,,
729601249.620901,1.306429,-0.04566,-19.758354,-0.020004,0.011444,1.010132,-0.021231,0.015421,0.024163,70.731369,8.260376,-147.488342,,,
729601249.624136,1.301267,-0.04166,-19.750554,-0.017014,0.017532,1.002518,-0.021231,0.015421,0.024163,70.722855,8.073761,-147.432861,,,
729601249.627493,1.301267,-0.04166,-19.750554,-0.017014,0.017532,1.002518,-0.021231,0.015421,0.024163,70.722855,8.073761,-147.432861,,,
729601249.63083,1.292592,-0.043599,-19.742038,-0.017014,0.017532,1.002518,-0.033331,-0.00786,0.028697,70.722855,8.073761,-147.432861,,,
729601249.634142,1.284332,-0.044665,-19.732939,-0.011993,0.019821,1.00145,-0.033331,-0.00786,0.028697,70.722855,8.073761,-147.432861,,,
729601249.637491,1.284332,-0.044665,-19.732939,-0.011993,0.019821,1.00145,-0.033331,-0.00786,0.028697,70.722855,8.073761,-147.432861,,,
729601249.64083,1.272287,-0.051025,-19.722929,-0.011993,0.019821,1.00145,-0.044235,-0.020727,0.034537,70.722855,8.073761,-147.432861,,,
729601249.64414,1.260062,-0.053254,-19.712441,-0.009415,0.01828,1.003265,-0.044235,-0.020727,0.034537,70.722855,8.073761,-147.432861,,,
729601249.647474,1.260062,-0.053254,-19.712441,-0.009415,0.01828,1.003265,-0.044235,-0.020727,0.034537,70.722855,8.073761,-147.432861,,,
729601249.650831,1.244285,-0.059838,-19.701299,-0.009415,0.01828,1.003265,-0.055913,-0.018641,0.038426,70.722855,8.073761,-147.432861,,,
729601249.654149,1.227922,-0.061027,-19.689799,-0.00267,0.016357,1.007919,-0.055913,-0.018641,0.038426,70.722855,8.073761,-147.432861,,,
729601249.657523,1.227922,-0.061027,-19.689799,-0.00267,0.016357,1.007919,-0.055913,-0.018641,0.038426,70.722855,8.073761,-147.432861,,,
729601249.6608,1.209932,-0.066261,-19.677842,-0.00267,0.016357,1.007919,-0.062756,-0.010778,0.040857,70.722855,8.073761,-147.432861,,,
729601249.664144,1.189842,-0.064538,-19.664966,0.004913,0.015732,1.012329,-0.062756,-0.010778,0.040857,70.667542,8.470322,-147.736542,,,
729601249.6675,1.189842,-0.064538,-19.664966,0.004913,0.015732,1.012329,-0.062756,-0.010778,0.040857,70.667542,8.470322,-147.736542,,,
729601249.670869,1.171972,-0.066873,-19.650163,0.004913,0.015732,1.012329,-0.060291,-0.000502,0.053429,70.667542,8.470322,-147.736542,,,
729601249.674139,1.151808,-0.06292,-19.633826,0.004028,0.013382,1.018829,-0.060291,-0.000502,0.053429,70.667542,8.470322,-147.736542,,,
729601249.677482,1.151808,-0.06292,-19.633826,0.004028,0.013382,1.018829,-0.060291,-0.000502,0.053429,70.667542,8.470322,-147.736542,,,
729601249.680844,1.136634,-0.06476,-19.615942,0.004028,0.013382,1.018829,-0.047777,-0.002238,0.063444,70.667542,8.470322,-147.736542,,,
729601249.684136,1.122044,-0.060747,-19.597179,0.004654,0.009735,1.020981,-0.047777,-0.002238,0.063444,70.667542,8.470322,-147.736542,,,
729601249.687491,1.122044,-0.060747,-19.597179,0.004654,0.009735,1.020981,-0.047777,-0.002238,0.063444,70.667542,8.470322,-147.736542,,,
729601249.690812,1.114852,-0.062936,-19.5789,0.004654,0.009735,1.020981,-0.017737,-0.004101,0.05916,70.667542,8.470322,-147.736542,,,
729601249.694139,1.110125,-0.058767,-19.562659,0.014694,0.011429,1.028885,-0.017737,-0.004101,0.05916,70.667542,8.470322,-147.736542,,,
729601249.697475,1.110125,-0.058767,-19.562659,0.014694,0.011429,1.028885,-0.017737,-0.004101,0.05916,70.667542,8.470322,-147.736542,,,
729601249.700824,1.111555,-0.063114,-19.548267,0.014694,0.011429,1.028885,0.012882,-0.014836,0.045336,70.667542,8.470322,-147.736542,,,
729601249.704143,1.116932,-0.063487,-19.536393,0.025177,0.014297,1.027374,0.012882,-0.014836,0.045336,70.626297,8.334442,-147.458618,,,
729601249.707557,1.116932,-0.063487,-19.536393,0.025177,0.014297,1.027374,0.012882,-0.014836,0.045336,70.626297,8.334442,-147.458618,,,
729601249.710848,1.125523,-0.069633,-19.526626,0.025177,0.014297,1.027374,0.034939,-0.017746,0.029847,70.626297,8.334442,-147.458618,,,
729601249.714135,1.135357,-0.073005,-19.519211,0.024063,0.018448,1.021683,0.034939,-0.017746,0.029847,70.626297,8.334442,-147.458618,,,
729601249.717495,1.135357,-0.073005,-19.519211,0.024063,0.018448,1.021683,0.034939,-0.017746,0.029847,70.626297,8.334442,-147.458618,,,
729601249.720889,1.145234,-0.080488,-19.513737,0.024063,0.018448,1.021683,0.034434,-0.023103,0.015871,70.626297,8.334442,-147.458618,,,
729601249.724136,1.153114,-0.08459,-19.509158,0.022903,0.021881,1.01355,0.034434,-0.023103,0.015871,70.626297,8.334442,-147.458618,,,
729601249.727479,1.153114,-0.08459,-19.509158,0.022903,0.021881,1.01355,0.034434,-0.023103,0.015871,70.626297,8.334442,-147.458618,,,
729601249.730823,1.159545,-0.089042,-19.50471,0.022903,0.021881,1.01355,0.019402,-0.008145,0.014558,70.626297,8.334442,-147.458618,,,
729601249.734137,1.163045,-0.091033,-19.500212,0.020508,0.023376,1.009384,0.019402,-0.008145,0.014558,70.626297,8.334442,-147.458618,,,
729601249.737491,1.163045,-0.091033,-19.500212,0.020508,0.023376,1.009384,0.019402,-0.008145,0.014558,70.626297,8.334442,-147.458618,,,
729601249.740814,1.165663,-0.092435,-19.495504,0.020508,0.023376,1.009384,0.007172,-0.002567,0.016023,70.626297,8.334442,-147.458618,,,
729601249.744155,1.165429,-0.095038,-19.490553,0.016617,0.025055,1.006287,0.007172,-0.002567,0.016023,70.813202,8.403381,-147.783249,,,
729601249.747478,1.165429,-0.095038,-19.490553,0.016617,0.025055,1.006287,0.007172,-0.002567,0.016023,70.813202,8.403381,-147.783249,,,
729601249.750812,1.164579,-0.097693,-19.485855,0.016617,0.025055,1.006287,-0.004706,-0.008081,0.014395,70.813202,8.403381,-147.783249,,,
729601249.754139,1.160524,-0.101553,-19.482453,0.016708,0.027542,1.003677,-0.004706,-0.008081,0.014395,70.813202,8.403381,-147.783249,,,
729601249.75754,1.160524,-0.101553,-19.482453,0.016708,0.027542,1.003677,-0.004706,-0.008081,0.014395,70.813202,8.403381,-147.783249,,,
729601249.7608,1.157858,-0.105054,-19.481109,0.016708,0.027542,1.003677,-0.009494,-0.010755,0.000164,70.813202,8.403381,-147.783249,,,
729601249.764142,1.152435,-0.111044,-19.481118,0.017624,0.025726,1.004227,-0.009494,-0.010755,0.000164,70.813202,8.403381,-147.783249,,,
729601249.767495,1.152435,-0.111044,-19.481118,0.017624,0.025726,1.004227,-0.009494,-0.010755,0.000164,70.813202,8.403381,-147.783249,,,
729601249.770823,1.149916,-0.116259,-19.482017,0.017624,0.025726,1.004227,-0.006704,-0.015672,-0.005819,70.813202,8.403381,-147.783249,,,
729601249.774146,1.146891,-0.126603,-19.483476,0.015091,0.019638,1.010468,-0.006704,-0.015672,-0.005819,70.813202,8.403381,-147.783249,,,
729601249.777477,1.146891,-0.126603,-19.483476,0.015091,0.019638,1.010468,-0.006704,-0.015672,-0.005819,70.813202,8.403381,-147.783249,,,
729601249.780812,1.147014,-0.133651,-19.485315,0.015091,0.019638,1.010468,0.002619,-0.02386,-0.00785,70.813202,8.403381,-147.783249,,,
729601249.784145,1.148353,-0.147425,-19.486889,0.006531,0.012558,1.011475,0.002619,-0.02386,-0.00785,70.813202,8.403381,-147.783249,,,
729601249.787506,1.148353,-0.147425,-19.486889,0.006531,0.012558,1.011475,0.002619,-0.02386,-0.00785,70.774979,8.285049,-147.280273,,,
729601249.790821,1.153092,-0.156192,-19.488077,0.006531,0.012558,1.011475,0.019441,-0.028948,-0.004468,70.774979,8.285049,-147.280273,,,
729601249.79414,1.159967,-0.169168,-19.488925,0.006851,0.009659,1.01741,0.019441,-0.028948,-0.004468,70.774979,8.285049,-147.280273,,,
729601249.79756,1.159967,-0.169168,-19.488925,0.006851,0.009659,1.01741,0.019441,-0.028948,-0.004468,70.774979,8.285049,-147.280273,,,
729601249.800817,1.169916,-0.177359,-19.489043,0.006851,0.009659,1.01741,0.040404,-0.026759,0.001236,70.774979,8.285049,-147.280273,,,
729601249.804145,1.182425,-0.189312,-19.487799,0.005798,0.008545,1.01767,0.040404,-0.026759,0.001236,70.774979,8.285049,-147.280273,,,
729601249.807574,1.182425,-0.189312,-19.487799,0.005798,0.008545,1.01767,0.040404,-0.026759,0.001236,70.774979,8.285049,-147.280273,,,
729601249.810803,1.195805,-0.195896,-19.486627,0.005798,0.008545,1.01767,0.048561,-0.017019,0.00128,70.774979,8.285049,-147.280273,,,
729601249.814148,1.21004,-0.203628,-19.486179,0.005768,0.010803,1.013687,0.048561,-0.017019,0.00128,70.774979,8.285049,-147.280273,,,
729601249.817493,1.21004,-0.203628,-19.486179,0.005768,0.010803,1.013687,0.048561,-0.017019,0.00128,70.774979,8.285049,-147.280273,,,
729601249.820882,1.223461,-0.206288,-19.486919,0.005768,0.010803,1.013687,0.045429,-0.003288,-0.006571,70.774979,8.285049,-147.280273,,,
729601249.824134,1.236363,-0.210418,-19.488693,0.011169,0.019913,1.01149,0.045429,-0.003288,-0.006571,70.774979,8.285049,-147.280273,,,
729601249.827475,1.236363,-0.210418,-19.488693,0.011169,0.019913,1.01149,0.045429,-0.003288,-0.006571,70.66983,8.266632,-147.503357,,,
729601249.830805,1.247134,-0.211154,-19.491191,0.011169,0.019913,1.01149,0.036523,0.001457,-0.011212,70.66983,8.266632,-147.503357,,,
729601249.83414,1.247134,-0.211154,-19.491191,0.005798,0.018661,1.002991,0.036523,0.001457,-0.011212,70.66983,8.266632,-147.503357,,,
729601249.837479,1.257968,-0.214352,-19.493771,0.005798,0.018661,1.002991,0.036523,0.001457,-0.011212,70.66983,8.266632,-147.503357,,,
729601249.840806,1.266179,-0.213854,-19.496073,0.005798,0.018661,1.002991,0.026204,0.006512,-0.008775,70.66983,8.266632,-147.503357,,,
729601249.844149,1.27301,-0.216083,-19.498322,0.002777,0.018921,0.995911,0.026204,0.006512,-0.008775,70.66983,8.266632,-147.503357,,,
729601249.84749,1.27301,-0.216083,-19.498322,0.002777,0.018921,0.995911,0.026204,0.006512,-0.008775,70.66983,8.266632,-147.503357,,,
729601249.85082,1.27744,-0.214012,-19.500785,0.002777,0.018921,0.995911,0.012517,0.010973,-0.009603,70.66983,8.266632,-147.503357,,,
729601249.854132,1.27744,-0.214012,-19.500785,0.001495,0.021805,0.995163,0.012517,0.010973,-0.009603,70.66983,8.266632,-147.503357,,,
729601249.857542,1.278843,-0.214462,-19.503196,0.001495,0.021805,0.995163,0.012517,0.010973,-0.009603,70.66983,8.266632,-147.503357,,,
729601249.860799,1.279927,-0.212571,-19.50572,0.001495,0.021805,0.995163,0.000685,0.010674,-0.010006,70.66983,8.266632,-147.503357,,,
729601249.864132,1.279927,-0.212571,-19.50572,0.001816,0.02417,0.989639,0.000685,0.010674,-0.010006,70.66983,8.266632,-147.503357,,,
729601249.867473,1.275793,-0.211217,-19.508262,0.001816,0.02417,0.989639,0.000685,0.010674,-0.010006,70.616684,8.257935,-147.435913,,,
729601249.870801,1.273406,-0.209167,-19.510565,0.001816,0.02417,0.989639,-0.01026,0.010606,-0.008175,70.616684,8.257935,-147.435913,,,
729601249.874044,1.273406,-0.209167,-19.510565,-0.00087,0.024033,0.985779,-0.01026,0.010606,-0.008175,70.616684,8.257935,-147.435913,,,
729601249.877489,1.266091,-0.208373,-19.512255,-0.00087,0.024033,0.985779,-0.01026,0.010606,-0.008175,70.616684,8.257935,-147.435913,,,
729601249.880912,1.261112,-0.207684,-19.513532,-0.00087,0.024033,0.985779,-0.018708,0.001914,-0.005066,70.616684,8.257935,-147.435913,,,
729601249.884234,1.261112,-0.207684,-19.513922,-7.6e-05,0.024567,0.979462,-0.018708,0.001914,-0.005066,70.616684,8.257935,-147.435913,,,
729601249.887492,1.252377,-0.208862,-19.513922,-7.6e-05,0.024567,0.979462,-0.018708,0.001914,-0.005066,70.616684,8.257935,-147.435913,,,
729601249.890828,1.249435,-0.21131,-19.513565,-7.6e-05,0.024567,0.979462,-0.00549,-0.008164,0.000155,70.616684,8.257935,-147.435913,,,
729601249.894201,1.249435,-0.21131,-19.513565,3.1e-05,0.021622,0.985092,-0.00549,-0.008164,0.000155,70.616684,8.257935,-147.435913,,,
729601249.897469,1.246098,-0.216391,-19.513038,3.1e-05,0.021622,0.985092,-0.00549,-0.008164,0.000155,70.616684,8.257935,-147.435913,,,
729601249.900808,1.246092,-0.220442,-19.512922,3.1e-05,0.021622,0.985092,0.003411,-0.013035,-0.002434,70.616684,8.257935,-147.435913,,,
729601249.904151,1.246092,-0.220442,-19.512922,0.004166,0.0186,0.993286,0.003411,-0.013035,-0.002434,70.616684,8.257935,-147.435913,,,
729601249.907515,1.247799,-0.227179,-19.512947,0.004166,0.0186,0.993286,0.003411,-0.013035,-0.002434,70.616684,8.257935,-147.435913,,,
729601249.910911,1.251603,-0.232871,-19.512637,0.004166,0.0186,0.993286,0.015162,-0.019269,0.000228,70.633469,8.40451,-147.299332,,,
729601249.914149,1.251603,-0.232871,-19.512637,0.004166,0.0186,0.993286,0.015162,-0.019269,0.000228,70.633469,8.40451,-147.299332,,,
729601249.917498,1.254617,-0.239755,-19.512367,0.000458,0.014114,0.989716,0.015162,-0.019269,0.000228,70.633469,8.40451,-147.299332,,,
729601249.920804,1.257684,-0.246584,-19.512834,0.000458,0.014114,0.989716,0.008377,-0.019902,-0.004896,70.633469,8.40451,-147.299332,,,
729601249.924151,1.257684,-0.246584,-19.512834,0.000458,0.014114,0.989716,0.008377,-0.019902,-0.004896,70.633469,8.40451,-147.299332,,,
729601249.927474,1.258628,-0.25245,-19.514596,0.000992,0.020218,0.983902,0.008377,-0.019902,-0.004896,70.633469,8.40451,-147.299332,,,
729601249.930809,1.258859,-0.258739,-19.517452,0.000992,0.020218,0.983902,-0.000306,-0.017973,-0.01258,70.633469,8.40451,-147.299332,,,
729601249.934149,1.258859,-0.258739,-19.517452,0.002731,0.025375,0.987411,-0.000306,-0.017973,-0.01258,70.633469,8.40451,-147.299332,,,
729601249.937483,1.258313,-0.264238,-19.521378,0.002731,0.025375,0.987411,-0.000306,-0.017973,-0.01258,70.633469,8.40451,-147.299332,,,
729601249.940807,1.255639,-0.27195,-19.52609,0.002731,0.025375,0.987411,-0.012781,-0.026866,-0.01819,70.633469,8.40451,-147.299332,,,
729601249.94417,1.255639,-0.27195,-19.52609,0.002731,0.025375,0.987411,-0.012781,-0.026866,-0.01819,70.633469,8.40451,-147.299332,,,
729601249.947473,1.251703,-0.27913,-19.530591,-6.1e-05,0.025238,0.985092,-0.012781,-0.026866,-0.01819,70.633469,8.40451,-147.299332,,,
729601249.950822,1.24429,-0.287287,-19.534803,-6.1e-05,0.025238,0.985092,-0.030904,-0.025354,-0.016225,70.444153,8.23642,-147.149765,,,
729601249.954209,1.24429,-0.287287,-19.534803,-6.1e-05,0.025238,0.985092,-0.030904,-0.025354,-0.016225,70.444153,8.23642,-147.149765,,,
729601249.957562,1.235869,-0.293251,-19.538444,-0.003296,0.022568,0.985977,-0.030904,-0.025354,-0.016225,70.444153,8.23642,-147.149765,,,
729601249.960802,1.226082,-0.300851,-19.541221,-0.003296,0.022568,0.985977,-0.033961,-0.023509,-0.010439,70.444153,8.23642,-147.149765,,,
729601249.964143,1.226082,-0.300851,-19.541221,-0.003296,0.022568,0.985977,-0.033961,-0.023509,-0.010439,70.444153,8.23642,-147.149765,,,
729601249.967485,1.217213,-0.305976,-19.543585,-0.003738,0.0233,0.991409,-0.033961,-0.023509,-0.010439,70.444153,8.23642,-147.149765,,,
729601249.970807,1.208311,-0.311214,-19.545128,-0.003738,0.0233,0.991409,-0.028664,-0.010502,-0.005047,70.444153,8.23642,-147.149765,,,
729601249.974162,1.208311,-0.311214,-19.545128,-0.003738,0.0233,0.991409,-0.028664,-0.010502,-0.005047,70.444153,8.23642,-147.149765,,,
729601249.97747,1.200362,-0.311818,-19.546162,0.000473,0.020264,1.001587,-0.028664,-0.010502,-0.005047,70.444153,8.23642,-147.149765,,,
729601249.980814,1.194943,-0.309942,-19.546924,0.000473,0.020264,1.001587,-0.012402,0.015086,-0.003445,70.444153,8.23642,-147.149765,,,
729601249.984199,1.194943,-0.309942,-19.546924,0.000473,0.020264,1.001587,-0.012402,0.015086,-0.003445,70.444153,8.23642,-147.149765,,,
729601249.987485,1.191885,-0.304043,-19.547685,0.002045,0.014542,1.012207,-0.012402,0.015086,-0.003445,70.444153,8.23642,-147.149765,,,
729601249.990829,1.193392,-0.296266,-19.548249,0.002045,0.014542,1.012207,0.01087,0.031949,-0.002268,70.505783,8.488632,-147.32843,,,
729601249.994179,1.193392,-0.296266,-19.548249,0.002045,0.014542,1.012207,0.01087,0.031949,-0.002268,70.505783,8.488632,-147.32843,,,
729601249.997472,1.196339,-0.285608,-19.548376,0.002197,0.01062,1.012955,0.01087,0.031949,-0.002268,70.505783,8.488632,-147.32843,,,
729601250.000813,1.203112,-0.27604,-19.548676,0.002197,0.01062,1.012955,0.025665,0.036735,-0.003811,70.505783,8.488632,-147.32843,,,
729601250.004212,1.203112,-0.27604,-19.548676,0.002197,0.01062,1.012955,0.025665,0.036735,-0.003811,70.505783,8.488632,-147.32843,,,
729601250.007469,1.211084,-0.266396,-19.548929,-0.002441,0.009384,1.007523,0.025665,0.036735,-0.003811,70.505783,8.488632,-147.32843,,,
729601250.010808,1.218403,-0.260256,-19.548884,-0.002441,0.009384,1.007523,0.025102,0.017059,-0.001834,70.505783,8.488632,-147.32843,,,
729601250.014183,1.218403,-0.260256,-19.548884,-0.002441,0.009384,1.007523,0.025102,0.017059,-0.001834,70.505783,8.488632,-147.32843,,,
729601250.017485,1.2265,-0.256938,-19.548826,-0.010117,0.01619,0.9935,0.025102,0.017059,-0.001834,70.505783,8.488632,-147.32843,,,
729601250.020804,1.231597,-0.257843,-19.548998,-0.010117,0.01619,0.9935,0.013598,-0.005654,-0.0036,70.505783,8.488632,-147.32843,,,
729601250.024161,1.231597,-0.257843,-19.548998,-0.010117,0.01619,0.9935,0.013598,-0.005654,-0.0036,70.505783,8.488632,-147.32843,,,
729601250.027587,1.234781,-0.260066,-19.549144,-0.011734,0.023956,0.981491,0.013598,-0.005654,-0.0036,70.505783,8.488632,-147.32843,,,
729601250.030847,1.233999,-0.26675,-19.548235,-0.011734,0.023956,0.981491,-0.00725,-0.023821,0.003557,70.397385,8.373032,-147.828918,,,
729601250.034219,1.233999,-0.26675,-19.548235,-0.011734,0.023956,0.981491,-0.00725,-0.023821,0.003557,70.397385,8.373032,-147.828918,,,
729601250.037567,1.231546,-0.272648,-19.546956,-0.011124,0.025391,0.974258,-0.00725,-0.023821,0.003557,70.397385,8.373032,-147.828918,,,
729601250.040813,1.227958,-0.282007,-19.546149,-0.011124,0.025391,0.974258,-0.012455,-0.028874,-0.000159,70.397385,8.373032,-147.828918,,,
729601250.044143,1.227958,-0.282007,-19.546149,-0.011124,0.025391,0.974258,-0.012455,-0.028874,-0.000159,70.397385,8.373032,-147.828918,,,
729601250.047473,1.225529,-0.288454,-19.545626,0.000443,0.024719,0.985413,-0.012455,-0.028874,-0.000159,70.397385,8.373032,-147.828918,,,
729601250.050816,1.224371,-0.296585,-19.545875,0.000443,0.024719,0.985413,-5.4e-05,-0.024091,-0.005977,70.397385,8.373032,-147.828918,,,
729601250.054151,1.224371,-0.296585,-19.545875,0.000443,0.024719,0.985413,-5.4e-05,-0.024091,-0.005977,70.397385,8.373032,-147.828918,,,
729601250.057486,1.22362,-0.303189,-19.546793,0.013962,0.021957,0.998184,-5.4e-05,-0.024091,-0.005977,70.397385,8.373032,-147.828918,,,
729601250.060813,1.224206,-0.30986,-19.546592,0.013962,0.021957,0.998184,0.001577,-0.016176,0.001603,70.397385,8.373032,-147.828918,,,
729601250.064143,1.224206,-0.30986,-19.546592,0.013962,0.021957,0.998184,0.001577,-0.016176,0.001603,70.397385,8.373032,-147.828918,,,
729601250.067488,1.221302,-0.312899,-19.545164,0.009644,0.019882,0.992661,0.001577,-0.016176,0.001603,70.397385,8.373032,-147.828918,,,
729601250.070851,1.219908,-0.314773,-19.541958,0.009644,0.019882,0.992661,-0.005197,-0.000279,0.013841,70.397385,8.373032,-147.828918,,,
729601250.074234,1.219908,-0.314773,-19.541958,0.009644,0.019882,0.992661,-0.005197,-0.000279,0.013841,70.466049,8.277283,-147.736404,,,
729601250.077465,1.21451,-0.31402,-19.537569,0.007095,0.022949,0.993134,-0.005197,-0.000279,0.013841,70.466049,8.277283,-147.736404,,,
729601250.080826,1.212467,-0.314026,-19.533647,0.007095,0.022949,0.993134,-0.005148,0.002366,0.010383,70.466049,8.277283,-147.736404,,,
729601250.08414,1.212467,-0.314026,-19.533647,0.007095,0.022949,0.993134,-0.005148,0.002366,0.010383,70.466049,8.277283,-147.736404,,,
729601250.087478,1.208285,-0.311357,-19.531116,0.015717,0.027435,0.994156,-0.005148,0.002366,0.010383,70.466049,8.277283,-147.736404,,,
729601250.090817,1.208209,-0.313579,-19.530429,0.015717,0.027435,0.994156,0.0027,-0.006709,-0.003021,70.466049,8.277283,-147.736404,,,
729601250.09414,1.208209,-0.313579,-19.530429,0.015717,0.027435,0.994156,0.0027,-0.006709,-0.003021,70.466049,8.277283,-147.736404,,,
729601250.097521,1.209714,-0.310296,-19.532696,0.022522,0.028748,0.9991,0.0027,-0.006709,-0.003021,70.466049,8.277283,-147.736404,,,
729601250.100808,1.212834,-0.311744,-19.537078,0.022522,0.028748,0.9991,0.011742,-0.002598,-0.018551,70.466049,8.277283,-147.736404,,,
729601250.10414,1.212834,-0.311744,-19.537078,0.022522,0.028748,0.9991,0.011742,-0.002598,-0.018551,70.466049,8.277283,-147.736404,,,
729601250.107503,1.217761,-0.307474,-19.542958,0.018692,0.023132,1.005371,0.011742,-0.002598,-0.018551,70.466049,8.277283,-147.736404,,,
729601250.110812,1.221313,-0.308968,-19.549812,0.018692,0.023132,1.005371,0.010657,-0.003009,-0.026135,70.466049,8.277283,-147.736404,,,
729601250.114136,1.221313,-0.308968,-19.549812,0.018692,0.023132,1.005371,0.010657,-0.003009,-0.026135,70.726578,8.241486,-147.592285,,,
729601250.11749,1.225081,-0.306016,-19.557268,0.012451,0.021301,0.999756,0.010657,-0.003009,-0.026135,70.726578,8.241486,-147.592285,,,
729601250.120811,1.22566,-0.307643,-19.564583,0.012451,0.021301,0.999756,-0.001778,-0.003082,-0.02578,70.726578,8.241486,-147.592285,,,
729601250.1242,1.22566,-0.307643,-19.564583,0.012451,0.021301,0.999756,-0.001778,-0.003082,-0.02578,70.726578,8.241486,-147.592285,,,
729601250.127483,1.224559,-0.308829,-19.571299,0.008499,0.023209,0.995789,-0.001778,-0.003082,-0.02578,70.726578,8.241486,-147.592285,,,
729601250.130849,1.220944,-0.308063,-19.577451,0.008499,0.023209,0.995789,-0.014172,0.006238,-0.021688,70.726578,8.241486,-147.592285,,,
729601250.134165,1.220944,-0.308063,-19.577451,0.008499,0.023209,0.995789,-0.014172,0.006238,-0.021688,70.726578,8.241486,-147.592285,,,
729601250.137555,1.216544,-0.309208,-19.583576,0.003784,0.024414,0.996536,-0.014172,0.006238,-0.021688,70.726578,8.241486,-147.592285,,,
729601250.140805,1.212109,-0.307335,-19.590232,0.003784,0.024414,0.996536,-0.01447,0.008864,-0.025086,70.726578,8.241486,-147.592285,,,
729601250.144141,1.212109,-0.307335,-19.590232,0.003784,0.024414,0.996536,-0.01447,0.008864,-0.025086,70.726578,8.241486,-147.592285,,,
729601250.147478,1.20816,-0.306054,-19.597788,0.00563,0.021393,1.003571,-0.01447,0.008864,-0.025086,70.726578,8.241486,-147.592285,,,
729601250.150812,1.205164,-0.303524,-19.606248,0.00563,0.021393,1.003571,-0.009048,0.012634,-0.031309,70.726578,8.241486,-147.592285,,,
729601250.154144,1.205164,-0.303524,-19.606248,0.00563,0.021393,1.003571,-0.009048,0.012634,-0.031309,70.649414,8.365067,-147.772659,,,
729601250.157489,1.20361,-0.301209,-19.614923,0.006012,0.017349,1.003799,-0.009048,0.012634,-0.031309,70.649414,8.365067,-147.772659,,,
729601250.160814,1.201434,-0.297341,-19.623761,0.006012,0.017349,1.003799,-0.00527,0.015007,-0.03226,70.649414,8.365067,-147.772659,,,
729601250.164139,1.201434,-0.297341,-19.623761,0.006012,0.017349,1.003799,-0.00527,0.015007,-0.03226,70.649414,8.365067,-147.772659,,,
729601250.167486,1.201664,-0.298078,-19.632517,-0.001358,0.014297,1.005569,-0.00527,0.015007,-0.03226,70.649414,8.365067,-147.772659,,,
729601250.170924,1.198895,-0.294001,-19.640927,-0.001358,0.014297,1.005569,-0.011103,0.016562,-0.029227,70.649414,8.365067,-147.772659,,,
729601250.174203,1.198895,-0.294001,-19.640927,-0.001358,0.014297,1.005569,-0.011103,0.016562,-0.029227,70.649414,8.365067,-147.772659,,,
729601250.177476,1.197539,-0.294636,-19.64885,-0.004547,0.016724,0.999191,-0.011103,0.016562,-0.029227,70.649414,8.365067,-147.772659,,,
729601250.180813,1.194959,-0.289242,-19.657319,-0.004547,0.016724,0.999191,-0.00886,0.022395,-0.032258,70.649414,8.365067,-147.772659,,,
729601250.184179,1.194959,-0.289242,-19.657319,-0.004547,0.016724,0.999191,-0.00886,0.022395,-0.032258,70.649414,8.365067,-147.772659,,,
729601250.187477,1.192311,-0.287867,-19.666349,-0.004669,0.017426,1.004929,-0.00886,0.022395,-0.032258,70.649414,8.365067,-147.772659,,,
729601250.190807,1.190099,-0.283805,-19.6762,-0.004669,0.017426,1.004929,-0.005612,0.016231,-0.037488,70.649414,8.365067,-147.772659,,,
729601250.194142,1.190099,-0.283805,-19.6762,-0.004669,0.017426,1.004929,-0.005612,0.016231,-0.037488,70.675552,8.433365,-147.71254,,,
729601250.197473,1.189778,-0.281868,-19.686751,-0.00145,0.014938,1.009003,-0.005612,0.016231,-0.037488,70.675552,8.433365,-147.71254,,,
729601250.200807,1.190684,-0.278546,-19.697302,-0.00145,0.014938,1.009003,0.004959,0.012443,-0.037314,70.675552,8.433365,-147.71254,,,
729601250.204253,1.190684,-0.278546,-19.697302,-0.00145,0.014938,1.009003,0.004959,0.012443,-0.037314,70.675552,8.433365,-147.71254,,,
729601250.207503,1.193717,-0.276614,-19.707855,-0.00824,0.011154,1.012085,0.004959,0.012443,-0.037314,70.675552,8.433365,-147.71254,,,
729601250.210807,1.196486,-0.275239,-19.718495,-0.00824,0.011154,1.012085,0.010321,0.006092,-0.037924,70.675552,8.433365,-147.71254,,,
729601250.214156,1.196486,-0.275239,-19.718495,-0.00824,0.011154,1.012085,0.010321,0.006092,-0.037924,70.675552,8.433365,-147.71254,,,
729601250.217489,1.200426,-0.273555,-19.728261,-0.007202,0.011734,1.009323,0.010321,0.006092,-0.037924,70.675552,8.433365,-147.71254,,,
729601250.220801,1.203814,-0.27238,-19.736389,-0.007202,0.011734,1.009323,0.013232,0.005515,-0.026636,70.675552,8.433365,-147.71254,,,
729601250.224245,1.203814,-0.27238,-19.736389,-0.007202,0.011734,1.009323,0.013232,0.005515,-0.026636,70.675552,8.433365,-147.71254,,,
729601250.227462,1.207648,-0.271608,-19.743003,-0.009308,0.015182,1.01091,0.013232,0.005515,-0.026636,70.675552,8.433365,-147.71254,,,
729601250.230809,1.213834,-0.269353,-19.748569,-0.009308,0.015182,1.01091,0.027379,0.010318,-0.01922,70.675552,8.433365,-147.71254,,,
729601250.234147,1.213834,-0.269353,-19.748569,-0.009308,0.015182,1.01091,0.027379,0.010318,-0.01922,70.675552,8.433365,-147.71254,,,
729601250.237522,1.220908,-0.266225,-19.752564,-0.005341,0.014954,1.014618,0.027379,0.010318,-0.01922,70.936203,8.192642,-147.557007,,,
729601250.240799,1.231758,-0.260637,-19.754729,-0.005341,0.014954,1.014618,0.043611,0.029746,-0.006594,70.936203,8.192642,-147.557007,,,
729601250.244138,1.231758,-0.260637,-19.754729,-0.005341,0.014954,1.014618,0.043611,0.029746,-0.006594,70.936203,8.192642,-147.557007,,,
729601250.24747,1.243266,-0.249959,-19.755421,-0.000854,0.011719,1.019241,0.043611,0.029746,-0.006594,70.936203,8.192642,-147.557007,,,
729601250.250812,1.256974,-0.242104,-19.75471,-0.000854,0.011719,1.019241,0.04792,0.026818,0.002764,70.936203,8.192642,-147.557007,,,
729601250.254146,1.256974,-0.242104,-19.75471,-0.000854,0.011719,1.019241,0.04792,0.026818,0.002764,70.936203,8.192642,-147.557007,,,
729601250.257485,1.269192,-0.233418,-19.753347,-0.004242,0.011826,1.014145,0.04792,0.026818,0.002764,70.936203,8.192642,-147.557007,,,
729601250.260803,1.281952,-0.232013,-19.751468,-0.004242,0.011826,1.014145,0.040935,-0.002062,0.005898,70.936203,8.192642,-147.557007,,,
729601250.264138,1.281952,-0.232013,-19.751468,-0.004242,0.011826,1.014145,0.040935,-0.002062,0.005898,70.936203,8.192642,-147.557007,,,
729601250.26749,1.2906,-0.233566,-19.749396,-0.003143,0.022476,0.992584,0.040935,-0.002062,0.005898,70.936203,8.192642,-147.557007,,,
729601250.270826,1.296808,-0.241067,-19.747456,-0.003143,0.022476,0.992584,0.014861,-0.029484,0.004756,70.936203,8.192642,-147.557007,,,
729601250.274234,1.296808,-0.241067,-19.747456,-0.003143,0.022476,0.992584,0.014861,-0.029484,0.004756,70.936203,8.192642,-147.557007,,,
729601250.277466,1.296173,-0.249664,-19.745941,-0.002594,0.031494,0.980377,0.014861,-0.029484,0.004756,70.657043,8.221329,-147.63858,,,
729601250.280825,1.293975,-0.263827,-19.744327,-0.002594,0.031494,0.980377,-0.013872,-0.052552,0.005221,70.657043,8.221329,-147.63858,,,
729601250.284145,1.293975,-0.263827,-19.744327,-0.002594,0.031494,0.980377,-0.013872,-0.052552,0.005221,70.657043,8.221329,-147.63858,,,
729601250.287553,1.28579,-0.276282,-19.743469,0.00264,0.036743,0.977173,-0.013872,-0.052552,0.005221,70.657043,8.221329,-147.63858,,,
729601250.290801,1.279756,-0.293328,-19.744472,0.00264,0.036743,0.977173,-0.021781,-0.055609,-0.008379,70.657043,8.221329,-147.63858,,,
729601250.294163,1.279756,-0.293328,-19.744472,0.00264,0.036743,0.977173,-0.021781,-0.055609,-0.008379,70.657043,8.221329,-147.63858,,,
729601250.297377,1.270489,-0.305768,-19.747844,0.018402,0.036575,0.988251,-0.021781,-0.055609,-0.008379,70.657043,8.221329,-147.63858,,,
729601250.300831,1.264207,-0.320099,-19.753299,0.018402,0.036575,0.988251,-0.019889,-0.043476,-0.023478,70.657043,8.221329,-147.63858,,,
729601250.304156,1.264207,-0.320099,-19.753299,0.018402,0.036575,0.988251,-0.019889,-0.043476,-0.023478,70.657043,8.221329,-147.63858,,,
729601250.307564,1.258149,-0.326237,-19.759506,0.030563,0.031296,0.999344,-0.019889,-0.043476,-0.023478,70.657043,8.221329,-147.63858,,,
729601250.310798,1.256715,-0.333648,-19.765147,0.030563,0.031296,0.999344,0.000841,-0.01803,-0.020384,70.657043,8.221329,-147.63858,,,
729601250.314137,1.256715,-0.333648,-19.765147,0.030563,0.031296,0.999344,0.000841,-0.01803,-0.020384,70.657043,8.221329,-147.63858,,,
729601250.317472,1.255534,-0.334386,-19.769413,0.021072,0.019547,1.009338,0.000841,-0.01803,-0.020384,70.712601,8.317139,-147.553116,,,
729601250.320803,1.259573,-0.333387,-19.771625,0.021072,0.019547,1.009338,0.021957,0.013708,-0.006624,70.712601,8.317139,-147.553116,,,
729601250.324207,1.259573,-0.333387,-19.771625,0.021072,0.019547,1.009338,0.021957,0.013708,-0.006624,70.712601,8.317139,-147.553116,,,
729601250.327461,1.263898,-0.32538,-19.772876,0.016083,0.012222,1.011536,0.021957,0.013708,-0.006624,70.712601,8.317139,-147.553116,,,
729601250.330807,1.273888,-0.316979,-19.773358,0.016083,0.012222,1.011536,0.039736,0.034458,-0.001732,70.712601,8.317139,-147.553116,,,
729601250.334149,1.273888,-0.316979,-19.773358,0.016083,0.012222,1.011536,0.039736,0.034458,-0.001732,70.712601,8.317139,-147.553116,,,
729601250.337527,1.28397,-0.305208,-19.77369,0.011612,0.013306,1.012177,0.039736,0.034458,-0.001732,70.712601,8.317139,-147.553116,,,
729601250.340804,1.296805,-0.296991,-19.774749,0.011612,0.013306,1.012177,0.044622,0.028895,-0.007192,70.712601,8.317139,-147.553116,,,
729601250.344139,1.296805,-0.296991,-19.774749,0.011612,0.013306,1.012177,0.044622,0.028895,-0.007192,70.712601,8.317139,-147.553116,,,
729601250.347491,1.309756,-0.287385,-19.776548,0.005554,0.016418,1.000122,0.044622,0.028895,-0.007192,70.712601,8.317139,-147.553116,,,
729601250.350802,1.31944,-0.282263,-19.779195,0.005554,0.016418,1.000122,0.029918,0.015781,-0.013446,70.712601,8.317139,-147.553116,,,
729601250.354219,1.31944,-0.282263,-19.779195,0.005554,0.016418,1.000122,0.029918,0.015781,-0.013446,70.712601,8.317139,-147.553116,,,
729601250.357473,1.330053,-0.277601,-19.783174,-0.005325,0.023956,0.986328,0.029918,0.015781,-0.013446,70.690659,7.96843,-147.650162,,,
729601250.360814,1.334966,-0.277648,-19.787964,-0.005325,0.023956,0.986328,0.013113,-0.003115,-0.019386,70.690659,7.96843,-147.650162,,,
729601250.364144,1.334966,-0.277648,-19.787964,-0.005325,0.023956,0.986328,0.013113,-0.003115,-0.019386,70.690659,7.96843,-147.650162,,,
729601250.367489,1.341437,-0.281908,-19.793493,-0.007294,0.026993,0.981033,0.013113,-0.003115,-0.019386,70.690659,7.96843,-147.650162,,,
729601250.370813,1.341373,-0.288167,-19.79875,-0.007294,0.026993,0.981033,-0.003801,-0.022931,-0.017254,70.690659,7.96843,-147.650162,,,
729601250.3742,1.341373,-0.288167,-19.79875,-0.007294,0.026993,0.981033,-0.003801,-0.022931,-0.017254,70.690659,7.96843,-147.650162,,,
729601250.377486,1.342355,-0.302291,-19.802836,-0.008804,0.024506,0.977951,-0.003801,-0.022931,-0.017254,70.690659,7.96843,-147.650162,,,
729601250.380816,1.337397,-0.311224,-19.805972,-0.008804,0.024506,0.977951,-0.022943,-0.030378,-0.009519,70.690659,7.96843,-147.650162,,,
729601250.384149,1.337397,-0.311224,-19.805972,-0.008804,0.024506,0.977951,-0.022943,-0.030378,-0.009519,70.690659,7.96843,-147.650162,,,
729601250.387553,1.330946,-0.327697,-19.807249,-0.011246,0.021362,0.977692,-0.022943,-0.030378,-0.009519,70.690659,7.96843,-147.650162,,,
729601250.3908,1.321531,-0.337319,-19.806934,-0.011246,0.021362,0.977692,-0.036533,-0.030867,0.00281,70.690659,7.96843,-147.650162,,,
729601250.394139,1.321531,-0.337319,-19.806934,-0.011246,0.021362,0.977692,-0.036533,-0.030867,0.00281,70.690659,7.96843,-147.650162,,,
729601250.397485,1.308542,-0.350108,-19.805434,-0.009445,0.02272,0.980133,-0.036533,-0.030867,0.00281,70.690659,7.96843,-147.650162,,,
729601250.400806,1.297631,-0.358501,-19.803034,-0.009445,0.02272,0.980133,-0.035284,-0.026309,0.009687,70.414612,8.074173,-147.452881,,,
729601250.404159,1.297631,-0.358501,-19.803034,-0.009445,0.02272,0.980133,-0.035284,-0.026309,0.009687,70.414612,8.074173,-147.452881,,,
729601250.40748,1.28629,-0.369213,-19.799208,-0.003571,0.022507,0.988113,-0.035284,-0.026309,0.009687,70.414612,8.074173,-147.452881,,,
729601250.410802,1.281085,-0.375923,-19.795199,-0.003571,0.022507,0.988113,-0.011976,-0.015758,0.011188,70.414612,8.074173,-147.452881,,,
729601250.414139,1.281085,-0.375923,-19.795199,-0.003571,0.022507,0.988113,-0.011976,-0.015758,0.011188,70.414612,8.074173,-147.452881,,,
729601250.417483,1.277375,-0.382073,-19.791317,0.006241,0.017273,1.003799,-0.011976,-0.015758,0.011188,70.414612,8.074173,-147.452881,,,
729601250.420802,1.281301,-0.384965,-19.787066,0.006241,0.017273,1.003799,0.023887,-0.001873,0.01369,70.414612,8.074173,-147.452881,,,
729601250.424203,1.281301,-0.384965,-19.787066,0.006241,0.017273,1.003799,0.023887,-0.001873,0.01369,70.414612,8.074173,-147.452881,,,
729601250.427462,1.289214,-0.384142,-19.781993,0.004486,0.010101,1.011749,0.023887,-0.001873,0.01369,70.414612,8.074173,-147.452881,,,
729601250.430807,1.30034,-0.38461,-19.776573,0.004486,0.010101,1.011749,0.041759,0.00092,0.015692,70.414612,8.074173,-147.452881,,,
729601250.434033,1.30034,-0.38461,-19.776573,0.004486,0.010101,1.011749,0.041759,0.00092,0.015692,70.414612,8.074173,-147.452881,,,
729601250.437556,1.313934,-0.381069,-19.772356,0.003723,0.010086,1.008789,0.041759,0.00092,0.015692,70.414612,8.074173,-147.452881,,,
729601250.440804,1.326612,-0.381645,-19.769261,0.003723,0.010086,1.008789,0.04314,0.002165,0.007179,70.824814,7.889191,-147.431351,,,
729601250.444141,1.326612,-0.381645,-19.769261,0.003723,0.010086,1.008789,0.04314,0.002165,0.007179,70.824814,7.889191,-147.431351,,,
729601250.447491,1.339426,-0.377601,-19.76678,0.007172,0.020691,0.998672,0.04314,0.002165,0.007179,70.824814,7.889191,-147.431351,,,
729601250.450824,1.349129,-0.378841,-19.764886,0.007172,0.020691,0.998672,0.029765,-0.00525,0.002538,70.824814,7.889191,-147.431351,,,
729601250.454145,1.349129,-0.378841,-19.764886,0.007172,0.020691,0.998672,0.029765,-0.00525,0.002538,70.824814,7.889191,-147.431351,,,
729601250.457491,1.356533,-0.376927,-19.764229,0.002243,0.025986,0.993118,0.029765,-0.00525,0.002538,70.824814,7.889191,-147.431351,,,
729601250.460812,1.361423,-0.381361,-19.764538,0.002243,0.025986,0.993118,0.011145,-0.013852,-0.004894,70.824814,7.889191,-147.431351,,,
729601250.464155,1.361423,-0.381361,-19.764538,0.002243,0.025986,0.993118,0.011145,-0.013852,-0.004894,70.824814,7.889191,-147.431351,,,
729601250.467488,1.361446,-0.380129,-19.765397,-0.00029,0.028976,0.981186,0.011145,-0.013852,-0.004894,70.824814,7.889191,-147.431351,,,
729601250.470838,1.356895,-0.3843,-19.764394,-0.00029,0.028976,0.981186,-0.022551,-0.012563,0.007375,70.824814,7.889191,-147.431351,,,
729601250.474136,1.356895,-0.3843,-19.764394,-0.00029,0.028976,0.981186,-0.022551,-0.012563,0.007375,70.824814,7.889191,-147.431351,,,
729601250.477466,1.348167,-0.383878,-19.761267,-0.001038,0.028687,0.978256,-0.022551,-0.012563,0.007375,70.824814,7.889191,-147.431351,,,
729601250.480801,1.335821,-0.387189,-19.755929,-0.001038,0.028687,0.978256,-0.046672,-0.006838,0.02226,70.628204,8.191925,-147.860046,,,
729601250.484158,1.335821,-0.387189,-19.755929,-0.001038,0.028687,0.978256,-0.046672,-0.006838,0.02226,70.628204,8.191925,-147.860046,,,
729601250.487552,1.320767,-0.387946,-19.748456,-0.002609,0.027298,0.977356,-0.046672,-0.006838,0.02226,70.628204,8.191925,-147.860046,,,
729601250.490804,1.304512,-0.389705,-19.740086,-0.002609,0.027298,0.977356,-0.058716,-0.001243,0.028324,70.628204,8.191925,-147.860046,,,
729601250.494141,1.304512,-0.389705,-19.740086,-0.002609,0.027298,0.977356,-0.058716,-0.001243,0.028324,70.628204,8.191925,-147.860046,,,
729601250.4975,1.286234,-0.390416,-19.731321,0.004532,0.02739,0.988174,-0.058716,-0.001243,0.028324,70.628204,8.191925,-147.860046,,,
729601250.500803,1.272894,-0.391153,-19.72394,0.004532,0.02739,0.988174,-0.039591,-0.001099,0.018564,70.628204,8.191925,-147.860046,,,
729601250.504169,1.272894,-0.391153,-19.72394,0.004532,0.02739,0.988174,-0.039591,-0.001099,0.018564,70.628204,8.191925,-147.860046,,,
729601250.50749,1.259831,-0.39213,-19.720272,0.021744,0.024414,0.999008,-0.039591,-0.001099,0.018564,70.628204,8.191925,-147.860046,,,
729601250.510805,1.255128,-0.394497,-19.720616,0.021744,0.024414,0.999008,-0.009121,-0.004261,-0.009803,70.628204,8.191925,-147.860046,,,
729601250.514145,1.255128,-0.394497,-19.720616,0.021744,0.024414,0.999008,-0.009121,-0.004261,-0.009803,70.628204,8.191925,-147.860046,,,
729601250.51749,1.2526,-0.395702,-19.723927,0.031296,0.022736,1.006088,-0.009121,-0.004261,-0.009803,70.628204,8.191925,-147.860046,,,
729601250.520815,1.257338,-0.397244,-19.728624,0.031296,0.022736,1.006088,0.025539,-0.004495,-0.019715,70.628204,8.191925,-147.860046,,,
729601250.524217,1.257338,-0.397244,-19.728624,0.031296,0.022736,1.006088,0.025539,-0.004495,-0.019715,70.478363,8.115005,-147.661102,,,
729601250.527458,1.268279,-0.399304,-19.735085,0.02298,0.01416,1.013336,0.025539,-0.004495,-0.019715,70.478363,8.115005,-147.661102,,,
729601250.530804,1.28462,-0.403237,-19.743231,0.02298,0.01416,1.013336,0.06611,-0.015144,-0.031785,70.478363,8.115005,-147.661102,,,
729601250.534149,1.28462,-0.403237,-19.743231,0.02298,0.01416,1.013336,0.06611,-0.015144,-0.031785,70.478363,8.115005,-147.661102,,,
729601250.537519,1.306024,-0.40611,-19.75253,0.026306,0.013214,1.014587,0.06611,-0.015144,-0.031785,70.478363,8.115005,-147.661102,,,
729601250.540804,1.326944,-0.409633,-19.762712,0.026306,0.013214,1.014587,0.073725,-0.007702,-0.038265,70.478363,8.115005,-147.661102,,,
729601250.544136,1.326944,-0.409633,-19.762712,0.026306,0.013214,1.014587,0.073725,-0.007702,-0.038265,70.478363,8.115005,-147.661102,,,
729601250.547474,1.349063,-0.409779,-19.77241,0.020081,0.017242,1.005707,0.073725,-0.007702,-0.038265,70.478363,8.115005,-147.661102,,,
729601250.550807,1.366235,-0.412234,-19.780936,0.020081,0.017242,1.005707,0.052421,-0.007984,-0.030293,70.478363,8.115005,-147.661102,,,
729601250.554158,1.366235,-0.412234,-19.780936,0.020081,0.017242,1.005707,0.052421,-0.007984,-0.030293,70.478363,8.115005,-147.661102,,,
729601250.557472,1.380186,-0.412683,-19.788889,0.003784,0.02623,0.990067,0.052421,-0.007984,-0.030293,70.478363,8.115005,-147.661102,,,
729601250.560835,1.38716,-0.416231,-19.796072,0.003784,0.02623,0.990067,0.01347,-0.00844,-0.02516,70.478363,8.115005,-147.661102,,,
729601250.564138,1.38716,-0.416231,-19.796072,0.003784,0.02623,0.990067,0.01347,-0.00844,-0.02516,70.582916,8.156738,-147.662186,,,
729601250.567491,1.388622,-0.416944,-19.803124,0.006546,0.03891,0.975937,0.01347,-0.00844,-0.02516,70.582916,8.156738,-147.662186,,,
729601250.570828,1.382889,-0.42044,-19.809815,0.006546,0.03891,0.975937,-0.030203,-0.008539,-0.022653,70.582916,8.156738,-147.662186,,,
729601250.574232,1.382889,-0.42044,-19.809815,0.006546,0.03891,0.975937,-0.030203,-0.008539,-0.022653,70.582916,8.156738,-147.662186,,,
729601250.577503,1.372665,-0.423986,-19.815836,0.007263,0.039886,0.972534,-0.030203,-0.008539,-0.022653,70.582916,8.156738,-147.662186,,,
729601250.580887,1.358293,-0.426256,-19.822081,0.007263,0.039886,0.972534,-0.055157,-0.005225,-0.023999,70.582916,8.156738,-147.662186,,,
729601250.584098,1.358293,-0.426256,-19.822081,0.007263,0.039886,0.972534,-0.055157,-0.005225,-0.023999,70.582916,8.156738,-147.662186,,,
729601250.587481,1.342871,-0.434294,-19.828798,0.009323,0.031158,0.975311,-0.055157,-0.005225,-0.023999,70.582916,8.156738,-147.662186,,,
729601250.590862,1.32849,-0.434621,-19.836709,0.009323,0.031158,0.975311,-0.046977,0.005193,-0.031279,70.582916,8.156738,-147.662186,,,
729601250.59415,1.32849,-0.434621,-19.836709,0.009323,0.031158,0.975311,-0.046977,0.005193,-0.031279,70.582916,8.156738,-147.662186,,,
729601250.597511,1.315491,-0.4392,-19.845637,0.014923,0.023148,0.986435,-0.046977,0.005193,-0.031279,70.582916,8.156738,-147.662186,,,
729601250.6008,1.306268,-0.436086,-19.854661,0.014923,0.023148,0.986435,-0.027477,0.01525,-0.031096,70.582916,8.156738,-147.662186,,,
729601250.604132,1.306268,-0.436086,-19.854661,0.014923,0.023148,0.986435,-0.027477,0.01525,-0.031096,70.404648,8.475418,-147.451172,,,
729601250.607586,1.296901,-0.435462,-19.863658,0.016571,0.016678,0.989273,-0.027477,0.01525,-0.031096,70.404648,8.475418,-147.451172,,,
729601250.610806,1.293338,-0.427915,-19.87279,0.016571,0.016678,0.989273,-0.007777,0.031283,-0.031491,70.404648,8.475418,-147.451172,,,
729601250.61416,1.293338,-0.427915,-19.87279,0.016571,0.016678,0.989273,-0.007777,0.031283,-0.031491,70.404648,8.475418,-147.451172,,,
729601250.617467,1.28963,-0.424341,-19.880826,0.012436,0.014297,0.982086,-0.007777,0.031283,-0.031491,70.404648,8.475418,-147.451172,,,
729601250.620803,1.290025,-0.414511,-19.887669,0.012436,0.014297,0.982086,0.004915,0.034837,-0.022385,70.404648,8.475418,-147.451172,,,
729601250.624132,1.290025,-0.414511,-19.887669,0.012436,0.014297,0.982086,0.004915,0.034837,-0.022385,70.404648,8.475418,-147.451172,,,
729601250.627481,1.289989,-0.406716,-19.893193,0.010117,0.017288,0.972672,0.004915,0.034837,-0.022385,70.404648,8.475418,-147.451172,,,
729601250.630834,1.289095,-0.398273,-19.898198,0.010117,0.017288,0.972672,-0.00559,0.02855,-0.018479,70.404648,8.475418,-147.451172,,,
729601250.634139,1.289095,-0.398273,-19.898198,0.010117,0.017288,0.972672,-0.00559,0.02855,-0.018479,70.404648,8.475418,-147.451172,,,
729601250.637259,1.287424,-0.391079,-19.903474,0.011505,0.024231,0.961533,-0.00559,0.02855,-0.018479,70.404648,8.475418,-147.451172,,,
729601250.640846,1.279547,-0.388217,-19.909583,0.011505,0.024231,0.961533,-0.035017,0.005866,-0.024245,70.404648,8.475418,-147.451172,,,
729601250.644143,1.279547,-0.388217,-19.909583,0.011505,0.024231,0.961533,-0.035017,0.005866,-0.024245,70.58783,8.382416,-147.722519,,,
729601250.647479,1.271557,-0.388935,-19.916909,0.012558,0.030075,0.954178,-0.035017,0.005866,-0.024245,70.58783,8.382416,-147.722519,,,
729601250.650854,1.256545,-0.391411,-19.926296,0.012558,0.030075,0.954178,-0.057178,-0.010042,-0.038292,70.58783,8.382416,-147.722519,,,
729601250.654134,1.256545,-0.391411,-19.926296,0.012558,0.030075,0.954178,-0.057178,-0.010042,-0.038292,70.58783,8.382416,-147.722519,,,
729601250.657466,1.241646,-0.39616,-19.938352,0.011444,0.029633,0.965714,-0.057178,-0.010042,-0.038292,70.58783,8.382416,-147.722519,,,
729601250.660826,1.221239,-0.402455,-19.952637,0.011444,0.029633,0.965714,-0.075864,-0.021936,-0.053677,70.58783,8.382416,-147.722519,,,
729601250.664153,1.221239,-0.402455,-19.952637,0.011444,0.029633,0.965714,-0.075864,-0.021936,-0.053677,70.58783,8.382416,-147.722519,,,
729601250.667483,1.199425,-0.409656,-19.968038,0.01918,0.026764,0.977478,-0.075864,-0.021936,-0.053677,70.58783,8.382416,-147.722519,,,
729601250.670896,1.173538,-0.414217,-19.983568,0.01918,0.026764,0.977478,-0.09622,-0.009956,-0.054215,70.58783,8.382416,-147.722519,,,
729601250.674204,1.173538,-0.414217,-19.983568,0.01918,0.026764,0.977478,-0.09622,-0.009956,-0.054215,70.58783,8.382416,-147.722519,,,
729601250.677482,1.145141,-0.417461,-19.999047,0.019791,0.020676,0.983719,-0.09622,-0.009956,-0.054215,70.58783,8.382416,-147.722519,,,
729601250.68087,1.114535,-0.415582,-20.014539,0.019791,0.020676,0.983719,-0.111123,0.015287,-0.054086,70.58783,8.382416,-147.722519,,,
729601250.684135,1.114535,-0.415582,-20.014539,0.019791,0.020676,0.983719,-0.111123,0.015287,-0.054086,70.58783,8.382416,-147.722519,,,
729601250.687475,1.082133,-0.411086,-20.029191,0.018692,0.019531,0.989609,-0.111123,0.015287,-0.054086,70.544846,8.631561,-147.794952,,,
729601250.690828,1.05082,-0.402782,-20.043046,0.018692,0.019531,0.989609,-0.107132,0.03423,-0.048388,70.544846,8.631561,-147.794952,,,
729601250.694165,1.05082,-0.402782,-20.043046,0.018692,0.019531,0.989609,-0.107132,0.03423,-0.048388,70.544846,8.631561,-147.794952,,,
729601250.697473,1.021348,-0.393119,-20.057121,0.022491,0.015671,1.000153,-0.107132,0.03423,-0.048388,70.544846,8.631561,-147.794952,,,
729601250.700958,0.996914,-0.381699,-20.072354,0.022491,0.015671,1.000153,-0.075303,0.042162,-0.056649,70.544846,8.631561,-147.794952,,,
729601250.704146,0.996914,-0.381699,-20.072354,0.022491,0.015671,1.000153,-0.075303,0.042162,-0.056649,70.544846,8.631561,-147.794952,,,
729601250.707492,0.977763,-0.369456,-20.089269,0.028748,0.010025,1.015411,-0.075303,0.042162,-0.056649,70.544846,8.631561,-147.794952,,,
729601250.710979,0.962912,-0.353612,-20.107902,0.028748,0.010025,1.015411,-0.043118,0.062142,-0.068706,70.544846,8.631561,-147.794952,,,
729601250.714147,0.962912,-0.353612,-20.107902,0.028748,0.010025,1.015411,-0.043118,0.062142,-0.068706,70.544846,8.631561,-147.794952,,,
729601250.717492,0.954591,-0.337513,-20.127316,0.024582,0.000992,1.024536,-0.043118,0.062142,-0.068706,70.544846,8.631561,-147.794952,,,
729601250.720818,0.954591,-0.337513,-20.127316,0.024582,0.000992,1.024536,-0.014348,0.059297,-0.064696,70.544846,8.631561,-147.794952,,,
729601250.72421,0.94857,-0.320506,-20.146144,0.024582,0.000992,1.024536,-0.014348,0.059297,-0.064696,70.544846,8.631561,-147.794952,,,
729601250.727465,0.948034,-0.305372,-20.163592,0.002808,-0.003326,1.019867,-0.014348,0.059297,-0.064696,70.632202,8.678467,-147.579941,,,
729601250.730808,0.948034,-0.305372,-20.163592,0.002808,-0.003326,1.019867,-0.014348,0.059297,-0.064696,70.632202,8.678467,-147.579941,,,
729601250.734145,0.945097,-0.289512,-20.179501,0.002808,-0.003326,1.019867,-0.00981,0.05518,-0.053845,70.632202,8.678467,-147.579941,,,
729601250.737513,0.944511,-0.277915,-20.193758,-0.008606,0.00119,1.011078,-0.00981,0.05518,-0.053845,70.632202,8.678467,-147.579941,,,
729601250.740817,0.944511,-0.277915,-20.193758,-0.008606,0.00119,1.011078,-0.00981,0.05518,-0.053845,70.632202,8.678467,-147.579941,,,
729601250.744137,0.938537,-0.266297,-20.206345,-0.008606,0.00119,1.011078,-0.025501,0.038221,-0.041794,70.632202,8.678467,-147.579941,,,
729601250.747477,0.931961,-0.261748,-20.217326,-0.013,0.008484,0.997833,-0.025501,0.038221,-0.041794,70.632202,8.678467,-147.579941,,,
729601250.750873,0.931961,-0.261748,-20.217326,-0.013,0.008484,0.997833,-0.025501,0.038221,-0.041794,70.632202,8.678467,-147.579941,,,
729601250.754146,0.920578,-0.253404,-20.22786,-0.013,0.008484,0.997833,-0.042697,0.028166,-0.038027,70.632202,8.678467,-147.579941,,,
729601250.757474,0.907804,-0.250789,-20.238919,-0.013901,0.017838,0.997223,-0.042697,0.028166,-0.038027,70.632202,8.678467,-147.579941,,,
729601250.76092,0.907804,-0.250789,-20.238919,-0.013901,0.017838,0.997223,-0.042697,0.028166,-0.038027,70.632202,8.678467,-147.579941,,,
729601250.764125,0.892291,-0.244338,-20.250806,-0.013901,0.017838,0.997223,-0.05486,0.023214,-0.043265,70.632202,8.678467,-147.579941,,,
729601250.767475,0.877404,-0.2432,-20.262961,-0.005951,0.021439,1.003769,-0.05486,0.023214,-0.043265,70.862701,8.79248,-147.869629,,,
729601250.770816,0.877404,-0.2432,-20.262961,-0.005951,0.021439,1.003769,-0.05486,0.023214,-0.043265,70.862701,8.79248,-147.869629,,,
729601250.774218,0.863206,-0.236969,-20.276124,-0.005951,0.021439,1.003769,-0.04388,0.023622,-0.049841,70.862701,8.79248,-147.869629,,,
729601250.777455,0.851865,-0.237024,-20.290215,0.001572,0.015274,1.013031,-0.04388,0.023622,-0.049841,70.862701,8.79248,-147.869629,,,
729601250.780837,0.851865,-0.237024,-20.290215,0.001572,0.015274,1.013031,-0.04388,0.023622,-0.049841,70.862701,8.79248,-147.869629,,,
729601250.784147,0.843843,-0.231932,-20.305273,0.001572,0.015274,1.013031,-0.022617,0.018262,-0.056059,70.862701,8.79248,-147.869629,,,
729601250.787483,0.83658,-0.234485,-20.320974,0.008804,0.010834,1.018219,-0.022617,0.018262,-0.056059,70.862701,8.79248,-147.869629,,,
729601250.790856,0.83658,-0.234485,-20.320974,0.008804,0.010834,1.018219,-0.022617,0.018262,-0.056059,70.862701,8.79248,-147.869629,,,
729601250.794129,0.834004,-0.229355,-20.336897,0.008804,0.010834,1.018219,-0.0046,0.019769,-0.056876,70.862701,8.79248,-147.869629,,,
729601250.797553,0.830061,-0.229349,-20.352659,-0.000595,0.007812,1.018295,-0.0046,0.019769,-0.056876,70.862701,8.79248,-147.869629,,,
729601250.80088,0.830061,-0.229349,-20.352659,-0.000595,0.007812,1.018295,-0.0046,0.019769,-0.056876,70.862701,8.79248,-147.869629,,,
729601250.804142,0.833291,-0.227524,-20.368911,-0.000595,0.007812,1.018295,0.014928,0.004649,-0.0599,70.862701,8.79248,-147.869629,,,
729601250.807466,0.834112,-0.225247,-20.384861,-0.002228,0.01387,1.014755,0.014928,0.004649,-0.0599,71.023163,8.849304,-147.727234,,,
729601250.810854,0.834112,-0.225247,-20.384861,-0.002228,0.01387,1.014755,0.014928,0.004649,-0.0599,71.023163,8.849304,-147.727234,,,
729601250.814133,0.840824,-0.226138,-20.398986,-0.002228,0.01387,1.014755,0.023179,-0.000626,-0.047464,71.023163,8.849304,-147.727234,,,
729601250.81747,0.844019,-0.222854,-20.411248,-0.006149,0.013916,1.01329,0.023179,-0.000626,-0.047464,71.023163,8.849304,-147.727234,,,
729601250.820852,0.844019,-0.222854,-20.411248,-0.006149,0.013916,1.01329,0.023179,-0.000626,-0.047464,71.023163,8.849304,-147.727234,,,
729601250.824233,0.849468,-0.224168,-20.421105,-0.006149,0.013916,1.01329,0.019094,-0.002249,-0.031125,71.023163,8.849304,-147.727234,,,
729601250.827455,0.852718,-0.219547,-20.428869,-0.013428,0.010178,1.009506,0.019094,-0.002249,-0.031125,71.023163,8.849304,-147.727234,,,
729601250.8308,0.852718,-0.219547,-20.428869,-0.013428,0.010178,1.009506,0.019094,-0.002249,-0.031125,71.023163,8.849304,-147.727234,,,
729601250.834145,0.854332,-0.218764,-20.434802,-0.013428,0.010178,1.009506,0.001122,0.010246,-0.018844,71.023163,8.849304,-147.727234,,,
729601250.837465,0.85422,-0.211112,-20.439085,-0.009705,0.016083,1.006393,0.001122,0.010246,-0.018844,71.023163,8.849304,-147.727234,,,
729601250.840799,0.85422,-0.211112,-20.439085,-0.009705,0.016083,1.006393,0.001122,0.010246,-0.018844,71.023163,8.849304,-147.727234,,,
729601250.844136,0.849696,-0.206501,-20.442523,-0.009705,0.016083,1.006393,-0.019007,0.020906,-0.013345,71.023163,8.849304,-147.727234,,,
729601250.847466,0.84326,-0.199436,-20.446134,-0.008301,0.019699,1.003296,-0.019007,0.020906,-0.013345,71.023163,8.849304,-147.727234,,,
729601250.850915,0.84326,-0.199436,-20.446134,-0.008301,0.019699,1.003296,-0.019007,0.020906,-0.013345,70.914429,8.868347,-147.704498,,,
729601250.854142,0.832424,-0.195234,-20.449883,-0.008301,0.019699,1.003296,-0.040684,0.015495,-0.014484,70.914429,8.868347,-147.704498,,,
729601250.857476,0.818841,-0.192567,-20.453702,-0.003296,0.021133,0.999237,-0.040684,0.015495,-0.014484,70.914429,8.868347,-147.704498,,,
729601250.860803,0.818841,-0.192567,-20.453702,-0.003296,0.021133,0.999237,-0.040684,0.015495,-0.014484,70.914429,8.868347,-147.704498,,,
729601250.864182,0.803618,-0.190377,-20.457523,-0.003296,0.021133,0.999237,-0.055597,0.009579,-0.014423,70.914429,8.868347,-147.704498,,,
729601250.867468,0.785871,-0.190729,-20.461259,-0.005371,0.01947,1.000443,-0.055597,0.009579,-0.014423,70.914429,8.868347,-147.704498,,,
729601250.870803,0.785871,-0.190729,-20.461259,-0.005371,0.01947,1.000443,-0.055597,0.009579,-0.014423,70.914429,8.868347,-147.704498,,,
729601250.874208,0.769487,-0.191743,-20.465183,-0.005371,0.01947,1.000443,-0.05584,-0.004901,-0.015581,70.914429,8.868347,-147.704498,,,
729601250.877481,0.752691,-0.193225,-20.469651,-0.003784,0.017853,1.00174,-0.05584,-0.004901,-0.015581,70.914429,8.868347,-147.704498,,,
729601250.88088,0.752691,-0.193225,-20.469651,-0.003784,0.017853,1.00174,-0.05584,-0.004901,-0.015581,70.914429,8.868347,-147.704498,,,
729601250.884152,0.739748,-0.19957,-20.474987,-0.003784,0.017853,1.00174,-0.038139,-0.022962,-0.021838,70.914429,8.868347,-147.704498,,,
729601250.88747,0.730508,-0.206307,-20.481458,0.001251,0.014175,1.009033,-0.038139,-0.022962,-0.021838,70.914429,8.868347,-147.704498,,,
729601250.890803,0.730508,-0.206307,-20.481458,0.001251,0.014175,1.009033,-0.038139,-0.022962,-0.021838,70.769104,9.016724,-148.077484,,,
