Time (sec),Pitch (deg),Roll (deg),Yaw(deg),X-Acceleration (g),Y-Acceleration (g),Z-Acceleration (g),Pitch Rate (deg/sec),Roll Rate (deg/sec),Yaw Rate (deg/sec),Magnetic Field in X direction (uT),Magnetic Field in Y direction (uT),Magnetic Field in Z Direction (uT),Latitude (deg),Longitude (deg),Altitude (m)
729600668.613879,-0.508443,2.738867,-8.352637,-0.059738,-0.01239,0.990173,0.016925,-0.012834,0.027474,71.088501,11.769867,-148.662827,,,
729600668.617247,-0.508443,2.738867,-8.352637,-0.059738,-0.01239,0.990173,0.016925,-0.012834,0.027474,71.088501,11.769867,-148.662827,,,
729600668.620484,-0.505252,2.731913,-8.343285,-0.063919,-0.012207,0.981018,0.003427,-0.029388,0.032969,71.088501,11.769867,-148.662827,,,
729600668.623908,-0.505938,2.721774,-8.333208,-0.063919,-0.012207,0.981018,0.003427,-0.029388,0.032969,71.088501,11.769867,-148.662827,,,
729600668.627249,-0.505938,2.721774,-8.333208,-0.063919,-0.012207,0.981018,0.003427,-0.029388,0.032969,71.088501,11.769867,-148.662827,,,
729600668.630483,-0.509159,2.71067,-8.322412,-0.063416,-0.011261,0.974915,-0.019846,-0.040161,0.036815,71.088501,11.769867,-148.662827,,,
729600668.633873,-0.515516,2.69767,-8.311324,-0.063416,-0.011261,0.974915,-0.019846,-0.040161,0.036815,71.088501,11.769867,-148.662827,,,
729600668.637198,-0.515516,2.69767,-8.311324,-0.063416,-0.011261,0.974915,-0.019846,-0.040161,0.036815,71.088501,11.769867,-148.662827,,,
729600668.640501,-0.522737,2.684202,-8.300092,-0.055634,-0.011917,0.977921,-0.035043,-0.045603,0.037134,71.197693,11.694717,-148.089798,,,
729600668.643917,-0.533729,2.671219,-8.288736,-0.055634,-0.011917,0.977921,-0.035043,-0.045603,0.037134,71.197693,11.694717,-148.089798,,,
729600668.647168,-0.533729,2.671219,-8.288736,-0.055634,-0.011917,0.977921,-0.035043,-0.045603,0.037134,71.197693,11.694717,-148.089798,,,
729600668.650565,-0.544994,2.660415,-8.277174,-0.054245,-0.015579,0.985382,-0.04904,-0.032438,0.037907,71.197693,11.694717,-148.089798,,,
729600668.653819,-0.559583,2.651011,-8.264904,-0.054245,-0.015579,0.985382,-0.04904,-0.032438,0.037907,71.197693,11.694717,-148.089798,,,
729600668.657249,-0.559583,2.651011,-8.264904,-0.054245,-0.015579,0.985382,-0.04904,-0.032438,0.037907,71.197693,11.694717,-148.089798,,,
729600668.660506,-0.573297,2.642918,-8.251477,-0.054062,-0.018112,0.992142,-0.054542,-0.025578,0.045732,71.197693,11.694717,-148.089798,,,
729600668.663848,-0.58873,2.635206,-8.236758,-0.054062,-0.018112,0.992142,-0.054542,-0.025578,0.045732,71.197693,11.694717,-148.089798,,,
729600668.667208,-0.58873,2.635206,-8.236758,-0.054062,-0.018112,0.992142,-0.054542,-0.025578,0.045732,71.197693,11.694717,-148.089798,,,
729600668.670578,-0.603819,2.628623,-8.221227,-0.050079,-0.016785,0.99472,-0.058183,-0.023042,0.051211,71.197693,11.694717,-148.089798,,,
729600668.673821,-0.61995,2.621244,-8.205302,-0.050079,-0.016785,0.99472,-0.058183,-0.023042,0.051211,71.197693,11.694717,-148.089798,,,
729600668.67718,-0.61995,2.621244,-8.205302,-0.050079,-0.016785,0.99472,-0.058183,-0.023042,0.051211,71.197693,11.694717,-148.089798,,,
729600668.680494,-0.635798,2.615019,-8.189292,-0.045135,-0.012543,0.99295,-0.057917,-0.025002,0.051725,71.139038,11.76622,-148.292068,,,
729600668.683921,-0.652063,2.607016,-8.173989,-0.045135,-0.012543,0.99295,-0.057917,-0.025002,0.051725,71.139038,11.76622,-148.292068,,,
729600668.687152,-0.652063,2.607016,-8.173989,-0.045135,-0.012543,0.99295,-0.057917,-0.025002,0.051725,71.139038,11.76622,-148.292068,,,
729600668.690489,-0.668714,2.600949,-8.159392,-0.044235,-0.013672,0.993851,-0.05909,-0.028702,0.046548,71.139038,11.76622,-148.292068,,,
729600668.693835,-0.684793,2.591601,-8.145097,-0.044235,-0.013672,0.993851,-0.05909,-0.028702,0.046548,71.139038,11.76622,-148.292068,,,
729600668.697247,-0.684793,2.591601,-8.145097,-0.044235,-0.013672,0.993851,-0.05909,-0.028702,0.046548,71.139038,11.76622,-148.292068,,,
729600668.700558,-0.700062,2.584481,-8.131667,-0.039505,-0.016617,0.998276,-0.053377,-0.034472,0.040469,71.139038,11.76622,-148.292068,,,
729600668.703892,-0.713901,2.5734,-8.119804,-0.039505,-0.016617,0.998276,-0.053377,-0.034472,0.040469,71.139038,11.76622,-148.292068,,,
729600668.707164,-0.713901,2.5734,-8.119804,-0.039505,-0.016617,0.998276,-0.053377,-0.034472,0.040469,71.139038,11.76622,-148.292068,,,
729600668.710498,-0.725362,2.564379,-8.10966,-0.033417,-0.018219,1.007385,-0.037335,-0.040019,0.028959,71.139038,11.76622,-148.292068,,,
729600668.713867,-0.734944,2.551867,-8.101068,-0.033417,-0.018219,1.007385,-0.037335,-0.040019,0.028959,71.139038,11.76622,-148.292068,,,
729600668.717216,-0.734944,2.551867,-8.101068,-0.033417,-0.018219,1.007385,-0.037335,-0.040019,0.028959,71.139038,11.76622,-148.292068,,,
729600668.720489,-0.742558,2.540803,-8.093679,-0.02713,-0.021576,1.015839,-0.021554,-0.041564,0.021123,71.040497,11.655151,-148.682434,,,
729600668.723871,-0.748411,2.528218,-8.088198,-0.02713,-0.021576,1.015839,-0.021554,-0.041564,0.021123,71.040497,11.655151,-148.682434,,,
729600668.72721,-0.748411,2.528218,-8.088198,-0.02713,-0.021576,1.015839,-0.021554,-0.041564,0.021123,71.040497,11.655151,-148.682434,,,
729600668.730499,-0.754345,2.517589,-8.084056,-0.026718,-0.024048,1.020111,-0.017384,-0.040751,0.011813,71.040497,11.655151,-148.682434,,,
729600668.734005,-0.759548,2.503929,-8.080317,-0.026718,-0.024048,1.020111,-0.017384,-0.040751,0.011813,71.040497,11.655151,-148.682434,,,
729600668.737218,-0.759548,2.503929,-8.080317,-0.026718,-0.024048,1.020111,-0.017384,-0.040751,0.011813,71.040497,11.655151,-148.682434,,,
729600668.740533,-0.766565,2.488918,-8.076682,-0.0298,-0.022446,1.014801,-0.023135,-0.061834,0.010689,71.040497,11.655151,-148.682434,,,
729600668.743822,-0.773511,2.468193,-8.072418,-0.0298,-0.022446,1.014801,-0.023135,-0.061834,0.010689,71.040497,11.655151,-148.682434,,,
729600668.747156,-0.773511,2.468193,-8.072418,-0.0298,-0.022446,1.014801,-0.023135,-0.061834,0.010689,71.040497,11.655151,-148.682434,,,
729600668.750553,-0.781157,2.44531,-8.067989,-0.026398,-0.019196,1.010406,-0.02702,-0.082911,0.011561,71.040497,11.655151,-148.682434,,,
729600668.753827,-0.781157,2.44531,-8.067989,-0.026398,-0.019196,1.010406,-0.02702,-0.082911,0.011561,71.040497,11.655151,-148.682434,,,
729600668.757156,-0.788382,2.419958,-8.064582,-0.026398,-0.019196,1.010406,-0.02702,-0.082911,0.011561,71.040497,11.655151,-148.682434,,,
729600668.760596,-0.794419,2.394289,-8.062473,-0.015228,-0.013977,1.019257,-0.018933,-0.087865,0.002824,71.040497,11.655151,-148.682434,,,
729600668.763814,-0.794419,2.394289,-8.062473,-0.015228,-0.013977,1.019257,-0.018933,-0.087865,0.002824,71.061676,11.729752,-148.679779,,,
729600668.767227,-0.798479,2.368369,-8.062009,-0.015228,-0.013977,1.019257,-0.018933,-0.087865,0.002824,71.061676,11.729752,-148.679779,,,
729600668.77049,-0.799539,2.34357,-8.063477,-0.006851,-0.012527,1.029877,0.00319,-0.082208,-0.009766,71.061676,11.729752,-148.679779,,,
729600668.773928,-0.799539,2.319969,-8.067247,-0.006851,-0.012527,1.029877,0.00319,-0.082208,-0.009766,71.061676,11.729752,-148.679779,,,
729600668.777167,-0.797856,2.319969,-8.067247,-0.006851,-0.012527,1.029877,0.00319,-0.082208,-0.009766,71.061676,11.729752,-148.679779,,,
729600668.780514,-0.794352,2.297808,-8.073427,0.001114,-0.014145,1.03334,0.020637,-0.068941,-0.025895,71.061676,11.729752,-148.679779,,,
729600668.783906,-0.794352,2.277976,-8.081427,0.001114,-0.014145,1.03334,0.020637,-0.068941,-0.025895,71.061676,11.729752,-148.679779,,,
729600668.787148,-0.787998,2.277976,-8.081427,0.001114,-0.014145,1.03334,0.020637,-0.068941,-0.025895,71.061676,11.729752,-148.679779,,,
729600668.790537,-0.781009,2.258808,-8.090832,0.00473,-0.012344,1.02977,0.030239,-0.053759,-0.035173,71.061676,11.729752,-148.679779,,,
729600668.793825,-0.781009,2.258808,-8.090832,0.00473,-0.012344,1.02977,0.030239,-0.053759,-0.035173,71.061676,11.729752,-148.679779,,,
729600668.79726,-0.772655,2.242796,-8.100831,0.00473,-0.012344,1.02977,0.030239,-0.053759,-0.035173,71.061676,11.729752,-148.679779,,,
729600668.80054,-0.764885,2.225887,-8.111176,0.00322,-0.012268,1.020294,0.035465,-0.046404,-0.03723,71.061676,11.729752,-148.679779,,,
729600668.803839,-0.764885,2.225887,-8.111176,0.00322,-0.012268,1.020294,0.035465,-0.046404,-0.03723,70.871918,11.727097,-148.619781,,,
729600668.807174,-0.754674,2.21217,-8.1223,0.00322,-0.012268,1.020294,0.035465,-0.046404,-0.03723,70.871918,11.727097,-148.619781,,,
729600668.810565,-0.744559,2.197381,-8.134892,-0.000305,-0.011032,1.015396,0.044439,-0.043382,-0.046997,70.871918,11.727097,-148.619781,,,
729600668.813781,-0.744559,2.197381,-8.134892,-0.000305,-0.011032,1.015396,0.044439,-0.043382,-0.046997,70.871918,11.727097,-148.619781,,,
729600668.817212,-0.732473,2.183285,-8.148777,-0.000305,-0.011032,1.015396,0.044439,-0.043382,-0.046997,70.871918,11.727097,-148.619781,,,
729600668.820477,-0.7211,2.166726,-8.163994,-0.005157,-0.010468,1.006058,0.047151,-0.052842,-0.05616,70.871918,11.727097,-148.619781,,,
729600668.823916,-0.7211,2.166726,-8.163994,-0.005157,-0.010468,1.006058,0.047151,-0.052842,-0.05616,70.871918,11.727097,-148.619781,,,
729600668.827154,-0.709226,2.15002,-8.180866,-0.005157,-0.010468,1.006058,0.047151,-0.052842,-0.05616,70.871918,11.727097,-148.619781,,,
729600668.830491,-0.698502,2.13131,-8.199573,-0.014465,-0.011551,0.999008,0.043347,-0.053785,-0.068886,70.871918,11.727097,-148.619781,,,
729600668.833874,-0.698502,2.13131,-8.199573,-0.014465,-0.011551,0.999008,0.043347,-0.053785,-0.068886,70.871918,11.727097,-148.619781,,,
729600668.837154,-0.687724,2.115206,-8.21952,-0.014465,-0.011551,0.999008,0.043347,-0.053785,-0.068886,70.871918,11.727097,-148.619781,,,
729600668.840488,-0.678068,2.096272,-8.239579,-0.021011,-0.013199,0.996399,0.03535,-0.051682,-0.069728,70.871918,11.727097,-148.619781,,,
729600668.843829,-0.678068,2.096272,-8.239579,-0.021011,-0.013199,0.996399,0.03535,-0.051682,-0.069728,70.947021,11.437927,-148.699539,,,
729600668.847236,-0.669555,2.079726,-8.259226,-0.021011,-0.013199,0.996399,0.03535,-0.051682,-0.069728,70.947021,11.437927,-148.699539,,,
729600668.850521,-0.662525,2.058483,-8.277935,-0.031738,-0.013504,0.990295,0.026097,-0.056109,-0.063186,70.947021,11.437927,-148.699539,,,
729600668.853811,-0.662525,2.058483,-8.277935,-0.031738,-0.013504,0.990295,0.026097,-0.056109,-0.063186,70.947021,11.437927,-148.699539,,,
729600668.857163,-0.656797,2.042109,-8.295438,-0.031738,-0.013504,0.990295,0.026097,-0.056109,-0.063186,70.947021,11.437927,-148.699539,,,
729600668.860482,-0.652621,2.022251,-8.312466,-0.038193,-0.01152,0.987488,0.016599,-0.043469,-0.059708,70.947021,11.437927,-148.699539,,,
729600668.86385,-0.652621,2.022251,-8.312466,-0.038193,-0.01152,0.987488,0.016599,-0.043469,-0.059708,70.947021,11.437927,-148.699539,,,
729600668.867201,-0.648189,2.009314,-8.328825,-0.038193,-0.01152,0.987488,0.016599,-0.043469,-0.059708,70.947021,11.437927,-148.699539,,,
729600668.870505,-0.643016,1.990808,-8.344695,-0.039169,-0.011536,0.992432,0.022256,-0.040523,-0.055597,70.947021,11.437927,-148.699539,,,
729600668.873846,-0.643016,1.990808,-8.344695,-0.039169,-0.011536,0.992432,0.022256,-0.040523,-0.055597,70.947021,11.437927,-148.699539,,,
729600668.877169,-0.637433,1.977068,-8.359857,-0.039169,-0.011536,0.992432,0.022256,-0.040523,-0.055597,70.947021,11.437927,-148.699539,,,
729600668.880483,-0.631485,1.955269,-8.374268,-0.042969,-0.014999,0.988434,0.02459,-0.055286,-0.049796,70.947021,11.437927,-148.699539,,,
729600668.88391,-0.631485,1.955269,-8.374268,-0.042969,-0.014999,0.988434,0.02459,-0.055286,-0.049796,70.728561,11.500977,-148.899689,,,
729600668.887178,-0.624657,1.93729,-8.388152,-0.042969,-0.014999,0.988434,0.02459,-0.055286,-0.049796,70.728561,11.500977,-148.899689,,,
729600668.890492,-0.616963,1.911782,-8.402243,-0.04483,-0.014954,0.986053,0.030054,-0.070131,-0.050613,70.728561,11.500977,-148.899689,,,
729600668.893831,-0.616963,1.911782,-8.402243,-0.04483,-0.014954,0.986053,0.030054,-0.070131,-0.050613,70.728561,11.500977,-148.899689,,,
729600668.897227,-0.608581,1.890831,-8.417061,-0.04483,-0.014954,0.986053,0.030054,-0.070131,-0.050613,70.728561,11.500977,-148.899689,,,
729600668.90053,-0.600408,1.866062,-8.432827,-0.042191,-0.011108,0.988968,0.027941,-0.069249,-0.057015,70.728561,11.500977,-148.899689,,,
729600668.903811,-0.600408,1.866062,-8.432827,-0.042191,-0.011108,0.988968,0.027941,-0.069249,-0.057015,70.728561,11.500977,-148.899689,,,
729600668.90717,-0.593234,1.844626,-8.449401,-0.042191,-0.011108,0.988968,0.027941,-0.069249,-0.057015,70.728561,11.500977,-148.899689,,,
729600668.910484,-0.586872,1.820041,-8.465994,-0.040634,-0.010651,0.984283,0.024586,-0.073725,-0.057117,70.728561,11.500977,-148.899689,,,
729600668.913833,-0.586872,1.820041,-8.465994,-0.040634,-0.010651,0.984283,0.024586,-0.073725,-0.057117,70.728561,11.500977,-148.899689,,,
729600668.917203,-0.580897,1.79873,-8.482443,-0.040634,-0.010651,0.984283,0.024586,-0.073725,-0.057117,70.728561,11.500977,-148.899689,,,
729600668.92049,-0.576262,1.778426,-8.498565,-0.041595,-0.010452,0.979996,0.018783,-0.059076,-0.054987,70.728561,11.500977,-148.899689,,,
729600668.923895,-0.576262,1.778426,-8.498565,-0.041595,-0.010452,0.979996,0.018783,-0.059076,-0.054987,70.728561,11.500977,-148.899689,,,
729600668.927164,-0.57198,1.762124,-8.513846,-0.041595,-0.010452,0.979996,0.018783,-0.059076,-0.054987,70.467834,11.482864,-148.566208,,,
729600668.930479,-0.569568,1.749551,-8.527873,-0.040878,-0.010864,0.987793,0.009608,-0.039274,-0.046622,70.467834,11.482864,-148.566208,,,
729600668.933886,-0.569568,1.749551,-8.527873,-0.040878,-0.010864,0.987793,0.009608,-0.039274,-0.046622,70.467834,11.482864,-148.566208,,,
729600668.937223,-0.568058,1.737796,-8.540229,-0.040878,-0.010864,0.987793,0.009608,-0.039274,-0.046622,70.467834,11.482864,-148.566208,,,
729600668.940482,-0.567854,1.727567,-8.550856,-0.046127,-0.013245,0.982895,0.000931,-0.038727,-0.034909,70.467834,11.482864,-148.566208,,,
729600668.943826,-0.567854,1.727567,-8.550856,-0.046127,-0.013245,0.982895,0.000931,-0.038727,-0.034909,70.467834,11.482864,-148.566208,,,
729600668.946968,-0.568588,1.715972,-8.560058,-0.046127,-0.013245,0.982895,0.000931,-0.038727,-0.034909,70.467834,11.482864,-148.566208,,,
729600668.950558,-0.571485,1.707307,-8.569101,-0.046188,-0.011887,0.979095,-0.011074,-0.030896,-0.034234,70.467834,11.482864,-148.566208,,,
729600668.95381,-0.571485,1.707307,-8.569101,-0.046188,-0.011887,0.979095,-0.011074,-0.030896,-0.034234,70.467834,11.482864,-148.566208,,,
729600668.957172,-0.575467,1.697116,-8.578197,-0.046188,-0.011887,0.979095,-0.011074,-0.030896,-0.034234,70.467834,11.482864,-148.566208,,,
729600668.960517,-0.581134,1.689368,-8.586859,-0.043991,-0.009155,0.981689,-0.015379,-0.031961,-0.0315,70.467834,11.482864,-148.566208,,,
729600668.963845,-0.581134,1.689368,-8.586859,-0.043991,-0.009155,0.981689,-0.015379,-0.031961,-0.0315,70.467834,11.482864,-148.566208,,,
729600668.967215,-0.585516,1.678599,-8.595857,-0.043991,-0.009155,0.981689,-0.015379,-0.031961,-0.0315,70.502487,11.405884,-148.666702,,,
729600668.970548,-0.589545,1.668995,-8.604823,-0.045471,-0.013153,0.984009,-0.009848,-0.039372,-0.031299,70.502487,11.405884,-148.666702,,,
729600668.973831,-0.589545,1.668995,-8.604823,-0.045471,-0.013153,0.984009,-0.009848,-0.039372,-0.031299,70.502487,11.405884,-148.666702,,,
729600668.977195,-0.592457,1.656806,-8.613212,-0.045471,-0.013153,0.984009,-0.009848,-0.039372,-0.031299,70.502487,11.405884,-148.666702,,,
729600668.980494,-0.593867,1.646403,-8.621015,-0.045654,-0.015915,0.989746,0.001242,-0.039761,-0.027027,70.502487,11.405884,-148.666702,,,
729600668.983959,-0.593867,1.646403,-8.621015,-0.045654,-0.015915,0.989746,0.001242,-0.039761,-0.027027,70.502487,11.405884,-148.666702,,,
729600668.987166,-0.592976,1.634954,-8.62709,-0.045654,-0.015915,0.989746,0.001242,-0.039761,-0.027027,70.502487,11.405884,-148.666702,,,
729600668.990495,-0.589709,1.626893,-8.631171,-0.050156,-0.018906,0.994415,0.017231,-0.02877,-0.012824,70.502487,11.405884,-148.666702,,,
729600668.993845,-0.589709,1.626893,-8.631171,-0.050156,-0.018906,0.994415,0.017231,-0.02877,-0.012824,70.502487,11.405884,-148.666702,,,
729600668.997239,-0.583996,1.618819,-8.63429,-0.050156,-0.018906,0.994415,0.017231,-0.02877,-0.012824,70.502487,11.405884,-148.666702,,,
729600669.000529,-0.576489,1.61413,-8.636668,-0.04686,-0.020462,0.99823,0.029107,-0.018266,-0.00753,70.502487,11.405884,-148.666702,,,
729600669.003818,-0.576489,1.61413,-8.636668,-0.04686,-0.020462,0.99823,0.029107,-0.018266,-0.00753,70.502487,11.405884,-148.666702,,,
729600669.007199,-0.567766,1.60806,-8.63827,-0.04686,-0.020462,0.99823,0.029107,-0.018266,-0.00753,70.142593,11.706894,-148.743088,,,
729600669.010584,-0.559099,1.604187,-8.639857,-0.038589,-0.017136,0.99379,0.030566,-0.018301,-0.007511,70.142593,11.706894,-148.743088,,,
729600669.013815,-0.559099,1.604187,-8.639857,-0.038589,-0.017136,0.99379,0.030566,-0.018301,-0.007511,70.142593,11.706894,-148.743088,,,
729600669.017229,-0.551412,1.598659,-8.642012,-0.038589,-0.017136,0.99379,0.030566,-0.018301,-0.007511,70.142593,11.706894,-148.743088,,,
729600669.020569,-0.545727,1.597434,-8.644836,-0.036819,-0.012604,0.987259,0.020536,-0.007478,-0.012667,70.142593,11.706894,-148.743088,,,
729600669.023814,-0.545727,1.597434,-8.644836,-0.036819,-0.012604,0.987259,0.020536,-0.007478,-0.012667,70.142593,11.706894,-148.743088,,,
729600669.027171,-0.540677,1.594493,-8.647321,-0.036819,-0.012604,0.987259,0.020536,-0.007478,-0.012667,70.142593,11.706894,-148.743088,,,
729600669.030488,-0.537241,1.594193,-8.648728,-0.034729,-0.00798,0.986206,0.010735,-0.006161,-0.005602,70.142593,11.706894,-148.743088,,,
729600669.033886,-0.537241,1.594193,-8.648728,-0.034729,-0.00798,0.986206,0.010735,-0.006161,-0.005602,70.142593,11.706894,-148.743088,,,
729600669.037163,-0.534885,1.591694,-8.649157,-0.034729,-0.00798,0.986206,0.010735,-0.006161,-0.005602,70.142593,11.706894,-148.743088,,,
729600669.040483,-0.533806,1.591894,-8.648436,-0.033524,-0.005768,0.983231,0.002852,-0.003438,0.001998,70.142593,11.706894,-148.743088,,,
729600669.043834,-0.533806,1.591894,-8.648436,-0.033524,-0.005768,0.983231,0.002852,-0.003438,0.001998,70.142593,11.706894,-148.743088,,,
729600669.047146,-0.534076,1.589746,-8.647072,-0.033524,-0.005768,0.983231,0.002852,-0.003438,0.001998,70.247238,11.49472,-148.260483,,,
729600669.050529,-0.53621,1.590319,-8.64544,-0.029953,-0.008392,0.983322,-0.005635,-0.001231,0.003477,70.247238,11.49472,-148.260483,,,
729600669.053828,-0.53621,1.590319,-8.64544,-0.029953,-0.008392,0.983322,-0.005635,-0.001231,0.003477,70.247238,11.49472,-148.260483,,,
729600669.057172,-0.538802,1.590002,-8.644487,-0.029953,-0.008392,0.983322,-0.005635,-0.001231,0.003477,70.247238,11.49472,-148.260483,,,
729600669.0605,-0.54303,1.593899,-8.644196,-0.025955,-0.008118,0.98381,-0.010371,0.011595,-0.001422,70.247238,11.49472,-148.260483,,,
729600669.063836,-0.54303,1.593899,-8.644196,-0.025955,-0.008118,0.98381,-0.010371,0.011595,-0.001422,70.247238,11.49472,-148.260483,,,
729600669.067208,-0.546789,1.596802,-8.645251,-0.025955,-0.008118,0.98381,-0.010371,0.011595,-0.001422,70.247238,11.49472,-148.260483,,,
729600669.07048,-0.551873,1.603348,-8.647697,-0.022537,-0.007904,0.985794,-0.010241,0.017231,-0.01134,70.247238,11.49472,-148.260483,,,
729600669.073879,-0.551873,1.603348,-8.647697,-0.022537,-0.007904,0.985794,-0.010241,0.017231,-0.01134,70.247238,11.49472,-148.260483,,,
729600669.077151,-0.554989,1.607198,-8.651217,-0.022537,-0.007904,0.985794,-0.010241,0.017231,-0.01134,70.247238,11.49472,-148.260483,,,
729600669.080481,-0.559106,1.612426,-8.655138,-0.023438,-0.010605,0.990677,-0.00703,0.012781,-0.014135,70.247238,11.49472,-148.260483,,,
729600669.083898,-0.559106,1.612426,-8.655138,-0.023438,-0.010605,0.990677,-0.00703,0.012781,-0.014135,70.247238,11.49472,-148.260483,,,
729600669.087147,-0.560973,1.614075,-8.658573,-0.023438,-0.010605,0.990677,-0.00703,0.012781,-0.014135,70.247238,11.49472,-148.260483,,,
729600669.09048,-0.563162,1.614709,-8.661621,-0.028458,-0.008926,0.990631,-0.004054,-0.002769,-0.011472,70.38385,11.440567,-148.664688,,,
729600669.09383,-0.563162,1.614709,-8.661621,-0.028458,-0.008926,0.990631,-0.004054,-0.002769,-0.011472,70.38385,11.440567,-148.664688,,,
729600669.097219,-0.564583,1.612245,-8.664615,-0.028458,-0.008926,0.990631,-0.004054,-0.002769,-0.011472,70.38385,11.440567,-148.664688,,,
729600669.100522,-0.565653,1.609023,-8.667878,-0.031265,-0.009521,0.987305,7.9e-05,-0.016771,-0.013302,70.38385,11.440567,-148.664688,,,
729600669.103815,-0.565653,1.609023,-8.667878,-0.031265,-0.009521,0.987305,7.9e-05,-0.016771,-0.013302,70.38385,11.440567,-148.664688,,,
729600669.107157,-0.566626,1.603071,-8.671792,-0.031265,-0.009521,0.987305,7.9e-05,-0.016771,-0.013302,70.38385,11.440567,-148.664688,,,
729600669.110477,-0.567535,1.597287,-8.676752,-0.028122,-0.009567,0.98909,-0.003276,-0.022689,-0.02076,70.38385,11.440567,-148.664688,,,
729600669.113822,-0.567535,1.597287,-8.676752,-0.028122,-0.009567,0.98909,-0.003276,-0.022689,-0.02076,70.38385,11.440567,-148.664688,,,
729600669.117198,-0.569286,1.589806,-8.682516,-0.028122,-0.009567,0.98909,-0.003276,-0.022689,-0.02076,70.38385,11.440567,-148.664688,,,
729600669.120478,-0.571955,1.583759,-8.688652,-0.027832,-0.011307,0.989319,-0.012754,-0.017936,-0.023685,70.38385,11.440567,-148.664688,,,
729600669.123875,-0.571955,1.583759,-8.688652,-0.027832,-0.011307,0.989319,-0.012754,-0.017936,-0.023685,70.38385,11.440567,-148.664688,,,
729600669.127158,-0.577186,1.578679,-8.694538,-0.027832,-0.011307,0.989319,-0.012754,-0.017936,-0.023685,70.38385,11.440567,-148.664688,,,
729600669.130484,-0.584144,1.576425,-8.699575,-0.028488,-0.014221,0.992462,-0.026194,0.000293,-0.018109,70.480209,11.436279,-148.740738,,,
729600669.133865,-0.584144,1.576425,-8.699575,-0.028488,-0.014221,0.992462,-0.026194,0.000293,-0.018109,70.480209,11.436279,-148.740738,,,
729600669.137149,-0.5924,1.576715,-8.70305,-0.028488,-0.014221,0.992462,-0.026194,0.000293,-0.018109,70.480209,11.436279,-148.740738,,,
729600669.140485,-0.60106,1.578252,-8.704712,-0.031235,-0.017487,0.997238,-0.032291,0.012343,-0.005617,70.480209,11.436279,-148.740738,,,
729600669.143834,-0.60106,1.578252,-8.704712,-0.031235,-0.017487,0.997238,-0.032291,0.012343,-0.005617,70.480209,11.436279,-148.740738,,,
729600669.147203,-0.611091,1.581666,-8.705247,-0.031235,-0.017487,0.997238,-0.032291,0.012343,-0.005617,70.480209,11.436279,-148.740738,,,
729600669.150519,-0.621494,1.585374,-8.705162,-0.028732,-0.02005,1.000427,-0.036704,0.020174,-0.001321,70.480209,11.436279,-148.740738,,,
729600669.153808,-0.621494,1.585374,-8.705162,-0.028732,-0.02005,1.000427,-0.036704,0.020174,-0.001321,70.480209,11.436279,-148.740738,,,
729600669.157162,-0.632298,1.590269,-8.704614,-0.028732,-0.02005,1.000427,-0.036704,0.020174,-0.001321,70.480209,11.436279,-148.740738,,,
729600669.16048,-0.642509,1.594386,-8.704528,-0.028229,-0.018478,1.000763,-0.03245,0.017549,-0.004405,70.480209,11.436279,-148.740738,,,
729600669.163814,-0.642509,1.594386,-8.704528,-0.028229,-0.018478,1.000763,-0.03245,0.017549,-0.004405,70.480209,11.436279,-148.740738,,,
729600669.167189,-0.6511,1.597602,-8.705676,-0.028229,-0.018478,1.000763,-0.03245,0.017549,-0.004405,70.480209,11.436279,-148.740738,,,
729600669.17048,-0.658174,1.599526,-8.708332,-0.026901,-0.015747,1.002472,-0.024905,0.00581,-0.014717,70.570892,11.478027,-148.85022,,,
729600669.173895,-0.658174,1.599526,-8.708332,-0.026901,-0.015747,1.002472,-0.024905,0.00581,-0.014717,70.570892,11.478027,-148.85022,,,
729600669.177169,-0.664352,1.599353,-8.712461,-0.026901,-0.015747,1.002472,-0.024905,0.00581,-0.014717,70.570892,11.478027,-148.85022,,,
729600669.180485,-0.668991,1.597764,-8.716879,-0.027573,-0.013458,1.000397,-0.016552,-0.007713,-0.016576,70.570892,11.478027,-148.85022,,,
729600669.183878,-0.668991,1.597764,-8.716879,-0.027573,-0.013458,1.000397,-0.016552,-0.007713,-0.016576,70.570892,11.478027,-148.85022,,,
729600669.187155,-0.673528,1.594486,-8.721071,-0.027573,-0.013458,1.000397,-0.016552,-0.007713,-0.016576,70.570892,11.478027,-148.85022,,,
729600669.190488,-0.67642,1.591232,-8.725169,-0.029922,-0.014587,0.998093,-0.00666,-0.008662,-0.015677,70.570892,11.478027,-148.85022,,,
729600669.193826,-0.67642,1.591232,-8.725169,-0.029922,-0.014587,0.998093,-0.00666,-0.008662,-0.015677,70.570892,11.478027,-148.85022,,,
729600669.197239,-0.678776,1.588335,-8.729384,-0.029922,-0.014587,0.998093,-0.00666,-0.008662,-0.015677,70.570892,11.478027,-148.85022,,,
729600669.200524,-0.681385,1.586832,-8.733865,-0.024536,-0.010574,0.99968,-0.007757,-5.7e-05,-0.017542,70.570892,11.478027,-148.85022,,,
729600669.203853,-0.681385,1.586832,-8.733865,-0.024536,-0.010574,0.99968,-0.007757,-5.7e-05,-0.017542,70.570892,11.478027,-148.85022,,,
729600669.207202,-0.684043,1.586895,-8.738612,-0.024536,-0.010574,0.99968,-0.007757,-5.7e-05,-0.017542,70.570892,11.478027,-148.85022,,,
729600669.210541,-0.687937,1.589864,-8.742929,-0.023254,-0.008987,0.998154,-0.013098,0.016627,-0.014755,70.454224,11.45491,-148.5224,,,
729600669.213815,-0.687937,1.589864,-8.742929,-0.023254,-0.008987,0.998154,-0.013098,0.016627,-0.014755,70.454224,11.45491,-148.5224,,,
729600669.217196,-0.69204,1.594649,-8.746969,-0.023254,-0.008987,0.998154,-0.013098,0.016627,-0.014755,70.454224,11.45491,-148.5224,,,
729600669.220476,-0.697981,1.601706,-8.751256,-0.025085,-0.012909,0.996704,-0.017524,0.028807,-0.01663,70.454224,11.45491,-148.5224,,,
729600669.223868,-0.697981,1.601706,-8.751256,-0.025085,-0.012909,0.996704,-0.017524,0.028807,-0.01663,70.454224,11.45491,-148.5224,,,
729600669.227145,-0.703799,1.608974,-8.755625,-0.025085,-0.012909,0.996704,-0.017524,0.028807,-0.01663,70.454224,11.45491,-148.5224,,,
729600669.230487,-0.711742,1.615892,-8.759396,-0.026596,-0.012695,0.992477,-0.023052,0.02659,-0.012631,70.454224,11.45491,-148.5224,,,
729600669.233945,-0.711742,1.615892,-8.759396,-0.026596,-0.012695,0.992477,-0.023052,0.02659,-0.012631,70.454224,11.45491,-148.5224,,,
729600669.2372,-0.718106,1.621894,-8.762535,-0.026596,-0.012695,0.992477,-0.023052,0.02659,-0.012631,70.454224,11.45491,-148.5224,,,
729600669.240492,-0.72536,1.626526,-8.766369,-0.026962,-0.009933,0.988693,-0.023624,0.017813,-0.017569,70.454224,11.45491,-148.5224,,,
729600669.243836,-0.72536,1.626526,-8.766369,-0.026962,-0.009933,0.988693,-0.023624,0.017813,-0.017569,70.454224,11.45491,-148.5224,,,
729600669.247168,-0.73269,1.628987,-8.770935,-0.026962,-0.009933,0.988693,-0.023624,0.017813,-0.017569,70.454224,11.45491,-148.5224,,,
729600669.250539,-0.740641,1.628116,-8.775405,-0.03186,-0.009323,0.989273,-0.025832,-0.002816,-0.016943,70.454224,11.45491,-148.5224,,,
729600669.253812,-0.740641,1.628116,-8.775405,-0.03186,-0.009323,0.989273,-0.025832,-0.002816,-0.016943,70.62001,11.64917,-148.679337,,,
729600669.257151,-0.748859,1.624147,-8.779847,-0.03186,-0.009323,0.989273,-0.025832,-0.002816,-0.016943,70.62001,11.64917,-148.679337,,,
729600669.260483,-0.757752,1.616968,-8.784704,-0.036484,-0.012192,0.987518,-0.029299,-0.025955,-0.020009,70.62001,11.64917,-148.679337,,,
729600669.263888,-0.757752,1.616968,-8.784704,-0.036484,-0.012192,0.987518,-0.029299,-0.025955,-0.020009,70.62001,11.64917,-148.679337,,,
729600669.267205,-0.766545,1.607113,-8.790296,-0.036484,-0.012192,0.987518,-0.029299,-0.025955,-0.020009,70.62001,11.64917,-148.679337,,,
729600669.270479,-0.774888,1.594731,-8.796623,-0.031601,-0.007797,0.991318,-0.025705,-0.044226,-0.025027,70.62001,11.64917,-148.679337,,,
729600669.273835,-0.774888,1.594731,-8.796623,-0.031601,-0.007797,0.991318,-0.025705,-0.044226,-0.025027,70.62001,11.64917,-148.679337,,,
729600669.277261,-0.782667,1.581595,-8.803886,-0.031601,-0.007797,0.991318,-0.025705,-0.044226,-0.025027,70.62001,11.64917,-148.679337,,,
729600669.280481,-0.790053,1.569315,-8.812143,-0.02829,-0.005692,0.997223,-0.027268,-0.03343,-0.031921,70.62001,11.64917,-148.679337,,,
729600669.28388,-0.790053,1.569315,-8.812143,-0.02829,-0.005692,0.997223,-0.027268,-0.03343,-0.031921,70.62001,11.64917,-148.679337,,,
729600669.287156,-0.798146,1.559967,-8.821007,-0.02829,-0.005692,0.997223,-0.027268,-0.03343,-0.031921,70.62001,11.64917,-148.679337,,,
729600669.290488,-0.805316,1.552974,-8.829919,-0.024902,-0.004868,1.004944,-0.024464,-0.01364,-0.032122,70.62001,11.64917,-148.679337,,,
729600669.293816,-0.805316,1.552974,-8.829919,-0.024902,-0.004868,1.004944,-0.024464,-0.01364,-0.032122,70.256775,11.845123,-148.69519,,,
729600669.297159,-0.812042,1.548814,-8.838118,-0.024902,-0.004868,1.004944,-0.024464,-0.01364,-0.032122,70.256775,11.845123,-148.69519,,,
729600669.30053,-0.816654,1.546257,-8.845589,-0.026352,-0.006454,1.007278,-0.010574,-0.000977,-0.026688,70.256775,11.845123,-148.69519,,,
729600669.303952,-0.816654,1.546257,-8.845589,-0.026352,-0.006454,1.007278,-0.010574,-0.000977,-0.026688,70.256775,11.845123,-148.69519,,,
729600669.307139,-0.819588,1.546082,-8.852072,-0.026352,-0.006454,1.007278,-0.010574,-0.000977,-0.026688,70.256775,11.845123,-148.69519,,,
729600669.310484,-0.8212,1.54865,-8.856895,-0.031082,-0.007477,1.011475,-0.004584,0.017376,-0.01494,70.256775,11.845123,-148.69519,,,
729600669.313882,-0.8212,1.54865,-8.856895,-0.031082,-0.007477,1.011475,-0.004584,0.017376,-0.01494,70.256775,11.845123,-148.69519,,,
729600669.317199,-0.822089,1.553097,-8.860202,-0.031082,-0.007477,1.011475,-0.004584,0.017376,-0.01494,70.256775,11.845123,-148.69519,,,
729600669.320479,-0.821323,1.5584,-8.861987,-0.034958,-0.006485,1.01297,0.000939,0.021681,-0.004222,70.256775,11.845123,-148.69519,,,
729600669.323827,-0.821323,1.5584,-8.861987,-0.034958,-0.006485,1.01297,0.000939,0.021681,-0.004222,70.256775,11.845123,-148.69519,,,
729600669.327209,-0.821406,1.563548,-8.862393,-0.034958,-0.006485,1.01297,0.000939,0.021681,-0.004222,70.256775,11.845123,-148.69519,,,
729600669.330485,-0.82117,1.56879,-8.861902,-0.042618,-0.005188,1.002472,-0.001049,0.013656,0.001823,70.256775,11.845123,-148.69519,,,
729600669.333864,-0.82117,1.56879,-8.861902,-0.042618,-0.005188,1.002472,-0.001049,0.013656,0.001823,70.469482,11.716385,-148.606613,,,
729600669.337143,-0.821667,1.570858,-8.860736,-0.042618,-0.005188,1.002472,-0.001049,0.013656,0.001823,70.469482,11.716385,-148.606613,,,
729600669.34048,-0.82241,1.573023,-8.858928,-0.044968,-0.007843,0.995529,-0.006653,0.004911,0.006054,70.469482,11.716385,-148.606613,,,
729600669.34382,-0.82241,1.573023,-8.858928,-0.044968,-0.007843,0.995529,-0.006653,0.004911,0.006054,70.469482,11.716385,-148.606613,,,
729600669.347155,-0.824101,1.572843,-8.856226,-0.044968,-0.007843,0.995529,-0.006653,0.004911,0.006054,70.469482,11.716385,-148.606613,,,
729600669.350518,-0.824077,1.571551,-8.852051,-0.04808,-0.006516,0.999619,-0.0037,-0.006095,0.016396,70.469482,11.716385,-148.606613,,,
729600669.353808,-0.824077,1.571551,-8.852051,-0.04808,-0.006516,0.999619,-0.0037,-0.006095,0.016396,70.469482,11.716385,-148.606613,,,
729600669.357161,-0.824627,1.567963,-8.846428,-0.04808,-0.006516,0.999619,-0.0037,-0.006095,0.016396,70.469482,11.716385,-148.606613,,,
729600669.360476,-0.822697,1.561985,-8.840088,-0.047714,-0.006958,0.998657,0.002857,-0.022189,0.021617,70.469482,11.716385,-148.606613,,,
729600669.363813,-0.822697,1.561985,-8.840088,-0.047714,-0.006958,0.998657,0.002857,-0.022189,0.021617,70.469482,11.716385,-148.606613,,,
729600669.36719,-0.821511,1.553881,-8.83367,-0.047714,-0.006958,0.998657,0.002857,-0.022189,0.021617,70.469482,11.716385,-148.606613,,,
729600669.370474,-0.818127,1.544335,-8.827557,-0.043381,-0.009094,1.001556,0.007622,-0.028438,0.019684,70.469482,11.716385,-148.606613,,,
729600669.373811,-0.818127,1.544335,-8.827557,-0.043381,-0.009094,1.001556,0.007622,-0.028438,0.019684,70.469482,11.716385,-148.606613,,,
729600669.377239,-0.815327,1.535055,-8.821438,-0.043381,-0.009094,1.001556,0.007622,-0.028438,0.019684,70.313263,11.761978,-148.654816,,,
729600669.380481,-0.809405,1.525416,-8.81539,-0.038773,-0.01004,1.006149,0.020686,-0.032372,0.019503,70.313263,11.761978,-148.654816,,,
729600669.383867,-0.809405,1.525416,-8.81539,-0.038773,-0.01004,1.006149,0.020686,-0.032372,0.019503,70.313263,11.761978,-148.654816,,,
729600669.387164,-0.803144,1.514933,-8.80968,-0.038773,-0.01004,1.006149,0.020686,-0.032372,0.019503,70.313263,11.761978,-148.654816,,,
729600669.390307,-0.803144,1.514933,-8.80968,-0.035522,-0.011673,1.007141,0.029318,-0.032876,0.023052,70.313263,11.761978,-148.654816,,,
729600669.393865,-0.794559,1.50523,-8.803487,-0.035522,-0.011673,1.007141,0.029318,-0.032876,0.023052,70.313263,11.761978,-148.654816,,,
729600669.397215,-0.785162,1.496393,-8.796788,-0.035522,-0.011673,1.007141,0.029318,-0.032876,0.023052,70.313263,11.761978,-148.654816,,,
729600669.400519,-0.772108,1.492609,-8.790172,-0.030457,-0.011765,1.009827,0.044621,-0.011477,0.022699,70.313263,11.761978,-148.654816,,,
729600669.403814,-0.772108,1.492609,-8.790172,-0.030457,-0.011765,1.009827,0.044621,-0.011477,0.022699,70.313263,11.761978,-148.654816,,,
729600669.407147,-0.75822,1.489856,-8.78312,-0.030457,-0.011765,1.009827,0.044621,-0.011477,0.022699,70.313263,11.761978,-148.654816,,,
729600669.410566,-0.742848,1.492123,-8.775403,-0.025986,-0.011398,1.011154,0.047024,0.003559,0.027133,70.313263,11.761978,-148.654816,,,
729600669.413873,-0.742848,1.492123,-8.775403,-0.025986,-0.011398,1.011154,0.047024,0.003559,0.027133,70.313263,11.761978,-148.654816,,,
729600669.417209,-0.729506,1.492719,-8.766839,-0.025986,-0.011398,1.011154,0.047024,0.003559,0.027133,70.277023,11.475266,-148.672272,,,
729600669.420485,-0.716762,1.498293,-8.7578,-0.027969,-0.009735,0.997543,0.035832,0.015185,0.029821,70.277023,11.475266,-148.672272,,,
729600669.423841,-0.716762,1.498293,-8.7578,-0.027969,-0.009735,0.997543,0.035832,0.015185,0.029821,70.277023,11.475266,-148.672272,,,
729600669.427245,-0.707869,1.502014,-8.749289,-0.027969,-0.009735,0.997543,0.035832,0.015185,0.029821,70.277023,11.475266,-148.672272,,,
729600669.430475,-0.707869,1.502014,-8.749289,-0.027603,-0.00325,0.989594,0.016978,0.018305,0.02823,70.277023,11.475266,-148.672272,,,
729600669.433747,-0.700797,1.509692,-8.740888,-0.027603,-0.00325,0.989594,0.016978,0.018305,0.02823,70.277023,11.475266,-148.672272,,,
729600669.437217,-0.696595,1.513769,-8.73236,-0.027603,-0.00325,0.989594,0.016978,0.018305,0.02823,70.277023,11.475266,-148.672272,,,
729600669.440544,-0.693503,1.519811,-8.723952,-0.027771,-0.002701,0.983749,0.003944,0.009446,0.026803,70.277023,11.475266,-148.672272,,,
729600669.443851,-0.693503,1.519811,-8.723952,-0.027771,-0.002701,0.983749,0.003944,0.009446,0.026803,70.277023,11.475266,-148.672272,,,
729600669.447147,-0.692788,1.521125,-8.715723,-0.027771,-0.002701,0.983749,0.003944,0.009446,0.026803,70.277023,11.475266,-148.672272,,,
729600669.450541,-0.692788,1.521125,-8.707704,-0.029968,-0.005478,0.983459,7e-05,0.004606,0.025028,70.277023,11.475266,-148.672272,,,
729600669.453815,-0.692225,1.524157,-8.707704,-0.029968,-0.005478,0.983459,7e-05,0.004606,0.025028,70.277023,11.475266,-148.672272,,,
729600669.457148,-0.69155,1.524831,-8.700382,-0.029968,-0.005478,0.983459,7e-05,0.004606,0.025028,70.366501,11.556961,-148.572418,,,
729600669.460477,-0.69155,1.524831,-8.700382,-0.03064,-0.01059,0.994446,0.007818,0.002679,0.019111,70.366501,11.556961,-148.572418,,,
729600669.463877,-0.689603,1.526917,-8.693921,-0.03064,-0.01059,0.994446,0.007818,0.002679,0.019111,70.366501,11.556961,-148.572418,,,
729600669.467195,-0.686606,1.525454,-8.688454,-0.03064,-0.01059,0.994446,0.007818,0.002679,0.019111,70.366501,11.556961,-148.572418,,,
729600669.470472,-0.686606,1.525454,-8.688454,-0.030228,-0.011551,0.991669,0.013047,-0.021633,0.018596,70.366501,11.556961,-148.572418,,,
729600669.473808,-0.682802,1.521639,-8.683069,-0.030228,-0.011551,0.991669,0.013047,-0.021633,0.018596,70.366501,11.556961,-148.572418,,,
729600669.47725,-0.679036,1.512507,-8.677952,-0.030228,-0.011551,0.991669,0.013047,-0.021633,0.018596,70.366501,11.556961,-148.572418,,,
729600669.480508,-0.679036,1.512507,-8.677952,-0.034866,-0.012344,0.985489,0.010637,-0.044304,0.013041,70.366501,11.556961,-148.572418,,,
729600669.48391,-0.67564,1.500324,-8.67362,-0.034866,-0.012344,0.985489,0.010637,-0.044304,0.013041,70.366501,11.556961,-148.572418,,,
729600669.487165,-0.673138,1.486586,-8.669559,-0.034866,-0.012344,0.985489,0.010637,-0.044304,0.013041,70.366501,11.556961,-148.572418,,,
729600669.490577,-0.673138,1.486586,-8.669559,-0.037415,-0.012039,0.984589,-0.000887,-0.04063,0.016439,70.366501,11.556961,-148.572418,,,
729600669.49383,-0.672141,1.47342,-8.664974,-0.037415,-0.012039,0.984589,-0.000887,-0.04063,0.016439,70.366501,11.556961,-148.572418,,,
729600669.497178,-0.673272,1.462308,-8.659315,-0.037415,-0.012039,0.984589,-0.000887,-0.04063,0.016439,70.387527,11.548874,-148.863861,,,
729600669.500511,-0.673272,1.462308,-8.659315,-0.037552,-0.01387,0.986923,-0.012579,-0.023121,0.025878,70.387527,11.548874,-148.863861,,,
729600669.503816,-0.675432,1.454165,-8.652251,-0.037552,-0.01387,0.986923,-0.012579,-0.023121,0.025878,70.387527,11.548874,-148.863861,,,
729600669.507146,-0.67903,1.448368,-8.643454,-0.037552,-0.01387,0.986923,-0.012579,-0.023121,0.025878,70.387527,11.548874,-148.863861,,,
729600669.510474,-0.67903,1.448368,-8.643454,-0.029449,-0.014099,0.995758,-0.017497,0.001666,0.037738,70.387527,11.548874,-148.863861,,,
729600669.513822,-0.681791,1.446544,-8.632931,-0.029449,-0.014099,0.995758,-0.017497,0.001666,0.037738,70.387527,11.548874,-148.863861,,,
729600669.517196,-0.687483,1.449256,-8.621051,-0.029449,-0.014099,0.995758,-0.017497,0.001666,0.037738,70.387527,11.548874,-148.863861,,,
729600669.520535,-0.687483,1.449256,-8.621051,-0.025223,-0.016266,1.003845,-0.021712,0.04111,0.045716,70.387527,11.548874,-148.863861,,,
729600669.523837,-0.692402,1.458228,-8.608004,-0.025223,-0.016266,1.003845,-0.021712,0.04111,0.045716,70.387527,11.548874,-148.863861,,,
729600669.527234,-0.698249,1.470974,-8.593891,-0.025223,-0.016266,1.003845,-0.021712,0.04111,0.045716,70.387527,11.548874,-148.863861,,,
729600669.530479,-0.698249,1.470974,-8.593891,-0.025223,-0.016266,1.003845,-0.021712,0.04111,0.045716,70.387527,11.548874,-148.863861,,,
729600669.533871,-0.702636,1.486729,-8.579159,-0.023911,-0.017151,1.007492,-0.016886,0.055549,0.050087,70.387527,11.548874,-148.863861,,,
729600669.537239,-0.707498,1.501947,-8.564413,-0.023911,-0.017151,1.007492,-0.016886,0.055549,0.050087,70.387527,11.548874,-148.863861,,,
729600669.540532,-0.707498,1.501947,-8.564413,-0.023911,-0.017151,1.007492,-0.015094,0.048793,0.046999,70.148514,11.527847,-148.528748,,,
729600669.543816,-0.711909,1.516778,-8.550109,-0.022186,-0.017776,0.998749,-0.015094,0.048793,0.046999,70.148514,11.527847,-148.528748,,,
729600669.547145,-0.716629,1.529161,-8.536641,-0.022186,-0.017776,0.998749,-0.015094,0.048793,0.046999,70.148514,11.527847,-148.528748,,,
729600669.550501,-0.716629,1.529161,-8.536641,-0.022186,-0.017776,0.998749,-0.01685,0.037112,0.042714,70.148514,11.527847,-148.528748,,,
729600669.553829,-0.721566,1.540848,-8.523778,-0.026855,-0.017975,0.994141,-0.01685,0.037112,0.042714,70.148514,11.527847,-148.528748,,,
729600669.557142,-0.72646,1.549484,-8.511463,-0.026855,-0.017975,0.994141,-0.01685,0.037112,0.042714,70.148514,11.527847,-148.528748,,,
729600669.5605,-0.72646,1.549484,-8.511463,-0.026855,-0.017975,0.994141,-0.01685,0.037112,0.042714,70.148514,11.527847,-148.528748,,,
729600669.563869,-0.731918,1.557258,-8.499735,-0.022614,-0.015244,0.989807,-0.021619,0.020453,0.038405,70.148514,11.527847,-148.528748,,,
729600669.567182,-0.737824,1.560345,-8.488371,-0.022614,-0.015244,0.989807,-0.021619,0.020453,0.038405,70.148514,11.527847,-148.528748,,,
729600669.570474,-0.737824,1.560345,-8.488371,-0.022614,-0.015244,0.989807,-0.021619,0.020453,0.038405,70.148514,11.527847,-148.528748,,,
729600669.573821,-0.743016,1.562106,-8.477899,-0.018997,-0.012634,0.985947,-0.01678,-0.001811,0.032089,70.148514,11.527847,-148.528748,,,
729600669.577143,-0.746993,1.560752,-8.468322,-0.018997,-0.012634,0.985947,-0.01678,-0.001811,0.032089,70.148514,11.527847,-148.528748,,,
729600669.580492,-0.746993,1.560752,-8.468322,-0.018997,-0.012634,0.985947,-0.01678,-0.001811,0.032089,70.243454,11.41597,-148.311417,,,
729600669.583865,-0.749454,1.561125,-8.459519,-0.011337,-0.012589,0.992081,-0.005236,-0.000253,0.026766,70.243454,11.41597,-148.311417,,,
729600669.58714,-0.750173,1.560091,-8.452513,-0.011337,-0.012589,0.992081,-0.005236,-0.000253,0.026766,70.243454,11.41597,-148.311417,,,
729600669.590556,-0.750173,1.560091,-8.452513,-0.011337,-0.012589,0.992081,-0.005236,-0.000253,0.026766,70.243454,11.41597,-148.311417,,,
729600669.59383,-0.750703,1.559256,-8.446684,-0.005341,-0.010513,0.998581,-0.001369,0.002272,0.018648,70.243454,11.41597,-148.311417,,,
729600669.597154,-0.750945,1.559687,-8.441185,-0.005341,-0.010513,0.998581,-0.001369,0.002272,0.018648,70.243454,11.41597,-148.311417,,,
729600669.600591,-0.750945,1.559687,-8.441185,-0.005341,-0.010513,0.998581,-0.001369,0.002272,0.018648,70.243454,11.41597,-148.311417,,,
729600669.603801,-0.752816,1.560715,-8.43596,-0.007904,-0.010132,0.991989,-0.009056,0.009642,0.016531,70.243454,11.41597,-148.311417,,,
729600669.607153,-0.755477,1.563444,-8.430178,-0.007904,-0.010132,0.991989,-0.009056,0.009642,0.016531,70.243454,11.41597,-148.311417,,,
729600669.610561,-0.755477,1.563444,-8.430178,-0.007904,-0.010132,0.991989,-0.009056,0.009642,0.016531,70.243454,11.41597,-148.311417,,,
729600669.613861,-0.759037,1.566731,-8.423941,-0.010483,-0.0103,0.994171,-0.011319,0.018193,0.019647,70.243454,11.41597,-148.311417,,,
729600669.617188,-0.763026,1.571362,-8.417539,-0.010483,-0.0103,0.994171,-0.011319,0.018193,0.019647,70.243454,11.41597,-148.311417,,,
729600669.620539,-0.763026,1.571362,-8.417539,-0.010483,-0.0103,0.994171,-0.011319,0.018193,0.019647,70.194382,11.749176,-148.540527,,,
729600669.623821,-0.769144,1.575649,-8.410975,-0.008942,-0.011948,0.993912,-0.020836,0.019599,0.020551,70.194382,11.749176,-148.540527,,,
729600669.627152,-0.775194,1.58067,-8.404901,-0.008942,-0.011948,0.993912,-0.020836,0.019599,0.020551,70.194382,11.749176,-148.540527,,,
729600669.630538,-0.775194,1.58067,-8.404901,-0.008942,-0.011948,0.993912,-0.020836,0.019599,0.020551,70.194382,11.749176,-148.540527,,,
729600669.633872,-0.782298,1.585763,-8.399886,-0.010681,-0.014435,0.991745,-0.023702,0.020934,0.013101,70.194382,11.749176,-148.540527,,,
729600669.637143,-0.789044,1.590271,-8.396652,-0.010681,-0.014435,0.991745,-0.023702,0.020934,0.013101,70.194382,11.749176,-148.540527,,,
729600669.640614,-0.789044,1.590271,-8.396652,-0.010681,-0.014435,0.991745,-0.023702,0.020934,0.013101,70.194382,11.749176,-148.540527,,,
729600669.643811,-0.795063,1.592101,-8.395215,-0.012726,-0.011612,0.996765,-0.018312,0.009402,0.000794,70.194382,11.749176,-148.540527,,,
729600669.647148,-0.800308,1.592022,-8.394109,-0.012726,-0.011612,0.996765,-0.018312,0.009402,0.000794,70.194382,11.749176,-148.540527,,,
729600669.650601,-0.800308,1.592022,-8.394109,-0.012726,-0.011612,0.996765,-0.018312,0.009402,0.000794,70.194382,11.749176,-148.540527,,,
729600669.653799,-0.805025,1.586235,-8.393357,-0.020325,-0.014633,0.995209,-0.015696,-0.017109,-0.001406,70.194382,11.749176,-148.540527,,,
729600669.657169,-0.809199,1.578531,-8.392914,-0.020325,-0.014633,0.995209,-0.015696,-0.017109,-0.001406,70.194382,11.749176,-148.540527,,,
729600669.660475,-0.809199,1.578531,-8.392914,-0.020325,-0.014633,0.995209,-0.015696,-0.017109,-0.001406,70.25676,11.654709,-148.041672,,,
729600669.663872,-0.811579,1.564361,-8.392407,-0.026886,-0.015549,0.995865,-0.004919,-0.040236,-0.000291,70.25676,11.654709,-148.041672,,,
729600669.66719,-0.812907,1.550985,-8.391948,-0.026886,-0.015549,0.995865,-0.004919,-0.040236,-0.000291,70.25676,11.654709,-148.041672,,,
729600669.670517,-0.812907,1.550985,-8.391948,-0.026886,-0.015549,0.995865,-0.004919,-0.040236,-0.000291,70.25676,11.654709,-148.041672,,,
729600669.673819,-0.812684,1.532785,-8.391542,-0.030624,-0.019135,1.004227,0.001774,-0.050295,-0.000157,70.25676,11.654709,-148.041672,,,
729600669.677149,-0.811945,1.516976,-8.391895,-0.030624,-0.019135,1.004227,0.001774,-0.050295,-0.000157,70.25676,11.654709,-148.041672,,,
729600669.680496,-0.811945,1.516976,-8.391895,-0.030624,-0.019135,1.004227,0.001774,-0.050295,-0.000157,70.25676,11.654709,-148.041672,,,
729600669.683862,-0.810007,1.498786,-8.392941,-0.029312,-0.023376,1.008087,0.00647,-0.047958,-0.004597,70.25676,11.654709,-148.041672,,,
729600669.687201,-0.807865,1.485607,-8.393934,-0.029312,-0.023376,1.008087,0.00647,-0.047958,-0.004597,70.25676,11.654709,-148.041672,,,
729600669.690503,-0.807865,1.485607,-8.393934,-0.029312,-0.023376,1.008087,0.00647,-0.047958,-0.004597,70.25676,11.654709,-148.041672,,,
729600669.693848,-0.804128,1.473283,-8.395017,-0.024689,-0.021255,1.007996,0.01387,-0.024164,-0.004802,70.25676,11.654709,-148.041672,,,
729600669.697152,-0.800109,1.46684,-8.396206,-0.024689,-0.021255,1.007996,0.01387,-0.024164,-0.004802,70.25676,11.654709,-148.041672,,,
729600669.700569,-0.800109,1.46684,-8.396206,-0.024689,-0.021255,1.007996,0.01387,-0.024164,-0.004802,70.25676,11.654709,-148.041672,,,
729600669.703831,-0.795551,1.460918,-8.396576,-0.023224,-0.01947,1.010452,0.016642,-0.003144,0.001164,70.142303,11.684067,-148.615051,,,
729600669.707146,-0.791218,1.461422,-8.394856,-0.023224,-0.01947,1.010452,0.016642,-0.003144,0.001164,70.142303,11.684067,-148.615051,,,
729600669.7105,-0.791218,1.461422,-8.394856,-0.023224,-0.01947,1.010452,0.016642,-0.003144,0.001164,70.142303,11.684067,-148.615051,,,
729600669.713869,-0.786924,1.463654,-8.3914,-0.024323,-0.020187,1.006561,0.015642,0.025758,0.013521,70.142303,11.684067,-148.615051,,,
729600669.717193,-0.783019,1.471779,-8.386673,-0.024323,-0.020187,1.006561,0.015642,0.025758,0.013521,70.142303,11.684067,-148.615051,,,
729600669.720478,-0.783019,1.471779,-8.386673,-0.024323,-0.020187,1.006561,0.015642,0.025758,0.013521,70.142303,11.684067,-148.615051,,,
729600669.723827,-0.779496,1.480111,-8.380911,-0.026581,-0.018448,1.000275,0.010675,0.039346,0.020767,70.142303,11.684067,-148.615051,,,
729600669.727143,-0.776895,1.491111,-8.373947,-0.026581,-0.018448,1.000275,0.010675,0.039346,0.020767,70.142303,11.684067,-148.615051,,,
729600669.730482,-0.776895,1.491111,-8.373947,-0.026581,-0.018448,1.000275,0.010675,0.039346,0.020767,70.142303,11.684067,-148.615051,,,
729600669.7339,-0.775041,1.501606,-8.366102,-0.02832,-0.014465,0.993652,0.007346,0.038109,0.026846,70.142303,11.684067,-148.615051,,,
729600669.737169,-0.773481,1.510627,-8.35904,-0.02832,-0.014465,0.993652,0.007346,0.038109,0.026846,70.142303,11.684067,-148.615051,,,
729600669.740579,-0.773481,1.510627,-8.35904,-0.02832,-0.014465,0.993652,0.007346,0.038109,0.026846,70.142303,11.684067,-148.615051,,,
729600669.743822,-0.772647,1.517306,-8.353899,-0.025452,-0.011108,0.986206,0.004971,0.020421,0.013369,70.365005,11.92128,-148.373398,,,
729600669.747151,-0.771464,1.520109,-8.350773,-0.025452,-0.011108,0.986206,0.004971,0.020421,0.013369,70.365005,11.92128,-148.373398,,,
729600669.750541,-0.771464,1.520109,-8.350773,-0.025452,-0.011108,0.986206,0.004971,0.020421,0.013369,70.365005,11.92128,-148.373398,,,
729600669.753811,-0.771493,1.519536,-8.34947,-0.024704,-0.00946,0.985931,0.005735,-0.007299,0.000613,70.365005,11.92128,-148.373398,,,
729600669.75716,-0.770126,1.514042,-8.348675,-0.024704,-0.00946,0.985931,0.005735,-0.007299,0.000613,70.365005,11.92128,-148.373398,,,
729600669.760484,-0.770126,1.514042,-8.348675,-0.024704,-0.00946,0.985931,0.005735,-0.007299,0.000613,70.365005,11.92128,-148.373398,,,
729600669.763877,-0.770431,1.504245,-8.347444,-0.03212,-0.012924,0.982162,0.003559,-0.038855,0.003568,70.365005,11.92128,-148.373398,,,
729600669.767187,-0.769804,1.490442,-8.345979,-0.03212,-0.012924,0.982162,0.003559,-0.038855,0.003568,70.365005,11.92128,-148.373398,,,
729600669.770477,-0.769804,1.490442,-8.345979,-0.03212,-0.012924,0.982162,0.003559,-0.038855,0.003568,70.365005,11.92128,-148.373398,,,
729600669.773827,-0.770825,1.474977,-8.345142,-0.033661,-0.014618,0.984528,-0.000286,-0.047065,-0.000946,70.365005,11.92128,-148.373398,,,
729600669.777148,-0.771796,1.462111,-8.344865,-0.033661,-0.014618,0.984528,-0.000286,-0.047065,-0.000946,70.365005,11.92128,-148.373398,,,
729600669.780495,-0.771796,1.462111,-8.344865,-0.033661,-0.014618,0.984528,-0.000286,-0.047065,-0.000946,70.365005,11.92128,-148.373398,,,
729600669.783857,-0.774343,1.452632,-8.344055,-0.024323,-0.015137,0.995422,-0.004972,-0.021394,0.002681,70.359177,11.528091,-148.170975,,,
729600669.787155,-0.776462,1.447027,-8.342937,-0.024323,-0.015137,0.995422,-0.004972,-0.021394,0.002681,70.359177,11.528091,-148.170975,,,
729600669.790569,-0.776462,1.447027,-8.342937,-0.024323,-0.015137,0.995422,-0.004972,-0.021394,0.002681,70.359177,11.528091,-148.170975,,,
729600669.793828,-0.780649,1.445264,-8.34163,-0.019135,-0.017624,0.999222,-0.012603,0.00556,0.003813,70.359177,11.528091,-148.170975,,,
729600669.797144,-0.786121,1.448141,-8.339339,-0.019135,-0.017624,0.999222,-0.012603,0.00556,0.003813,70.359177,11.528091,-148.170975,,,
729600669.800556,-0.786121,1.448141,-8.339339,-0.019135,-0.017624,0.999222,-0.012603,0.00556,0.003813,70.359177,11.528091,-148.170975,,,
729600669.803807,-0.795292,1.455247,-8.335564,-0.022888,-0.014816,0.995407,-0.034722,0.032518,0.013596,70.359177,11.528091,-148.170975,,,
729600669.807141,-0.805789,1.464686,-8.330451,-0.022888,-0.014816,0.995407,-0.034722,0.032518,0.013596,70.359177,11.528091,-148.170975,,,
729600669.810489,-0.805789,1.464686,-8.330451,-0.022888,-0.014816,0.995407,-0.034722,0.032518,0.013596,70.359177,11.528091,-148.170975,,,
729600669.813868,-0.816749,1.475843,-8.324333,-0.025436,-0.011978,0.994583,-0.038737,0.042057,0.020404,70.359177,11.528091,-148.170975,,,
729600669.817187,-0.827107,1.486365,-8.3179,-0.025436,-0.011978,0.994583,-0.038737,0.042057,0.020404,70.359177,11.528091,-148.170975,,,
729600669.820473,-0.827107,1.486365,-8.3179,-0.025436,-0.011978,0.994583,-0.038737,0.042057,0.020404,70.359177,11.528091,-148.170975,,,
729600669.823821,-0.834818,1.494648,-8.311756,-0.022919,-0.014313,0.997192,-0.025813,0.027774,0.018727,70.077332,11.682343,-148.577698,,,
729600669.827143,-0.841134,1.500575,-8.30668,-0.022919,-0.014313,0.997192,-0.025813,0.027774,0.018727,70.077332,11.682343,-148.577698,,,
729600669.830756,-0.841134,1.500575,-8.30668,-0.022919,-0.014313,0.997192,-0.025813,0.027774,0.018727,70.077332,11.682343,-148.577698,,,
729600669.833888,-0.844295,1.504038,-8.303178,-0.024536,-0.02005,1.002457,-0.008022,0.009332,0.008189,70.077332,11.682343,-148.577698,,,
729600669.837162,-0.845454,1.504518,-8.301129,-0.024536,-0.02005,1.002457,-0.008022,0.009332,0.008189,70.077332,11.682343,-148.577698,,,
729600669.840499,-0.845454,1.504518,-8.301129,-0.024536,-0.02005,1.002457,-0.008022,0.009332,0.008189,70.077332,11.682343,-148.577698,,,
729600669.843839,-0.844739,1.503095,-8.300388,-0.027725,-0.020737,1.002945,0.00556,-0.012586,-0.000697,70.077332,11.682343,-148.577698,,,
729600669.847142,-0.843756,1.496726,-8.300382,-0.027725,-0.020737,1.002945,0.00556,-0.012586,-0.000697,70.077332,11.682343,-148.577698,,,
729600669.850556,-0.843756,1.496726,-8.300382,-0.027725,-0.020737,1.002945,0.00556,-0.012586,-0.000697,70.077332,11.682343,-148.577698,,,
729600669.853837,-0.843491,1.488083,-8.300153,-0.028824,-0.019897,0.997833,0.000664,-0.034413,0.000646,70.077332,11.682343,-148.577698,,,
729600669.857153,-0.843514,1.476575,-8.299564,-0.028824,-0.019897,0.997833,0.000664,-0.034413,0.000646,70.077332,11.682343,-148.577698,,,
729600669.860497,-0.843514,1.476575,-8.299564,-0.028824,-0.019897,0.997833,0.000664,-0.034413,0.000646,70.077332,11.682343,-148.577698,,,
729600669.86388,-0.845197,1.463388,-8.298491,-0.024841,-0.019287,0.994568,-0.008943,-0.040117,0.003815,70.077332,11.682343,-148.577698,,,
729600669.867186,-0.848755,1.451317,-8.297069,-0.024841,-0.019287,0.994568,-0.008943,-0.040117,0.003815,70.170151,11.790955,-148.430145,,,
729600669.870474,-0.848755,1.451317,-8.297069,-0.024841,-0.019287,0.994568,-0.008943,-0.040117,0.003815,70.170151,11.790955,-148.430145,,,
729600669.873835,-0.854318,1.439843,-8.296218,-0.017731,-0.014755,0.994095,-0.020039,-0.030159,-0.000402,70.170151,11.790955,-148.430145,,,
729600669.876983,-0.860599,1.431858,-8.296037,-0.017731,-0.014755,0.994095,-0.020039,-0.030159,-0.000402,70.170151,11.790955,-148.430145,,,
729600669.880518,-0.860599,1.431858,-8.296037,-0.017731,-0.014755,0.994095,-0.020039,-0.030159,-0.000402,70.170151,11.790955,-148.430145,,,
729600669.883942,-0.866853,1.427411,-8.296094,-0.013168,-0.013657,0.997528,-0.021933,-0.004294,-0.002082,70.170151,11.790955,-148.430145,,,
729600669.887136,-0.873097,1.428091,-8.296497,-0.013168,-0.013657,0.997528,-0.021933,-0.004294,-0.002082,70.170151,11.790955,-148.430145,,,
729600669.890585,-0.873097,1.428091,-8.296497,-0.013168,-0.013657,0.997528,-0.021933,-0.004294,-0.002082,70.170151,11.790955,-148.430145,,,
729600669.89383,-0.877934,1.434393,-8.297288,-0.011917,-0.015167,1.00386,-0.015013,0.034033,-0.004622,70.170151,11.790955,-148.430145,,,
729600669.896902,-0.881697,1.445585,-8.297603,-0.011917,-0.015167,1.00386,-0.015013,0.034033,-0.004622,70.170151,11.790955,-148.430145,,,
729600669.900572,-0.881697,1.445585,-8.297603,-0.011917,-0.015167,1.00386,-0.015013,0.034033,-0.004622,70.170151,11.790955,-148.430145,,,
729600669.903806,-0.88457,1.459947,-8.297683,-0.015244,-0.016617,1.010208,-0.007423,0.059344,-0.002795,70.170151,11.790955,-148.430145,,,
729600669.90716,-0.886089,1.477042,-8.297644,-0.015244,-0.016617,1.010208,-0.007423,0.059344,-0.002795,70.11821,11.753265,-148.239517,,,
729600669.910505,-0.886089,1.477042,-8.297644,-0.015244,-0.016617,1.010208,-0.007423,0.059344,-0.002795,70.11821,11.753265,-148.239517,,,
729600669.913818,-0.887294,1.495653,-8.296669,-0.024399,-0.016541,1.002792,0.000694,0.070423,0.003954,70.11821,11.753265,-148.239517,,,
729600669.917195,-0.887985,1.514866,-8.294327,-0.024399,-0.016541,1.002792,0.000694,0.070423,0.003954,70.11821,11.753265,-148.239517,,,
729600669.920473,-0.887985,1.514866,-8.294327,-0.024399,-0.016541,1.002792,0.000694,0.070423,0.003954,70.11821,11.753265,-148.239517,,,
729600669.923833,-0.890227,1.533149,-8.291044,-0.03157,-0.015381,0.99559,-0.005514,0.061489,0.010289,70.11821,11.753265,-148.239517,,,
729600669.927144,-0.892638,1.547997,-8.288039,-0.03157,-0.015381,0.99559,-0.005514,0.061489,0.010289,70.11821,11.753265,-148.239517,,,
729600669.930482,-0.892638,1.547997,-8.288039,-0.03157,-0.015381,0.99559,-0.005514,0.061489,0.010289,70.11821,11.753265,-148.239517,,,
729600669.933869,-0.896623,1.558884,-8.28566,-0.034927,-0.015533,0.987808,-0.010587,0.031911,0.005772,70.11821,11.753265,-148.239517,,,
729600669.937149,-0.900037,1.565226,-8.28377,-0.034927,-0.015533,0.987808,-0.010587,0.031911,0.005772,70.11821,11.753265,-148.239517,,,
729600669.940579,-0.900037,1.565226,-8.28377,-0.034927,-0.015533,0.987808,-0.010587,0.031911,0.005772,70.11821,11.753265,-148.239517,,,
729600669.943822,-0.904046,1.566611,-8.282247,-0.039276,-0.018448,0.986679,-0.01301,0.003283,0.003205,70.11821,11.753265,-148.239517,,,
729600669.947145,-0.907782,1.565157,-8.280733,-0.039276,-0.018448,0.986679,-0.01301,0.003283,0.003205,70.417206,11.821671,-148.371323,,,
729600669.950542,-0.907782,1.565157,-8.280733,-0.039276,-0.018448,0.986679,-0.01301,0.003283,0.003205,70.417206,11.821671,-148.371323,,,
729600669.953891,-0.910623,1.558757,-8.279431,-0.042252,-0.023209,0.994217,-0.008333,-0.019303,0.002025,70.417206,11.821671,-148.371323,,,
729600669.957158,-0.913008,1.550691,-8.278167,-0.042252,-0.023209,0.994217,-0.008333,-0.019303,0.002025,70.417206,11.821671,-148.371323,,,
729600669.960486,-0.913008,1.550691,-8.278167,-0.042252,-0.023209,0.994217,-0.008333,-0.019303,0.002025,70.417206,11.821671,-148.371323,,,
729600669.963822,-0.914252,1.537664,-8.277086,-0.035645,-0.023056,0.996246,-0.002585,-0.036372,0.00115,70.417206,11.821671,-148.371323,,,
729600669.967195,-0.915055,1.526736,-8.276954,-0.035645,-0.023056,0.996246,-0.002585,-0.036372,0.00115,70.417206,11.821671,-148.371323,,,
729600669.970479,-0.915055,1.526736,-8.276954,-0.035645,-0.023056,0.996246,-0.002585,-0.036372,0.00115,70.417206,11.821671,-148.371323,,,
729600669.973807,-0.915202,1.514307,-8.277319,-0.030533,-0.022903,1.000381,0.002092,-0.030929,-0.001954,70.417206,11.821671,-148.371323,,,
729600669.977151,-0.914851,1.505792,-8.277318,-0.030533,-0.022903,1.000381,0.002092,-0.030929,-0.001954,70.417206,11.821671,-148.371323,,,
729600669.980579,-0.914851,1.505792,-8.277318,-0.030533,-0.022903,1.000381,0.002092,-0.030929,-0.001954,70.417206,11.821671,-148.371323,,,
729600669.983891,-0.914346,1.499082,-8.276707,-0.029678,-0.021301,1.000412,0.003383,-0.009057,0.002518,70.417206,11.821671,-148.371323,,,
729600669.987223,-0.914045,1.497706,-8.2747,-0.029678,-0.021301,1.000412,0.003383,-0.009057,0.002518,70.417206,11.821671,-148.371323,,,
729600669.990535,-0.914045,1.497706,-8.2747,-0.029678,-0.021301,1.000412,0.003383,-0.009057,0.002518,70.401398,11.947281,-148.88858,,,
729600669.993895,-0.914323,1.500271,-8.270896,-0.031281,-0.018539,1.001511,-0.000943,0.016359,0.01495,70.401398,11.947281,-148.88858,,,
729600669.997136,-0.914712,1.505198,-8.265526,-0.031281,-0.018539,1.001511,-0.000943,0.016359,0.01495,70.401398,11.947281,-148.88858,,,
729600670.000535,-0.914712,1.505198,-8.265526,-0.031281,-0.018539,1.001511,-0.000943,0.016359,0.01495,70.401398,11.947281,-148.88858,,,
729600670.003814,-0.914428,1.512869,-8.258414,-0.033249,-0.01593,0.998825,0.001826,0.02652,0.02704,70.401398,11.947281,-148.88858,,,
729600670.007164,-0.914524,1.520515,-8.249821,-0.033249,-0.01593,0.998825,0.001826,0.02652,0.02704,70.401398,11.947281,-148.88858,,,
729600670.010478,-0.914524,1.520515,-8.249821,-0.033249,-0.01593,0.998825,0.001826,0.02652,0.02704,70.401398,11.947281,-148.88858,,,
729600670.013841,-0.915674,1.530935,-8.240977,-0.027069,-0.011566,0.994308,-0.005325,0.034846,0.028493,70.401398,11.947281,-148.88858,,,
729600670.017195,-0.917814,1.539264,-8.232673,-0.027069,-0.011566,0.994308,-0.005325,0.034846,0.028493,70.401398,11.947281,-148.88858,,,
729600670.020483,-0.917814,1.539264,-8.232673,-0.027069,-0.011566,0.994308,-0.005325,0.034846,0.028493,70.401398,11.947281,-148.88858,,,
729600670.023845,-0.921999,1.548356,-8.225094,-0.023422,-0.006805,0.990402,-0.01457,0.022994,0.02294,70.401398,11.947281,-148.88858,,,
729600670.027137,-0.926587,1.553207,-8.218372,-0.023422,-0.006805,0.990402,-0.01457,0.022994,0.02294,70.401398,11.947281,-148.88858,,,
729600670.030576,-0.926587,1.553207,-8.218372,-0.023422,-0.006805,0.990402,-0.01457,0.022994,0.02294,70.380768,11.879883,-148.685074,,,
729600670.033859,-0.934405,1.558876,-8.212937,-0.025009,-0.00766,0.985199,-0.027395,0.013197,0.013408,70.380768,11.879883,-148.685074,,,
729600670.037174,-0.94213,1.560357,-8.208438,-0.025009,-0.00766,0.985199,-0.027395,0.013197,0.013408,70.380768,11.879883,-148.685074,,,
729600670.040494,-0.94213,1.560357,-8.208438,-0.025009,-0.00766,0.985199,-0.027395,0.013197,0.013408,70.380768,11.879883,-148.685074,,,
729600670.043883,-0.950195,1.560036,-8.203957,-0.021164,-0.010132,0.985123,-0.022801,-0.005914,0.013271,70.380768,11.879883,-148.685074,,,
729600670.047138,-0.956167,1.556577,-8.199819,-0.021164,-0.010132,0.985123,-0.022801,-0.005914,0.013271,70.380768,11.879883,-148.685074,,,
729600670.05054,-0.956167,1.556577,-8.199819,-0.021164,-0.010132,0.985123,-0.022801,-0.005914,0.013271,70.380768,11.879883,-148.685074,,,
729600670.053839,-0.961285,1.552408,-8.196211,-0.017395,-0.010269,0.992294,-0.010452,-0.013378,0.009891,70.380768,11.879883,-148.685074,,,
729600670.057144,-0.963809,1.547771,-8.193404,-0.017395,-0.010269,0.992294,-0.010452,-0.013378,0.009891,70.380768,11.879883,-148.685074,,,
