Time (sec),Pitch (deg),Roll (deg),Yaw(deg),X-Acceleration (g),Y-Acceleration (g),Z-Acceleration (g),Pitch Rate (deg/sec),Roll Rate (deg/sec),Yaw Rate (deg/sec),Magnetic Field in X direction (uT),Magnetic Field in Y direction (uT),Magnetic Field in Z Direction (uT),Latitude (deg),Longitude (deg),Altitude (m)
729606309.325037,0.716634,-2.657874,48.159416,0.061981,0.022385,0.994186,-0.012733,0.015143,0.042092,59.915878,20.361725,-149.900177,,,
729606309.328398,0.716634,-2.657874,48.159416,0.061981,0.022385,0.994186,-0.012733,0.015143,0.042092,59.915878,20.361725,-149.900177,,,
729606309.33173,0.714182,-2.650085,48.168474,0.061981,0.022385,0.994186,-0.017861,0.027627,0.031821,59.915878,20.361725,-149.900177,,,
729606309.335037,0.707446,-2.643982,48.175673,0.059769,0.020905,0.998581,-0.017861,0.027627,0.031821,59.915878,20.361725,-149.900177,,,
729606309.338395,0.707446,-2.643982,48.175673,0.059769,0.020905,0.998581,-0.017861,0.027627,0.031821,59.915878,20.361725,-149.900177,,,
729606309.341758,0.703474,-2.638605,48.181477,0.059769,0.020905,0.998581,-0.025281,0.020481,0.017558,59.915878,20.361725,-149.900177,,,
729606309.345031,0.694452,-2.634499,48.185869,0.052765,0.016403,0.99498,-0.025281,0.020481,0.017558,60.105209,20.626694,-149.922653,,,
729606309.348445,0.694452,-2.634499,48.185869,0.052765,0.016403,0.99498,-0.025281,0.020481,0.017558,60.105209,20.626694,-149.922653,,,
729606309.351694,0.686371,-2.630273,48.189089,0.052765,0.016403,0.99498,-0.03914,0.014624,0.01284,60.105209,20.626694,-149.922653,,,
729606309.355035,0.673711,-2.625873,48.192256,0.047058,0.009415,0.994125,-0.03914,0.014624,0.01284,60.105209,20.626694,-149.922653,,,
729606309.358389,0.673711,-2.625873,48.192256,0.047058,0.009415,0.994125,-0.03914,0.014624,0.01284,60.105209,20.626694,-149.922653,,,
729606309.361781,0.661233,-2.621842,48.19606,0.047058,0.009415,0.994125,-0.049442,0.017678,0.014874,60.105209,20.626694,-149.922653,,,
729606309.365023,0.645628,-2.620006,48.200672,0.042313,0.006393,0.997711,-0.049442,0.017678,0.014874,60.105209,20.626694,-149.922653,,,
729606309.368367,0.645628,-2.620006,48.200672,0.042313,0.006393,0.997711,-0.049442,0.017678,0.014874,60.105209,20.626694,-149.922653,,,
729606309.371723,0.631308,-2.622848,48.205998,0.042313,0.006393,0.997711,-0.056437,0.001876,0.020504,60.105209,20.626694,-149.922653,,,
729606309.375027,0.616595,-2.626396,48.211206,0.041748,0.006119,0.999451,-0.056437,0.001876,0.020504,60.105209,20.626694,-149.922653,,,
729606309.378407,0.616595,-2.626396,48.211206,0.041748,0.006119,0.999451,-0.056437,0.001876,0.020504,60.105209,20.626694,-149.922653,,,
729606309.381709,0.604216,-2.634891,48.215467,0.041748,0.006119,0.999451,-0.045096,-0.013243,0.012497,60.105209,20.626694,-149.922653,,,
729606309.38503,0.592702,-2.641421,48.217436,0.047958,0.005112,1.009399,-0.045096,-0.013243,0.012497,60.12912,20.548004,-149.960083,,,
729606309.388451,0.592702,-2.641421,48.217436,0.047958,0.005112,1.009399,-0.045096,-0.013243,0.012497,60.12912,20.548004,-149.960083,,,
729606309.391718,0.583201,-2.654605,48.216587,0.047958,0.005112,1.009399,-0.035393,-0.026035,-0.000432,60.12912,20.548004,-149.960083,,,
729606309.395033,0.572361,-2.66396,48.214539,0.051331,0.004242,1.002594,-0.035393,-0.026035,-0.000432,60.12912,20.548004,-149.960083,,,
729606309.398426,0.572361,-2.66396,48.214539,0.051331,0.004242,1.002594,-0.035393,-0.026035,-0.000432,60.12912,20.548004,-149.960083,,,
729606309.401765,0.564435,-2.678418,48.212373,0.051331,0.004242,1.002594,-0.034953,-0.031027,-0.007171,60.12912,20.548004,-149.960083,,,
729606309.405027,0.553806,-2.685073,48.209802,0.049973,-0.000412,1.005783,-0.034953,-0.031027,-0.007171,60.12912,20.548004,-149.960083,,,
729606309.40839,0.553806,-2.685073,48.209802,0.049973,-0.000412,1.005783,-0.034953,-0.031027,-0.007171,60.12912,20.548004,-149.960083,,,
729606309.411721,0.546169,-2.694595,48.207919,0.049973,-0.000412,1.005783,-0.035581,-0.011236,-0.005704,60.12912,20.548004,-149.960083,,,
729606309.415058,0.535725,-2.696504,48.207122,0.053543,-0.001923,1.009903,-0.035581,-0.011236,-0.005704,60.12912,20.548004,-149.960083,,,
729606309.418388,0.535725,-2.696504,48.207122,0.053543,-0.001923,1.009903,-0.035581,-0.011236,-0.005704,60.12912,20.548004,-149.960083,,,
729606309.421725,0.527877,-2.699722,48.207472,0.053543,-0.001923,1.009903,-0.03508,0.000313,0.002338,60.12912,20.548004,-149.960083,,,
729606309.425053,0.517789,-2.696841,48.209365,0.050751,0.000381,1.005997,-0.03508,0.000313,0.002338,59.973587,20.648651,-150.122482,,,
729606309.428435,0.517789,-2.696841,48.209365,0.050751,0.000381,1.005997,-0.03508,0.000313,0.002338,59.973587,20.648651,-150.122482,,,
729606309.431703,0.508858,-2.691719,48.212301,0.050751,0.000381,1.005997,-0.033,0.025728,0.011015,59.973587,20.648651,-150.122482,,,
729606309.435082,0.499941,-2.683408,48.2157,0.045242,-0.001007,1.010223,-0.033,0.025728,0.011015,59.973587,20.648651,-150.122482,,,
729606309.4384,0.499941,-2.683408,48.2157,0.045242,-0.001007,1.010223,-0.033,0.025728,0.011015,59.973587,20.648651,-150.122482,,,
729606309.441773,0.491931,-2.674871,48.219571,0.045242,-0.001007,1.010223,-0.02658,0.030468,0.014673,59.973587,20.648651,-150.122482,,,
729606309.445054,0.484348,-2.667963,48.223213,0.04686,-0.000168,0.99942,-0.02658,0.030468,0.014673,59.973587,20.648651,-150.122482,,,
729606309.448386,0.484348,-2.667963,48.223213,0.04686,-0.000168,0.99942,-0.02658,0.030468,0.014673,59.973587,20.648651,-150.122482,,,
729606309.451719,0.475021,-2.660676,48.225792,0.04686,-0.000168,0.99942,-0.028394,0.020883,0.009288,59.973587,20.648651,-150.122482,,,
729606309.455102,0.464721,-2.657722,48.22718,0.047852,0.008606,0.987885,-0.028394,0.020883,0.009288,59.973587,20.648651,-150.122482,,,
729606309.458418,0.464721,-2.657722,48.22718,0.047852,0.008606,0.987885,-0.028394,0.020883,0.009288,59.973587,20.648651,-150.122482,,,
729606309.461728,0.452533,-2.656988,48.22728,0.047852,0.008606,0.987885,-0.040222,0.003017,-0.000545,59.973587,20.648651,-150.122482,,,
729606309.465046,0.439614,-2.661333,48.225934,0.049683,0.01236,0.978943,-0.040222,0.003017,-0.000545,59.919403,20.711792,-150.18071,,,
729606309.468365,0.439614,-2.661333,48.225934,0.049683,0.01236,0.978943,-0.040222,0.003017,-0.000545,59.919403,20.711792,-150.18071,,,
729606309.47173,0.425338,-2.670368,48.22355,0.049683,0.01236,0.978943,-0.045121,-0.02418,-0.007567,59.919403,20.711792,-150.18071,,,
729606309.475038,0.412802,-2.680783,48.220883,0.05159,0.011292,0.979309,-0.045121,-0.02418,-0.007567,59.919403,20.711792,-150.18071,,,
729606309.478385,0.412802,-2.680783,48.220883,0.05159,0.011292,0.979309,-0.045121,-0.02418,-0.007567,59.919403,20.711792,-150.18071,,,
729606309.481779,0.40026,-2.694668,48.217952,0.05159,0.011292,0.979309,-0.039197,-0.042317,-0.00894,59.919403,20.711792,-150.18071,,,
729606309.485059,0.389565,-2.708182,48.215038,0.052567,0.006912,0.98851,-0.039197,-0.042317,-0.00894,59.919403,20.711792,-150.18071,,,
729606309.488382,0.389565,-2.708182,48.215038,0.052567,0.006912,0.98851,-0.039197,-0.042317,-0.00894,59.919403,20.711792,-150.18071,,,
729606309.491709,0.377956,-2.722609,48.212568,0.052567,0.006912,0.98851,-0.036062,-0.044206,-0.009491,59.919403,20.711792,-150.18071,,,
729606309.495077,0.36901,-2.734381,48.210127,0.057922,0.005524,0.995209,-0.036062,-0.044206,-0.009491,59.919403,20.711792,-150.18071,,,
729606309.498408,0.36901,-2.734381,48.210127,0.057922,0.005524,0.995209,-0.036062,-0.044206,-0.009491,59.919403,20.711792,-150.18071,,,
729606309.501721,0.358372,-2.7454,48.207456,0.057922,0.005524,0.995209,-0.030756,-0.030165,-0.008572,59.919403,20.711792,-150.18071,,,
729606309.505035,0.348732,-2.750459,48.204282,0.062912,0.010864,0.992706,-0.030756,-0.030165,-0.008572,59.919403,20.711792,-150.18071,,,
729606309.50844,0.348732,-2.750459,48.204282,0.062912,0.010864,0.992706,-0.030756,-0.030165,-0.008572,60.122589,20.819839,-149.846344,,,
729606309.511702,0.337124,-2.750953,48.200674,0.062912,0.010864,0.992706,-0.032022,-0.002229,-0.014424,60.122589,20.819839,-149.846344,,,
729606309.515139,0.326412,-2.748758,48.196374,0.062988,0.014816,0.993668,-0.032022,-0.002229,-0.014424,60.122589,20.819839,-149.846344,,,
729606309.51843,0.326412,-2.748758,48.196374,0.062988,0.014816,0.993668,-0.032022,-0.002229,-0.014424,60.122589,20.819839,-149.846344,,,
729606309.521707,0.31299,-2.745214,48.191242,0.062988,0.014816,0.993668,-0.042206,0.012249,-0.014624,60.122589,20.819839,-149.846344,,,
729606309.52506,0.300894,-2.743286,48.185842,0.055634,0.01152,0.987839,-0.042206,0.012249,-0.014624,60.122589,20.819839,-149.846344,,,
729606309.52838,0.300894,-2.743286,48.185842,0.055634,0.01152,0.987839,-0.042206,0.012249,-0.014624,60.122589,20.819839,-149.846344,,,
729606309.531774,0.288697,-2.742866,48.180324,0.055634,0.01152,0.987839,-0.041288,0.006693,-0.020943,60.122589,20.819839,-149.846344,,,
729606309.535025,0.278932,-2.74482,48.174085,0.046417,0.006256,0.988831,-0.041288,0.006693,-0.020943,60.122589,20.819839,-149.846344,,,
729606309.538366,0.278932,-2.74482,48.174085,0.046417,0.006256,0.988831,-0.041288,0.006693,-0.020943,60.122589,20.819839,-149.846344,,,
729606309.541699,0.272799,-2.749812,48.167725,0.046417,0.006256,0.988831,-0.027994,-0.011791,-0.021742,60.122589,20.819839,-149.846344,,,
729606309.545124,0.266088,-2.755846,48.161552,0.040924,0.003647,0.992889,-0.027994,-0.011791,-0.021742,60.122589,20.819839,-149.846344,,,
729606309.54837,0.266088,-2.755846,48.161552,0.040924,0.003647,0.992889,-0.027994,-0.011791,-0.021742,59.951218,20.826981,-150.058243,,,
729606309.551705,0.262172,-2.764036,48.155279,0.040924,0.003647,0.992889,-0.02131,-0.023779,-0.022834,59.951218,20.826981,-150.058243,,,
729606309.555075,0.257567,-2.770678,48.148931,0.040497,0.002396,0.992813,-0.02131,-0.023779,-0.022834,59.951218,20.826981,-150.058243,,,
729606309.558459,0.257567,-2.770678,48.148931,0.040497,0.002396,0.992813,-0.02131,-0.023779,-0.022834,59.951218,20.826981,-150.058243,,,
729606309.561722,0.253953,-2.777964,48.142326,0.040497,0.002396,0.992813,-0.014695,-0.015853,-0.023647,59.951218,20.826981,-150.058243,,,
729606309.565108,0.248544,-2.782323,48.135503,0.047089,0.007278,0.990128,-0.014695,-0.015853,-0.023647,59.951218,20.826981,-150.058243,,,
729606309.568389,0.248544,-2.782323,48.135503,0.047089,0.007278,0.990128,-0.014695,-0.015853,-0.023647,59.951218,20.826981,-150.058243,,,
729606309.571749,0.242578,-2.787308,48.128561,0.047089,0.007278,0.990128,-0.021368,-0.007919,-0.023559,59.951218,20.826981,-150.058243,,,
729606309.575033,0.242578,-2.787308,48.121346,0.047089,0.007278,0.990128,-0.021368,-0.007919,-0.023559,59.951218,20.826981,-150.058243,,,
729606309.578384,0.234863,-2.789147,48.121346,0.052246,0.013855,0.983658,-0.021368,-0.007919,-0.023559,59.951218,20.826981,-150.058243,,,
729606309.581735,0.22647,-2.794398,48.113192,0.052246,0.013855,0.983658,-0.033903,0.003665,-0.02795,59.951218,20.826981,-150.058243,,,
729606309.585104,0.216159,-2.794171,48.104373,0.052994,0.015717,0.983551,-0.033903,0.003665,-0.02795,59.951218,20.826981,-150.058243,,,
729606309.588361,0.216159,-2.794171,48.104373,0.052994,0.015717,0.983551,-0.033903,0.003665,-0.02795,59.888962,20.987839,-149.828812,,,
729606309.591699,0.206902,-2.799557,48.095798,0.052994,0.015717,0.983551,-0.03895,0.004752,-0.029251,59.888962,20.987839,-149.828812,,,
729606309.595076,0.206902,-2.799557,48.095798,0.052994,0.015717,0.983551,-0.03895,0.004752,-0.029251,59.888962,20.987839,-149.828812,,,
729606309.598447,0.194595,-2.800829,48.087097,0.052216,0.017258,0.980057,-0.03895,0.004752,-0.029251,59.888962,20.987839,-149.828812,,,
729606309.601707,0.184677,-2.807305,48.077782,0.052216,0.017258,0.980057,-0.043302,-0.002703,-0.032555,59.888962,20.987839,-149.828812,,,
729606309.605037,0.184677,-2.807305,48.077782,0.052216,0.017258,0.980057,-0.043302,-0.002703,-0.032555,59.888962,20.987839,-149.828812,,,
729606309.608374,0.173224,-2.809065,48.068059,0.054855,0.014862,0.982391,-0.043302,-0.002703,-0.032555,59.888962,20.987839,-149.828812,,,
729606309.611778,0.165088,-2.808277,48.057979,0.054855,0.014862,0.982391,-0.03274,0.009933,-0.036429,59.888962,20.987839,-149.828812,,,
729606309.615044,0.165088,-2.808277,48.057979,0.054855,0.014862,0.982391,-0.03274,0.009933,-0.036429,59.888962,20.987839,-149.828812,,,
729606309.618379,0.159612,-2.802465,48.04731,0.058716,0.012665,1.003174,-0.03274,0.009933,-0.036429,59.888962,20.987839,-149.828812,,,
729606309.62171,0.158889,-2.792878,48.036788,0.058716,0.012665,1.003174,-0.006764,0.030108,-0.037705,59.888962,20.987839,-149.828812,,,
729606309.625132,0.158889,-2.792878,48.036788,0.058716,0.012665,1.003174,-0.006764,0.030108,-0.037705,59.888962,20.987839,-149.828812,,,
729606309.628353,0.160708,-2.781769,48.027877,0.062424,0.008118,1.007523,-0.006764,0.030108,-0.037705,59.890411,21.024384,-149.883911,,,
729606309.631704,0.164686,-2.762953,48.020572,0.062424,0.008118,1.007523,0.01495,0.053578,-0.026817,59.890411,21.024384,-149.883911,,,
729606309.635085,0.164686,-2.762953,48.020572,0.062424,0.008118,1.007523,0.01495,0.053578,-0.026817,59.890411,21.024384,-149.883911,,,
729606309.638363,0.169097,-2.743236,48.014419,0.054703,0.00325,1.004379,0.01495,0.053578,-0.026817,59.890411,21.024384,-149.883911,,,
729606309.641698,0.173246,-2.718476,48.009465,0.054703,0.00325,1.004379,0.01404,0.084058,-0.020331,59.890411,21.024384,-149.883911,,,
729606309.645083,0.173246,-2.718476,48.009465,0.054703,0.00325,1.004379,0.01404,0.084058,-0.020331,59.890411,21.024384,-149.883911,,,
729606309.648375,0.17575,-2.692812,48.005704,0.049179,0.002563,0.99501,0.01404,0.084058,-0.020331,59.890411,21.024384,-149.883911,,,
729606309.651701,0.177887,-2.66676,48.003506,0.049179,0.002563,0.99501,0.004038,0.098956,-0.010835,59.890411,21.024384,-149.883911,,,
729606309.655079,0.177887,-2.66676,48.003506,0.049179,0.002563,0.99501,0.004038,0.098956,-0.010835,59.890411,21.024384,-149.883911,,,
729606309.658363,0.177667,-2.639606,48.002598,0.040436,0.000641,0.990738,0.004038,0.098956,-0.010835,59.890411,21.024384,-149.883911,,,
729606309.661699,0.1803,-2.616398,48.002299,0.040436,0.000641,0.990738,0.000283,0.093623,-0.001515,59.890411,21.024384,-149.883911,,,
729606309.665102,0.1803,-2.616398,48.002299,0.040436,0.000641,0.990738,0.000283,0.093623,-0.001515,59.890411,21.024384,-149.883911,,,
729606309.668379,0.180411,-2.59341,48.002565,0.034775,0.003082,0.989304,0.000283,0.093623,-0.001515,59.890411,21.024384,-149.883911,,,
729606309.671712,0.184314,-2.578145,48.003171,0.034775,0.003082,0.989304,0.004687,0.066012,-6e-05,60.237686,20.854965,-150.098999,,,
729606309.675147,0.184314,-2.578145,48.003171,0.034775,0.003082,0.989304,0.004687,0.066012,-6e-05,60.237686,20.854965,-150.098999,,,
729606309.678371,0.186015,-2.565738,48.003794,0.033691,0.001419,0.989227,0.004687,0.066012,-6e-05,60.237686,20.854965,-150.098999,,,
729606309.681767,0.192081,-2.560905,48.005036,0.033691,0.001419,0.989227,0.008704,0.034101,0.003553,60.237686,20.854965,-150.098999,,,
729606309.685092,0.192081,-2.560905,48.005036,0.033691,0.001419,0.989227,0.008704,0.034101,0.003553,60.237686,20.854965,-150.098999,,,
729606309.688452,0.195381,-2.555237,48.00699,0.030182,-0.001114,0.993805,0.008704,0.034101,0.003553,60.237686,20.854965,-150.098999,,,
729606309.691698,0.201058,-2.555455,48.009422,0.030182,-0.001114,0.993805,0.009959,0.01777,0.00409,60.237686,20.854965,-150.098999,,,
729606309.695049,0.201058,-2.555455,48.009422,0.030182,-0.001114,0.993805,0.009959,0.01777,0.00409,60.237686,20.854965,-150.098999,,,
729606309.698393,0.203015,-2.553421,48.011879,0.034225,6.1e-05,0.993256,0.009959,0.01777,0.00409,60.237686,20.854965,-150.098999,,,
729606309.701766,0.20477,-2.558186,48.014459,0.034225,6.1e-05,0.993256,0.001333,0.005714,0.004981,60.237686,20.854965,-150.098999,,,
729606309.705036,0.20477,-2.558186,48.014459,0.034225,6.1e-05,0.993256,0.001333,0.005714,0.004981,60.237686,20.854965,-150.098999,,,
729606309.708384,0.202783,-2.556607,48.017167,0.038528,0.005341,0.988251,0.001333,0.005714,0.004981,60.237686,20.854965,-150.098999,,,
729606309.711706,0.198882,-2.558398,48.01997,0.038528,0.005341,0.988251,-0.017592,0.015088,0.007626,60.190613,21.066605,-150.041687,,,
729606309.715027,0.198882,-2.558398,48.01997,0.038528,0.005341,0.988251,-0.017592,0.015088,0.007626,60.190613,21.066605,-150.041687,,,
729606309.71839,0.192884,-2.552985,48.024075,0.036514,0.005646,0.995438,-0.017592,0.015088,0.007626,60.190613,21.066605,-150.041687,,,
729606309.721701,0.186384,-2.549352,48.030222,0.036514,0.005646,0.995438,-0.020388,0.023403,0.01929,60.190613,21.066605,-150.041687,,,
729606309.725108,0.186384,-2.549352,48.030222,0.036514,0.005646,0.995438,-0.020388,0.023403,0.01929,60.190613,21.066605,-150.041687,,,
729606309.728376,0.179021,-2.543336,48.038012,0.030975,-0.002106,0.999084,-0.020388,0.023403,0.01929,60.190613,21.066605,-150.041687,,,
729606309.731698,0.170734,-2.539722,48.0473,0.030975,-0.002106,0.999084,-0.023475,0.019119,0.032712,60.190613,21.066605,-150.041687,,,
729606309.735038,0.170734,-2.539722,48.0473,0.030975,-0.002106,0.999084,-0.023475,0.019119,0.032712,60.190613,21.066605,-150.041687,,,
729606309.73836,0.162578,-2.537152,48.058364,0.03273,-0.005524,0.999466,-0.023475,0.019119,0.032712,60.190613,21.066605,-150.041687,,,
729606309.741699,0.153762,-2.533924,48.071259,0.03273,-0.005524,0.999466,-0.025938,0.005616,0.046095,60.190613,21.066605,-150.041687,,,
729606309.74504,0.153762,-2.533924,48.071259,0.03273,-0.005524,0.999466,-0.025938,0.005616,0.046095,60.190613,21.066605,-150.041687,,,
729606309.748377,0.145209,-2.533908,48.085376,0.033188,-0.003326,1.000351,-0.025938,0.005616,0.046095,60.190613,21.066605,-150.041687,,,
729606309.751694,0.136559,-2.530753,48.100024,0.033188,-0.003326,1.000351,-0.028518,-0.000911,0.051693,59.886398,21.071991,-150.221893,,,
729606309.755026,0.136559,-2.530753,48.100024,0.033188,-0.003326,1.000351,-0.028518,-0.000911,0.051693,59.886398,21.071991,-150.221893,,,
729606309.758392,0.12818,-2.530496,48.115395,0.034912,-0.002426,1.005798,-0.028518,-0.000911,0.051693,59.886398,21.071991,-150.221893,,,
729606309.761695,0.120749,-2.52592,48.131409,0.034912,-0.002426,1.005798,-0.021701,0.004753,0.053565,59.886398,21.071991,-150.221893,,,
729606309.765031,0.120749,-2.52592,48.131409,0.034912,-0.002426,1.005798,-0.021701,0.004753,0.053565,59.886398,21.071991,-150.221893,,,
729606309.768371,0.115406,-2.524846,48.14817,0.04451,-0.002411,1.013382,-0.021701,0.004753,0.053565,59.886398,21.071991,-150.221893,,,
729606309.771693,0.110297,-2.518204,48.165264,0.04451,-0.002411,1.013382,-0.010305,0.007679,0.059002,59.886398,21.071991,-150.221893,,,
729606309.775089,0.110297,-2.518204,48.165264,0.04451,-0.002411,1.013382,-0.010305,0.007679,0.059002,59.886398,21.071991,-150.221893,,,
729606309.778353,0.10654,-2.515545,48.181671,0.049301,0.000305,1.013947,-0.010305,0.007679,0.059002,59.886398,21.071991,-150.221893,,,
729606309.781703,0.103025,-2.510132,48.19743,0.049301,0.000305,1.013947,-0.007511,0.013185,0.055778,59.886398,21.071991,-150.221893,,,
729606309.785046,0.103025,-2.510132,48.19743,0.049301,0.000305,1.013947,-0.007511,0.013185,0.055778,59.886398,21.071991,-150.221893,,,
729606309.788361,0.099166,-2.507065,48.212809,0.052704,0.002716,1.008987,-0.007511,0.013185,0.055778,59.886398,21.071991,-150.221893,,,
729606309.791701,0.095955,-2.50249,48.227798,0.052704,0.002716,1.008987,-0.009689,0.015146,0.050868,60.225693,20.975998,-150.28595,,,
729606309.795039,0.095955,-2.50249,48.227798,0.052704,0.002716,1.008987,-0.009689,0.015146,0.050868,60.225693,20.975998,-150.28595,,,
729606309.798381,0.091446,-2.499588,48.242526,0.048355,0.002121,1.003754,-0.009689,0.015146,0.050868,60.225693,20.975998,-150.28595,,,
729606309.801696,0.08682,-2.493822,48.257062,0.048355,0.002121,1.003754,-0.014821,0.011468,0.050137,60.225693,20.975998,-150.28595,,,
729606309.805048,0.08682,-2.493822,48.257062,0.048355,0.002121,1.003754,-0.014821,0.011468,0.050137,60.225693,20.975998,-150.28595,,,
729606309.808378,0.081485,-2.49312,48.271427,0.047592,0.001526,1.005844,-0.014821,0.011468,0.050137,60.225693,20.975998,-150.28595,,,
729606309.811696,0.075736,-2.4912,48.285555,0.047592,0.001526,1.005844,-0.010796,-0.004572,0.04882,60.225693,20.975998,-150.28595,,,
729606309.815036,0.075736,-2.4912,48.285555,0.047592,0.001526,1.005844,-0.010796,-0.004572,0.04882,60.225693,20.975998,-150.28595,,,
729606309.818372,0.072938,-2.495289,48.298762,0.053406,0.002396,1.003464,-0.010796,-0.004572,0.04882,60.225693,20.975998,-150.28595,,,
729606309.821702,0.070131,-2.496027,48.310368,0.053406,0.002396,1.003464,-0.003155,-0.013678,0.040094,60.225693,20.975998,-150.28595,,,
729606309.825093,0.070131,-2.496027,48.310368,0.053406,0.002396,1.003464,-0.003155,-0.013678,0.040094,60.225693,20.975998,-150.28595,,,
729606309.828397,0.06995,-2.500195,48.320774,0.054886,0.003662,1.014633,-0.003155,-0.013678,0.040094,60.225693,20.975998,-150.28595,,,
729606309.831728,0.069019,-2.500492,48.330536,0.054886,0.003662,1.014633,0.002174,-0.012457,0.03451,60.225693,20.975998,-150.28595,,,
729606309.835041,0.069019,-2.500492,48.330536,0.054886,0.003662,1.014633,0.002174,-0.012457,0.03451,59.944138,21.192123,-149.966431,,,
729606309.838403,0.06937,-2.505025,48.340408,0.054001,-0.001022,1.01297,0.002174,-0.012457,0.03451,59.944138,21.192123,-149.966431,,,
729606309.84169,0.069772,-2.50637,48.350286,0.054001,-0.001022,1.01297,0.007161,-0.009427,0.034148,59.944138,21.192123,-149.966431,,,
729606309.845036,0.069772,-2.50637,48.350286,0.054001,-0.001022,1.01297,0.007161,-0.009427,0.034148,59.944138,21.192123,-149.966431,,,
729606309.848371,0.070954,-2.507412,48.360282,0.049835,-0.004135,1.012802,0.007161,-0.009427,0.034148,59.944138,21.192123,-149.966431,,,
729606309.851693,0.072176,-2.507556,48.370623,0.049835,-0.004135,1.012802,0.012587,0.005427,0.035138,59.944138,21.192123,-149.966431,,,
729606309.855025,0.072176,-2.507556,48.370623,0.049835,-0.004135,1.012802,0.012587,0.005427,0.035138,59.944138,21.192123,-149.966431,,,
729606309.85837,0.075825,-2.506881,48.381337,0.052124,-0.001724,1.011765,0.012587,0.005427,0.035138,59.944138,21.192123,-149.966431,,,
729606309.861704,0.081385,-2.509125,48.392989,0.052124,-0.001724,1.011765,0.021289,0.002369,0.036654,59.944138,21.192123,-149.966431,,,
729606309.86503,0.081385,-2.509125,48.392989,0.052124,-0.001724,1.011765,0.021289,0.002369,0.036654,59.944138,21.192123,-149.966431,,,
729606309.86839,0.087671,-2.509633,48.404748,0.049194,-0.001373,1.00267,0.021289,0.002369,0.036654,59.944138,21.192123,-149.966431,,,
729606309.871691,0.093943,-2.512568,48.416637,0.049194,-0.001373,1.00267,0.026105,0.003644,0.041258,59.944138,21.192123,-149.966431,,,
729606309.875028,0.093943,-2.512568,48.416637,0.049194,-0.001373,1.00267,0.026105,0.003644,0.041258,60.060089,21.17984,-149.870346,,,
729606309.878386,0.09991,-2.511669,48.429194,0.044983,-0.001862,0.999298,0.026105,0.003644,0.041258,60.060089,21.17984,-149.870346,,,
729606309.881711,0.105392,-2.512496,48.442338,0.044983,-0.001862,0.999298,0.019361,0.00597,0.041211,60.060089,21.17984,-149.870346,,,
729606309.885029,0.105392,-2.512496,48.442338,0.044983,-0.001862,0.999298,0.019361,0.00597,0.041211,60.060089,21.17984,-149.870346,,,
729606309.888368,0.109637,-2.515457,48.455953,0.042725,0.006699,0.988785,0.019361,0.00597,0.041211,60.060089,21.17984,-149.870346,,,
729606309.891695,0.113059,-2.522727,48.470256,0.042725,0.006699,0.988785,0.014529,-0.017329,0.047714,60.060089,21.17984,-149.870346,,,
729606309.895038,0.113059,-2.522727,48.470256,0.042725,0.006699,0.988785,0.014529,-0.017329,0.047714,60.060089,21.17984,-149.870346,,,
729606309.898369,0.115409,-2.529054,48.48497,0.039566,0.010696,0.981201,0.014529,-0.017329,0.047714,60.060089,21.17984,-149.870346,,,
729606309.901734,0.116599,-2.537951,48.499672,0.039566,0.010696,0.981201,0.006755,-0.017171,0.05191,60.060089,21.17984,-149.870346,,,
729606309.905114,0.116599,-2.537951,48.499672,0.039566,0.010696,0.981201,0.006755,-0.017171,0.05191,60.060089,21.17984,-149.870346,,,
729606309.908383,0.115473,-2.543715,48.514441,0.044601,0.014343,0.985168,0.006755,-0.017171,0.05191,60.060089,21.17984,-149.870346,,,
729606309.911711,0.112337,-2.553683,48.529152,0.044601,0.014343,0.985168,-0.006252,-0.019081,0.051499,60.060089,21.17984,-149.870346,,,
729606309.915041,0.112337,-2.553683,48.529152,0.044601,0.014343,0.985168,-0.006252,-0.019081,0.051499,60.122787,21.005737,-150.074509,,,
729606309.918389,0.10664,-2.560311,48.543216,0.049622,0.01886,0.974136,-0.006252,-0.019081,0.051499,60.122787,21.005737,-150.074509,,,
729606309.921696,0.097646,-2.567918,48.556367,0.049622,0.01886,0.974136,-0.022921,-0.016545,0.045801,60.122787,21.005737,-150.074509,,,
729606309.925142,0.097646,-2.567918,48.556367,0.049622,0.01886,0.974136,-0.022921,-0.016545,0.045801,60.122787,21.005737,-150.074509,,,
729606309.92839,0.087275,-2.570731,48.568886,0.052872,0.016235,0.978455,-0.022921,-0.016545,0.045801,60.122787,21.005737,-150.074509,,,
729606309.931726,0.073473,-2.573528,48.580373,0.052872,0.016235,0.978455,-0.044893,-0.001003,0.041485,60.122787,21.005737,-150.074509,,,
729606309.935048,0.073473,-2.573528,48.580373,0.052872,0.016235,0.978455,-0.044893,-0.001003,0.041485,60.122787,21.005737,-150.074509,,,
729606309.938389,0.058821,-2.574349,48.591195,0.05571,0.012405,0.974976,-0.044893,-0.001003,0.041485,60.122787,21.005737,-150.074509,,,
729606309.941707,0.042374,-2.578023,48.602144,0.05571,0.012405,0.974976,-0.052961,-0.001853,0.037061,60.122787,21.005737,-150.074509,,,
729606309.945048,0.042374,-2.578023,48.602144,0.05571,0.012405,0.974976,-0.052961,-0.001853,0.037061,60.122787,21.005737,-150.074509,,,
729606309.948382,0.026754,-2.579621,48.613161,0.049683,0.004105,0.978851,-0.052961,-0.001853,0.037061,60.122787,21.005737,-150.074509,,,
729606309.951703,0.011788,-2.582162,48.624316,0.049683,0.004105,0.978851,-0.048982,-0.003067,0.037053,60.122787,21.005737,-150.074509,,,
729606309.955061,0.011788,-2.582162,48.624316,0.049683,0.004105,0.978851,-0.048982,-0.003067,0.037053,60.122787,21.005737,-150.074509,,,
729606309.958391,-0.000382,-2.583693,48.635924,0.041138,-0.004425,0.993759,-0.048982,-0.003067,0.037053,60.053329,21.072556,-150.146011,,,
729606309.961699,-0.009335,-2.584382,48.648257,0.041138,-0.004425,0.993759,-0.02977,0.001821,0.042656,60.053329,21.072556,-150.146011,,,
729606309.965029,-0.009335,-2.584382,48.648257,0.041138,-0.004425,0.993759,-0.02977,0.001821,0.042656,60.053329,21.072556,-150.146011,,,
729606309.968388,-0.014833,-2.584445,48.661401,0.032455,-0.014328,1.007355,-0.02977,0.001821,0.042656,60.053329,21.072556,-150.146011,,,
729606309.971701,-0.013499,-2.581929,48.67499,0.032455,-0.014328,1.007355,-0.000212,0.010671,0.047999,60.053329,21.072556,-150.146011,,,
729606309.97513,-0.013499,-2.581929,48.67499,0.032455,-0.014328,1.007355,-0.000212,0.010671,0.047999,60.053329,21.072556,-150.146011,,,
729606309.978376,-0.010931,-2.578531,48.689448,0.032974,-0.02153,1.015411,-0.000212,0.010671,0.047999,60.053329,21.072556,-150.146011,,,
729606309.981698,-0.003218,-2.571011,48.704473,0.032974,-0.02153,1.015411,0.020953,0.025276,0.049365,60.053329,21.072556,-150.146011,,,
729606309.985046,-0.003218,-2.571011,48.704473,0.032974,-0.02153,1.015411,0.020953,0.025276,0.049365,60.053329,21.072556,-150.146011,,,
729606309.988433,0.00456,-2.560523,48.719056,0.039246,-0.017807,1.015305,0.020953,0.025276,0.049365,60.053329,21.072556,-150.146011,,,
729606309.991688,0.017266,-2.547348,48.733272,0.039246,-0.017807,1.015305,0.033185,0.054134,0.046774,60.053329,21.072556,-150.146011,,,
729606309.99504,0.017266,-2.547348,48.733272,0.039246,-0.017807,1.015305,0.033185,0.054134,0.046774,60.053329,21.072556,-150.146011,,,
729606309.998402,0.025213,-2.530279,48.747192,0.038239,-0.015427,1.009201,0.033185,0.054134,0.046774,60.370804,21.059036,-150.673569,,,
729606310.001698,0.037063,-2.514832,48.761615,0.038239,-0.015427,1.009201,0.028839,0.065222,0.049451,60.370804,21.059036,-150.673569,,,
729606310.005051,0.037063,-2.514832,48.761615,0.038239,-0.015427,1.009201,0.028839,0.065222,0.049451,60.370804,21.059036,-150.673569,,,
729606310.008377,0.04418,-2.497346,48.776387,0.033035,-0.014053,0.995575,0.028839,0.065222,0.049451,60.370804,21.059036,-150.673569,,,
729606310.011695,0.053332,-2.485032,48.790277,0.033035,-0.014053,0.995575,0.023721,0.062194,0.047043,60.370804,21.059036,-150.673569,,,
729606310.015029,0.053332,-2.485032,48.790277,0.033035,-0.014053,0.995575,0.023721,0.062194,0.047043,60.370804,21.059036,-150.673569,,,
729606310.018378,0.0591,-2.471095,48.803139,0.029938,-0.015274,0.987228,0.023721,0.062194,0.047043,60.370804,21.059036,-150.673569,,,
729606310.021697,0.067767,-2.465456,48.815438,0.029938,-0.015274,0.987228,0.025108,0.036788,0.042856,60.370804,21.059036,-150.673569,,,
729606310.025171,0.067767,-2.465456,48.815438,0.029938,-0.015274,0.987228,0.025108,0.036788,0.042856,60.370804,21.059036,-150.673569,,,
729606310.028359,0.07457,-2.460051,48.826637,0.030396,-0.015198,0.981735,0.025108,0.036788,0.042856,60.370804,21.059036,-150.673569,,,
729606310.031709,0.080959,-2.459873,48.836463,0.030396,-0.015198,0.981735,0.025893,0.005608,0.030235,60.370804,21.059036,-150.673569,,,
729606310.035049,0.080959,-2.459873,48.836463,0.030396,-0.015198,0.981735,0.025893,0.005608,0.030235,60.370804,21.059036,-150.673569,,,
729606310.038369,0.087054,-2.461283,48.844739,0.037186,-0.011993,0.978012,0.025893,0.005608,0.030235,60.260254,21.25116,-150.264236,,,
729606310.041705,0.089597,-2.463007,48.851206,0.037186,-0.011993,0.978012,0.014859,-0.009486,0.020372,60.260254,21.25116,-150.264236,,,
729606310.04505,0.089597,-2.463007,48.851206,0.037186,-0.011993,0.978012,0.014859,-0.009486,0.020372,60.260254,21.25116,-150.264236,,,
729606310.048443,0.092757,-2.466553,48.856726,0.046738,-0.005936,0.977753,0.014859,-0.009486,0.020372,60.260254,21.25116,-150.264236,,,
729606310.051696,0.091023,-2.465104,48.862291,0.046738,-0.005936,0.977753,0.01042,-0.005296,0.020432,60.260254,21.25116,-150.264236,,,
729606310.055041,0.091023,-2.465104,48.862291,0.046738,-0.005936,0.977753,0.01042,-0.005296,0.020432,60.260254,21.25116,-150.264236,,,
729606310.058388,0.093371,-2.465521,48.868052,0.048508,-0.003311,0.982742,0.01042,-0.005296,0.020432,60.260254,21.25116,-150.264236,,,
729606310.061702,0.089923,-2.459557,48.874304,0.048508,-0.003311,0.982742,0.003272,0.014384,0.020205,60.260254,21.25116,-150.264236,,,
729606310.065027,0.089923,-2.459557,48.874304,0.048508,-0.003311,0.982742,0.003272,0.014384,0.020205,60.260254,21.25116,-150.264236,,,
729606310.068385,0.090145,-2.452792,48.881066,0.054062,-0.004745,0.985382,0.003272,0.014384,0.020205,60.260254,21.25116,-150.264236,,,
729606310.0717,0.084812,-2.441497,48.887983,0.054062,-0.004745,0.985382,-0.000533,0.038004,0.022939,60.260254,21.25116,-150.264236,,,
729606310.075097,0.084812,-2.441497,48.887983,0.054062,-0.004745,0.985382,-0.000533,0.038004,0.022939,60.260254,21.25116,-150.264236,,,
729606310.078364,0.083265,-2.427462,48.89568,0.054291,-0.007568,0.982437,-0.000533,0.038004,0.022939,60.288803,21.242218,-150.545242,,,
729606310.081704,0.077652,-2.407417,48.903815,0.054291,-0.007568,0.982437,-0.005569,0.065603,0.031264,60.288803,21.242218,-150.545242,,,
729606310.085043,0.077652,-2.407417,48.903815,0.054291,-0.007568,0.982437,-0.005569,0.065603,0.031264,60.288803,21.242218,-150.545242,,,
729606310.088443,0.074732,-2.386999,48.912287,0.051956,-0.009125,0.990402,-0.005569,0.065603,0.031264,60.288803,21.242218,-150.545242,,,
729606310.091695,0.067242,-2.363802,48.920527,0.051956,-0.009125,0.990402,-0.01276,0.073052,0.027767,60.288803,21.242218,-150.545242,,,
729606310.09504,0.067242,-2.363802,48.920527,0.051956,-0.009125,0.990402,-0.01276,0.073052,0.027767,60.288803,21.242218,-150.545242,,,
729606310.098389,0.061542,-2.345821,48.927698,0.052048,-0.004181,0.979721,-0.01276,0.073052,0.027767,60.288803,21.242218,-150.545242,,,
729606310.101737,0.049891,-2.327142,48.934294,0.052048,-0.004181,0.979721,-0.02503,0.052988,0.021442,60.288803,21.242218,-150.545242,,,
729606310.105039,0.049891,-2.327142,48.934294,0.052048,-0.004181,0.979721,-0.02503,0.052988,0.021442,60.288803,21.242218,-150.545242,,,
729606310.108376,0.040376,-2.314891,48.940159,0.044388,1.5e-05,0.976471,-0.02503,0.052988,0.021442,60.288803,21.242218,-150.545242,,,
729606310.111695,0.026631,-2.303205,48.944852,0.044388,1.5e-05,0.976471,-0.034075,0.03404,0.017209,60.288803,21.242218,-150.545242,,,
729606310.115035,0.026631,-2.303205,48.944852,0.044388,1.5e-05,0.976471,-0.034075,0.03404,0.017209,60.288803,21.242218,-150.545242,,,
729606310.118389,0.015706,-2.29847,48.948892,0.034271,-0.007797,0.985077,-0.034075,0.03404,0.017209,60.288803,21.242218,-150.545242,,,
729606310.121694,0.001972,-2.299147,48.952841,0.034271,-0.007797,0.985077,-0.038924,0.003639,0.015625,60.202057,21.371689,-150.338852,,,
729606310.125118,0.001972,-2.299147,48.952841,0.034271,-0.007797,0.985077,-0.038924,0.003639,0.015625,60.202057,21.371689,-150.338852,,,
729606310.128374,-0.009758,-2.302228,48.956861,0.030029,-0.014023,0.98761,-0.038924,0.003639,0.015625,60.202057,21.371689,-150.338852,,,
729606310.131699,-0.023112,-2.309265,48.960832,0.030029,-0.014023,0.98761,-0.044296,-0.016135,0.016929,60.202057,21.371689,-150.338852,,,
729606310.135063,-0.023112,-2.309265,48.960832,0.030029,-0.014023,0.98761,-0.044296,-0.016135,0.016929,60.202057,21.371689,-150.338852,,,
729606310.138441,-0.035756,-2.313162,48.964594,0.040039,-0.009933,0.994781,-0.044296,-0.016135,0.016929,60.202057,21.371689,-150.338852,,,
729606310.141694,-0.049328,-2.318988,48.968272,0.040039,-0.009933,0.994781,-0.041454,-0.005089,0.013548,60.202057,21.371689,-150.338852,,,
729606310.145048,-0.049328,-2.318988,48.968272,0.040039,-0.009933,0.994781,-0.041454,-0.005089,0.013548,60.202057,21.371689,-150.338852,,,
729606310.148386,-0.061651,-2.318807,48.971843,0.046783,-0.008499,1.005188,-0.041454,-0.005089,0.013548,60.202057,21.371689,-150.338852,,,
729606310.151705,-0.0742,-2.320167,48.974823,0.046783,-0.008499,1.005188,-0.040598,0.013921,0.009506,60.202057,21.371689,-150.338852,,,
729606310.15507,-0.0742,-2.320167,48.974823,0.046783,-0.008499,1.005188,-0.040598,0.013921,0.009506,60.202057,21.371689,-150.338852,,,
729606310.158376,-0.085487,-2.314856,48.977996,0.046234,-0.007477,1.011551,-0.040598,0.013921,0.009506,60.202057,21.371689,-150.338852,,,
729606310.161708,-0.097128,-2.312342,48.981716,0.046234,-0.007477,1.011551,-0.034811,0.026734,0.012509,60.353745,21.393387,-150.467178,,,
729606310.165028,-0.097128,-2.312342,48.981716,0.046234,-0.007477,1.011551,-0.034811,0.026734,0.012509,60.353745,21.393387,-150.467178,,,
729606310.168388,-0.10503,-2.305246,48.985464,0.047699,-0.010468,1.010788,-0.034811,0.026734,0.012509,60.353745,21.393387,-150.467178,,,
729606310.171698,-0.112167,-2.301961,48.988943,0.047699,-0.010468,1.010788,-0.018178,0.029877,0.010758,60.353745,21.393387,-150.467178,,,
729606310.175038,-0.112167,-2.301961,48.988943,0.047699,-0.010468,1.010788,-0.018178,0.029877,0.010758,60.353745,21.393387,-150.467178,,,
729606310.178442,-0.116323,-2.294649,48.991386,0.052078,-0.009949,1.011017,-0.018178,0.029877,0.010758,60.353745,21.393387,-150.467178,,,
729606310.181695,-0.119372,-2.291675,48.992578,0.052078,-0.009949,1.011017,-0.009812,0.025977,0.000131,60.353745,21.393387,-150.467178,,,
729606310.185047,-0.119372,-2.291675,48.992578,0.052078,-0.009949,1.011017,-0.009812,0.025977,0.000131,60.353745,21.393387,-150.467178,,,
729606310.188378,-0.121691,-2.28489,48.992828,0.054504,-0.003387,1.005997,-0.009812,0.025977,0.000131,60.353745,21.393387,-150.467178,,,
729606310.191703,-0.122625,-2.279013,48.992206,0.054504,-0.003387,1.005997,-0.003818,0.023634,-0.004864,60.353745,21.393387,-150.467178,,,
729606310.195048,-0.122625,-2.279013,48.992206,0.054504,-0.003387,1.005997,-0.003818,0.023634,-0.004864,60.353745,21.393387,-150.467178,,,
729606310.198381,-0.122284,-2.274166,48.991357,0.051285,0.001053,1.004074,-0.003818,0.023634,-0.004864,60.353745,21.393387,-150.467178,,,
729606310.2017,-0.122769,-2.2683,48.990573,0.051285,0.001053,1.004074,0.008008,0.012615,-0.006113,60.568787,21.524246,-150.493027,,,
729606310.205098,-0.122769,-2.2683,48.990573,0.051285,0.001053,1.004074,0.008008,0.012615,-0.006113,60.568787,21.524246,-150.493027,,,
729606310.208372,-0.119076,-2.265962,48.988936,0.050995,-0.000824,1.006271,0.008008,0.012615,-0.006113,60.568787,21.524246,-150.493027,,,
729606310.211699,-0.11591,-2.261638,48.987341,0.050995,-0.000824,1.006271,0.020492,0.011439,-0.007017,60.568787,21.524246,-150.493027,,,
729606310.215046,-0.11591,-2.261638,48.987341,0.050995,-0.000824,1.006271,0.020492,0.011439,-0.007017,60.568787,21.524246,-150.493027,,,
729606310.218438,-0.109059,-2.258781,48.986378,0.048126,-0.000748,1.010834,0.020492,0.011439,-0.007017,60.568787,21.524246,-150.493027,,,
729606310.221552,-0.109059,-2.258781,48.985105,0.048126,-0.000748,1.010834,0.026981,0.017442,-0.00716,60.568787,21.524246,-150.493027,,,
729606310.225066,-0.10325,-2.255991,48.985105,0.048126,-0.000748,1.010834,0.026981,0.017442,-0.00716,60.568787,21.524246,-150.493027,,,
729606310.228383,-0.096219,-2.250925,48.983805,0.047424,0.001923,1.008347,0.026981,0.017442,-0.00716,60.568787,21.524246,-150.493027,,,
729606310.2317,-0.092027,-2.247133,48.982231,0.047424,0.001923,1.008347,0.022825,0.022939,-0.008166,60.568787,21.524246,-150.493027,,,
729606310.235043,-0.092027,-2.247133,48.982231,0.047424,0.001923,1.008347,0.022825,0.022939,-0.008166,60.568787,21.524246,-150.493027,,,
729606310.238379,-0.086694,-2.239845,48.979883,0.045685,0.006165,1.001633,0.022825,0.022939,-0.008166,60.568787,21.524246,-150.493027,,,
729606310.241776,-0.086694,-2.234352,48.977722,0.045685,0.006165,1.001633,0.018483,0.031765,-0.008745,60.371597,21.561081,-149.876785,,,
729606310.245097,-0.082814,-2.234352,48.977722,0.045685,0.006165,1.001633,0.018483,0.031765,-0.008745,60.371597,21.561081,-149.876785,,,
729606310.248369,-0.077732,-2.226518,48.976041,0.045029,0.007431,1.000641,0.018483,0.031765,-0.008745,60.371597,21.561081,-149.876785,,,
729606310.251698,-0.074139,-2.222432,48.974552,0.045029,0.007431,1.000641,0.021075,0.027048,-0.007115,60.371597,21.561081,-149.876785,,,
729606310.255043,-0.074139,-2.222432,48.974552,0.045029,0.007431,1.000641,0.021075,0.027048,-0.007115,60.371597,21.561081,-149.876785,,,
729606310.258441,-0.067138,-2.216412,48.972947,0.040924,0.004135,1.003021,0.021075,0.027048,-0.007115,60.371597,21.561081,-149.876785,,,
729606310.261692,-0.067138,-2.216412,48.972947,0.040924,0.004135,1.003021,0.026028,0.020128,-0.008514,60.371597,21.561081,-149.876785,,,
729606310.265044,-0.061337,-2.21684,48.970759,0.040924,0.004135,1.003021,0.026028,0.020128,-0.008514,60.371597,21.561081,-149.876785,,,
729606310.268377,-0.053983,-2.213729,48.968326,0.04274,0.005402,0.999359,0.026028,0.020128,-0.008514,60.371597,21.561081,-149.876785,,,
729606310.2717,-0.046413,-2.216804,48.965474,0.04274,0.005402,0.999359,0.027023,0.01034,-0.013276,60.371597,21.561081,-149.876785,,,
729606310.275032,-0.046413,-2.216804,48.965474,0.04274,0.005402,0.999359,0.027023,0.01034,-0.013276,60.371597,21.561081,-149.876785,,,
729606310.278389,-0.038692,-2.215567,48.962195,0.041122,0.006943,0.997421,0.027023,0.01034,-0.013276,60.371597,21.561081,-149.876785,,,
729606310.281699,-0.038692,-2.215567,48.962195,0.041122,0.006943,0.997421,0.02767,0.005604,-0.013354,60.371597,21.561081,-149.876785,,,
729606310.285105,-0.030323,-2.218998,48.958775,0.041122,0.006943,0.997421,0.02767,0.005604,-0.013354,60.491379,21.318619,-150.064468,,,
729606310.288358,-0.021447,-2.219191,48.95449,0.04071,0.005188,0.99968,0.02767,0.005604,-0.013354,60.491379,21.318619,-150.064468,,,
729606310.291699,-0.021447,-2.219191,48.949804,0.04071,0.005188,0.99968,0.033546,-0.001847,-0.020453,60.491379,21.318619,-150.064468,,,
729606310.295054,-0.011804,-2.224111,48.949804,0.04071,0.005188,0.99968,0.033546,-0.001847,-0.020453,60.491379,21.318619,-150.064468,,,
729606310.298434,-0.002475,-2.226288,48.944645,0.039764,0.006668,0.997543,0.033546,-0.001847,-0.020453,60.491379,21.318619,-150.064468,,,
729606310.301685,-0.002475,-2.226288,48.944645,0.039764,0.006668,0.997543,0.029316,-0.005673,-0.022228,60.491379,21.318619,-150.064468,,,
729606310.305054,0.005416,-2.230949,48.938476,0.039764,0.006668,0.997543,0.029316,-0.005673,-0.022228,60.491379,21.318619,-150.064468,,,
729606310.308117,0.012935,-2.231525,48.93276,0.034058,0.008224,0.993668,0.029316,-0.005673,-0.022228,60.491379,21.318619,-150.064468,,,
729606310.31173,0.012935,-2.233567,48.928168,0.034058,0.008224,0.993668,0.028189,0.006205,-0.019846,60.491379,21.318619,-150.064468,,,
729606310.315046,0.021385,-2.233567,48.928168,0.034058,0.008224,0.993668,0.028189,0.006205,-0.019846,60.491379,21.318619,-150.064468,,,
729606310.318383,0.030406,-2.232786,48.924893,0.025894,0.002106,0.997452,0.028189,0.006205,-0.019846,60.491379,21.318619,-150.064468,,,
729606310.321686,0.030406,-2.232786,48.924893,0.025894,0.002106,0.997452,0.036606,0.004572,-0.008546,60.491379,21.318619,-150.064468,,,
729606310.325093,0.042733,-2.234587,48.923326,0.025894,0.002106,0.997452,0.036606,0.004572,-0.008546,60.420944,21.361603,-150.188187,,,
729606310.328364,0.055973,-2.234854,48.923255,0.024216,0.000198,1.001358,0.036606,0.004572,-0.008546,60.420944,21.361603,-150.188187,,,
729606310.331705,0.055973,-2.234854,48.923255,0.024216,0.000198,1.001358,0.053782,0.001239,-0.002313,60.420944,21.361603,-150.188187,,,
729606310.33504,0.072227,-2.236577,48.924184,0.024216,0.000198,1.001358,0.053782,0.001239,-0.002313,60.420944,21.361603,-150.188187,,,
729606310.338424,0.088647,-2.235632,48.925393,0.027939,0.002899,1.002472,0.053782,0.001239,-0.002313,60.420944,21.361603,-150.188187,,,
729606310.341719,0.088647,-2.235632,48.925393,0.027939,0.002899,1.002472,0.063512,0.012178,0.000652,60.420944,21.361603,-150.188187,,,
729606310.345057,0.106719,-2.233435,48.926016,0.027939,0.002899,1.002472,0.063512,0.012178,0.000652,60.420944,21.361603,-150.188187,,,
729606310.34839,0.124338,-2.22935,48.926167,0.03331,0.00647,1.001953,0.063512,0.012178,0.000652,60.420944,21.361603,-150.188187,,,
729606310.351744,0.124338,-2.22935,48.926167,0.03331,0.00647,1.001953,0.059732,0.021391,-0.003553,60.420944,21.361603,-150.188187,,,
729606310.355034,0.142602,-2.225811,48.926085,0.03331,0.00647,1.001953,0.059732,0.021391,-0.003553,60.420944,21.361603,-150.188187,,,
729606310.358378,0.158367,-2.219543,48.925927,0.036896,0.005676,0.990631,0.059732,0.021391,-0.003553,60.420944,21.361603,-150.188187,,,
729606310.361722,0.158367,-2.219543,48.925927,0.036896,0.005676,0.990631,0.050573,0.03267,-0.006371,60.420944,21.361603,-150.188187,,,
729606310.365041,0.173442,-2.211869,48.92574,0.036896,0.005676,0.990631,0.050573,0.03267,-0.006371,60.400635,21.234009,-150.180099,,,
729606310.368399,0.18677,-2.201959,48.925986,0.037781,0.004868,0.988907,0.050573,0.03267,-0.006371,60.400635,21.234009,-150.180099,,,
729606310.371712,0.18677,-2.201959,48.925986,0.037781,0.004868,0.988907,0.044483,0.041634,-0.001385,60.400635,21.234009,-150.180099,,,
729606310.375098,0.199844,-2.191371,48.927299,0.037781,0.004868,0.988907,0.044483,0.041634,-0.001385,60.400635,21.234009,-150.180099,,,
729606310.378357,0.212194,-2.180008,48.929442,0.034851,0.004913,0.991302,0.044483,0.041634,-0.001385,60.400635,21.234009,-150.180099,,,
729606310.381737,0.212194,-2.180008,48.929442,0.034851,0.004913,0.991302,0.039622,0.040248,0.008538,60.400635,21.234009,-150.180099,,,
729606310.385069,0.224747,-2.168874,48.932688,0.034851,0.004913,0.991302,0.039622,0.040248,0.008538,60.400635,21.234009,-150.180099,,,
729606310.388366,0.236004,-2.158346,48.93701,0.029953,0.005295,0.989716,0.039622,0.040248,0.008538,60.400635,21.234009,-150.180099,,,
729606310.391752,0.236004,-2.158346,48.93701,0.029953,0.005295,0.989716,0.041207,0.036151,0.014035,60.400635,21.234009,-150.180099,,,
729606310.395039,0.247343,-2.146535,48.941148,0.029953,0.005295,0.989716,0.041207,0.036151,0.014035,60.400635,21.234009,-150.180099,,,
729606310.398369,0.256906,-2.13807,48.944693,0.026535,0.005768,0.989319,0.041207,0.036151,0.014035,60.400635,21.234009,-150.180099,,,
729606310.401732,0.256906,-2.13807,48.944693,0.026535,0.005768,0.989319,0.041207,0.036151,0.014035,60.400635,21.234009,-150.180099,,,
729606310.405041,0.264724,-2.126564,48.947947,0.026535,0.005768,0.989319,0.029695,0.029934,0.00904,60.580307,21.002625,-150.46019,,,
729606310.408363,0.27319,-2.120848,48.95085,0.026016,0.002975,0.98671,0.029695,0.029934,0.00904,60.580307,21.002625,-150.46019,,,
729606310.411709,0.27319,-2.120848,48.95085,0.026016,0.002975,0.98671,0.029695,0.029934,0.00904,60.580307,21.002625,-150.46019,,,
729606310.415048,0.280262,-2.112532,48.954051,0.026016,0.002975,0.98671,0.029515,0.019997,0.009953,60.580307,21.002625,-150.46019,,,
729606310.418367,0.287971,-2.109929,48.958163,0.02475,-0.00116,0.989853,0.029515,0.019997,0.009953,60.580307,21.002625,-150.46019,,,
729606310.421714,0.287971,-2.109929,48.958163,0.02475,-0.00116,0.989853,0.029515,0.019997,0.009953,60.580307,21.002625,-150.46019,,,
729606310.425046,0.29529,-2.105479,48.96296,0.02475,-0.00116,0.989853,0.02512,0.0115,0.012773,60.580307,21.002625,-150.46019,,,
729606310.428369,0.302073,-2.103099,48.968424,0.021805,-3.1e-05,0.992828,0.02512,0.0115,0.012773,60.580307,21.002625,-150.46019,,,
729606310.431754,0.302073,-2.103099,48.968424,0.021805,-3.1e-05,0.992828,0.02512,0.0115,0.012773,60.580307,21.002625,-150.46019,,,
729606310.43504,0.308351,-2.100464,48.974627,0.021805,-3.1e-05,0.992828,0.020641,0.011338,0.018139,60.580307,21.002625,-150.46019,,,
729606310.438157,0.313152,-2.098019,48.981226,0.023911,0.001801,0.992981,0.020641,0.011338,0.018139,60.580307,21.002625,-150.46019,,,
729606310.441819,0.313152,-2.098019,48.981226,0.023911,0.001801,0.992981,0.020641,0.011338,0.018139,60.580307,21.002625,-150.46019,,,
729606310.445098,0.316253,-2.095113,48.987753,0.023911,0.001801,0.992981,0.011358,0.014632,0.02055,60.580307,21.002625,-150.46019,,,
729606310.448364,0.317344,-2.089325,48.994285,0.029846,0.000412,0.988876,0.011358,0.014632,0.02055,60.614456,21.151443,-149.996246,,,
729606310.451823,0.317344,-2.089325,48.994285,0.029846,0.000412,0.988876,0.011358,0.014632,0.02055,60.614456,21.151443,-149.996246,,,
729606310.455039,0.315892,-2.080959,49.000625,0.029846,0.000412,0.988876,-0.006571,0.034789,0.020112,60.614456,21.151443,-149.996246,,,
729606310.458371,0.312174,-2.071513,49.006555,0.035126,-0.000931,0.989792,-0.006571,0.034789,0.020112,60.614456,21.151443,-149.996246,,,
729606310.461744,0.312174,-2.071513,49.006555,0.035126,-0.000931,0.989792,-0.006571,0.034789,0.020112,60.614456,21.151443,-149.996246,,,
729606310.465037,0.306046,-2.062168,49.01205,0.035126,-0.000931,0.989792,-0.021436,0.03542,0.020608,60.614456,21.151443,-149.996246,,,
729606310.46837,0.29818,-2.05475,49.017726,0.033005,-0.000504,0.983521,-0.021436,0.03542,0.020608,60.614456,21.151443,-149.996246,,,
729606310.471753,0.29818,-2.05475,49.017726,0.033005,-0.000504,0.983521,-0.021436,0.03542,0.020608,60.614456,21.151443,-149.996246,,,
729606310.475036,0.288437,-2.045895,49.024785,0.033005,-0.000504,0.983521,-0.033323,0.024142,0.025211,60.614456,21.151443,-149.996246,,,
729606310.478368,0.276397,-2.04112,49.032858,0.028244,6.1e-05,0.985138,-0.033323,0.024142,0.025211,60.614456,21.151443,-149.996246,,,
729606310.481809,0.276397,-2.04112,49.032858,0.028244,6.1e-05,0.985138,-0.033323,0.024142,0.025211,60.614456,21.151443,-149.996246,,,
729606310.485025,0.263574,-2.036211,49.041058,0.028244,6.1e-05,0.985138,-0.042743,0.010959,0.028638,60.614456,21.151443,-149.996246,,,
729606310.488373,0.250721,-2.037758,49.048684,0.032898,-0.000824,0.988922,-0.042743,0.010959,0.028638,60.80574,20.910995,-150.166977,,,
729606310.491742,0.250721,-2.037758,49.048684,0.032898,-0.000824,0.988922,-0.042743,0.010959,0.028638,60.80574,20.910995,-150.166977,,,
729606310.495108,0.238114,-2.038406,49.05531,0.032898,-0.000824,0.988922,-0.041501,-0.010276,0.023661,60.80574,20.910995,-150.166977,,,
729606310.498354,0.227292,-2.043146,49.060638,0.037094,-0.002655,0.99736,-0.041501,-0.010276,0.023661,60.80574,20.910995,-150.166977,,,
729606310.501712,0.227292,-2.043146,49.060638,0.037094,-0.002655,0.99736,-0.041501,-0.010276,0.023661,60.80574,20.910995,-150.166977,,,
729606310.505018,0.216351,-2.04423,49.0648,0.037094,-0.002655,0.99736,-0.032224,-0.013014,0.011794,60.80574,20.910995,-150.166977,,,
729606310.508358,0.207637,-2.048945,49.068244,0.039062,-0.007141,1.008316,-0.032224,-0.013014,0.011794,60.80574,20.910995,-150.166977,,,
729606310.511742,0.207637,-2.048945,49.068244,0.039062,-0.007141,1.008316,-0.032224,-0.013014,0.011794,60.80574,20.910995,-150.166977,,,
729606310.515051,0.19884,-2.047756,49.071193,0.039062,-0.007141,1.008316,-0.025664,-0.008833,0.009452,60.80574,20.910995,-150.166977,,,
729606310.518359,0.191921,-2.048188,49.074349,0.036758,-0.00885,1.010117,-0.025664,-0.008833,0.009452,60.80574,20.910995,-150.166977,,,
729606310.521693,0.191921,-2.048188,49.074349,0.036758,-0.00885,1.010117,-0.025664,-0.008833,0.009452,60.80574,20.910995,-150.166977,,,
729606310.525048,0.186026,-2.042199,49.078435,0.036758,-0.00885,1.010117,-0.019336,0.013063,0.011529,60.80574,20.910995,-150.166977,,,
729606310.528355,0.182172,-2.036032,49.08429,0.032532,-0.010162,1.015945,-0.019336,0.013063,0.011529,60.613388,21.254654,-149.960037,,,
729606310.531742,0.182172,-2.036032,49.08429,0.032532,-0.010162,1.015945,-0.019336,0.013063,0.011529,60.613388,21.254654,-149.960037,,,
729606310.53504,0.180013,-2.025487,49.092263,0.032532,-0.010162,1.015945,-0.002452,0.038524,0.025461,60.613388,21.254654,-149.960037,,,
729606310.538378,0.180616,-2.013627,49.102673,0.029495,-0.015152,1.01828,-0.002452,0.038524,0.025461,60.613388,21.254654,-149.960037,,,
729606310.541704,0.180616,-2.013627,49.102673,0.029495,-0.015152,1.01828,-0.002452,0.038524,0.025461,60.613388,21.254654,-149.960037,,,
729606310.545121,0.181161,-2.001075,49.115333,0.029495,-0.015152,1.01828,0.0079,0.050403,0.040498,60.613388,21.254654,-149.960037,,,
729606310.548361,0.183207,-1.989037,49.128875,0.033539,-0.014481,1.006302,0.0079,0.050403,0.040498,60.613388,21.254654,-149.960037,,,
729606310.551701,0.183207,-1.989037,49.128875,0.033539,-0.014481,1.006302,0.0079,0.050403,0.040498,60.613388,21.254654,-149.960037,,,
729606310.555049,0.184053,-1.977501,49.141735,0.033539,-0.014481,1.006302,0.011353,0.039401,0.044244,60.613388,21.254654,-149.960037,,,
729606310.558363,0.184519,-1.967979,49.153611,0.037796,-0.00795,0.988632,0.011353,0.039401,0.044244,60.613388,21.254654,-149.960037,,,
729606310.561709,0.184519,-1.967979,49.153611,0.037796,-0.00795,0.988632,0.011353,0.039401,0.044244,60.613388,21.254654,-149.960037,,,
729606310.565057,0.182127,-1.956901,49.163962,0.037796,-0.00795,0.988632,-0.001716,0.035764,0.036213,60.613388,21.254654,-149.960037,,,
729606310.568465,0.177377,-1.94762,49.171996,0.043655,-0.001236,0.981186,-0.001716,0.035764,0.036213,60.927002,21.194031,-150.336685,,,
729606310.571689,0.177377,-1.94762,49.171996,0.043655,-0.001236,0.981186,-0.001716,0.035764,0.036213,60.927002,21.194031,-150.336685,,,
729606310.575063,0.168664,-1.939738,49.178386,0.043655,-0.001236,0.981186,-0.025378,0.031026,0.022973,60.927002,21.194031,-150.336685,,,
729606310.578367,0.158165,-1.932997,49.183673,0.045929,0.000885,0.968887,-0.025378,0.031026,0.022973,60.927002,21.194031,-150.336685,,,
729606310.581766,0.158165,-1.932997,49.183673,0.045929,0.000885,0.968887,-0.025378,0.031026,0.022973,60.927002,21.194031,-150.336685,,,
729606310.585049,0.143281,-1.929835,49.188123,0.045929,0.000885,0.968887,-0.04605,0.023729,0.015874,60.927002,21.194031,-150.336685,,,
729606310.588375,0.12732,-1.92679,49.191961,0.0495,-0.000488,0.966995,-0.04605,0.023729,0.015874,60.927002,21.194031,-150.336685,,,
729606310.591689,0.12732,-1.92679,49.191961,0.0495,-0.000488,0.966995,-0.04605,0.023729,0.015874,60.927002,21.194031,-150.336685,,,
729606310.595118,0.107664,-1.926277,49.194631,0.0495,-0.000488,0.966995,-0.062519,0.010588,0.006294,60.927002,21.194031,-150.336685,,,
729606310.598359,0.089279,-1.924701,49.196026,0.051102,-0.000916,0.971237,-0.062519,0.010588,0.006294,60.927002,21.194031,-150.336685,,,
729606310.601716,0.089279,-1.924701,49.196026,0.051102,-0.000916,0.971237,-0.062519,0.010588,0.006294,60.927002,21.194031,-150.336685,,,
729606310.605032,0.068283,-1.923282,49.196091,0.051102,-0.000916,0.971237,-0.063501,0.012617,-0.002313,60.927002,21.194031,-150.336685,,,
729606310.608367,0.04957,-1.920967,49.194936,0.049881,-0.002701,0.978287,-0.063501,0.012617,-0.002313,60.927002,21.194031,-150.336685,,,
729606310.611722,0.04957,-1.920967,49.194936,0.049881,-0.002701,0.978287,-0.063501,0.012617,-0.002313,61.061722,21.264389,-150.264297,,,
729606310.615044,0.028058,-1.917455,49.193122,0.049881,-0.002701,0.978287,-0.063093,0.010909,-0.006807,61.061722,21.264389,-150.264297,,,
729606310.618363,0.009219,-1.915502,49.190622,0.051208,-0.00386,0.978195,-0.063093,0.010909,-0.006807,61.061722,21.264389,-150.264297,,,
729606310.621699,0.009219,-1.915502,49.190622,0.051208,-0.00386,0.978195,-0.063093,0.010909,-0.006807,61.061722,21.264389,-150.264297,,,
729606310.625047,-0.013155,-1.91195,49.187315,0.051208,-0.00386,0.978195,-0.066417,0.013028,-0.012472,61.061722,21.264389,-150.264297,,,
729606310.628368,-0.03303,-1.907618,49.183443,0.052902,-0.002548,0.977325,-0.066417,0.013028,-0.012472,61.061722,21.264389,-150.264297,,,
729606310.631775,-0.03303,-1.907618,49.183443,0.052902,-0.002548,0.977325,-0.066417,0.013028,-0.012472,61.061722,21.264389,-150.264297,,,
729606310.635033,-0.057007,-1.901687,49.17937,0.052902,-0.002548,0.977325,-0.073841,0.02796,-0.014418,61.061722,21.264389,-150.264297,,,
729606310.63836,-0.079151,-1.89379,49.17576,0.047852,-0.005737,0.981186,-0.073841,0.02796,-0.014418,61.061722,21.264389,-150.264297,,,
729606310.641708,-0.079151,-1.89379,49.17576,0.047852,-0.005737,0.981186,-0.073841,0.02796,-0.014418,61.061722,21.264389,-150.264297,,,
729606310.645109,-0.101946,-1.887983,49.173098,0.047852,-0.005737,0.981186,-0.076785,0.035085,-0.007964,61.061722,21.264389,-150.264297,,,
729606310.648358,-0.123566,-1.879521,49.170642,0.044525,-0.005234,0.99176,-0.076785,0.035085,-0.007964,61.061722,21.264389,-150.264297,,,
729606310.6517,-0.123566,-1.879521,49.170642,0.044525,-0.005234,0.99176,-0.076785,0.035085,-0.007964,60.907516,21.585236,-150.309525,,,
729606310.655053,-0.145049,-1.876179,49.16708,0.044525,-0.005234,0.99176,-0.07766,0.02966,-0.010571,60.907516,21.585236,-150.309525,,,
729606310.658412,-0.166769,-1.869292,49.161813,0.045212,-0.002441,0.995789,-0.07766,0.02966,-0.010571,60.907516,21.585236,-150.309525,,,
729606310.661682,-0.166769,-1.869292,49.161813,0.045212,-0.002441,0.995789,-0.07766,0.02966,-0.010571,60.907516,21.585236,-150.309525,,,
729606310.665053,-0.186857,-1.868215,49.154613,0.045212,-0.002441,0.995789,-0.072291,0.024679,-0.026412,60.907516,21.585236,-150.309525,,,
729606310.668361,-0.207432,-1.862614,49.145058,0.043365,-0.000122,0.99852,-0.072291,0.024679,-0.026412,60.907516,21.585236,-150.309525,,,
729606310.671705,-0.207432,-1.862614,49.145058,0.043365,-0.000122,0.99852,-0.072291,0.024679,-0.026412,60.907516,21.585236,-150.309525,,,
729606310.674898,-0.226036,-1.864236,49.133027,0.043365,-0.000122,0.99852,-0.065742,0.019535,-0.042812,60.907516,21.585236,-150.309525,,,
729606310.678392,-0.243778,-1.8614,49.119337,0.039139,0.001343,1.003082,-0.065742,0.019535,-0.042812,60.907516,21.585236,-150.309525,,,
729606310.681776,-0.243778,-1.8614,49.119337,0.039139,0.001343,1.003082,-0.065742,0.019535,-0.042812,60.907516,21.585236,-150.309525,,,
729606310.68504,-0.260313,-1.866973,49.105329,0.039139,0.001343,1.003082,-0.058537,0.002456,-0.048445,60.907516,21.585236,-150.309525,,,
729606310.688454,-0.276821,-1.866562,49.091759,0.028198,-0.001526,1.001755,-0.058537,0.002456,-0.048445,60.907516,21.585236,-150.309525,,,
729606310.691695,-0.276821,-1.866562,49.091759,0.028198,-0.001526,1.001755,-0.058537,0.002456,-0.048445,60.938675,21.778366,-150.415695,,,
729606310.695106,-0.29237,-1.869894,49.078814,0.028198,-0.001526,1.001755,-0.058697,0.009951,-0.044801,60.938675,21.778366,-150.415695,,,
729606310.698352,-0.307313,-1.86719,49.067405,0.021164,-0.005478,1.008606,-0.058697,0.009951,-0.044801,60.938675,21.778366,-150.415695,,,
729606310.701703,-0.307313,-1.86719,49.067405,0.021164,-0.005478,1.008606,-0.058697,0.009951,-0.044801,60.938675,21.778366,-150.415695,,,
729606310.705049,-0.320257,-1.871351,49.057193,0.021164,-0.005478,1.008606,-0.046625,0.008151,-0.036253,60.938675,21.778366,-150.415695,,,
729606310.70839,-0.331215,-1.870792,49.047647,0.021744,-0.004211,1.011276,-0.046625,0.008151,-0.036253,60.938675,21.778366,-150.415695,,,
729606310.711694,-0.331215,-1.870792,49.047647,0.021744,-0.004211,1.011276,-0.046625,0.008151,-0.036253,60.938675,21.778366,-150.415695,,,
729606310.715058,-0.338605,-1.876008,49.038785,0.021744,-0.004211,1.011276,-0.025927,0.008651,-0.030875,60.938675,21.778366,-150.415695,,,
729606310.718365,-0.342373,-1.872929,49.030071,0.023911,-0.000885,1.021927,-0.025927,0.008651,-0.030875,60.938675,21.778366,-150.415695,,,
729606310.721706,-0.342373,-1.872929,49.030071,0.023911,-0.000885,1.021927,-0.025927,0.008651,-0.030875,60.938675,21.778366,-150.415695,,,
729606310.725047,-0.342816,-1.872227,49.021259,0.023911,-0.000885,1.021927,-0.000858,0.022518,-0.030131,60.938675,21.778366,-150.415695,,,
729606310.728367,-0.339931,-1.864595,49.01313,0.020142,0.003754,1.027527,-0.000858,0.022518,-0.030131,60.938675,21.778366,-150.415695,,,
729606310.731747,-0.339931,-1.864595,49.01313,0.020142,0.003754,1.027527,-0.000858,0.022518,-0.030131,60.938675,21.778366,-150.415695,,,
729606310.735022,-0.333524,-1.8584,49.006435,0.020142,0.003754,1.027527,0.023032,0.037856,-0.026799,61.184326,21.70433,-150.466278,,,
729606310.738364,-0.325462,-1.84631,49.001208,0.018784,0.003403,1.024323,0.023032,0.037856,-0.026799,61.184326,21.70433,-150.466278,,,
729606310.741707,-0.325462,-1.84631,49.001208,0.018784,0.003403,1.024323,0.023032,0.037856,-0.026799,61.184326,21.70433,-150.466278,,,
729606310.745084,-0.314623,-1.837643,48.996766,0.018784,0.003403,1.024323,0.037145,0.049035,-0.016059,61.184326,21.70433,-150.466278,,,
729606310.748351,-0.303508,-1.823964,48.993006,0.019211,0.005844,1.016693,0.037145,0.049035,-0.016059,61.184326,21.70433,-150.466278,,,
729606310.75171,-0.303508,-1.823964,48.993006,0.019211,0.005844,1.016693,0.037145,0.049035,-0.016059,61.184326,21.70433,-150.466278,,,
729606310.755046,-0.291276,-1.815589,48.990083,0.019211,0.005844,1.016693,0.035595,0.04653,-0.012898,61.184326,21.70433,-150.466278,,,
729606310.758389,-0.281052,-1.806621,48.987537,0.015991,0.008972,1.00412,0.035595,0.04653,-0.012898,61.184326,21.70433,-150.466278,,,
729606310.761697,-0.281052,-1.806621,48.987537,0.015991,0.008972,1.00412,0.035595,0.04653,-0.012898,61.184326,21.70433,-150.466278,,,
729606310.765046,-0.270471,-1.802525,48.98476,0.015991,0.008972,1.00412,0.031494,0.022061,-0.013255,61.184326,21.70433,-150.466278,,,
729606310.768365,-0.26184,-1.801506,48.980874,0.010635,0.010345,1.001511,0.031494,0.022061,-0.013255,61.184326,21.70433,-150.466278,,,
729606310.771691,-0.26184,-1.801506,48.980874,0.010635,0.010345,1.001511,0.031494,0.022061,-0.013255,61.184326,21.70433,-150.466278,,,
729606310.775033,-0.252908,-1.801411,48.975552,0.010635,0.010345,1.001511,0.030025,-0.005931,-0.021704,61.065582,21.470657,-150.575272,,,
729606310.778354,-0.243334,-1.806758,48.969225,0.009384,0.011536,1.002899,0.030025,-0.005931,-0.021704,61.065582,21.470657,-150.575272,,,
729606310.781803,-0.243334,-1.806758,48.969225,0.009384,0.011536,1.002899,0.030025,-0.005931,-0.021704,61.065582,21.470657,-150.575272,,,
729606310.785047,-0.232902,-1.810309,48.962237,0.009384,0.011536,1.002899,0.038913,-0.025674,-0.028225,61.065582,21.470657,-150.575272,,,
