Time (sec),Pitch (deg),Roll (deg),Yaw(deg),X-Acceleration (g),Y-Acceleration (g),Z-Acceleration (g),Pitch Rate (deg/sec),Roll Rate (deg/sec),Yaw Rate (deg/sec),Magnetic Field in X direction (uT),Magnetic Field in Y direction (uT),Magnetic Field in Z Direction (uT),Latitude (deg),Longitude (deg),Altitude (m)
729606152.612426,2.931821,-5.148658,-12.857521,0.092438,0.054672,0.990341,-0.036082,0.025606,-0.005626,63.763168,5.967484,-147.20787,,,
729606152.615725,2.918139,-5.148036,-12.862134,0.095261,0.055481,0.984009,-0.049374,0.000515,-0.01269,63.763168,5.967484,-147.20787,,,
729606152.619045,2.902409,-5.15199,-12.868089,0.095261,0.055481,0.984009,-0.049374,0.000515,-0.01269,63.763168,5.967484,-147.20787,,,
729606152.622389,2.902409,-5.15199,-12.868089,0.095261,0.055481,0.984009,-0.049374,0.000515,-0.01269,63.763168,5.967484,-147.20787,,,
729606152.625782,2.888531,-5.161817,-12.875159,0.09848,0.05687,0.983643,-0.0476,-0.039004,-0.023781,63.763168,5.967484,-147.20787,,,
729606152.629055,2.877527,-5.177149,-12.883492,0.09848,0.05687,0.983643,-0.0476,-0.039004,-0.023781,63.763168,5.967484,-147.20787,,,
729606152.632393,2.877527,-5.177149,-12.883492,0.09848,0.05687,0.983643,-0.0476,-0.039004,-0.023781,63.592255,6.127289,-147.36972,,,
729606152.63574,2.868139,-5.196196,-12.89303,0.102295,0.050781,0.993332,-0.032985,-0.066522,-0.033058,63.592255,6.127289,-147.36972,,,
729606152.639107,2.860171,-5.2187,-12.903651,0.102295,0.050781,0.993332,-0.032985,-0.066522,-0.033058,63.592255,6.127289,-147.36972,,,
729606152.642379,2.860171,-5.2187,-12.903651,0.102295,0.050781,0.993332,-0.032985,-0.066522,-0.033058,63.592255,6.127289,-147.36972,,,
729606152.645727,2.853401,-5.239604,-12.915573,0.104904,0.046753,0.999527,-0.024592,-0.073992,-0.04262,63.592255,6.127289,-147.36972,,,
729606152.649063,2.849392,-5.262261,-12.928302,0.104904,0.046753,0.999527,-0.024592,-0.073992,-0.04262,63.592255,6.127289,-147.36972,,,
729606152.652496,2.849392,-5.262261,-12.928302,0.104904,0.046753,0.999527,-0.024592,-0.073992,-0.04262,63.592255,6.127289,-147.36972,,,
729606152.655783,2.845656,-5.278906,-12.941364,0.111191,0.046112,1.004395,-0.015257,-0.053301,-0.044924,63.592255,6.127289,-147.36972,,,
729606152.659057,2.843826,-5.29101,-12.954056,0.111191,0.046112,1.004395,-0.015257,-0.053301,-0.044924,63.592255,6.127289,-147.36972,,,
729606152.662397,2.843826,-5.29101,-12.954056,0.111191,0.046112,1.004395,-0.015257,-0.053301,-0.044924,63.592255,6.127289,-147.36972,,,
729606152.665782,2.842808,-5.29441,-12.966458,0.113235,0.049774,1.014236,-0.007439,-0.004416,-0.044067,63.592255,6.127289,-147.36972,,,
729606152.669083,2.843311,-5.291022,-12.977863,0.113235,0.049774,1.014236,-0.007439,-0.004416,-0.044067,63.592255,6.127289,-147.36972,,,
729606152.67238,2.843311,-5.291022,-12.977863,0.113235,0.049774,1.014236,-0.007439,-0.004416,-0.044067,63.73497,6.195511,-147.168213,,,
729606152.675713,2.843825,-5.282384,-12.987731,0.109558,0.046692,1.010696,0.000184,0.036981,-0.033022,63.73497,6.195511,-147.168213,,,
729606152.67913,2.845401,-5.269576,-12.996246,0.109558,0.046692,1.010696,0.000184,0.036981,-0.033022,63.73497,6.195511,-147.168213,,,
729606152.682384,2.845401,-5.269576,-12.996246,0.109558,0.046692,1.010696,0.000184,0.036981,-0.033022,63.73497,6.195511,-147.168213,,,
729606152.685716,2.84544,-5.254559,-13.00335,0.103561,0.039688,1.001755,-0.004675,0.058415,-0.024503,63.73497,6.195511,-147.168213,,,
729606152.689048,2.845673,-5.239129,-13.009202,0.103561,0.039688,1.001755,-0.004675,0.058415,-0.024503,63.73497,6.195511,-147.168213,,,
729606152.692439,2.845673,-5.239129,-13.009202,0.103561,0.039688,1.001755,-0.004675,0.058415,-0.024503,63.73497,6.195511,-147.168213,,,
729606152.695713,2.842712,-5.222779,-13.014597,0.098358,0.039581,0.985321,-0.014023,0.058153,-0.017102,63.73497,6.195511,-147.168213,,,
729606152.699064,2.83858,-5.210753,-13.019993,0.098358,0.039581,0.985321,-0.014023,0.058153,-0.017102,63.73497,6.195511,-147.168213,,,
729606152.702414,2.83858,-5.210753,-13.019993,0.098358,0.039581,0.985321,-0.014023,0.058153,-0.017102,63.73497,6.195511,-147.168213,,,
729606152.705777,2.830427,-5.199308,-13.026589,0.093948,0.044617,0.972198,-0.032924,0.037917,-0.023406,63.73497,6.195511,-147.168213,,,
729606152.709052,2.830427,-5.199308,-13.026589,0.093948,0.044617,0.972198,-0.032924,0.037917,-0.023406,63.73497,6.195511,-147.168213,,,
729606152.712383,2.820764,-5.194998,-13.035083,0.093948,0.044617,0.972198,-0.032924,0.037917,-0.023406,63.831085,6.319092,-147.181992,,,
729606152.715728,2.80799,-5.19236,-13.046007,0.091644,0.048996,0.966797,-0.049757,0.006763,-0.0382,63.831085,6.319092,-147.181992,,,
729606152.71912,2.79478,-5.198584,-13.05874,0.091644,0.048996,0.966797,-0.049757,0.006763,-0.0382,63.831085,6.319092,-147.181992,,,
729606152.722389,2.79478,-5.198584,-13.05874,0.091644,0.048996,0.966797,-0.049757,0.006763,-0.0382,63.831085,6.319092,-147.181992,,,
729606152.725716,2.781548,-5.205282,-13.073035,0.088699,0.045502,0.97171,-0.051634,-0.027332,-0.048117,63.831085,6.319092,-147.181992,,,
729606152.729054,2.781548,-5.205282,-13.073035,0.088699,0.045502,0.97171,-0.051634,-0.027332,-0.048117,63.831085,6.319092,-147.181992,,,
729606152.732457,2.767816,-5.221112,-13.087491,0.088699,0.045502,0.97171,-0.051634,-0.027332,-0.048117,63.831085,6.319092,-147.181992,,,
729606152.735759,2.755211,-5.233148,-13.102063,0.082245,0.039032,0.975632,-0.048063,-0.042921,-0.048472,63.831085,6.319092,-147.181992,,,
729606152.739047,2.755211,-5.233148,-13.102063,0.082245,0.039032,0.975632,-0.048063,-0.042921,-0.048472,63.831085,6.319092,-147.181992,,,
729606152.742392,2.742887,-5.252035,-13.115322,0.082245,0.039032,0.975632,-0.048063,-0.042921,-0.048472,63.831085,6.319092,-147.181992,,,
729606152.745717,2.731954,-5.264122,-13.127609,0.085526,0.038971,0.986191,-0.037641,-0.040339,-0.039967,63.831085,6.319092,-147.181992,,,
729606152.749112,2.731954,-5.264122,-13.127609,0.085526,0.038971,0.986191,-0.037641,-0.040339,-0.039967,63.831085,6.319092,-147.181992,,,
729606152.752443,2.72209,-5.281081,-13.138615,0.085526,0.038971,0.986191,-0.037641,-0.040339,-0.039967,63.831085,6.319092,-147.181992,,,
729606152.755712,2.711488,-5.289355,-13.149329,0.090027,0.044449,0.991714,-0.038932,-0.025763,-0.033184,63.744629,6.237991,-147.399048,,,
729606152.759117,2.711488,-5.289355,-13.149329,0.090027,0.044449,0.991714,-0.038932,-0.025763,-0.033184,63.744629,6.237991,-147.399048,,,
729606152.762388,2.69945,-5.299137,-13.159946,0.090027,0.044449,0.991714,-0.038932,-0.025763,-0.033184,63.744629,6.237991,-147.399048,,,
729606152.765708,2.689014,-5.301341,-13.170644,0.092728,0.045486,0.991577,-0.036925,-0.00408,-0.036372,63.744629,6.237991,-147.399048,,,
729606152.769052,2.689014,-5.301341,-13.170644,0.092728,0.045486,0.991577,-0.036925,-0.00408,-0.036372,63.744629,6.237991,-147.399048,,,
729606152.772451,2.677404,-5.303545,-13.181455,0.092728,0.045486,0.991577,-0.036925,-0.00408,-0.036372,63.744629,6.237991,-147.399048,,,
729606152.775711,2.667343,-5.300567,-13.192665,0.090408,0.046066,0.994736,-0.037211,0.012215,-0.036796,63.744629,6.237991,-147.399048,,,
729606152.779062,2.667343,-5.300567,-13.192665,0.090408,0.046066,0.994736,-0.037211,0.012215,-0.036796,63.744629,6.237991,-147.399048,,,
729606152.782396,2.656445,-5.297897,-13.203759,0.090408,0.046066,0.994736,-0.037211,0.012215,-0.036796,63.744629,6.237991,-147.399048,,,
729606152.785742,2.646861,-5.292174,-13.214906,0.089981,0.047272,0.995117,-0.037301,0.02302,-0.037221,63.744629,6.237991,-147.399048,,,
729606152.789046,2.646861,-5.292174,-13.214906,0.089981,0.047272,0.995117,-0.037301,0.02302,-0.037221,63.744629,6.237991,-147.399048,,,
729606152.792389,2.636766,-5.287544,-13.225599,0.089981,0.047272,0.995117,-0.037301,0.02302,-0.037221,63.744629,6.237991,-147.399048,,,
729606152.795711,2.625156,-5.282634,-13.235925,0.087616,0.043991,0.990799,-0.040763,0.016526,-0.033849,63.955032,6.24704,-147.413635,,,
729606152.799127,2.625156,-5.282634,-13.235925,0.087616,0.043991,0.990799,-0.040763,0.016526,-0.033849,63.955032,6.24704,-147.413635,,,
729606152.802409,2.613497,-5.278945,-13.246025,0.087616,0.043991,0.990799,-0.040763,0.016526,-0.033849,63.955032,6.24704,-147.413635,,,
729606152.805708,2.600129,-5.275037,-13.256623,0.084991,0.04599,0.985596,-0.049518,0.0172,-0.033299,63.955032,6.24704,-147.413635,,,
729606152.809051,2.600129,-5.275037,-13.256623,0.084991,0.04599,0.985596,-0.049518,0.0172,-0.033299,63.955032,6.24704,-147.413635,,,
729606152.812442,2.58629,-5.270561,-13.267974,0.084991,0.04599,0.985596,-0.049518,0.0172,-0.033299,63.955032,6.24704,-147.413635,,,
729606152.815702,2.573748,-5.269097,-13.279692,0.088074,0.048813,0.987,-0.044263,0.00343,-0.038781,63.955032,6.24704,-147.413635,,,
729606152.819091,2.573748,-5.269097,-13.279692,0.088074,0.048813,0.987,-0.044263,0.00343,-0.038781,63.955032,6.24704,-147.413635,,,
729606152.822388,2.561045,-5.266267,-13.292113,0.088074,0.048813,0.987,-0.044263,0.00343,-0.038781,63.955032,6.24704,-147.413635,,,
729606152.825717,2.549856,-5.26601,-13.305037,0.093597,0.053879,0.991287,-0.040759,0.002107,-0.040371,63.955032,6.24704,-147.413635,,,
729606152.829058,2.549856,-5.26601,-13.305037,0.093597,0.053879,0.991287,-0.040759,0.002107,-0.040371,63.955032,6.24704,-147.413635,,,
729606152.832388,2.53789,-5.263606,-13.318466,0.093597,0.053879,0.991287,-0.040759,0.002107,-0.040371,63.955032,6.24704,-147.413635,,,
729606152.835738,2.526156,-5.261087,-13.331936,0.087067,0.055313,0.994308,-0.045887,0.012885,-0.044225,63.854446,6.282379,-147.337585,,,
729606152.839093,2.526156,-5.261087,-13.331936,0.087067,0.055313,0.994308,-0.045887,0.012885,-0.044225,63.854446,6.282379,-147.337585,,,
729606152.842371,2.513735,-5.257266,-13.345011,0.087067,0.055313,0.994308,-0.045887,0.012885,-0.044225,63.854446,6.282379,-147.337585,,,
729606152.845711,2.499867,-5.252385,-13.357511,0.084351,0.053528,0.990143,-0.051966,0.019102,-0.039125,63.854446,6.282379,-147.337585,,,
729606152.849053,2.499867,-5.252385,-13.357511,0.084351,0.053528,0.990143,-0.051966,0.019102,-0.039125,63.854446,6.282379,-147.337585,,,
729606152.85249,2.484961,-5.246653,-13.368882,0.084351,0.053528,0.990143,-0.051966,0.019102,-0.039125,63.854446,6.282379,-147.337585,,,
729606152.855706,2.469061,-5.23921,-13.379563,0.084641,0.052231,0.992233,-0.058298,0.030578,-0.035654,63.854446,6.282379,-147.337585,,,
729606152.859058,2.469061,-5.23921,-13.379563,0.084641,0.052231,0.992233,-0.058298,0.030578,-0.035654,63.854446,6.282379,-147.337585,,,
729606152.8624,2.454448,-5.23061,-13.390181,0.084641,0.052231,0.992233,-0.058298,0.030578,-0.035654,63.854446,6.282379,-147.337585,,,
729606152.865742,2.439921,-5.223036,-13.400203,0.083405,0.054459,0.997742,-0.051625,0.028824,-0.033616,63.854446,6.282379,-147.337585,,,
729606152.869094,2.439921,-5.223036,-13.400203,0.083405,0.054459,0.997742,-0.051625,0.028824,-0.033616,63.854446,6.282379,-147.337585,,,
729606152.872395,2.428146,-5.214961,-13.409886,0.083405,0.054459,0.997742,-0.051625,0.028824,-0.033616,63.854446,6.282379,-147.337585,,,
729606152.875789,2.417132,-5.20679,-13.41929,0.080963,0.05127,1.00499,-0.037415,0.028709,-0.031002,63.86705,6.317993,-147.208832,,,
729606152.879111,2.417132,-5.20679,-13.41929,0.080963,0.05127,1.00499,-0.037415,0.028709,-0.031002,63.86705,6.317993,-147.208832,,,
729606152.882373,2.408479,-5.196186,-13.428403,0.080963,0.05127,1.00499,-0.037415,0.028709,-0.031002,63.86705,6.317993,-147.208832,,,
729606152.885744,2.402017,-5.186572,-13.436698,0.07933,0.048645,1.011383,-0.023176,0.035857,-0.027217,63.86705,6.317993,-147.208832,,,
729606152.889053,2.402017,-5.186572,-13.436698,0.07933,0.048645,1.011383,-0.023176,0.035857,-0.027217,63.86705,6.317993,-147.208832,,,
729606152.892441,2.399177,-5.175584,-13.444,0.07933,0.048645,1.011383,-0.023176,0.035857,-0.027217,63.86705,6.317993,-147.208832,,,
729606152.89571,2.396516,-5.166138,-13.449635,0.072601,0.047501,1.009979,-0.009009,0.032727,-0.016977,63.86705,6.317993,-147.208832,,,
729606152.899048,2.396516,-5.166138,-13.449635,0.072601,0.047501,1.009979,-0.009009,0.032727,-0.016977,63.86705,6.317993,-147.208832,,,
729606152.90242,2.39608,-5.157689,-13.453315,0.072601,0.047501,1.009979,-0.009009,0.032727,-0.016977,63.86705,6.317993,-147.208832,,,
729606152.905712,2.394,-5.149716,-13.455817,0.068695,0.04361,1.006012,-0.00576,0.02917,-0.010465,63.86705,6.317993,-147.208832,,,
729606152.90905,2.394,-5.149716,-13.455817,0.068695,0.04361,1.006012,-0.00576,0.02917,-0.010465,63.86705,6.317993,-147.208832,,,
729606152.912379,2.394856,-5.144126,-13.457898,0.068695,0.04361,1.006012,-0.00576,0.02917,-0.010465,63.86705,6.317993,-147.208832,,,
729606152.915716,2.392913,-5.13942,-13.460216,0.071548,0.045746,1.00293,-0.006748,0.019162,-0.00836,63.86705,6.317993,-147.208832,,,
729606152.919069,2.392913,-5.13942,-13.460216,0.071548,0.045746,1.00293,-0.006748,0.019162,-0.00836,63.981644,6.580734,-147.660233,,,
729606152.922376,2.394373,-5.134904,-13.462473,0.071548,0.045746,1.00293,-0.006748,0.019162,-0.00836,63.981644,6.580734,-147.660233,,,
729606152.925715,2.393534,-5.133005,-13.464634,0.070877,0.046585,1.004761,-0.003103,0.007582,-0.010179,63.981644,6.580734,-147.660233,,,
729606152.929125,2.393534,-5.133005,-13.464634,0.070877,0.046585,1.004761,-0.003103,0.007582,-0.010179,63.981644,6.580734,-147.660233,,,
729606152.932381,2.395514,-5.13205,-13.46681,0.070877,0.046585,1.004761,-0.003103,0.007582,-0.010179,63.981644,6.580734,-147.660233,,,
729606152.935738,2.395905,-5.134577,-13.468922,0.069183,0.043289,1.005402,0.005199,-0.007607,-0.007518,63.981644,6.580734,-147.660233,,,
729606152.93904,2.395905,-5.134577,-13.468922,0.069183,0.043289,1.005402,0.005199,-0.007607,-0.007518,63.981644,6.580734,-147.660233,,,
729606152.942443,2.400277,-5.136728,-13.47097,0.069183,0.043289,1.005402,0.005199,-0.007607,-0.007518,63.981644,6.580734,-147.660233,,,
729606152.945707,2.403375,-5.141604,-13.472348,0.072418,0.043579,1.006836,0.008274,-0.014871,-0.006695,63.981644,6.580734,-147.660233,,,
729606152.949067,2.403375,-5.141604,-13.472348,0.072418,0.043579,1.006836,0.008274,-0.014871,-0.006695,63.981644,6.580734,-147.660233,,,
729606152.952403,2.409287,-5.145286,-13.472892,0.072418,0.043579,1.006836,0.008274,-0.014871,-0.006695,63.981644,6.580734,-147.660233,,,
729606152.955708,2.413291,-5.151165,-13.472587,0.073563,0.043716,1.004974,0.016558,-0.019357,-0.001886,63.981644,6.580734,-147.660233,,,
729606152.959042,2.413291,-5.151165,-13.472587,0.073563,0.043716,1.004974,0.016558,-0.019357,-0.001886,63.934708,6.444962,-147.503769,,,
729606152.962371,2.419161,-5.152902,-13.471965,0.073563,0.043716,1.004974,0.016558,-0.019357,-0.001886,63.934708,6.444962,-147.503769,,,
729606152.965716,2.423995,-5.156723,-13.47074,0.080124,0.045425,1.011765,0.020912,-0.010245,0.001579,63.934708,6.444962,-147.503769,,,
729606152.969129,2.423995,-5.156723,-13.47074,0.080124,0.045425,1.011765,0.020912,-0.010245,0.001579,63.934708,6.444962,-147.503769,,,
729606152.972396,2.43146,-5.153275,-13.469997,0.080124,0.045425,1.011765,0.020912,-0.010245,0.001579,63.934708,6.444962,-147.503769,,,
729606152.975713,2.438351,-5.151698,-13.469149,0.084244,0.051987,1.017365,0.026978,0.010997,0.001382,63.934708,6.444962,-147.503769,,,
729606152.979056,2.438351,-5.151698,-13.469149,0.084244,0.051987,1.017365,0.026978,0.010997,0.001382,63.934708,6.444962,-147.503769,,,
729606152.982458,2.446147,-5.141745,-13.467377,0.084244,0.051987,1.017365,0.026978,0.010997,0.001382,63.934708,6.444962,-147.503769,,,
729606152.985738,2.454023,-5.135989,-13.464384,0.080353,0.056198,1.017029,0.031561,0.026068,0.005241,63.934708,6.444962,-147.503769,,,
729606152.989059,2.454023,-5.135989,-13.464384,0.080353,0.056198,1.017029,0.031561,0.026068,0.005241,63.934708,6.444962,-147.503769,,,
729606152.992382,2.46357,-5.121048,-13.461666,0.080353,0.056198,1.017029,0.031561,0.026068,0.005241,63.934708,6.444962,-147.503769,,,
729606152.995709,2.475034,-5.110987,-13.458864,0.083755,0.062286,1.019302,0.042398,0.038512,0.006596,63.934708,6.444962,-147.503769,,,
729606152.999039,2.475034,-5.110987,-13.458864,0.083755,0.062286,1.019302,0.042398,0.038512,0.006596,63.884979,6.490036,-147.287582,,,
729606153.002414,2.489056,-5.094465,-13.456178,0.083755,0.062286,1.019302,0.042398,0.038512,0.006596,63.884979,6.490036,-147.287582,,,
729606153.00571,2.504594,-5.082292,-13.452456,0.082199,0.063705,1.02124,0.05587,0.045109,0.009587,63.884979,6.490036,-147.287582,,,
729606153.009109,2.504594,-5.082292,-13.452456,0.082199,0.063705,1.02124,0.05587,0.045109,0.009587,63.884979,6.490036,-147.287582,,,
729606153.012385,2.522855,-5.064897,-13.447692,0.082199,0.063705,1.02124,0.05587,0.045109,0.009587,63.884979,6.490036,-147.287582,,,
729606153.015807,2.54302,-5.051384,-13.441482,0.078323,0.062744,1.019821,0.075223,0.050704,0.015948,63.884979,6.490036,-147.287582,,,
729606153.019128,2.54302,-5.051384,-13.441482,0.078323,0.062744,1.019821,0.075223,0.050704,0.015948,63.884979,6.490036,-147.287582,,,
729606153.022445,2.564261,-5.034093,-13.434897,0.078323,0.062744,1.019821,0.075223,0.050704,0.015948,63.884979,6.490036,-147.287582,,,
729606153.02571,2.586465,-5.021716,-13.427286,0.07695,0.066025,1.011978,0.078957,0.047762,0.018777,63.884979,6.490036,-147.287582,,,
729606153.029062,2.586465,-5.021716,-13.427286,0.07695,0.066025,1.011978,0.078957,0.047762,0.018777,63.884979,6.490036,-147.287582,,,
729606153.03239,2.608897,-5.007687,-13.418473,0.07695,0.066025,1.011978,0.078957,0.047762,0.018777,63.884979,6.490036,-147.287582,,,
729606153.03576,2.632005,-4.999242,-13.407532,0.071381,0.061554,1.000992,0.084787,0.030831,0.03421,63.884979,6.490036,-147.287582,,,
729606153.039078,2.632005,-4.999242,-13.407532,0.071381,0.061554,1.000992,0.084787,0.030831,0.03421,63.884979,6.490036,-147.287582,,,
729606153.042384,2.656292,-4.991244,-13.393778,0.071381,0.061554,1.000992,0.084787,0.030831,0.03421,64.11026,6.165344,-147.214844,,,
729606153.045712,2.68334,-4.99001,-13.376951,0.064255,0.053452,1.001617,0.103107,0.006062,0.049956,64.11026,6.165344,-147.214844,,,
729606153.049137,2.68334,-4.99001,-13.376951,0.064255,0.053452,1.001617,0.103107,0.006062,0.049956,64.11026,6.165344,-147.214844,,,
729606153.052438,2.712786,-4.992599,-13.357741,0.064255,0.053452,1.001617,0.103107,0.006062,0.049956,64.11026,6.165344,-147.214844,,,
729606153.055813,2.743886,-5.000455,-13.337424,0.066055,0.048294,0.99733,0.11849,-0.026025,0.060303,64.11026,6.165344,-147.214844,,,
729606153.059066,2.743886,-5.000455,-13.337424,0.066055,0.048294,0.99733,0.11849,-0.026025,0.060303,64.11026,6.165344,-147.214844,,,
729606153.062478,2.776772,-5.009286,-13.317573,0.066055,0.048294,0.99733,0.11849,-0.026025,0.060303,64.11026,6.165344,-147.214844,,,
729606153.065711,2.809501,-5.020071,-13.29854,0.07608,0.052414,0.995392,0.121194,-0.030784,0.05415,64.11026,6.165344,-147.214844,,,
729606153.0691,2.809501,-5.020071,-13.29854,0.07608,0.052414,0.995392,0.121194,-0.030784,0.05415,64.11026,6.165344,-147.214844,,,
729606153.072423,2.843392,-5.027773,-13.280774,0.07608,0.052414,0.995392,0.121194,-0.030784,0.05415,64.11026,6.165344,-147.214844,,,
729606153.075713,2.874418,-5.035617,-13.264428,0.082977,0.054764,0.989624,0.110415,-0.018899,0.046555,64.11026,6.165344,-147.214844,,,
729606153.079062,2.874418,-5.035617,-13.264428,0.082977,0.054764,0.989624,0.110415,-0.018899,0.046555,64.11026,6.165344,-147.214844,,,
729606153.082397,2.905385,-5.039051,-13.248626,0.082977,0.054764,0.989624,0.110415,-0.018899,0.046555,63.830048,6.074158,-147.290771,,,
729606153.085817,2.932614,-5.03998,-13.232464,0.084656,0.050064,0.98494,0.09837,0.00655,0.048454,63.830048,6.074158,-147.290771,,,
729606153.089108,2.932614,-5.03998,-13.232464,0.084656,0.050064,0.98494,0.09837,0.00655,0.048454,63.830048,6.074158,-147.290771,,,
729606153.092396,2.959828,-5.033742,-13.215446,0.084656,0.050064,0.98494,0.09837,0.00655,0.048454,63.830048,6.074158,-147.290771,,,
729606153.095714,2.98322,-5.027974,-13.196068,0.082321,0.043793,0.983246,0.087165,0.030716,0.059805,63.830048,6.074158,-147.290771,,,
729606153.099046,2.98322,-5.027974,-13.196068,0.082321,0.043793,0.983246,0.087165,0.030716,0.059805,63.830048,6.074158,-147.290771,,,
729606153.102493,3.007932,-5.017613,-13.174469,0.082321,0.043793,0.983246,0.087165,0.030716,0.059805,63.830048,6.074158,-147.290771,,,
729606153.105704,3.029604,-5.010232,-13.150774,0.075378,0.039719,0.974716,0.08452,0.032681,0.075713,63.830048,6.074158,-147.290771,,,
729606153.109059,3.029604,-5.010232,-13.150774,0.075378,0.039719,0.974716,0.08452,0.032681,0.075713,63.830048,6.074158,-147.290771,,,
729606153.112397,3.053964,-4.999937,-13.126328,0.075378,0.039719,0.974716,0.08452,0.032681,0.075713,63.830048,6.074158,-147.290771,,,
729606153.115754,3.076152,-4.995731,-13.10179,0.077301,0.038071,0.970901,0.084223,0.022278,0.0767,63.830048,6.074158,-147.290771,,,
729606153.119036,3.076152,-4.995731,-13.10179,0.077301,0.038071,0.970901,0.084223,0.022278,0.0767,63.830048,6.074158,-147.290771,,,
729606153.122376,3.099624,-4.987969,-13.078166,0.077301,0.038071,0.970901,0.084223,0.022278,0.0767,63.900681,6.096237,-147.352997,,,
729606153.125708,3.123122,-4.98926,-13.054512,0.078827,0.042023,0.967117,0.092662,4.4e-05,0.076122,63.900681,6.096237,-147.352997,,,
729606153.129133,3.123122,-4.98926,-13.054512,0.078827,0.042023,0.967117,0.092662,4.4e-05,0.076122,63.900681,6.096237,-147.352997,,,
729606153.132363,3.147415,-4.985656,-13.03098,0.078827,0.042023,0.967117,0.092662,4.4e-05,0.076122,63.900681,6.096237,-147.352997,,,
729606153.135741,3.173858,-4.99117,-13.006611,0.078262,0.041779,0.967285,0.098722,-0.012236,0.076073,63.900681,6.096237,-147.352997,,,
729606153.139057,3.173858,-4.99117,-13.006611,0.078262,0.041779,0.967285,0.098722,-0.012236,0.076073,63.900681,6.096237,-147.352997,,,
729606153.142457,3.199569,-4.992414,-12.982027,0.078262,0.041779,0.967285,0.098722,-0.012236,0.076073,63.900681,6.096237,-147.352997,,,
729606153.145699,3.226401,-5.001017,-12.956695,0.08519,0.044006,0.966797,0.101634,-0.024864,0.077996,63.900681,6.096237,-147.352997,,,
729606153.149058,3.226401,-5.001017,-12.956695,0.08519,0.044006,0.966797,0.101634,-0.024864,0.077996,63.900681,6.096237,-147.352997,,,
729606153.152418,3.251001,-5.008579,-12.931535,0.08519,0.044006,0.966797,0.101634,-0.024864,0.077996,63.900681,6.096237,-147.352997,,,
729606153.155706,3.27354,-5.018326,-12.906257,0.091614,0.050171,0.957611,0.085997,-0.02692,0.080068,63.900681,6.096237,-147.352997,,,
729606153.159057,3.27354,-5.018326,-12.906257,0.091614,0.050171,0.957611,0.085997,-0.02692,0.080068,63.900681,6.096237,-147.352997,,,
729606153.162374,3.29112,-5.02611,-12.881469,0.091614,0.050171,0.957611,0.085997,-0.02692,0.080068,63.772766,5.841599,-147.270355,,,
729606153.165708,3.304718,-5.033346,-12.857956,0.099121,0.056595,0.953079,0.052227,-0.017413,0.07717,63.772766,5.841599,-147.270355,,,
729606153.169151,3.304718,-5.033346,-12.857956,0.099121,0.056595,0.953079,0.052227,-0.017413,0.07717,63.772766,5.841599,-147.270355,,,
729606153.172376,3.31197,-5.038015,-12.835714,0.099121,0.056595,0.953079,0.052227,-0.017413,0.07717,63.772766,5.841599,-147.270355,,,
729606153.175715,3.31502,-5.041712,-12.814041,0.097702,0.056885,0.949326,0.013382,-0.003955,0.072433,63.772766,5.841599,-147.270355,,,
729606153.179052,3.31502,-5.041712,-12.814041,0.097702,0.056885,0.949326,0.013382,-0.003955,0.072433,63.772766,5.841599,-147.270355,,,
729606153.182371,3.311712,-5.04312,-12.793237,0.097702,0.056885,0.949326,0.013382,-0.003955,0.072433,63.772766,5.841599,-147.270355,,,
729606153.185738,3.306463,-5.045066,-12.773089,0.100098,0.055267,0.950882,-0.018357,0.000146,0.068135,63.772766,5.841599,-147.270355,,,
729606153.189057,3.306463,-5.045066,-12.773089,0.100098,0.055267,0.950882,-0.018357,0.000146,0.068135,63.772766,5.841599,-147.270355,,,
729606153.192393,3.295769,-5.044768,-12.754257,0.100098,0.055267,0.950882,-0.018357,0.000146,0.068135,63.772766,5.841599,-147.270355,,,
729606153.195714,3.284436,-5.045026,-12.736677,0.104446,0.054123,0.957092,-0.03287,0.005338,0.065378,63.772766,5.841599,-147.270355,,,
729606153.199061,3.284436,-5.045026,-12.736677,0.104446,0.054123,0.957092,-0.03287,0.005338,0.065378,63.772766,5.841599,-147.270355,,,
729606153.202422,3.271529,-5.043614,-12.719874,0.104446,0.054123,0.957092,-0.03287,0.005338,0.065378,63.772766,5.841599,-147.270355,,,
729606153.205704,3.260732,-5.043087,-12.703943,0.10614,0.054398,0.969757,-0.030791,0.007968,0.054704,63.789917,5.868439,-147.421341,,,
729606153.209104,3.260732,-5.043087,-12.703943,0.10614,0.054398,0.969757,-0.030791,0.007968,0.054704,63.789917,5.868439,-147.421341,,,
729606153.212379,3.250034,-5.041703,-12.688441,0.10614,0.054398,0.969757,-0.030791,0.007968,0.054704,63.789917,5.868439,-147.421341,,,
729606153.215708,3.240667,-5.040127,-12.672364,0.100693,0.050018,0.978561,-0.027813,0.012341,0.05794,63.789917,5.868439,-147.421341,,,
729606153.219097,3.240667,-5.040127,-12.672364,0.100693,0.050018,0.978561,-0.027813,0.012341,0.05794,63.789917,5.868439,-147.421341,,,
729606153.222457,3.229865,-5.037842,-12.656025,0.100693,0.050018,0.978561,-0.027813,0.012341,0.05794,63.789917,5.868439,-147.421341,,,
729606153.225708,3.219446,-5.036755,-12.639915,0.101349,0.04837,0.977707,-0.031324,0.007384,0.058604,63.789917,5.868439,-147.421341,,,
729606153.229058,3.219446,-5.036755,-12.639915,0.101349,0.04837,0.977707,-0.031324,0.007384,0.058604,63.789917,5.868439,-147.421341,,,
729606153.232372,3.207644,-5.037324,-12.62367,0.101349,0.04837,0.977707,-0.031324,0.007384,0.058604,63.789917,5.868439,-147.421341,,,
729606153.235697,3.195108,-5.039129,-12.607655,0.10083,0.048691,0.976913,-0.03644,0.000438,0.056127,63.789917,5.868439,-147.421341,,,
729606153.23906,3.195108,-5.039129,-12.607655,0.10083,0.048691,0.976913,-0.03644,0.000438,0.056127,63.789917,5.868439,-147.421341,,,
729606153.242397,3.181793,-5.042663,-12.592596,0.10083,0.048691,0.976913,-0.03644,0.000438,0.056127,63.789917,5.868439,-147.421341,,,
729606153.24571,3.167935,-5.045744,-12.579116,0.100311,0.049088,0.978958,-0.040589,-0.008274,0.050491,63.620697,5.965546,-147.289612,,,
729606153.24912,3.167935,-5.045744,-12.579116,0.100311,0.049088,0.978958,-0.040589,-0.008274,0.050491,63.620697,5.965546,-147.289612,,,
729606153.252366,3.153931,-5.051141,-12.566908,0.100311,0.049088,0.978958,-0.040589,-0.008274,0.050491,63.620697,5.965546,-147.289612,,,
729606153.255712,3.138801,-5.055277,-12.556711,0.106567,0.051392,0.984711,-0.04679,-0.009654,0.036529,63.620697,5.965546,-147.289612,,,
729606153.259051,3.138801,-5.055277,-12.556711,0.106567,0.051392,0.984711,-0.04679,-0.009654,0.036529,63.620697,5.965546,-147.289612,,,
729606153.262445,3.1233,-5.060846,-12.548656,0.106567,0.051392,0.984711,-0.04679,-0.009654,0.036529,63.620697,5.965546,-147.289612,,,
729606153.265704,3.10727,-5.064832,-12.542085,0.108231,0.054276,0.990707,-0.054347,-0.007672,0.024563,63.620697,5.965546,-147.289612,,,
729606153.26908,3.10727,-5.064832,-12.542085,0.108231,0.054276,0.990707,-0.054347,-0.007672,0.024563,63.620697,5.965546,-147.289612,,,
729606153.272395,3.091129,-5.070325,-12.536689,0.108231,0.054276,0.990707,-0.054347,-0.007672,0.024563,63.620697,5.965546,-147.289612,,,
729606153.275713,3.073896,-5.072272,-12.532684,0.105911,0.049393,0.993881,-0.062597,-0.002484,0.014085,63.620697,5.965546,-147.289612,,,
729606153.279061,3.073896,-5.072272,-12.532684,0.105911,0.049393,0.993881,-0.062597,-0.002484,0.014085,63.620697,5.965546,-147.289612,,,
729606153.282399,3.055951,-5.074957,-12.529615,0.105911,0.049393,0.993881,-0.062597,-0.002484,0.014085,63.620697,5.965546,-147.289612,,,
729606153.285744,3.037817,-5.07313,-12.527601,0.108887,0.046814,1.000473,-0.059995,0.011281,0.010579,63.838257,6.306396,-147.250168,,,
729606153.289039,3.037817,-5.07313,-12.527601,0.108887,0.046814,1.000473,-0.059995,0.011281,0.010579,63.838257,6.306396,-147.250168,,,
729606153.292382,3.021094,-5.072518,-12.526303,0.108887,0.046814,1.000473,-0.059995,0.011281,0.010579,63.838257,6.306396,-147.250168,,,
729606153.295721,3.007156,-5.0685,-12.525587,0.105331,0.048599,1.009995,-0.044674,0.016256,0.006243,63.838257,6.306396,-147.250168,,,
729606153.299055,3.007156,-5.0685,-12.525587,0.105331,0.048599,1.009995,-0.044674,0.016256,0.006243,63.838257,6.306396,-147.250168,,,
729606153.302482,2.996214,-5.066232,-12.524623,0.105331,0.048599,1.009995,-0.044674,0.016256,0.006243,63.838257,6.306396,-147.250168,,,
729606153.305705,2.988193,-5.061113,-12.523929,0.102539,0.048492,1.017883,-0.023886,0.021593,0.002713,63.838257,6.306396,-147.250168,,,
729606153.309053,2.988193,-5.061113,-12.523929,0.102539,0.048492,1.017883,-0.023886,0.021593,0.002713,63.838257,6.306396,-147.250168,,,
729606153.312391,2.982156,-5.059298,-12.523947,0.102539,0.048492,1.017883,-0.023886,0.021593,0.002713,63.838257,6.306396,-147.250168,,,
729606153.31571,2.977865,-5.054467,-12.525094,0.099991,0.045334,1.014084,-0.013838,0.020988,-0.006026,63.838257,6.306396,-147.250168,,,
729606153.319079,2.977865,-5.054467,-12.525094,0.099991,0.045334,1.014084,-0.013838,0.020988,-0.006026,63.838257,6.306396,-147.250168,,,
729606153.322391,2.973511,-5.053886,-12.526197,0.099991,0.045334,1.014084,-0.013838,0.020988,-0.006026,63.838257,6.306396,-147.250168,,,
729606153.325713,2.970631,-5.049403,-12.52687,0.092545,0.044388,1.009689,-0.01122,0.018028,0.000197,63.68866,6.199066,-147.302048,,,
729606153.329105,2.970631,-5.049403,-12.52687,0.092545,0.044388,1.009689,-0.01122,0.018028,0.000197,63.68866,6.199066,-147.302048,,,
729606153.332387,2.967361,-5.05146,-12.526621,0.092545,0.044388,1.009689,-0.01122,0.018028,0.000197,63.68866,6.199066,-147.302048,,,
729606153.335736,2.963238,-5.048972,-12.527071,0.091522,0.046188,1.006134,-0.015009,0.008076,-0.00199,63.68866,6.199066,-147.302048,,,
729606153.339052,2.963238,-5.048972,-12.527071,0.091522,0.046188,1.006134,-0.015009,0.008076,-0.00199,63.68866,6.199066,-147.302048,,,
729606153.342438,2.959086,-5.055202,-12.528025,0.091522,0.046188,1.006134,-0.015009,0.008076,-0.00199,63.68866,6.199066,-147.302048,,,
729606153.345704,2.954337,-5.056604,-12.53093,0.097031,0.050674,1.003159,-0.018677,-0.00469,-0.013046,63.68866,6.199066,-147.302048,,,
729606153.349059,2.954337,-5.056604,-12.53093,0.097031,0.050674,1.003159,-0.018677,-0.00469,-0.013046,63.68866,6.199066,-147.302048,,,
729606153.352414,2.950445,-5.067099,-12.53594,0.097031,0.050674,1.003159,-0.018677,-0.00469,-0.013046,63.68866,6.199066,-147.302048,,,
729606153.355702,2.947429,-5.072548,-12.54349,0.098434,0.052689,1.008057,-0.009544,-0.019979,-0.029961,63.68866,6.199066,-147.302048,,,
729606153.359045,2.947429,-5.072548,-12.54349,0.098434,0.052689,1.008057,-0.009544,-0.019979,-0.029961,63.68866,6.199066,-147.302048,,,
729606153.362402,2.945121,-5.084988,-12.552861,0.098434,0.052689,1.008057,-0.009544,-0.019979,-0.029961,63.68866,6.199066,-147.302048,,,
729606153.365699,2.945196,-5.091973,-12.564145,0.098145,0.049774,1.011353,0.000668,-0.025823,-0.041276,63.68866,6.199066,-147.302048,,,
729606153.369112,2.945196,-5.091973,-12.564145,0.098145,0.049774,1.011353,0.000668,-0.025823,-0.041276,63.817535,6.052734,-147.419754,,,
729606153.372383,2.945566,-5.104693,-12.575546,0.098145,0.049774,1.011353,0.000668,-0.025823,-0.041276,63.817535,6.052734,-147.419754,,,
729606153.375734,2.947541,-5.109967,-12.587257,0.094696,0.046371,1.011658,0.004145,-0.016368,-0.040976,63.817535,6.052734,-147.419754,,,
729606153.379066,2.947541,-5.109967,-12.587257,0.094696,0.046371,1.011658,0.004145,-0.016368,-0.040976,63.817535,6.052734,-147.419754,,,
729606153.382432,2.949448,-5.117428,-12.59773,0.094696,0.046371,1.011658,0.004145,-0.016368,-0.040976,63.817535,6.052734,-147.419754,,,
729606153.385715,2.953645,-5.118504,-12.60679,0.091675,0.046066,1.01358,0.013852,-0.000109,-0.032207,63.817535,6.052734,-147.419754,,,
729606153.389058,2.953645,-5.118504,-12.60679,0.091675,0.046066,1.01358,0.013852,-0.000109,-0.032207,63.817535,6.052734,-147.419754,,,
729606153.392391,2.958342,-5.121454,-12.614034,0.091675,0.046066,1.01358,0.013852,-0.000109,-0.032207,63.817535,6.052734,-147.419754,,,
729606153.395714,2.964887,-5.119099,-12.62021,0.090973,0.048584,1.012512,0.021881,0.011241,-0.025865,63.817535,6.052734,-147.419754,,,
729606153.399058,2.964887,-5.119099,-12.62021,0.090973,0.048584,1.012512,0.021881,0.011241,-0.025865,63.817535,6.052734,-147.419754,,,
729606153.402366,2.970433,-5.116628,-12.625291,0.090973,0.048584,1.012512,0.021881,0.011241,-0.025865,63.817535,6.052734,-147.419754,,,
729606153.405714,2.978849,-5.111247,-12.629213,0.087296,0.049011,1.009766,0.029404,0.021022,-0.015741,63.817535,6.052734,-147.419754,,,
729606153.409122,2.978849,-5.111247,-12.629213,0.087296,0.049011,1.009766,0.029404,0.021022,-0.015741,63.943451,6.083969,-147.225754,,,
729606153.412367,2.987011,-5.106416,-12.632508,0.087296,0.049011,1.009766,0.029404,0.021022,-0.015741,63.943451,6.083969,-147.225754,,,
729606153.415766,2.996962,-5.103032,-12.635332,0.079697,0.048477,1.004425,0.037271,0.012483,-0.010113,63.943451,6.083969,-147.225754,,,
729606153.419085,2.996962,-5.103032,-12.635332,0.079697,0.048477,1.004425,0.037271,0.012483,-0.010113,63.943451,6.083969,-147.225754,,,
729606153.422444,3.006625,-5.102487,-12.637838,0.079697,0.048477,1.004425,0.037271,0.012483,-0.010113,63.943451,6.083969,-147.225754,,,
729606153.425776,3.017643,-5.102963,-12.640444,0.081757,0.051682,1.003326,0.04038,-0.000102,-0.01231,63.943451,6.083969,-147.225754,,,
729606153.429043,3.017643,-5.102963,-12.640444,0.081757,0.051682,1.003326,0.04038,-0.000102,-0.01231,63.943451,6.083969,-147.225754,,,
729606153.432396,3.029266,-5.106828,-12.642665,0.081757,0.051682,1.003326,0.04038,-0.000102,-0.01231,63.943451,6.083969,-147.225754,,,
729606153.4358,3.040943,-5.109632,-12.645005,0.078506,0.054108,1.001007,0.040261,-0.00968,-0.012976,63.943451,6.083969,-147.225754,,,
729606153.439052,3.040943,-5.109632,-12.645005,0.078506,0.054108,1.001007,0.040261,-0.00968,-0.012976,63.943451,6.083969,-147.225754,,,
729606153.442394,3.051361,-5.11488,-12.647375,0.078506,0.054108,1.001007,0.040261,-0.00968,-0.012976,63.943451,6.083969,-147.225754,,,
729606153.445797,3.06153,-5.118484,-12.650375,0.082321,0.056305,0.995834,0.036465,-0.011379,-0.017376,63.943451,6.083969,-147.225754,,,
729606153.449033,3.06153,-5.118484,-12.650375,0.082321,0.056305,0.995834,0.036465,-0.011379,-0.017376,63.836945,6.071548,-147.445709,,,
729606153.452414,3.070591,-5.124527,-12.654187,0.082321,0.056305,0.995834,0.036465,-0.011379,-0.017376,63.836945,6.071548,-147.445709,,,
729606153.455705,3.080329,-5.129955,-12.658454,0.088501,0.057114,0.993958,0.031638,-0.016968,-0.021303,63.836945,6.071548,-147.445709,,,
729606153.459098,3.080329,-5.129955,-12.658454,0.088501,0.057114,0.993958,0.031638,-0.016968,-0.021303,63.836945,6.071548,-147.445709,,,
729606153.462374,3.088271,-5.136779,-12.663202,0.088501,0.057114,0.993958,0.031638,-0.016968,-0.021303,63.836945,6.071548,-147.445709,,,
729606153.465719,3.096965,-5.144137,-12.667792,0.087128,0.057373,0.992645,0.027179,-0.025003,-0.019292,63.836945,6.071548,-147.445709,,,
729606153.469074,3.096965,-5.144137,-12.667792,0.087128,0.057373,0.992645,0.027179,-0.025003,-0.019292,63.836945,6.071548,-147.445709,,,
729606153.472434,3.103054,-5.152674,-12.671708,0.087128,0.057373,0.992645,0.027179,-0.025003,-0.019292,63.836945,6.071548,-147.445709,,,
729606153.475773,3.110131,-5.162478,-12.67561,0.087494,0.055344,0.988876,0.02289,-0.031883,-0.019209,63.836945,6.071548,-147.445709,,,
729606153.479053,3.110131,-5.162478,-12.67561,0.087494,0.055344,0.988876,0.02289,-0.031883,-0.019209,63.836945,6.071548,-147.445709,,,
729606153.482442,3.115689,-5.173006,-12.680282,0.087494,0.055344,0.988876,0.02289,-0.031883,-0.019209,63.836945,6.071548,-147.445709,,,
729606153.485738,3.122697,-5.184192,-12.685205,0.089691,0.055191,0.991776,0.023978,-0.038838,-0.020729,63.836945,6.071548,-147.445709,,,
729606153.489036,3.122697,-5.184192,-12.685205,0.089691,0.055191,0.991776,0.023978,-0.038838,-0.020729,63.807404,5.976028,-147.475693,,,
729606153.492388,3.128569,-5.19315,-12.690373,0.089691,0.055191,0.991776,0.023978,-0.038838,-0.020729,63.807404,5.976028,-147.475693,,,
729606153.495703,3.136759,-5.204621,-12.695892,0.089691,0.054092,0.994507,0.029132,-0.039069,-0.021248,63.807404,5.976028,-147.475693,,,
729606153.499082,3.136759,-5.204621,-12.695892,0.091476,0.054092,0.994507,0.029132,-0.039069,-0.021248,63.807404,5.976028,-147.475693,,,
729606153.502393,3.14449,-5.211651,-12.701361,0.091476,0.054092,0.994507,0.029132,-0.039069,-0.021248,63.807404,5.976028,-147.475693,,,
729606153.505731,3.153127,-5.220085,-12.706624,0.09201,0.053207,0.995743,0.029162,-0.025949,-0.023478,63.807404,5.976028,-147.475693,,,
729606153.509036,3.153127,-5.220085,-12.706624,0.09201,0.053207,0.995743,0.029162,-0.025949,-0.023478,63.807404,5.976028,-147.475693,,,
729606153.512395,3.160468,-5.221513,-12.71223,0.09201,0.053207,0.995743,0.029162,-0.025949,-0.023478,63.807404,5.976028,-147.475693,,,
729606153.515741,3.160468,-5.22335,-12.717218,0.091339,0.054855,0.993408,0.025478,-0.001306,-0.020071,63.807404,5.976028,-147.475693,,,
729606153.519127,3.167603,-5.22335,-12.717218,0.091339,0.054855,0.993408,0.025478,-0.001306,-0.020071,63.807404,5.976028,-147.475693,,,
729606153.522368,3.175352,-5.21905,-12.722335,0.091339,0.054855,0.993408,0.025478,-0.001306,-0.020071,63.807404,5.976028,-147.475693,,,
729606153.525708,3.175352,-5.21905,-12.722335,0.091339,0.054855,0.993408,0.035739,0.005584,-0.021994,63.807404,5.976028,-147.475693,,,
729606153.529063,3.185215,-5.218198,-12.727425,0.089645,0.054062,0.99733,0.035739,0.005584,-0.021994,63.807404,5.976028,-147.475693,,,
729606153.532377,3.196095,-5.215786,-12.732315,0.089645,0.054062,0.99733,0.035739,0.005584,-0.021994,63.86676,5.861908,-147.436676,,,
729606153.535772,3.206277,-5.216313,-12.73646,0.087723,0.054565,0.991257,0.035477,8.1e-05,-0.019188,63.86676,5.861908,-147.436676,,,
729606153.539041,3.206277,-5.216313,-12.73646,0.087723,0.054565,0.991257,0.035477,8.1e-05,-0.019188,63.86676,5.861908,-147.436676,,,
729606153.542389,3.215475,-5.216921,-12.740181,0.087723,0.054565,0.991257,0.035477,8.1e-05,-0.019188,63.86676,5.861908,-147.436676,,,
729606153.545704,3.215475,-5.216921,-12.740181,0.087723,0.054565,0.991257,0.035477,8.1e-05,-0.019188,63.86676,5.861908,-147.436676,,,
729606153.549046,3.222978,-5.219709,-12.744236,0.083374,0.056366,0.985077,0.024127,-0.007301,-0.018769,63.86676,5.861908,-147.436676,,,
729606153.552454,3.229128,-5.223482,-12.749215,0.083374,0.056366,0.985077,0.024127,-0.007301,-0.018769,63.86676,5.861908,-147.436676,,,
729606153.555743,3.229128,-5.223482,-12.749215,0.083374,0.056366,0.985077,0.013468,-0.030872,-0.022951,63.86676,5.861908,-147.436676,,,
729606153.559051,3.233452,-5.231818,-12.755277,0.08461,0.059418,0.977081,0.013468,-0.030872,-0.022951,63.86676,5.861908,-147.436676,,,
729606153.56239,3.236896,-5.243396,-12.762222,0.08461,0.059418,0.977081,0.013468,-0.030872,-0.022951,63.86676,5.861908,-147.436676,,,
729606153.565738,3.236896,-5.243396,-12.762222,0.08461,0.059418,0.977081,0.013468,-0.030872,-0.022951,63.86676,5.861908,-147.436676,,,
729606153.56905,3.24057,-5.258718,-12.769206,0.087997,0.058823,0.975906,0.01009,-0.054373,-0.029023,63.86676,5.861908,-147.436676,,,
729606153.572389,3.24431,-5.27445,-12.776385,0.087997,0.058823,0.975906,0.01009,-0.054373,-0.029023,63.683289,5.904053,-147.618378,,,
729606153.575725,3.24431,-5.27445,-12.776385,0.087997,0.058823,0.975906,0.01009,-0.054373,-0.029023,63.683289,5.904053,-147.618378,,,
729606153.579115,3.248668,-5.290513,-12.7833,0.084717,0.056046,0.984421,0.013238,-0.054294,-0.02829,63.683289,5.904053,-147.618378,,,
729606153.582393,3.252519,-5.305102,-12.789125,0.084717,0.056046,0.984421,0.013238,-0.054294,-0.02829,63.683289,5.904053,-147.618378,,,
729606153.585768,3.252519,-5.305102,-12.789125,0.084717,0.056046,0.984421,0.013238,-0.054294,-0.02829,63.683289,5.904053,-147.618378,,,
729606153.589056,3.25706,-5.318065,-12.79364,0.082092,0.055267,0.988708,0.015636,-0.043424,-0.015455,63.683289,5.904053,-147.618378,,,
729606153.592445,3.260591,-5.328682,-12.796978,0.082092,0.055267,0.988708,0.015636,-0.043424,-0.015455,63.683289,5.904053,-147.618378,,,
729606153.595724,3.260591,-5.328682,-12.796978,0.082092,0.055267,0.988708,0.015636,-0.043424,-0.015455,63.683289,5.904053,-147.618378,,,
729606153.599049,3.263313,-5.335717,-12.79875,0.085373,0.056824,0.986481,0.007629,-0.019719,-0.007503,63.683289,5.904053,-147.618378,,,
729606153.602418,3.264003,-5.338539,-12.79916,0.085373,0.056824,0.986481,0.007629,-0.019719,-0.007503,63.683289,5.904053,-147.618378,,,
729606153.60574,3.264003,-5.338539,-12.79916,0.085373,0.056824,0.986481,0.007629,-0.019719,-0.007503,63.683289,5.904053,-147.618378,,,
729606153.609055,3.263942,-5.339206,-12.798739,0.086761,0.059052,0.984009,-0.002161,0.003712,1e-06,63.683289,5.904053,-147.618378,,,
729606153.612376,3.262419,-5.336557,-12.798055,0.086761,0.059052,0.984009,-0.002161,0.003712,1e-06,63.634644,5.886368,-147.48381,,,
729606153.615767,3.262419,-5.336557,-12.798055,0.086761,0.059052,0.984009,-0.002161,0.003712,1e-06,63.634644,5.886368,-147.48381,,,
729606153.619076,3.260566,-5.33389,-12.797405,0.087112,0.061096,0.979599,-0.006528,0.017058,0.000833,63.634644,5.886368,-147.48381,,,
729606153.622391,3.25792,-5.327876,-12.79748,0.087112,0.061096,0.979599,-0.006528,0.017058,0.000833,63.634644,5.886368,-147.48381,,,
729606153.625718,3.25792,-5.327876,-12.79748,0.087112,0.061096,0.979599,-0.006528,0.017058,0.000833,63.634644,5.886368,-147.48381,,,
729606153.629118,3.255727,-5.323112,-12.798484,0.091644,0.062698,0.980835,-0.008782,0.016019,-0.005893,63.634644,5.886368,-147.48381,,,
729606153.632382,3.253423,-5.315966,-12.800193,0.091644,0.062698,0.980835,-0.008782,0.016019,-0.005893,63.634644,5.886368,-147.48381,,,
729606153.635848,3.253423,-5.315966,-12.800193,0.091644,0.062698,0.980835,-0.008782,0.016019,-0.005893,63.634644,5.886368,-147.48381,,,
729606153.639051,3.250501,-5.313094,-12.801843,0.085953,0.058609,0.981445,-0.010588,0.013166,-0.006515,63.634644,5.886368,-147.48381,,,
729606153.642451,3.248063,-5.310903,-12.803052,0.085953,0.058609,0.981445,-0.010588,0.013166,-0.006515,63.634644,5.886368,-147.48381,,,
729606153.64574,3.248063,-5.310903,-12.803052,0.085953,0.058609,0.981445,-0.010588,0.013166,-0.006515,63.634644,5.886368,-147.48381,,,
729606153.64904,3.243499,-5.312372,-12.80275,0.082993,0.056305,0.976395,-0.015708,-0.003872,0.003288,63.634644,5.886368,-147.48381,,,
729606153.652425,3.238509,-5.314796,-12.801003,0.082993,0.056305,0.976395,-0.015708,-0.003872,0.003288,63.544296,6.00795,-147.573425,,,
729606153.655799,3.238509,-5.314796,-12.801003,0.082993,0.056305,0.976395,-0.015708,-0.003872,0.003288,63.544296,6.00795,-147.573425,,,
729606153.659051,3.232754,-5.319423,-12.797877,0.083191,0.055878,0.973343,-0.020409,-0.012188,0.012919,63.544296,6.00795,-147.573425,,,
729606153.662397,3.224512,-5.321628,-12.79372,0.083191,0.055878,0.973343,-0.020409,-0.012188,0.012919,63.544296,6.00795,-147.573425,,,
729606153.665745,3.224512,-5.321628,-12.79372,0.083191,0.055878,0.973343,-0.020409,-0.012188,0.012919,63.544296,6.00795,-147.573425,,,
729606153.669123,3.214304,-5.326606,-12.78899,0.088486,0.057144,0.972687,-0.03453,-0.015871,0.019225,63.544296,6.00795,-147.573425,,,
729606153.672376,3.201627,-5.328707,-12.783652,0.088486,0.057144,0.972687,-0.03453,-0.015871,0.019225,63.544296,6.00795,-147.573425,,,
729606153.675745,3.201627,-5.328707,-12.783652,0.088486,0.057144,0.972687,-0.03453,-0.015871,0.019225,63.544296,6.00795,-147.573425,,,
729606153.679046,3.186883,-5.332695,-12.777095,0.090195,0.059143,0.969238,-0.049392,-0.007838,0.025071,63.544296,6.00795,-147.573425,,,
729606153.682427,3.171203,-5.335115,-12.770497,0.090195,0.059143,0.969238,-0.049392,-0.007838,0.025071,63.544296,6.00795,-147.573425,,,
729606153.685779,3.171203,-5.335115,-12.770497,0.090195,0.059143,0.969238,-0.049392,-0.007838,0.025071,63.544296,6.00795,-147.573425,,,
729606153.689051,3.154326,-5.339339,-12.764069,0.09761,0.059494,0.970001,-0.054318,-0.011548,0.027734,63.544296,6.00795,-147.573425,,,
729606153.692393,3.137589,-5.343278,-12.758188,0.09761,0.059494,0.970001,-0.054318,-0.011548,0.027734,63.544296,6.00795,-147.573425,,,
729606153.695765,3.137589,-5.343278,-12.758188,0.09761,0.059494,0.970001,-0.054318,-0.011548,0.027734,63.625793,5.778961,-147.504868,,,
729606153.699038,3.120832,-5.349048,-12.752931,0.101898,0.056183,0.97406,-0.05568,-0.016531,0.021888,63.625793,5.778961,-147.504868,,,
729606153.70242,3.108523,-5.354846,-12.748221,0.101898,0.056183,0.97406,-0.05568,-0.016531,0.021888,63.625793,5.778961,-147.504868,,,
729606153.705708,3.108523,-5.354846,-12.748221,0.101898,0.056183,0.97406,-0.05568,-0.016531,0.021888,63.625793,5.778961,-147.504868,,,
729606153.709118,3.099287,-5.361733,-12.744424,0.106842,0.053177,0.991211,-0.026739,-0.02015,0.013164,63.625793,5.778961,-147.504868,,,
729606153.712375,3.095416,-5.36738,-12.740835,0.106842,0.053177,0.991211,-0.026739,-0.02015,0.013164,63.625793,5.778961,-147.504868,,,
729606153.715716,3.095416,-5.36738,-12.740835,0.106842,0.053177,0.991211,-0.026739,-0.02015,0.013164,63.625793,5.778961,-147.504868,,,
729606153.719077,3.093928,-5.371284,-12.735777,0.101395,0.0504,1.001511,0.000625,-0.006383,0.017905,63.625793,5.778961,-147.504868,,,
729606153.722446,3.095065,-5.370789,-12.728746,0.101395,0.0504,1.001511,0.000625,-0.006383,0.017905,63.625793,5.778961,-147.504868,,,
729606153.725704,3.095065,-5.370789,-12.728746,0.101395,0.0504,1.001511,0.000625,-0.006383,0.017905,63.625793,5.778961,-147.504868,,,
729606153.729042,3.096226,-5.371111,-12.719832,0.092484,0.045349,0.996048,0.008241,0.004295,0.029931,63.625793,5.778961,-147.504868,,,
729606153.732383,3.09671,-5.368619,-12.710449,0.092484,0.045349,0.996048,0.008241,0.004295,0.029931,63.625793,5.778961,-147.504868,,,
729606153.735828,3.09671,-5.368619,-12.710449,0.092484,0.045349,0.996048,0.008241,0.004295,0.029931,63.48999,5.720901,-147.385422,,,
729606153.739038,3.094475,-5.367935,-12.701675,0.101395,0.052994,0.982315,-0.003757,0.006374,0.031349,63.48999,5.720901,-147.385422,,,
729606153.742395,3.090712,-5.364762,-12.694515,0.101395,0.052994,0.982315,-0.003757,0.006374,0.031349,63.48999,5.720901,-147.385422,,,
729606153.7457,3.090712,-5.364762,-12.694515,0.101395,0.052994,0.982315,-0.003757,0.006374,0.031349,63.48999,5.720901,-147.385422,,,
729606153.749108,3.084694,-5.362659,-12.689355,0.107224,0.063568,0.975555,-0.018882,0.010992,0.018007,63.48999,5.720901,-147.385422,,,
729606153.752413,3.078455,-5.359437,-12.686818,0.107224,0.063568,0.975555,-0.018882,0.010992,0.018007,63.48999,5.720901,-147.385422,,,
729606153.755719,3.078455,-5.359437,-12.686818,0.107224,0.063568,0.975555,-0.018882,0.010992,0.018007,63.48999,5.720901,-147.385422,,,
729606153.759054,3.071142,-5.356031,-12.686839,0.107498,0.064377,0.978195,-0.026955,0.013759,-0.003627,63.48999,5.720901,-147.385422,,,
729606153.762447,3.064611,-5.352239,-12.688919,0.107498,0.064377,0.978195,-0.026955,0.013759,-0.003627,63.48999,5.720901,-147.385422,,,
729606153.765693,3.064611,-5.352239,-12.688919,0.107498,0.064377,0.978195,-0.026955,0.013759,-0.003627,63.48999,5.720901,-147.385422,,,
729606153.769083,3.056812,-5.347666,-12.69253,0.110046,0.06308,0.979904,-0.026553,0.019082,-0.015472,63.48999,5.720901,-147.385422,,,
729606153.772384,3.05091,-5.344571,-12.696785,0.110046,0.06308,0.979904,-0.026553,0.019082,-0.015472,63.48999,5.720901,-147.385422,,,
729606153.775729,3.05091,-5.344571,-12.696785,0.110046,0.06308,0.979904,-0.026553,0.019082,-0.015472,63.509872,5.985764,-147.621735,,,
729606153.779058,3.045518,-5.338994,-12.70015,0.105484,0.059357,0.979477,-0.018695,0.022233,-0.009878,63.509872,5.985764,-147.621735,,,
729606153.782394,3.041922,-5.3361,-12.7021,0.105484,0.059357,0.979477,-0.018695,0.022233,-0.009878,63.509872,5.985764,-147.621735,,,
729606153.785782,3.041922,-5.3361,-12.7021,0.105484,0.059357,0.979477,-0.018695,0.022233,-0.009878,63.509872,5.985764,-147.621735,,,
729606153.789053,3.039255,-5.329004,-12.703053,0.098206,0.055695,0.987808,-0.005106,0.028075,-0.001075,63.509872,5.985764,-147.621735,,,
729606153.792393,3.037284,-5.323621,-12.702087,0.098206,0.055695,0.987808,-0.005106,0.028075,-0.001075,63.509872,5.985764,-147.621735,,,
729606153.795724,3.037284,-5.323621,-12.702087,0.098206,0.055695,0.987808,-0.005106,0.028075,-0.001075,63.509872,5.985764,-147.621735,,,
729606153.799055,3.034371,-5.313626,-12.699717,0.089249,0.055115,0.98703,-0.009225,0.040835,0.010025,63.509872,5.985764,-147.621735,,,
729606153.802506,3.028191,-5.30387,-12.696518,0.089249,0.055115,0.98703,-0.009225,0.040835,0.010025,63.509872,5.985764,-147.621735,,,
729606153.805713,3.028191,-5.30387,-12.696518,0.089249,0.055115,0.98703,-0.009225,0.040835,0.010025,63.509872,5.985764,-147.621735,,,
729606153.809069,3.02038,-5.293298,-12.693799,0.089859,0.059387,0.976532,-0.026946,0.038748,0.011006,63.509872,5.985764,-147.621735,,,
729606153.812386,3.009859,-5.284525,-12.691782,0.089859,0.059387,0.976532,-0.026946,0.038748,0.011006,63.509872,5.985764,-147.621735,,,
729606153.815827,3.009859,-5.284525,-12.691782,0.089859,0.059387,0.976532,-0.026946,0.038748,0.011006,63.509872,5.985764,-147.621735,,,
729606153.819104,3.000185,-5.27657,-12.691204,0.098251,0.061234,0.978821,-0.031744,0.029195,0.0024,63.810562,5.918518,-147.190521,,,
729606153.822379,2.992932,-5.274209,-12.692192,0.098251,0.061234,0.978821,-0.031744,0.029195,0.0024,63.810562,5.918518,-147.190521,,,
729606153.825723,2.992932,-5.274209,-12.692192,0.098251,0.061234,0.978821,-0.031744,0.029195,0.0024,63.810562,5.918518,-147.190521,,,
729606153.829122,2.986658,-5.268517,-12.694443,0.1008,0.057907,0.995667,-0.020955,0.022501,-0.012383,63.810562,5.918518,-147.190521,,,
729606153.83238,2.984956,-5.269362,-12.697051,0.1008,0.057907,0.995667,-0.020955,0.022501,-0.012383,63.810562,5.918518,-147.190521,,,
729606153.835708,2.984956,-5.269362,-12.697051,0.1008,0.057907,0.995667,-0.020955,0.022501,-0.012383,63.810562,5.918518,-147.190521,,,
729606153.839071,2.982557,-5.265102,-12.70046,0.093597,0.052811,1.00148,-0.006818,0.020292,-0.015479,63.810562,5.918518,-147.190521,,,
729606153.842442,2.984849,-5.266275,-12.703624,0.093597,0.052811,1.00148,-0.006818,0.020292,-0.015479,63.810562,5.918518,-147.190521,,,
729606153.845712,2.984849,-5.266275,-12.703624,0.093597,0.052811,1.00148,-0.006818,0.020292,-0.015479,63.810562,5.918518,-147.190521,,,
729606153.849051,2.985349,-5.26054,-12.706258,0.089905,0.049515,1.007584,0.00311,0.022768,-0.009544,63.810562,5.918518,-147.190521,,,
729606153.852422,2.988357,-5.261015,-12.707538,0.089905,0.049515,1.007584,0.00311,0.022768,-0.009544,63.810562,5.918518,-147.190521,,,
729606153.855787,2.988357,-5.261015,-12.707538,0.089905,0.049515,1.007584,0.00311,0.022768,-0.009544,63.810562,5.918518,-147.190521,,,
729606153.859056,2.988624,-5.254131,-12.708422,0.086716,0.04985,1.005249,-0.000586,0.026647,-0.001984,63.480011,6.171967,-147.327362,,,
729606153.862391,2.988358,-5.250618,-12.708599,0.086716,0.04985,1.005249,-0.000586,0.026647,-0.001984,63.480011,6.171967,-147.327362,,,
729606153.865721,2.988358,-5.250618,-12.708599,0.086716,0.04985,1.005249,-0.000586,0.026647,-0.001984,63.480011,6.171967,-147.327362,,,
729606153.869083,2.984936,-5.241843,-12.709476,0.086029,0.055206,0.997864,-0.01176,0.033708,-0.004756,63.480011,6.171967,-147.327362,,,
729606153.872459,2.98132,-5.23347,-12.711426,0.086029,0.055206,0.997864,-0.01176,0.033708,-0.004756,63.480011,6.171967,-147.327362,,,
729606153.87571,2.98132,-5.23347,-12.711426,0.086029,0.055206,0.997864,-0.01176,0.033708,-0.004756,63.480011,6.171967,-147.327362,,,
729606153.879102,2.976653,-5.223306,-12.714611,0.088516,0.060806,0.998245,-0.015779,0.036403,-0.012639,63.480011,6.171967,-147.327362,,,
729606153.88237,2.973676,-5.213019,-12.719104,0.088516,0.060806,0.998245,-0.015779,0.036403,-0.012639,63.480011,6.171967,-147.327362,,,
729606153.885714,2.973676,-5.213019,-12.719104,0.088516,0.060806,0.998245,-0.015779,0.036403,-0.012639,63.480011,6.171967,-147.327362,,,
729606153.889065,2.970524,-5.204847,-12.724202,0.088821,0.057663,1.002823,-0.010223,0.027896,-0.016065,63.480011,6.171967,-147.327362,,,
729606153.892448,2.970513,-5.19955,-12.728897,0.088821,0.057663,1.002823,-0.010223,0.027896,-0.016065,63.480011,6.171967,-147.327362,,,
729606153.8957,2.970513,-5.19955,-12.728897,0.088821,0.057663,1.002823,-0.010223,0.027896,-0.016065,63.480011,6.171967,-147.327362,,,
729606153.899046,2.968805,-5.194501,-12.732776,0.082901,0.054977,1.006592,-0.006352,0.018155,-0.012198,63.801437,5.953949,-147.350235,,,
729606153.902383,2.969311,-5.194732,-12.735094,0.082901,0.054977,1.006592,-0.006352,0.018155,-0.012198,63.801437,5.953949,-147.350235,,,
729606153.905769,2.969311,-5.194732,-12.735094,0.082901,0.054977,1.006592,-0.006352,0.018155,-0.012198,63.801437,5.953949,-147.350235,,,
729606153.909058,2.967858,-5.193931,-12.736292,0.078995,0.054321,1.006454,-0.003879,0.002803,-0.002609,63.801437,5.953949,-147.350235,,,
729606153.912367,2.967388,-5.198765,-12.736637,0.078995,0.054321,1.006454,-0.003879,0.002803,-0.002609,63.801437,5.953949,-147.350235,,,
729606153.915721,2.967388,-5.198765,-12.736637,0.078995,0.054321,1.006454,-0.003879,0.002803,-0.002609,63.801437,5.953949,-147.350235,,,
729606153.919106,2.966713,-5.20393,-12.736315,0.079895,0.05542,1.006714,-0.002075,-0.018797,0.001526,63.801437,5.953949,-147.350235,,,
729606153.922372,2.966823,-5.21309,-12.73521,0.079895,0.05542,1.006714,-0.002075,-0.018797,0.001526,63.801437,5.953949,-147.350235,,,
729606153.92571,2.966823,-5.21309,-12.73521,0.079895,0.05542,1.006714,-0.002075,-0.018797,0.001526,63.801437,5.953949,-147.350235,,,
729606153.929054,2.96829,-5.225949,-12.734489,0.0858,0.058044,1.009552,0.008809,-0.044551,0.000903,63.801437,5.953949,-147.350235,,,
729606153.932449,2.971168,-5.242061,-12.734442,0.0858,0.058044,1.009552,0.008809,-0.044551,0.000903,63.801437,5.953949,-147.350235,,,
729606153.935734,2.971168,-5.242061,-12.734442,0.0858,0.058044,1.009552,0.008809,-0.044551,0.000903,63.801437,5.953949,-147.350235,,,
729606153.93904,2.977892,-5.265437,-12.734901,0.093826,0.062134,1.009933,0.024471,-0.08346,-0.007349,63.666412,6.011292,-147.464767,,,
729606153.942385,2.987967,-5.292556,-12.736281,0.093826,0.062134,1.009933,0.024471,-0.08346,-0.007349,63.666412,6.011292,-147.464767,,,
729606153.945766,2.987967,-5.292556,-12.736281,0.093826,0.062134,1.009933,0.024471,-0.08346,-0.007349,63.666412,6.011292,-147.464767,,,
729606153.949043,3.002163,-5.324695,-12.738217,0.098099,0.064346,1.010452,0.05381,-0.111609,-0.014812,63.666412,6.011292,-147.464767,,,
729606153.952411,3.020494,-5.355225,-12.74165,0.098099,0.064346,1.010452,0.05381,-0.111609,-0.014812,63.666412,6.011292,-147.464767,,,
729606153.955727,3.020494,-5.355225,-12.74165,0.098099,0.064346,1.010452,0.05381,-0.111609,-0.014812,63.666412,6.011292,-147.464767,,,
729606153.959115,3.040096,-5.385751,-12.745936,0.105026,0.06424,1.013123,0.068351,-0.102466,-0.020922,63.666412,6.011292,-147.464767,,,
729606153.962369,3.062745,-5.410227,-12.750384,0.105026,0.06424,1.013123,0.068351,-0.102466,-0.020922,63.666412,6.011292,-147.464767,,,
729606153.965722,3.062745,-5.410227,-12.750384,0.105026,0.06424,1.013123,0.068351,-0.102466,-0.020922,63.666412,6.011292,-147.464767,,,
729606153.969038,3.085039,-5.429625,-12.754667,0.111664,0.065384,1.013901,0.077226,-0.058383,-0.025469,63.666412,6.011292,-147.464767,,,
729606153.972432,3.10884,-5.437231,-12.759021,0.111664,0.065384,1.013901,0.077226,-0.058383,-0.025469,63.666412,6.011292,-147.464767,,,
729606153.975705,3.10884,-5.437231,-12.759021,0.111664,0.065384,1.013901,0.077226,-0.058383,-0.025469,63.666412,6.011292,-147.464767,,,
729606153.979061,3.134031,-5.437012,-12.762759,0.1185,0.063965,1.01622,0.093047,0.012495,-0.022152,63.666412,6.011292,-147.464767,,,
729606153.982378,3.160221,-5.422298,-12.765882,0.1185,0.063965,1.01622,0.093047,0.012495,-0.022152,63.726135,5.749725,-147.416534,,,
729606153.985795,3.160221,-5.422298,-12.765882,0.1185,0.063965,1.01622,0.093047,0.012495,-0.022152,63.726135,5.749725,-147.416534,,,
729606153.989053,3.186731,-5.401121,-12.767522,0.113403,0.060272,1.011414,0.092079,0.082876,-0.014615,63.726135,5.749725,-147.416534,,,
729606153.992379,3.213106,-5.367614,-12.767772,0.113403,0.060272,1.011414,0.092079,0.082876,-0.014615,63.726135,5.749725,-147.416534,,,
729606153.995714,3.213106,-5.367614,-12.767772,0.113403,0.060272,1.011414,0.092079,0.082876,-0.014615,63.726135,5.749725,-147.416534,,,
729606153.999108,3.238353,-5.330894,-12.766714,0.100983,0.054733,0.99733,0.088535,0.138328,-0.002853,63.726135,5.749725,-147.416534,,,
729606154.002477,3.261009,-5.286209,-12.765036,0.100983,0.054733,0.99733,0.088535,0.138328,-0.002853,63.726135,5.749725,-147.416534,,,
729606154.005771,3.261009,-5.286209,-12.765036,0.100983,0.054733,0.99733,0.088535,0.138328,-0.002853,63.726135,5.749725,-147.416534,,,
729606154.009027,3.281106,-5.242297,-12.763096,0.091324,0.054749,0.977005,0.070078,0.156358,0.000915,63.726135,5.749725,-147.416534,,,
729606154.012457,3.298019,-5.197746,-12.761573,0.091324,0.054749,0.977005,0.070078,0.156358,0.000915,63.726135,5.749725,-147.416534,,,
729606154.015713,3.298019,-5.197746,-12.761573,0.091324,0.054749,0.977005,0.070078,0.156358,0.000915,63.726135,5.749725,-147.416534,,,
729606154.019086,3.310649,-5.157279,-12.760247,0.079025,0.059479,0.955765,0.039358,0.141956,4.1e-05,63.726135,5.749725,-147.416534,,,
729606154.022388,3.319574,-5.123178,-12.759208,0.079025,0.059479,0.955765,0.039358,0.141956,4.1e-05,63.883865,5.661438,-147.286896,,,
729606154.02581,3.319574,-5.123178,-12.759208,0.079025,0.059479,0.955765,0.039358,0.141956,4.1e-05,63.883865,5.661438,-147.286896,,,
729606154.029049,3.323293,-5.094036,-12.758886,0.067795,0.059875,0.944138,0.007798,0.095701,9.1e-05,63.883865,5.661438,-147.286896,,,
729606154.032397,3.324407,-5.075127,-12.758922,0.067795,0.059875,0.944138,0.007798,0.095701,9.1e-05,63.883865,5.661438,-147.286896,,,
729606154.035786,3.324407,-5.075127,-12.758922,0.067795,0.059875,0.944138,0.007798,0.095701,9.1e-05,63.883865,5.661438,-147.286896,,,
729606154.039046,3.321999,-5.062058,-12.759071,0.061844,0.054688,0.940491,-0.00682,0.038458,0.000957,63.883865,5.661438,-147.286896,,,
729606154.042394,3.318945,-5.06123,-12.75853,0.061844,0.054688,0.940491,-0.00682,0.038458,0.000957,63.883865,5.661438,-147.286896,,,
729606154.045725,3.318945,-5.06123,-12.75853,0.061844,0.054688,0.940491,-0.00682,0.038458,0.000957,63.883865,5.661438,-147.286896,,,
729606154.049051,3.315026,-5.064621,-12.75707,0.059692,0.047318,0.950089,-0.012245,-0.017353,0.00695,63.883865,5.661438,-147.286896,,,
729606154.052403,3.311988,-5.078393,-12.753782,0.059692,0.047318,0.950089,-0.012245,-0.017353,0.00695,63.883865,5.661438,-147.286896,,,
729606154.055722,3.311988,-5.078393,-12.753782,0.059692,0.047318,0.950089,-0.012245,-0.017353,0.00695,63.883865,5.661438,-147.286896,,,
729606154.059057,3.309448,-5.092167,-12.749397,0.06308,0.044724,0.964355,-0.004979,-0.047047,0.017982,63.883865,5.661438,-147.286896,,,
729606154.062373,3.308729,-5.112481,-12.743335,0.06308,0.044724,0.964355,-0.004979,-0.047047,0.017982,63.732117,5.774338,-147.307495,,,
729606154.065665,3.308729,-5.112481,-12.743335,0.06308,0.044724,0.964355,-0.004979,-0.047047,0.017982,63.732117,5.774338,-147.307495,,,
729606154.069072,3.308773,-5.127523,-12.735873,0.071564,0.043243,0.98027,0.005614,-0.045623,0.024844,63.732117,5.774338,-147.307495,,,
729606154.072385,3.309439,-5.143044,-12.726353,0.071564,0.043243,0.98027,0.005614,-0.045623,0.024844,63.732117,5.774338,-147.307495,,,
729606154.075727,3.309439,-5.143044,-12.726353,0.071564,0.043243,0.98027,0.005614,-0.045623,0.024844,63.732117,5.774338,-147.307495,,,
729606154.079117,3.309583,-5.150384,-12.714958,0.083084,0.044968,0.986511,0.005504,-0.01486,0.040135,63.732117,5.774338,-147.307495,,,
