Time (sec),Pitch (deg),Roll (deg),Yaw(deg),X-Acceleration (g),Y-Acceleration (g),Z-Acceleration (g),Pitch Rate (deg/sec),Roll Rate (deg/sec),Yaw Rate (deg/sec),Magnetic Field in X direction (uT),Magnetic Field in Y direction (uT),Magnetic Field in Z Direction (uT),Latitude (deg),Longitude (deg),Altitude (m)
729600792.269907,0.651138,-3.216157,-2.866033,0.062119,0.016098,1.001266,-0.031768,0.004015,-0.038099,63.809723,9.520615,-147.097565,,,
729600792.27327,0.643235,-3.215696,-2.877056,0.062119,0.016098,1.001266,-0.031768,0.004015,-0.038099,63.809723,9.520615,-147.097565,,,
729600792.276594,0.643235,-3.215696,-2.877056,0.062119,0.016098,1.001266,-0.031768,0.004015,-0.038099,63.809723,9.520615,-147.097565,,,
729600792.279861,0.638158,-3.215248,-2.886922,0.055817,0.012085,1.00264,-0.017052,0.007,-0.0309,63.809723,9.520615,-147.097565,,,
729600792.283204,0.635119,-3.213286,-2.895271,0.055817,0.012085,1.00264,-0.017052,0.007,-0.0309,63.809723,9.520615,-147.097565,,,
729600792.286562,0.635119,-3.213286,-2.895271,0.055817,0.012085,1.00264,-0.017052,0.007,-0.0309,63.809723,9.520615,-147.097565,,,
729600792.289911,0.636059,-3.210681,-2.902767,0.049866,0.007034,1.011368,0.009449,0.018081,-0.026539,63.809723,9.520615,-147.097565,,,
729600792.293257,0.640735,-3.205885,-2.910045,0.049866,0.007034,1.011368,0.009449,0.018081,-0.026539,63.809723,9.520615,-147.097565,,,
729600792.296614,0.640735,-3.205885,-2.910045,0.049866,0.007034,1.011368,0.009449,0.018081,-0.026539,63.809723,9.520615,-147.097565,,,
729600792.299851,0.64804,-3.200083,-2.91702,0.048889,0.006485,1.018799,0.02899,0.025549,-0.025518,63.809723,9.520615,-147.097565,,,
729600792.303179,0.65707,-3.192844,-2.923346,0.048889,0.006485,1.018799,0.02899,0.025549,-0.025518,63.809723,9.520615,-147.097565,,,
729600792.306608,0.65707,-3.192844,-2.923346,0.048889,0.006485,1.018799,0.02899,0.025549,-0.025518,63.708908,9.75708,-147.503006,,,
729600792.309824,0.664658,-3.185025,-2.930148,0.043442,0.008301,1.009735,0.023137,0.030878,-0.028481,63.708908,9.75708,-147.503006,,,
729600792.313179,0.670132,-3.177168,-2.937105,0.043442,0.008301,1.009735,0.023137,0.030878,-0.028481,63.708908,9.75708,-147.503006,,,
729600792.316575,0.670132,-3.177168,-2.937105,0.043442,0.008301,1.009735,0.023137,0.030878,-0.028481,63.708908,9.75708,-147.503006,,,
729600792.319833,0.67268,-3.17203,-2.944041,0.039932,0.01384,0.996109,0.003079,0.022278,-0.027363,63.708908,9.75708,-147.503006,,,
729600792.323215,0.672166,-3.167296,-2.9512,0.039932,0.01384,0.996109,0.003079,0.022278,-0.027363,63.708908,9.75708,-147.503006,,,
729600792.326546,0.672166,-3.167296,-2.9512,0.039932,0.01384,0.996109,0.003079,0.022278,-0.027363,63.708908,9.75708,-147.503006,,,
729600792.329847,0.669291,-3.166987,-2.958312,0.043259,0.019547,0.987518,-0.016351,0.006346,-0.026155,63.708908,9.75708,-147.503006,,,
729600792.333172,0.664576,-3.166877,-2.965449,0.043259,0.019547,0.987518,-0.016351,0.006346,-0.026155,63.708908,9.75708,-147.503006,,,
729600792.336655,0.664576,-3.166877,-2.965449,0.043259,0.019547,0.987518,-0.016351,0.006346,-0.026155,63.708908,9.75708,-147.503006,,,
729600792.339879,0.660437,-3.17138,-2.971982,0.04277,0.01741,0.988907,-0.016884,-0.01124,-0.022139,63.708908,9.75708,-147.503006,,,
729600792.343179,0.656358,-3.175883,-2.978486,0.04277,0.01741,0.988907,-0.016884,-0.01124,-0.022139,63.708908,9.75708,-147.503006,,,
729600792.346629,0.656358,-3.175883,-2.978486,0.04277,0.01741,0.988907,-0.016884,-0.01124,-0.022139,63.94072,9.783264,-147.203049,,,
729600792.349911,0.655497,-3.182174,-2.985368,0.040634,0.012482,0.995331,-0.000187,-0.017214,-0.025828,63.94072,9.783264,-147.203049,,,
729600792.353176,0.657606,-3.188247,-2.992208,0.040634,0.012482,0.995331,-0.000187,-0.017214,-0.025828,63.94072,9.783264,-147.203049,,,
729600792.356593,0.657606,-3.188247,-2.992208,0.040634,0.012482,0.995331,-0.000187,-0.017214,-0.025828,63.94072,9.783264,-147.203049,,,
729600792.359842,0.66266,-3.19426,-2.999203,0.04303,0.010941,1.004944,0.021546,-0.020827,-0.028056,63.94072,9.783264,-147.203049,,,
729600792.363178,0.66969,-3.200138,-3.006052,0.04303,0.010941,1.004944,0.021546,-0.020827,-0.028056,63.94072,9.783264,-147.203049,,,
729600792.366528,0.66969,-3.200138,-3.006052,0.04303,0.010941,1.004944,0.021546,-0.020827,-0.028056,63.94072,9.783264,-147.203049,,,
729600792.369865,0.676121,-3.203351,-3.012318,0.046661,0.012405,1.0009,0.025595,-0.011782,-0.024142,63.94072,9.783264,-147.203049,,,
729600792.373222,0.684017,-3.207385,-3.017485,0.046661,0.012405,1.0009,0.025595,-0.011782,-0.024142,63.94072,9.783264,-147.203049,,,
729600792.376647,0.684017,-3.207385,-3.017485,0.046661,0.012405,1.0009,0.025595,-0.011782,-0.024142,63.94072,9.783264,-147.203049,,,
729600792.379847,0.691257,-3.208806,-3.021245,0.046432,0.01561,0.994339,0.028641,-0.005842,-0.014357,63.94072,9.783264,-147.203049,,,
729600792.383184,0.699924,-3.210525,-3.024548,0.046432,0.01561,0.994339,0.028641,-0.005842,-0.014357,63.94072,9.783264,-147.203049,,,
729600792.386564,0.699924,-3.210525,-3.024548,0.046432,0.01561,0.994339,0.028641,-0.005842,-0.014357,63.94072,9.783264,-147.203049,,,
729600792.389914,0.708856,-3.207333,-3.027453,0.048828,0.017685,0.996689,0.033888,0.006904,-0.011641,63.916687,9.738541,-147.304138,,,
729600792.393184,0.718082,-3.205426,-3.02927,0.048828,0.017685,0.996689,0.033888,0.006904,-0.011641,63.916687,9.738541,-147.304138,,,
729600792.39651,0.718082,-3.205426,-3.02927,0.048828,0.017685,0.996689,0.033888,0.006904,-0.011641,63.916687,9.738541,-147.304138,,,
729600792.399859,0.727663,-3.199369,-3.03049,0.048904,0.015686,0.997314,0.030381,0.015741,-0.007007,63.916687,9.738541,-147.304138,,,
729600792.40318,0.736166,-3.195456,-3.031307,0.048904,0.015686,0.997314,0.030381,0.015741,-0.007007,63.916687,9.738541,-147.304138,,,
729600792.406566,0.736166,-3.195456,-3.031307,0.048904,0.015686,0.997314,0.030381,0.015741,-0.007007,63.916687,9.738541,-147.304138,,,
729600792.409859,0.745846,-3.188312,-3.031885,0.044434,0.012787,0.998032,0.029043,0.022177,-0.005098,63.916687,9.738541,-147.304138,,,
729600792.413177,0.753747,-3.183446,-3.032417,0.044434,0.012787,0.998032,0.029043,0.022177,-0.005098,63.916687,9.738541,-147.304138,,,
729600792.416576,0.753747,-3.183446,-3.032417,0.044434,0.012787,0.998032,0.029043,0.022177,-0.005098,63.916687,9.738541,-147.304138,,,
729600792.419861,0.760964,-3.176841,-3.032047,0.044006,0.014084,0.995743,0.022373,0.016124,0.001765,63.916687,9.738541,-147.304138,,,
729600792.423227,0.767153,-3.17407,-3.030102,0.044006,0.014084,0.995743,0.022373,0.016124,0.001765,63.916687,9.738541,-147.304138,,,
729600792.4265,0.767153,-3.17407,-3.030102,0.044006,0.014084,0.995743,0.022373,0.016124,0.001765,63.916687,9.738541,-147.304138,,,
729600792.429912,0.772574,-3.170186,-3.026885,0.042831,0.013184,0.991699,0.018419,0.003272,0.011112,63.753387,9.703339,-147.209808,,,
729600792.433174,0.776643,-3.170629,-3.022103,0.042831,0.013184,0.991699,0.018419,0.003272,0.011112,63.753387,9.703339,-147.209808,,,
729600792.436529,0.776643,-3.170629,-3.022103,0.042831,0.013184,0.991699,0.018419,0.003272,0.011112,63.753387,9.703339,-147.209808,,,
729600792.439864,0.779125,-3.169933,-3.016419,0.046143,0.013092,0.990219,0.011763,-0.003877,0.017958,63.753387,9.703339,-147.209808,,,
729600792.443186,0.782018,-3.172637,-3.010861,0.046143,0.013092,0.990219,0.011763,-0.003877,0.017958,63.753387,9.703339,-147.209808,,,
729600792.446527,0.782018,-3.172637,-3.010861,0.046143,0.013092,0.990219,0.011763,-0.003877,0.017958,63.753387,9.703339,-147.209808,,,
729600792.449854,0.785874,-3.174012,-3.005396,0.051071,0.01297,0.993759,0.017821,-0.006828,0.017113,63.753387,9.703339,-147.209808,,,
729600792.453179,0.790924,-3.175866,-3.000368,0.051071,0.01297,0.993759,0.017821,-0.006828,0.017113,63.753387,9.703339,-147.209808,,,
729600792.456581,0.790924,-3.175866,-3.000368,0.051071,0.01297,0.993759,0.017821,-0.006828,0.017113,63.753387,9.703339,-147.209808,,,
729600792.459857,0.796885,-3.174275,-2.99646,0.056381,0.014999,1.00087,0.020064,0.005111,0.009356,63.753387,9.703339,-147.209808,,,
729600792.463184,0.802311,-3.173439,-2.993523,0.056381,0.014999,1.00087,0.020064,0.005111,0.009356,63.753387,9.703339,-147.209808,,,
729600792.466529,0.802311,-3.173439,-2.993523,0.056381,0.014999,1.00087,0.020064,0.005111,0.009356,63.753387,9.703339,-147.209808,,,
729600792.46991,0.808046,-3.171077,-2.991443,0.063446,0.015045,0.996918,0.016332,0.00903,0.003694,63.871811,9.547256,-147.354614,,,
729600792.473246,0.811646,-3.169373,-2.990012,0.063446,0.015045,0.996918,0.016332,0.00903,0.003694,63.871811,9.547256,-147.354614,,,
729600792.476526,0.811646,-3.169373,-2.990012,0.063446,0.015045,0.996918,0.016332,0.00903,0.003694,63.871811,9.547256,-147.354614,,,
729600792.479864,0.813734,-3.16618,-2.98931,0.066422,0.018906,0.991333,0.004998,0.008294,-0.00061,63.871811,9.547256,-147.354614,,,
729600792.483171,0.813889,-3.164496,-2.989748,0.066422,0.018906,0.991333,0.004998,0.008294,-0.00061,63.871811,9.547256,-147.354614,,,
729600792.486507,0.813889,-3.164496,-2.989748,0.066422,0.018906,0.991333,0.004998,0.008294,-0.00061,63.871811,9.547256,-147.354614,,,
729600792.489893,0.811784,-3.160893,-2.99159,0.066193,0.021103,0.988815,-0.008624,0.006144,-0.009472,63.871811,9.547256,-147.354614,,,
729600792.493177,0.808248,-3.160218,-2.994422,0.066193,0.021103,0.988815,-0.008624,0.006144,-0.009472,63.871811,9.547256,-147.354614,,,
729600792.49657,0.808248,-3.160218,-2.994422,0.066193,0.021103,0.988815,-0.008624,0.006144,-0.009472,63.871811,9.547256,-147.354614,,,
729600792.499848,0.804053,-3.157638,-2.99759,0.06076,0.015289,0.986328,-0.013063,0.00399,-0.011376,63.871811,9.547256,-147.354614,,,
729600792.503182,0.801001,-3.157545,-3.000733,0.06076,0.015289,0.986328,-0.013063,0.00399,-0.011376,63.871811,9.547256,-147.354614,,,
729600792.506617,0.801001,-3.157545,-3.000733,0.06076,0.015289,0.986328,-0.013063,0.00399,-0.011376,63.871811,9.547256,-147.354614,,,
729600792.509833,0.799527,-3.155801,-3.004227,0.058334,0.008804,0.996246,-0.000574,0.000137,-0.01431,64.046967,9.582169,-147.518478,,,
729600792.513177,0.800207,-3.156725,-3.00783,0.058334,0.008804,0.996246,-0.000574,0.000137,-0.01431,64.046967,9.582169,-147.518478,,,
729600792.516507,0.800207,-3.156725,-3.00783,0.058334,0.008804,0.996246,-0.000574,0.000137,-0.01431,64.046967,9.582169,-147.518478,,,
729600792.519855,0.802121,-3.156238,-3.010515,0.05809,0.00383,1.002289,0.009081,0.000293,-0.008321,64.046967,9.582169,-147.518478,,,
729600792.523215,0.804622,-3.156322,-3.011441,0.05809,0.00383,1.002289,0.009081,0.000293,-0.008321,64.046967,9.582169,-147.518478,,,
729600792.52652,0.804622,-3.156322,-3.011441,0.05809,0.00383,1.002289,0.009081,0.000293,-0.008321,64.046967,9.582169,-147.518478,,,
729600792.52986,0.806414,-3.154379,-3.010449,0.047836,-0.001678,1.002655,0.005158,0.011187,0.005283,64.046967,9.582169,-147.518478,,,
729600792.533178,0.80679,-3.151335,-3.008131,0.047836,-0.001678,1.002655,0.005158,0.011187,0.005283,64.046967,9.582169,-147.518478,,,
729600792.536602,0.80679,-3.151335,-3.008131,0.047836,-0.001678,1.002655,0.005158,0.011187,0.005283,64.046967,9.582169,-147.518478,,,
729600792.539905,0.805208,-3.14828,-3.00537,0.048752,-0.000671,1.00116,-0.008932,0.017727,0.009064,64.046967,9.582169,-147.518478,,,
729600792.543171,0.801869,-3.143021,-3.001763,0.048752,-0.000671,1.00116,-0.008932,0.017727,0.009064,64.046967,9.582169,-147.518478,,,
729600792.546513,0.801869,-3.143021,-3.001763,0.048752,-0.000671,1.00116,-0.008932,0.017727,0.009064,64.046967,9.582169,-147.518478,,,
729600792.549921,0.797566,-3.138838,-2.997388,0.048645,0.000275,0.997681,-0.018386,0.024946,0.014688,64.046967,9.582169,-147.518478,,,
729600792.553167,0.791283,-3.132798,-2.993586,0.048645,0.000275,0.997681,-0.018386,0.024946,0.014688,64.091843,9.54892,-147.050476,,,
729600792.556572,0.791283,-3.132798,-2.993586,0.048645,0.000275,0.997681,-0.018386,0.024946,0.014688,64.091843,9.54892,-147.050476,,,
729600792.559917,0.785528,-3.129894,-2.99083,0.05217,0.001892,0.996796,-0.024746,0.019804,0.007499,64.091843,9.54892,-147.050476,,,
729600792.563196,0.777896,-3.125797,-2.989018,0.05217,0.001892,0.996796,-0.024746,0.019804,0.007499,64.091843,9.54892,-147.050476,,,
729600792.56653,0.777896,-3.125797,-2.989018,0.05217,0.001892,0.996796,-0.024746,0.019804,0.007499,64.091843,9.54892,-147.050476,,,
729600792.569861,0.771367,-3.125425,-2.98759,0.052094,0.004776,0.995544,-0.026568,0.00905,0.004789,64.091843,9.54892,-147.050476,,,
729600792.573252,0.763316,-3.12553,-2.986384,0.052094,0.004776,0.995544,-0.026568,0.00905,0.004789,64.091843,9.54892,-147.050476,,,
729600792.576605,0.763316,-3.12553,-2.986384,0.052094,0.004776,0.995544,-0.026568,0.00905,0.004789,64.091843,9.54892,-147.050476,,,
729600792.579864,0.754463,-3.129063,-2.985447,0.049042,0.00856,0.989487,-0.031509,-0.007269,0.003081,64.091843,9.54892,-147.050476,,,
729600792.583183,0.745021,-3.132898,-2.984274,0.049042,0.00856,0.989487,-0.031509,-0.007269,0.003081,64.091843,9.54892,-147.050476,,,
729600792.586509,0.745021,-3.132898,-2.984274,0.049042,0.00856,0.989487,-0.031509,-0.007269,0.003081,64.091843,9.54892,-147.050476,,,
729600792.589908,0.734272,-3.138937,-2.982351,0.052841,0.012787,0.984741,-0.032246,-0.017764,0.0083,64.091843,9.54892,-147.050476,,,
729600792.593174,0.724201,-3.144976,-2.980405,0.052841,0.012787,0.984741,-0.032246,-0.017764,0.0083,63.956573,9.651566,-147.054092,,,
729600792.596524,0.724201,-3.144976,-2.980405,0.052841,0.012787,0.984741,-0.032246,-0.017764,0.0083,63.956573,9.651566,-147.054092,,,
729600792.599915,0.711916,-3.151027,-2.978197,0.05632,0.014755,0.982056,-0.032084,-0.018183,0.010078,63.956573,9.651566,-147.054092,,,
729600792.603179,0.701227,-3.156267,-2.975821,0.05632,0.014755,0.982056,-0.032084,-0.018183,0.010078,63.956573,9.651566,-147.054092,,,
729600792.606569,0.701227,-3.156267,-2.975821,0.05632,0.014755,0.982056,-0.032084,-0.018183,0.010078,63.956573,9.651566,-147.054092,,,
729600792.609852,0.685643,-3.158751,-2.974278,0.062698,0.018478,0.982773,-0.046542,-0.010114,0.005196,63.956573,9.651566,-147.054092,,,
729600792.61318,0.671738,-3.16194,-2.973401,0.062698,0.018478,0.982773,-0.046542,-0.010114,0.005196,63.956573,9.651566,-147.054092,,,
729600792.616533,0.671738,-3.16194,-2.973401,0.062698,0.018478,0.982773,-0.046542,-0.010114,0.005196,63.956573,9.651566,-147.054092,,,
729600792.619854,0.654984,-3.162591,-2.973541,0.067505,0.022675,0.981567,-0.050099,4.6e-05,-0.001606,63.956573,9.651566,-147.054092,,,
729600792.623214,0.640091,-3.163174,-2.975167,0.067505,0.022675,0.981567,-0.050099,4.6e-05,-0.001606,63.956573,9.651566,-147.054092,,,
729600792.626495,0.640091,-3.163174,-2.975167,0.067505,0.022675,0.981567,-0.050099,4.6e-05,-0.001606,63.956573,9.651566,-147.054092,,,
729600792.629856,0.623509,-3.162216,-2.977698,0.070969,0.025665,0.984909,-0.048905,0.002667,-0.007923,63.956573,9.651566,-147.054092,,,
729600792.633178,0.609665,-3.162634,-2.980711,0.070969,0.025665,0.984909,-0.048905,0.002667,-0.007923,63.793533,9.720337,-147.143814,,,
729600792.6365,0.609665,-3.162634,-2.980711,0.070969,0.025665,0.984909,-0.048905,0.002667,-0.007923,63.793533,9.720337,-147.143814,,,
729600792.639997,0.594731,-3.163905,-2.984276,0.065231,0.023041,0.988998,-0.046437,-0.005162,-0.011905,63.793533,9.720337,-147.143814,,,
729600792.643171,0.581436,-3.167157,-2.988188,0.065231,0.023041,0.988998,-0.046437,-0.005162,-0.011905,63.793533,9.720337,-147.143814,,,
729600792.646508,0.581436,-3.167157,-2.988188,0.065231,0.023041,0.988998,-0.046437,-0.005162,-0.011905,63.793533,9.720337,-147.143814,,,
729600792.649851,0.566818,-3.172182,-2.992476,0.058319,0.020126,0.987045,-0.051293,-0.02341,-0.014171,63.793533,9.720337,-147.143814,,,
729600792.653177,0.552327,-3.180591,-2.997185,0.058319,0.020126,0.987045,-0.051293,-0.02341,-0.014171,63.793533,9.720337,-147.143814,,,
729600792.656555,0.552327,-3.180591,-2.997185,0.058319,0.020126,0.987045,-0.051293,-0.02341,-0.014171,63.793533,9.720337,-147.143814,,,
729600792.659833,0.537417,-3.190016,-3.002691,0.053238,0.019791,0.986588,-0.054718,-0.03765,-0.019455,63.793533,9.720337,-147.143814,,,
729600792.663182,0.521895,-3.201985,-3.008514,0.053238,0.019791,0.986588,-0.054718,-0.03765,-0.019455,63.793533,9.720337,-147.143814,,,
729600792.666609,0.521895,-3.201985,-3.008514,0.053238,0.019791,0.986588,-0.054718,-0.03765,-0.019455,63.793533,9.720337,-147.143814,,,
729600792.669829,0.50809,-3.214117,-3.013929,0.054596,0.020035,0.996536,-0.04947,-0.040016,-0.01684,63.793533,9.720337,-147.143814,,,
729600792.673271,0.494889,-3.225765,-3.019245,0.054596,0.020035,0.996536,-0.04947,-0.040016,-0.01684,63.795334,9.663422,-147.197021,,,
729600792.676513,0.494889,-3.225765,-3.019245,0.054596,0.020035,0.996536,-0.04947,-0.040016,-0.01684,63.795334,9.663422,-147.197021,,,
729600792.679854,0.485421,-3.236146,-3.025165,0.055786,0.015625,1.00853,-0.032675,-0.026142,-0.022029,63.795334,9.663422,-147.197021,,,
729600792.683181,0.477646,-3.243646,-3.031103,0.055786,0.015625,1.00853,-0.032675,-0.026142,-0.022029,63.795334,9.663422,-147.197021,,,
729600792.686515,0.477646,-3.243646,-3.031103,0.055786,0.015625,1.00853,-0.032675,-0.026142,-0.022029,63.795334,9.663422,-147.197021,,,
729600792.689957,0.475007,-3.25119,-3.036278,0.059769,0.010864,1.018387,-0.013742,-0.014304,-0.017871,63.795334,9.663422,-147.197021,,,
729600792.69317,0.472598,-3.254804,-3.041192,0.059769,0.010864,1.018387,-0.013742,-0.014304,-0.017871,63.795334,9.663422,-147.197021,,,
729600792.696516,0.472598,-3.254804,-3.041192,0.059769,0.010864,1.018387,-0.013742,-0.014304,-0.017871,63.795334,9.663422,-147.197021,,,
729600792.699841,0.475876,-3.25907,-3.045696,0.053818,0.00351,1.016846,0.003404,0.000344,-0.016066,63.795334,9.663422,-147.197021,,,
729600792.703179,0.477931,-3.25858,-3.049717,0.053818,0.00351,1.016846,0.003404,0.000344,-0.016066,63.795334,9.663422,-147.197021,,,
729600792.706579,0.477931,-3.25858,-3.049717,0.053818,0.00351,1.016846,0.003404,0.000344,-0.016066,63.795334,9.663422,-147.197021,,,
729600792.709839,0.48509,-3.258381,-3.053351,0.056473,0.005142,1.012634,0.015069,0.016864,-0.014174,63.795334,9.663422,-147.197021,,,
729600792.713183,0.489875,-3.254107,-3.056625,0.056473,0.005142,1.012634,0.015069,0.016864,-0.014174,63.795334,9.663422,-147.197021,,,
729600792.716608,0.489875,-3.254107,-3.056625,0.056473,0.005142,1.012634,0.015069,0.016864,-0.014174,63.945709,9.654572,-147.121902,,,
729600792.719851,0.497956,-3.250621,-3.059473,0.055496,0.007675,1.007935,0.019933,0.020355,-0.011571,63.945709,9.654572,-147.121902,,,
729600792.723229,0.503835,-3.24672,-3.062474,0.055496,0.007675,1.007935,0.019933,0.020355,-0.011571,63.945709,9.654572,-147.121902,,,
729600792.726509,0.503835,-3.24672,-3.062474,0.055496,0.007675,1.007935,0.019933,0.020355,-0.011571,63.945709,9.654572,-147.121902,,,
729600792.72987,0.511725,-3.244538,-3.066081,0.053574,0.008026,0.998901,0.019184,0.007511,-0.01574,63.945709,9.654572,-147.121902,,,
729600792.733213,0.517777,-3.244176,-3.070506,0.053574,0.008026,0.998901,0.019184,0.007511,-0.01574,63.945709,9.654572,-147.121902,,,
729600792.736548,0.517777,-3.244176,-3.070506,0.053574,0.008026,0.998901,0.019184,0.007511,-0.01574,63.945709,9.654572,-147.121902,,,
729600792.739895,0.526341,-3.245389,-3.075877,0.055832,0.009033,0.993515,0.019889,-0.00589,-0.022352,63.945709,9.654572,-147.121902,,,
729600792.743171,0.532609,-3.248239,-3.081988,0.055832,0.009033,0.993515,0.019889,-0.00589,-0.022352,63.945709,9.654572,-147.121902,,,
729600792.746508,0.532609,-3.248239,-3.081988,0.055832,0.009033,0.993515,0.019889,-0.00589,-0.022352,63.945709,9.654572,-147.121902,,,
729600792.749854,0.54166,-3.251549,-3.088422,0.055832,0.008224,0.993042,0.02654,-0.011945,-0.024983,63.945709,9.654572,-147.121902,,,
729600792.753179,0.550014,-3.2561,-3.094768,0.055832,0.008224,0.993042,0.02654,-0.011945,-0.024983,63.945709,9.654572,-147.121902,,,
729600792.75655,0.550014,-3.2561,-3.094768,0.055832,0.008224,0.993042,0.02654,-0.011945,-0.024983,63.800507,9.673813,-147.242905,,,
729600792.759857,0.561048,-3.259873,-3.101268,0.0569,0.011917,0.99556,0.03932,-0.006773,-0.026787,63.800507,9.673813,-147.242905,,,
729600792.763171,0.573155,-3.260908,-3.10821,0.0569,0.011917,0.99556,0.03932,-0.006773,-0.026787,63.800507,9.673813,-147.242905,,,
729600792.7666,0.573155,-3.260908,-3.10821,0.0569,0.011917,0.99556,0.03932,-0.006773,-0.026787,63.800507,9.673813,-147.242905,,,
729600792.76986,0.586308,-3.25878,-3.115316,0.0634,0.013901,1.000519,0.049969,0.014471,-0.028562,63.800507,9.673813,-147.242905,,,
729600792.773226,0.601719,-3.253681,-3.122466,0.0634,0.013901,1.000519,0.049969,0.014471,-0.028562,63.800507,9.673813,-147.242905,,,
729600792.776521,0.601719,-3.253681,-3.122466,0.0634,0.013901,1.000519,0.049969,0.014471,-0.028562,63.800507,9.673813,-147.242905,,,
729600792.779847,0.616327,-3.244466,-3.129348,0.065262,0.013016,1.002838,0.055035,0.037491,-0.026919,63.800507,9.673813,-147.242905,,,
729600792.783186,0.631772,-3.233063,-3.135689,0.065262,0.013016,1.002838,0.055035,0.037491,-0.026919,63.800507,9.673813,-147.242905,,,
729600792.786523,0.631772,-3.233063,-3.135689,0.065262,0.013016,1.002838,0.055035,0.037491,-0.026919,63.800507,9.673813,-147.242905,,,
729600792.789855,0.644194,-3.219926,-3.142157,0.063187,0.015228,0.989578,0.039889,0.050027,-0.026928,63.800507,9.673813,-147.242905,,,
729600792.793182,0.65433,-3.206417,-3.148872,0.063187,0.015228,0.989578,0.039889,0.050027,-0.026928,63.800507,9.673813,-147.242905,,,
729600792.79651,0.65433,-3.206417,-3.148872,0.063187,0.015228,0.989578,0.039889,0.050027,-0.026928,63.808563,9.75499,-147.230148,,,
729600792.799842,0.660591,-3.193249,-3.15571,0.064163,0.021667,0.979874,0.018289,0.044761,-0.026482,63.808563,9.75499,-147.230148,,,
729600792.803176,0.665164,-3.182001,-3.163079,0.064163,0.021667,0.979874,0.018289,0.044761,-0.026482,63.808563,9.75499,-147.230148,,,
729600792.806617,0.665164,-3.182001,-3.163079,0.064163,0.021667,0.979874,0.018289,0.044761,-0.026482,63.808563,9.75499,-147.230148,,,
729600792.809856,0.667361,-3.172584,-3.171957,0.063141,0.024658,0.979477,0.004787,0.031427,-0.036282,63.808563,9.75499,-147.230148,,,
729600792.813174,0.668547,-3.165507,-3.182991,0.063141,0.024658,0.979477,0.004787,0.031427,-0.036282,63.808563,9.75499,-147.230148,,,
729600792.816534,0.668547,-3.165507,-3.182991,0.063141,0.024658,0.979477,0.004787,0.031427,-0.036282,63.808563,9.75499,-147.230148,,,
729600792.819911,0.668751,-3.160663,-3.195407,0.059982,0.019669,0.981842,0.001363,0.016512,-0.045735,63.808563,9.75499,-147.230148,,,
729600792.823212,0.670372,-3.157767,-3.208748,0.059982,0.019669,0.981842,0.001363,0.016512,-0.045735,63.808563,9.75499,-147.230148,,,
729600792.826512,0.670372,-3.157767,-3.208748,0.059982,0.019669,0.981842,0.001363,0.016512,-0.045735,63.808563,9.75499,-147.230148,,,
729600792.829856,0.673583,-3.156325,-3.222824,0.054642,0.013596,0.989761,0.015981,0.007434,-0.051697,63.808563,9.75499,-147.230148,,,
729600792.833175,0.679924,-3.154481,-3.236426,0.054642,0.013596,0.989761,0.015981,0.007434,-0.051697,63.808563,9.75499,-147.230148,,,
729600792.836506,0.679924,-3.154481,-3.236426,0.054642,0.013596,0.989761,0.015981,0.007434,-0.051697,63.905228,9.480408,-147.265625,,,
729600792.83989,0.689274,-3.15214,-3.248861,0.053284,0.009125,1.002121,0.035531,0.016189,-0.044714,63.905228,9.480408,-147.265625,,,
729600792.843169,0.700648,-3.147493,-3.260722,0.053284,0.009125,1.002121,0.035531,0.016189,-0.044714,63.905228,9.480408,-147.265625,,,
729600792.846587,0.700648,-3.147493,-3.260722,0.053284,0.009125,1.002121,0.035531,0.016189,-0.044714,63.905228,9.480408,-147.265625,,,
729600792.849845,0.713186,-3.144446,-3.271234,0.050369,0.008194,1.00145,0.042663,0.01973,-0.035906,63.905228,9.480408,-147.265625,,,
729600792.853173,0.724997,-3.138576,-3.279421,0.050369,0.008194,1.00145,0.042663,0.01973,-0.035906,63.905228,9.480408,-147.265625,,,
729600792.856572,0.724997,-3.138576,-3.279421,0.050369,0.008194,1.00145,0.042663,0.01973,-0.035906,63.905228,9.480408,-147.265625,,,
729600792.859835,0.734718,-3.132527,-3.285991,0.047806,0.009354,0.991638,0.027937,0.034627,-0.023967,63.905228,9.480408,-147.265625,,,
729600792.863176,0.741275,-3.122284,-3.291545,0.047806,0.009354,0.991638,0.027937,0.034627,-0.023967,63.905228,9.480408,-147.265625,,,
729600792.866532,0.741275,-3.122284,-3.291545,0.047806,0.009354,0.991638,0.027937,0.034627,-0.023967,63.905228,9.480408,-147.265625,,,
729600792.869835,0.745161,-3.112538,-3.29671,0.047134,0.014359,0.984451,0.002943,0.044899,-0.020058,63.905228,9.480408,-147.265625,,,
729600792.873304,0.74439,-3.100279,-3.301864,0.047134,0.014359,0.984451,0.002943,0.044899,-0.020058,63.905228,9.480408,-147.265625,,,
729600792.876507,0.74439,-3.100279,-3.301864,0.047134,0.014359,0.984451,0.002943,0.044899,-0.020058,63.905228,9.480408,-147.265625,,,
729600792.879849,0.743537,-3.090569,-3.307022,0.054413,0.016068,0.980087,-0.012905,0.042483,-0.019445,64.106674,9.346603,-147.490128,,,
729600792.883171,0.739684,-3.079237,-3.31317,0.054413,0.016068,0.980087,-0.012905,0.042483,-0.019445,64.106674,9.346603,-147.490128,,,
729600792.886509,0.739684,-3.079237,-3.31317,0.054413,0.016068,0.980087,-0.012905,0.042483,-0.019445,64.106674,9.346603,-147.490128,,,
729600792.889884,0.738095,-3.070189,-3.321315,0.057663,0.01532,0.985413,-0.012301,0.040415,-0.033606,64.106674,9.346603,-147.490128,,,
729600792.893267,0.735768,-3.059997,-3.331834,0.057663,0.01532,0.985413,-0.012301,0.040415,-0.033606,64.106674,9.346603,-147.490128,,,
729600792.896591,0.735768,-3.059997,-3.331834,0.057663,0.01532,0.985413,-0.012301,0.040415,-0.033606,64.106674,9.346603,-147.490128,,,
729600792.899859,0.736218,-3.052702,-3.344628,0.052353,0.009933,0.996552,-0.000634,0.027168,-0.050199,64.106674,9.346603,-147.490128,,,
729600792.903239,0.737613,-3.046268,-3.358653,0.052353,0.009933,0.996552,-0.000634,0.027168,-0.050199,64.106674,9.346603,-147.490128,,,
729600792.906555,0.737613,-3.046268,-3.358653,0.052353,0.009933,0.996552,-0.000634,0.027168,-0.050199,64.106674,9.346603,-147.490128,,,
729600792.909894,0.740463,-3.040432,-3.372659,0.042938,0.004639,0.997986,0.011415,0.025867,-0.050746,64.106674,9.346603,-147.490128,,,
729600792.913176,0.74574,-3.032654,-3.385827,0.042938,0.004639,0.997986,0.011415,0.025867,-0.050746,64.106674,9.346603,-147.490128,,,
729600792.916502,0.74574,-3.032654,-3.385827,0.042938,0.004639,0.997986,0.011415,0.025867,-0.050746,64.106674,9.346603,-147.490128,,,
729600792.919863,0.752971,-3.023126,-3.397786,0.036636,-0.002029,1.003387,0.032036,0.036221,-0.043381,64.207886,9.381012,-147.176346,,,
729600792.923258,0.763177,-3.012514,-3.40866,0.036636,-0.002029,1.003387,0.032036,0.036221,-0.043381,64.207886,9.381012,-147.176346,,,
729600792.926513,0.763177,-3.012514,-3.40866,0.036636,-0.002029,1.003387,0.032036,0.036221,-0.043381,64.207886,9.381012,-147.176346,,,
729600792.929852,0.77434,-2.998801,-3.418034,0.038864,-0.004288,1.00592,0.046431,0.054298,-0.033651,64.207886,9.381012,-147.176346,,,
729600792.933184,0.78867,-2.981401,-3.426251,0.038864,-0.004288,1.00592,0.046431,0.054298,-0.033651,64.207886,9.381012,-147.176346,,,
729600792.936592,0.78867,-2.981401,-3.426251,0.038864,-0.004288,1.00592,0.046431,0.054298,-0.033651,64.207886,9.381012,-147.176346,,,
729600792.939902,0.803841,-2.959056,-3.433456,0.039032,-0.005096,1.007309,0.057744,0.081679,-0.027011,64.207886,9.381012,-147.176346,,,
729600792.943264,0.820353,-2.935621,-3.439906,0.039032,-0.005096,1.007309,0.057744,0.081679,-0.027011,64.207886,9.381012,-147.176346,,,
729600792.946507,0.820353,-2.935621,-3.439906,0.039032,-0.005096,1.007309,0.057744,0.081679,-0.027011,64.207886,9.381012,-147.176346,,,
729600792.949852,0.835638,-2.911562,-3.445693,0.031815,-0.00322,1.000336,0.047521,0.084748,-0.021758,64.207886,9.381012,-147.176346,,,
729600792.9532,0.848763,-2.889973,-3.449508,0.031815,-0.00322,1.000336,0.047521,0.084748,-0.021758,64.207886,9.381012,-147.176346,,,
729600792.956556,0.848763,-2.889973,-3.449508,0.031815,-0.00322,1.000336,0.047521,0.084748,-0.021758,64.207886,9.381012,-147.176346,,,
729600792.959846,0.859989,-2.873136,-3.451364,0.019287,-0.006104,0.986786,0.032561,0.061518,-0.00743,64.34314,9.300919,-147.374298,,,
729600792.963215,0.867321,-2.858264,-3.45249,0.019287,-0.006104,0.986786,0.032561,0.061518,-0.00743,64.34314,9.300919,-147.374298,,,
729600792.966517,0.867321,-2.858264,-3.45249,0.019287,-0.006104,0.986786,0.032561,0.061518,-0.00743,64.34314,9.300919,-147.374298,,,
729600792.969848,0.870331,-2.849482,-3.454196,0.018433,-0.001068,0.978683,0.003528,0.02928,-0.01015,64.34314,9.300919,-147.374298,,,
729600792.973297,0.869423,-2.844372,-3.457189,0.018433,-0.001068,0.978683,0.003528,0.02928,-0.01015,64.34314,9.300919,-147.374298,,,
729600792.976498,0.869423,-2.844372,-3.457189,0.018433,-0.001068,0.978683,0.003528,0.02928,-0.01015,64.34314,9.300919,-147.374298,,,
729600792.979849,0.863075,-2.844014,-3.461576,0.026108,0.005188,0.97168,-0.024291,-0.004477,-0.018496,64.34314,9.300919,-147.374298,,,
729600792.983242,0.854023,-2.847658,-3.467422,0.026108,0.005188,0.97168,-0.024291,-0.004477,-0.018496,64.34314,9.300919,-147.374298,,,
729600792.986506,0.854023,-2.847658,-3.467422,0.026108,0.005188,0.97168,-0.024291,-0.004477,-0.018496,64.34314,9.300919,-147.374298,,,
729600792.989948,0.838498,-2.852585,-3.474961,0.035583,0.012314,0.971085,-0.052,-0.027398,-0.02869,64.34314,9.300919,-147.374298,,,
729600792.993224,0.821973,-2.861615,-3.484787,0.035583,0.012314,0.971085,-0.052,-0.027398,-0.02869,64.34314,9.300919,-147.374298,,,
729600792.996525,0.821973,-2.861615,-3.484787,0.035583,0.012314,0.971085,-0.052,-0.027398,-0.02869,64.34314,9.300919,-147.374298,,,
729600792.999863,0.799217,-2.868681,-3.49638,0.047333,0.017059,0.977173,-0.070001,-0.03244,-0.039813,64.34314,9.300919,-147.374298,,,
729600793.003198,0.779299,-2.878047,-3.508517,0.047333,0.017059,0.977173,-0.070001,-0.03244,-0.039813,64.533905,9.421143,-147.444168,,,
729600793.00657,0.779299,-2.878047,-3.508517,0.047333,0.017059,0.977173,-0.070001,-0.03244,-0.039813,64.533905,9.421143,-147.444168,,,
729600793.009852,0.755421,-2.883118,-3.520572,0.053177,0.013031,0.987152,-0.072736,-0.017508,-0.038867,64.533905,9.421143,-147.444168,,,
729600793.013226,0.735631,-2.887152,-3.531809,0.053177,0.013031,0.987152,-0.072736,-0.017508,-0.038867,64.533905,9.421143,-147.444168,,,
729600793.01655,0.735631,-2.887152,-3.531809,0.053177,0.013031,0.987152,-0.072736,-0.017508,-0.038867,64.533905,9.421143,-147.444168,,,
729600793.019829,0.714413,-2.885434,-3.541833,0.058777,0.008469,0.996979,-0.058567,0.005462,-0.030873,64.533905,9.421143,-147.444168,,,
729600793.023262,0.700035,-2.882395,-3.550667,0.058777,0.008469,0.996979,-0.058567,0.005462,-0.030873,64.533905,9.421143,-147.444168,,,
729600793.026518,0.700035,-2.882395,-3.550667,0.058777,0.008469,0.996979,-0.058567,0.005462,-0.030873,64.533905,9.421143,-147.444168,,,
729600793.029936,0.685742,-2.870982,-3.559456,0.055679,0.006134,1.008392,-0.035604,0.031579,-0.031306,64.533905,9.421143,-147.444168,,,
729600793.033179,0.685742,-2.870982,-3.568666,0.055679,0.006134,1.008392,-0.035604,0.031579,-0.031306,64.533905,9.421143,-147.444168,,,
729600793.036519,0.677283,-2.862165,-3.568666,0.055679,0.006134,1.008392,-0.035604,0.031579,-0.031306,64.533905,9.421143,-147.444168,,,
729600793.039914,0.66697,-2.846579,-3.578356,0.05806,0.007568,1.007919,-0.024581,0.033978,-0.034727,64.533905,9.421143,-147.444168,,,
729600793.043273,0.659789,-2.837156,-3.588535,0.05806,0.007568,1.007919,-0.024581,0.033978,-0.034727,64.459686,9.562805,-147.242111,,,
729600793.046504,0.659789,-2.837156,-3.588535,0.05806,0.007568,1.007919,-0.024581,0.033978,-0.034727,64.459686,9.562805,-147.242111,,,
729600793.049855,0.649283,-2.822515,-3.599272,0.049286,0.009842,0.994217,-0.034517,0.03254,-0.037699,64.459686,9.562805,-147.242111,,,
729600793.053187,0.649283,-2.822515,-3.599272,0.049286,0.009842,0.994217,-0.034517,0.03254,-0.037699,64.459686,9.562805,-147.242111,,,
729600793.056578,0.6385,-2.814657,-3.610393,0.049286,0.009842,0.994217,-0.034517,0.03254,-0.037699,64.459686,9.562805,-147.242111,,,
729600793.059838,0.62396,-2.805197,-3.62152,0.044022,0.007172,0.982849,-0.056026,0.017461,-0.03639,64.459686,9.562805,-147.242111,,,
729600793.063186,0.62396,-2.805197,-3.62152,0.044022,0.007172,0.982849,-0.056026,0.017461,-0.03639,64.459686,9.562805,-147.242111,,,
729600793.066514,0.606575,-2.803011,-3.632368,0.044022,0.007172,0.982849,-0.056026,0.017461,-0.03639,64.459686,9.562805,-147.242111,,,
729600793.069843,0.587381,-2.803658,-3.644641,0.043961,0.00618,0.972946,-0.076028,-0.013329,-0.045239,64.459686,9.562805,-147.242111,,,
729600793.073228,0.587381,-2.803658,-3.644641,0.043961,0.00618,0.972946,-0.076028,-0.013329,-0.045239,64.459686,9.562805,-147.242111,,,
729600793.076532,0.564646,-2.809672,-3.659368,0.043961,0.00618,0.972946,-0.076028,-0.013329,-0.045239,64.459686,9.562805,-147.242111,,,
729600793.07993,0.541996,-2.819048,-3.676025,0.050278,0.008698,0.975739,-0.084786,-0.033954,-0.058264,64.459686,9.562805,-147.242111,,,
729600793.083168,0.541996,-2.819048,-3.676025,0.050278,0.008698,0.975739,-0.084786,-0.033954,-0.058264,64.491241,9.507355,-147.254654,,,
729600793.086525,0.519216,-2.829724,-3.694926,0.050278,0.008698,0.975739,-0.084786,-0.033954,-0.058264,64.491241,9.507355,-147.254654,,,
729600793.089889,0.498533,-2.841667,-3.716224,0.056366,0.005844,0.99231,-0.073745,-0.033894,-0.075527,64.491241,9.507355,-147.254654,,,
729600793.093194,0.498533,-2.841667,-3.716224,0.056366,0.005844,0.99231,-0.073745,-0.033894,-0.075527,64.491241,9.507355,-147.254654,,,
729600793.096528,0.479974,-2.852043,-3.738673,0.056366,0.005844,0.99231,-0.073745,-0.033894,-0.075527,64.491241,9.507355,-147.254654,,,
729600793.099843,0.463553,-2.863336,-3.760774,0.059891,0.000946,1.002838,-0.05752,-0.030074,-0.073924,64.491241,9.507355,-147.254654,,,
729600793.103186,0.463553,-2.863336,-3.760774,0.059891,0.000946,1.002838,-0.05752,-0.030074,-0.073924,64.491241,9.507355,-147.254654,,,
729600793.106626,0.448276,-2.871372,-3.781437,0.059891,0.000946,1.002838,-0.05752,-0.030074,-0.073924,64.491241,9.507355,-147.254654,,,
729600793.109827,0.43353,-2.877909,-3.800533,0.05571,-0.001114,1.003082,-0.051444,-0.012704,-0.06336,64.491241,9.507355,-147.254654,,,
729600793.113172,0.43353,-2.877909,-3.800533,0.05571,-0.001114,1.003082,-0.051444,-0.012704,-0.06336,64.491241,9.507355,-147.254654,,,
729600793.116518,0.419755,-2.881559,-3.818186,0.05571,-0.001114,1.003082,-0.051444,-0.012704,-0.06336,64.491241,9.507355,-147.254654,,,
729600793.119835,0.407467,-2.883913,-3.83503,0.060104,0.003387,1.003189,-0.042623,0.004406,-0.058209,64.491241,9.507355,-147.254654,,,
729600793.123212,0.407467,-2.883913,-3.83503,0.060104,0.003387,1.003189,-0.042623,0.004406,-0.058209,64.409454,9.599716,-147.385437,,,
729600793.12653,0.396823,-2.881797,-3.851726,0.060104,0.003387,1.003189,-0.042623,0.004406,-0.058209,64.409454,9.599716,-147.385437,,,
729600793.129844,0.388329,-2.875821,-3.868695,0.068726,0.005356,1.009521,-0.030684,0.026238,-0.06064,64.409454,9.599716,-147.385437,,,
729600793.133238,0.388329,-2.875821,-3.868695,0.068726,0.005356,1.009521,-0.030684,0.026238,-0.06064,64.409454,9.599716,-147.385437,,,
729600793.136514,0.380322,-2.867416,-3.886281,0.068726,0.005356,1.009521,-0.030684,0.026238,-0.06064,64.409454,9.599716,-147.385437,,,
729600793.139879,0.371799,-2.85454,-3.904627,0.071915,0.004242,1.008667,-0.034129,0.04985,-0.065687,64.409454,9.599716,-147.385437,,,
729600793.143194,0.371799,-2.85454,-3.904627,0.071915,0.004242,1.008667,-0.034129,0.04985,-0.065687,64.409454,9.599716,-147.385437,,,
729600793.146602,0.362288,-2.840245,-3.924033,0.071915,0.004242,1.008667,-0.034129,0.04985,-0.065687,64.409454,9.599716,-147.385437,,,
729600793.149842,0.350956,-2.824344,-3.944641,0.06987,0.008987,1.000015,-0.048965,0.057451,-0.073227,64.409454,9.599716,-147.385437,,,
729600793.153243,0.350956,-2.824344,-3.944641,0.06987,0.008987,1.000015,-0.048965,0.057451,-0.073227,64.409454,9.599716,-147.385437,,,
729600793.156506,0.336661,-2.808444,-3.965361,0.06987,0.008987,1.000015,-0.048965,0.057451,-0.073227,64.409454,9.599716,-147.385437,,,
729600793.159852,0.32078,-2.793789,-3.985147,0.063187,0.012619,0.992218,-0.062786,0.054274,-0.066079,64.409454,9.599716,-147.385437,,,
729600793.163165,0.32078,-2.793789,-3.985147,0.063187,0.012619,0.992218,-0.062786,0.054274,-0.066079,64.409454,9.599716,-147.385437,,,
729600793.166519,0.302778,-2.780146,-4.004287,0.063187,0.012619,0.992218,-0.062786,0.054274,-0.066079,64.488083,9.818939,-147.311813,,,
729600793.169841,0.283638,-2.771525,-4.022651,0.057663,0.009811,0.98851,-0.067363,0.032484,-0.060496,64.488083,9.818939,-147.311813,,,
729600793.173306,0.283638,-2.771525,-4.022651,0.057663,0.009811,0.98851,-0.067363,0.032484,-0.060496,64.488083,9.818939,-147.311813,,,
729600793.176511,0.265155,-2.764824,-4.04076,0.057663,0.009811,0.98851,-0.067363,0.032484,-0.060496,64.488083,9.818939,-147.311813,,,
729600793.179843,0.246784,-2.763995,-4.060105,0.056976,0.010132,0.989746,-0.060809,0.004918,-0.069446,64.488083,9.818939,-147.311813,,,
729600793.183244,0.246784,-2.763995,-4.060105,0.056976,0.010132,0.989746,-0.060809,0.004918,-0.069446,64.488083,9.818939,-147.311813,,,
729600793.186496,0.230038,-2.76435,-4.081476,0.056976,0.010132,0.989746,-0.060809,0.004918,-0.069446,64.488083,9.818939,-147.311813,,,
729600793.189867,0.212475,-2.769218,-4.104995,0.062729,0.015671,0.993317,-0.062009,-0.016046,-0.084362,64.488083,9.818939,-147.311813,,,
729600793.193209,0.212475,-2.769218,-4.104995,0.062729,0.015671,0.993317,-0.062009,-0.016046,-0.084362,64.488083,9.818939,-147.311813,,,
729600793.196592,0.195992,-2.775901,-4.130656,0.062729,0.015671,0.993317,-0.062009,-0.016046,-0.084362,64.488083,9.818939,-147.311813,,,
729600793.199827,0.180041,-2.787195,-4.158644,0.059204,0.016464,0.992783,-0.061346,-0.02872,-0.100589,64.488083,9.818939,-147.311813,,,
729600793.203168,0.180041,-2.787195,-4.158644,0.059204,0.016464,0.992783,-0.061346,-0.02872,-0.100589,64.488083,9.818939,-147.311813,,,
729600793.206568,0.163906,-2.79683,-4.188086,0.059204,0.016464,0.992783,-0.061346,-0.02872,-0.100589,64.592957,9.718582,-147.279083,,,
729600793.209835,0.148437,-2.811424,-4.217794,0.060547,0.017853,0.994415,-0.058284,-0.033591,-0.102593,64.592957,9.718582,-147.279083,,,
729600793.213276,0.148437,-2.811424,-4.217794,0.060547,0.017853,0.994415,-0.058284,-0.033591,-0.102593,64.592957,9.718582,-147.279083,,,
729600793.216522,0.133479,-2.821323,-4.246899,0.060547,0.017853,0.994415,-0.058284,-0.033591,-0.102593,64.592957,9.718582,-147.279083,,,
729600793.219846,0.120797,-2.833635,-4.274273,0.060974,0.012222,1.000656,-0.046362,-0.020585,-0.09117,64.592957,9.718582,-147.279083,,,
729600793.223247,0.120797,-2.833635,-4.274273,0.060974,0.012222,1.000656,-0.046362,-0.020585,-0.09117,64.592957,9.718582,-147.279083,,,
729600793.226515,0.109903,-2.838421,-4.300112,0.060974,0.012222,1.000656,-0.046362,-0.020585,-0.09117,64.592957,9.718582,-147.279083,,,
729600793.229839,0.102839,-2.843328,-4.324886,0.057083,0.005753,1.013351,-0.031292,0.00494,-0.084579,64.592957,9.718582,-147.279083,,,
729600793.233206,0.102839,-2.843328,-4.324886,0.057083,0.005753,1.013351,-0.031292,0.00494,-0.084579,64.592957,9.718582,-147.279083,,,
729600793.236583,0.095729,-2.841801,-4.348463,0.057083,0.005753,1.013351,-0.031292,0.00494,-0.084579,64.592957,9.718582,-147.279083,,,
729600793.239883,0.09186,-2.840265,-4.370877,0.052414,0.002411,1.012466,-0.022914,0.020573,-0.076945,64.592957,9.718582,-147.279083,,,
729600793.243165,0.09186,-2.840265,-4.370877,0.052414,0.002411,1.012466,-0.022914,0.020573,-0.076945,64.592957,9.718582,-147.279083,,,
729600793.246514,0.086391,-2.833917,-4.392424,0.052414,0.002411,1.012466,-0.022914,0.020573,-0.076945,64.570648,9.875198,-147.234863,,,
729600793.249892,0.082622,-2.827241,-4.413779,0.051819,0.005936,1.005615,-0.021666,0.033126,-0.075732,64.570648,9.875198,-147.234863,,,
729600793.25318,0.082622,-2.827241,-4.413779,0.051819,0.005936,1.005615,-0.021666,0.033126,-0.075732,64.570648,9.875198,-147.234863,,,
729600793.256567,0.077789,-2.818445,-4.435903,0.051819,0.005936,1.005615,-0.021666,0.033126,-0.075732,64.570648,9.875198,-147.234863,,,
729600793.25984,0.076361,-2.812078,-4.458538,0.061005,0.011536,1.006546,-0.0129,0.031425,-0.07981,64.570648,9.875198,-147.234863,,,
729600793.263251,0.076361,-2.812078,-4.458538,0.061005,0.011536,1.006546,-0.0129,0.031425,-0.07981,64.570648,9.875198,-147.234863,,,
729600793.266503,0.073786,-2.804234,-4.482268,0.061005,0.011536,1.006546,-0.0129,0.031425,-0.07981,64.570648,9.875198,-147.234863,,,
729600793.269847,0.07452,-2.799567,-4.507198,0.057587,0.015915,1.000259,-0.011803,0.027397,-0.088277,64.570648,9.875198,-147.234863,,,
729600793.273266,0.07452,-2.799567,-4.507198,0.057587,0.015915,1.000259,-0.011803,0.027397,-0.088277,64.570648,9.875198,-147.234863,,,
729600793.276574,0.072632,-2.792569,-4.53209,0.057587,0.015915,1.000259,-0.011803,0.027397,-0.088277,64.570648,9.875198,-147.234863,,,
729600793.279837,0.07481,-2.787105,-4.557375,0.050583,0.015213,0.994904,-0.005595,0.032049,-0.09136,64.570648,9.875198,-147.234863,,,
729600793.283195,0.07481,-2.787105,-4.557375,0.050583,0.015213,0.994904,-0.005595,0.032049,-0.09136,64.570648,9.875198,-147.234863,,,
729600793.286501,0.074032,-2.778234,-4.582729,0.050583,0.015213,0.994904,-0.005595,0.032049,-0.09136,64.744522,9.957687,-147.343613,,,
729600793.289883,0.075638,-2.770965,-4.606633,0.044235,0.016373,0.996399,-0.008402,0.037952,-0.081159,64.744522,9.957687,-147.343613,,,
729600793.29318,0.075638,-2.770965,-4.606633,0.044235,0.016373,0.996399,-0.008402,0.037952,-0.081159,64.744522,9.957687,-147.343613,,,
729600793.296462,0.073812,-2.761266,-4.627972,0.044235,0.016373,0.996399,-0.008402,0.037952,-0.081159,64.744522,9.957687,-147.343613,,,
729600793.299854,0.073093,-2.754019,-4.646285,0.031113,0.01239,0.991821,-0.012235,0.035779,-0.059883,64.744522,9.957687,-147.343613,,,
729600793.303244,0.073093,-2.754019,-4.646285,0.031113,0.01239,0.991821,-0.012235,0.035779,-0.059883,64.744522,9.957687,-147.343613,,,
729600793.306554,0.070185,-2.744394,-4.662021,0.031113,0.01239,0.991821,-0.012235,0.035779,-0.059883,64.744522,9.957687,-147.343613,,,
729600793.309834,0.067592,-2.736476,-4.675614,0.025085,0.007797,0.993347,-0.013132,0.032047,-0.044914,64.744522,9.957687,-147.343613,,,
729600793.313192,0.067592,-2.736476,-4.675614,0.025085,0.007797,0.993347,-0.013132,0.032047,-0.044914,64.744522,9.957687,-147.343613,,,
729600793.316556,0.06426,-2.729333,-4.688034,0.025085,0.007797,0.993347,-0.013132,0.032047,-0.044914,64.744522,9.957687,-147.343613,,,
729600793.319832,0.061611,-2.725495,-4.70025,0.026535,0.002655,0.993958,-0.011827,0.012018,-0.043582,64.744522,9.957687,-147.343613,,,
729600793.32322,0.061611,-2.725495,-4.70025,0.026535,0.002655,0.993958,-0.011827,0.012018,-0.043582,64.744522,9.957687,-147.343613,,,
729600793.326513,0.059871,-2.724984,-4.712578,0.026535,0.002655,0.993958,-0.011827,0.012018,-0.043582,64.744522,9.957687,-147.343613,,,
729600793.329846,0.062118,-2.729495,-4.72567,0.032135,-0.002548,0.996872,0.007261,-0.014339,-0.049854,64.689133,9.998062,-147.313263,,,
729600793.333176,0.062118,-2.729495,-4.72567,0.032135,-0.002548,0.996872,0.007261,-0.014339,-0.049854,64.689133,9.998062,-147.313263,,,
729600793.336515,0.066827,-2.735063,-4.74011,0.032135,-0.002548,0.996872,0.007261,-0.014339,-0.049854,64.689133,9.998062,-147.313263,,,
729600793.339888,0.077492,-2.743582,-4.755822,0.036499,-0.009354,1.010452,0.030457,-0.016993,-0.059916,64.689133,9.998062,-147.313263,,,
729600793.343273,0.077492,-2.743582,-4.755822,0.036499,-0.009354,1.010452,0.030457,-0.016993,-0.059916,64.689133,9.998062,-147.313263,,,
729600793.346518,0.088022,-2.749047,-4.771971,0.036499,-0.009354,1.010452,0.030457,-0.016993,-0.059916,64.689133,9.998062,-147.313263,,,
729600793.349834,0.102586,-2.754884,-4.787255,0.042953,-0.014984,1.008286,0.040258,-0.011632,-0.054377,64.689133,9.998062,-147.313263,,,
729600793.353188,0.102586,-2.754884,-4.787255,0.042953,-0.014984,1.008286,0.040258,-0.011632,-0.054377,64.689133,9.998062,-147.313263,,,
729600793.356585,0.114685,-2.758443,-4.800945,0.042953,-0.014984,1.008286,0.040258,-0.011632,-0.054377,64.689133,9.998062,-147.313263,,,
729600793.359843,0.129072,-2.759758,-4.812871,0.041626,-0.016357,1.002563,0.037339,0.004249,-0.041972,64.689133,9.998062,-147.313263,,,
729600793.363173,0.129072,-2.759758,-4.812871,0.041626,-0.016357,1.002563,0.037339,0.004249,-0.041972,64.689133,9.998062,-147.313263,,,
729600793.366502,0.139276,-2.757248,-4.824015,0.041626,-0.016357,1.002563,0.037339,0.004249,-0.041972,64.689133,9.998062,-147.313263,,,
729600793.369841,0.149209,-2.750288,-4.835644,0.048294,-0.004944,0.998428,0.01817,0.023793,-0.044382,64.899139,9.848801,-147.497345,,,
729600793.373279,0.149209,-2.750288,-4.835644,0.048294,-0.004944,0.998428,0.01817,0.023793,-0.044382,64.899139,9.848801,-147.497345,,,
729600793.376537,0.153422,-2.743941,-4.847363,0.048294,-0.004944,0.998428,0.01817,0.023793,-0.044382,64.899139,9.848801,-147.497345,,,
729600793.37992,0.156336,-2.733266,-4.859518,0.052582,0.002701,0.98819,-0.002543,0.027048,-0.046361,64.899139,9.848801,-147.497345,,,
729600793.383202,0.156336,-2.733266,-4.859518,0.052582,0.002701,0.98819,-0.002543,0.027048,-0.046361,64.899139,9.848801,-147.497345,,,
729600793.386516,0.154627,-2.725889,-4.873805,0.052582,0.002701,0.98819,-0.002543,0.027048,-0.046361,64.899139,9.848801,-147.497345,,,
729600793.389904,0.152549,-2.713911,-4.88995,0.054031,0.007584,0.98497,-0.010676,0.028035,-0.058878,64.899139,9.848801,-147.497345,,,
729600793.393279,0.152549,-2.713911,-4.88995,0.054031,0.007584,0.98497,-0.010676,0.028035,-0.058878,64.899139,9.848801,-147.497345,,,
729600793.39631,0.149887,-2.707589,-4.907906,0.054031,0.007584,0.98497,-0.010676,0.028035,-0.058878,64.899139,9.848801,-147.497345,,,
729600793.399865,0.148091,-2.700651,-4.928104,0.059875,0.009659,0.993912,-0.002917,0.006547,-0.074757,64.899139,9.848801,-147.497345,,,
729600793.403186,0.148091,-2.700651,-4.928104,0.059875,0.009659,0.993912,-0.002917,0.006547,-0.074757,64.899139,9.848801,-147.497345,,,
729600793.406586,0.149201,-2.702349,-4.949678,0.059875,0.009659,0.993912,-0.002917,0.006547,-0.074757,64.899139,9.848801,-147.497345,,,
729600793.409854,0.151092,-2.706194,-4.972205,0.052826,0.002441,0.994461,0.011931,-0.02661,-0.0821,65.266876,9.810287,-147.194809,,,
729600793.413198,0.151092,-2.706194,-4.972205,0.052826,0.002441,0.994461,0.011931,-0.02661,-0.0821,65.266876,9.810287,-147.194809,,,
729600793.416531,0.155909,-2.715911,-4.995593,0.052826,0.002441,0.994461,0.011931,-0.02661,-0.0821,65.266876,9.810287,-147.194809,,,
729600793.419847,0.158815,-2.725027,-5.020183,0.048111,-0.001709,0.993835,0.018869,-0.034745,-0.090842,65.266876,9.810287,-147.194809,,,
729600793.423242,0.158815,-2.725027,-5.020183,0.048111,-0.001709,0.993835,0.018869,-0.034745,-0.090842,65.266876,9.810287,-147.194809,,,
729600793.426522,0.164475,-2.734416,-5.046015,0.048111,-0.001709,0.993835,0.018869,-0.034745,-0.090842,65.266876,9.810287,-147.194809,,,
729600793.429843,0.164479,-2.739954,-5.071962,0.049728,0.002151,0.997696,0.005846,-0.014037,-0.091053,65.266876,9.810287,-147.194809,,,
729600793.433248,0.164479,-2.739954,-5.071962,0.049728,0.002151,0.997696,0.005846,-0.014037,-0.091053,65.266876,9.810287,-147.194809,,,
729600793.436521,0.1666,-2.743928,-5.096965,0.049728,0.002151,0.997696,0.005846,-0.014037,-0.091053,65.266876,9.810287,-147.194809,,,
729600793.439885,0.164416,-2.744447,-5.120375,0.043961,-0.003006,0.994843,-0.001911,0.001885,-0.079574,65.266876,9.810287,-147.194809,,,
729600793.443185,0.164416,-2.744447,-5.120375,0.043961,-0.003006,0.994843,-0.001911,0.001885,-0.079574,65.266876,9.810287,-147.194809,,,
729600793.44657,0.164773,-2.743478,-5.141865,0.043961,-0.003006,0.994843,-0.001911,0.001885,-0.079574,65.266876,9.810287,-147.194809,,,
729600793.449827,0.16539,-2.740424,-5.162172,0.047318,-0.00737,1.000504,0.004757,0.021744,-0.071728,65.003769,9.736725,-146.993591,,,
729600793.453196,0.16539,-2.740424,-5.162172,0.047318,-0.00737,1.000504,0.004757,0.021744,-0.071728,65.003769,9.736725,-146.993591,,,
729600793.456567,0.167645,-2.733509,-5.181685,0.047318,-0.00737,1.000504,0.004757,0.021744,-0.071728,65.003769,9.736725,-146.993591,,,
729600793.459833,0.170076,-2.725333,-5.199987,0.040634,-0.010269,1.00827,0.003458,0.037609,-0.063182,65.003769,9.736725,-146.993591,,,
729600793.463252,0.170076,-2.725333,-5.199987,0.040634,-0.010269,1.00827,0.003458,0.037609,-0.063182,65.003769,9.736725,-146.993591,,,
729600793.466528,0.171925,-2.715835,-5.217396,0.040634,-0.010269,1.00827,0.003458,0.037609,-0.063182,65.003769,9.736725,-146.993591,,,
729600793.469842,0.174021,-2.709995,-5.23439,0.033096,-0.008804,1.000488,-0.001849,0.025801,-0.060046,65.003769,9.736725,-146.993591,,,
729600793.473281,0.174021,-2.709995,-5.23439,0.033096,-0.008804,1.000488,-0.001849,0.025801,-0.060046,65.003769,9.736725,-146.993591,,,
729600793.476501,0.17369,-2.704492,-5.251243,0.033096,-0.008804,1.000488,-0.001849,0.025801,-0.060046,65.003769,9.736725,-146.993591,,,
729600793.479838,0.172759,-2.703083,-5.267463,0.026855,7.6e-05,0.992325,-0.012695,0.012659,-0.055199,65.003769,9.736725,-146.993591,,,
729600793.483171,0.172759,-2.703083,-5.267463,0.026855,7.6e-05,0.992325,-0.012695,0.012659,-0.055199,65.003769,9.736725,-146.993591,,,
729600793.486524,0.167986,-2.702385,-5.282328,0.026855,7.6e-05,0.992325,-0.012695,0.012659,-0.055199,65.003769,9.736725,-146.993591,,,
729600793.489871,0.159794,-2.70607,-5.295729,0.020264,0.000565,0.985687,-0.031207,-0.013807,-0.044098,65.003769,9.736725,-146.993591,,,
729600793.493186,0.159794,-2.70607,-5.295729,0.020264,0.000565,0.985687,-0.031207,-0.013807,-0.044098,64.858459,9.856583,-147.272751,,,
729600793.496573,0.150031,-2.712038,-5.307958,0.020264,0.000565,0.985687,-0.031207,-0.013807,-0.044098,64.858459,9.856583,-147.272751,,,
729600793.499832,0.137554,-2.721011,-5.318795,0.017868,0.000244,0.980728,-0.046706,-0.032394,-0.033649,64.858459,9.856583,-147.272751,,,
729600793.503181,0.137554,-2.721011,-5.318795,0.017868,0.000244,0.980728,-0.046706,-0.032394,-0.033649,64.858459,9.856583,-147.272751,,,
729600793.506565,0.124131,-2.73206,-5.328718,0.017868,0.000244,0.980728,-0.046706,-0.032394,-0.033649,64.858459,9.856583,-147.272751,,,
729600793.509838,0.109095,-2.744953,-5.338648,0.023178,0.002121,0.984711,-0.05661,-0.045619,-0.033222,64.858459,9.856583,-147.272751,,,
729600793.513186,0.109095,-2.744953,-5.338648,0.023178,0.002121,0.984711,-0.05661,-0.045619,-0.033222,64.858459,9.856583,-147.272751,,,
729600793.516513,0.092996,-2.758991,-5.3485,0.023178,0.002121,0.984711,-0.05661,-0.045619,-0.033222,64.858459,9.856583,-147.272751,,,
729600793.519834,0.07505,-2.772757,-5.358531,0.030045,0.002991,0.987167,-0.060767,-0.047217,-0.034243,64.858459,9.856583,-147.272751,,,
729600793.523245,0.07505,-2.772757,-5.358531,0.030045,0.002991,0.987167,-0.060767,-0.047217,-0.034243,64.858459,9.856583,-147.272751,,,
729600793.526505,0.057386,-2.787808,-5.368329,0.030045,0.002991,0.987167,-0.060767,-0.047217,-0.034243,64.858459,9.856583,-147.272751,,,
729600793.529842,0.036739,-2.802952,-5.377469,0.030365,0.000961,0.993225,-0.068348,-0.051295,-0.029208,64.858459,9.856583,-147.272751,,,
729600793.533165,0.036739,-2.802952,-5.377469,0.030365,0.000961,0.993225,-0.068348,-0.051295,-0.029208,64.962234,9.812958,-147.078247,,,
729600793.536503,0.016412,-2.819835,-5.385478,0.030365,0.000961,0.993225,-0.068348,-0.051295,-0.029208,64.962234,9.812958,-147.078247,,,
729600793.539876,-0.00772,-2.836266,-5.391227,0.027344,-0.002411,0.992966,-0.079218,-0.064385,-0.012919,64.962234,9.812958,-147.078247,,,
729600793.543175,-0.00772,-2.836266,-5.391227,0.027344,-0.002411,0.992966,-0.079218,-0.064385,-0.012919,64.962234,9.812958,-147.078247,,,
729600793.546568,-0.03135,-2.855843,-5.395297,0.027344,-0.002411,0.992966,-0.079218,-0.064385,-0.012919,64.962234,9.812958,-147.078247,,,
729600793.549834,-0.05725,-2.872658,-5.398382,0.02774,-0.003311,0.993469,-0.088553,-0.070627,-0.005512,64.962234,9.812958,-147.078247,,,
729600793.553184,-0.05725,-2.872658,-5.398382,0.02774,-0.003311,0.993469,-0.088553,-0.070627,-0.005512,64.962234,9.812958,-147.078247,,,
729600793.556559,-0.08314,-2.893741,-5.400991,0.02774,-0.003311,0.993469,-0.088553,-0.070627,-0.005512,64.962234,9.812958,-147.078247,,,
729600793.559831,-0.108584,-2.909741,-5.403939,0.038132,-0.000992,1.001205,-0.090124,-0.069853,-0.007781,64.962234,9.812958,-147.078247,,,
729600793.563178,-0.108584,-2.909741,-5.403939,0.038132,-0.000992,1.001205,-0.090124,-0.069853,-0.007781,64.962234,9.812958,-147.078247,,,
729600793.566519,-0.133682,-2.930298,-5.407836,0.038132,-0.000992,1.001205,-0.090124,-0.069853,-0.007781,64.962234,9.812958,-147.078247,,,
729600793.569839,-0.157276,-2.943648,-5.413254,0.044739,-0.004333,1.009979,-0.083902,-0.062942,-0.018843,64.962234,9.812958,-147.078247,,,
729600793.573208,-0.157276,-2.943648,-5.413254,0.044739,-0.004333,1.009979,-0.083902,-0.062942,-0.018843,64.86998,9.998352,-147.277176,,,
729600793.576504,-0.180314,-2.962577,-5.420585,0.044739,-0.004333,1.009979,-0.083902,-0.062942,-0.018843,64.86998,9.998352,-147.277176,,,
729600793.579835,-0.200118,-2.975642,-5.429856,0.053528,-0.004654,1.014023,-0.068215,-0.064688,-0.033258,64.86998,9.998352,-147.277176,,,
729600793.583185,-0.200118,-2.975642,-5.429856,0.053528,-0.004654,1.014023,-0.068215,-0.064688,-0.033258,64.86998,9.998352,-147.277176,,,
729600793.586555,-0.21752,-2.994669,-5.440746,0.053528,-0.004654,1.014023,-0.068215,-0.064688,-0.033258,64.86998,9.998352,-147.277176,,,
729600793.589879,-0.2297,-3.007465,-5.452634,0.05484,-0.004379,1.01915,-0.040975,-0.055746,-0.041709,64.86998,9.998352,-147.277176,,,
729600793.593185,-0.2297,-3.007465,-5.452634,0.05484,-0.004379,1.01915,-0.040975,-0.055746,-0.041709,64.86998,9.998352,-147.277176,,,
729600793.596517,-0.239023,-3.023674,-5.464297,0.05484,-0.004379,1.01915,-0.040975,-0.055746,-0.041709,64.86998,9.998352,-147.277176,,,
729600793.599836,-0.242546,-3.03503,-5.47514,0.05275,-0.01152,1.024719,-0.009281,-0.051124,-0.037781,64.86998,9.998352,-147.277176,,,
729600793.603183,-0.242546,-3.03503,-5.47514,0.05275,-0.01152,1.024719,-0.009281,-0.051124,-0.037781,64.86998,9.998352,-147.277176,,,
729600793.606558,-0.242542,-3.049507,-5.484627,0.05275,-0.01152,1.024719,-0.009281,-0.051124,-0.037781,64.86998,9.998352,-147.277176,,,
729600793.60983,-0.237889,-3.0577,-5.491793,0.050629,-0.015579,1.018921,0.019241,-0.038621,-0.023225,64.86998,9.998352,-147.277176,,,
729600793.613216,-0.237889,-3.0577,-5.491793,0.050629,-0.015579,1.018921,0.019241,-0.038621,-0.023225,64.526382,10.054199,-147.15535,,,
729600793.61651,-0.230844,-3.069382,-5.497633,0.050629,-0.015579,1.018921,0.019241,-0.038621,-0.023225,64.526382,10.054199,-147.15535,,,
729600793.619844,-0.221814,-3.074329,-5.503333,0.056213,-0.009995,1.01506,0.03317,-0.028962,-0.023186,64.526382,10.054199,-147.15535,,,
729600793.623222,-0.221814,-3.074329,-5.503333,0.056213,-0.009995,1.01506,0.03317,-0.028962,-0.023186,64.526382,10.054199,-147.15535,,,
729600793.626554,-0.213034,-3.081169,-5.509275,0.056213,-0.009995,1.01506,0.03317,-0.028962,-0.023186,64.526382,10.054199,-147.15535,,,
729600793.629838,-0.205032,-3.079903,-5.515778,0.058853,-0.000839,1.005081,0.023874,-0.002294,-0.026685,64.526382,10.054199,-147.15535,,,
729600793.633189,-0.205032,-3.079903,-5.515778,0.058853,-0.000839,1.005081,0.023874,-0.002294,-0.026685,64.526382,10.054199,-147.15535,,,
729600793.63653,-0.198945,-3.080484,-5.524029,0.058853,-0.000839,1.005081,0.023874,-0.002294,-0.026685,64.526382,10.054199,-147.15535,,,
729600793.639913,-0.194519,-3.07676,-5.533697,0.061523,0.005844,0.997009,0.010537,0.009577,-0.035936,64.526382,10.054199,-147.15535,,,
729600793.643184,-0.194519,-3.07676,-5.533697,0.061523,0.005844,0.997009,0.010537,0.009577,-0.035936,64.526382,10.054199,-147.15535,,,
729600793.646527,-0.191965,-3.07554,-5.54389,0.061523,0.005844,0.997009,0.010537,0.009577,-0.035936,64.526382,10.054199,-147.15535,,,
729600793.649847,-0.190831,-3.073572,-5.554599,0.058975,0.006119,0.992615,0.002887,0.006118,-0.039157,64.526382,10.054199,-147.15535,,,
729600793.653259,-0.190831,-3.073572,-5.554599,0.058975,0.006119,0.992615,0.002887,0.006118,-0.039157,64.526382,10.054199,-147.15535,,,
729600793.65655,-0.189854,-3.072479,-5.565738,0.058975,0.006119,0.992615,0.002887,0.006118,-0.039157,64.554489,10.091187,-147.068466,,,
729600793.659834,-0.189782,-3.071968,-5.577309,0.054413,0.003296,0.990723,-0.00264,0.002018,-0.041874,64.554489,10.091187,-147.068466,,,
729600793.663189,-0.189782,-3.071968,-5.577309,0.054413,0.003296,0.990723,-0.00264,0.002018,-0.041874,64.554489,10.091187,-147.068466,,,
729600793.666543,-0.190329,-3.072958,-5.588732,0.054413,0.003296,0.990723,-0.00264,0.002018,-0.041874,64.554489,10.091187,-147.068466,,,
729600793.669846,-0.191913,-3.075931,-5.600235,0.054153,0.003387,0.988098,-0.005239,-0.012058,-0.04226,64.554489,10.091187,-147.068466,,,
729600793.67322,-0.191913,-3.075931,-5.600235,0.054153,0.003387,0.988098,-0.005239,-0.012058,-0.04226,64.554489,10.091187,-147.068466,,,
729600793.676497,-0.193544,-3.081249,-5.611958,0.054153,0.003387,0.988098,-0.005239,-0.012058,-0.04226,64.554489,10.091187,-147.068466,,,
729600793.679838,-0.197796,-3.087946,-5.624184,0.052795,0.005936,0.988571,-0.010057,-0.025476,-0.045513,64.554489,10.091187,-147.068466,,,
729600793.683167,-0.197796,-3.087946,-5.624184,0.052795,0.005936,0.988571,-0.010057,-0.025476,-0.045513,64.554489,10.091187,-147.068466,,,
729600793.6865,-0.200015,-3.097089,-5.637213,0.052795,0.005936,0.988571,-0.010057,-0.025476,-0.045513,64.554489,10.091187,-147.068466,,,
729600793.689873,-0.200015,-3.106294,-5.650805,0.054993,0.006958,0.990662,-0.008494,-0.028655,-0.049537,64.554489,10.091187,-147.068466,,,
729600793.693214,-0.204074,-3.106294,-5.650805,0.054993,0.006958,0.990662,-0.008494,-0.028655,-0.049537,64.554489,10.091187,-147.068466,,,
729600793.696566,-0.205367,-3.11524,-5.664877,0.054993,0.006958,0.990662,-0.008494,-0.028655,-0.049537,64.320084,10.206146,-147.068466,,,
729600793.699855,-0.20512,-3.123565,-5.678906,0.05603,0.003891,0.996048,0.00597,-0.020657,-0.049985,64.320084,10.206146,-147.068466,,,
729600793.703289,-0.20512,-3.123565,-5.678906,0.05603,0.003891,0.996048,0.00597,-0.020657,-0.049985,64.320084,10.206146,-147.068466,,,
729600793.706589,-0.201998,-3.129458,-5.692614,0.05603,0.003891,0.996048,0.00597,-0.020657,-0.049985,64.320084,10.206146,-147.068466,,,
729600793.709857,-0.201998,-3.129458,-5.692614,0.056137,-0.002319,1.003311,0.019948,-0.008187,-0.046522,64.320084,10.206146,-147.068466,,,
729600793.713201,-0.195717,-3.13463,-5.70572,0.056137,-0.002319,1.003311,0.019948,-0.008187,-0.046522,64.320084,10.206146,-147.068466,,,
729600793.716584,-0.187488,-3.136733,-5.717504,0.056137,-0.002319,1.003311,0.019948,-0.008187,-0.046522,64.320084,10.206146,-147.068466,,,
729600793.719835,-0.187488,-3.136733,-5.717504,0.056076,-0.007263,1.008255,0.045742,0.005968,-0.042384,64.320084,10.206146,-147.068466,,,
729600793.723238,-0.173573,-3.138053,-5.728502,0.056076,-0.007263,1.008255,0.045742,0.005968,-0.042384,64.320084,10.206146,-147.068466,,,
729600793.726523,-0.158588,-3.135959,-5.73973,0.056076,-0.007263,1.008255,0.045742,0.005968,-0.042384,64.320084,10.206146,-147.068466,,,
729600793.729841,-0.158588,-3.135959,-5.73973,0.058395,-0.006699,1.010773,0.056685,0.021569,-0.047931,64.320084,10.206146,-147.068466,,,
729600793.733192,-0.140608,-3.132188,-5.75167,0.058395,-0.006699,1.010773,0.056685,0.021569,-0.047931,64.320084,10.206146,-147.068466,,,
729600793.736512,-0.124488,-3.126399,-5.763901,0.058395,-0.006699,1.010773,0.056685,0.021569,-0.047931,64.525818,10.162155,-147.216019,,,
729600793.739884,-0.124488,-3.126399,-5.763901,0.05368,-0.003922,0.995407,0.040737,0.025686,-0.044162,64.525818,10.162155,-147.216019,,,
