Time (sec),Pitch (deg),Roll (deg),Yaw(deg),X-Acceleration (g),Y-Acceleration (g),Z-Acceleration (g),Pitch Rate (deg/sec),Roll Rate (deg/sec),Yaw Rate (deg/sec),Magnetic Field in X direction (uT),Magnetic Field in Y direction (uT),Magnetic Field in Z Direction (uT),Latitude (deg),Longitude (deg),Altitude (m)
729600565.647712,-0.503255,0.049857,-29.252258,-0.019852,-0.022934,1.009201,0.01978,0.041815,0.008218,73.405014,7.236465,-148.031158,,,
729600565.65102,-0.497328,0.059594,-29.249103,-0.019852,-0.022934,1.009201,0.01978,0.041815,0.008218,73.405014,7.236465,-148.031158,,,
729600565.654348,-0.497328,0.059594,-29.249103,-0.022156,-0.026459,1.002258,0.019143,0.023402,0.013088,73.405014,7.236465,-148.031158,,,
729600565.657694,-0.490728,0.067759,-29.245241,-0.022156,-0.026459,1.002258,0.019143,0.023402,0.013088,73.405014,7.236465,-148.031158,,,
729600565.66102,-0.485836,0.073342,-29.240945,-0.022156,-0.026459,1.002258,0.019143,0.023402,0.013088,73.405014,7.236465,-148.031158,,,
729600565.664385,-0.485836,0.073342,-29.240945,-0.023178,-0.028198,0.995926,0.006641,0.016923,0.017928,73.405014,7.236465,-148.031158,,,
729600565.667698,-0.481806,0.077982,-29.23596,-0.023178,-0.028198,0.995926,0.006641,0.016923,0.017928,73.430206,7.257599,-148.044342,,,
729600565.671021,-0.481852,0.082018,-29.229665,-0.023178,-0.028198,0.995926,0.006641,0.016923,0.017928,73.430206,7.257599,-148.044342,,,
729600565.674352,-0.481852,0.082018,-29.229665,-0.023941,-0.027985,0.992233,-0.021824,0.005536,0.026312,73.430206,7.257599,-148.044342,,,
729600565.677696,-0.485527,0.084469,-29.222161,-0.023941,-0.027985,0.992233,-0.021824,0.005536,0.026312,73.430206,7.257599,-148.044342,,,
729600565.681074,-0.494226,0.084199,-29.213827,-0.023941,-0.027985,0.992233,-0.021824,0.005536,0.026312,73.430206,7.257599,-148.044342,,,
729600565.684362,-0.494226,0.084199,-29.213827,-0.023682,-0.024033,0.980438,-0.051796,-0.012554,0.033003,73.430206,7.257599,-148.044342,,,
729600565.687692,-0.507741,0.082203,-29.204521,-0.023682,-0.024033,0.980438,-0.051796,-0.012554,0.033003,73.430206,7.257599,-148.044342,,,
729600565.691025,-0.523809,0.076917,-29.194338,-0.023682,-0.024033,0.980438,-0.051796,-0.012554,0.033003,73.430206,7.257599,-148.044342,,,
729600565.694348,-0.523809,0.076917,-29.194338,-0.016769,-0.023209,0.980988,-0.065053,-0.026892,0.039564,73.430206,7.257599,-148.044342,,,
729600565.697687,-0.542836,0.070494,-29.183194,-0.016769,-0.023209,0.980988,-0.065053,-0.026892,0.039564,73.430206,7.257599,-148.044342,,,
729600565.701026,-0.561615,0.061524,-29.171681,-0.016769,-0.023209,0.980988,-0.065053,-0.026892,0.039564,73.430206,7.257599,-148.044342,,,
729600565.704354,-0.561615,0.061524,-29.171681,-0.016769,-0.023209,0.980988,-0.065053,-0.026892,0.039564,73.430206,7.257599,-148.044342,,,
729600565.707789,-0.581609,0.052905,-29.160584,-0.008636,-0.021484,0.986511,-0.065839,-0.031797,0.03664,73.131104,7.333252,-147.863373,,,
729600565.711041,-0.599842,0.043368,-29.149476,-0.008636,-0.021484,0.986511,-0.065839,-0.031797,0.03664,73.131104,7.333252,-147.863373,,,
729600565.714417,-0.599842,0.043368,-29.149476,-0.008636,-0.021484,0.986511,-0.065839,-0.031797,0.03664,73.131104,7.333252,-147.863373,,,
729600565.717718,-0.617732,0.035943,-29.13877,-0.001358,-0.019806,1.000305,-0.054023,-0.029424,0.033805,73.131104,7.333252,-147.863373,,,
729600565.721103,-0.632997,0.026657,-29.128655,-0.001358,-0.019806,1.000305,-0.054023,-0.029424,0.033805,73.131104,7.333252,-147.863373,,,
729600565.72445,-0.632997,0.026657,-29.128655,0.004929,-0.018219,1.004456,-0.044333,-0.026397,0.030451,73.131104,7.333252,-147.863373,,,
729600565.727691,-0.648544,0.020345,-29.118998,0.004929,-0.018219,1.004456,-0.044333,-0.026397,0.030451,73.131104,7.333252,-147.863373,,,
729600565.731023,-0.66132,0.012124,-29.11002,0.004929,-0.018219,1.004456,-0.044333,-0.026397,0.030451,73.131104,7.333252,-147.863373,,,
729600565.734363,-0.66132,0.012124,-29.11002,0.004929,-0.018219,1.004456,-0.038945,-0.020274,0.025567,73.131104,7.333252,-147.863373,,,
729600565.737721,-0.675357,0.007518,-29.10172,0.007202,-0.017471,1.000473,-0.038945,-0.020274,0.025567,73.131104,7.333252,-147.863373,,,
729600565.74102,-0.686249,0.000504,-29.093759,0.007202,-0.017471,1.000473,-0.038945,-0.020274,0.025567,73.131104,7.333252,-147.863373,,,
729600565.744364,-0.686249,0.000504,-29.093759,0.007202,-0.017471,1.000473,-0.038945,-0.020274,0.025567,73.131104,7.333252,-147.863373,,,
729600565.747689,-0.69863,-0.004839,-29.085631,0.012665,-0.019943,1.001633,-0.034495,-0.029092,0.026444,73.075211,7.451385,-147.857193,,,
729600565.751022,-0.708616,-0.014128,-29.077414,0.012665,-0.019943,1.001633,-0.034495,-0.029092,0.026444,73.075211,7.451385,-147.857193,,,
729600565.754396,-0.708616,-0.014128,-29.077414,0.012665,-0.019943,1.001633,-0.033167,-0.034978,0.027487,73.075211,7.451385,-147.857193,,,
729600565.757754,-0.720177,-0.021191,-29.069002,0.011383,-0.023102,1.001678,-0.033167,-0.034978,0.027487,73.075211,7.451385,-147.857193,,,
729600565.761012,-0.729846,-0.032192,-29.060174,0.011383,-0.023102,1.001678,-0.033167,-0.034978,0.027487,73.075211,7.451385,-147.857193,,,
729600565.76442,-0.729846,-0.032192,-29.060174,0.011383,-0.023102,1.001678,-0.033167,-0.034978,0.027487,73.075211,7.451385,-147.857193,,,
729600565.767685,-0.741046,-0.041041,-29.050642,0.007187,-0.022919,1.001465,-0.034334,-0.03925,0.032105,73.075211,7.451385,-147.857193,,,
729600565.771022,-0.751546,-0.05293,-29.040468,0.007187,-0.022919,1.001465,-0.034334,-0.03925,0.032105,73.075211,7.451385,-147.857193,,,
729600565.774363,-0.751546,-0.05293,-29.040468,0.007187,-0.022919,1.001465,-0.034334,-0.03925,0.032105,73.075211,7.451385,-147.857193,,,
729600565.777709,-0.763891,-0.062522,-29.02965,0.008392,-0.019211,1.001083,-0.038772,-0.035888,0.036422,73.075211,7.451385,-147.857193,,,
729600565.781018,-0.775704,-0.074182,-29.018954,0.008392,-0.019211,1.001083,-0.038772,-0.035888,0.036422,73.075211,7.451385,-147.857193,,,
729600565.78439,-0.775704,-0.074182,-29.018954,0.008392,-0.019211,1.001083,-0.038772,-0.035888,0.036422,73.075211,7.451385,-147.857193,,,
729600565.787686,-0.789714,-0.085349,-29.008401,0.01326,-0.01683,1.002289,-0.04774,-0.038917,0.035485,72.782684,7.69899,-147.573288,,,
729600565.79102,-0.804005,-0.097657,-28.998048,0.01326,-0.01683,1.002289,-0.04774,-0.038917,0.035485,72.782684,7.69899,-147.573288,,,
729600565.79443,-0.804005,-0.097657,-28.998048,0.01326,-0.01683,1.002289,-0.04774,-0.038917,0.035485,72.782684,7.69899,-147.573288,,,
729600565.797769,-0.819248,-0.109913,-28.988654,0.017975,-0.013977,0.996918,-0.049993,-0.038712,0.028858,72.782684,7.69899,-147.573288,,,
729600565.801019,-0.833133,-0.121076,-28.980307,0.017975,-0.013977,0.996918,-0.049993,-0.038712,0.028858,72.782684,7.69899,-147.573288,,,
729600565.804428,-0.833133,-0.121076,-28.980307,0.017975,-0.013977,0.996918,-0.049993,-0.038712,0.028858,72.782684,7.69899,-147.573288,,,
729600565.807719,-0.84514,-0.130438,-28.973277,0.022003,-0.011368,1.002441,-0.034373,-0.022754,0.019717,72.782684,7.69899,-147.573288,,,
729600565.81104,-0.853581,-0.135896,-28.968247,0.022003,-0.011368,1.002441,-0.034373,-0.022754,0.019717,72.782684,7.69899,-147.573288,,,
729600565.81441,-0.853581,-0.135896,-28.968247,0.022003,-0.011368,1.002441,-0.034373,-0.022754,0.019717,72.782684,7.69899,-147.573288,,,
729600565.817684,-0.858252,-0.137134,-28.96542,0.030457,-0.008499,1.014053,-0.00637,0.013045,0.004396,72.782684,7.69899,-147.573288,,,
729600565.821142,-0.857404,-0.131611,-28.965237,0.030457,-0.008499,1.014053,-0.00637,0.013045,0.004396,72.782684,7.69899,-147.573288,,,
729600565.824424,-0.857404,-0.131611,-28.965237,0.030457,-0.008499,1.014053,-0.00637,0.013045,0.004396,72.782684,7.69899,-147.573288,,,
729600565.827696,-0.850794,-0.122243,-28.968,0.038193,-0.0056,1.026733,0.039437,0.049091,-0.016134,72.782684,7.69899,-147.573288,,,
729600565.831018,-0.837189,-0.107021,-28.973107,0.038193,-0.0056,1.026733,0.039437,0.049091,-0.016134,73.012283,7.616592,-147.893326,,,
729600565.834382,-0.837189,-0.107021,-28.973107,0.038193,-0.0056,1.026733,0.039437,0.049091,-0.016134,73.012283,7.616592,-147.893326,,,
729600565.837691,-0.81982,-0.089951,-28.980282,0.035721,-0.005951,1.030884,0.072713,0.068234,-0.030469,73.012283,7.616592,-147.893326,,,
729600565.841031,-0.797618,-0.071259,-28.989876,0.035721,-0.005951,1.030884,0.072713,0.068234,-0.030469,73.012283,7.616592,-147.893326,,,
729600565.844405,-0.797618,-0.071259,-28.989876,0.035721,-0.005951,1.030884,0.072713,0.068234,-0.030469,73.012283,7.616592,-147.893326,,,
729600565.84778,-0.774058,-0.054002,-29.000892,0.023834,-0.007584,1.020721,0.088879,0.063369,-0.040248,73.012283,7.616592,-147.893326,,,
729600565.85101,-0.748705,-0.037646,-29.012443,0.023834,-0.007584,1.020721,0.088879,0.063369,-0.040248,73.012283,7.616592,-147.893326,,,
729600565.854367,-0.748705,-0.037646,-29.012443,0.023834,-0.007584,1.020721,0.088879,0.063369,-0.040248,73.012283,7.616592,-147.893326,,,
729600565.857699,-0.725389,-0.024213,-29.025231,0.0159,-0.007141,1.007721,0.079692,0.05139,-0.048737,73.012283,7.616592,-147.893326,,,
729600565.861016,-0.704468,-0.01302,-29.039829,0.0159,-0.007141,1.007721,0.079692,0.05139,-0.048737,73.012283,7.616592,-147.893326,,,
729600565.864369,-0.704468,-0.01302,-29.039829,0.0159,-0.007141,1.007721,0.079692,0.05139,-0.048737,73.012283,7.616592,-147.893326,,,
729600565.867688,-0.688602,-0.008022,-29.056977,0.013977,-0.00116,0.99501,0.047453,0.021452,-0.06619,73.012283,7.616592,-147.893326,,,
729600565.871023,-0.677171,-0.004349,-29.076092,0.013977,-0.00116,0.99501,0.047453,0.021452,-0.06619,72.921555,7.620407,-147.857071,,,
729600565.874476,-0.677171,-0.004349,-29.076092,0.013977,-0.00116,0.99501,0.047453,0.021452,-0.06619,72.921555,7.620407,-147.857071,,,
729600565.877674,-0.669563,-0.004471,-29.096859,0.00824,0.002869,0.984772,0.022144,0.011742,-0.07741,72.921555,7.620407,-147.857071,,,
729600565.881024,-0.665167,-0.001957,-29.118048,0.00824,0.002869,0.984772,0.022144,0.011742,-0.07741,72.921555,7.620407,-147.857071,,,
729600565.884465,-0.665167,-0.001957,-29.118048,0.00824,0.002869,0.984772,0.022144,0.011742,-0.07741,72.921555,7.620407,-147.857071,,,
729600565.887694,-0.66464,-0.001648,-29.138162,-0.00351,-0.008286,0.993149,-0.006061,0.017055,-0.06968,72.921555,7.620407,-147.857071,,,
729600565.891025,-0.667882,0.001692,-29.15608,-0.00351,-0.008286,0.993149,-0.006061,0.017055,-0.06968,72.921555,7.620407,-147.857071,,,
729600565.894389,-0.667882,0.001692,-29.15608,-0.00351,-0.008286,0.993149,-0.006061,0.017055,-0.06968,72.921555,7.620407,-147.857071,,,
729600565.897692,-0.673632,0.000442,-29.170431,-0.017624,-0.020767,0.989746,-0.026949,0.013023,-0.044464,72.921555,7.620407,-147.857071,,,
729600565.90104,-0.683308,0.002463,-29.180907,-0.017624,-0.020767,0.989746,-0.026949,0.013023,-0.044464,72.921555,7.620407,-147.857071,,,
729600565.904365,-0.683308,0.002463,-29.180907,-0.017624,-0.020767,0.989746,-0.026949,0.013023,-0.044464,72.921555,7.620407,-147.857071,,,
729600565.907714,-0.694983,-0.002772,-29.187704,-0.026215,-0.027145,0.986328,-0.046678,-0.005963,-0.018476,72.921555,7.620407,-147.857071,,,
729600565.911036,-0.710053,-0.006502,-29.190929,-0.026215,-0.027145,0.986328,-0.046678,-0.005963,-0.018476,73.27951,7.410934,-148.133682,,,
729600565.914356,-0.710053,-0.006502,-29.190929,-0.026215,-0.027145,0.986328,-0.046678,-0.005963,-0.018476,73.27951,7.410934,-148.133682,,,
729600565.917705,-0.726428,-0.01591,-29.191014,-0.032684,-0.025284,0.985535,-0.061043,-0.020642,0.003698,73.27951,7.410934,-148.133682,,,
729600565.921027,-0.74368,-0.023001,-29.189377,-0.032684,-0.025284,0.985535,-0.061043,-0.020642,0.003698,73.27951,7.410934,-148.133682,,,
729600565.924433,-0.74368,-0.023001,-29.189377,-0.032684,-0.025284,0.985535,-0.061043,-0.020642,0.003698,73.27951,7.410934,-148.133682,,,
729600565.927694,-0.758991,-0.032179,-29.187561,-0.030014,-0.024017,0.996887,-0.051095,-0.022197,0.005107,73.27951,7.410934,-148.133682,,,
729600565.931026,-0.772745,-0.039815,-29.18628,-0.030014,-0.024017,0.996887,-0.051095,-0.022197,0.005107,73.27951,7.410934,-148.133682,,,
729600565.934357,-0.772745,-0.039815,-29.18628,-0.030014,-0.024017,0.996887,-0.051095,-0.022197,0.005107,73.27951,7.410934,-148.133682,,,
729600565.937753,-0.783496,-0.050962,-29.186074,-0.017883,-0.023224,1.010666,-0.03539,-0.037298,-0.002271,73.27951,7.410934,-148.133682,,,
729600565.941012,-0.792797,-0.064726,-29.186303,-0.017883,-0.023224,1.010666,-0.03539,-0.037298,-0.002271,73.27951,7.410934,-148.133682,,,
729600565.944373,-0.792797,-0.064726,-29.186303,-0.017883,-0.023224,1.010666,-0.03539,-0.037298,-0.002271,73.27951,7.410934,-148.133682,,,
729600565.947686,-0.798318,-0.083351,-29.186072,-0.016357,-0.024628,1.009384,-0.019086,-0.064295,0.001089,73.27951,7.410934,-148.133682,,,
729600565.951025,-0.803295,-0.104218,-29.184966,-0.016357,-0.024628,1.009384,-0.019086,-0.064295,0.001089,73.086105,7.587387,-148.154022,,,
729600565.954371,-0.803295,-0.104218,-29.184966,-0.016357,-0.024628,1.009384,-0.019086,-0.064295,0.001089,73.086105,7.587387,-148.154022,,,
729600565.957692,-0.805891,-0.129669,-29.182491,-0.020493,-0.025894,1.012543,-0.010677,-0.094895,0.010562,73.086105,7.587387,-148.154022,,,
729600565.96102,-0.808721,-0.160597,-29.178293,-0.020493,-0.025894,1.012543,-0.010677,-0.094895,0.010562,73.086105,7.587387,-148.154022,,,
729600565.964357,-0.808721,-0.160597,-29.178293,-0.020493,-0.025894,1.012543,-0.010677,-0.094895,0.010562,73.086105,7.587387,-148.154022,,,
729600565.967701,-0.810963,-0.195235,-29.172754,-0.020401,-0.018799,1.012772,-0.006753,-0.128501,0.019823,73.086105,7.587387,-148.154022,,,
729600565.971019,-0.813494,-0.232433,-29.165197,-0.020401,-0.018799,1.012772,-0.006753,-0.128501,0.019823,73.086105,7.587387,-148.154022,,,
729600565.974372,-0.813494,-0.232433,-29.165197,-0.020401,-0.018799,1.012772,-0.006753,-0.128501,0.019823,73.086105,7.587387,-148.154022,,,
729600565.977792,-0.817519,-0.265058,-29.15534,-0.011078,-0.014755,1.013702,-0.008893,-0.116742,0.035629,73.086105,7.587387,-148.154022,,,
729600565.981022,-0.82092,-0.298227,-29.144104,-0.011078,-0.014755,1.013702,-0.008893,-0.116742,0.035629,73.086105,7.587387,-148.154022,,,
729600565.984367,-0.82092,-0.298227,-29.144104,-0.011078,-0.014755,1.013702,-0.008893,-0.116742,0.035629,73.086105,7.587387,-148.154022,,,
729600565.987778,-0.827067,-0.324912,-29.131853,-0.000565,-0.014618,1.02182,-0.016623,-0.101025,0.042379,73.086105,7.587387,-148.154022,,,
729600565.991025,-0.83236,-0.353006,-29.119256,-0.000565,-0.014618,1.02182,-0.016623,-0.101025,0.042379,73.086105,7.587387,-148.154022,,,
729600565.994376,-0.83236,-0.353006,-29.119256,-0.000565,-0.014618,1.02182,-0.016623,-0.101025,0.042379,72.706528,7.53627,-147.842667,,,
729600565.997704,-0.838255,-0.371829,-29.106583,0.007416,-0.016098,1.0186,-0.012393,-0.071517,0.042407,72.706528,7.53627,-147.842667,,,
729600566.001024,-0.841361,-0.390276,-29.09347,0.007416,-0.016098,1.0186,-0.012393,-0.071517,0.042407,72.706528,7.53627,-147.842667,,,
729600566.004479,-0.841361,-0.390276,-29.09347,0.007416,-0.016098,1.0186,-0.012393,-0.071517,0.042407,72.706528,7.53627,-147.842667,,,
729600566.007695,-0.843653,-0.399047,-29.07904,0.008453,-0.020569,1.028275,0.000796,-0.031013,0.051147,72.706528,7.53627,-147.842667,,,
729600566.011039,-0.842449,-0.40664,-29.063105,0.008453,-0.020569,1.028275,0.000796,-0.031013,0.051147,72.706528,7.53627,-147.842667,,,
729600566.014326,-0.842449,-0.40664,-29.063105,0.008453,-0.020569,1.028275,0.000796,-0.031013,0.051147,72.706528,7.53627,-147.842667,,,
729600566.017682,-0.837683,-0.407663,-29.045248,0.004593,-0.025314,1.02507,0.032649,-0.00505,0.063987,72.706528,7.53627,-147.842667,,,
729600566.021007,-0.824231,-0.407302,-29.026053,0.004593,-0.025314,1.02507,0.032649,-0.00505,0.063987,72.706528,7.53627,-147.842667,,,
729600566.024472,-0.824231,-0.407302,-29.026053,0.004593,-0.025314,1.02507,0.032649,-0.00505,0.063987,72.706528,7.53627,-147.842667,,,
729600566.0277,-0.803418,-0.399328,-29.006814,0.008347,-0.027557,1.030319,0.092689,0.026772,0.063519,72.706528,7.53627,-147.842667,,,
729600566.031029,-0.77277,-0.391526,-28.989138,0.008347,-0.027557,1.030319,0.092689,0.026772,0.063519,72.706528,7.53627,-147.842667,,,
729600566.034379,-0.77277,-0.391526,-28.989138,0.008347,-0.027557,1.030319,0.092689,0.026772,0.063519,72.581802,7.428604,-147.925613,,,
729600566.037753,-0.735942,-0.380587,-28.973017,0.017349,-0.026962,1.038361,0.142893,0.027924,0.052045,72.581802,7.428604,-147.925613,,,
729600566.040793,-0.693791,-0.374466,-28.958314,0.017349,-0.026962,1.038361,0.142893,0.027924,0.052045,72.581802,7.428604,-147.925613,,,
729600566.044382,-0.693791,-0.374466,-28.958314,0.017349,-0.026962,1.038361,0.142893,0.027924,0.052045,72.581802,7.428604,-147.925613,,,
729600566.04769,-0.649776,-0.36898,-28.944755,0.013397,-0.025879,1.00354,0.158777,0.006437,0.043783,72.581802,7.428604,-147.925613,,,
729600566.051028,-0.605235,-0.369951,-28.932109,0.013397,-0.025879,1.00354,0.158777,0.006437,0.043783,72.581802,7.428604,-147.925613,,,
729600566.054354,-0.605235,-0.369951,-28.932109,0.013397,-0.025879,1.00354,0.158777,0.006437,0.043783,72.581802,7.428604,-147.925613,,,
729600566.057695,-0.562907,-0.372789,-28.919952,0.002808,-0.020584,0.979126,0.146761,-0.017402,0.040338,72.581802,7.428604,-147.925613,,,
729600566.061025,-0.523296,-0.379568,-28.908129,0.002808,-0.020584,0.979126,0.146761,-0.017402,0.040338,72.581802,7.428604,-147.925613,,,
729600566.064355,-0.523296,-0.379568,-28.908129,0.002808,-0.020584,0.979126,0.146761,-0.017402,0.040338,72.581802,7.428604,-147.925613,,,
729600566.067691,-0.488972,-0.388098,-28.896996,0.001846,-0.006561,0.961319,0.114183,-0.032335,0.035708,72.581802,7.428604,-147.925613,,,
729600566.071025,-0.457913,-0.398039,-28.886078,0.001846,-0.006561,0.961319,0.114183,-0.032335,0.035708,72.581802,7.428604,-147.925613,,,
729600566.07435,-0.457913,-0.398039,-28.886078,0.001846,-0.006561,0.961319,0.114183,-0.032335,0.035708,72.564362,7.184372,-147.956177,,,
729600566.077693,-0.431226,-0.407825,-28.875152,0.013596,0.000916,0.952423,0.089477,-0.030031,0.035922,72.564362,7.184372,-147.956177,,,
729600566.081015,-0.407022,-0.415512,-28.86484,0.013596,0.000916,0.952423,0.089477,-0.030031,0.035922,72.564362,7.184372,-147.956177,,,
729600566.084352,-0.407022,-0.415512,-28.86484,0.013596,0.000916,0.952423,0.089477,-0.030031,0.035922,72.564362,7.184372,-147.956177,,,
729600566.087697,-0.386494,-0.418632,-28.855728,0.019226,-0.000458,0.961731,0.071184,0.001159,0.027669,72.564362,7.184372,-147.956177,,,
729600566.091031,-0.367462,-0.416731,-28.847322,0.019226,-0.000458,0.961731,0.071184,0.001159,0.027669,72.564362,7.184372,-147.956177,,,
729600566.094123,-0.367462,-0.416731,-28.847322,0.019226,-0.000458,0.961731,0.071184,0.001159,0.027669,72.564362,7.184372,-147.956177,,,
729600566.097737,-0.352619,-0.41132,-28.839724,0.022263,-0.002701,0.968903,0.050911,0.024922,0.022289,72.564362,7.184372,-147.956177,,,
729600566.101031,-0.339119,-0.40444,-28.833099,0.022263,-0.002701,0.968903,0.050911,0.024922,0.022289,72.564362,7.184372,-147.956177,,,
729600566.104413,-0.339119,-0.40444,-28.833099,0.022263,-0.002701,0.968903,0.050911,0.024922,0.022289,72.564362,7.184372,-147.956177,,,
729600566.107698,-0.32908,-0.397499,-28.826989,0.019012,-0.006577,0.962372,0.035118,0.026952,0.018838,72.564362,7.184372,-147.956177,,,
729600566.111028,-0.320553,-0.390259,-28.82092,0.019012,-0.006577,0.962372,0.035118,0.026952,0.018838,72.564362,7.184372,-147.956177,,,
729600566.114375,-0.320553,-0.390259,-28.82092,0.019012,-0.006577,0.962372,0.035118,0.026952,0.018838,72.564362,7.184372,-147.956177,,,
729600566.117706,-0.315274,-0.383148,-28.814164,0.012024,-0.008209,0.962128,0.019972,0.030161,0.02378,72.71199,7.195099,-148.063858,,,
729600566.121025,-0.310858,-0.376231,-28.807497,0.012024,-0.008209,0.962128,0.019972,0.030161,0.02378,72.71199,7.195099,-148.063858,,,
729600566.124364,-0.310858,-0.376231,-28.807497,0.012024,-0.008209,0.962128,0.019972,0.030161,0.02378,72.71199,7.195099,-148.063858,,,
729600566.127706,-0.307891,-0.370685,-28.801298,0.009827,-0.005768,0.961884,0.017067,0.021327,0.02058,72.71199,7.195099,-148.063858,,,
729600566.131026,-0.302814,-0.365918,-28.796043,0.009827,-0.005768,0.961884,0.017067,0.021327,0.02058,72.71199,7.195099,-148.063858,,,
729600566.134355,-0.302814,-0.365918,-28.796043,0.009827,-0.005768,0.961884,0.017067,0.021327,0.02058,72.71199,7.195099,-148.063858,,,
729600566.137711,-0.297551,-0.36167,-28.792803,0.012543,-0.008148,0.974579,0.022672,0.015653,0.006541,72.71199,7.195099,-148.063858,,,
729600566.14103,-0.29241,-0.358743,-28.790966,0.012543,-0.008148,0.974579,0.022672,0.015653,0.006541,72.71199,7.195099,-148.063858,,,
729600566.144364,-0.29241,-0.358743,-28.790966,0.012543,-0.008148,0.974579,0.022672,0.015653,0.006541,72.71199,7.195099,-148.063858,,,
729600566.147718,-0.28847,-0.356787,-28.790395,0.014038,-0.011093,0.979584,0.013298,0.008858,-0.002244,72.71199,7.195099,-148.063858,,,
729600566.151022,-0.28694,-0.356713,-28.791232,0.014038,-0.011093,0.979584,0.013298,0.008858,-0.002244,72.71199,7.195099,-148.063858,,,
729600566.154438,-0.28694,-0.356713,-28.791232,0.014038,-0.011093,0.979584,0.013298,0.008858,-0.002244,72.71199,7.195099,-148.063858,,,
729600566.157711,-0.288022,-0.361861,-28.792873,0.009445,-0.012039,0.974976,-0.007299,-0.022352,-0.007714,72.786331,6.907394,-147.629959,,,
729600566.161021,-0.291961,-0.372279,-28.794974,0.009445,-0.012039,0.974976,-0.007299,-0.022352,-0.007714,72.786331,6.907394,-147.629959,,,
729600566.164366,-0.291961,-0.372279,-28.794974,0.009445,-0.012039,0.974976,-0.007299,-0.022352,-0.007714,72.786331,6.907394,-147.629959,,,
729600566.167692,-0.298977,-0.389176,-28.79742,0.006485,-0.009048,0.973923,-0.029967,-0.061384,-0.00996,72.786331,6.907394,-147.629959,,,
729600566.171018,-0.309027,-0.408837,-28.800259,0.006485,-0.009048,0.973923,-0.029967,-0.061384,-0.00996,72.786331,6.907394,-147.629959,,,
729600566.17437,-0.309027,-0.408837,-28.800259,0.006485,-0.009048,0.973923,-0.029967,-0.061384,-0.00996,72.786331,6.907394,-147.629959,,,
729600566.177687,-0.321882,-0.430815,-28.804365,0.009903,-0.002701,0.981842,-0.049866,-0.07187,-0.018535,72.786331,6.907394,-147.629959,,,
729600566.18102,-0.336919,-0.450697,-28.810175,0.009903,-0.002701,0.981842,-0.049866,-0.07187,-0.018535,72.786331,6.907394,-147.629959,,,
729600566.184351,-0.336919,-0.450697,-28.810175,0.009903,-0.002701,0.981842,-0.049866,-0.07187,-0.018535,72.786331,6.907394,-147.629959,,,
729600566.187716,-0.353441,-0.467243,-28.817453,0.0242,0.000885,0.994019,-0.059439,-0.045835,-0.028643,72.786331,6.907394,-147.629959,,,
729600566.191014,-0.369657,-0.479791,-28.825469,0.0242,0.000885,0.994019,-0.059439,-0.045835,-0.028643,72.786331,6.907394,-147.629959,,,
729600566.194426,-0.369657,-0.479791,-28.825469,0.0242,0.000885,0.994019,-0.059439,-0.045835,-0.028643,72.786331,6.907394,-147.629959,,,
729600566.197691,-0.383432,-0.488558,-28.833683,0.033539,-0.003082,1.009247,-0.042378,-0.018756,-0.03014,72.557434,7.269791,-147.695328,,,
729600566.201036,-0.394528,-0.492284,-28.842017,0.033539,-0.003082,1.009247,-0.042378,-0.018756,-0.03014,72.557434,7.269791,-147.695328,,,
729600566.204377,-0.394528,-0.492284,-28.842017,0.033539,-0.003082,1.009247,-0.042378,-0.018756,-0.03014,72.557434,7.269791,-147.695328,,,
729600566.207748,-0.402735,-0.490732,-28.84979,0.036865,-0.008621,1.021133,-0.02243,0.01859,-0.026367,72.557434,7.269791,-147.695328,,,
729600566.21101,-0.407842,-0.482,-28.857256,0.036865,-0.008621,1.021133,-0.02243,0.01859,-0.026367,72.557434,7.269791,-147.695328,,,
729600566.214426,-0.407842,-0.482,-28.857256,0.036865,-0.008621,1.021133,-0.02243,0.01859,-0.026367,72.557434,7.269791,-147.695328,,,
729600566.217714,-0.409129,-0.465207,-28.864657,0.032791,-0.009476,1.026428,0.004934,0.076961,-0.026199,72.557434,7.269791,-147.695328,,,
729600566.221019,-0.406127,-0.442248,-28.872004,0.032791,-0.009476,1.026428,0.004934,0.076961,-0.026199,72.557434,7.269791,-147.695328,,,
729600566.224358,-0.406127,-0.442248,-28.872004,0.032791,-0.009476,1.026428,0.004934,0.076961,-0.026199,72.557434,7.269791,-147.695328,,,
729600566.227683,-0.39968,-0.418283,-28.880295,0.030075,-0.008179,1.03302,0.031366,0.086988,-0.03292,72.557434,7.269791,-147.695328,,,
729600566.231016,-0.390806,-0.395484,-28.889434,0.030075,-0.008179,1.03302,0.031366,0.086988,-0.03292,72.557434,7.269791,-147.695328,,,
729600566.234352,-0.390806,-0.395484,-28.889434,0.030075,-0.008179,1.03302,0.031366,0.086988,-0.03292,72.557434,7.269791,-147.695328,,,
729600566.237681,-0.383758,-0.375559,-28.899142,0.024368,-0.003876,1.013351,0.021565,0.06755,-0.036746,72.830063,7.171204,-148.030319,,,
729600566.241015,-0.380071,-0.359329,-28.909618,0.024368,-0.003876,1.013351,0.021565,0.06755,-0.036746,72.830063,7.171204,-148.030319,,,
729600566.244367,-0.380071,-0.359329,-28.909618,0.024368,-0.003876,1.013351,0.021565,0.06755,-0.036746,72.830063,7.171204,-148.030319,,,
729600566.24735,-0.381524,-0.348348,-28.92091,0.011032,0.00116,0.987198,-0.013693,0.031109,-0.042196,72.830063,7.171204,-148.030319,,,
729600566.251062,-0.388795,-0.344672,-28.933241,0.011032,0.00116,0.987198,-0.013693,0.031109,-0.042196,72.830063,7.171204,-148.030319,,,
729600566.254348,-0.388795,-0.344672,-28.933241,0.011032,0.00116,0.987198,-0.013693,0.031109,-0.042196,72.830063,7.171204,-148.030319,,,
729600566.25771,-0.401166,-0.349795,-28.946521,0.004715,0.009674,0.973175,-0.053169,-0.023975,-0.048443,72.830063,7.171204,-148.030319,,,
729600566.261011,-0.418884,-0.360999,-28.960956,0.004715,0.009674,0.973175,-0.053169,-0.023975,-0.048443,72.830063,7.171204,-148.030319,,,
729600566.264348,-0.418884,-0.360999,-28.960956,0.004715,0.009674,0.973175,-0.053169,-0.023975,-0.048443,72.830063,7.171204,-148.030319,,,
729600566.26768,-0.440101,-0.379003,-28.97727,0.00882,0.015915,0.974045,-0.083463,-0.055042,-0.061174,72.830063,7.171204,-148.030319,,,
729600566.271016,-0.4654,-0.396011,-28.995429,0.00882,0.015915,0.974045,-0.083463,-0.055042,-0.061174,72.830063,7.171204,-148.030319,,,
729600566.274376,-0.4654,-0.396011,-28.995429,0.00882,0.015915,0.974045,-0.083463,-0.055042,-0.061174,72.830063,7.171204,-148.030319,,,
729600566.27773,-0.490697,-0.416126,-29.014512,0.014313,0.012375,0.989746,-0.085854,-0.053471,-0.067341,72.830063,7.171204,-148.030319,,,
729600566.281013,-0.513901,-0.431153,-29.03352,0.014313,0.012375,0.989746,-0.085854,-0.053471,-0.067341,72.870026,7.334717,-147.869202,,,
729600566.284359,-0.513901,-0.431153,-29.03352,0.014313,0.012375,0.989746,-0.085854,-0.053471,-0.067341,72.870026,7.334717,-147.869202,,,
729600566.287798,-0.532147,-0.445262,-29.052962,0.017639,0.000595,1.01416,-0.051475,-0.024036,-0.070415,72.870026,7.334717,-147.869202,,,
729600566.29117,-0.54444,-0.449797,-29.072783,0.017639,0.000595,1.01416,-0.051475,-0.024036,-0.070415,72.870026,7.334717,-147.869202,,,
729600566.294361,-0.54444,-0.449797,-29.072783,0.017639,0.000595,1.01416,-0.051475,-0.024036,-0.070415,72.870026,7.334717,-147.869202,,,
729600566.297781,-0.551185,-0.450469,-29.092255,0.023514,-0.007065,1.037292,-0.01324,0.018567,-0.068142,72.870026,7.334717,-147.869202,,,
729600566.301009,-0.552009,-0.444652,-29.110906,0.023514,-0.007065,1.037292,-0.01324,0.018567,-0.068142,72.870026,7.334717,-147.869202,,,
729600566.304355,-0.552009,-0.444652,-29.110906,0.023514,-0.007065,1.037292,-0.01324,0.018567,-0.068142,72.870026,7.334717,-147.869202,,,
729600566.307702,-0.547748,-0.438707,-29.128772,0.01976,-0.009216,1.034576,0.020033,0.033549,-0.062875,72.870026,7.334717,-147.869202,,,
729600566.311015,-0.541228,-0.430299,-29.145635,0.01976,-0.009216,1.034576,0.020033,0.033549,-0.062875,72.870026,7.334717,-147.869202,,,
729600566.314357,-0.541228,-0.430299,-29.145635,0.01976,-0.009216,1.034576,0.020033,0.033549,-0.062875,72.870026,7.334717,-147.869202,,,
729600566.317689,-0.533166,-0.423418,-29.161511,0.006516,-0.006287,1.017136,0.024685,0.031646,-0.055974,72.870026,7.334717,-147.869202,,,
729600566.32102,-0.526818,-0.416301,-29.176861,0.006516,-0.006287,1.017136,0.024685,0.031646,-0.055974,72.761307,7.270523,-147.931335,,,
729600566.324404,-0.526818,-0.416301,-29.176861,0.006516,-0.006287,1.017136,0.024685,0.031646,-0.055974,72.761307,7.270523,-147.931335,,,
729600566.327696,-0.521318,-0.412005,-29.19158,-0.001389,-3.1e-05,0.998047,0.007504,0.011778,-0.05144,72.761307,7.270523,-147.931335,,,
729600566.331041,-0.521648,-0.411701,-29.205753,-0.001389,-3.1e-05,0.998047,0.007504,0.011778,-0.05144,72.761307,7.270523,-147.931335,,,
729600566.334347,-0.521648,-0.411701,-29.205753,-0.001389,-3.1e-05,0.998047,0.007504,0.011778,-0.05144,72.761307,7.270523,-147.931335,,,
729600566.337785,-0.52408,-0.414996,-29.219338,-0.006363,0.004318,0.982788,-0.025452,-0.01517,-0.047137,72.761307,7.270523,-147.931335,,,
729600566.341062,-0.534129,-0.421358,-29.232302,-0.006363,0.004318,0.982788,-0.025452,-0.01517,-0.047137,72.761307,7.270523,-147.931335,,,
729600566.344434,-0.534129,-0.421358,-29.232302,-0.006363,0.004318,0.982788,-0.025452,-0.01517,-0.047137,72.761307,7.270523,-147.931335,,,
729600566.347721,-0.545623,-0.430407,-29.244986,-0.007782,0.003647,0.98027,-0.05499,-0.029973,-0.04491,72.761307,7.270523,-147.931335,,,
729600566.351037,-0.562521,-0.441263,-29.257448,-0.007782,0.003647,0.98027,-0.05499,-0.029973,-0.04491,72.761307,7.270523,-147.931335,,,
729600566.354355,-0.562521,-0.441263,-29.257448,-0.007782,0.003647,0.98027,-0.05499,-0.029973,-0.04491,72.761307,7.270523,-147.931335,,,
729600566.357704,-0.578939,-0.454975,-29.269339,-0.008102,0.000671,0.987747,-0.065716,-0.043776,-0.040751,72.761307,7.270523,-147.931335,,,
729600566.361012,-0.597858,-0.468265,-29.280051,-0.008102,0.000671,0.987747,-0.065716,-0.043776,-0.040751,72.811859,7.487366,-147.711548,,,
729600566.364369,-0.597858,-0.468265,-29.280051,-0.008102,0.000671,0.987747,-0.065716,-0.043776,-0.040751,72.811859,7.487366,-147.711548,,,
729600566.367684,-0.615218,-0.481661,-29.289051,-0.00592,-0.005508,0.996979,-0.061209,-0.035551,-0.028642,72.811859,7.487366,-147.711548,,,
729600566.37102,-0.630952,-0.49157,-29.297063,-0.00592,-0.005508,0.996979,-0.061209,-0.035551,-0.028642,72.811859,7.487366,-147.711548,,,
729600566.374461,-0.630952,-0.49157,-29.297063,-0.00592,-0.005508,0.996979,-0.061209,-0.035551,-0.028642,72.811859,7.487366,-147.711548,,,
729600566.377697,-0.643268,-0.500103,-29.305394,-0.000549,-0.007156,1.010391,-0.039459,-0.013471,-0.030872,72.811859,7.487366,-147.711548,,,
729600566.38102,-0.652486,-0.503378,-29.314082,-0.000549,-0.007156,1.010391,-0.039459,-0.013471,-0.030872,72.811859,7.487366,-147.711548,,,
729600566.384363,-0.652486,-0.503378,-29.314082,-0.000549,-0.007156,1.010391,-0.039459,-0.013471,-0.030872,72.811859,7.487366,-147.711548,,,
729600566.387739,-0.657096,-0.504375,-29.323437,0.006165,-0.001572,1.015793,-0.009343,0.007588,-0.035757,72.811859,7.487366,-147.711548,,,
729600566.391054,-0.658283,-0.503272,-29.33323,0.006165,-0.001572,1.015793,-0.009343,0.007588,-0.035757,72.811859,7.487366,-147.711548,,,
729600566.394364,-0.658283,-0.503272,-29.33323,0.006165,-0.001572,1.015793,-0.009343,0.007588,-0.035757,72.811859,7.487366,-147.711548,,,
729600566.397767,-0.656241,-0.502863,-29.342533,0.002594,-0.00769,1.014771,0.007074,-0.002576,-0.032482,72.811859,7.487366,-147.711548,,,
729600566.401015,-0.65441,-0.506544,-29.350049,0.002594,-0.00769,1.014771,0.007074,-0.002576,-0.032482,72.613266,7.334427,-147.646423,,,
729600566.404366,-0.65441,-0.506544,-29.350049,0.002594,-0.00769,1.014771,0.007074,-0.002576,-0.032482,72.613266,7.334427,-147.646423,,,
729600566.407703,-0.650857,-0.512494,-29.355198,-0.009644,-0.015503,0.991714,0.007244,-0.02963,-0.016124,72.613266,7.334427,-147.646423,,,
729600566.410803,-0.650857,-0.512494,-29.358977,-0.009644,-0.015503,0.991714,0.007244,-0.02963,-0.016124,72.613266,7.334427,-147.646423,,,
729600566.414412,-0.649824,-0.522813,-29.358977,-0.009644,-0.015503,0.991714,0.007244,-0.02963,-0.016124,72.613266,7.334427,-147.646423,,,
729600566.417681,-0.647461,-0.53339,-29.361925,-0.012817,-0.015198,0.98584,0.002622,-0.045526,-0.010365,72.613266,7.334427,-147.646423,,,
729600566.421031,-0.646278,-0.547012,-29.364694,-0.012817,-0.015198,0.98584,0.002622,-0.045526,-0.010365,72.613266,7.334427,-147.646423,,,
729600566.42444,-0.646278,-0.547012,-29.364694,-0.012817,-0.015198,0.98584,0.002622,-0.045526,-0.010365,72.613266,7.334427,-147.646423,,,
729600566.427707,-0.641866,-0.557011,-29.367999,-0.002548,-0.008148,0.994644,0.012703,-0.035556,-0.014398,72.613266,7.334427,-147.646423,,,
729600566.431042,-0.638666,-0.567089,-29.371704,-0.002548,-0.008148,0.994644,0.012703,-0.035556,-0.014398,72.613266,7.334427,-147.646423,,,
729600566.434355,-0.638666,-0.567089,-29.371704,-0.002548,-0.008148,0.994644,0.012703,-0.035556,-0.014398,72.613266,7.334427,-147.646423,,,
729600566.437694,-0.634794,-0.573623,-29.375943,0.004608,-0.00621,1.002289,0.009457,-0.025323,-0.018339,72.613266,7.334427,-147.646423,,,
729600566.441038,-0.633422,-0.58227,-29.379986,0.004608,-0.00621,1.002289,0.009457,-0.025323,-0.018339,72.613266,7.334427,-147.646423,,,
729600566.444352,-0.633422,-0.58227,-29.379986,0.004608,-0.00621,1.002289,0.009457,-0.025323,-0.018339,72.738632,7.403137,-148.002579,,,
729600566.447749,-0.634074,-0.591747,-29.382005,0.000473,-0.010574,0.992905,-0.007243,-0.044382,-0.00422,72.738632,7.403137,-148.002579,,,
729600566.451012,-0.637778,-0.606642,-29.381371,0.000473,-0.010574,0.992905,-0.007243,-0.044382,-0.00422,72.738632,7.403137,-148.002579,,,
729600566.454364,-0.637778,-0.606642,-29.381371,0.000473,-0.010574,0.992905,-0.007243,-0.044382,-0.00422,72.738632,7.403137,-148.002579,,,
729600566.457698,-0.644411,-0.622391,-29.377822,-0.010788,-0.01474,0.984253,-0.033116,-0.058105,0.016319,72.738632,7.403137,-148.002579,,,
729600566.461086,-0.655773,-0.640305,-29.371318,-0.010788,-0.01474,0.984253,-0.033116,-0.058105,0.016319,72.738632,7.403137,-148.002579,,,
729600566.464343,-0.655773,-0.640305,-29.371318,-0.010788,-0.01474,0.984253,-0.033116,-0.058105,0.016319,72.738632,7.403137,-148.002579,,,
729600566.467695,-0.667693,-0.657526,-29.362702,-0.015945,-0.013641,0.988068,-0.044756,-0.057882,0.031121,72.738632,7.403137,-148.002579,,,
729600566.471111,-0.680453,-0.674563,-29.352657,-0.015945,-0.013641,0.988068,-0.044756,-0.057882,0.031121,72.738632,7.403137,-148.002579,,,
729600566.474427,-0.680453,-0.674563,-29.352657,-0.015945,-0.013641,0.988068,-0.044756,-0.057882,0.031121,72.738632,7.403137,-148.002579,,,
729600566.477696,-0.691257,-0.688504,-29.341456,-0.010895,-0.010941,1.001678,-0.031265,-0.048207,0.038885,72.738632,7.403137,-148.002579,,,
729600566.481036,-0.699287,-0.700902,-29.329923,-0.010895,-0.010941,1.001678,-0.031265,-0.048207,0.038885,72.738632,7.403137,-148.002579,,,
729600566.484366,-0.699287,-0.700902,-29.329923,-0.010895,-0.010941,1.001678,-0.031265,-0.048207,0.038885,72.8228,7.443726,-148.054947,,,
729600566.487684,-0.704863,-0.705182,-29.318309,-0.003036,-0.014465,1.015381,-0.009607,-0.013771,0.0389,72.8228,7.443726,-148.054947,,,
729600566.49102,-0.705391,-0.707859,-29.30737,-0.003036,-0.014465,1.015381,-0.009607,-0.013771,0.0389,72.8228,7.443726,-148.054947,,,
729600566.494363,-0.705391,-0.707859,-29.30737,-0.003036,-0.014465,1.015381,-0.009607,-0.013771,0.0389,72.8228,7.443726,-148.054947,,,
729600566.497772,-0.70135,-0.705293,-29.29773,0.007126,-0.021881,1.025986,0.022467,0.003409,0.029199,72.8228,7.443726,-148.054947,,,
729600566.501046,-0.69351,-0.70711,-29.289738,0.007126,-0.021881,1.025986,0.022467,0.003409,0.029199,72.8228,7.443726,-148.054947,,,
729600566.50436,-0.69351,-0.70711,-29.289738,0.007126,-0.021881,1.025986,0.022467,0.003409,0.029199,72.8228,7.443726,-148.054947,,,
729600566.507701,-0.681399,-0.712216,-29.283434,0.009827,-0.024368,1.02124,0.046958,-0.02905,0.017019,72.8228,7.443726,-148.054947,,,
729600566.511164,-0.667681,-0.723193,-29.278043,0.009827,-0.024368,1.02124,0.046958,-0.02905,0.017019,72.8228,7.443726,-148.054947,,,
729600566.514335,-0.667681,-0.723193,-29.278043,0.009827,-0.024368,1.02124,0.046958,-0.02905,0.017019,72.8228,7.443726,-148.054947,,,
729600566.517687,-0.652755,-0.73571,-29.272496,0.003036,-0.023117,1.007324,0.052177,-0.047207,0.01788,72.8228,7.443726,-148.054947,,,
729600566.521068,-0.638037,-0.751329,-29.266086,0.003036,-0.023117,1.007324,0.052177,-0.047207,0.01788,72.8228,7.443726,-148.054947,,,
729600566.524348,-0.638037,-0.751329,-29.266086,0.003036,-0.023117,1.007324,0.052177,-0.047207,0.01788,72.629608,7.312897,-148.204605,,,
729600566.527681,-0.624085,-0.767278,-29.25819,-0.003372,-0.021286,1.006805,0.048368,-0.063482,0.02805,72.629608,7.312897,-148.204605,,,
729600566.531061,-0.610656,-0.786567,-29.248942,-0.003372,-0.021286,1.006805,0.048368,-0.063482,0.02805,72.629608,7.312897,-148.204605,,,
729600566.534343,-0.610656,-0.786567,-29.248942,-0.003372,-0.021286,1.006805,0.048368,-0.063482,0.02805,72.629608,7.312897,-148.204605,,,
729600566.537682,-0.598412,-0.803139,-29.237628,0.002045,-0.019958,1.000946,0.04429,-0.068798,0.042227,72.629608,7.312897,-148.204605,,,
729600566.541038,-0.598412,-0.803139,-29.224838,0.002045,-0.019958,1.000946,0.04429,-0.068798,0.042227,72.629608,7.312897,-148.204605,,,
729600566.544368,-0.586212,-0.822254,-29.224838,0.002045,-0.019958,1.000946,0.04429,-0.068798,0.042227,72.629608,7.312897,-148.204605,,,
729600566.547748,-0.575307,-0.83516,-29.211765,0.008362,-0.019623,1.002319,0.0367,-0.050363,0.044155,72.629608,7.312897,-148.204605,,,
729600566.551005,-0.575307,-0.83516,-29.211765,0.008362,-0.019623,1.002319,0.0367,-0.050363,0.044155,72.629608,7.312897,-148.204605,,,
729600566.554368,-0.566727,-0.849322,-29.198888,0.008362,-0.019623,1.002319,0.0367,-0.050363,0.044155,72.629608,7.312897,-148.204605,,,
729600566.557683,-0.560892,-0.85891,-29.187134,0.021347,-0.016541,0.997208,0.018288,-0.037629,0.036354,72.629608,7.312897,-148.204605,,,
729600566.561025,-0.560892,-0.85891,-29.187134,0.021347,-0.016541,0.997208,0.018288,-0.037629,0.036354,72.629608,7.312897,-148.204605,,,
729600566.564367,-0.556577,-0.869265,-29.176388,0.021347,-0.016541,0.997208,0.018288,-0.037629,0.036354,72.759491,7.116928,-148.121277,,,
729600566.56768,-0.553561,-0.874973,-29.166297,0.024109,-0.011917,0.992844,0.015458,-0.017442,0.031672,72.759491,7.116928,-148.121277,,,
729600566.571034,-0.553561,-0.874973,-29.166297,0.024109,-0.011917,0.992844,0.015458,-0.017442,0.031672,72.759491,7.116928,-148.121277,,,
729600566.574444,-0.549576,-0.880618,-29.156688,0.024109,-0.011917,0.992844,0.015458,-0.017442,0.031672,72.759491,7.116928,-148.121277,,,
729600566.577716,-0.547082,-0.885122,-29.146366,0.018616,-0.014511,1.003662,0.016773,-0.014646,0.036582,72.759491,7.116928,-148.121277,,,
729600566.581099,-0.547082,-0.885122,-29.146366,0.018616,-0.014511,1.003662,0.016773,-0.014646,0.036582,72.759491,7.116928,-148.121277,,,
729600566.584348,-0.542,-0.890149,-29.135294,0.018616,-0.014511,1.003662,0.016773,-0.014646,0.036582,72.759491,7.116928,-148.121277,,,
729600566.587694,-0.537435,-0.894377,-29.123696,0.015625,-0.014496,0.99585,0.025591,-0.015324,0.040148,72.759491,7.116928,-148.121277,,,
729600566.591015,-0.537435,-0.894377,-29.123696,0.015625,-0.014496,0.99585,0.025591,-0.015324,0.040148,72.759491,7.116928,-148.121277,,,
729600566.594375,-0.528409,-0.899422,-29.111485,0.015625,-0.014496,0.99585,0.025591,-0.015324,0.040148,72.759491,7.116928,-148.121277,,,
729600566.597688,-0.517574,-0.903838,-29.099373,0.017899,-0.01413,1.000366,0.050025,-0.024756,0.039079,72.759491,7.116928,-148.121277,,,
729600566.601017,-0.517574,-0.903838,-29.099373,0.017899,-0.01413,1.000366,0.050025,-0.024756,0.039079,72.759491,7.116928,-148.121277,,,
729600566.604373,-0.50299,-0.912401,-29.089027,0.017899,-0.01413,1.000366,0.050025,-0.024756,0.039079,72.759491,7.116928,-148.121277,,,
729600566.607698,-0.487818,-0.919731,-29.081612,0.02771,-0.009705,0.995316,0.063888,-0.031304,0.018317,72.441925,7.065948,-147.759247,,,
729600566.611015,-0.487818,-0.919731,-29.081612,0.02771,-0.009705,0.995316,0.063888,-0.031304,0.018317,72.441925,7.065948,-147.759247,,,
729600566.614425,-0.469886,-0.928226,-29.077113,0.02771,-0.009705,0.995316,0.063888,-0.031304,0.018317,72.441925,7.065948,-147.759247,,,
729600566.617684,-0.454239,-0.933004,-29.075622,0.040894,-0.006149,0.989471,0.058231,-0.015272,-0.002642,72.441925,7.065948,-147.759247,,,
729600566.621028,-0.454239,-0.933004,-29.075622,0.040894,-0.006149,0.989471,0.058231,-0.015272,-0.002642,72.441925,7.065948,-147.759247,,,
729600566.624359,-0.438319,-0.937715,-29.076799,0.040894,-0.006149,0.989471,0.058231,-0.015272,-0.002642,72.441925,7.065948,-147.759247,,,
729600566.627698,-0.425466,-0.941826,-29.079438,0.039444,-0.006287,0.983475,0.046637,-0.013899,-0.012646,72.441925,7.065948,-147.759247,,,
729600566.631029,-0.425466,-0.941826,-29.079438,0.039444,-0.006287,0.983475,0.046637,-0.013899,-0.012646,72.441925,7.065948,-147.759247,,,
729600566.634363,-0.413214,-0.946809,-29.081973,0.039444,-0.006287,0.983475,0.046637,-0.013899,-0.012646,72.441925,7.065948,-147.759247,,,
729600566.637767,-0.403683,-0.953828,-29.083639,0.028931,-0.006653,0.980179,0.034106,-0.021614,-0.006347,72.441925,7.065948,-147.759247,,,
729600566.641011,-0.403683,-0.953828,-29.083639,0.028931,-0.006653,0.980179,0.034106,-0.021614,-0.006347,72.441925,7.065948,-147.759247,,,
729600566.644365,-0.395323,-0.96111,-29.083564,0.028931,-0.006653,0.980179,0.034106,-0.021614,-0.006347,72.441925,7.065948,-147.759247,,,
729600566.647686,-0.389644,-0.968169,-29.081455,0.023346,-0.003021,0.977127,0.020616,-0.014736,0.008,72.405624,6.914276,-147.683792,,,
729600566.651017,-0.389644,-0.968169,-29.081455,0.023346,-0.003021,0.977127,0.020616,-0.014736,0.008,72.405624,6.914276,-147.683792,,,
729600566.654356,-0.385208,-0.972508,-29.077852,0.023346,-0.003021,0.977127,0.020616,-0.014736,0.008,72.405624,6.914276,-147.683792,,,
729600566.657683,-0.38403,-0.975526,-29.073393,0.024536,-0.001251,0.978745,0.005449,-0.005899,0.014175,72.405624,6.914276,-147.683792,,,
729600566.661136,-0.38403,-0.975526,-29.073393,0.024536,-0.001251,0.978745,0.005449,-0.005899,0.014175,72.405624,6.914276,-147.683792,,,
729600566.664386,-0.383281,-0.97815,-29.068754,0.024536,-0.001251,0.978745,0.005449,-0.005899,0.014175,72.405624,6.914276,-147.683792,,,
729600566.667702,-0.384814,-0.980813,-29.064891,0.029266,-0.002167,0.979736,-0.003385,-0.00771,0.008956,72.405624,6.914276,-147.683792,,,
729600566.671022,-0.384814,-0.980813,-29.064891,0.029266,-0.002167,0.979736,-0.003385,-0.00771,0.008956,72.405624,6.914276,-147.683792,,,
729600566.674463,-0.385684,-0.983548,-29.062677,0.029266,-0.002167,0.979736,-0.003385,-0.00771,0.008956,72.405624,6.914276,-147.683792,,,
729600566.677688,-0.386252,-0.984206,-29.062039,0.03389,-0.002869,0.980957,0.003339,0.010406,-0.002091,72.405624,6.914276,-147.683792,,,
729600566.681028,-0.386252,-0.984206,-29.062039,0.03389,-0.002869,0.980957,0.003339,0.010406,-0.002091,72.405624,6.914276,-147.683792,,,
729600566.684367,-0.385709,-0.981084,-29.062999,0.03389,-0.002869,0.980957,0.003339,0.010406,-0.002091,72.405624,6.914276,-147.683792,,,
729600566.687698,-0.384391,-0.979276,-29.064772,0.032242,-0.007202,0.996155,0.009491,0.015497,-0.00782,72.426102,7.177231,-147.892319,,,
729600566.691028,-0.384391,-0.979276,-29.064772,0.032242,-0.007202,0.996155,0.009491,0.015497,-0.00782,72.426102,7.177231,-147.892319,,,
729600566.694403,-0.381519,-0.97632,-29.066984,0.032242,-0.007202,0.996155,0.009491,0.015497,-0.00782,72.426102,7.177231,-147.892319,,,
729600566.69771,-0.377724,-0.977317,-29.069891,0.027023,-0.006165,0.991013,0.015475,0.009876,-0.012572,72.426102,7.177231,-147.892319,,,
729600566.701018,-0.377724,-0.977317,-29.069891,0.027023,-0.006165,0.991013,0.015475,0.009876,-0.012572,72.426102,7.177231,-147.892319,,,
729600566.70442,-0.373623,-0.976108,-29.073287,0.027023,-0.006165,0.991013,0.015475,0.009876,-0.012572,72.426102,7.177231,-147.892319,,,
729600566.707695,-0.370416,-0.979299,-29.076642,0.02356,-0.001984,0.98468,0.009764,-0.005849,-0.012088,72.426102,7.177231,-147.892319,,,
729600566.711036,-0.370416,-0.979299,-29.076642,0.02356,-0.001984,0.98468,0.009764,-0.005849,-0.012088,72.426102,7.177231,-147.892319,,,
729600566.714406,-0.368728,-0.983699,-29.079485,0.02356,-0.001984,0.98468,0.009764,-0.005849,-0.012088,72.426102,7.177231,-147.892319,,,
729600566.717687,-0.368547,-0.992576,-29.082196,0.021973,0.003418,0.979233,-0.000953,-0.030194,-0.010961,72.426102,7.177231,-147.892319,,,
729600566.721016,-0.368547,-0.992576,-29.082196,0.021973,0.003418,0.979233,-0.000953,-0.030194,-0.010961,72.426102,7.177231,-147.892319,,,
729600566.724366,-0.370749,-1.00312,-29.085288,0.021973,0.003418,0.979233,-0.000953,-0.030194,-0.010961,72.426102,7.177231,-147.892319,,,
729600566.727683,-0.376059,-1.015105,-29.090093,0.022598,0.002487,0.978149,-0.025953,-0.036452,-0.022447,72.216736,7.11438,-147.802109,,,
729600566.731032,-0.376059,-1.015105,-29.090093,0.022598,0.002487,0.978149,-0.025953,-0.036452,-0.022447,72.216736,7.11438,-147.802109,,,
729600566.734352,-0.384005,-1.026145,-29.097175,0.022598,0.002487,0.978149,-0.025953,-0.036452,-0.022447,72.216736,7.11438,-147.802109,,,
729600566.737715,-0.393072,-1.037597,-29.106104,0.031799,0.005951,0.989365,-0.037053,-0.034083,-0.035013,72.216736,7.11438,-147.802109,,,
729600566.741028,-0.393072,-1.037597,-29.106104,0.031799,0.005951,0.989365,-0.037053,-0.034083,-0.035013,72.216736,7.11438,-147.802109,,,
729600566.744364,-0.404275,-1.048356,-29.115742,0.031799,0.005951,0.989365,-0.037053,-0.034083,-0.035013,72.216736,7.11438,-147.802109,,,
729600566.74768,-0.415861,-1.059249,-29.124634,0.029633,0.000244,0.996643,-0.042467,-0.026572,-0.02959,72.216736,7.11438,-147.802109,,,
729600566.751018,-0.415861,-1.059249,-29.124634,0.029633,0.000244,0.996643,-0.042467,-0.026572,-0.02959,72.216736,7.11438,-147.802109,,,
729600566.754364,-0.428585,-1.067397,-29.131892,0.029633,0.000244,0.996643,-0.042467,-0.026572,-0.02959,72.216736,7.11438,-147.802109,,,
729600566.757683,-0.441836,-1.076272,-29.136401,0.018631,-0.008469,1.002838,-0.047883,-0.021229,-0.01028,72.216736,7.11438,-147.802109,,,
729600566.761052,-0.441836,-1.076272,-29.136401,0.018631,-0.008469,1.002838,-0.047883,-0.021229,-0.01028,72.216736,7.11438,-147.802109,,,
729600566.764392,-0.456514,-1.083506,-29.138551,0.018631,-0.008469,1.002838,-0.047883,-0.021229,-0.01028,72.216736,7.11438,-147.802109,,,
729600566.7677,-0.472728,-1.092573,-29.138919,0.013474,-0.010849,0.996552,-0.059081,-0.027242,0.002403,72.216736,7.11438,-147.802109,,,
729600566.771009,-0.472728,-1.092573,-29.138919,0.013474,-0.010849,0.996552,-0.059081,-0.027242,0.002403,72.403656,7.233765,-147.920853,,,
729600566.774368,-0.490899,-1.101199,-29.137431,0.013474,-0.010849,0.996552,-0.059081,-0.027242,0.002403,72.403656,7.233765,-147.920853,,,
729600566.77768,-0.509327,-1.109873,-29.134918,0.012222,-0.008102,0.993057,-0.063565,-0.023454,0.009681,72.403656,7.233765,-147.920853,,,
729600566.781024,-0.509327,-1.109873,-29.134918,0.012222,-0.008102,0.993057,-0.063565,-0.023454,0.009681,72.403656,7.233765,-147.920853,,,
729600566.784348,-0.527203,-1.115718,-29.132145,0.012222,-0.008102,0.993057,-0.063565,-0.023454,0.009681,72.403656,7.233765,-147.920853,,,
729600566.787684,-0.541183,-1.119489,-29.130405,0.014526,-0.008942,1.006271,-0.044217,-0.005271,0.002224,72.403656,7.233765,-147.920853,,,
729600566.791124,-0.541183,-1.119489,-29.130405,0.014526,-0.008942,1.006271,-0.044217,-0.005271,0.002224,72.403656,7.233765,-147.920853,,,
729600566.794371,-0.552002,-1.120635,-29.130902,0.014526,-0.008942,1.006271,-0.044217,-0.005271,0.002224,72.403656,7.233765,-147.920853,,,
729600566.797692,-0.557251,-1.120076,-29.133928,0.022537,-0.011902,1.019714,-0.016284,0.008899,-0.015926,72.403656,7.233765,-147.920853,,,
729600566.801018,-0.557251,-1.120076,-29.133928,0.022537,-0.011902,1.019714,-0.016284,0.008899,-0.015926,72.403656,7.233765,-147.920853,,,
729600566.804427,-0.559723,-1.117693,-29.138293,0.022537,-0.011902,1.019714,-0.016284,0.008899,-0.015926,72.403656,7.233765,-147.920853,,,
729600566.807676,-0.556893,-1.114259,-29.14248,0.022751,-0.016953,1.015854,0.008318,0.022379,-0.015084,72.403656,7.233765,-147.920853,,,
729600566.811016,-0.556893,-1.114259,-29.14248,0.022751,-0.016953,1.015854,0.008318,0.022379,-0.015084,72.126755,7.285309,-148.054947,,,
729600566.814393,-0.552757,-1.108845,-29.145645,0.022751,-0.016953,1.015854,0.008318,0.022379,-0.015084,72.126755,7.285309,-148.054947,,,
729600566.817785,-0.542743,-1.106262,-29.147652,0.011749,-0.025055,1.013107,0.036875,0.014924,-0.00743,72.126755,7.285309,-148.054947,,,
729600566.821024,-0.542743,-1.106262,-29.147652,0.011749,-0.025055,1.013107,0.036875,0.014924,-0.00743,72.126755,7.285309,-148.054947,,,
729600566.824366,-0.530882,-1.10376,-29.148863,0.011749,-0.025055,1.013107,0.036875,0.014924,-0.00743,72.126755,7.285309,-148.054947,,,
729600566.82768,-0.515907,-1.102948,-29.150403,0.011688,-0.018723,1.004562,0.053338,0.008078,-0.00991,72.126755,7.285309,-148.054947,,,
729600566.831078,-0.515907,-1.102948,-29.150403,0.011688,-0.018723,1.004562,0.053338,0.008078,-0.00991,72.126755,7.285309,-148.054947,,,
729600566.834339,-0.501056,-1.102135,-29.152631,0.011688,-0.018723,1.004562,0.053338,0.008078,-0.00991,72.126755,7.285309,-148.054947,,,
729600566.837681,-0.488113,-1.102832,-29.155504,0.019821,-0.0056,0.998611,0.041061,-0.005431,-0.014213,72.126755,7.285309,-148.054947,,,
729600566.841009,-0.488113,-1.102832,-29.155504,0.019821,-0.0056,0.998611,0.041061,-0.005431,-0.014213,72.126755,7.285309,-148.054947,,,
729600566.844376,-0.478074,-1.106661,-29.158754,0.019821,-0.0056,0.998611,0.041061,-0.005431,-0.014213,72.126755,7.285309,-148.054947,,,
729600566.847679,-0.471534,-1.112085,-29.161873,0.013031,-0.001541,0.979874,0.018241,-0.022029,-0.012897,72.126755,7.285309,-148.054947,,,
729600566.851013,-0.471534,-1.112085,-29.161873,0.013031,-0.001541,0.979874,0.018241,-0.022029,-0.012897,72.118454,7.301208,-147.795929,,,
729600566.854364,-0.468152,-1.119848,-29.164882,0.013031,-0.001541,0.979874,0.018241,-0.022029,-0.012897,72.118454,7.301208,-147.795929,,,
729600566.857675,-0.468102,-1.126486,-29.167289,0.009369,0.002457,0.980759,-0.006151,-0.020515,-0.008248,72.118454,7.301208,-147.795929,,,
729600566.861031,-0.468102,-1.126486,-29.167289,0.009369,0.002457,0.980759,-0.006151,-0.020515,-0.008248,72.118454,7.301208,-147.795929,,,
729600566.864364,-0.471454,-1.132472,-29.16904,0.009369,0.002457,0.980759,-0.006151,-0.020515,-0.008248,72.118454,7.301208,-147.795929,,,
729600566.867684,-0.477834,-1.136787,-29.170045,0.012863,0.000748,0.983429,-0.025196,-0.011429,-0.002704,72.118454,7.301208,-147.795929,,,
729600566.871068,-0.477834,-1.136787,-29.170045,0.012863,0.000748,0.983429,-0.025196,-0.011429,-0.002704,72.118454,7.301208,-147.795929,,,
729600566.874348,-0.485727,-1.140675,-29.169134,0.012863,0.000748,0.983429,-0.025196,-0.011429,-0.002704,72.118454,7.301208,-147.795929,,,
729600566.877696,-0.495436,-1.144593,-29.165816,0.015366,-0.003662,0.982178,-0.034464,-0.007907,0.014296,72.118454,7.301208,-147.795929,,,
729600566.88101,-0.495436,-1.144593,-29.165816,0.015366,-0.003662,0.982178,-0.034464,-0.007907,0.014296,72.118454,7.301208,-147.795929,,,
729600566.884519,-0.505254,-1.147392,-29.160979,0.015366,-0.003662,0.982178,-0.034464,-0.007907,0.014296,72.118454,7.301208,-147.795929,,,
729600566.887684,-0.516062,-1.148786,-29.154807,0.01474,-0.005829,0.986404,-0.030679,0.000576,0.023412,72.118454,7.301208,-147.795929,,,
729600566.891024,-0.516062,-1.148786,-29.154807,0.01474,-0.005829,0.986404,-0.030679,0.000576,0.023412,72.118454,7.301208,-147.795929,,,
729600566.894379,-0.52459,-1.147976,-29.148017,0.01474,-0.005829,0.986404,-0.030679,0.000576,0.023412,72.290527,7.449203,-148.099747,,,
729600566.897688,-0.532396,-1.144031,-29.142085,0.018082,-0.005371,0.993439,-0.013383,0.012826,0.016966,72.290527,7.449203,-148.099747,,,
729600566.901018,-0.532396,-1.144031,-29.142085,0.018082,-0.005371,0.993439,-0.013383,0.012826,0.016966,72.290527,7.449203,-148.099747,,,
729600566.904369,-0.535008,-1.140097,-29.138311,0.018082,-0.005371,0.993439,-0.013383,0.012826,0.016966,72.290527,7.449203,-148.099747,,,
729600566.907687,-0.534897,-1.134055,-29.137158,0.024124,-0.004868,0.997742,0.00872,0.023928,-0.001793,72.290527,7.449203,-148.099747,,,
729600566.911016,-0.534897,-1.134055,-29.137158,0.024124,-0.004868,0.997742,0.00872,0.023928,-0.001793,72.290527,7.449203,-148.099747,,,
729600566.914377,-0.531981,-1.129097,-29.137916,0.024124,-0.004868,0.997742,0.00872,0.023928,-0.001793,72.290527,7.449203,-148.099747,,,
729600566.91769,-0.527576,-1.125876,-29.139184,0.0215,-0.009018,1.00119,0.014312,0.010719,-0.00546,72.290527,7.449203,-148.099747,,,
729600566.921025,-0.527576,-1.125876,-29.139184,0.0215,-0.009018,1.00119,0.014312,0.010719,-0.00546,72.290527,7.449203,-148.099747,,,
729600566.924386,-0.523666,-1.125861,-29.139468,0.0215,-0.009018,1.00119,0.014312,0.010719,-0.00546,72.290527,7.449203,-148.099747,,,
729600566.927683,-0.51973,-1.129245,-29.13831,0.004883,-0.016266,0.985733,0.006926,-0.020359,0.004716,72.290527,7.449203,-148.099747,,,
729600566.931031,-0.51973,-1.129245,-29.13831,0.004883,-0.016266,0.985733,0.006926,-0.020359,0.004716,72.290527,7.449203,-148.099747,,,
729600566.934345,-0.519526,-1.138273,-29.135847,0.004883,-0.016266,0.985733,0.006926,-0.020359,0.004716,72.151062,7.352921,-147.995392,,,
729600566.937678,-0.520816,-1.150708,-29.13171,0.001633,-0.013855,0.985001,-0.012514,-0.051487,0.01662,72.151062,7.352921,-147.995392,,,
729600566.941033,-0.520816,-1.150708,-29.13171,0.001633,-0.013855,0.985001,-0.012514,-0.051487,0.01662,72.151062,7.352921,-147.995392,,,
729600566.94436,-0.52574,-1.16791,-29.126349,0.001633,-0.013855,0.985001,-0.012514,-0.051487,0.01662,72.151062,7.352921,-147.995392,,,
729600566.947677,-0.531773,-1.18622,-29.12018,0.006927,-0.008743,0.986252,-0.027984,-0.064549,0.022618,72.151062,7.352921,-147.995392,,,
729600566.951011,-0.531773,-1.18622,-29.12018,0.006927,-0.008743,0.986252,-0.027984,-0.064549,0.022618,72.151062,7.352921,-147.995392,,,
729600566.954378,-0.540833,-1.204787,-29.113231,0.006927,-0.008743,0.986252,-0.027984,-0.064549,0.022618,72.151062,7.352921,-147.995392,,,
729600566.957674,-0.550367,-1.220607,-29.105652,0.016571,-0.00856,1.000061,-0.034414,-0.050322,0.027139,72.151062,7.352921,-147.995392,,,
729600566.961025,-0.550367,-1.220607,-29.105652,0.016571,-0.00856,1.000061,-0.034414,-0.050322,0.027139,72.151062,7.352921,-147.995392,,,
729600566.964346,-0.561328,-1.2346,-29.09785,0.016571,-0.00856,1.000061,-0.034414,-0.050322,0.027139,72.151062,7.352921,-147.995392,,,
729600566.967699,-0.572254,-1.245694,-29.09016,0.027542,-0.009659,1.008286,-0.037286,-0.035722,0.026393,72.151062,7.352921,-147.995392,,,
729600566.971034,-0.572254,-1.245694,-29.09016,0.027542,-0.009659,1.008286,-0.037286,-0.035722,0.026393,72.151062,7.352921,-147.995392,,,
729600566.974358,-0.583037,-1.255063,-29.082626,0.027542,-0.009659,1.008286,-0.037286,-0.035722,0.026393,72.084717,7.303741,-148.183395,,,
729600566.977687,-0.591763,-1.260104,-29.075013,0.033157,-0.011536,1.007446,-0.027103,-0.006348,0.026657,72.084717,7.303741,-148.183395,,,
729600566.981021,-0.591763,-1.260104,-29.075013,0.033157,-0.011536,1.007446,-0.027103,-0.006348,0.026657,72.084717,7.303741,-148.183395,,,
729600566.984345,-0.598311,-1.260896,-29.067082,0.033157,-0.011536,1.007446,-0.027103,-0.006348,0.026657,72.084717,7.303741,-148.183395,,,
729600566.987681,-0.601564,-1.259112,-29.058816,0.032211,-0.014496,1.01619,-0.007872,0.01427,0.028561,72.084717,7.303741,-148.183395,,,
729600566.991073,-0.601564,-1.259112,-29.058816,0.032211,-0.014496,1.01619,-0.007872,0.01427,0.028561,72.084717,7.303741,-148.183395,,,
729600566.99435,-0.602787,-1.255027,-29.050494,0.032211,-0.014496,1.01619,-0.007872,0.01427,0.028561,72.084717,7.303741,-148.183395,,,
729600566.997678,-0.601484,-1.249246,-29.042632,0.031952,-0.015244,1.014542,0.010934,0.02095,0.024848,72.084717,7.303741,-148.183395,,,
729600567.001019,-0.601484,-1.249246,-29.042632,0.031952,-0.015244,1.014542,0.010934,0.02095,0.024848,72.084717,7.303741,-148.183395,,,
729600567.004364,-0.597204,-1.244514,-29.036361,0.031952,-0.015244,1.014542,0.010934,0.02095,0.024848,72.084717,7.303741,-148.183395,,,
729600567.007677,-0.591221,-1.238954,-29.031936,0.033142,-0.012405,1.008316,0.028045,0.00984,0.011537,72.084717,7.303741,-148.183395,,,
729600567.011014,-0.591221,-1.238954,-29.031936,0.033142,-0.012405,1.008316,0.028045,0.00984,0.011537,72.084717,7.303741,-148.183395,,,
729600567.014419,-0.583757,-1.238317,-29.029026,0.033142,-0.012405,1.008316,0.028045,0.00984,0.011537,72.030609,7.425827,-148.170807,,,
729600567.017682,-0.57717,-1.237816,-29.028225,0.032944,-0.00882,1.001663,0.02328,-0.006973,-0.003349,72.030609,7.425827,-148.170807,,,
729600567.021017,-0.57717,-1.237816,-29.028225,0.032944,-0.00882,1.001663,0.02328,-0.006973,-0.003349,72.030609,7.425827,-148.170807,,,
729600567.024375,-0.570914,-1.241887,-29.029072,0.032944,-0.00882,1.001663,0.02328,-0.006973,-0.003349,72.030609,7.425827,-148.170807,,,
729600567.027676,-0.564211,-1.245957,-29.030239,0.027878,-0.008636,0.995941,0.023823,-0.017339,-0.00582,72.030609,7.425827,-148.170807,,,
729600567.03104,-0.564211,-1.245957,-29.030239,0.027878,-0.008636,0.995941,0.023823,-0.017339,-0.00582,72.030609,7.425827,-148.170807,,,
729600567.034361,-0.557414,-1.252346,-29.031429,0.027878,-0.008636,0.995941,0.023823,-0.017339,-0.00582,72.030609,7.425827,-148.170807,,,
729600567.037436,-0.551106,-1.258972,-29.032715,0.028488,-0.00914,1.000381,0.019565,-0.019691,-0.006417,72.030609,7.425827,-148.170807,,,
729600567.041155,-0.551106,-1.258972,-29.032715,0.028488,-0.00914,1.000381,0.019565,-0.019691,-0.006417,72.030609,7.425827,-148.170807,,,
729600567.044373,-0.546521,-1.264629,-29.03402,0.028488,-0.00914,1.000381,0.019565,-0.019691,-0.006417,72.030609,7.425827,-148.170807,,,
729600567.047692,-0.543321,-1.269191,-29.034819,0.032425,-0.008713,0.997986,0.010477,-0.004879,-0.002643,72.030609,7.425827,-148.170807,,,
729600567.051017,-0.543321,-1.269191,-29.034819,0.032425,-0.008713,0.997986,0.010477,-0.004879,-0.002643,72.030609,7.425827,-148.170807,,,
729600567.054386,-0.540745,-1.270319,-29.034577,0.032425,-0.008713,0.997986,0.010477,-0.004879,-0.002643,72.030609,7.425827,-148.170807,,,
729600567.057686,-0.538416,-1.270531,-29.033519,0.031158,-0.010468,0.998993,0.010975,0.009992,0.003124,71.931,7.271729,-148.284607,,,
729600567.061027,-0.538416,-1.270531,-29.033519,0.031158,-0.010468,0.998993,0.010975,0.009992,0.003124,71.931,7.271729,-148.284607,,,
729600567.0644,-0.535343,-1.267425,-29.031735,0.031158,-0.010468,0.998993,0.010975,0.009992,0.003124,71.931,7.271729,-148.284607,,,
729600567.067694,-0.53262,-1.263906,-29.029271,0.028824,-0.010269,1.000763,0.013739,0.020458,0.00786,71.931,7.271729,-148.284607,,,
729600567.071092,-0.53262,-1.263906,-29.029271,0.028824,-0.010269,1.000763,0.013739,0.020458,0.00786,71.931,7.271729,-148.284607,,,
729600567.074385,-0.52863,-1.257879,-29.026547,0.028824,-0.010269,1.000763,0.013739,0.020458,0.00786,71.931,7.271729,-148.284607,,,
729600567.077678,-0.523751,-1.250392,-29.023999,0.026352,-0.011017,0.995331,0.023821,0.038759,0.00644,71.931,7.271729,-148.284607,,,
729600567.081054,-0.523751,-1.250392,-29.023999,0.026352,-0.011017,0.995331,0.023821,0.038759,0.00644,71.931,7.271729,-148.284607,,,
729600567.084352,-0.515786,-1.239687,-29.021736,0.026352,-0.011017,0.995331,0.023821,0.038759,0.00644,71.931,7.271729,-148.284607,,,
729600567.087781,-0.506548,-1.230239,-29.020744,0.028107,-0.010651,1.002136,0.033931,0.03989,-0.002491,71.931,7.271729,-148.284607,,,
729600567.091003,-0.506548,-1.230239,-29.020744,0.028107,-0.010651,1.002136,0.033931,0.03989,-0.002491,71.931,7.271729,-148.284607,,,
