Time (sec),Pitch (deg),Roll (deg),Yaw(deg),X-Acceleration (g),Y-Acceleration (g),Z-Acceleration (g),Pitch Rate (deg/sec),Roll Rate (deg/sec),Yaw Rate (deg/sec),Magnetic Field in X direction (uT),Magnetic Field in Y direction (uT),Magnetic Field in Z Direction (uT),Latitude (deg),Longitude (deg),Altitude (m)
729608208.837686,0.909688,0.49217,57.031806,-0.005051,0.016907,1.008133,-0.010867,0.030215,-0.016166,63.711594,23.007812,-148.531662,,,
729608208.841008,0.905588,0.499902,57.027908,-0.005051,0.016907,1.008133,-0.010867,0.030215,-0.016166,63.711594,23.007812,-148.531662,,,
729608208.844384,0.905588,0.499902,57.027908,-0.005051,0.016907,1.008133,-0.010867,0.030215,-0.016166,63.711594,23.007812,-148.531662,,,
729608208.847682,0.900514,0.508733,57.02476,-0.006516,0.016647,0.996033,-0.014962,0.028104,-0.013557,63.711594,23.007812,-148.531662,,,
729608208.851005,0.895634,0.514746,57.02143,-0.006516,0.016647,0.996033,-0.014962,0.028104,-0.013557,63.711594,23.007812,-148.531662,,,
729608208.854356,0.895634,0.514746,57.02143,-0.006516,0.016647,0.996033,-0.014962,0.028104,-0.013557,63.711594,23.007812,-148.531662,,,
729608208.857738,0.890903,0.519534,57.016651,-0.008026,0.022934,0.991196,-0.013198,0.008845,-0.023759,63.711594,23.007812,-148.531662,,,
729608208.860999,0.887499,0.520543,57.010073,-0.008026,0.022934,0.991196,-0.013198,0.008845,-0.023759,63.711594,23.007812,-148.531662,,,
729608208.864357,0.887499,0.520543,57.010073,-0.008026,0.022934,0.991196,-0.013198,0.008845,-0.023759,63.711594,23.007812,-148.531662,,,
729608208.867705,0.886314,0.517684,57.002641,-0.005249,0.029251,0.99231,0.004626,-0.014454,-0.027927,63.711594,23.007812,-148.531662,,,
729608208.871001,0.887208,0.511995,56.995453,-0.005249,0.029251,0.99231,0.004626,-0.014454,-0.027927,63.646988,23.124283,-149.109329,,,
729608208.874374,0.887208,0.511995,56.995453,-0.005249,0.029251,0.99231,0.004626,-0.014454,-0.027927,63.646988,23.124283,-149.109329,,,
729608208.877673,0.890135,0.503825,56.988619,-0.009277,0.02095,0.997498,0.013865,-0.031662,-0.025389,63.646988,23.124283,-149.109329,,,
729608208.881024,0.894622,0.494503,56.982485,-0.009277,0.02095,0.997498,0.013865,-0.031662,-0.025389,63.646988,23.124283,-149.109329,,,
729608208.884446,0.894622,0.494503,56.982485,-0.009277,0.02095,0.997498,0.013865,-0.031662,-0.025389,63.646988,23.124283,-149.109329,,,
729608208.887702,0.89961,0.485002,56.976607,-0.007782,0.017731,0.998489,0.018011,-0.026904,-0.021441,63.646988,23.124283,-149.109329,,,
729608208.89101,0.905185,0.477082,56.970904,-0.007782,0.017731,0.998489,0.018011,-0.026904,-0.021441,63.646988,23.124283,-149.109329,,,
729608208.894352,0.905185,0.477082,56.970904,-0.007782,0.017731,0.998489,0.018011,-0.026904,-0.021441,63.646988,23.124283,-149.109329,,,
729608208.897746,0.911341,0.469382,56.965648,-0.006516,0.022903,1.000931,0.026388,-0.011194,-0.018583,63.646988,23.124283,-149.109329,,,
729608208.900999,0.918114,0.466024,56.960676,-0.006516,0.022903,1.000931,0.026388,-0.011194,-0.018583,63.646988,23.124283,-149.109329,,,
729608208.904338,0.918114,0.466024,56.960676,-0.006516,0.022903,1.000931,0.026388,-0.011194,-0.018583,63.646988,23.124283,-149.109329,,,
729608208.907672,0.928527,0.462345,56.955718,-0.003601,0.029419,1.009277,0.035034,-0.000754,-0.018667,63.646988,23.124283,-149.109329,,,
729608208.910999,0.938618,0.462041,56.950548,-0.003601,0.029419,1.009277,0.035034,-0.000754,-0.018667,63.631485,23.059799,-148.857254,,,
729608208.914351,0.938618,0.462041,56.950548,-0.003601,0.029419,1.009277,0.035034,-0.000754,-0.018667,63.631485,23.059799,-148.857254,,,
729608208.917685,0.950173,0.463064,56.944931,-0.00029,0.029556,1.008102,0.042707,0.01766,-0.026531,63.631485,23.059799,-148.857254,,,
729608208.921005,0.962679,0.467243,56.938445,-0.00029,0.029556,1.008102,0.042707,0.01766,-0.026531,63.631485,23.059799,-148.857254,,,
729608208.92439,0.962679,0.467243,56.938445,-0.00029,0.029556,1.008102,0.042707,0.01766,-0.026531,63.631485,23.059799,-148.857254,,,
729608208.927679,0.975601,0.472801,56.932122,-0.003418,0.027817,1.010239,0.045727,0.027658,-0.020515,63.631485,23.059799,-148.857254,,,
729608208.931006,0.988661,0.479547,56.926381,-0.003418,0.027817,1.010239,0.045727,0.027658,-0.020515,63.631485,23.059799,-148.857254,,,
729608208.934348,0.988661,0.479547,56.926381,-0.003418,0.027817,1.010239,0.045727,0.027658,-0.020515,63.631485,23.059799,-148.857254,,,
729608208.937679,1.001546,0.485929,56.920967,-0.007385,0.028122,1.003128,0.041817,0.024387,-0.021138,63.631485,23.059799,-148.857254,,,
729608208.941,1.01268,0.491955,56.915068,-0.007385,0.028122,1.003128,0.041817,0.024387,-0.021138,63.631485,23.059799,-148.857254,,,
729608208.944356,1.01268,0.491955,56.915068,-0.007385,0.028122,1.003128,0.041817,0.024387,-0.021138,63.631485,23.059799,-148.857254,,,
729608208.947722,1.024023,0.49641,56.908682,-0.010544,0.032379,0.994019,0.028365,0.014246,-0.025761,63.631485,23.059799,-148.857254,,,
729608208.951006,1.031197,0.499322,56.902461,-0.010544,0.032379,0.994019,0.028365,0.014246,-0.025761,63.715576,22.847977,-148.573822,,,
729608208.954356,1.031197,0.499322,56.902461,-0.010544,0.032379,0.994019,0.028365,0.014246,-0.025761,63.715576,22.847977,-148.573822,,,
729608208.957694,1.038412,0.499441,56.896343,-0.013123,0.034866,0.98735,0.022764,-0.002004,-0.020813,63.715576,22.847977,-148.573822,,,
729608208.961007,1.044594,0.496435,56.891254,-0.013123,0.034866,0.98735,0.022764,-0.002004,-0.020813,63.715576,22.847977,-148.573822,,,
729608208.964344,1.044594,0.496435,56.891254,-0.013123,0.034866,0.98735,0.022764,-0.002004,-0.020813,63.715576,22.847977,-148.573822,,,
729608208.967682,1.052322,0.489287,56.887614,-0.021347,0.027298,0.992523,0.033779,-0.034315,-0.010288,63.715576,22.847977,-148.573822,,,
729608208.971,1.061534,0.478382,56.885197,-0.021347,0.027298,0.992523,0.033779,-0.034315,-0.010288,63.715576,22.847977,-148.573822,,,
729608208.974425,1.061534,0.478382,56.885197,-0.021347,0.027298,0.992523,0.033779,-0.034315,-0.010288,63.715576,22.847977,-148.573822,,,
729608208.977688,1.071441,0.465382,56.883636,-0.020172,0.017914,0.99585,0.038077,-0.045503,-0.005348,63.715576,22.847977,-148.573822,,,
729608208.981,1.081641,0.452261,56.882611,-0.020172,0.017914,0.99585,0.038077,-0.045503,-0.005348,63.715576,22.847977,-148.573822,,,
729608208.984365,1.081641,0.452261,56.882611,-0.020172,0.017914,0.99585,0.038077,-0.045503,-0.005348,63.715576,22.847977,-148.573822,,,
729608208.987745,1.094501,0.439261,56.882397,-0.0168,0.020859,0.999115,0.040862,-0.033792,0.001415,63.715576,22.847977,-148.573822,,,
729608208.990991,1.106672,0.429805,56.8829,-0.0168,0.020859,0.999115,0.040862,-0.033792,0.001415,63.462509,22.938553,-148.852066,,,
729608208.994347,1.106672,0.429805,56.8829,-0.0168,0.020859,0.999115,0.040862,-0.033792,0.001415,63.462509,22.938553,-148.852066,,,
729608208.997696,1.122234,0.423184,56.884569,-0.015289,0.023224,1.007156,0.049608,-0.005439,0.00522,63.462509,22.938553,-148.852066,,,
729608209.000996,1.136277,0.421811,56.887301,-0.015289,0.023224,1.007156,0.049608,-0.005439,0.00522,63.462509,22.938553,-148.852066,,,
729608209.004338,1.136277,0.421811,56.887301,-0.015289,0.023224,1.007156,0.049608,-0.005439,0.00522,63.462509,22.938553,-148.852066,,,
729608209.007694,1.151522,0.42355,56.890734,-0.009018,0.02179,1.007797,0.048651,0.025863,0.012695,63.462509,22.938553,-148.852066,,,
729608209.011006,1.165645,0.431249,56.894886,-0.009018,0.02179,1.007797,0.048651,0.025863,0.012695,63.462509,22.938553,-148.852066,,,
729608209.014335,1.165645,0.431249,56.894886,-0.009018,0.02179,1.007797,0.048651,0.025863,0.012695,63.462509,22.938553,-148.852066,,,
729608209.01769,1.181458,0.442886,56.899373,-0.008377,0.018631,1.006989,0.050653,0.053743,0.014874,63.462509,22.938553,-148.852066,,,
729608209.021005,1.19553,0.457825,56.904195,-0.008377,0.018631,1.006989,0.050653,0.053743,0.014874,63.462509,22.938553,-148.852066,,,
729608209.024351,1.19553,0.457825,56.904195,-0.008377,0.018631,1.006989,0.050653,0.053743,0.014874,63.462509,22.938553,-148.852066,,,
729608209.027756,1.210574,0.473911,56.909944,-0.011658,0.022278,0.999359,0.043136,0.059529,0.021838,63.462509,22.938553,-148.852066,,,
729608209.031007,1.222049,0.489083,56.917381,-0.011658,0.022278,0.999359,0.043136,0.059529,0.021838,63.462509,22.938553,-148.852066,,,
729608209.034363,1.222049,0.489083,56.917381,-0.011658,0.022278,0.999359,0.043136,0.059529,0.021838,63.774307,22.608719,-148.628052,,,
729608209.037756,1.234376,0.503198,56.926157,-0.020416,0.022934,0.986542,0.027412,0.042548,0.033613,63.774307,22.608719,-148.628052,,,
729608209.040999,1.241896,0.512773,56.93573,-0.020416,0.022934,0.986542,0.027412,0.042548,0.033613,63.774307,22.608719,-148.628052,,,
729608209.04435,1.241896,0.512773,56.93573,-0.020416,0.022934,0.986542,0.027412,0.042548,0.033613,63.774307,22.608719,-148.628052,,,
729608209.047685,1.248555,0.519514,56.945217,-0.024124,0.025238,0.980972,0.011481,0.008876,0.030133,63.774307,22.608719,-148.628052,,,
729608209.051006,1.251115,0.519113,56.953671,-0.024124,0.025238,0.980972,0.011481,0.008876,0.030133,63.774307,22.608719,-148.628052,,,
729608209.054387,1.251115,0.519113,56.953671,-0.024124,0.025238,0.980972,0.011481,0.008876,0.030133,63.774307,22.608719,-148.628052,,,
729608209.057669,1.251776,0.516528,56.961211,-0.023209,0.025711,0.976151,0.000665,-0.022688,0.022532,63.774307,22.608719,-148.628052,,,
729608209.061048,1.252021,0.50851,56.968133,-0.023209,0.025711,0.976151,0.000665,-0.022688,0.022532,63.774307,22.608719,-148.628052,,,
729608209.064332,1.252021,0.50851,56.968133,-0.023209,0.025711,0.976151,0.000665,-0.022688,0.022532,63.774307,22.608719,-148.628052,,,
729608209.067751,1.251475,0.501346,56.975358,-0.023148,0.021042,0.983871,-0.00179,-0.027422,0.025804,63.774307,22.608719,-148.628052,,,
729608209.070996,1.251236,0.491689,56.984477,-0.023148,0.021042,0.983871,-0.00179,-0.027422,0.025804,63.774307,22.608719,-148.628052,,,
729608209.074334,1.251236,0.491689,56.984477,-0.023148,0.021042,0.983871,-0.00179,-0.027422,0.025804,63.712692,22.661911,-148.814575,,,
729608209.077691,1.25189,0.48399,56.995649,-0.021561,0.016037,0.992996,0.004326,-0.028993,0.044225,63.712692,22.661911,-148.814575,,,
729608209.081002,1.252719,0.474751,57.008512,-0.021561,0.016037,0.992996,0.004326,-0.028993,0.044225,63.712692,22.661911,-148.814575,,,
729608209.084354,1.252719,0.474751,57.008512,-0.021561,0.016037,0.992996,0.004326,-0.028993,0.044225,63.712692,22.661911,-148.814575,,,
729608209.087689,1.254213,0.466652,57.022462,-0.015915,0.012711,0.994186,0.007893,-0.020005,0.04679,63.712692,22.661911,-148.814575,,,
729608209.09101,1.255797,0.45974,57.036817,-0.015915,0.012711,0.994186,0.007893,-0.020005,0.04679,63.712692,22.661911,-148.814575,,,
729608209.094434,1.255797,0.45974,57.036817,-0.015915,0.012711,0.994186,0.007893,-0.020005,0.04679,63.712692,22.661911,-148.814575,,,
729608209.097691,1.254792,0.455049,57.050229,-0.004578,0.017883,0.990433,-0.008407,-0.008139,0.039118,63.712692,22.661911,-148.814575,,,
729608209.10101,1.251807,0.452176,57.062424,-0.004578,0.017883,0.990433,-0.008407,-0.008139,0.039118,63.712692,22.661911,-148.814575,,,
729608209.104358,1.251807,0.452176,57.062424,-0.004578,0.017883,0.990433,-0.008407,-0.008139,0.039118,63.712692,22.661911,-148.814575,,,
729608209.107744,1.246745,0.451465,57.073315,-0.002411,0.026108,0.988297,-0.019303,0.005142,0.030522,63.712692,22.661911,-148.814575,,,
729608209.111002,1.241109,0.452433,57.083266,-0.002411,0.026108,0.988297,-0.019303,0.005142,0.030522,63.712692,22.661911,-148.814575,,,
729608209.114339,1.241109,0.452433,57.083266,-0.002411,0.026108,0.988297,-0.019303,0.005142,0.030522,63.704208,22.708527,-148.41333,,,
729608209.117688,1.235485,0.45697,57.092894,-0.003738,0.02536,0.996002,-0.01912,0.013928,0.031649,63.704208,22.708527,-148.41333,,,
729608209.120999,1.229371,0.46047,57.102292,-0.003738,0.02536,0.996002,-0.01912,0.013928,0.031649,63.704208,22.708527,-148.41333,,,
729608209.124354,1.229371,0.46047,57.102292,-0.003738,0.02536,0.996002,-0.01912,0.013928,0.031649,63.704208,22.708527,-148.41333,,,
729608209.127686,1.223597,0.468642,57.112052,-0.00322,0.014542,0.997131,-0.022122,0.023603,0.033386,63.704208,22.708527,-148.41333,,,
729608209.131004,1.217184,0.473599,57.122251,-0.00322,0.014542,0.997131,-0.022122,0.023603,0.033386,63.704208,22.708527,-148.41333,,,
729608209.13442,1.217184,0.473599,57.122251,-0.00322,0.014542,0.997131,-0.022122,0.023603,0.033386,63.704208,22.708527,-148.41333,,,
729608209.137678,1.211697,0.482116,57.132705,-0.004761,0.008469,0.995621,-0.024286,0.018656,0.035955,63.704208,22.708527,-148.41333,,,
729608209.14101,1.2039,0.486723,57.143484,-0.004761,0.008469,0.995621,-0.024286,0.018656,0.035955,63.704208,22.708527,-148.41333,,,
729608209.14435,1.2039,0.486723,57.143484,-0.004761,0.008469,0.995621,-0.024286,0.018656,0.035955,63.704208,22.708527,-148.41333,,,
729608209.147741,1.194832,0.49333,57.15421,-0.003052,0.015228,0.993271,-0.03849,0.014149,0.037154,63.704208,22.708527,-148.41333,,,
729608209.151001,1.183941,0.495417,57.164978,-0.003052,0.015228,0.993271,-0.03849,0.014149,0.037154,63.704208,22.708527,-148.41333,,,
729608209.154343,1.183941,0.495417,57.164978,-0.003052,0.015228,0.993271,-0.03849,0.014149,0.037154,63.666016,22.726257,-148.78746,,,
729608209.157676,1.1709,0.499719,57.174754,-0.004684,0.021179,0.984955,-0.047095,0.004354,0.029639,63.666016,22.726257,-148.78746,,,
729608209.16101,1.156709,0.499519,57.183575,-0.004684,0.021179,0.984955,-0.047095,0.004354,0.029639,63.666016,22.726257,-148.78746,,,
729608209.164337,1.156709,0.499519,57.183575,-0.004684,0.021179,0.984955,-0.047095,0.004354,0.029639,63.666016,22.726257,-148.78746,,,
729608209.167698,1.140368,0.499437,57.191746,-0.001984,0.023193,0.98288,-0.058846,-0.007002,0.024619,63.666016,22.726257,-148.78746,,,
729608209.171055,1.123868,0.495656,57.199043,-0.001984,0.023193,0.98288,-0.058846,-0.007002,0.024619,63.666016,22.726257,-148.78746,,,
729608209.174331,1.123868,0.495656,57.199043,-0.001984,0.023193,0.98288,-0.058846,-0.007002,0.024619,63.666016,22.726257,-148.78746,,,
729608209.177693,1.105301,0.491018,57.205105,0.001801,0.020065,0.985031,-0.058433,-0.01736,0.014348,63.666016,22.726257,-148.78746,,,
729608209.181005,1.08768,0.485368,57.209649,0.001801,0.020065,0.985031,-0.058433,-0.01736,0.014348,63.666016,22.726257,-148.78746,,,
729608209.184412,1.08768,0.485368,57.209649,0.001801,0.020065,0.985031,-0.058433,-0.01736,0.014348,63.666016,22.726257,-148.78746,,,
729608209.187668,1.071737,0.476992,57.212237,0.00145,0.021896,0.991653,-0.053265,-0.022726,0.004434,63.666016,22.726257,-148.78746,,,
729608209.19101,1.055811,0.469134,57.213161,0.00145,0.021896,0.991653,-0.053265,-0.022726,0.004434,63.666016,22.726257,-148.78746,,,
729608209.194351,1.055811,0.469134,57.213161,0.00145,0.021896,0.991653,-0.053265,-0.022726,0.004434,63.666016,22.726257,-148.78746,,,
729608209.197751,1.042618,0.460195,57.212739,0.000412,0.02179,0.996246,-0.046866,-0.025783,-0.006807,63.823364,22.922012,-149.038986,,,
729608209.201001,1.029615,0.451966,57.210441,0.000412,0.02179,0.996246,-0.046866,-0.025783,-0.006807,63.823364,22.922012,-149.038986,,,
729608209.20446,1.029615,0.451966,57.210441,0.000412,0.02179,0.996246,-0.046866,-0.025783,-0.006807,63.823364,22.922012,-149.038986,,,
729608209.207685,1.018536,0.443272,57.207216,0.001923,0.018723,1.000031,-0.035022,-0.019127,-0.014296,63.823364,22.922012,-149.038986,,,
729608209.211005,1.009484,0.437427,57.203973,0.001923,0.018723,1.000031,-0.035022,-0.019127,-0.014296,63.823364,22.922012,-149.038986,,,
729608209.214352,1.009484,0.437427,57.203973,0.001923,0.018723,1.000031,-0.035022,-0.019127,-0.014296,63.823364,22.922012,-149.038986,,,
729608209.217681,1.000714,0.433947,57.200572,0.004456,0.016174,1.004929,-0.01826,0.004572,-0.016217,63.823364,22.922012,-149.038986,,,
729608209.221012,0.995613,0.434694,57.196795,0.004456,0.016174,1.004929,-0.01826,0.004572,-0.016217,63.823364,22.922012,-149.038986,,,
729608209.224406,0.995613,0.434694,57.196795,0.004456,0.016174,1.004929,-0.01826,0.004572,-0.016217,63.823364,22.922012,-149.038986,,,
729608209.227676,0.991827,0.437982,57.192121,0.005066,0.01239,1.011322,-0.001988,0.02709,-0.019968,63.823364,22.922012,-149.038986,,,
729608209.231008,0.99132,0.445481,57.186206,0.005066,0.01239,1.011322,-0.001988,0.02709,-0.019968,63.823364,22.922012,-149.038986,,,
729608209.234348,0.99132,0.445481,57.186206,0.005066,0.01239,1.011322,-0.001988,0.02709,-0.019968,63.823364,22.922012,-149.038986,,,
729608209.237731,0.993127,0.455285,57.178933,0.003616,0.013535,1.013321,0.008816,0.045016,-0.027605,63.798294,23.009827,-148.915512,,,
729608209.240993,0.995505,0.467478,57.17056,0.003616,0.013535,1.013321,0.008816,0.045016,-0.027605,63.798294,23.009827,-148.915512,,,
729608209.244419,0.995505,0.467478,57.17056,0.003616,0.013535,1.013321,0.008816,0.045016,-0.027605,63.798294,23.009827,-148.915512,,,
729608209.247696,0.999548,0.47948,57.16107,0.002335,0.013596,1.005905,0.010229,0.050794,-0.037017,63.798294,23.009827,-148.915512,,,
729608209.250999,1.002688,0.493664,57.150194,0.002335,0.013596,1.005905,0.010229,0.050794,-0.037017,63.798294,23.009827,-148.915512,,,
729608209.254356,1.002688,0.493664,57.150194,0.002335,0.013596,1.005905,0.010229,0.050794,-0.037017,63.798294,23.009827,-148.915512,,,
729608209.257677,1.006456,0.507168,57.137913,-0.004089,0.0121,1.004959,0.011919,0.05754,-0.047328,63.798294,23.009827,-148.915512,,,
729608209.261,1.009615,0.522627,57.124718,-0.004089,0.0121,1.004959,0.011919,0.05754,-0.047328,63.798294,23.009827,-148.915512,,,
729608209.264422,1.009615,0.522627,57.124718,-0.004089,0.0121,1.004959,0.011919,0.05754,-0.047328,63.798294,23.009827,-148.915512,,,
729608209.267682,1.013875,0.534153,57.111419,-0.006729,0.009399,1.004364,0.015328,0.044185,-0.048606,63.798294,23.009827,-148.915512,,,
729608209.271009,1.017808,0.545253,57.098285,-0.006729,0.009399,1.004364,0.015328,0.044185,-0.048606,63.798294,23.009827,-148.915512,,,
729608209.274362,1.017808,0.545253,57.098285,-0.006729,0.009399,1.004364,0.015328,0.044185,-0.048606,63.798294,23.009827,-148.915512,,,
729608209.277678,1.022788,0.550995,57.085788,-0.012772,0.005981,0.999161,0.020516,0.021345,-0.045022,63.832535,23.024536,-148.921997,,,
729608209.281008,1.027806,0.555438,57.073507,-0.012772,0.005981,0.999161,0.020516,0.021345,-0.045022,63.832535,23.024536,-148.921997,,,
729608209.284353,1.027806,0.555438,57.073507,-0.012772,0.005981,0.999161,0.020516,0.021345,-0.045022,63.832535,23.024536,-148.921997,,,
729608209.287754,1.034989,0.554034,57.061116,-0.009064,0.005966,0.999466,0.031373,-0.003557,-0.044487,63.832535,23.024536,-148.921997,,,
729608209.290991,1.043277,0.551939,57.048446,-0.009064,0.005966,0.999466,0.031373,-0.003557,-0.044487,63.832535,23.024536,-148.921997,,,
729608209.294417,1.043277,0.551939,57.048446,-0.009064,0.005966,0.999466,0.031373,-0.003557,-0.044487,63.832535,23.024536,-148.921997,,,
729608209.297682,1.053298,0.543341,57.035952,-0.002609,0.009796,1.000534,0.043687,-0.023581,-0.043356,63.832535,23.024536,-148.921997,,,
729608209.301003,1.066185,0.535062,57.023698,-0.002609,0.009796,1.000534,0.043687,-0.023581,-0.043356,63.832535,23.024536,-148.921997,,,
729608209.304349,1.066185,0.535062,57.023698,-0.002609,0.009796,1.000534,0.043687,-0.023581,-0.043356,63.832535,23.024536,-148.921997,,,
729608209.307682,1.080147,0.523717,57.01133,0.000534,0.012589,1.005356,0.053662,-0.021628,-0.045417,63.832535,23.024536,-148.921997,,,
729608209.311049,1.095821,0.517669,56.998054,0.000534,0.012589,1.005356,0.053662,-0.021628,-0.045417,63.832535,23.024536,-148.921997,,,
729608209.31444,1.095821,0.517669,56.998054,0.000534,0.012589,1.005356,0.053662,-0.021628,-0.045417,63.832535,23.024536,-148.921997,,,
729608209.317733,1.110015,0.511546,56.984908,0.001404,0.016724,1.011688,0.053054,-0.003024,-0.047736,63.837448,22.937134,-149.055664,,,
729608209.321002,1.124268,0.510443,56.972324,0.001404,0.016724,1.011688,0.053054,-0.003024,-0.047736,63.837448,22.937134,-149.055664,,,
729608209.324362,1.124268,0.510443,56.972324,0.001404,0.016724,1.011688,0.053054,-0.003024,-0.047736,63.837448,22.937134,-149.055664,,,
729608209.327752,1.135551,0.51055,56.959878,0.001083,0.02182,1.007736,0.04258,0.027273,-0.042269,63.837448,22.937134,-149.055664,,,
729608209.330997,1.146577,0.518899,56.947903,0.001083,0.02182,1.007736,0.04258,0.027273,-0.042269,63.837448,22.937134,-149.055664,,,
729608209.334362,1.146577,0.518899,56.947903,0.001083,0.02182,1.007736,0.04258,0.027273,-0.042269,63.837448,22.937134,-149.055664,,,
729608209.33769,1.154579,0.530389,56.93621,-0.002548,0.03009,1.00972,0.02691,0.059206,-0.041681,63.837448,22.937134,-149.055664,,,
729608209.341003,1.162036,0.54637,56.925242,-0.002548,0.03009,1.00972,0.02691,0.059206,-0.041681,63.837448,22.937134,-149.055664,,,
729608209.344362,1.162036,0.54637,56.925242,-0.002548,0.03009,1.00972,0.02691,0.059206,-0.041681,63.837448,22.937134,-149.055664,,,
729608209.347706,1.166226,0.563406,56.915644,-0.006973,0.035049,0.998978,0.019869,0.067426,-0.034719,63.837448,22.937134,-149.055664,,,
729608209.351001,1.171,0.582043,56.906011,-0.006973,0.035049,0.998978,0.019869,0.067426,-0.034719,63.837448,22.937134,-149.055664,,,
729608209.354416,1.171,0.582043,56.906011,-0.006973,0.035049,0.998978,0.019869,0.067426,-0.034719,63.837448,22.937134,-149.055664,,,
729608209.357699,1.173298,0.60022,56.895413,-0.010147,0.035156,0.995743,0.021049,0.062969,-0.038985,63.837448,22.937134,-149.055664,,,
729608209.361042,1.178941,0.616139,56.884103,-0.010147,0.035156,0.995743,0.021049,0.062969,-0.038985,63.972778,22.771774,-149.216934,,,
729608209.364348,1.178941,0.616139,56.884103,-0.010147,0.035156,0.995743,0.021049,0.062969,-0.038985,63.972778,22.771774,-149.216934,,,
729608209.367731,1.183485,0.627307,56.872322,-0.014969,0.032745,0.993317,0.028953,0.025699,-0.042669,63.972778,22.771774,-149.216934,,,
729608209.371052,1.192046,0.632815,56.860283,-0.014969,0.032745,0.993317,0.028953,0.025699,-0.042669,63.972778,22.771774,-149.216934,,,
729608209.374388,1.192046,0.632815,56.860283,-0.014969,0.032745,0.993317,0.028953,0.025699,-0.042669,63.972778,22.771774,-149.216934,,,
729608209.377677,1.198044,0.632688,56.849162,-0.021744,0.025879,0.987595,0.029508,-0.004552,-0.036636,63.972778,22.771774,-149.216934,,,
729608209.381096,1.205515,0.630488,56.839668,-0.021744,0.025879,0.987595,0.029508,-0.004552,-0.036636,63.972778,22.771774,-149.216934,,,
729608209.384355,1.205515,0.630488,56.839668,-0.021744,0.025879,0.987595,0.029508,-0.004552,-0.036636,63.972778,22.771774,-149.216934,,,
729608209.38768,1.209902,0.623333,56.831541,-0.027664,0.026123,0.982178,0.018201,-0.017926,-0.025391,63.972778,22.771774,-149.216934,,,
729608209.391056,1.214464,0.61612,56.824369,-0.027664,0.026123,0.982178,0.018201,-0.017926,-0.025391,63.972778,22.771774,-149.216934,,,
729608209.394349,1.214464,0.61612,56.824369,-0.027664,0.026123,0.982178,0.018201,-0.017926,-0.025391,63.972778,22.771774,-149.216934,,,
729608209.397698,1.215715,0.604485,56.818621,-0.023926,0.031067,0.980698,0.005913,-0.031364,-0.019858,63.972778,22.771774,-149.216934,,,
729608209.401034,1.216634,0.595269,56.813752,-0.023926,0.031067,0.980698,0.005913,-0.031364,-0.019858,64.029434,22.676651,-148.606918,,,
729608209.4044,1.216634,0.595269,56.813752,-0.023926,0.031067,0.980698,0.005913,-0.031364,-0.019858,64.029434,22.676651,-148.606918,,,
729608209.407691,1.216311,0.584918,56.809661,-0.022232,0.031631,0.986206,-0.000279,-0.021359,-0.013624,64.029434,22.676651,-148.606918,,,
729608209.411067,1.215404,0.578214,56.80657,-0.022232,0.031631,0.986206,-0.000279,-0.021359,-0.013624,64.029434,22.676651,-148.606918,,,
729608209.414339,1.215404,0.578214,56.80657,-0.022232,0.031631,0.986206,-0.000279,-0.021359,-0.013624,64.029434,22.676651,-148.606918,,,
729608209.417671,1.214204,0.571766,56.803884,-0.02063,0.02774,0.996902,-0.010922,-0.00544,-0.009166,64.029434,22.676651,-148.606918,,,
729608209.421072,1.210872,0.570682,56.801516,-0.02063,0.02774,0.996902,-0.010922,-0.00544,-0.009166,64.029434,22.676651,-148.606918,,,
729608209.424346,1.210872,0.570682,56.801516,-0.02063,0.02774,0.996902,-0.010922,-0.00544,-0.009166,64.029434,22.676651,-148.606918,,,
729608209.42774,1.209192,0.571178,56.799815,-0.021133,0.025452,0.995956,-0.01515,0.01357,-0.003417,64.029434,22.676651,-148.606918,,,
729608209.431023,1.204256,0.575001,56.799363,-0.021133,0.025452,0.995956,-0.01515,0.01357,-0.003417,64.029434,22.676651,-148.606918,,,
729608209.434358,1.204256,0.575001,56.799363,-0.021133,0.025452,0.995956,-0.01515,0.01357,-0.003417,64.029434,22.676651,-148.606918,,,
729608209.437679,1.201849,0.579515,56.800211,-0.024963,0.024475,0.998932,-0.020312,0.017764,0.004361,64.029434,22.676651,-148.606918,,,
729608209.441038,1.195854,0.584796,56.801642,-0.024963,0.024475,0.998932,-0.020312,0.017764,0.004361,64.106445,22.72139,-148.962616,,,
729608209.444352,1.195854,0.584796,56.801642,-0.024963,0.024475,0.998932,-0.020312,0.017764,0.004361,64.106445,22.72139,-148.962616,,,
729608209.447719,1.191476,0.590764,56.803736,-0.024933,0.022797,0.9935,-0.025783,0.01697,0.008862,64.106445,22.72139,-148.962616,,,
729608209.45103,1.183552,0.594861,56.806601,-0.024933,0.022797,0.9935,-0.025783,0.01697,0.008862,64.106445,22.72139,-148.962616,,,
729608209.454413,1.183552,0.594861,56.806601,-0.024933,0.022797,0.9935,-0.025783,0.01697,0.008862,64.106445,22.72139,-148.962616,,,
729608209.457684,1.176747,0.598137,56.810359,-0.025406,0.023132,0.988632,-0.027313,-0.000974,0.012465,64.106445,22.72139,-148.962616,,,
729608209.4611,1.168378,0.596386,56.815148,-0.025406,0.023132,0.988632,-0.027313,-0.000974,0.012465,64.106445,22.72139,-148.962616,,,
729608209.464337,1.168378,0.596386,56.815148,-0.025406,0.023132,0.988632,-0.027313,-0.000974,0.012465,64.106445,22.72139,-148.962616,,,
729608209.467747,1.160739,0.595572,56.820382,-0.02536,0.022003,0.98204,-0.029636,-0.017316,0.017166,64.106445,22.72139,-148.962616,,,
729608209.471049,1.152928,0.589482,56.82659,-0.02536,0.022003,0.98204,-0.029636,-0.017316,0.017166,64.106445,22.72139,-148.962616,,,
729608209.474339,1.152928,0.589482,56.82659,-0.02536,0.022003,0.98204,-0.029636,-0.017316,0.017166,64.106445,22.72139,-148.962616,,,
729608209.47768,1.147945,0.585379,56.833721,-0.021957,0.022903,0.987015,-0.021797,-0.021996,0.022674,64.106445,22.72139,-148.962616,,,
729608209.481009,1.147945,0.585379,56.833721,-0.021957,0.022903,0.987015,-0.021797,-0.021996,0.022674,64.106445,22.72139,-148.962616,,,
729608209.484366,1.142197,0.577683,56.841448,-0.021957,0.022903,0.987015,-0.021797,-0.021996,0.022674,63.934372,22.891327,-148.410706,,,
729608209.487685,1.140343,0.572799,56.849595,-0.018082,0.020355,0.993088,-0.00943,-0.024204,0.031418,63.934372,22.891327,-148.410706,,,
729608209.491048,1.136739,0.565398,56.858478,-0.018082,0.020355,0.993088,-0.00943,-0.024204,0.031418,63.934372,22.891327,-148.410706,,,
729608209.494398,1.136739,0.565398,56.858478,-0.018082,0.020355,0.993088,-0.00943,-0.024204,0.031418,63.934372,22.891327,-148.410706,,,
729608209.497678,1.135281,0.561631,56.867581,-0.013855,0.017609,0.993607,-0.013157,-0.015084,0.0304,63.934372,22.891327,-148.410706,,,
729608209.501033,1.131216,0.557186,56.876872,-0.013855,0.017609,0.993607,-0.013157,-0.015084,0.0304,63.934372,22.891327,-148.410706,,,
729608209.504341,1.131216,0.557186,56.876872,-0.013855,0.017609,0.993607,-0.013157,-0.015084,0.0304,63.934372,22.891327,-148.410706,,,
729608209.507753,1.126299,0.557085,56.886698,-0.009018,0.01944,0.9888,-0.026724,0.001647,0.032264,63.934372,22.891327,-148.410706,,,
729608209.51104,1.126299,0.556166,56.896616,-0.009018,0.01944,0.9888,-0.026724,0.001647,0.032264,63.934372,22.891327,-148.410706,,,
729608209.514394,1.118271,0.556166,56.896616,-0.009018,0.01944,0.9888,-0.026724,0.001647,0.032264,63.934372,22.891327,-148.410706,,,
729608209.517686,1.109403,0.559298,56.906503,-0.006744,0.023514,0.986679,-0.036907,0.007604,0.030303,63.934372,22.891327,-148.410706,,,
729608209.521098,1.098226,0.560273,56.916644,-0.006744,0.023514,0.986679,-0.036907,0.007604,0.030303,63.934372,22.891327,-148.410706,,,
729608209.524341,1.098226,0.560273,56.916644,-0.006744,0.023514,0.986679,-0.036907,0.007604,0.030303,63.905533,23.03717,-149.051178,,,
729608209.527678,1.087157,0.564843,56.925577,-0.003113,0.022125,0.987244,-0.041791,0.010284,0.026141,63.905533,23.03717,-149.051178,,,
729608209.531011,1.087157,0.564843,56.925577,-0.003113,0.022125,0.987244,-0.041791,0.010284,0.026141,63.905533,23.03717,-149.051178,,,
729608209.534381,1.074925,0.566243,56.933258,-0.003113,0.022125,0.987244,-0.041791,0.010284,0.026141,63.905533,23.03717,-149.051178,,,
729608209.537671,1.063824,0.571594,56.940484,-0.000656,0.019394,0.988113,-0.037928,0.00848,0.023472,63.905533,23.03717,-149.051178,,,
729608209.541021,1.063824,0.571594,56.940484,-0.000656,0.019394,0.988113,-0.037928,0.00848,0.023472,63.905533,23.03717,-149.051178,,,
729608209.544345,1.053204,0.573714,56.946993,-0.000656,0.019394,0.988113,-0.037928,0.00848,0.023472,63.905533,23.03717,-149.051178,,,
729608209.547714,1.04506,0.57989,56.952452,0.000946,0.017029,0.994843,-0.025469,0.014505,0.018007,63.905533,23.03717,-149.051178,,,
729608209.551,1.04506,0.57989,56.952452,0.000946,0.017029,0.994843,-0.025469,0.014505,0.018007,63.905533,23.03717,-149.051178,,,
729608209.554354,1.03837,0.583548,56.958113,0.000946,0.017029,0.994843,-0.025469,0.014505,0.018007,63.905533,23.03717,-149.051178,,,
729608209.557671,1.0353,0.591154,56.96373,-0.000687,0.011444,1.003357,-0.004367,0.022542,0.018156,63.905533,23.03717,-149.051178,,,
729608209.561081,1.0353,0.591154,56.96373,-0.000687,0.011444,1.003357,-0.004367,0.022542,0.018156,63.905533,23.03717,-149.051178,,,
729608209.564408,1.035177,0.597073,56.969062,-0.000687,0.011444,1.003357,-0.004367,0.022542,0.018156,63.961609,23.100082,-148.893372,,,
729608209.567679,1.038832,0.60482,56.974377,-0.007355,0.005768,1.011765,0.014732,0.021392,0.014446,63.961609,23.100082,-148.893372,,,
729608209.571025,1.038832,0.60482,56.974377,-0.007355,0.005768,1.011765,0.014732,0.021392,0.014446,63.961609,23.100082,-148.893372,,,
729608209.574405,1.043515,0.609805,56.979078,-0.007355,0.005768,1.011765,0.014732,0.021392,0.014446,63.961609,23.100082,-148.893372,,,
729608209.577665,1.049791,0.614038,56.982785,-0.006668,0.008163,1.007324,0.025294,0.01177,0.008369,63.961609,23.100082,-148.893372,,,
729608209.581021,1.049791,0.614038,56.982785,-0.006668,0.008163,1.007324,0.025294,0.01177,0.008369,63.961609,23.100082,-148.893372,,,
729608209.584387,1.056952,0.615847,56.985337,-0.006668,0.008163,1.007324,0.025294,0.01177,0.008369,63.961609,23.100082,-148.893372,,,
729608209.587665,1.064156,0.616951,56.986819,-0.005966,0.014786,0.998611,0.021698,0.003694,0.004779,63.961609,23.100082,-148.893372,,,
729608209.591017,1.064156,0.616951,56.986819,-0.005966,0.014786,0.998611,0.021698,0.003694,0.004779,63.961609,23.100082,-148.893372,,,
729608209.594333,1.070445,0.617523,56.987623,-0.005966,0.014786,0.998611,0.021698,0.003694,0.004779,63.961609,23.100082,-148.893372,,,
729608209.597671,1.076438,0.617953,56.988436,-0.007126,0.019196,0.999939,0.016512,0.010401,0.002035,63.961609,23.100082,-148.893372,,,
729608209.601012,1.076438,0.617953,56.988436,-0.007126,0.019196,0.999939,0.016512,0.010401,0.002035,63.961609,23.100082,-148.893372,,,
729608209.604333,1.081298,0.620362,56.989553,-0.007126,0.019196,0.999939,0.016512,0.010401,0.002035,63.907913,23.062668,-148.813171,,,
729608209.607671,1.086057,0.623422,56.990901,-0.007095,0.018707,1.00061,0.011615,0.02495,0.002123,63.907913,23.062668,-148.813171,,,
729608209.61108,1.086057,0.623422,56.990901,-0.007095,0.018707,1.00061,0.011615,0.02495,0.002123,63.907913,23.062668,-148.813171,,,
729608209.614346,1.089931,0.630761,56.992707,-0.007095,0.018707,1.00061,0.011615,0.02495,0.002123,63.907913,23.062668,-148.813171,,,
729608209.617681,1.095241,0.638584,56.994954,-0.004745,0.013458,1.006851,0.022237,0.042331,0.006429,63.907913,23.062668,-148.813171,,,
729608209.621024,1.095241,0.638584,56.994954,-0.004745,0.013458,1.006851,0.022237,0.042331,0.006429,63.907913,23.062668,-148.813171,,,
729608209.624339,1.101608,0.650886,56.996893,-0.004745,0.013458,1.006851,0.022237,0.042331,0.006429,63.907913,23.062668,-148.813171,,,
729608209.627673,1.109724,0.663244,56.99857,-0.003967,0.011322,1.009949,0.033356,0.061138,0.00449,63.907913,23.062668,-148.813171,,,
729608209.631013,1.109724,0.663244,56.99857,-0.003967,0.011322,1.009949,0.033356,0.061138,0.00449,63.907913,23.062668,-148.813171,,,
729608209.634469,1.119048,0.679988,57.000448,-0.003967,0.011322,1.009949,0.033356,0.061138,0.00449,63.907913,23.062668,-148.813171,,,
729608209.637659,1.127562,0.694244,57.002609,-0.006332,0.014633,1.008011,0.032434,0.062042,0.005481,63.907913,23.062668,-148.813171,,,
729608209.641018,1.127562,0.694244,57.002609,-0.006332,0.014633,1.008011,0.032434,0.062042,0.005481,63.907913,23.062668,-148.813171,,,
729608209.64442,1.136833,0.710167,57.004249,-0.006332,0.014633,1.008011,0.032434,0.062042,0.005481,63.907913,23.062668,-148.813171,,,
729608209.647696,1.142678,0.723135,57.004781,-0.008591,0.021149,0.995407,0.026099,0.049915,-0.000695,63.943268,22.83226,-148.788788,,,
729608209.651019,1.142678,0.723135,57.004781,-0.008591,0.021149,0.995407,0.026099,0.049915,-0.000695,63.943268,22.83226,-148.788788,,,
729608209.654364,1.14904,0.736366,57.004501,-0.008591,0.021149,0.995407,0.026099,0.049915,-0.000695,63.943268,22.83226,-148.788788,,,
729608209.657682,1.150938,0.745975,57.003737,-0.010178,0.025253,0.990417,0.012905,0.033031,-0.004132,63.943268,22.83226,-148.788788,,,
729608209.661002,1.150938,0.745975,57.003737,-0.010178,0.025253,0.990417,0.012905,0.033031,-0.004132,63.943268,22.83226,-148.788788,,,
729608209.66436,1.153965,0.754192,57.002607,-0.010178,0.025253,0.990417,0.012905,0.033031,-0.004132,63.943268,22.83226,-148.788788,,,
729608209.667678,1.154399,0.757068,57.002101,-0.013367,0.022934,0.989014,0.005603,0.00809,-0.002823,63.943268,22.83226,-148.788788,,,
729608209.671037,1.154399,0.757068,57.002101,-0.013367,0.022934,0.989014,0.005603,0.00809,-0.002823,63.943268,22.83226,-148.788788,,,
729608209.674343,1.155445,0.757902,57.002393,-0.013367,0.022934,0.989014,0.005603,0.00809,-0.002823,63.943268,22.83226,-148.788788,,,
729608209.677678,1.15501,0.754992,57.002843,-0.016541,0.019424,0.991013,-0.003898,-0.001699,-0.000512,63.943268,22.83226,-148.788788,,,
729608209.681018,1.15501,0.754992,57.002843,-0.016541,0.019424,0.991013,-0.003898,-0.001699,-0.000512,63.943268,22.83226,-148.788788,,,
729608209.6844,1.153291,0.75278,57.002987,-0.016541,0.019424,0.991013,-0.003898,-0.001699,-0.000512,63.943268,22.83226,-148.788788,,,
729608209.687671,1.148943,0.749979,57.003189,-0.014511,0.019455,0.994675,-0.01626,-0.000335,-0.001936,63.878891,22.695648,-148.451065,,,
729608209.691032,1.148943,0.749979,57.003189,-0.014511,0.019455,0.994675,-0.01626,-0.000335,-0.001936,63.878891,22.695648,-148.451065,,,
729608209.694345,1.143112,0.750001,57.003609,-0.014511,0.019455,0.994675,-0.01626,-0.000335,-0.001936,63.878891,22.695648,-148.451065,,,
729608209.69767,1.134697,0.750992,57.004711,-0.012665,0.022415,0.998795,-0.032139,0.017232,0.002452,63.878891,22.695648,-148.451065,,,
729608209.701018,1.134697,0.750992,57.004711,-0.012665,0.022415,0.998795,-0.032139,0.017232,0.002452,63.878891,22.695648,-148.451065,,,
729608209.704356,1.125017,0.756481,57.005964,-0.012665,0.022415,0.998795,-0.032139,0.017232,0.002452,63.878891,22.695648,-148.451065,,,
729608209.707676,1.112458,0.762193,57.007215,-0.013123,0.022705,0.999344,-0.036381,0.034096,0.003809,63.878891,22.695648,-148.451065,,,
729608209.711006,1.112458,0.762193,57.007215,-0.013123,0.022705,0.999344,-0.036381,0.034096,0.003809,63.878891,22.695648,-148.451065,,,
729608209.71437,1.101419,0.771579,57.008619,-0.013123,0.022705,0.999344,-0.036381,0.034096,0.003809,63.878891,22.695648,-148.451065,,,
729608209.71767,1.09074,0.779848,57.010359,-0.016586,0.015686,1.003494,-0.026801,0.03743,0.006181,63.878891,22.695648,-148.451065,,,
729608209.721025,1.09074,0.779848,57.010359,-0.016586,0.015686,1.003494,-0.026801,0.03743,0.006181,63.878891,22.695648,-148.451065,,,
729608209.724444,1.083033,0.789236,57.013035,-0.016586,0.015686,1.003494,-0.026801,0.03743,0.006181,63.878891,22.695648,-148.451065,,,
729608209.727678,1.076505,0.796472,57.017139,-0.025177,0.007629,1.005646,-0.020282,0.030726,0.016107,63.96727,22.682739,-148.774551,,,
729608209.731025,1.076505,0.796472,57.017139,-0.025177,0.007629,1.005646,-0.020282,0.030726,0.016107,63.96727,22.682739,-148.774551,,,
729608209.734373,1.070806,0.804336,57.022622,-0.025177,0.007629,1.005646,-0.020282,0.030726,0.016107,63.96727,22.682739,-148.774551,,,
729608209.737687,1.066429,0.81063,57.02883,-0.028519,0.007492,1.004669,-0.017774,0.026625,0.020021,63.96727,22.682739,-148.774551,,,
729608209.741026,1.066429,0.81063,57.02883,-0.028519,0.007492,1.004669,-0.017774,0.026625,0.020021,63.96727,22.682739,-148.774551,,,
729608209.744361,1.061181,0.816222,57.035239,-0.028519,0.007492,1.004669,-0.017774,0.026625,0.020021,63.96727,22.682739,-148.774551,,,
729608209.747683,1.057111,0.819584,57.041594,-0.027725,0.014343,1.002197,-0.017923,0.011507,0.021716,63.96727,22.682739,-148.774551,,,
729608209.751084,1.057111,0.819584,57.041594,-0.027725,0.014343,1.002197,-0.017923,0.011507,0.021716,63.96727,22.682739,-148.774551,,,
729608209.754331,1.051118,0.821818,57.047346,-0.027725,0.014343,1.002197,-0.017923,0.011507,0.021716,63.96727,22.682739,-148.774551,,,
729608209.757728,1.044574,0.822737,57.052597,-0.025833,0.0186,0.996307,-0.022723,0.001195,0.014788,63.96727,22.682739,-148.774551,,,
729608209.761036,1.044574,0.822737,57.052597,-0.025833,0.0186,0.996307,-0.022723,0.001195,0.014788,63.96727,22.682739,-148.774551,,,
729608209.764439,1.037068,0.821218,57.057652,-0.025833,0.0186,0.996307,-0.022723,0.001195,0.014788,63.96727,22.682739,-148.774551,,,
729608209.76767,1.028408,0.819559,57.062098,-0.021988,0.018585,0.996231,-0.035055,-0.003882,0.011939,64.241119,22.708054,-148.865036,,,
729608209.771021,1.028408,0.819559,57.062098,-0.021988,0.018585,0.996231,-0.035055,-0.003882,0.011939,64.241119,22.708054,-148.865036,,,
729608209.774348,1.017584,0.817737,57.066105,-0.021988,0.018585,0.996231,-0.035055,-0.003882,0.011939,64.241119,22.708054,-148.865036,,,
729608209.777703,1.005965,0.816283,57.070749,-0.020279,0.015427,0.993103,-0.044578,0.00369,0.018273,64.241119,22.708054,-148.865036,,,
729608209.781053,1.005965,0.816283,57.070749,-0.020279,0.015427,0.993103,-0.044578,0.00369,0.018273,64.241119,22.708054,-148.865036,,,
729608209.784366,0.993219,0.815554,57.076575,-0.020279,0.015427,0.993103,-0.044578,0.00369,0.018273,64.241119,22.708054,-148.865036,,,
729608209.787681,0.982208,0.81468,57.083447,-0.019455,0.01387,0.9991,-0.041236,0.001812,0.022598,64.241119,22.708054,-148.865036,,,
729608209.791108,0.982208,0.81468,57.083447,-0.019455,0.01387,0.9991,-0.041236,0.001812,0.022598,64.241119,22.708054,-148.865036,,,
729608209.794353,0.970484,0.813793,57.090459,-0.019455,0.01387,0.9991,-0.041236,0.001812,0.022598,64.241119,22.708054,-148.865036,,,
729608209.797674,0.958915,0.812136,57.097146,-0.016556,0.009918,0.996429,-0.03841,-0.003606,0.020279,64.241119,22.708054,-148.865036,,,
729608209.801005,0.958915,0.812136,57.097146,-0.016556,0.009918,0.996429,-0.03841,-0.003606,0.020279,64.241119,22.708054,-148.865036,,,
729608209.804423,0.947176,0.810356,57.103052,-0.016556,0.009918,0.996429,-0.03841,-0.003606,0.020279,64.241119,22.708054,-148.865036,,,
729608209.807674,0.935109,0.810665,57.107706,-0.011475,0.010971,0.998154,-0.034863,-0.004272,0.010791,64.241119,22.708054,-148.865036,,,
729608209.811024,0.935109,0.810665,57.107706,-0.011475,0.010971,0.998154,-0.034863,-0.004272,0.010791,63.96785,23.098236,-148.697189,,,
729608209.814343,0.925107,0.808699,57.111009,-0.011475,0.010971,0.998154,-0.034863,-0.004272,0.010791,63.96785,23.098236,-148.697189,,,
729608209.817694,0.913175,0.808748,57.112397,-0.005264,0.014343,0.996933,-0.03592,-0.005707,-0.000677,63.96785,23.098236,-148.697189,,,
729608209.821031,0.913175,0.808748,57.112397,-0.005264,0.014343,0.996933,-0.03592,-0.005707,-0.000677,63.96785,23.098236,-148.697189,,,
729608209.824353,0.902412,0.806443,57.112187,-0.005264,0.014343,0.996933,-0.03592,-0.005707,-0.000677,63.96785,23.098236,-148.697189,,,
729608209.827676,0.890356,0.808465,57.111426,-0.002625,0.018707,0.995377,-0.038222,0.003726,-0.008462,63.96785,23.098236,-148.697189,,,
729608209.831105,0.890356,0.808465,57.111426,-0.002625,0.018707,0.995377,-0.038222,0.003726,-0.008462,63.96785,23.098236,-148.697189,,,
729608209.834358,0.878672,0.809208,57.110129,-0.002625,0.018707,0.995377,-0.038222,0.003726,-0.008462,63.96785,23.098236,-148.697189,,,
729608209.837679,0.86614,0.814589,57.109095,-0.006912,0.014999,0.999283,-0.044475,0.016338,-0.004422,63.96785,23.098236,-148.697189,,,
729608209.841024,0.86614,0.814589,57.109095,-0.006912,0.014999,0.999283,-0.044475,0.016338,-0.004422,63.96785,23.098236,-148.697189,,,
729608209.844415,0.852314,0.81922,57.109483,-0.006912,0.014999,0.999283,-0.044475,0.016338,-0.004422,63.96785,23.098236,-148.697189,,,
729608209.847664,0.839021,0.827871,57.110409,-0.010269,0.009186,1.000488,-0.047385,0.033315,-0.000807,63.96785,23.098236,-148.697189,,,
729608209.851008,0.839021,0.827871,57.110409,-0.010269,0.009186,1.000488,-0.047385,0.033315,-0.000807,64.026367,23.113113,-148.809555,,,
729608209.854366,0.824947,0.836063,57.111465,-0.010269,0.009186,1.000488,-0.047385,0.033315,-0.000807,64.026367,23.113113,-148.809555,,,
729608209.857672,0.811919,0.845842,57.111558,-0.009766,0.009521,1.003296,-0.04071,0.029168,-0.006622,64.026367,23.113113,-148.809555,,,
729608209.861032,0.811919,0.845842,57.111558,-0.009766,0.009521,1.003296,-0.04071,0.029168,-0.006622,64.026367,23.113113,-148.809555,,,
729608209.864364,0.800118,0.853419,57.110015,-0.009766,0.009521,1.003296,-0.04071,0.029168,-0.006622,64.026367,23.113113,-148.809555,,,
729608209.867669,0.79016,0.860479,57.106757,-0.011032,0.01268,1.004669,-0.031195,0.018321,-0.015955,64.026367,23.113113,-148.809555,,,
729608209.871073,0.79016,0.860479,57.106757,-0.011032,0.01268,1.004669,-0.031195,0.018321,-0.015955,64.026367,23.113113,-148.809555,,,
729608209.874362,0.782039,0.864551,57.102381,-0.011032,0.01268,1.004669,-0.031195,0.018321,-0.015955,64.026367,23.113113,-148.809555,,,
729608209.877681,0.776939,0.867132,57.097284,-0.013092,0.011505,1.007843,-0.005785,0.004424,-0.017979,64.026367,23.113113,-148.809555,,,
729608209.881022,0.776939,0.867132,57.097284,-0.013092,0.011505,1.007843,-0.005785,0.004424,-0.017979,64.026367,23.113113,-148.809555,,,
729608209.884398,0.775647,0.867065,57.091608,-0.013092,0.011505,1.007843,-0.005785,0.004424,-0.017979,64.026367,23.113113,-148.809555,,,
729608209.887673,0.776161,0.864015,57.085052,-0.00737,0.00946,1.010162,0.011991,-0.010506,-0.0277,64.026367,23.113113,-148.809555,,,
729608209.891,0.776161,0.864015,57.085052,-0.00737,0.00946,1.010162,0.011991,-0.010506,-0.0277,63.766418,23.280029,-148.860168,,,
729608209.894357,0.779613,0.858853,57.077272,-0.00737,0.00946,1.010162,0.011991,-0.010506,-0.0277,63.766418,23.280029,-148.860168,,,
729608209.897673,0.784678,0.850352,57.068327,-0.00119,0.010895,1.006653,0.022343,-0.023047,-0.036362,63.766418,23.280029,-148.860168,,,
729608209.90102,0.784678,0.850352,57.068327,-0.00119,0.010895,1.006653,0.022343,-0.023047,-0.036362,63.766418,23.280029,-148.860168,,,
729608209.904365,0.791437,0.84292,57.058035,-0.00119,0.010895,1.006653,0.022343,-0.023047,-0.036362,63.766418,23.280029,-148.860168,,,
729608209.907675,0.79987,0.833213,57.046276,0.005493,0.014786,1.006104,0.029157,-0.020058,-0.04821,63.766418,23.280029,-148.860168,,,
729608209.911001,0.79987,0.833213,57.046276,0.005493,0.014786,1.006104,0.029157,-0.020058,-0.04821,63.766418,23.280029,-148.860168,,,
729608209.914363,0.807801,0.826717,57.032713,0.005493,0.014786,1.006104,0.029157,-0.020058,-0.04821,63.766418,23.280029,-148.860168,,,
729608209.917678,0.816752,0.818683,57.017569,0.010941,0.016098,1.00618,0.032678,-0.016258,-0.057232,63.766418,23.280029,-148.860168,,,
729608209.921016,0.816752,0.818683,57.017569,0.010941,0.016098,1.00618,0.032678,-0.016258,-0.057232,63.766418,23.280029,-148.860168,,,
729608209.924423,0.825536,0.813117,57.001177,0.010941,0.016098,1.00618,0.032678,-0.016258,-0.057232,63.766418,23.280029,-148.860168,,,
729608209.927673,0.834721,0.808233,56.983279,0.011841,0.017792,1.009949,0.038184,-0.004099,-0.068299,63.766418,23.280029,-148.860168,,,
729608209.93101,0.834721,0.808233,56.983279,0.011841,0.017792,1.009949,0.038184,-0.004099,-0.068299,63.972687,23.084305,-148.691467,,,
729608209.934361,0.846275,0.806851,56.964177,0.011841,0.017792,1.009949,0.038184,-0.004099,-0.068299,63.972687,23.084305,-148.691467,,,
729608209.93768,0.858643,0.806866,56.944472,0.010391,0.016098,1.018723,0.052834,0.010562,-0.075573,63.972687,23.084305,-148.691467,,,
729608209.941021,0.858643,0.806866,56.944472,0.010391,0.016098,1.018723,0.052834,0.010562,-0.075573,63.972687,23.084305,-148.691467,,,
729608209.944372,0.87451,0.81035,56.923775,0.010391,0.016098,1.018723,0.052834,0.010562,-0.075573,63.972687,23.084305,-148.691467,,,
729608209.947676,0.892374,0.816192,56.902581,0.00174,0.012863,1.022781,0.073087,0.032863,-0.072295,63.972687,23.084305,-148.691467,,,
729608209.951083,0.892374,0.816192,56.902581,0.00174,0.012863,1.022781,0.073087,0.032863,-0.072295,63.972687,23.084305,-148.691467,,,
729608209.954348,0.913462,0.826578,56.881575,0.00174,0.012863,1.022781,0.073087,0.032863,-0.072295,63.972687,23.084305,-148.691467,,,
729608209.957669,0.936436,0.839811,56.861174,-0.009766,0.009583,1.023392,0.090265,0.054964,-0.067487,63.972687,23.084305,-148.691467,,,
729608209.961003,0.936436,0.839811,56.861174,-0.009766,0.009583,1.023392,0.090265,0.054964,-0.067487,63.972687,23.084305,-148.691467,,,
729608209.964397,0.961764,0.855443,56.842051,-0.009766,0.009583,1.023392,0.090265,0.054964,-0.067487,63.972687,23.084305,-148.691467,,,
729608209.967675,0.986186,0.872057,56.824176,-0.014999,0.0056,1.014023,0.086792,0.071268,-0.062161,63.972687,23.084305,-148.691467,,,
729608209.971016,0.986186,0.872057,56.824176,-0.014999,0.0056,1.014023,0.086792,0.071268,-0.062161,63.972687,23.084305,-148.691467,,,
729608209.974368,1.011019,0.891801,56.807019,-0.014999,0.0056,1.014023,0.086792,0.071268,-0.062161,63.993103,22.727417,-148.496796,,,
729608209.977676,1.032738,0.908829,56.789547,-0.01503,0.011078,1.001297,0.079539,0.067205,-0.065877,63.993103,22.727417,-148.496796,,,
729608209.981022,1.032738,0.908829,56.789547,-0.01503,0.011078,1.001297,0.079539,0.067205,-0.065877,63.993103,22.727417,-148.496796,,,
729608209.984355,1.053807,0.926129,56.77111,-0.01503,0.011078,1.001297,0.079539,0.067205,-0.065877,63.993103,22.727417,-148.496796,,,
729608209.987667,1.071428,0.93635,56.752539,-0.019867,0.022324,0.988846,0.059403,0.040776,-0.064571,63.993103,22.727417,-148.496796,,,
729608209.991068,1.071428,0.93635,56.752539,-0.019867,0.022324,0.988846,0.059403,0.040776,-0.064571,63.993103,22.727417,-148.496796,,,
729608209.994353,1.087182,0.946453,56.733727,-0.019867,0.022324,0.988846,0.059403,0.040776,-0.064571,63.993103,22.727417,-148.496796,,,
729608209.99768,1.099699,0.946387,56.715982,-0.0298,0.022415,0.975174,0.042506,0.008473,-0.059998,63.993103,22.727417,-148.496796,,,
729608210.001029,1.099699,0.946387,56.715982,-0.0298,0.022415,0.975174,0.042506,0.008473,-0.059998,63.993103,22.727417,-148.496796,,,
729608210.004359,1.110893,0.946961,56.699713,-0.0298,0.022415,0.975174,0.042506,0.008473,-0.059998,63.993103,22.727417,-148.496796,,,
729608210.007674,1.120337,0.93702,56.68466,-0.033218,0.020599,0.975418,0.034664,-0.022646,-0.050193,63.993103,22.727417,-148.496796,,,
729608210.011023,1.120337,0.93702,56.68466,-0.033218,0.020599,0.975418,0.034664,-0.022646,-0.050193,63.993103,22.727417,-148.496796,,,
729608210.014424,1.129679,0.929675,56.671082,-0.033218,0.020599,0.975418,0.034664,-0.022646,-0.050193,63.968491,22.974915,-149.073502,,,
729608210.017676,1.139211,0.914508,56.659602,-0.032227,0.01857,0.982193,0.039363,-0.033812,-0.035792,63.968491,22.974915,-149.073502,,,
729608210.021015,1.139211,0.914508,56.659602,-0.032227,0.01857,0.982193,0.039363,-0.033812,-0.035792,63.968491,22.974915,-149.073502,,,
729608210.024345,1.150844,0.904046,56.649793,-0.032227,0.01857,0.982193,0.039363,-0.033812,-0.035792,63.968491,22.974915,-149.073502,,,
729608210.027677,1.162739,0.889158,56.641018,-0.025909,0.018005,0.990143,0.049376,-0.031449,-0.029153,63.968491,22.974915,-149.073502,,,
729608210.031022,1.162739,0.889158,56.641018,-0.025909,0.018005,0.990143,0.049376,-0.031449,-0.029153,63.968491,22.974915,-149.073502,,,
729608210.03435,1.176713,0.880332,56.632551,-0.025909,0.018005,0.990143,0.049376,-0.031449,-0.029153,63.968491,22.974915,-149.073502,,,
729608210.037674,1.188521,0.872638,56.623541,-0.018829,0.025787,0.991608,0.047576,-0.004298,-0.035169,63.968491,22.974915,-149.073502,,,
729608210.041017,1.188521,0.872638,56.623541,-0.018829,0.025787,0.991608,0.047576,-0.004298,-0.035169,63.968491,22.974915,-149.073502,,,
729608210.044344,1.201018,0.870963,56.613978,-0.018829,0.025787,0.991608,0.047576,-0.004298,-0.035169,63.968491,22.974915,-149.073502,,,
729608210.047741,1.208399,0.873303,56.605267,-0.017517,0.034348,0.986588,0.028367,0.024062,-0.030207,63.968491,22.974915,-149.073502,,,
729608210.051098,1.208399,0.873303,56.605267,-0.017517,0.034348,0.986588,0.028367,0.024062,-0.030207,63.968491,22.974915,-149.073502,,,
729608210.054345,1.214397,0.880403,56.598066,-0.017517,0.034348,0.986588,0.028367,0.024062,-0.030207,64.315018,22.600922,-148.839478,,,
729608210.057682,1.213407,0.891256,56.592658,-0.02536,0.033524,0.981735,-0.004845,0.051216,-0.016674,64.315018,22.600922,-148.839478,,,
729608210.061066,1.213407,0.891256,56.592658,-0.02536,0.033524,0.981735,-0.004845,0.051216,-0.016674,64.315018,22.600922,-148.839478,,,
729608210.064381,1.210369,0.905305,56.588455,-0.02536,0.033524,0.981735,-0.004845,0.051216,-0.016674,64.315018,22.600922,-148.839478,,,
729608210.067696,1.202677,0.921579,56.584108,-0.026672,0.034134,0.978119,-0.031894,0.058321,-0.019698,64.315018,22.600922,-148.839478,,,
729608210.071027,1.202677,0.921579,56.584108,-0.026672,0.034134,0.978119,-0.031894,0.058321,-0.019698,64.315018,22.600922,-148.839478,,,
729608210.074346,1.192538,0.937852,56.579226,-0.026672,0.034134,0.978119,-0.031894,0.058321,-0.019698,64.315018,22.600922,-148.839478,,,
729608210.077688,1.181286,0.955939,56.574746,-0.03125,0.03891,0.976517,-0.044037,0.055307,-0.015034,64.315018,22.600922,-148.839478,,,
729608210.081003,1.181286,0.955939,56.574746,-0.03125,0.03891,0.976517,-0.044037,0.055307,-0.015034,64.315018,22.600922,-148.839478,,,
729608210.084345,1.168518,0.970542,56.5715,-0.03125,0.03891,0.976517,-0.044037,0.055307,-0.015034,64.315018,22.600922,-148.839478,,,
729608210.087675,1.155786,0.985771,56.569541,-0.046371,0.029175,0.9832,-0.043762,0.033705,-0.002395,64.315018,22.600922,-148.839478,,,
729608210.09108,1.155786,0.985771,56.569541,-0.046371,0.029175,0.9832,-0.043762,0.033705,-0.002395,64.315018,22.600922,-148.839478,,,
729608210.094332,1.14301,0.992982,56.569054,-0.046371,0.029175,0.9832,-0.043762,0.033705,-0.002395,64.315018,22.600922,-149.207779,,,
729608210.097672,1.130306,0.997867,56.569679,-0.044037,0.020615,0.983261,-0.042152,-0.005444,0.00241,64.095856,22.940918,-149.207779,,,
729608210.101018,1.130306,0.997867,56.569679,-0.044037,0.020615,0.983261,-0.042152,-0.005444,0.00241,64.095856,22.940918,-149.207779,,,
729608210.104397,1.118371,0.993923,56.571167,-0.044037,0.020615,0.983261,-0.042152,-0.005444,0.00241,64.095856,22.940918,-149.207779,,,
729608210.107679,1.107182,0.987282,56.573038,-0.038071,0.020584,0.982895,-0.036238,-0.04265,0.005119,64.095856,22.940918,-149.207779,,,
729608210.111029,1.107182,0.987282,56.573038,-0.038071,0.020584,0.982895,-0.036238,-0.04265,0.005119,64.095856,22.940918,-149.207779,,,
729608210.114342,1.096871,0.973461,56.575236,-0.038071,0.020584,0.982895,-0.036238,-0.04265,0.005119,64.095856,22.940918,-149.207779,,,
729608210.117675,1.087758,0.956867,56.578187,-0.029907,0.023361,0.984299,-0.027502,-0.062773,0.011771,64.095856,22.940918,-149.207779,,,
729608210.121024,1.087758,0.956867,56.578187,-0.029907,0.023361,0.984299,-0.027502,-0.062773,0.011771,64.095856,22.940918,-149.207779,,,
729608210.124347,1.080321,0.937339,56.582229,-0.029907,0.023361,0.984299,-0.027502,-0.062773,0.011771,64.095856,22.940918,-149.207779,,,
729608210.127686,1.07697,0.916757,56.587401,-0.018524,0.024689,0.993958,-0.012413,-0.072286,0.016592,64.095856,22.940918,-149.207779,,,
729608210.131088,1.07697,0.916757,56.587401,-0.018524,0.024689,0.993958,-0.012413,-0.072286,0.016592,64.095856,22.940918,-149.207779,,,
729608210.134361,1.074468,0.895824,56.592659,-0.018524,0.024689,0.993958,-0.012413,-0.072286,0.016592,64.095856,22.940918,-149.207779,,,
729608210.137684,1.075962,0.877445,56.597209,-0.007339,0.022156,1.001877,0.0012,-0.056095,0.012259,64.245987,22.733734,-148.744293,,,
729608210.141041,1.075962,0.877445,56.597209,-0.007339,0.022156,1.001877,0.0012,-0.056095,0.012259,64.245987,22.733734,-148.744293,,,
729608210.144428,1.076271,0.862107,56.601689,-0.007339,0.022156,1.001877,0.0012,-0.056095,0.012259,64.245987,22.733734,-148.744293,,,
729608210.14767,1.078654,0.85445,56.605616,-0.001495,0.02478,1.007126,-0.000216,-0.009018,0.006245,64.245987,22.733734,-148.744293,,,
729608210.151024,1.078654,0.85445,56.605616,-0.001495,0.02478,1.007126,-0.000216,-0.009018,0.006245,64.245987,22.733734,-148.744293,,,
729608210.154364,1.078187,0.852137,56.608351,-0.001495,0.02478,1.007126,-0.000216,-0.009018,0.006245,64.245987,22.733734,-148.744293,,,
729608210.157713,1.079282,0.859014,56.609435,0.004486,0.03096,1.010086,-0.010808,0.03605,-0.000105,64.245987,22.733734,-148.744293,,,
729608210.161019,1.079282,0.859014,56.609435,0.004486,0.03096,1.010086,-0.010808,0.03605,-0.000105,64.245987,22.733734,-148.744293,,,
729608210.164354,1.075931,0.869057,56.609236,0.004486,0.03096,1.010086,-0.010808,0.03605,-0.000105,64.245987,22.733734,-148.744293,,,
729608210.167672,1.073845,0.888695,56.607989,0.004181,0.038925,1.003021,-0.021228,0.05653,-0.009094,64.245987,22.733734,-148.744293,,,
729608210.171092,1.073845,0.888695,56.607989,0.004181,0.038925,1.003021,-0.021228,0.05653,-0.009094,64.245987,22.733734,-148.744293,,,
729608210.174354,1.067236,0.904166,56.606005,0.004181,0.038925,1.003021,-0.021228,0.05653,-0.009094,64.245987,22.733734,-148.744293,,,
729608210.177704,1.067236,0.904166,56.602522,-0.005569,0.035751,0.997345,-0.027094,0.05421,-0.019402,64.178345,22.649429,-148.618271,,,
729608210.181012,1.060405,0.926334,56.602522,-0.005569,0.035751,0.997345,-0.027094,0.05421,-0.019402,64.178345,22.649429,-148.618271,,,
729608210.184421,1.052521,0.940153,56.597475,-0.005569,0.035751,0.997345,-0.027094,0.05421,-0.019402,64.178345,22.649429,-148.618271,,,
729608210.18768,1.052521,0.954995,56.591465,-0.011108,0.026367,0.996323,-0.021043,0.024931,-0.023545,64.178345,22.649429,-148.618271,,,
729608210.191017,1.046079,0.954995,56.591465,-0.011108,0.026367,0.996323,-0.021043,0.024931,-0.023545,64.178345,22.649429,-148.618271,,,
729608210.194348,1.040278,0.959062,56.584947,-0.011108,0.026367,0.996323,-0.021043,0.024931,-0.023545,64.178345,22.649429,-148.618271,,,
729608210.19778,1.036139,0.962471,56.578152,-0.017746,0.016907,0.99411,-0.013877,-0.012057,-0.022678,64.178345,22.649429,-148.618271,,,
729608210.20101,1.036139,0.962471,56.578152,-0.017746,0.016907,0.99411,-0.013877,-0.012057,-0.022678,64.178345,22.649429,-148.618271,,,
729608210.204365,1.032407,0.957673,56.572182,-0.017746,0.016907,0.99411,-0.013877,-0.012057,-0.022678,64.178345,22.649429,-148.618271,,,
729608210.207703,1.032407,0.957673,56.572182,-0.023834,0.013443,0.993896,-0.013249,-0.035601,-0.017382,64.178345,22.649429,-148.618271,,,
729608210.211082,1.030308,0.950172,56.567239,-0.023834,0.013443,0.993896,-0.013249,-0.035601,-0.017382,64.178345,22.649429,-148.618271,,,
729608210.214341,1.026307,0.938686,56.562461,-0.023834,0.013443,0.993896,-0.013249,-0.035601,-0.017382,64.178345,22.649429,-148.618271,,,
729608210.217707,1.026307,0.938686,56.562461,-0.020615,0.014343,0.99408,-0.012864,-0.038634,-0.016506,64.279434,22.670639,-148.909302,,,
729608210.221007,1.022898,0.925613,56.557969,-0.020615,0.014343,0.99408,-0.012864,-0.038634,-0.016506,64.279434,22.670639,-148.909302,,,
729608210.224404,1.018374,0.914593,56.554518,-0.020615,0.014343,0.99408,-0.012864,-0.038634,-0.016506,64.279434,22.670639,-148.909302,,,
729608210.227692,1.018374,0.914593,56.554518,-0.018478,0.013046,1.001511,-0.010711,-0.024173,-0.007238,64.279434,22.670639,-148.909302,,,
729608210.231028,1.015169,0.902389,56.552171,-0.018478,0.013046,1.001511,-0.010711,-0.024173,-0.007238,64.279434,22.670639,-148.909302,,,
729608210.234342,1.011555,0.894866,56.550634,-0.018478,0.013046,1.001511,-0.010711,-0.024173,-0.007238,64.279434,22.670639,-148.909302,,,
729608210.237721,1.011555,0.894866,56.550634,-0.018478,0.013046,1.001511,-0.006256,-0.006929,-0.001962,64.279434,22.670639,-148.909302,,,
729608210.241019,1.010688,0.885913,56.550095,-0.015472,0.006622,1.008408,-0.006256,-0.006929,-0.001962,64.279434,22.670639,-148.909302,,,
729608210.244422,1.009117,0.884529,56.549804,-0.015472,0.006622,1.008408,-0.006256,-0.006929,-0.001962,64.279434,22.670639,-148.909302,,,
729608210.247688,1.009117,0.884529,56.549804,-0.010895,0.004959,1.013107,-0.000802,0.029031,-0.000476,64.279434,22.670639,-148.909302,,,
729608210.251071,1.011721,0.88334,56.549746,-0.010895,0.004959,1.013107,-0.000802,0.029031,-0.000476,64.279434,22.670639,-148.909302,,,
729608210.254331,1.011173,0.891307,56.54981,-0.010895,0.004959,1.013107,-0.000802,0.029031,-0.000476,64.279434,22.670639,-148.909302,,,
729608210.257759,1.011173,0.891307,56.54981,-0.010895,0.004959,1.013107,-0.000802,0.029031,-0.000476,64.279434,22.670639,-148.909302,,,
729608210.261011,1.014245,0.900314,56.550233,-0.007004,0.005402,1.012817,-0.005158,0.053683,0.000402,64.177612,23.016205,-148.688248,,,
729608210.264393,1.011837,0.914815,56.550188,-0.007004,0.005402,1.012817,-0.005158,0.053683,0.000402,64.177612,23.016205,-148.688248,,,
729608210.267708,1.011837,0.914815,56.550188,-0.007004,0.005402,1.012817,-0.005158,0.053683,0.000402,64.177612,23.016205,-148.688248,,,
729608210.27101,1.010134,0.929116,56.54914,-0.008392,0.01297,1.004684,-0.017,0.058688,-0.005902,64.177612,23.016205,-148.688248,,,
729608210.274345,1.003956,0.945289,56.547524,-0.008392,0.01297,1.004684,-0.017,0.058688,-0.005902,64.177612,23.016205,-148.688248,,,
729608210.277744,1.003956,0.945289,56.547524,-0.008392,0.01297,1.004684,-0.017,0.058688,-0.005902,64.177612,23.016205,-148.688248,,,
729608210.281009,0.996415,0.960455,56.545244,-0.015686,0.018799,0.997849,-0.030708,0.051524,-0.013289,64.177612,23.016205,-148.688248,,,
729608210.284362,0.987032,0.97431,56.542185,-0.015686,0.018799,0.997849,-0.030708,0.051524,-0.013289,64.177612,23.016205,-148.688248,,,
729608210.287711,0.987032,0.97431,56.542185,-0.015686,0.018799,0.997849,-0.030708,0.051524,-0.013289,64.177612,23.016205,-148.688248,,,
729608210.291066,0.975763,0.986011,56.538329,-0.019348,0.021194,0.993134,-0.042963,0.029095,-0.014465,64.177612,23.016205,-148.688248,,,
729608210.294331,0.963796,0.991752,56.534674,-0.019348,0.021194,0.993134,-0.042963,0.029095,-0.014465,64.177612,23.016205,-148.688248,,,
729608210.297732,0.963796,0.991752,56.534674,-0.019348,0.021194,0.993134,-0.042963,0.029095,-0.014465,64.177612,23.016205,-148.688248,,,
729608210.301018,0.949225,0.993978,56.531244,-0.02005,0.018356,0.981628,-0.052554,-0.002711,-0.015078,64.315781,23.019196,-148.753281,,,
729608210.304335,0.933634,0.991453,56.527597,-0.02005,0.018356,0.981628,-0.052554,-0.002711,-0.015078,64.315781,23.019196,-148.753281,,,
