Time (sec),Pitch (deg),Roll (deg),Yaw(deg),X-Acceleration (g),Y-Acceleration (g),Z-Acceleration (g),Pitch Rate (deg/sec),Roll Rate (deg/sec),Yaw Rate (deg/sec),Magnetic Field in X direction (uT),Magnetic Field in Y direction (uT),Magnetic Field in Z Direction (uT),Latitude (deg),Longitude (deg),Altitude (m)
729607045.591925,2.357617,0.402825,49.50991,-0.005737,0.04184,0.990311,-0.017515,0.039893,0.027437,62.312088,19.788864,-147.542053,,,
729607045.595247,2.353447,0.417796,49.516872,-0.005737,0.04184,0.990311,-0.017515,0.039893,0.027437,62.312088,19.788864,-147.542053,,,
729607045.598669,2.348307,0.423115,49.523463,-0.004562,0.0383,0.98941,-0.018595,0.022275,0.019678,62.312088,19.788864,-147.542053,,,
729607045.601933,2.348307,0.423115,49.523463,-0.004562,0.0383,0.98941,-0.018595,0.022275,0.019678,62.312088,19.788864,-147.542053,,,
729607045.605325,2.346676,0.435053,49.529787,-0.004562,0.0383,0.98941,-0.018595,0.022275,0.019678,62.312088,19.788864,-147.542053,,,
729607045.608683,2.343834,0.436946,49.536865,-0.004227,0.033447,0.999802,-0.009647,0.011451,0.020801,62.312088,19.788864,-147.542053,,,
729607045.61193,2.343834,0.436946,49.536865,-0.004227,0.033447,0.999802,-0.009647,0.011451,0.020801,62.312088,19.788864,-147.542053,,,
729607045.61528,2.343767,0.449567,49.543435,-0.004227,0.033447,0.999802,-0.009647,0.011451,0.020801,62.312088,19.788864,-147.542053,,,
729607045.618688,2.343443,0.454252,49.550124,-0.001999,0.031494,1.008194,-0.003593,0.019436,0.019671,62.312088,19.788864,-147.542053,,,
729607045.621907,2.343443,0.454252,49.550124,-0.001999,0.031494,1.008194,-0.003593,0.019436,0.019671,62.312088,19.788864,-147.542053,,,
729607045.625287,2.345107,0.469505,49.556582,-0.001999,0.031494,1.008194,-0.003593,0.019436,0.019671,62.312088,19.788864,-147.542053,,,
729607045.628647,2.347116,0.47789,49.563745,0.003082,0.033173,1.011566,0.005234,0.035432,0.023343,62.312088,19.788864,-147.542053,,,
729607045.631966,2.347116,0.47789,49.563745,0.003082,0.033173,1.011566,0.005234,0.035432,0.023343,62.365524,19.834534,-147.408875,,,
729607045.635284,2.348555,0.496059,49.570782,0.003082,0.033173,1.011566,0.005234,0.035432,0.023343,62.365524,19.834534,-147.408875,,,
729607045.638657,2.350598,0.51021,49.577592,0.00705,0.037903,1.005142,0.009272,0.053369,0.021377,62.365524,19.834534,-147.408875,,,
729607045.641921,2.350598,0.51021,49.577592,0.00705,0.037903,1.005142,0.009272,0.053369,0.021377,62.365524,19.834534,-147.408875,,,
729607045.645253,2.350879,0.531548,49.583784,0.00705,0.037903,1.005142,0.009272,0.053369,0.021377,62.365524,19.834534,-147.408875,,,
729607045.648656,2.350024,0.549438,49.589871,0.008438,0.041351,0.999527,-0.002661,0.064464,0.017612,62.365524,19.834534,-147.408875,,,
729607045.65193,2.350024,0.549438,49.589871,0.008438,0.041351,0.999527,-0.002661,0.064464,0.017612,62.365524,19.834534,-147.408875,,,
729607045.655352,2.348189,0.569171,49.596009,0.008438,0.041351,0.999527,-0.002661,0.064464,0.017612,62.365524,19.834534,-147.408875,,,
729607045.658667,2.346016,0.586304,49.602574,0.002548,0.03981,0.996155,-0.008589,0.064028,0.020749,62.365524,19.834534,-147.408875,,,
729607045.661909,2.346016,0.586304,49.602574,0.002548,0.03981,0.996155,-0.008589,0.064028,0.020749,62.365524,19.834534,-147.408875,,,
729607045.665274,2.343083,0.598434,49.608956,0.002548,0.03981,0.996155,-0.008589,0.064028,0.020749,62.365524,19.834534,-147.408875,,,
729607045.668595,2.343083,0.607545,49.614989,0.002548,0.03981,0.996155,-0.014105,0.035157,0.019865,62.365524,19.834534,-147.408875,,,
729607045.671748,2.338773,0.607545,49.614989,-0.003998,0.038101,0.991425,-0.014105,0.035157,0.019865,62.458862,19.898544,-147.422958,,,
729607045.675286,2.333237,0.609489,49.620615,-0.003998,0.038101,0.991425,-0.014105,0.035157,0.019865,62.458862,19.898544,-147.422958,,,
729607045.678604,2.333237,0.609489,49.625006,-0.003998,0.038101,0.991425,-0.014105,0.035157,0.019865,62.458862,19.898544,-147.422958,,,
729607045.682088,2.326375,0.608994,49.625006,-0.006027,0.038574,0.990723,-0.027473,0.003725,0.013199,62.458862,19.898544,-147.422958,,,
729607045.685258,2.318115,0.602546,49.627625,-0.006027,0.038574,0.990723,-0.027473,0.003725,0.013199,62.458862,19.898544,-147.422958,,,
729607045.688638,2.318115,0.602546,49.627596,-0.006027,0.038574,0.990723,-0.030455,-0.020458,-0.003433,62.458862,19.898544,-147.422958,,,
729607045.691945,2.31027,0.596188,49.627596,-0.001495,0.042267,0.997452,-0.030455,-0.020458,-0.003433,62.458862,19.898544,-147.422958,,,
729607045.695308,2.30055,0.585554,49.625941,-0.001495,0.042267,0.997452,-0.030455,-0.020458,-0.003433,62.458862,19.898544,-147.422958,,,
729607045.698599,2.30055,0.585554,49.625941,-0.001495,0.042267,0.997452,-0.030455,-0.020458,-0.003433,62.458862,19.898544,-147.422958,,,
729607045.701958,2.291806,0.577903,49.623512,7.6e-05,0.041733,1.007172,-0.032795,-0.024505,-0.012335,62.458862,19.898544,-147.422958,,,
729607045.705287,2.281715,0.56698,49.620819,7.6e-05,0.041733,1.007172,-0.032795,-0.024505,-0.012335,62.458862,19.898544,-147.422958,,,
729607045.708609,2.281715,0.56698,49.620819,7.6e-05,0.041733,1.007172,-0.032795,-0.024505,-0.012335,62.458862,19.898544,-147.422958,,,
729607045.711921,2.275305,0.561781,49.618209,-0.002197,0.036026,1.014664,-0.023646,-0.017057,-0.011005,62.458862,19.898544,-147.422958,,,
729607045.715325,2.269741,0.551654,49.616286,-0.002197,0.036026,1.014664,-0.023646,-0.017057,-0.011005,62.414703,19.961258,-147.852203,,,
729607045.718711,2.269741,0.551654,49.616286,-0.002197,0.036026,1.014664,-0.023646,-0.017057,-0.011005,62.414703,19.961258,-147.852203,,,
729607045.721907,2.266933,0.550764,49.614485,-0.000626,0.031845,1.019531,-0.007735,-0.000401,-0.006127,62.414703,19.961258,-147.852203,,,
729607045.725358,2.265803,0.544804,49.61374,-0.000626,0.031845,1.019531,-0.007735,-0.000401,-0.006127,62.414703,19.961258,-147.852203,,,
729607045.728581,2.265803,0.544804,49.61374,-0.000626,0.031845,1.019531,-0.007735,-0.000401,-0.006127,62.414703,19.961258,-147.852203,,,
729607045.731914,2.265979,0.549519,49.613362,-0.000824,0.028885,1.020706,0.002696,0.019189,-0.003874,62.414703,19.961258,-147.852203,,,
729607045.735263,2.266606,0.549069,49.613787,-0.000824,0.028885,1.020706,0.002696,0.019189,-0.003874,62.414703,19.961258,-147.852203,,,
729607045.738588,2.266606,0.549069,49.613787,-0.000824,0.028885,1.020706,0.002696,0.019189,-0.003874,62.414703,19.961258,-147.852203,,,
729607045.741925,2.267562,0.558097,49.614338,-0.007904,0.028732,1.016586,0.007835,0.033797,0.000976,62.414703,19.961258,-147.852203,,,
729607045.745251,2.269479,0.563945,49.615326,-0.007904,0.028732,1.016586,0.007835,0.033797,0.000976,62.414703,19.961258,-147.852203,,,
729607045.748579,2.269479,0.563945,49.615326,-0.007904,0.028732,1.016586,0.007835,0.033797,0.000976,62.414703,19.961258,-147.852203,,,
729607045.75193,2.270862,0.573845,49.61631,-0.011963,0.032288,1.009613,0.005728,0.037819,0.003571,62.414703,19.961258,-147.852203,,,
729607045.75526,2.270626,0.581081,49.616979,-0.011963,0.032288,1.009613,0.005728,0.037819,0.003571,62.688263,19.736206,-147.859421,,,
729607045.75867,2.270626,0.581081,49.616979,-0.011963,0.032288,1.009613,0.005728,0.037819,0.003571,62.688263,19.736206,-147.859421,,,
729607045.761935,2.269935,0.588115,49.616442,-0.01506,0.035248,1.000732,-0.004561,0.025331,-0.001762,62.688263,19.736206,-147.859421,,,
729607045.76526,2.269064,0.589985,49.615229,-0.01506,0.035248,1.000732,-0.004561,0.025331,-0.001762,62.688263,19.736206,-147.859421,,,
729607045.76859,2.269064,0.589985,49.615229,-0.01506,0.035248,1.000732,-0.004561,0.025331,-0.001762,62.688263,19.736206,-147.859421,,,
729607045.771988,2.26826,0.591894,49.613257,-0.019547,0.036102,0.999893,-0.002476,0.008942,-0.007179,62.688263,19.736206,-147.859421,,,
729607045.775253,2.269034,0.58712,49.610517,-0.019547,0.036102,0.999893,-0.002476,0.008942,-0.007179,62.688263,19.736206,-147.859421,,,
729607045.778587,2.269034,0.58712,49.610517,-0.019547,0.036102,0.999893,-0.002476,0.008942,-0.007179,62.688263,19.736206,-147.859421,,,
729607045.781925,2.270083,0.58457,49.606886,-0.023621,0.036392,1.004883,0.004465,-0.003784,-0.015562,62.688263,19.736206,-147.859421,,,
729607045.785244,2.271702,0.575545,49.603016,-0.023621,0.036392,1.004883,0.004465,-0.003784,-0.015562,62.688263,19.736206,-147.859421,,,
729607045.788584,2.271702,0.575545,49.603016,-0.023621,0.036392,1.004883,0.004465,-0.003784,-0.015562,62.688263,19.736206,-147.859421,,,
729607045.791986,2.27373,0.568951,49.598523,-0.018936,0.036926,1.003128,0.008673,-0.021677,-0.017333,62.688263,19.736206,-147.859421,,,
729607045.795323,2.275335,0.557857,49.593954,-0.018936,0.036926,1.003128,0.008673,-0.021677,-0.017333,62.595001,19.777069,-147.803802,,,
729607045.79866,2.275335,0.557857,49.593954,-0.018936,0.036926,1.003128,0.008673,-0.021677,-0.017333,62.595001,19.777069,-147.803802,,,
729607045.801825,2.278641,0.550838,49.589868,-0.018021,0.03476,1.003113,0.014197,-0.02391,-0.013394,62.595001,19.777069,-147.803802,,,
729607045.805295,2.280197,0.539882,49.58718,-0.018021,0.03476,1.003113,0.014197,-0.02391,-0.013394,62.595001,19.777069,-147.803802,,,
729607045.808607,2.280197,0.539882,49.58718,-0.018021,0.03476,1.003113,0.014197,-0.02391,-0.013394,62.595001,19.777069,-147.803802,,,
729607045.811937,2.284027,0.534213,49.585888,-0.016251,0.036087,1.000809,0.015316,-0.016686,-0.005303,62.595001,19.777069,-147.803802,,,
729607045.815257,2.285884,0.527786,49.586499,-0.016251,0.036087,1.000809,0.015316,-0.016686,-0.005303,62.595001,19.777069,-147.803802,,,
729607045.818617,2.285884,0.527786,49.586499,-0.016251,0.036087,1.000809,0.015316,-0.016686,-0.005303,62.595001,19.777069,-147.803802,,,
729607045.821911,2.289268,0.526362,49.588117,-0.015198,0.036179,0.999283,0.011441,0.001156,0.005889,62.595001,19.777069,-147.803802,,,
729607045.825275,2.289816,0.527839,49.589999,-0.015198,0.036179,0.999283,0.011441,0.001156,0.005889,62.595001,19.777069,-147.803802,,,
729607045.828657,2.289816,0.527839,49.589999,-0.015198,0.036179,0.999283,0.011441,0.001156,0.005889,62.595001,19.777069,-147.803802,,,
729607045.832014,2.291062,0.530489,49.59192,-0.012695,0.040024,0.996048,0.006494,0.010505,0.007125,62.595001,19.777069,-147.803802,,,
729607045.835244,2.290466,0.536298,49.593759,-0.012695,0.040024,0.996048,0.006494,0.010505,0.007125,62.595001,19.777069,-147.803802,,,
729607045.838588,2.290466,0.536298,49.593759,-0.012695,0.040024,0.996048,0.006494,0.010505,0.007125,62.537903,19.81366,-147.801895,,,
729607045.841911,2.290389,0.542022,49.595828,-0.014694,0.04306,0.994095,-0.000583,0.02213,0.003882,62.537903,19.81366,-147.801895,,,
729607045.845297,2.288902,0.550834,49.598099,-0.014694,0.04306,0.994095,-0.000583,0.02213,0.003882,62.537903,19.81366,-147.801895,,,
729607045.848586,2.288902,0.550834,49.598099,-0.014694,0.04306,0.994095,-0.000583,0.02213,0.003882,62.537903,19.81366,-147.801895,,,
729607045.851933,2.287758,0.554501,49.601382,-0.018539,0.039352,0.995926,-0.003196,0.018798,0.009109,62.537903,19.81366,-147.801895,,,
729607045.855255,2.285554,0.561067,49.605732,-0.018539,0.039352,0.995926,-0.003196,0.018798,0.009109,62.537903,19.81366,-147.801895,,,
729607045.858643,2.285554,0.561067,49.605732,-0.018539,0.039352,0.995926,-0.003196,0.018798,0.009109,62.537903,19.81366,-147.801895,,,
729607045.861924,2.284323,0.559677,49.610982,-0.019302,0.036041,0.988373,-0.006273,-0.000164,0.01622,62.537903,19.81366,-147.801895,,,
729607045.865256,2.283023,0.561968,49.616096,-0.019302,0.036041,0.988373,-0.006273,-0.000164,0.01622,62.537903,19.81366,-147.801895,,,
729607045.868509,2.283023,0.561968,49.616096,-0.019302,0.036041,0.988373,-0.006273,-0.000164,0.01622,62.537903,19.81366,-147.801895,,,
729607045.871986,2.282796,0.555879,49.621423,-0.016129,0.036102,0.995255,-0.000762,-0.018953,0.016054,62.537903,19.81366,-147.801895,,,
729607045.875254,2.28136,0.550243,49.62605,-0.016129,0.036102,0.995255,-0.000762,-0.018953,0.016054,62.537903,19.81366,-147.801895,,,
729607045.878593,2.28136,0.550243,49.62605,-0.016129,0.036102,0.995255,-0.000762,-0.018953,0.016054,62.609619,19.861481,-147.924881,,,
729607045.881915,2.28056,0.539006,49.630095,-0.012314,0.038315,0.990631,-0.000998,-0.035991,0.011598,62.609619,19.861481,-147.924881,,,
729607045.885242,2.278591,0.530572,49.633509,-0.012314,0.038315,0.990631,-0.000998,-0.035991,0.011598,62.609619,19.861481,-147.924881,,,
729607045.888599,2.278591,0.530572,49.633509,-0.012314,0.038315,0.990631,-0.000998,-0.035991,0.011598,62.609619,19.861481,-147.924881,,,
729607045.89192,2.276495,0.518526,49.636115,-0.004333,0.040482,0.990356,-0.003274,-0.04013,0.008403,62.609619,19.861481,-147.924881,,,
729607045.895262,2.272044,0.509125,49.637857,-0.004333,0.040482,0.990356,-0.003274,-0.04013,0.008403,62.609619,19.861481,-147.924881,,,
729607045.898638,2.272044,0.509125,49.637857,-0.004333,0.040482,0.990356,-0.003274,-0.04013,0.008403,62.609619,19.861481,-147.924881,,,
729607045.901924,2.266232,0.497328,49.639111,0.005875,0.045746,0.987442,-0.01967,-0.037004,0.003103,62.609619,19.861481,-147.924881,,,
729607045.905257,2.258516,0.489807,49.639407,0.005875,0.045746,0.987442,-0.01967,-0.037004,0.003103,62.609619,19.861481,-147.924881,,,
729607045.908594,2.258516,0.489807,49.639407,0.005875,0.045746,0.987442,-0.01967,-0.037004,0.003103,62.609619,19.861481,-147.924881,,,
729607045.911916,2.250259,0.482239,49.63923,0.01088,0.046188,0.990814,-0.028361,-0.026213,-0.000584,62.609619,19.861481,-147.924881,,,
729607045.915285,2.241757,0.478636,49.638441,0.01088,0.046188,0.990814,-0.028361,-0.026213,-0.000584,62.609619,19.861481,-147.924881,,,
729607045.91859,2.241757,0.478636,49.638441,0.01088,0.046188,0.990814,-0.028361,-0.026213,-0.000584,62.410919,19.796112,-147.669464,,,
729607045.92194,2.233242,0.474411,49.637062,0.014343,0.04422,0.994247,-0.027826,-0.011483,-0.005157,62.410919,19.796112,-147.669464,,,
729607045.925251,2.226518,0.47409,49.634888,0.014343,0.04422,0.994247,-0.027826,-0.011483,-0.005157,62.410919,19.796112,-147.669464,,,
729607045.928598,2.226518,0.47409,49.634888,0.014343,0.04422,0.994247,-0.027826,-0.011483,-0.005157,62.410919,19.796112,-147.669464,,,
729607045.931925,2.220306,0.471212,49.632572,0.01149,0.041885,0.999237,-0.02186,-0.004421,-0.010761,62.410919,19.796112,-147.669464,,,
729607045.935354,2.215163,0.473903,49.629876,0.01149,0.041885,0.999237,-0.02186,-0.004421,-0.010761,62.410919,19.796112,-147.669464,,,
729607045.93859,2.215163,0.473903,49.629876,0.01149,0.041885,0.999237,-0.02186,-0.004421,-0.010761,62.410919,19.796112,-147.669464,,,
729607045.941949,2.210996,0.472539,49.627302,0.001923,0.040649,1.001282,-0.013268,0.000161,-0.010026,62.410919,19.796112,-147.669464,,,
729607045.945245,2.207349,0.476509,49.624935,0.001923,0.040649,1.001282,-0.013268,0.000161,-0.010026,62.410919,19.796112,-147.669464,,,
729607045.948589,2.207349,0.476509,49.624935,0.001923,0.040649,1.001282,-0.013268,0.000161,-0.010026,62.410919,19.796112,-147.669464,,,
729607045.951932,2.205432,0.47632,49.622919,-0.000565,0.037399,1.005661,-0.009747,0.001711,-0.010036,62.410919,19.796112,-147.669464,,,
729607045.955253,2.204802,0.478854,49.620301,-0.000565,0.037399,1.005661,-0.009747,0.001711,-0.010036,62.410919,19.796112,-147.669464,,,
729607045.958581,2.204802,0.478854,49.620301,-0.000565,0.037399,1.005661,-0.009747,0.001711,-0.010036,62.452179,20.036133,-147.988663,,,
729607045.961985,2.205156,0.477749,49.617554,-0.002823,0.034897,1.007904,0.000696,-0.002635,-0.010731,62.452179,20.036133,-147.988663,,,
729607045.965246,2.205968,0.477044,49.614786,-0.002823,0.034897,1.007904,0.000696,-0.002635,-0.010731,62.452179,20.036133,-147.988663,,,
729607045.968593,2.205968,0.477044,49.614786,-0.002823,0.034897,1.007904,0.000696,-0.002635,-0.010731,62.452179,20.036133,-147.988663,,,
729607045.971936,2.206133,0.476368,49.611552,-0.006577,0.033768,1.005264,-0.001482,0.00067,-0.013055,62.452179,20.036133,-147.988663,,,
729607045.975313,2.205839,0.473047,49.608435,-0.006577,0.033768,1.005264,-0.001482,0.00067,-0.013055,62.452179,20.036133,-147.988663,,,
729607045.978579,2.205839,0.473047,49.608435,-0.006577,0.033768,1.005264,-0.001482,0.00067,-0.013055,62.452179,20.036133,-147.988663,,,
729607045.981942,2.203959,0.473003,49.605358,-0.009521,0.03598,1.001556,-0.006235,0.003657,-0.013146,62.452179,20.036133,-147.988663,,,
729607045.985255,2.203061,0.464521,49.603027,-0.009521,0.03598,1.001556,-0.006235,0.003657,-0.013146,62.452179,20.036133,-147.988663,,,
729607045.988718,2.203061,0.464521,49.603027,-0.009521,0.03598,1.001556,-0.006235,0.003657,-0.013146,62.452179,20.036133,-147.988663,,,
729607045.991921,2.200386,0.461655,49.601209,-0.013794,0.031998,0.996185,-0.008266,-0.005846,-0.007776,62.452179,20.036133,-147.988663,,,
729607045.995297,2.198412,0.447686,49.600433,-0.013794,0.031998,0.996185,-0.008266,-0.005846,-0.007776,62.452179,20.036133,-147.988663,,,
729607045.998592,2.198412,0.447686,49.600433,-0.013794,0.031998,0.996185,-0.008266,-0.005846,-0.007776,62.334518,19.902969,-147.58075,,,
729607046.001918,2.194433,0.439484,49.600047,-0.018021,0.029175,0.996826,-0.013789,-0.023782,-0.004271,62.334518,19.902969,-147.58075,,,
729607046.005254,2.190592,0.418032,49.599701,-0.018021,0.029175,0.996826,-0.013789,-0.023782,-0.004271,62.334518,19.902969,-147.58075,,,
729607046.008586,2.190592,0.418032,49.599701,-0.018021,0.029175,0.996826,-0.013789,-0.023782,-0.004271,62.334518,19.902969,-147.58075,,,
729607046.011918,2.184235,0.403689,49.598086,-0.012466,0.032074,0.997086,-0.022599,-0.046465,-0.007111,62.334518,19.902969,-147.58075,,,
729607046.015257,2.177234,0.379559,49.595489,-0.012466,0.032074,0.997086,-0.022599,-0.046465,-0.007111,62.334518,19.902969,-147.58075,,,
729607046.018592,2.177234,0.379559,49.595489,-0.012466,0.032074,0.997086,-0.022599,-0.046465,-0.007111,62.334518,19.902969,-147.58075,,,
729607046.021935,2.169438,0.358163,49.591276,-0.001846,0.029877,0.997314,-0.026361,-0.072718,-0.015531,62.334518,19.902969,-147.58075,,,
729607046.025318,2.161649,0.331749,49.586199,-0.001846,0.029877,0.997314,-0.026361,-0.072718,-0.015531,62.334518,19.902969,-147.58075,,,
729607046.028579,2.161649,0.331749,49.586199,-0.001846,0.029877,0.997314,-0.026361,-0.072718,-0.015531,62.334518,19.902969,-147.58075,,,
729607046.031934,2.153709,0.30744,49.579575,0.009811,0.031204,1.001389,-0.026033,-0.083324,-0.025968,62.334518,19.902969,-147.58075,,,
729607046.035239,2.145953,0.282343,49.571489,0.009811,0.031204,1.001389,-0.026033,-0.083324,-0.025968,62.334518,19.902969,-147.58075,,,
729607046.038646,2.145953,0.282343,49.571489,0.009811,0.031204,1.001389,-0.026033,-0.083324,-0.025968,62.334518,19.902969,-147.58075,,,
729607046.041917,2.139097,0.26228,49.561928,0.0215,0.032791,1.009735,-0.021465,-0.067209,-0.037195,62.148865,19.967697,-147.665497,,,
729607046.045254,2.13307,0.246682,49.551731,0.0215,0.032791,1.009735,-0.021465,-0.067209,-0.037195,62.148865,19.967697,-147.665497,,,
729607046.048589,2.13307,0.246682,49.551731,0.0215,0.032791,1.009735,-0.021465,-0.067209,-0.037195,62.148865,19.967697,-147.665497,,,
729607046.051992,2.129332,0.23609,49.542004,0.023376,0.031235,1.015869,-0.009853,-0.036166,-0.03714,62.148865,19.967697,-147.665497,,,
729607046.05525,2.126459,0.231867,49.533352,0.023376,0.031235,1.015869,-0.009853,-0.036166,-0.03714,62.148865,19.967697,-147.665497,,,
729607046.058575,2.126459,0.231867,49.533352,0.023376,0.031235,1.015869,-0.009853,-0.036166,-0.03714,62.148865,19.967697,-147.665497,,,
729607046.061913,2.125018,0.23142,49.526743,0.016983,0.02713,1.013885,-0.004823,-0.00123,-0.02548,62.148865,19.967697,-147.665497,,,
729607046.065313,2.123085,0.2392,49.521785,0.016983,0.02713,1.013885,-0.004823,-0.00123,-0.02548,62.148865,19.967697,-147.665497,,,
729607046.068578,2.123085,0.2392,49.521785,0.016983,0.02713,1.013885,-0.004823,-0.00123,-0.02548,62.148865,19.967697,-147.665497,,,
729607046.071934,2.12082,0.248062,49.517943,0.008148,0.027115,1.007324,-0.004706,0.032836,-0.012707,62.148865,19.967697,-147.665497,,,
729607046.075256,2.117384,0.263722,49.514385,0.008148,0.027115,1.007324,-0.004706,0.032836,-0.012707,62.148865,19.967697,-147.665497,,,
729607046.07866,2.117384,0.263722,49.514385,0.008148,0.027115,1.007324,-0.004706,0.032836,-0.012707,62.148865,19.967697,-147.665497,,,
729607046.081917,2.115161,0.272596,49.511196,0.002335,0.034531,0.99765,-0.007947,0.034125,-0.011072,62.320374,19.802567,-147.756485,,,
729607046.085246,2.111602,0.284205,49.507324,0.002335,0.034531,0.99765,-0.007947,0.034125,-0.011072,62.320374,19.802567,-147.756485,,,
729607046.088599,2.111602,0.284205,49.507324,0.002335,0.034531,0.99765,-0.007947,0.034125,-0.011072,62.320374,19.802567,-147.756485,,,
729607046.091973,2.108598,0.286964,49.502281,-0.003967,0.041245,0.988541,-0.010396,0.011108,-0.018005,62.320374,19.802567,-147.756485,,,
729607046.095253,2.10298,0.286421,49.496177,-0.003967,0.041245,0.988541,-0.010396,0.011108,-0.018005,62.320374,19.802567,-147.756485,,,
729607046.098597,2.10298,0.286421,49.496177,-0.003967,0.041245,0.988541,-0.010396,0.011108,-0.018005,62.320374,19.802567,-147.756485,,,
729607046.101918,2.097487,0.278595,49.4892,-0.012711,0.041214,0.98407,-0.018857,-0.024138,-0.026616,62.320374,19.802567,-147.756485,,,
729607046.105289,2.090333,0.262696,49.481099,-0.012711,0.041214,0.98407,-0.018857,-0.024138,-0.026616,62.320374,19.802567,-147.756485,,,
729607046.10867,2.090333,0.262696,49.481099,-0.012711,0.041214,0.98407,-0.018857,-0.024138,-0.026616,62.320374,19.802567,-147.756485,,,
729607046.111921,2.083489,0.245957,49.47225,-0.015335,0.041885,0.985168,-0.023816,-0.057644,-0.034051,62.320374,19.802567,-147.756485,,,
729607046.115267,2.075252,0.217698,49.463909,-0.015335,0.041885,0.985168,-0.023816,-0.057644,-0.034051,62.320374,19.802567,-147.756485,,,
729607046.118621,2.075252,0.217698,49.463909,-0.015335,0.041885,0.985168,-0.023816,-0.057644,-0.034051,62.320374,19.802567,-147.756485,,,
729607046.12191,2.066835,0.197203,49.456173,-0.017563,0.039902,0.989853,-0.030662,-0.068757,-0.030228,62.062408,20.012375,-148.110733,,,
729607046.125286,2.057005,0.16575,49.450152,-0.017563,0.039902,0.989853,-0.030662,-0.068757,-0.030228,62.062408,20.012375,-148.110733,,,
729607046.128581,2.057005,0.16575,49.450152,-0.017563,0.039902,0.989853,-0.030662,-0.068757,-0.030228,62.062408,20.012375,-148.110733,,,
729607046.131988,2.048056,0.148396,49.445231,-0.016083,0.036606,1.000992,-0.033835,-0.057577,-0.018707,62.062408,20.012375,-148.110733,,,
729607046.13525,2.037982,0.124446,49.44185,-0.016083,0.036606,1.000992,-0.033835,-0.057577,-0.018707,62.062408,20.012375,-148.110733,,,
729607046.13859,2.037982,0.124446,49.44185,-0.016083,0.036606,1.000992,-0.033835,-0.057577,-0.018707,62.062408,20.012375,-148.110733,,,
729607046.141941,2.029377,0.11426,49.438972,-0.009201,0.037354,1.008621,-0.026071,-0.032886,-0.010745,62.062408,20.012375,-148.110733,,,
729607046.145338,2.019413,0.100912,49.437557,-0.009201,0.037354,1.008621,-0.026071,-0.032886,-0.010745,62.062408,20.012375,-148.110733,,,
729607046.148576,2.019413,0.100912,49.437557,-0.009201,0.037354,1.008621,-0.026071,-0.032886,-0.010745,62.062408,20.012375,-148.110733,,,
729607046.151933,2.01209,0.097622,49.436873,-0.005798,0.040436,1.005173,-0.025069,-0.007354,-0.004013,62.062408,20.012375,-148.110733,,,
729607046.155259,2.004325,0.094231,49.436243,-0.005798,0.040436,1.005173,-0.025069,-0.007354,-0.004013,62.062408,20.012375,-148.110733,,,
729607046.158625,2.004325,0.094231,49.436243,-0.005798,0.040436,1.005173,-0.025069,-0.007354,-0.004013,62.062408,20.012375,-148.110733,,,
729607046.161946,1.99728,0.095604,49.435207,-0.005157,0.042557,1.000763,-0.022474,0.008897,-0.004528,62.062408,20.012375,-148.110733,,,
729607046.165262,1.990616,0.095215,49.434349,-0.005157,0.042557,1.000763,-0.022474,0.008897,-0.004528,62.200882,19.989716,-147.898727,,,
729607046.168578,1.990616,0.095215,49.434349,-0.005157,0.042557,1.000763,-0.022474,0.008897,-0.004528,62.200882,19.989716,-147.898727,,,
729607046.171973,1.984151,0.094578,49.433907,-0.0103,0.040314,0.991974,-0.022995,-0.000919,-0.003121,62.200882,19.989716,-147.898727,,,
729607046.175234,1.979702,0.094741,49.433806,-0.0103,0.040314,0.991974,-0.022995,-0.000919,-0.003121,62.200882,19.989716,-147.898727,,,
729607046.17858,1.979702,0.094741,49.433806,-0.0103,0.040314,0.991974,-0.022995,-0.000919,-0.003121,62.200882,19.989716,-147.898727,,,
729607046.181918,1.973693,0.089286,49.434517,-0.01355,0.038315,0.987488,-0.022265,-0.016719,0.002251,62.200882,19.989716,-147.898727,,,
729607046.185253,1.970438,0.08664,49.436342,-0.01355,0.038315,0.987488,-0.022265,-0.016719,0.002251,62.200882,19.989716,-147.898727,,,
729607046.188641,1.970438,0.08664,49.436342,-0.01355,0.038315,0.987488,-0.022265,-0.016719,0.002251,62.200882,19.989716,-147.898727,,,
729607046.191934,1.967318,0.075311,49.439042,-0.014816,0.035263,0.990341,-0.01371,-0.036092,0.006682,62.200882,19.989716,-147.898727,,,
729607046.195281,1.966523,0.06799,49.44157,-0.014816,0.035263,0.990341,-0.01371,-0.036092,0.006682,62.200882,19.989716,-147.898727,,,
729607046.198589,1.966523,0.06799,49.44157,-0.014816,0.035263,0.990341,-0.01371,-0.036092,0.006682,62.200882,19.989716,-147.898727,,,
729607046.201938,1.965321,0.053067,49.444002,-0.009079,0.034714,0.994904,-0.003792,-0.048326,0.008408,62.200882,19.989716,-147.898727,,,
729607046.205249,1.965017,0.047458,49.445348,-0.009079,0.034714,0.994904,-0.003792,-0.048326,0.008408,61.909042,20.336502,-148.135941,,,
729607046.208579,1.965017,0.047458,49.445348,-0.009079,0.034714,0.994904,-0.003792,-0.048326,0.008408,61.909042,20.336502,-148.135941,,,
729607046.211945,1.962559,0.037744,49.445781,-0.0009,0.039474,0.99588,-0.007893,-0.033577,0.000915,61.909042,20.336502,-148.135941,,,
729607046.215262,1.959084,0.037318,49.445174,-0.0009,0.039474,0.99588,-0.007893,-0.033577,0.000915,61.909042,20.336502,-148.135941,,,
729607046.21859,1.959084,0.037318,49.445174,-0.0009,0.039474,0.99588,-0.007893,-0.033577,0.000915,61.909042,20.336502,-148.135941,,,
729607046.221994,1.95434,0.035077,49.444616,0.00293,0.039978,0.996918,-0.018718,-0.003324,-0.003148,61.909042,20.336502,-148.135941,,,
729607046.225253,1.950044,0.03861,49.444533,0.00293,0.039978,0.996918,-0.018718,-0.003324,-0.003148,61.909042,20.336502,-148.135941,,,
729607046.228648,1.950044,0.03861,49.444533,0.00293,0.039978,0.996918,-0.018718,-0.003324,-0.003148,61.909042,20.336502,-148.135941,,,
729607046.231904,1.94514,0.041155,49.445643,-0.002686,0.034286,0.995789,-0.016891,0.012474,0.00178,61.909042,20.336502,-148.135941,,,
729607046.235317,1.942179,0.045779,49.448112,-0.002686,0.034286,0.995789,-0.016891,0.012474,0.00178,61.909042,20.336502,-148.135941,,,
729607046.2386,1.942179,0.045779,49.448112,-0.002686,0.034286,0.995789,-0.016891,0.012474,0.00178,61.909042,20.336502,-148.135941,,,
729607046.24194,1.938857,0.048129,49.451792,-0.005951,0.029617,0.992828,-0.013914,0.011945,0.010619,61.909042,20.336502,-148.135941,,,
729607046.24526,1.937987,0.051451,49.455588,-0.005951,0.029617,0.992828,-0.013914,0.011945,0.010619,62.080917,20.099884,-147.865036,,,
729607046.248643,1.937987,0.051451,49.455588,-0.005951,0.029617,0.992828,-0.013914,0.011945,0.010619,62.080917,20.099884,-147.865036,,,
729607046.251907,1.936632,0.051035,49.459339,-0.004196,0.03093,0.992065,-0.003819,0.000311,0.013006,62.080917,20.099884,-147.865036,,,
729607046.255267,1.937244,0.053986,49.462889,-0.004196,0.03093,0.992065,-0.003819,0.000311,0.013006,62.080917,20.099884,-147.865036,,,
729607046.258586,1.937244,0.053986,49.462889,-0.004196,0.03093,0.992065,-0.003819,0.000311,0.013006,62.080917,20.099884,-147.865036,,,
729607046.261953,1.937433,0.051072,49.466348,-0.002777,0.030884,0.992981,0.001519,-0.006046,0.009604,62.080917,20.099884,-147.865036,,,
729607046.26525,1.938468,0.054097,49.468708,-0.002777,0.030884,0.992981,0.001519,-0.006046,0.009604,62.080917,20.099884,-147.865036,,,
729607046.268585,1.938468,0.054097,49.468708,-0.002777,0.030884,0.992981,0.001519,-0.006046,0.009604,62.080917,20.099884,-147.865036,,,
729607046.271928,1.939306,0.051694,49.470354,0.001236,0.034164,0.990112,0.001519,-0.005663,0.005389,62.080917,20.099884,-147.865036,,,
729607046.275354,1.940739,0.056299,49.471626,0.001236,0.034164,0.990112,0.001519,-0.005663,0.005389,62.080917,20.099884,-147.865036,,,
729607046.278586,1.940739,0.056299,49.471626,0.001236,0.034164,0.990112,0.001519,-0.005663,0.005389,62.080917,20.099884,-147.865036,,,
729607046.281931,1.94192,0.057962,49.473478,0.001663,0.032944,0.995361,0.002768,0.007173,0.006245,62.080917,20.099884,-147.865036,,,
729607046.285259,1.942911,0.063986,49.476269,0.001663,0.032944,0.995361,0.002768,0.007173,0.006245,61.989929,20.057465,-148.06192,,,
729607046.288656,1.942911,0.063986,49.476269,0.001663,0.032944,0.995361,0.002768,0.007173,0.006245,61.989929,20.057465,-148.06192,,,
729607046.291911,1.942866,0.070389,49.479625,0.001907,0.031433,0.999817,-0.000315,0.025196,0.010937,61.989929,20.057465,-148.06192,,,
729607046.295258,1.943391,0.07786,49.483142,0.001907,0.031433,0.999817,-0.000315,0.025196,0.010937,61.989929,20.057465,-148.06192,,,
729607046.298595,1.943391,0.07786,49.483142,0.001907,0.031433,0.999817,-0.000315,0.025196,0.010937,61.989929,20.057465,-148.06192,,,
729607046.301971,1.942221,0.088291,49.486391,0.003662,0.033173,0.992874,-0.002338,0.03927,0.009584,61.989929,20.057465,-148.06192,,,
729607046.305253,1.942098,0.098271,49.489028,0.003662,0.033173,0.992874,-0.002338,0.03927,0.009584,61.989929,20.057465,-148.06192,,,
729607046.308585,1.942098,0.098271,49.489028,0.003662,0.033173,0.992874,-0.002338,0.03927,0.009584,61.989929,20.057465,-148.06192,,,
729607046.311919,1.940862,0.109729,49.490564,0.004227,0.033646,0.990219,-0.005663,0.041409,0.005113,61.989929,20.057465,-148.06192,,,
729607046.315307,1.938403,0.120978,49.490935,0.004227,0.033646,0.990219,-0.005663,0.041409,0.005113,61.989929,20.057465,-148.06192,,,
729607046.318585,1.938403,0.120978,49.490935,0.004227,0.033646,0.990219,-0.005663,0.041409,0.005113,61.989929,20.057465,-148.06192,,,
729607046.321934,1.934835,0.128567,49.490809,0.001266,0.035416,0.982788,-0.010413,0.029868,-0.000829,61.989929,20.057465,-148.06192,,,
729607046.325295,1.929986,0.134544,49.490725,0.001266,0.035416,0.982788,-0.010413,0.029868,-0.000829,61.989929,20.057465,-148.06192,,,
729607046.328635,1.929986,0.134544,49.490725,0.001266,0.035416,0.982788,-0.010413,0.029868,-0.000829,62.194138,20.396759,-148.017853,,,
729607046.331912,1.925687,0.136536,49.491362,-0.006271,0.033554,0.979874,-0.016428,0.0093,0.000841,62.194138,20.396759,-148.017853,,,
729607046.335248,1.919994,0.13698,49.492712,-0.006271,0.033554,0.979874,-0.016428,0.0093,0.000841,62.194138,20.396759,-148.017853,,,
729607046.338585,1.919994,0.13698,49.492712,-0.006271,0.033554,0.979874,-0.016428,0.0093,0.000841,62.194138,20.396759,-148.017853,,,
729607046.341982,1.913537,0.134552,49.494636,-0.009445,0.030304,0.985687,-0.020591,-0.005259,0.00502,62.194138,20.396759,-148.017853,,,
729607046.345249,1.905197,0.131088,49.495829,-0.009445,0.030304,0.985687,-0.020591,-0.005259,0.00502,62.194138,20.396759,-148.017853,,,
729607046.348595,1.905197,0.131088,49.495829,-0.009445,0.030304,0.985687,-0.020591,-0.005259,0.00502,62.194138,20.396759,-148.017853,,,
729607046.351934,1.89542,0.128391,49.49603,-0.004349,0.031677,0.987488,-0.030943,-0.006152,-0.00065,62.194138,20.396759,-148.017853,,,
729607046.35529,1.885668,0.125431,49.495665,-0.004349,0.031677,0.987488,-0.030943,-0.006152,-0.00065,62.194138,20.396759,-148.017853,,,
729607046.35857,1.885668,0.125431,49.495665,-0.004349,0.031677,0.987488,-0.030943,-0.006152,-0.00065,62.194138,20.396759,-148.017853,,,
729607046.361923,1.875628,0.126151,49.494507,-0.001419,0.03421,0.995422,-0.034597,0.005378,-0.00641,62.194138,20.396759,-148.017853,,,
729607046.36527,1.865918,0.127958,49.493085,-0.001419,0.03421,0.995422,-0.034597,0.005378,-0.00641,62.194138,20.396759,-148.017853,,,
729607046.36864,1.865918,0.127958,49.493085,-0.001419,0.03421,0.995422,-0.034597,0.005378,-0.00641,62.135925,20.266571,-148.051117,,,
729607046.371914,1.85762,0.134549,49.492529,-0.001205,0.031479,1.00148,-0.030097,0.026986,-0.003347,62.135925,20.266571,-148.051117,,,
729607046.37525,1.851853,0.140915,49.493351,-0.001205,0.031479,1.00148,-0.030097,0.026986,-0.003347,62.135925,20.266571,-148.051117,,,
729607046.37857,1.851853,0.140915,49.493351,-0.001205,0.031479,1.00148,-0.030097,0.026986,-0.003347,62.135925,20.266571,-148.051117,,,
729607046.381922,1.849101,0.149672,49.49566,-0.005661,0.024521,1.00975,-0.007658,0.035747,0.004856,62.135925,20.266571,-148.051117,,,
729607046.385251,1.848873,0.155732,49.500365,-0.005661,0.024521,1.00975,-0.007658,0.035747,0.004856,62.135925,20.266571,-148.051117,,,
729607046.38858,1.848873,0.155732,49.500365,-0.005661,0.024521,1.00975,-0.007658,0.035747,0.004856,62.135925,20.266571,-148.051117,,,
729607046.391961,1.849705,0.164079,49.507008,-0.011353,0.022125,1.006973,0.00177,0.031602,0.021422,62.135925,20.266571,-148.051117,,,
729607046.39525,1.851642,0.169638,49.515194,-0.011353,0.022125,1.006973,0.00177,0.031602,0.021422,62.135925,20.266571,-148.051117,,,
729607046.398589,1.851642,0.169638,49.515194,-0.011353,0.022125,1.006973,0.00177,0.031602,0.021422,62.135925,20.266571,-148.051117,,,
729607046.401926,1.853363,0.17728,49.523673,-0.011948,0.024963,1.001007,0.008238,0.031973,0.027706,62.135925,20.266571,-148.051117,,,
729607046.405278,1.853363,0.183202,49.530797,-0.011948,0.024963,1.001007,0.008238,0.031973,0.027706,62.135925,20.266571,-148.051117,,,
729607046.408664,1.85512,0.183202,49.530797,-0.011948,0.024963,1.001007,0.008238,0.031973,0.027706,62.203888,20.261688,-147.939636,,,
729607046.411928,1.854819,0.18821,49.535538,-0.001785,0.036224,0.997711,0.000642,0.020896,0.017699,62.203888,20.261688,-147.939636,,,
729607046.41527,1.852972,0.193628,49.537743,-0.001785,0.036224,0.997711,0.000642,0.020896,0.017699,62.203888,20.261688,-147.939636,,,
729607046.418634,1.852972,0.193628,49.537743,-0.001785,0.036224,0.997711,0.000642,0.020896,0.017699,62.203888,20.261688,-147.939636,,,
729607046.421904,1.849599,0.195431,49.537766,0.00206,0.041519,0.991898,-0.010463,0.011917,-0.002747,62.203888,20.261688,-147.939636,,,
729607046.425252,1.849599,0.195431,49.537766,0.00206,0.041519,0.991898,-0.010463,0.011917,-0.002747,62.203888,20.261688,-147.939636,,,
729607046.428577,1.84449,0.198232,49.536231,0.00206,0.041519,0.991898,-0.010463,0.011917,-0.002747,62.203888,20.261688,-147.939636,,,
729607046.431953,1.837643,0.198387,49.534195,-0.003021,0.035461,0.991684,-0.02393,0.006649,-0.007698,62.203888,20.261688,-147.939636,,,
729607046.435245,1.829868,0.196877,49.532716,-0.003021,0.035461,0.991684,-0.02393,0.006649,-0.007698,62.203888,20.261688,-147.939636,,,
729607046.438577,1.829868,0.196877,49.532716,-0.003021,0.035461,0.991684,-0.02393,0.006649,-0.007698,62.203888,20.261688,-147.939636,,,
729607046.441914,1.821786,0.194465,49.53246,-0.006638,0.029358,0.993622,-0.02685,-0.007303,-0.004147,62.203888,20.261688,-147.939636,,,
729607046.445344,1.814382,0.190748,49.533416,-0.006638,0.029358,0.993622,-0.02685,-0.007303,-0.004147,62.203888,20.261688,-147.939636,,,
729607046.448559,1.814382,0.190748,49.533416,-0.006638,0.029358,0.993622,-0.02685,-0.007303,-0.004147,62.159973,20.477188,-147.803192,,,
729607046.451909,1.80766,0.187964,49.535931,-0.007721,0.028061,1.00177,-0.025333,-0.006445,0.006691,62.159973,20.477188,-147.803192,,,
729607046.455262,1.80766,0.185545,49.539991,-0.007721,0.028061,1.00177,-0.025333,-0.006445,0.006691,62.159973,20.477188,-147.803192,,,
729607046.458632,1.802145,0.185545,49.539991,-0.007721,0.028061,1.00177,-0.025333,-0.006445,0.006691,62.159973,20.477188,-147.803192,,,
729607046.461913,1.799428,0.185299,49.545369,-0.006943,0.026535,1.011215,-0.007356,0.000875,0.017039,62.159973,20.477188,-147.803192,,,
729607046.46526,1.799428,0.185299,49.545369,-0.006943,0.026535,1.011215,-0.007356,0.000875,0.017039,62.159973,20.477188,-147.803192,,,
729607046.468571,1.797815,0.188266,49.551961,-0.006943,0.026535,1.011215,-0.007356,0.000875,0.017039,62.159973,20.477188,-147.803192,,,
729607046.471956,1.79955,0.190461,49.559496,-0.005737,0.028214,1.012344,0.004778,0.012608,0.025393,62.159973,20.477188,-147.803192,,,
729607046.47525,1.79955,0.190461,49.559496,-0.005737,0.028214,1.012344,0.004778,0.012608,0.025393,62.159973,20.477188,-147.803192,,,
729607046.478586,1.799715,0.198507,49.567096,-0.005737,0.028214,1.012344,0.004778,0.012608,0.025393,62.159973,20.477188,-147.803192,,,
729607046.481919,1.801836,0.205185,49.574084,0.000595,0.032578,1.007812,0.009461,0.027716,0.024215,62.159973,20.477188,-147.803192,,,
729607046.485301,1.801836,0.205185,49.574084,0.000595,0.032578,1.007812,0.009461,0.027716,0.024215,62.159973,20.477188,-147.803192,,,
729607046.488576,1.803393,0.215133,49.579853,0.000595,0.032578,1.007812,0.009461,0.027716,0.024215,62.159973,20.477188,-147.803192,,,
729607046.491904,1.804399,0.222412,49.584415,0.008316,0.035324,1.004227,0.004437,0.02726,0.015924,61.936646,20.618805,-147.749512,,,
729607046.495246,1.804399,0.222412,49.584415,0.008316,0.035324,1.004227,0.004437,0.02726,0.015924,61.936646,20.618805,-147.749512,,,
729607046.498676,1.805951,0.225213,49.587933,0.008316,0.035324,1.004227,0.004437,0.02726,0.015924,61.936646,20.618805,-147.749512,,,
729607046.501913,1.805264,0.227868,49.590085,0.007263,0.037445,0.992706,-0.002484,0.016278,0.007454,61.936646,20.618805,-147.749512,,,
729607046.505266,1.805264,0.227868,49.590085,0.007263,0.037445,0.992706,-0.002484,0.016278,0.007454,61.936646,20.618805,-147.749512,,,
729607046.508578,1.804992,0.228131,49.590635,0.007263,0.037445,0.992706,-0.002484,0.016278,0.007454,61.936646,20.618805,-147.749512,,,
729607046.511917,1.801391,0.228871,49.590113,0.002609,0.035843,0.993942,-0.012786,0.005683,-0.004998,61.936646,20.618805,-147.749512,,,
729607046.515242,1.801391,0.228871,49.590113,0.002609,0.035843,0.993942,-0.012786,0.005683,-0.004998,61.936646,20.618805,-147.749512,,,
729607046.518592,1.796687,0.226622,49.589868,0.002609,0.035843,0.993942,-0.012786,0.005683,-0.004998,61.936646,20.618805,-147.749512,,,
729607046.521919,1.790877,0.221752,49.590014,-0.003906,0.034622,0.990387,-0.019648,-0.015912,-0.00022,61.936646,20.618805,-147.749512,,,
729607046.52532,1.790877,0.221752,49.590014,-0.003906,0.034622,0.990387,-0.019648,-0.015912,-0.00022,61.936646,20.618805,-147.749512,,,
729607046.528583,1.785038,0.217661,49.590278,-0.003906,0.034622,0.990387,-0.019648,-0.015912,-0.00022,61.936646,20.618805,-147.749512,,,
729607046.531913,1.781101,0.212503,49.590799,-0.002686,0.030655,1.000153,-0.013227,-0.015304,0.002867,61.997971,20.481491,-147.682068,,,
729607046.535236,1.781101,0.212503,49.590799,-0.002686,0.030655,1.000153,-0.013227,-0.015304,0.002867,61.997971,20.481491,-147.682068,,,
729607046.538659,1.777391,0.210337,49.590955,-0.002686,0.030655,1.000153,-0.013227,-0.015304,0.002867,61.997971,20.481491,-147.682068,,,
729607046.541896,1.775178,0.20799,49.590413,0.003586,0.033798,1.00737,-0.008582,-0.006816,-0.004378,61.997971,20.481491,-147.682068,,,
729607046.545253,1.775178,0.20799,49.590413,0.003586,0.033798,1.00737,-0.008582,-0.006816,-0.004378,61.997971,20.481491,-147.682068,,,
729607046.548574,1.772979,0.209102,49.5892,0.003586,0.033798,1.00737,-0.008582,-0.006816,-0.004378,61.997971,20.481491,-147.682068,,,
729607046.551908,1.771908,0.210944,49.587798,0.002533,0.034897,1.004456,0.000461,0.0095,-0.006004,61.997971,20.481491,-147.682068,,,
729607046.555267,1.771908,0.210944,49.587798,0.002533,0.034897,1.004456,0.000461,0.0095,-0.006004,61.997971,20.481491,-147.682068,,,
729607046.558593,1.771187,0.214691,49.586883,0.002533,0.034897,1.004456,0.000461,0.0095,-0.006004,61.997971,20.481491,-147.682068,,,
729607046.561915,1.771544,0.218981,49.58681,-0.001602,0.031113,1.005829,0.003498,0.020081,-0.003115,61.997971,20.481491,-147.682068,,,
729607046.56524,1.771544,0.218981,49.58681,-0.001602,0.031113,1.005829,0.003498,0.020081,-0.003115,61.997971,20.481491,-147.682068,,,
729607046.568584,1.772383,0.218216,49.587653,-0.001602,0.031113,1.005829,0.003498,0.020081,-0.003115,61.997971,20.481491,-147.682068,,,
729607046.571911,1.772613,0.219245,49.589159,-0.011749,0.028564,0.995041,-0.000868,0.005626,0.004944,62.13739,20.32962,-147.269363,,,
729607046.575242,1.772613,0.219245,49.589159,-0.011749,0.028564,0.995041,-0.000868,0.005626,0.004944,62.13739,20.32962,-147.269363,,,
729607046.57868,1.773058,0.214871,49.591244,-0.011749,0.028564,0.995041,-0.000868,0.005626,0.004944,62.13739,20.32962,-147.269363,,,
729607046.581891,1.771565,0.216336,49.593269,-0.014984,0.029907,0.995804,-0.002681,0.007606,0.005796,62.13739,20.32962,-147.269363,,,
729607046.585246,1.771565,0.216336,49.593269,-0.014984,0.029907,0.995804,-0.002681,0.007606,0.005796,62.13739,20.32962,-147.269363,,,
729607046.588596,1.770607,0.21265,49.594834,-0.014984,0.029907,0.995804,-0.002681,0.007606,0.005796,62.13739,20.32962,-147.269363,,,
729607046.591902,1.768751,0.211667,49.595543,-0.009262,0.031433,0.995193,-0.004955,0.000944,0.002535,62.13739,20.32962,-147.269363,,,
729607046.595261,1.768751,0.211667,49.595543,-0.009262,0.031433,0.995193,-0.004955,0.000944,0.002535,62.13739,20.32962,-147.269363,,,
729607046.598586,1.768904,0.20874,49.595741,-0.009262,0.031433,0.995193,-0.004955,0.000944,0.002535,62.13739,20.32962,-147.269363,,,
729607046.601912,1.769097,0.208589,49.595695,-0.014297,0.028381,1.000992,0.000258,-0.000502,-0.001226,62.13739,20.32962,-147.269363,,,
729607046.605295,1.769097,0.208589,49.595695,-0.014297,0.028381,1.000992,0.000258,-0.000502,-0.001226,62.13739,20.32962,-147.269363,,,
729607046.608592,1.769859,0.210156,49.596202,-0.014297,0.028381,1.000992,0.000258,-0.000502,-0.001226,62.13739,20.32962,-147.269363,,,
729607046.611912,1.770668,0.212683,49.597547,-0.015503,0.025146,1.005447,0.005781,0.011263,0.002175,62.161377,20.363174,-147.77243,,,
729607046.615239,1.770668,0.212683,49.597547,-0.015503,0.025146,1.005447,0.005781,0.011263,0.002175,62.161377,20.363174,-147.77243,,,
729607046.618627,1.772867,0.214052,49.600031,-0.015503,0.025146,1.005447,0.005781,0.011263,0.002175,62.161377,20.363174,-147.77243,,,
729607046.621929,1.776538,0.217532,49.602772,-0.014496,0.024506,1.004486,0.010461,0.015484,0.011461,62.161377,20.363174,-147.77243,,,
729607046.625255,1.776538,0.217532,49.602772,-0.014496,0.024506,1.004486,0.010461,0.015484,0.011461,62.161377,20.363174,-147.77243,,,
729607046.628587,1.781839,0.218015,49.605622,-0.014496,0.024506,1.004486,0.010461,0.015484,0.011461,62.161377,20.363174,-147.77243,,,
729607046.631916,1.787669,0.222508,49.608895,-0.014404,0.026794,1.004578,0.022181,0.018524,0.009003,62.161377,20.363174,-147.77243,,,
729607046.635251,1.787669,0.222508,49.608895,-0.014404,0.026794,1.004578,0.022181,0.018524,0.009003,62.161377,20.363174,-147.77243,,,
729607046.638593,1.793858,0.225489,49.612121,-0.014404,0.026794,1.004578,0.022181,0.018524,0.009003,62.161377,20.363174,-147.77243,,,
729607046.641911,1.799125,0.231244,49.614703,-0.015045,0.03096,0.995682,0.019304,0.024443,0.009961,62.161377,20.363174,-147.77243,,,
729607046.645253,1.799125,0.231244,49.614703,-0.015045,0.03096,0.995682,0.019304,0.024443,0.009961,62.161377,20.363174,-147.77243,,,
729607046.648582,1.803761,0.23739,49.617419,-0.015045,0.03096,0.995682,0.019304,0.024443,0.009961,62.161377,20.363174,-147.77243,,,
729607046.651911,1.807355,0.243122,49.619764,-0.01091,0.033966,0.989151,0.009461,0.024854,0.006988,62.161377,20.363174,-147.77243,,,
729607046.655279,1.807355,0.243122,49.619764,-0.01091,0.033966,0.989151,0.009461,0.024854,0.006988,62.45845,20.229523,-147.703201,,,
729607046.658582,1.808648,0.252616,49.621455,-0.01091,0.033966,0.989151,0.009461,0.024854,0.006988,62.45845,20.229523,-147.703201,,,
729607046.661906,1.809078,0.256009,49.623824,-0.010834,0.031342,0.982697,0.002033,0.014256,0.004768,62.45845,20.229523,-147.703201,,,
729607046.665239,1.809078,0.256009,49.623824,-0.010834,0.031342,0.982697,0.002033,0.014256,0.004768,62.45845,20.229523,-147.703201,,,
729607046.668631,1.809034,0.261397,49.626538,-0.010834,0.031342,0.982697,0.002033,0.014256,0.004768,62.45845,20.229523,-147.703201,,,
729607046.671908,1.808575,0.262181,49.629879,-0.010727,0.028046,0.98381,-0.001273,0.005853,0.010849,62.45845,20.229523,-147.703201,,,
729607046.675253,1.808575,0.262181,49.629879,-0.010727,0.028046,0.98381,-0.001273,0.005853,0.010849,62.45845,20.229523,-147.703201,,,
729607046.678595,1.806475,0.264018,49.633027,-0.010727,0.028046,0.98381,-0.001273,0.005853,0.010849,62.45845,20.229523,-147.703201,,,
729607046.681985,1.803415,0.262106,49.635634,-0.005585,0.030426,0.983887,-0.012187,-0.003082,0.009474,62.45845,20.229523,-147.703201,,,
729607046.685252,1.803415,0.262106,49.635634,-0.005585,0.030426,0.983887,-0.012187,-0.003082,0.009474,62.45845,20.229523,-147.703201,,,
729607046.688601,1.798677,0.264491,49.637661,-0.005585,0.030426,0.983887,-0.012187,-0.003082,0.009474,62.45845,20.229523,-147.703201,,,
729607046.691907,1.793975,0.262181,49.638587,0.000366,0.032074,0.98497,-0.015024,-0.002743,0.002501,62.45845,20.229523,-147.703201,,,
729607046.695239,1.793975,0.262181,49.638587,0.000366,0.032074,0.98497,-0.015024,-0.002743,0.002501,62.195435,20.281006,-147.603912,,,
729607046.698592,1.789217,0.264513,49.638663,0.000366,0.032074,0.98497,-0.015024,-0.002743,0.002501,62.195435,20.281006,-147.603912,,,
729607046.701901,1.787066,0.26308,49.638578,0.00621,0.032806,0.988358,-0.008863,-0.002953,-0.002621,62.195435,20.281006,-147.603912,,,
729607046.7053,1.787066,0.26308,49.638578,0.00621,0.032806,0.988358,-0.008863,-0.002953,-0.002621,62.195435,20.281006,-147.603912,,,
729607046.708577,1.784943,0.267099,49.637187,0.00621,0.032806,0.988358,-0.008863,-0.002953,-0.002621,62.195435,20.281006,-147.603912,,,
729607046.71191,1.785377,0.267396,49.635507,0.010254,0.032806,0.995956,-0.000507,0.006512,-0.00822,62.195435,20.281006,-147.603912,,,
729607046.715338,1.785377,0.267396,49.635507,0.010254,0.032806,0.995956,-0.000507,0.006512,-0.00822,62.195435,20.281006,-147.603912,,,
729607046.718637,1.784822,0.273174,49.633409,0.010254,0.032806,0.995956,-0.000507,0.006512,-0.00822,62.195435,20.281006,-147.603912,,,
729607046.721902,1.783055,0.277143,49.631174,0.007812,0.033142,0.990555,-0.003763,0.016042,-0.007343,62.195435,20.281006,-147.603912,,,
729607046.725238,1.783055,0.277143,49.631174,0.007812,0.033142,0.990555,-0.003763,0.016042,-0.007343,62.195435,20.281006,-147.603912,,,
729607046.728572,1.780801,0.288185,49.629251,0.007812,0.033142,0.990555,-0.003763,0.016042,-0.007343,62.195435,20.281006,-147.603912,,,
729607046.731907,1.777906,0.29707,49.628394,0.00296,0.028839,0.991592,-0.010384,0.034502,-0.001545,62.195435,20.281006,-147.603912,,,
729607046.735236,1.777906,0.29707,49.628394,0.00296,0.028839,0.991592,-0.010384,0.034502,-0.001545,62.400024,20.321976,-147.689392,,,
729607046.738593,1.775709,0.309328,49.628799,0.00296,0.028839,0.991592,-0.010384,0.034502,-0.001545,62.400024,20.321976,-147.689392,,,
729607046.741908,1.773981,0.319045,49.629253,-0.000183,0.026489,0.995819,-0.005376,0.035452,0.001053,62.400024,20.321976,-147.689392,,,
729607046.745295,1.773981,0.319045,49.629253,-0.000183,0.026489,0.995819,-0.005376,0.035452,0.001053,62.400024,20.321976,-147.689392,,,
729607046.74857,1.772355,0.33066,49.628861,-0.000183,0.026489,0.995819,-0.005376,0.035452,0.001053,62.400024,20.321976,-147.689392,,,
729607046.751906,1.771208,0.338573,49.627654,-0.000458,0.030655,0.998444,-0.000596,0.029485,-0.005647,62.400024,20.321976,-147.689392,,,
729607046.75524,1.771208,0.338573,49.627654,-0.000458,0.030655,0.998444,-0.000596,0.029485,-0.005647,62.400024,20.321976,-147.689392,,,
729607046.758639,1.770293,0.346267,49.625199,-0.000458,0.030655,0.998444,-0.000596,0.029485,-0.005647,62.400024,20.321976,-147.689392,,,
729607046.76191,1.768971,0.351025,49.621754,-0.001328,0.035583,0.993301,-0.005013,0.017983,-0.014492,62.400024,20.321976,-147.689392,,,
729607046.76524,1.768971,0.351025,49.621754,-0.001328,0.035583,0.993301,-0.005013,0.017983,-0.014492,62.400024,20.321976,-147.689392,,,
729607046.768567,1.766862,0.353622,49.617473,-0.001328,0.035583,0.993301,-0.005013,0.017983,-0.014492,62.400024,20.321976,-147.689392,,,
729607046.771912,1.763055,0.35583,49.612508,-0.005432,0.036469,0.992874,-0.013335,0.011259,-0.018308,62.400024,20.321976,-147.689392,,,
729607046.775264,1.763055,0.35583,49.612508,-0.005432,0.036469,0.992874,-0.013335,0.011259,-0.018308,62.466751,20.371536,-147.697403,,,
729607046.778605,1.757821,0.353517,49.607389,-0.005432,0.036469,0.992874,-0.013335,0.011259,-0.018308,62.466751,20.371536,-147.697403,,,
729607046.781919,1.750325,0.354275,49.602533,-0.009155,0.035645,0.989944,-0.023866,0.00382,-0.018376,62.466751,20.371536,-147.697403,,,
729607046.785242,1.750325,0.354275,49.602533,-0.009155,0.035645,0.989944,-0.023866,0.00382,-0.018376,62.466751,20.371536,-147.697403,,,
729607046.788592,1.741387,0.348508,49.598464,-0.009155,0.035645,0.989944,-0.023866,0.00382,-0.018376,62.466751,20.371536,-147.697403,,,
729607046.791919,1.731287,0.349289,49.594631,-0.012253,0.033752,0.995148,-0.034327,0.005755,-0.015383,62.466751,20.371536,-147.697403,,,
729607046.795264,1.731287,0.349289,49.594631,-0.012253,0.033752,0.995148,-0.034327,0.005755,-0.015383,62.466751,20.371536,-147.697403,,,
729607046.798643,1.721629,0.342956,49.591146,-0.012253,0.033752,0.995148,-0.034327,0.005755,-0.015383,62.466751,20.371536,-147.697403,,,
729607046.801903,1.712275,0.344479,49.58729,-0.010895,0.030029,1.002625,-0.031643,0.00782,-0.013804,62.466751,20.371536,-147.697403,,,
729607046.805263,1.712275,0.344479,49.58729,-0.010895,0.030029,1.002625,-0.031643,0.00782,-0.013804,62.466751,20.371536,-147.697403,,,
729607046.808576,1.704143,0.341272,49.583894,-0.010895,0.030029,1.002625,-0.031643,0.00782,-0.013804,62.466751,20.371536,-147.697403,,,
729607046.811902,1.696455,0.343814,49.581011,-0.012665,0.027237,1.0056,-0.031618,0.013692,-0.01183,62.466751,20.371536,-147.697403,,,
729607046.81524,1.696455,0.343814,49.581011,-0.012665,0.027237,1.0056,-0.031618,0.013692,-0.01183,62.466751,20.371536,-147.697403,,,
729607046.81857,1.688918,0.343894,49.579169,-0.012665,0.027237,1.0056,-0.031618,0.013692,-0.01183,62.366989,20.295151,-147.660919,,,
729607046.821915,1.682963,0.348145,49.57888,-0.01442,0.025284,1.008362,-0.019011,0.016601,-0.001908,62.366989,20.295151,-147.660919,,,
729607046.825243,1.682963,0.348145,49.57888,-0.01442,0.025284,1.008362,-0.019011,0.016601,-0.001908,62.366989,20.295151,-147.660919,,,
729607046.828693,1.678243,0.350404,49.580312,-0.01442,0.025284,1.008362,-0.019011,0.016601,-0.001908,62.366989,20.295151,-147.660919,,,
729607046.831938,1.675328,0.354746,49.583175,-0.016083,0.023041,1.012451,-0.010295,0.017799,0.00848,62.366989,20.295151,-147.660919,,,
729607046.835241,1.675328,0.354746,49.583175,-0.016083,0.023041,1.012451,-0.010295,0.017799,0.00848,62.366989,20.295151,-147.660919,,,
729607046.838682,1.674125,0.35517,49.587634,-0.016083,0.023041,1.012451,-0.010295,0.017799,0.00848,62.366989,20.295151,-147.660919,,,
729607046.841911,1.672975,0.35738,49.592722,-0.013229,0.020767,1.013321,-0.004388,0.010274,0.01531,62.366989,20.295151,-147.660919,,,
729607046.84526,1.672975,0.35738,49.592722,-0.013229,0.020767,1.013321,-0.004388,0.010274,0.01531,62.366989,20.295151,-147.660919,,,
729607046.848591,1.673663,0.358418,49.59685,-0.013229,0.020767,1.013321,-0.004388,0.010274,0.01531,62.366989,20.295151,-147.660919,,,
729607046.851917,1.673417,0.360154,49.59919,-0.010391,0.028336,1.014526,0.00032,0.010716,0.008672,62.366989,20.295151,-147.660919,,,
729607046.855258,1.673417,0.360154,49.59919,-0.010391,0.028336,1.014526,0.00032,0.010716,0.008672,62.366989,20.295151,-147.660919,,,
729607046.858594,1.675041,0.361648,49.599654,-0.010391,0.028336,1.014526,0.00032,0.010716,0.008672,62.435242,20.438751,-147.33696,,,
729607046.861916,1.675905,0.362608,49.598237,-0.005371,0.034058,1.014084,0.003178,0.006712,-0.005294,62.435242,20.438751,-147.33696,,,
729607046.865243,1.675905,0.362608,49.598237,-0.005371,0.034058,1.014084,0.003178,0.006712,-0.005294,62.435242,20.438751,-147.33696,,,
729607046.868576,1.679115,0.366313,49.595884,-0.005371,0.034058,1.014084,0.003178,0.006712,-0.005294,62.435242,20.438751,-147.33696,,,
729607046.871917,1.681966,0.369114,49.592821,-0.006393,0.032913,1.015762,0.011151,0.01382,-0.01318,62.435242,20.438751,-147.33696,,,
729607046.875307,1.681966,0.369114,49.592821,-0.006393,0.032913,1.015762,0.011151,0.01382,-0.01318,62.435242,20.438751,-147.33696,,,
729607046.878591,1.685206,0.375226,49.589563,-0.006393,0.032913,1.015762,0.011151,0.01382,-0.01318,62.435242,20.438751,-147.33696,,,
729607046.881912,1.687541,0.378762,49.587667,-0.00592,0.029404,1.008118,0.010182,0.015043,-0.011216,62.435242,20.438751,-147.33696,,,
729607046.885255,1.687541,0.378762,49.587667,-0.00592,0.029404,1.008118,0.010182,0.015043,-0.011216,62.435242,20.438751,-147.33696,,,
729607046.888664,1.689345,0.383839,49.587077,-0.00592,0.029404,1.008118,0.010182,0.015043,-0.011216,62.435242,20.438751,-147.33696,,,
729607046.891905,1.690477,0.386271,49.587769,-0.011307,0.027283,1.00177,0.003859,0.012341,0.002948,62.435242,20.438751,-147.33696,,,
729607046.895298,1.690477,0.386271,49.587769,-0.011307,0.027283,1.00177,0.003859,0.012341,0.002948,62.435242,20.438751,-147.33696,,,
729607046.89858,1.689929,0.38991,49.589668,-0.011307,0.027283,1.00177,0.003859,0.012341,0.002948,62.269333,20.625519,-147.635468,,,
729607046.901917,1.689244,0.388545,49.592586,-0.013153,0.025696,0.997925,-0.003646,-0.001561,0.00667,62.269333,20.625519,-147.635468,,,
729607046.905259,1.689244,0.388545,49.592586,-0.013153,0.025696,0.997925,-0.003646,-0.001561,0.00667,62.269333,20.625519,-147.635468,,,
729607046.908587,1.687745,0.389565,49.59601,-0.013153,0.025696,0.997925,-0.003646,-0.001561,0.00667,62.269333,20.625519,-147.635468,,,
729607046.911915,1.686681,0.386166,49.599463,-0.012283,0.02803,0.998825,-0.001331,-0.008601,0.008572,62.269333,20.625519,-147.635468,,,
729607046.915242,1.686681,0.386166,49.599463,-0.012283,0.02803,0.998825,-0.001331,-0.008601,0.008572,62.269333,20.625519,-147.635468,,,
729607046.918582,1.683654,0.386001,49.602169,-0.012283,0.02803,0.998825,-0.001331,-0.008601,0.008572,62.269333,20.625519,-147.635468,,,
729607046.921912,1.682502,0.381926,49.60453,-0.005814,0.029434,1.001953,-0.006042,-0.010196,0.005058,62.269333,20.625519,-147.635468,,,
729607046.925234,1.682502,0.381926,49.60453,-0.005814,0.029434,1.001953,-0.006042,-0.010196,0.005058,62.269333,20.625519,-147.635468,,,
729607046.928573,1.680761,0.379913,49.606921,-0.005814,0.029434,1.001953,-0.006042,-0.010196,0.005058,62.269333,20.625519,-147.635468,,,
729607046.931928,1.681074,0.375468,49.610315,-0.003571,0.026535,1.001129,0.000503,-0.016836,0.010795,62.269333,20.625519,-147.635468,,,
729607046.935252,1.681074,0.375468,49.610315,-0.003571,0.026535,1.001129,0.000503,-0.016836,0.010795,62.269333,20.625519,-147.635468,,,
729607046.938623,1.683416,0.372124,49.614426,-0.003571,0.026535,1.001129,0.000503,-0.016836,0.010795,62.269333,20.625519,-147.635468,,,
729607046.941911,1.687694,0.369393,49.618842,-0.001541,0.025208,1.008789,0.015476,-0.007004,0.01259,62.319504,20.546204,-147.69165,,,
729607046.945247,1.687694,0.369393,49.618842,-0.001541,0.025208,1.008789,0.015476,-0.007004,0.01259,62.319504,20.546204,-147.69165,,,
729607046.948586,1.694779,0.368453,49.623592,-0.001541,0.025208,1.008789,0.015476,-0.007004,0.01259,62.319504,20.546204,-147.69165,,,
729607046.951905,1.702172,0.369723,49.628125,0.005554,0.025314,1.007797,0.025786,0.008729,0.01581,62.319504,20.546204,-147.69165,,,
729607046.955249,1.702172,0.369723,49.628125,0.005554,0.025314,1.007797,0.025786,0.008729,0.01581,62.319504,20.546204,-147.69165,,,
729607046.95858,1.709831,0.372873,49.632036,0.005554,0.025314,1.007797,0.025786,0.008729,0.01581,62.319504,20.546204,-147.69165,,,
729607046.961914,1.716559,0.377795,49.635239,0.008362,0.031448,0.997696,0.025262,0.019305,0.010253,62.319504,20.546204,-147.69165,,,
729607046.965232,1.716559,0.377795,49.635239,0.008362,0.031448,0.997696,0.025262,0.019305,0.010253,62.319504,20.546204,-147.69165,,,
729607046.968588,1.721633,0.384688,49.637225,0.008362,0.031448,0.997696,0.025262,0.019305,0.010253,62.319504,20.546204,-147.69165,,,
729607046.971903,1.724615,0.392715,49.638304,0.011078,0.038101,0.986206,0.010553,0.031413,0.00154,62.319504,20.546204,-147.69165,,,
729607046.975332,1.724615,0.392715,49.638304,0.011078,0.038101,0.986206,0.010553,0.031413,0.00154,62.319504,20.546204,-147.69165,,,
729607046.978581,1.72449,0.40437,49.638826,0.011078,0.038101,0.986206,0.010553,0.031413,0.00154,62.319504,20.546204,-147.69165,,,
729607046.981918,1.722572,0.412141,49.639157,0.006866,0.040497,0.97937,-0.006416,0.027171,2.5e-05,62.335587,20.436279,-147.468689,,,
729607046.985254,1.722572,0.412141,49.639157,0.006866,0.040497,0.97937,-0.006416,0.027171,2.5e-05,62.335587,20.436279,-147.468689,,,
729607046.988658,1.718087,0.41996,49.639327,0.006866,0.040497,0.97937,-0.006416,0.027171,2.5e-05,62.335587,20.436279,-147.468689,,,
729607046.991897,1.713204,0.422384,49.639539,-0.004547,0.03656,0.975815,-0.017933,0.014427,-0.002393,62.335587,20.436279,-147.468689,,,
729607046.995239,1.713204,0.422384,49.639539,-0.004547,0.03656,0.975815,-0.017933,0.014427,-0.002393,62.335587,20.436279,-147.468689,,,
729607046.998591,1.707636,0.423687,49.639485,-0.004547,0.03656,0.975815,-0.017933,0.014427,-0.002393,62.335587,20.436279,-147.468689,,,
729607047.001905,1.702266,0.420743,49.638728,-0.002945,0.032288,0.978271,-0.018932,-0.009102,-0.00438,62.335587,20.436279,-147.468689,,,
729607047.005239,1.702266,0.420743,49.638728,-0.002945,0.032288,0.978271,-0.018932,-0.009102,-0.00438,62.335587,20.436279,-147.468689,,,
729607047.008582,1.697714,0.414563,49.637332,-0.002945,0.032288,0.978271,-0.018932,-0.009102,-0.00438,62.335587,20.436279,-147.468689,,,
729607047.011904,1.693977,0.40953,49.635286,-0.003601,0.0345,0.987869,-0.011661,-0.013463,-0.008564,62.335587,20.436279,-147.468689,,,
729607047.015249,1.693977,0.40953,49.635286,-0.003601,0.0345,0.987869,-0.011661,-0.013463,-0.008564,62.335587,20.436279,-147.468689,,,
729607047.018584,1.689102,0.403453,49.632627,-0.003601,0.0345,0.987869,-0.011661,-0.013463,-0.008564,62.335587,20.436279,-147.468689,,,
729607047.021912,1.68382,0.400113,49.629809,-0.006042,0.033936,0.990982,-0.018441,-0.011597,-0.009785,62.378738,20.48909,-147.604797,,,
729607047.025301,1.68382,0.400113,49.629809,-0.006042,0.033936,0.990982,-0.018441,-0.011597,-0.009785,62.378738,20.48909,-147.604797,,,
729607047.028564,1.676081,0.395006,49.627739,-0.006042,0.033936,0.990982,-0.018441,-0.011597,-0.009785,62.378738,20.48909,-147.604797,,,
729607047.031906,1.669053,0.394347,49.626167,-0.007233,0.028885,0.991638,-0.023886,0.000177,-0.007758,62.378738,20.48909,-147.604797,,,
729607047.03524,1.669053,0.394347,49.626167,-0.007233,0.028885,0.991638,-0.023886,0.000177,-0.007758,62.378738,20.48909,-147.604797,,,
729607047.038634,1.661701,0.389089,49.62537,-0.007233,0.028885,0.991638,-0.023886,0.000177,-0.007758,62.378738,20.48909,-147.604797,,,
729607047.041904,1.654529,0.390619,49.62549,-0.009277,0.023712,0.999344,-0.024158,0.009016,-0.001669,62.378738,20.48909,-147.604797,,,
729607047.045246,1.654529,0.390619,49.62549,-0.009277,0.023712,0.999344,-0.024158,0.009016,-0.001669,62.378738,20.48909,-147.604797,,,
729607047.048606,1.648428,0.384678,49.627203,-0.009277,0.023712,0.999344,-0.024158,0.009016,-0.001669,62.378738,20.48909,-147.604797,,,
729607047.051908,1.642189,0.385789,49.629552,-0.014465,0.019363,1.000916,-0.01905,0.006646,0.008623,62.378738,20.48909,-147.604797,,,
729607047.055265,1.642189,0.385789,49.629552,-0.014465,0.019363,1.000916,-0.01905,0.006646,0.008623,62.378738,20.48909,-147.604797,,,
729607047.058564,1.639632,0.379153,49.632276,-0.014465,0.019363,1.000916,-0.01905,0.006646,0.008623,62.378738,20.48909,-147.604797,,,
