Time (sec),Pitch (deg),Roll (deg),Yaw(deg),X-Acceleration (g),Y-Acceleration (g),Z-Acceleration (g),Pitch Rate (deg/sec),Roll Rate (deg/sec),Yaw Rate (deg/sec),Magnetic Field in X direction (uT),Magnetic Field in Y direction (uT),Magnetic Field in Z Direction (uT),Latitude (deg),Longitude (deg),Altitude (m)
729608285.034047,-3.587071,-1.216948,56.042736,0.01976,-0.071594,0.995331,0.000776,-0.057095,-0.023131,60.758636,26.78183,-146.225922,,,
729608285.037405,-3.586329,-1.235131,56.036838,0.01976,-0.071594,0.995331,0.000776,-0.057095,-0.023131,60.758636,26.78183,-146.225922,,,
729608285.040692,-3.583624,-1.257852,56.030853,0.018295,-0.072845,0.996033,0.007609,-0.07413,-0.020201,60.758636,26.78183,-146.225922,,,
729608285.043845,-3.583624,-1.257852,56.030853,0.018295,-0.072845,0.996033,0.007609,-0.07413,-0.020201,60.758636,26.78183,-146.225922,,,
729608285.047395,-3.581676,-1.281154,56.025659,0.018295,-0.072845,0.996033,0.007609,-0.07413,-0.020201,60.758636,26.78183,-146.225922,,,
729608285.050678,-3.578517,-1.309413,56.02072,0.017578,-0.076416,0.993973,0.007424,-0.0951,-0.022836,60.758636,26.78183,-146.225922,,,
729608285.05402,-3.578517,-1.309413,56.02072,0.017578,-0.076416,0.993973,0.007424,-0.0951,-0.022836,60.758636,26.78183,-146.225922,,,
729608285.057387,-3.576472,-1.3388,56.015339,0.017578,-0.076416,0.993973,0.007424,-0.0951,-0.022836,60.758636,26.78183,-146.225922,,,
729608285.060676,-3.574419,-1.370561,56.008859,0.018723,-0.072357,0.987915,0.004025,-0.104422,-0.026873,60.758636,26.78183,-146.225922,,,
729608285.064004,-3.574419,-1.370561,56.008859,0.018723,-0.072357,0.987915,0.004025,-0.104422,-0.026873,60.757706,26.655655,-146.167252,,,
729608285.067442,-3.574029,-1.401243,56.000758,0.018723,-0.072357,0.987915,0.004025,-0.104422,-0.026873,60.757706,26.655655,-146.167252,,,
729608285.070681,-3.573476,-1.431338,55.991685,0.023087,-0.067245,0.98941,-0.007832,-0.084685,-0.031957,60.757706,26.655655,-146.167252,,,
729608285.074042,-3.573476,-1.431338,55.991685,0.023087,-0.067245,0.98941,-0.007832,-0.084685,-0.031957,60.757706,26.655655,-146.167252,,,
729608285.077352,-3.576129,-1.456665,55.982699,0.023087,-0.067245,0.98941,-0.007832,-0.084685,-0.031957,60.757706,26.655655,-146.167252,,,
729608285.08069,-3.579364,-1.478501,55.974969,0.022446,-0.067917,0.992004,-0.01922,-0.05737,-0.021419,60.757706,26.655655,-146.167252,,,
729608285.084019,-3.579364,-1.478501,55.974969,0.022446,-0.067917,0.992004,-0.01922,-0.05737,-0.021419,60.757706,26.655655,-146.167252,,,
729608285.087367,-3.585305,-1.495277,55.97,0.022446,-0.067917,0.992004,-0.01922,-0.05737,-0.021419,60.757706,26.655655,-146.167252,,,
729608285.090684,-3.5927,-1.50602,55.967364,0.019638,-0.071976,0.993698,-0.025058,-0.020573,-0.006558,60.757706,26.655655,-146.167252,,,
729608285.094084,-3.5927,-1.50602,55.967364,0.019638,-0.071976,0.993698,-0.025058,-0.020573,-0.006558,60.757706,26.655655,-146.167252,,,
729608285.09736,-3.599993,-1.511327,55.96586,0.019638,-0.071976,0.993698,-0.025058,-0.020573,-0.006558,60.757706,26.655655,-146.167252,,,
729608285.100688,-3.608496,-1.510599,55.965104,0.024536,-0.067154,1.000656,-0.022119,0.007012,-0.00023,60.757706,26.655655,-146.167252,,,
729608285.104018,-3.608496,-1.510599,55.965104,0.024536,-0.067154,1.000656,-0.022119,0.007012,-0.00023,60.537125,26.747726,-146.317261,,,
729608285.10745,-3.614279,-1.508187,55.965239,0.024536,-0.067154,1.000656,-0.022119,0.007012,-0.00023,60.537125,26.747726,-146.317261,,,
729608285.110677,-3.621515,-1.502954,55.966163,0.02272,-0.064255,0.999557,-0.017426,0.019598,-0.000546,60.537125,26.747726,-146.317261,,,
729608285.114009,-3.621515,-1.502954,55.966163,0.02272,-0.064255,0.999557,-0.017426,0.019598,-0.000546,60.537125,26.747726,-146.317261,,,
729608285.117383,-3.626504,-1.498164,55.967074,0.02272,-0.064255,0.999557,-0.017426,0.019598,-0.000546,60.537125,26.747726,-146.317261,,,
729608285.12068,-3.632743,-1.490726,55.968604,0.017548,-0.065094,0.995361,-0.010493,0.022877,0.00833,60.537125,26.747726,-146.317261,,,
729608285.124025,-3.632743,-1.490726,55.968604,0.017548,-0.065094,0.995361,-0.010493,0.022877,0.00833,60.537125,26.747726,-146.317261,,,
729608285.127363,-3.635359,-1.485068,55.971381,0.017548,-0.065094,0.995361,-0.010493,0.022877,0.00833,60.537125,26.747726,-146.317261,,,
729608285.13068,-3.639086,-1.478075,55.975542,0.012589,-0.07222,0.998657,0.001388,0.013427,0.01472,60.537125,26.747726,-146.317261,,,
729608285.134015,-3.639086,-1.478075,55.975542,0.012589,-0.07222,0.998657,0.001388,0.013427,0.01472,60.537125,26.747726,-146.317261,,,
729608285.137368,-3.639234,-1.475468,55.980471,0.012589,-0.07222,0.998657,0.001388,0.013427,0.01472,60.537125,26.747726,-146.317261,,,
729608285.140677,-3.641025,-1.473916,55.986402,0.015244,-0.075485,0.990585,0.006526,-0.008787,0.021864,60.537125,26.747726,-146.317261,,,
729608285.144011,-3.641025,-1.473916,55.986402,0.015244,-0.075485,0.990585,0.006526,-0.008787,0.021864,60.636673,26.631805,-146.184265,,,
729608285.147351,-3.639476,-1.477341,55.992938,0.015244,-0.075485,0.990585,0.006526,-0.008787,0.021864,60.636673,26.631805,-146.184265,,,
729608285.150678,-3.639112,-1.482776,55.999289,0.016006,-0.069687,0.982788,0.008313,-0.02615,0.015766,60.636673,26.631805,-146.184265,,,
729608285.154028,-3.639112,-1.482776,55.999289,0.016006,-0.069687,0.982788,0.008313,-0.02615,0.015766,60.636673,26.631805,-146.184265,,,
729608285.157393,-3.637704,-1.491919,56.005002,0.016006,-0.069687,0.982788,0.008313,-0.02615,0.015766,60.636673,26.631805,-146.184265,,,
729608285.16068,-3.637292,-1.502749,56.010287,0.023392,-0.05899,0.986221,0.006514,-0.040537,0.016258,60.636673,26.631805,-146.184265,,,
729608285.16403,-3.637292,-1.502749,56.010287,0.023392,-0.05899,0.986221,0.006514,-0.040537,0.016258,60.636673,26.631805,-146.184265,,,
729608285.167352,-3.635647,-1.515386,56.015317,0.023392,-0.05899,0.986221,0.006514,-0.040537,0.016258,60.636673,26.631805,-146.184265,,,
729608285.17068,-3.634955,-1.526777,56.020449,0.029358,-0.058884,0.989395,0.012437,-0.040584,0.01577,60.636673,26.631805,-146.184265,,,
729608285.174037,-3.634955,-1.526777,56.020449,0.029358,-0.058884,0.989395,0.012437,-0.040584,0.01577,60.636673,26.631805,-146.184265,,,
729608285.17736,-3.632064,-1.538697,56.025326,0.029358,-0.058884,0.989395,0.012437,-0.040584,0.01577,60.636673,26.631805,-146.184265,,,
729608285.180681,-3.63017,-1.546772,56.030384,0.037369,-0.057938,0.99231,0.012552,-0.020843,0.015965,60.636673,26.631805,-146.184265,,,
729608285.184031,-3.63017,-1.546772,56.030384,0.037369,-0.057938,0.99231,0.012552,-0.020843,0.015965,60.636673,26.631805,-146.184265,,,
729608285.187358,-3.626419,-1.552948,56.035217,0.037369,-0.057938,0.99231,0.012552,-0.020843,0.015965,60.454727,26.495285,-146.443649,,,
729608285.190673,-3.622732,-1.555793,56.039525,0.039963,-0.055084,0.994446,0.01634,-0.003487,0.011069,60.454727,26.495285,-146.443649,,,
729608285.194093,-3.622732,-1.555793,56.039525,0.039963,-0.055084,0.994446,0.01634,-0.003487,0.011069,60.454727,26.495285,-146.443649,,,
729608285.197369,-3.618384,-1.556912,56.04351,0.039963,-0.055084,0.994446,0.01634,-0.003487,0.011069,60.454727,26.495285,-146.443649,,,
729608285.200708,-3.614752,-1.55363,56.047015,0.045319,-0.051651,0.994308,0.011555,0.015146,0.010784,60.454727,26.495285,-146.443649,,,
729608285.204041,-3.614752,-1.55363,56.047015,0.045319,-0.051651,0.994308,0.011555,0.015146,0.010784,60.454727,26.495285,-146.443649,,,
729608285.207421,-3.61198,-1.549841,56.050015,0.045319,-0.051651,0.994308,0.011555,0.015146,0.010784,60.454727,26.495285,-146.443649,,,
729608285.210684,-3.611499,-1.540965,56.053907,0.046677,-0.055481,0.989746,0.007854,0.026031,0.013478,60.454727,26.495285,-146.443649,,,
729608285.214017,-3.611499,-1.540965,56.053907,0.046677,-0.055481,0.989746,0.007854,0.026031,0.013478,60.454727,26.495285,-146.443649,,,
729608285.217364,-3.610097,-1.534067,56.05808,0.046677,-0.055481,0.989746,0.007854,0.026031,0.013478,60.454727,26.495285,-146.443649,,,
729608285.220678,-3.612582,-1.523542,56.062338,0.045731,-0.055634,0.987915,-0.00298,0.02748,0.011572,60.454727,26.495285,-146.443649,,,
729608285.224023,-3.612582,-1.523542,56.062338,0.045731,-0.055634,0.987915,-0.00298,0.02748,0.011572,60.454727,26.495285,-146.443649,,,
729608285.227366,-3.613701,-1.516192,56.066251,0.045731,-0.055634,0.987915,-0.00298,0.02748,0.011572,60.500519,26.473282,-146.451813,,,
729608285.230687,-3.618332,-1.506531,56.06965,0.045425,-0.053558,0.985916,-0.007517,0.025783,0.008367,60.500519,26.473282,-146.451813,,,
729608285.234013,-3.618332,-1.506531,56.06965,0.045425,-0.053558,0.985916,-0.007517,0.025783,0.008367,60.500519,26.473282,-146.451813,,,
729608285.237351,-3.620802,-1.500004,56.071813,0.045425,-0.053558,0.985916,-0.007517,0.025783,0.008367,60.500519,26.473282,-146.451813,,,
729608285.2407,-3.623585,-1.493124,56.072807,0.042435,-0.052689,0.989212,-0.010031,0.022735,-0.001145,60.500519,26.473282,-146.451813,,,
729608285.244113,-3.623585,-1.493124,56.072807,0.042435,-0.052689,0.989212,-0.010031,0.022735,-0.001145,60.500519,26.473282,-146.451813,,,
729608285.247364,-3.62685,-1.48817,56.07275,0.042435,-0.052689,0.989212,-0.010031,0.022735,-0.001145,60.500519,26.473282,-146.451813,,,
729608285.250688,-3.629394,-1.484353,56.072674,0.041138,-0.055084,0.990128,-0.009166,0.013971,-0.000889,60.500519,26.473282,-146.451813,,,
729608285.254028,-3.629394,-1.484353,56.072674,0.041138,-0.055084,0.990128,-0.009166,0.013971,-0.000889,60.500519,26.473282,-146.451813,,,
729608285.25741,-3.632531,-1.481507,56.072898,0.041138,-0.055084,0.990128,-0.009166,0.013971,-0.000889,60.500519,26.473282,-146.451813,,,
729608285.260678,-3.633686,-1.482215,56.073837,0.035522,-0.059708,0.99025,-0.005306,0.004361,0.003102,60.500519,26.473282,-146.451813,,,
729608285.264027,-3.633686,-1.482215,56.073837,0.035522,-0.059708,0.99025,-0.005306,0.004361,0.003102,60.500519,26.473282,-146.451813,,,
729608285.267351,-3.634836,-1.482294,56.075984,0.035522,-0.059708,0.99025,-0.005306,0.004361,0.003102,60.34375,26.781754,-146.020981,,,
729608285.270678,-3.63257,-1.487655,56.078802,0.035919,-0.06134,0.993515,0.00792,-0.012962,0.010021,60.34375,26.781754,-146.020981,,,
729608285.274028,-3.63257,-1.487655,56.078802,0.035919,-0.06134,0.993515,0.00792,-0.012962,0.010021,60.34375,26.781754,-146.020981,,,
729608285.277365,-3.629918,-1.491979,56.082495,0.035919,-0.06134,0.993515,0.00792,-0.012962,0.010021,60.34375,26.781754,-146.020981,,,
729608285.280677,-3.623237,-1.502782,56.085174,0.039429,-0.057358,0.992767,0.01817,-0.024678,0.005275,60.34375,26.781754,-146.020981,,,
729608285.284055,-3.623237,-1.502782,56.085174,0.039429,-0.057358,0.992767,0.01817,-0.024678,0.005275,60.34375,26.781754,-146.020981,,,
729608285.287359,-3.618247,-1.510791,56.086915,0.039429,-0.057358,0.992767,0.01817,-0.024678,0.005275,60.34375,26.781754,-146.020981,,,
729608285.290674,-3.611029,-1.523646,56.087246,0.043839,-0.048813,0.994339,0.020438,-0.021649,-0.00358,60.34375,26.781754,-146.020981,,,
729608285.294068,-3.611029,-1.523646,56.087246,0.043839,-0.048813,0.994339,0.020438,-0.021649,-0.00358,60.34375,26.781754,-146.020981,,,
729608285.297348,-3.60558,-1.52983,56.086644,0.043839,-0.048813,0.994339,0.020438,-0.021649,-0.00358,60.34375,26.781754,-146.020981,,,
729608285.300676,-3.599228,-1.538739,56.085111,0.043121,-0.045776,1.000015,0.01592,-0.006224,-0.007907,60.34375,26.781754,-146.020981,,,
729608285.30401,-3.599228,-1.538739,56.085111,0.043121,-0.045776,1.000015,0.01592,-0.006224,-0.007907,60.34375,26.781754,-146.020981,,,
729608285.307347,-3.594807,-1.540969,56.083945,0.043121,-0.045776,1.000015,0.01592,-0.006224,-0.007907,60.258408,26.55127,-146.103821,,,
729608285.310683,-3.588895,-1.545637,56.082437,0.042664,-0.047333,1.001205,0.013412,0.012866,-0.005209,60.258408,26.55127,-146.103821,,,
729608285.314009,-3.588895,-1.545637,56.082437,0.042664,-0.047333,1.001205,0.013412,0.012866,-0.005209,60.258408,26.55127,-146.103821,,,
729608285.317364,-3.584911,-1.542529,56.081124,0.042664,-0.047333,1.001205,0.013412,0.012866,-0.005209,60.258408,26.55127,-146.103821,,,
729608285.320678,-3.579737,-1.541121,56.07944,0.041473,-0.050461,1.001953,0.010362,0.026626,-0.010087,60.258408,26.55127,-146.103821,,,
729608285.324023,-3.579737,-1.541121,56.07944,0.041473,-0.050461,1.001953,0.010362,0.026626,-0.010087,60.258408,26.55127,-146.103821,,,
729608285.327354,-3.577096,-1.534407,56.077573,0.041473,-0.050461,1.001953,0.010362,0.026626,-0.010087,60.258408,26.55127,-146.103821,,,
729608285.33067,-3.571758,-1.531688,56.075352,0.034714,-0.049438,1.001297,0.018286,0.025715,-0.008393,60.258408,26.55127,-146.103821,,,
729608285.334069,-3.571758,-1.531688,56.075352,0.034714,-0.049438,1.001297,0.018286,0.025715,-0.008393,60.258408,26.55127,-146.103821,,,
729608285.337342,-3.566915,-1.525812,56.072997,0.034714,-0.049438,1.001297,0.018286,0.025715,-0.008393,60.258408,26.55127,-146.103821,,,
729608285.340679,-3.560979,-1.522931,56.069483,0.031998,-0.047867,0.99765,0.019569,0.023212,-0.016978,60.258408,26.55127,-146.103821,,,
729608285.344022,-3.560979,-1.522931,56.069483,0.031998,-0.047867,0.99765,0.019569,0.023212,-0.016978,60.258408,26.55127,-146.103821,,,
729608285.347483,-3.555583,-1.517231,56.064893,0.031998,-0.047867,0.99765,0.019569,0.023212,-0.016978,60.258408,26.55127,-146.103821,,,
729608285.350676,-3.549695,-1.514082,56.058967,0.031143,-0.042801,0.996231,0.017916,0.022752,-0.0229,60.417953,26.591476,-146.266052,,,
729608285.354027,-3.549695,-1.514082,56.058967,0.031143,-0.042801,0.996231,0.017916,0.022752,-0.0229,60.417953,26.591476,-146.266052,,,
729608285.35735,-3.543946,-1.50838,56.052772,0.031143,-0.042801,0.996231,0.017916,0.022752,-0.0229,60.417953,26.591476,-146.266052,,,
729608285.360672,-3.536562,-1.504571,56.046513,0.02504,-0.04306,0.997269,0.029466,0.031842,-0.021901,60.417953,26.591476,-146.266052,,,
729608285.364019,-3.536562,-1.504571,56.046513,0.02504,-0.04306,0.997269,0.029466,0.031842,-0.021901,60.417953,26.591476,-146.266052,,,
729608285.367351,-3.527051,-1.496567,56.041327,0.02504,-0.04306,0.997269,0.029466,0.031842,-0.021901,60.417953,26.591476,-146.266052,,,
729608285.370672,-3.511939,-1.4905,56.038033,0.018799,-0.050629,1.006897,0.057112,0.046234,-0.007958,60.417953,26.591476,-146.266052,,,
729608285.374099,-3.511939,-1.4905,56.038033,0.018799,-0.050629,1.006897,0.057112,0.046234,-0.007958,60.417953,26.591476,-146.266052,,,
729608285.377362,-3.494041,-1.478509,56.03747,0.018799,-0.050629,1.006897,0.057112,0.046234,-0.007958,60.417953,26.591476,-146.266052,,,
729608285.380685,-3.46892,-1.470098,56.038892,0.009338,-0.059982,1.014008,0.085106,0.046239,0.007844,60.417953,26.591476,-146.266052,,,
729608285.384024,-3.46892,-1.470098,56.038892,0.009338,-0.059982,1.014008,0.085106,0.046239,0.007844,60.417953,26.591476,-146.266052,,,
729608285.387412,-3.444849,-1.457699,56.042812,0.009338,-0.059982,1.014008,0.085106,0.046239,0.007844,60.417953,26.591476,-146.266052,,,
729608285.390674,-3.417291,-1.449724,56.048177,0.004059,-0.058487,1.002838,0.086763,0.044757,0.018355,60.351303,26.313766,-146.473526,,,
729608285.394023,-3.417291,-1.449724,56.048177,0.004059,-0.058487,1.002838,0.086763,0.044757,0.018355,60.351303,26.313766,-146.473526,,,
729608285.397361,-3.393265,-1.43763,56.054445,0.004059,-0.058487,1.002838,0.086763,0.044757,0.018355,60.351303,26.313766,-146.473526,,,
729608285.40068,-3.368418,-1.430837,56.060456,0.004578,-0.047241,0.994461,0.073639,0.035938,0.016142,60.351303,26.313766,-146.473526,,,
729608285.404022,-3.368418,-1.430837,56.060456,0.004578,-0.047241,0.994461,0.073639,0.035938,0.016142,60.351303,26.313766,-146.473526,,,
729608285.407361,-3.347989,-1.422097,56.066269,0.004578,-0.047241,0.994461,0.073639,0.035938,0.016142,60.351303,26.313766,-146.473526,,,
729608285.410676,-3.328053,-1.419317,56.07102,0.009628,-0.041275,0.985779,0.060976,0.016235,0.01195,60.351303,26.313766,-146.473526,,,
729608285.41407,-3.328053,-1.419317,56.07102,0.009628,-0.041275,0.985779,0.060976,0.016235,0.01195,60.351303,26.313766,-146.473526,,,
729608285.417388,-3.312681,-1.417021,56.074501,0.009628,-0.041275,0.985779,0.060976,0.016235,0.01195,60.351303,26.313766,-146.473526,,,
729608285.420677,-3.297334,-1.420472,56.075857,0.012894,-0.041214,0.981201,0.043655,-0.012027,-0.005227,60.351303,26.313766,-146.473526,,,
729608285.424026,-3.297334,-1.420472,56.075857,0.012894,-0.041214,0.981201,0.043655,-0.012027,-0.005227,60.351303,26.313766,-146.473526,,,
729608285.427431,-3.2856,-1.425846,56.075157,0.012894,-0.041214,0.981201,0.043655,-0.012027,-0.005227,60.351303,26.313766,-146.473526,,,
729608285.430657,-3.27301,-1.435749,56.07289,0.013062,-0.046051,0.982651,0.028841,-0.027339,-0.01111,60.731003,26.067535,-146.405029,,,
729608285.434052,-3.27301,-1.435749,56.07289,0.013062,-0.046051,0.982651,0.028841,-0.027339,-0.01111,60.731003,26.067535,-146.405029,,,
729608285.437351,-3.264616,-1.444623,56.070713,0.013062,-0.046051,0.982651,0.028841,-0.027339,-0.01111,60.731003,26.067535,-146.405029,,,
729608285.440673,-3.253098,-1.453477,56.069341,0.011871,-0.055832,0.990585,0.030312,-0.022469,-0.002439,60.731003,26.067535,-146.405029,,,
729608285.444018,-3.253098,-1.453477,56.069341,0.011871,-0.055832,0.990585,0.030312,-0.022469,-0.002439,60.731003,26.067535,-146.405029,,,
729608285.447345,-3.243685,-1.460931,56.069952,0.011871,-0.055832,0.990585,0.030312,-0.022469,-0.002439,60.731003,26.067535,-146.405029,,,
729608285.450696,-3.230825,-1.46603,56.072811,0.007965,-0.06723,1.001526,0.039967,-0.015583,0.008873,60.731003,26.067535,-146.405029,,,
729608285.45409,-3.230825,-1.46603,56.072811,0.007965,-0.06723,1.001526,0.039967,-0.015583,0.008873,60.731003,26.067535,-146.405029,,,
729608285.45734,-3.219088,-1.470117,56.076929,0.007965,-0.06723,1.001526,0.039967,-0.015583,0.008873,60.731003,26.067535,-146.405029,,,
729608285.460681,-3.206032,-1.468936,56.082103,0.00618,-0.07608,1.007095,0.051257,0.001495,0.017522,60.731003,26.067535,-146.405029,,,
729608285.464023,-3.206032,-1.468936,56.082103,0.00618,-0.07608,1.007095,0.051257,0.001495,0.017522,60.731003,26.067535,-146.405029,,,
729608285.467414,-3.191663,-1.468564,56.08764,0.00618,-0.07608,1.007095,0.051257,0.001495,0.017522,60.731003,26.067535,-146.405029,,,
729608285.470664,-3.191663,-1.46055,56.094137,0.003983,-0.075485,1.009964,0.053872,0.020269,0.021879,60.220383,26.368622,-146.566971,,,
729608285.474017,-3.177608,-1.46055,56.094137,0.003983,-0.075485,1.009964,0.053872,0.020269,0.021879,60.220383,26.368622,-146.566971,,,
729608285.477355,-3.161708,-1.45518,56.101974,0.003983,-0.075485,1.009964,0.053872,0.020269,0.021879,60.220383,26.368622,-146.566971,,,
729608285.480677,-3.144337,-1.442966,56.11257,0.005447,-0.076691,1.008148,0.059942,0.028272,0.03731,60.220383,26.368622,-146.566971,,,
729608285.484035,-3.144337,-1.442966,56.11257,0.005447,-0.076691,1.008148,0.059942,0.028272,0.03731,60.220383,26.368622,-146.566971,,,
729608285.487364,-3.1277,-1.434079,56.125267,0.005447,-0.076691,1.008148,0.059942,0.028272,0.03731,60.220383,26.368622,-146.566971,,,
729608285.490706,-3.1277,-1.434079,56.125267,0.004456,-0.077011,1.0065,0.061165,0.046276,0.048979,60.220383,26.368622,-146.566971,,,
729608285.494064,-3.108496,-1.418729,56.139622,0.004456,-0.077011,1.0065,0.061165,0.046276,0.048979,60.220383,26.368622,-146.566971,,,
729608285.497349,-3.092413,-1.405958,56.154177,0.004456,-0.077011,1.0065,0.061165,0.046276,0.048979,60.220383,26.368622,-146.566971,,,
729608285.500661,-3.092413,-1.390555,56.169089,0.008911,-0.07309,0.998901,0.045112,0.041371,0.049719,60.220383,26.368622,-146.566971,,,
729608285.504006,-3.074901,-1.390555,56.169089,0.008911,-0.07309,0.998901,0.045112,0.041371,0.049719,60.220383,26.368622,-146.566971,,,
729608285.50734,-3.061869,-1.379718,56.184046,0.008911,-0.07309,0.998901,0.045112,0.041371,0.049719,60.220383,26.368622,-146.566971,,,
729608285.510669,-3.061869,-1.379718,56.184046,0.012344,-0.069809,0.98645,0.037445,0.021863,0.052593,60.220383,26.368622,-146.566971,,,
729608285.51403,-3.04887,-1.36899,56.199485,0.012344,-0.069809,0.98645,0.037445,0.021863,0.052593,60.410812,26.215744,-146.457657,,,
729608285.517397,-3.039039,-1.363872,56.215404,0.012344,-0.069809,0.98645,0.037445,0.021863,0.052593,60.410812,26.215744,-146.457657,,,
729608285.520707,-3.030576,-1.359224,56.231536,0.01535,-0.066208,0.981583,0.027885,-0.002761,0.053754,60.410812,26.215744,-146.457657,,,
729608285.524018,-3.030576,-1.359224,56.231536,0.01535,-0.066208,0.981583,0.027885,-0.002761,0.053754,60.410812,26.215744,-146.457657,,,
729608285.527365,-3.023648,-1.361104,56.247184,0.01535,-0.066208,0.981583,0.027885,-0.002761,0.053754,60.410812,26.215744,-146.457657,,,
729608285.530723,-3.023648,-1.363487,56.262821,0.021271,-0.062271,0.977158,0.017612,-0.029576,0.05187,60.410812,26.215744,-146.457657,,,
729608285.534031,-3.019887,-1.363487,56.262821,0.021271,-0.062271,0.977158,0.017612,-0.029576,0.05187,60.410812,26.215744,-146.457657,,,
729608285.537355,-3.014944,-1.372234,56.277673,0.021271,-0.062271,0.977158,0.017612,-0.029576,0.05187,60.410812,26.215744,-146.457657,,,
729608285.540709,-3.014944,-1.379034,56.292072,0.03067,-0.058472,0.980881,0.01394,-0.042528,0.050291,60.410812,26.215744,-146.457657,,,
729608285.54408,-3.015306,-1.379034,56.292072,0.03067,-0.058472,0.980881,0.01394,-0.042528,0.050291,60.410812,26.215744,-146.457657,,,
729608285.547345,-3.011798,-1.391562,56.305962,0.03067,-0.058472,0.980881,0.01394,-0.042528,0.050291,60.410812,26.215744,-146.457657,,,
729608285.550748,-3.011798,-1.391562,56.305962,0.03067,-0.058472,0.980881,0.004009,-0.033403,0.044043,60.410812,26.215744,-146.457657,,,
729608285.55401,-3.014554,-1.39854,56.319685,0.033951,-0.057678,0.984619,0.004009,-0.033403,0.044043,60.2845,26.018875,-146.306671,,,
729608285.557342,-3.014482,-1.407377,56.332043,0.033951,-0.057678,0.984619,0.004009,-0.033403,0.044043,60.2845,26.018875,-146.306671,,,
729608285.56067,-3.014482,-1.407377,56.332043,0.033951,-0.057678,0.984619,0.004009,-0.033403,0.044043,60.2845,26.018875,-146.306671,,,
729608285.564019,-3.022576,-1.407971,56.34429,0.040451,-0.054718,0.986359,-0.016612,-0.007939,0.042171,60.2845,26.018875,-146.306671,,,
729608285.567428,-3.029047,-1.408953,56.356565,0.040451,-0.054718,0.986359,-0.016612,-0.007939,0.042171,60.2845,26.018875,-146.306671,,,
729608285.570691,-3.029047,-1.408953,56.356565,0.040451,-0.054718,0.986359,-0.016612,-0.007939,0.042171,60.2845,26.018875,-146.306671,,,
729608285.574008,-3.043119,-1.40074,56.369275,0.041763,-0.052414,0.989792,-0.036837,0.025454,0.044039,60.2845,26.018875,-146.306671,,,
729608285.577343,-3.054167,-1.393442,56.382377,0.041763,-0.052414,0.989792,-0.036837,0.025454,0.044039,60.2845,26.018875,-146.306671,,,
729608285.580665,-3.054167,-1.393442,56.382377,0.041763,-0.052414,0.989792,-0.036837,0.025454,0.044039,60.2845,26.018875,-146.306671,,,
729608285.58403,-3.071767,-1.379316,56.3962,0.039047,-0.051712,0.988922,-0.046189,0.040209,0.046899,60.2845,26.018875,-146.306671,,,
729608285.587353,-3.085925,-1.368352,56.409694,0.039047,-0.051712,0.988922,-0.046189,0.040209,0.046899,60.2845,26.018875,-146.306671,,,
729608285.590782,-3.085925,-1.368352,56.409694,0.039047,-0.051712,0.988922,-0.046189,0.040209,0.046899,60.2845,26.018875,-146.306671,,,
729608285.593994,-3.105291,-1.35488,56.422819,0.035706,-0.054565,0.987915,-0.054828,0.03385,0.043583,60.487701,26.310638,-146.589478,,,
729608285.597336,-3.121499,-1.345765,56.434957,0.035706,-0.054565,0.987915,-0.054828,0.03385,0.043583,60.487701,26.310638,-146.589478,,,
729608285.600722,-3.121499,-1.345765,56.434957,0.035706,-0.054565,0.987915,-0.054828,0.03385,0.043583,60.487701,26.310638,-146.589478,,,
729608285.60407,-3.141697,-1.336955,56.446025,0.036438,-0.053818,0.984161,-0.059038,0.01511,0.034453,60.487701,26.310638,-146.589478,,,
729608285.607342,-3.159457,-1.334042,56.455372,0.036438,-0.053818,0.984161,-0.059038,0.01511,0.034453,60.487701,26.310638,-146.589478,,,
729608285.610759,-3.159457,-1.334042,56.455372,0.036438,-0.053818,0.984161,-0.059038,0.01511,0.034453,60.487701,26.310638,-146.589478,,,
729608285.614082,-3.179393,-1.334358,56.46333,0.032944,-0.052353,0.984909,-0.058613,-0.013955,0.024523,60.487701,26.310638,-146.589478,,,
729608285.617355,-3.196469,-1.339943,56.470469,0.032944,-0.052353,0.984909,-0.058613,-0.013955,0.024523,60.487701,26.310638,-146.589478,,,
729608285.620668,-3.196469,-1.339943,56.470469,0.032944,-0.052353,0.984909,-0.058613,-0.013955,0.024523,60.487701,26.310638,-146.589478,,,
729608285.624021,-3.21491,-1.350762,56.476884,0.032288,-0.053391,0.985077,-0.061605,-0.039017,0.018899,60.487701,26.310638,-146.589478,,,
729608285.627359,-3.232863,-1.363529,56.482337,0.032288,-0.053391,0.985077,-0.061605,-0.039017,0.018899,60.487701,26.310638,-146.589478,,,
729608285.630789,-3.232863,-1.363529,56.482337,0.032288,-0.053391,0.985077,-0.06286,-0.053897,0.010877,60.487701,26.310638,-146.589478,,,
729608285.634043,-3.251545,-1.380726,56.486152,0.030228,-0.056259,0.990601,-0.06286,-0.053897,0.010877,60.277817,26.643234,-146.272049,,,
729608285.637334,-3.269877,-1.397286,56.48877,0.030228,-0.056259,0.990601,-0.06286,-0.053897,0.010877,60.277817,26.643234,-146.272049,,,
729608285.640738,-3.269877,-1.397286,56.48877,0.030228,-0.056259,0.990601,-0.06286,-0.053897,0.010877,60.277817,26.643234,-146.272049,,,
729608285.644075,-3.288376,-1.417694,56.490164,0.031036,-0.058731,0.996964,-0.066963,-0.055154,0.004511,60.277817,26.643234,-146.272049,,,
729608285.647329,-3.307614,-1.43389,56.491028,0.031036,-0.058731,0.996964,-0.066963,-0.055154,0.004511,60.277817,26.643234,-146.272049,,,
729608285.650746,-3.307614,-1.43389,56.491028,0.031036,-0.058731,0.996964,-0.066963,-0.055154,0.004511,60.277817,26.643234,-146.272049,,,
729608285.654014,-3.326151,-1.4517,56.491302,0.027954,-0.056778,1.001709,-0.066614,-0.033966,0.001095,60.277817,26.643234,-146.272049,,,
729608285.657335,-3.345917,-1.461068,56.491377,0.027954,-0.056778,1.001709,-0.066614,-0.033966,0.001095,60.277817,26.643234,-146.272049,,,
729608285.660779,-3.345917,-1.461068,56.491377,0.027954,-0.056778,1.001709,-0.066614,-0.033966,0.001095,60.277817,26.643234,-146.272049,,,
729608285.664006,-3.363211,-1.470174,56.491059,0.028351,-0.053268,1.009995,-0.059308,-0.005809,-0.001759,60.277817,26.643234,-146.272049,,,
729608285.667345,-3.379609,-1.472096,56.49107,0.028351,-0.053268,1.009995,-0.059308,-0.005809,-0.001759,60.277817,26.643234,-146.272049,,,
729608285.670773,-3.379609,-1.472096,56.49107,0.028351,-0.053268,1.009995,-0.059308,-0.005809,-0.001759,60.277817,26.643234,-146.272049,,,
729608285.674004,-3.392609,-1.473855,56.491245,0.024185,-0.054657,1.016769,-0.041682,0.014067,0.003482,60.277817,26.643234,-146.272049,,,
729608285.677345,-3.404056,-1.470514,56.492415,0.024185,-0.054657,1.016769,-0.041682,0.014067,0.003482,60.339081,26.612015,-146.503433,,,
729608285.680705,-3.404056,-1.470514,56.492415,0.024185,-0.054657,1.016769,-0.041682,0.014067,0.003482,60.339081,26.612015,-146.503433,,,
729608285.684065,-3.412,-1.468052,56.494951,0.01564,-0.05957,1.015091,-0.024118,0.024719,0.01325,60.339081,26.612015,-146.503433,,,
729608285.687337,-3.418712,-1.461675,56.499687,0.01564,-0.05957,1.015091,-0.024118,0.024719,0.01325,60.339081,26.612015,-146.503433,,,
729608285.690686,-3.418712,-1.461675,56.499687,0.01564,-0.05957,1.015091,-0.024118,0.024719,0.01325,60.339081,26.612015,-146.503433,,,
729608285.693994,-3.421666,-1.457182,56.506284,0.009125,-0.064651,1.010773,-0.007787,0.02357,0.028279,60.339081,26.612015,-146.503433,,,
729608285.697342,-3.423762,-1.451537,56.514922,0.009125,-0.064651,1.010773,-0.007787,0.02357,0.028279,60.339081,26.612015,-146.503433,,,
729608285.700701,-3.423762,-1.451537,56.514922,0.009125,-0.064651,1.010773,-0.007787,0.02357,0.028279,60.339081,26.612015,-146.503433,,,
729608285.704011,-3.4223,-1.449684,56.526313,0.0065,-0.06691,1.006668,0.00875,0.008482,0.047449,60.339081,26.612015,-146.503433,,,
729608285.70734,-3.420092,-1.447979,56.540843,0.0065,-0.06691,1.006668,0.00875,0.008482,0.047449,60.339081,26.612015,-146.503433,,,
729608285.710776,-3.420092,-1.447979,56.540843,0.0065,-0.06691,1.006668,0.00875,0.008482,0.047449,60.339081,26.612015,-146.503433,,,
729608285.713997,-3.415184,-1.450175,56.556654,0.007507,-0.065765,1.00148,0.023336,-0.012895,0.055304,60.339081,26.612015,-146.503433,,,
729608285.717346,-3.409814,-1.453384,56.572356,0.007507,-0.065765,1.00148,0.023336,-0.012895,0.055304,60.28714,26.454483,-146.236679,,,
729608285.720698,-3.409814,-1.453384,56.572356,0.007507,-0.065765,1.00148,0.023336,-0.012895,0.055304,60.28714,26.454483,-146.236679,,,
729608285.724081,-3.402418,-1.459667,56.587284,0.016266,-0.060745,1.00209,0.033536,-0.022562,0.046819,60.28714,26.454483,-146.236679,,,
729608285.727331,-3.393011,-1.466221,56.601733,0.016266,-0.060745,1.00209,0.033536,-0.022562,0.046819,60.28714,26.454483,-146.236679,,,
729608285.730698,-3.393011,-1.466221,56.601733,0.016266,-0.060745,1.00209,0.033536,-0.022562,0.046819,60.28714,26.454483,-146.236679,,,
729608285.734012,-3.382065,-1.475044,56.615289,0.023056,-0.056534,1.001877,0.038131,-0.029998,0.044161,60.28714,26.454483,-146.236679,,,
729608285.737345,-3.371683,-1.48392,56.628443,0.023056,-0.056534,1.001877,0.038131,-0.029998,0.044161,60.28714,26.454483,-146.236679,,,
729608285.740666,-3.371683,-1.48392,56.628443,0.023056,-0.056534,1.001877,0.038131,-0.029998,0.044161,60.28714,26.454483,-146.236679,,,
729608285.744001,-3.360692,-1.49329,56.641763,0.02565,-0.056808,1.000107,0.035797,-0.029661,0.04659,60.28714,26.454483,-146.236679,,,
729608285.747342,-3.351435,-1.501867,56.655516,0.02565,-0.056808,1.000107,0.035797,-0.029661,0.04659,60.28714,26.454483,-146.236679,,,
729608285.750673,-3.351435,-1.501867,56.655516,0.02565,-0.056808,1.000107,0.035797,-0.029661,0.04659,60.28714,26.454483,-146.236679,,,
729608285.754021,-3.341846,-1.510814,56.669527,0.027603,-0.057465,0.997574,0.029263,-0.03295,0.048886,60.28714,26.454483,-146.236679,,,
729608285.757338,-3.334766,-1.520181,56.683885,0.027603,-0.057465,0.997574,0.029263,-0.03295,0.048886,60.301697,26.466812,-146.232147,,,
729608285.760762,-3.334766,-1.520181,56.683885,0.027603,-0.057465,0.997574,0.029263,-0.03295,0.048886,60.301697,26.466812,-146.232147,,,
729608285.764004,-3.328126,-1.528496,56.698546,0.026138,-0.055954,0.99408,0.021442,-0.036991,0.046219,60.301697,26.466812,-146.232147,,,
729608285.767348,-3.321937,-1.539464,56.712739,0.026138,-0.055954,0.99408,0.021442,-0.036991,0.046219,60.301697,26.466812,-146.232147,,,
729608285.770702,-3.321937,-1.539464,56.712739,0.026138,-0.055954,0.99408,0.021442,-0.036991,0.046219,60.301697,26.466812,-146.232147,,,
729608285.774069,-3.316258,-1.546827,56.726371,0.031174,-0.053406,0.991638,0.025636,-0.037774,0.042395,60.301697,26.466812,-146.232147,,,
729608285.777332,-3.308903,-1.557591,56.73843,0.031174,-0.053406,0.991638,0.025636,-0.037774,0.042395,60.301697,26.466812,-146.232147,,,
729608285.78067,-3.308903,-1.557591,56.73843,0.031174,-0.053406,0.991638,0.025636,-0.037774,0.042395,60.301697,26.466812,-146.232147,,,
729608285.784028,-3.301679,-1.562494,56.748937,0.038788,-0.052429,0.997223,0.038409,-0.029915,0.030806,60.301697,26.466812,-146.232147,,,
729608285.78733,-3.289854,-1.570761,56.758142,0.038788,-0.052429,0.997223,0.038409,-0.029915,0.030806,60.301697,26.466812,-146.232147,,,
729608285.790685,-3.289854,-1.570761,56.758142,0.038788,-0.052429,0.997223,0.038409,-0.029915,0.030806,60.301697,26.466812,-146.232147,,,
729608285.794019,-3.276918,-1.571883,56.767803,0.036972,-0.056778,1.006149,0.062787,-0.013555,0.030599,60.301697,26.466812,-146.232147,,,
729608285.797338,-3.258769,-1.575544,56.777559,0.036972,-0.056778,1.006149,0.062787,-0.013555,0.030599,60.246841,26.29039,-146.561661,,,
729608285.800673,-3.258769,-1.575544,56.777559,0.036972,-0.056778,1.006149,0.062787,-0.013555,0.030599,60.246841,26.29039,-146.561661,,,
729608285.804,-3.239151,-1.573206,56.787934,0.035522,-0.065323,1.010544,0.079965,-0.001597,0.030499,60.246841,26.29039,-146.561661,,,
729608285.807364,-3.216161,-1.572754,56.798517,0.035522,-0.065323,1.010544,0.079965,-0.001597,0.030499,60.246841,26.29039,-146.561661,,,
729608285.8107,-3.216161,-1.572754,56.798517,0.035522,-0.065323,1.010544,0.079965,-0.001597,0.030499,60.246841,26.29039,-146.561661,,,
729608285.814015,-3.19226,-1.56878,56.809491,0.033569,-0.063507,1.004654,0.086918,0.015026,0.034589,60.246841,26.29039,-146.561661,,,
729608285.817333,-3.168011,-1.564181,56.820706,0.033569,-0.063507,1.004654,0.086918,0.015026,0.034589,60.246841,26.29039,-146.561661,,,
729608285.820684,-3.168011,-1.564181,56.820706,0.033569,-0.063507,1.004654,0.086918,0.015026,0.034589,60.246841,26.29039,-146.561661,,,
729608285.824073,-3.144566,-1.558382,56.832065,0.032181,-0.060074,0.995636,0.081684,0.017075,0.036157,60.246841,26.29039,-146.561661,,,
729608285.827416,-3.122791,-1.553711,56.843376,0.032181,-0.060074,0.995636,0.081684,0.017075,0.036157,60.246841,26.29039,-146.561661,,,
729608285.830689,-3.122791,-1.553711,56.843376,0.032181,-0.060074,0.995636,0.081684,0.017075,0.036157,60.246841,26.29039,-146.561661,,,
729608285.834031,-3.104268,-1.548546,56.854764,0.028473,-0.057053,0.986282,0.060381,0.019632,0.036202,60.246841,26.29039,-146.561661,,,
729608285.837337,-3.088509,-1.543288,56.865679,0.028473,-0.057053,0.986282,0.060381,0.019632,0.036202,60.246841,26.29039,-146.561661,,,
729608285.84068,-3.088509,-1.543288,56.865679,0.028473,-0.057053,0.986282,0.060381,0.019632,0.036202,60.242722,26.216537,-146.575394,,,
729608285.844016,-3.075731,-1.538927,56.875798,0.028305,-0.052078,0.97937,0.043756,0.013217,0.031965,60.242722,26.216537,-146.575394,,,
729608285.847328,-3.063513,-1.536497,56.885297,0.028305,-0.052078,0.97937,0.043756,0.013217,0.031965,60.242722,26.216537,-146.575394,,,
729608285.85067,-3.063513,-1.536497,56.885297,0.028305,-0.052078,0.97937,0.043756,0.013217,0.031965,60.242722,26.216537,-146.575394,,,
729608285.854016,-3.051939,-1.536864,56.894579,0.029755,-0.053192,0.983063,0.043508,-0.004652,0.028028,60.242722,26.216537,-146.575394,,,
729608285.857329,-3.039664,-1.539478,56.903199,0.029755,-0.053192,0.983063,0.043508,-0.004652,0.028028,60.242722,26.216537,-146.575394,,,
729608285.860731,-3.039664,-1.539478,56.903199,0.029755,-0.053192,0.983063,0.043508,-0.004652,0.028028,60.242722,26.216537,-146.575394,,,
729608285.864006,-3.027098,-1.54627,56.910168,0.031219,-0.055557,0.986664,0.045042,-0.016951,0.019065,60.242722,26.216537,-146.575394,,,
729608285.867339,-3.013902,-1.550569,56.916436,0.031219,-0.055557,0.986664,0.045042,-0.016951,0.019065,60.242722,26.216537,-146.575394,,,
729608285.870679,-3.013902,-1.550569,56.916436,0.031219,-0.055557,0.986664,0.045042,-0.016951,0.019065,60.242722,26.216537,-146.575394,,,
729608285.87411,-3.001156,-1.556758,56.921989,0.030869,-0.055557,0.987701,0.044337,-0.006311,0.016697,60.242722,26.216537,-146.575394,,,
729608285.877334,-2.989276,-1.558773,56.926965,0.030869,-0.055557,0.987701,0.044337,-0.006311,0.016697,60.242722,26.216537,-146.575394,,,
729608285.880679,-2.989276,-1.558773,56.926965,0.030869,-0.055557,0.987701,0.044337,-0.006311,0.016697,60.172714,26.202576,-146.337997,,,
729608285.884027,-2.980679,-1.56125,56.932134,0.034958,-0.053635,0.989502,0.03761,0.004166,0.020035,60.172714,26.202576,-146.337997,,,
729608285.88734,-2.971257,-1.560487,56.938517,0.034958,-0.053635,0.989502,0.03761,0.004166,0.020035,60.172714,26.202576,-146.337997,,,
729608285.890684,-2.971257,-1.560487,56.938517,0.034958,-0.053635,0.989502,0.03761,0.004166,0.020035,60.172714,26.202576,-146.337997,,,
729608285.894024,-2.96657,-1.559455,56.945643,0.033478,-0.054855,0.981522,0.022165,0.01417,0.027953,60.172714,26.202576,-146.337997,,,
729608285.897337,-2.961553,-1.555041,56.953351,0.033478,-0.054855,0.981522,0.022165,0.01417,0.027953,60.172714,26.202576,-146.337997,,,
729608285.900672,-2.961553,-1.555041,56.953351,0.033478,-0.054855,0.981522,0.022165,0.01417,0.027953,60.172714,26.202576,-146.337997,,,
729608285.90402,-2.961048,-1.549804,56.960943,0.032135,-0.055405,0.976456,0.002992,0.028469,0.026593,60.172714,26.202576,-146.337997,,,
729608285.907336,-2.960386,-1.541712,56.968647,0.032135,-0.055405,0.976456,0.002992,0.028469,0.026593,60.172714,26.202576,-146.337997,,,
729608285.910766,-2.960386,-1.541712,56.968647,0.032135,-0.055405,0.976456,0.002992,0.028469,0.026593,60.172714,26.202576,-146.337997,,,
729608285.914014,-2.962063,-1.535167,56.976632,0.031967,-0.050613,0.980927,0.002019,0.022849,0.027048,60.172714,26.202576,-146.337997,,,
729608285.917442,-2.961637,-1.530208,56.98531,0.031967,-0.050613,0.980927,0.002019,0.022849,0.027048,60.172714,26.202576,-146.337997,,,
729608285.920677,-2.961637,-1.530208,56.98531,0.031967,-0.050613,0.980927,0.002019,0.022849,0.027048,60.282562,26.310455,-146.214447,,,
729608285.924104,-2.961503,-1.528575,56.994762,0.029099,-0.055145,0.981033,0.007774,0.00253,0.030242,60.282562,26.310455,-146.214447,,,
729608285.927324,-2.960276,-1.528907,57.003886,0.029099,-0.055145,0.981033,0.007774,0.00253,0.030242,60.282562,26.310455,-146.214447,,,
729608285.93069,-2.960276,-1.528907,57.003886,0.029099,-0.055145,0.981033,0.007774,0.00253,0.030242,60.282562,26.310455,-146.214447,,,
729608285.934012,-2.959303,-1.531394,57.012351,0.02829,-0.05452,0.979507,0.003772,-0.008678,0.025506,60.282562,26.310455,-146.214447,,,
729608285.937333,-2.958649,-1.534324,57.019861,0.02829,-0.05452,0.979507,0.003772,-0.008678,0.025506,60.282562,26.310455,-146.214447,,,
729608285.940699,-2.958649,-1.534324,57.019861,0.02829,-0.05452,0.979507,0.003772,-0.008678,0.025506,60.282562,26.310455,-146.214447,,,
729608285.944019,-2.960178,-1.539305,57.025998,0.032059,-0.047287,0.977676,-0.006783,-0.016004,0.018763,60.282562,26.310455,-146.214447,,,
729608285.947335,-2.962751,-1.544161,57.031468,0.032059,-0.047287,0.977676,-0.006783,-0.016004,0.018763,60.282562,26.310455,-146.214447,,,
729608285.950671,-2.962751,-1.544161,57.031468,0.032059,-0.047287,0.977676,-0.006783,-0.016004,0.018763,60.282562,26.310455,-146.214447,,,
729608285.954014,-2.968504,-1.550406,57.03649,0.036804,-0.045181,0.976059,-0.019979,-0.019056,0.017629,60.282562,26.310455,-146.214447,,,
729608285.957334,-2.975472,-1.555751,57.041081,0.036804,-0.045181,0.976059,-0.019979,-0.019056,0.017629,60.282562,26.310455,-146.214447,,,
729608285.960759,-2.975472,-1.555751,57.041081,0.036804,-0.045181,0.976059,-0.019979,-0.019056,0.017629,60.282562,26.310455,-146.214447,,,
729608285.964006,-2.984618,-1.5606,57.044324,0.041611,-0.044083,0.981552,-0.031629,-0.006208,0.006582,60.327438,26.214233,-146.337219,,,
729608285.967328,-2.994522,-1.562863,57.0461,0.041611,-0.044083,0.981552,-0.031629,-0.006208,0.006582,60.327438,26.214233,-146.337219,,,
729608285.970673,-2.994522,-1.562863,57.0461,0.041611,-0.044083,0.981552,-0.031629,-0.006208,0.006582,60.327438,26.214233,-146.337219,,,
729608285.974067,-3.005371,-1.565502,57.046729,0.042557,-0.046341,0.989914,-0.038214,-0.000453,-0.002029,60.327438,26.214233,-146.337219,,,
729608285.977327,-3.015667,-1.567077,57.046417,0.042557,-0.046341,0.989914,-0.038214,-0.000453,-0.002029,60.327438,26.214233,-146.337219,,,
729608285.980672,-3.015667,-1.567077,57.046417,0.042557,-0.046341,0.989914,-0.038214,-0.000453,-0.002029,60.327438,26.214233,-146.337219,,,
729608285.984013,-3.026113,-1.571005,57.046053,0.038376,-0.048904,0.993271,-0.029965,-0.011126,0.000605,60.327438,26.214233,-146.337219,,,
729608285.987325,-3.034833,-1.575389,57.046668,0.038376,-0.048904,0.993271,-0.029965,-0.011126,0.000605,60.327438,26.214233,-146.337219,,,
729608285.990697,-3.034833,-1.575389,57.046668,0.038376,-0.048904,0.993271,-0.029965,-0.011126,0.000605,60.327438,26.214233,-146.337219,,,
729608285.994011,-3.042774,-1.580012,57.047447,0.033859,-0.053009,0.996124,-0.027457,-0.008848,0.002196,60.327438,26.214233,-146.337219,,,
729608285.997346,-3.050728,-1.582957,57.048277,0.033859,-0.053009,0.996124,-0.027457,-0.008848,0.002196,60.327438,26.214233,-146.337219,,,
729608286.000684,-3.050728,-1.582957,57.048277,0.033859,-0.053009,0.996124,-0.027457,-0.008848,0.002196,60.327438,26.214233,-146.337219,,,
729608286.004065,-3.058909,-1.586607,57.049443,0.034164,-0.054794,0.997223,-0.028628,-0.008652,0.00546,60.321426,26.330704,-146.1763,,,
729608286.00738,-3.067653,-1.589524,57.051024,0.034164,-0.054794,0.997223,-0.028628,-0.008652,0.00546,60.321426,26.330704,-146.1763,,,
729608286.01067,-3.067653,-1.589524,57.051024,0.034164,-0.054794,0.997223,-0.028628,-0.008652,0.00546,60.321426,26.330704,-146.1763,,,
729608286.014035,-3.078204,-1.591579,57.05282,0.031189,-0.053665,0.993561,-0.033598,0.001168,0.00709,60.321426,26.330704,-146.1763,,,
729608286.017342,-3.088128,-1.591886,57.054633,0.031189,-0.053665,0.993561,-0.033598,0.001168,0.00709,60.321426,26.330704,-146.1763,,,
729608286.020667,-3.088128,-1.591886,57.054633,0.031189,-0.053665,0.993561,-0.033598,0.001168,0.00709,60.321426,26.330704,-146.1763,,,
729608286.02401,-3.098044,-1.592165,57.056962,0.029694,-0.054077,0.996964,-0.036245,0.003165,0.010408,60.321426,26.330704,-146.1763,,,
729608286.027332,-3.109441,-1.591724,57.05988,0.029694,-0.054077,0.996964,-0.036245,0.003165,0.010408,60.321426,26.330704,-146.1763,,,
729608286.030688,-3.109441,-1.591724,57.05988,0.029694,-0.054077,0.996964,-0.036245,0.003165,0.010408,60.321426,26.330704,-146.1763,,,
729608286.033998,-3.119803,-1.593702,57.063398,0.026932,-0.056427,0.997742,-0.038989,6.6e-05,0.011329,60.321426,26.330704,-146.1763,,,
729608286.037329,-3.131472,-1.594876,57.067457,0.026932,-0.056427,0.997742,-0.038989,6.6e-05,0.011329,60.321426,26.330704,-146.1763,,,
729608286.040683,-3.131472,-1.594876,57.067457,0.026932,-0.056427,0.997742,-0.038989,6.6e-05,0.011329,60.321426,26.330704,-146.1763,,,
729608286.04411,-3.141299,-1.600122,57.071071,0.025223,-0.055695,1.001144,-0.03735,-0.011369,0.01035,60.308868,26.265884,-146.359421,,,
729608286.047326,-3.152615,-1.603916,57.074273,0.025223,-0.055695,1.001144,-0.03735,-0.011369,0.01035,60.308868,26.265884,-146.359421,,,
729608286.050773,-3.152615,-1.603916,57.074273,0.025223,-0.055695,1.001144,-0.03735,-0.011369,0.01035,60.308868,26.265884,-146.359421,,,
729608286.054063,-3.161321,-1.613063,57.076569,0.02742,-0.05513,1.00209,-0.03925,-0.020409,0.007192,60.308868,26.265884,-146.359421,,,
729608286.057324,-3.172428,-1.620245,57.078367,0.02742,-0.05513,1.00209,-0.03925,-0.020409,0.007192,60.308868,26.265884,-146.359421,,,
729608286.060666,-3.172428,-1.620245,57.078367,0.02742,-0.05513,1.00209,-0.03925,-0.020409,0.007192,60.308868,26.265884,-146.359421,,,
729608286.064095,-3.182588,-1.63173,57.079325,0.030167,-0.055649,1.001511,-0.039689,-0.030084,0.001919,60.308868,26.265884,-146.359421,,,
729608286.067317,-3.194877,-1.642169,57.079826,0.030167,-0.055649,1.001511,-0.039689,-0.030084,0.001919,60.308868,26.265884,-146.359421,,,
729608286.070693,-3.194877,-1.642169,57.079826,0.030167,-0.055649,1.001511,-0.039689,-0.030084,0.001919,60.308868,26.265884,-146.359421,,,
729608286.074016,-3.205924,-1.655389,57.079867,0.030853,-0.057251,1.004135,-0.03711,-0.041673,-0.000846,60.308868,26.265884,-146.359421,,,
729608286.077324,-3.217229,-1.66806,57.080227,0.030853,-0.057251,1.004135,-0.03711,-0.041673,-0.000846,60.308868,26.265884,-146.359421,,,
729608286.080675,-3.217229,-1.66806,57.080227,0.030853,-0.057251,1.004135,-0.03711,-0.041673,-0.000846,60.308868,26.265884,-146.359421,,,
729608286.083995,-3.227901,-1.682796,57.080713,0.03006,-0.061432,1.004196,-0.036565,-0.042752,-0.000611,60.227768,26.285217,-146.38678,,,
729608286.087321,-3.238218,-1.696606,57.081057,0.03006,-0.061432,1.004196,-0.036565,-0.042752,-0.000611,60.227768,26.285217,-146.38678,,,
729608286.09066,-3.238218,-1.696606,57.081057,0.03006,-0.061432,1.004196,-0.036565,-0.042752,-0.000611,60.227768,26.285217,-146.38678,,,
729608286.09401,-3.246386,-1.710228,57.080886,0.036697,-0.05925,1.005295,-0.02232,-0.039399,-0.001303,60.227768,26.285217,-146.38678,,,
729608286.097328,-3.252644,-1.721787,57.080341,0.036697,-0.05925,1.005295,-0.02232,-0.039399,-0.001303,60.227768,26.285217,-146.38678,,,
729608286.100665,-3.252644,-1.721787,57.080341,0.036697,-0.05925,1.005295,-0.02232,-0.039399,-0.001303,60.227768,26.285217,-146.38678,,,
729608286.10402,-3.255547,-1.732681,57.079788,0.039566,-0.060745,1.01178,-0.008158,-0.032761,-0.002645,60.227768,26.285217,-146.38678,,,
729608286.107329,-3.257113,-1.742727,57.079215,0.039566,-0.060745,1.01178,-0.008158,-0.032761,-0.002645,60.227768,26.285217,-146.38678,,,
729608286.11069,-3.257113,-1.742727,57.079215,0.039566,-0.060745,1.01178,-0.008158,-0.032761,-0.002645,60.227768,26.285217,-146.38678,,,
729608286.114088,-3.255919,-1.751491,57.078638,0.036224,-0.064499,1.012848,0.011081,-0.028695,-0.003026,60.227768,26.285217,-146.38678,,,
729608286.117324,-3.252532,-1.759559,57.078293,0.036224,-0.064499,1.012848,0.011081,-0.028695,-0.003026,60.227768,26.285217,-146.38678,,,
729608286.120727,-3.252532,-1.759559,57.078293,0.036224,-0.064499,1.012848,0.011081,-0.028695,-0.003026,60.227768,26.285217,-146.38678,,,
729608286.123746,-3.246965,-1.763209,57.078062,0.035049,-0.065231,1.014374,0.029482,-0.003077,-0.003378,60.227768,26.285217,-146.38678,,,
729608286.12737,-3.238927,-1.765218,57.077229,0.035049,-0.065231,1.014374,0.029482,-0.003077,-0.003378,60.159973,26.457855,-146.085541,,,
729608286.130674,-3.238927,-1.765218,57.077229,0.035049,-0.065231,1.014374,0.029482,-0.003077,-0.003378,60.159973,26.457855,-146.085541,,,
729608286.13403,-3.228715,-1.763989,57.076108,0.038757,-0.060867,1.018433,0.035994,0.010942,-0.006201,60.159973,26.457855,-146.085541,,,
729608286.137341,-3.218707,-1.761019,57.074917,0.038757,-0.060867,1.018433,0.035994,0.010942,-0.006201,60.159973,26.457855,-146.085541,,,
729608286.140765,-3.218707,-1.761019,57.074917,0.038757,-0.060867,1.018433,0.035994,0.010942,-0.006201,60.159973,26.457855,-146.085541,,,
729608286.144009,-3.20916,-1.753713,57.073375,0.03566,-0.056137,1.009003,0.033078,0.039367,-0.007891,60.159973,26.457855,-146.085541,,,
729608286.147329,-3.199943,-1.742899,57.071488,0.03566,-0.056137,1.009003,0.033078,0.039367,-0.007891,60.159973,26.457855,-146.085541,,,
729608286.150681,-3.199943,-1.742899,57.071488,0.03566,-0.056137,1.009003,0.033078,0.039367,-0.007891,60.159973,26.457855,-146.085541,,,
729608286.153996,-3.191379,-1.730331,57.06935,0.033112,-0.054642,1.004044,0.027297,0.052138,-0.008297,60.159973,26.457855,-146.085541,,,
729608286.157327,-3.18403,-1.716534,57.06788,0.033112,-0.054642,1.004044,0.027297,0.052138,-0.008297,60.159973,26.457855,-146.085541,,,
729608286.160675,-3.18403,-1.716534,57.06788,0.033112,-0.054642,1.004044,0.027297,0.052138,-0.008297,60.159973,26.457855,-146.085541,,,
729608286.164076,-3.178967,-1.701994,57.067207,0.02803,-0.056534,0.996719,0.023808,0.053236,-0.005037,60.159973,26.457855,-146.085541,,,
729608286.167328,-3.172354,-1.688718,57.066598,0.02803,-0.056534,0.996719,0.023808,0.053236,-0.005037,60.143066,26.52771,-146.476028,,,
729608286.170676,-3.172354,-1.688718,57.066598,0.02803,-0.056534,0.996719,0.023808,0.053236,-0.005037,60.143066,26.52771,-146.476028,,,
729608286.174013,-3.164777,-1.67907,57.066289,0.022827,-0.057007,0.996216,0.034048,0.032911,-0.002929,60.143066,26.52771,-146.476028,,,
729608286.177317,-3.154115,-1.670974,57.06624,0.022827,-0.057007,0.996216,0.034048,0.032911,-0.002929,60.143066,26.52771,-146.476028,,,
729608286.180669,-3.154115,-1.670974,57.06624,0.022827,-0.057007,0.996216,0.034048,0.032911,-0.002929,60.143066,26.52771,-146.476028,,,
729608286.18401,-3.141717,-1.667829,57.066003,0.023926,-0.056824,0.998169,0.050828,0.014411,-0.005042,60.143066,26.52771,-146.476028,,,
729608286.187334,-3.126201,-1.665251,57.065487,0.023926,-0.056824,0.998169,0.050828,0.014411,-0.005042,60.143066,26.52771,-146.476028,,,
729608286.190666,-3.126201,-1.665251,57.065487,0.023926,-0.056824,0.998169,0.050828,0.014411,-0.005042,60.143066,26.52771,-146.476028,,,
729608286.193856,-3.11047,-1.666619,57.064765,0.0242,-0.056763,0.997711,0.063463,0.002503,-0.007796,60.143066,26.52771,-146.476028,,,
729608286.197422,-3.091596,-1.667246,57.06421,0.0242,-0.056763,0.997711,0.063463,0.002503,-0.007796,60.143066,26.52771,-146.476028,,,
729608286.200666,-3.091596,-1.667246,57.06421,0.0242,-0.056763,0.997711,0.063463,0.002503,-0.007796,60.143066,26.52771,-146.476028,,,
729608286.203942,-3.074723,-1.669559,57.062778,0.02594,-0.052444,0.9944,0.065735,-0.000345,-0.005784,60.143066,26.52771,-146.476028,,,
729608286.207359,-3.056512,-1.670046,57.061334,0.02594,-0.052444,0.9944,0.065735,-0.000345,-0.005784,60.287689,26.277618,-146.491776,,,
729608286.210662,-3.056512,-1.670046,57.061334,0.02594,-0.052444,0.9944,0.065735,-0.000345,-0.005784,60.287689,26.277618,-146.491776,,,
729608286.214116,-3.041704,-1.670651,57.060254,0.028824,-0.048065,0.990173,0.056414,0.013896,-0.006661,60.287689,26.277618,-146.491776,,,
729608286.217326,-3.026549,-1.667024,57.059475,0.028824,-0.048065,0.990173,0.056414,0.013896,-0.006661,60.287689,26.277618,-146.491776,,,
729608286.220684,-3.026549,-1.667024,57.059475,0.028824,-0.048065,0.990173,0.056414,0.013896,-0.006661,60.287689,26.277618,-146.491776,,,
729608286.224025,-3.013305,-1.663557,57.059247,0.027969,-0.046738,0.988403,0.045342,0.022036,-0.002174,60.287689,26.277618,-146.491776,,,
729608286.227333,-3.000085,-1.658091,57.059425,0.027969,-0.046738,0.988403,0.045342,0.022036,-0.002174,60.287689,26.277618,-146.491776,,,
729608286.230696,-3.000085,-1.658091,57.059425,0.027969,-0.046738,0.988403,0.045342,0.022036,-0.002174,60.287689,26.277618,-146.491776,,,
729608286.234027,-2.988807,-1.65371,57.059287,0.029953,-0.047791,0.983261,0.037897,0.02548,-0.003593,60.287689,26.277618,-146.491776,,,
729608286.237331,-2.978502,-1.647123,57.058591,0.029953,-0.047791,0.983261,0.037897,0.02548,-0.003593,60.287689,26.277618,-146.491776,,,
729608286.240752,-2.978502,-1.647123,57.058591,0.029953,-0.047791,0.983261,0.037897,0.02548,-0.003593,60.287689,26.277618,-146.491776,,,
729608286.244005,-2.970044,-1.64202,57.057621,0.026581,-0.044357,0.98143,0.030044,0.018406,-0.00461,60.287689,26.277618,-146.491776,,,
729608286.247331,-2.96074,-1.638543,57.056941,0.026581,-0.044357,0.98143,0.030044,0.018406,-0.00461,60.065155,26.235092,-146.368591,,,
729608286.250694,-2.96074,-1.638543,57.056941,0.026581,-0.044357,0.98143,0.030044,0.018406,-0.00461,60.065155,26.235092,-146.368591,,,
729608286.254073,-2.951673,-1.636445,57.057276,0.018677,-0.048203,0.978149,0.037576,-0.001256,0.005568,60.065155,26.235092,-146.368591,,,
729608286.257319,-2.940179,-1.637426,57.059194,0.018677,-0.048203,0.978149,0.037576,-0.001256,0.005568,60.065155,26.235092,-146.368591,,,
729608286.260747,-2.940179,-1.637426,57.059194,0.018677,-0.048203,0.978149,0.037576,-0.001256,0.005568,60.065155,26.235092,-146.368591,,,
729608286.263998,-2.928876,-1.637539,57.062587,0.021072,-0.053329,0.985718,0.048592,-0.001603,0.011064,60.065155,26.235092,-146.368591,,,
729608286.267336,-2.915162,-1.638504,57.066882,0.021072,-0.053329,0.985718,0.048592,-0.001603,0.011064,60.065155,26.235092,-146.368591,,,
729608286.27068,-2.915162,-1.638504,57.066882,0.021072,-0.053329,0.985718,0.048592,-0.001603,0.011064,60.065155,26.235092,-146.368591,,,
729608286.274,-2.902532,-1.638848,57.07145,0.025116,-0.053452,0.98938,0.046198,-0.006534,0.016533,60.065155,26.235092,-146.368591,,,
729608286.277335,-2.889673,-1.640621,57.076224,0.025116,-0.053452,0.98938,0.046198,-0.006534,0.016533,60.065155,26.235092,-146.368591,,,
729608286.280763,-2.889673,-1.640621,57.076224,0.025116,-0.053452,0.98938,0.046198,-0.006534,0.016533,60.065155,26.235092,-146.368591,,,
729608286.284013,-2.879313,-1.640878,57.081684,0.024063,-0.05014,0.98233,0.034028,0.000313,0.016834,60.065155,26.235092,-146.368591,,,
729608286.287358,-2.870756,-1.640432,57.087042,0.024063,-0.05014,0.98233,0.034028,0.000313,0.016834,60.065155,26.235092,-146.368591,,,
729608286.290691,-2.870756,-1.640432,57.087042,0.024063,-0.05014,0.98233,0.034028,0.000313,0.016834,60.214966,26.122849,-146.482635,,,
729608286.294064,-2.865551,-1.637329,57.092093,0.029114,-0.043518,0.981155,0.012565,0.019105,0.014249,60.214966,26.122849,-146.482635,,,
729608286.297322,-2.863136,-1.632602,57.09674,0.029114,-0.043518,0.981155,0.012565,0.019105,0.014249,60.214966,26.122849,-146.482635,,,
729608286.30066,-2.863136,-1.632602,57.09674,0.029114,-0.043518,0.981155,0.012565,0.019105,0.014249,60.214966,26.122849,-146.482635,,,
729608286.304,-2.862844,-1.627051,57.100686,0.035294,-0.041031,0.981659,-0.006344,0.019756,0.010546,60.214966,26.122849,-146.482635,,,
729608286.307361,-2.865065,-1.622897,57.10408,0.035294,-0.041031,0.981659,-0.006344,0.019756,0.010546,60.214966,26.122849,-146.482635,,,
729608286.310687,-2.865065,-1.622897,57.10408,0.035294,-0.041031,0.981659,-0.006344,0.019756,0.010546,60.214966,26.122849,-146.482635,,,
729608286.314012,-2.868325,-1.62096,57.106778,0.03685,-0.041458,0.979446,-0.017941,0.007685,0.005677,60.214966,26.122849,-146.482635,,,
729608286.3174,-2.873733,-1.62013,57.108666,0.03685,-0.041458,0.979446,-0.017941,0.007685,0.005677,60.214966,26.122849,-146.482635,,,
729608286.32073,-2.873733,-1.62013,57.108666,0.03685,-0.041458,0.979446,-0.017941,0.007685,0.005677,60.214966,26.122849,-146.482635,,,
729608286.324002,-2.879852,-1.62068,57.109523,0.032227,-0.03952,0.983826,-0.025166,-0.004332,0.003521,60.214966,26.122849,-146.482635,,,
729608286.327336,-2.887534,-1.623284,57.109915,0.032227,-0.03952,0.983826,-0.025166,-0.004332,0.003521,60.214966,26.122849,-146.482635,,,
729608286.330677,-2.887534,-1.623284,57.109915,0.032227,-0.03952,0.983826,-0.025166,-0.004332,0.003521,60.178741,26.377319,-146.568115,,,
729608286.334046,-2.894604,-1.627171,57.110434,0.030014,-0.043091,0.986923,-0.023195,-0.020667,0.004545,60.178741,26.377319,-146.568115,,,
729608286.337396,-2.901197,-1.634012,57.111096,0.030014,-0.043091,0.986923,-0.023195,-0.020667,0.004545,60.178741,26.377319,-146.568115,,,
729608286.340673,-2.901197,-1.634012,57.111096,0.030014,-0.043091,0.986923,-0.023195,-0.020667,0.004545,60.178741,26.377319,-146.568115,,,
729608286.344019,-2.906148,-1.640269,57.112075,0.030579,-0.050812,0.993973,-0.010646,-0.027256,0.000704,60.178741,26.377319,-146.568115,,,
729608286.3474,-2.908308,-1.649582,57.112665,0.030579,-0.050812,0.993973,-0.010646,-0.027256,0.000704,60.178741,26.377319,-146.568115,,,
729608286.35066,-2.908308,-1.649582,57.112665,0.030579,-0.050812,0.993973,-0.010646,-0.027256,0.000704,60.178741,26.377319,-146.568115,,,
729608286.354001,-2.909655,-1.658161,57.112539,0.033127,-0.054367,1.002457,0.001187,-0.025808,-0.00529,60.178741,26.377319,-146.568115,,,
729608286.35738,-2.909366,-1.66631,57.111555,0.033127,-0.054367,1.002457,0.001187,-0.025808,-0.00529,60.178741,26.377319,-146.568115,,,
729608286.360718,-2.909366,-1.66631,57.111555,0.033127,-0.054367,1.002457,0.001187,-0.025808,-0.00529,60.178741,26.377319,-146.568115,,,
729608286.364005,-2.907747,-1.670716,57.110187,0.034607,-0.051239,1.002151,0.007279,-0.004078,-0.004843,60.178741,26.377319,-146.568115,,,
729608286.367348,-2.905357,-1.671897,57.109086,0.034607,-0.051239,1.002151,0.007279,-0.004078,-0.004843,60.178741,26.377319,-146.568115,,,
729608286.370654,-2.905357,-1.671897,57.109086,0.034607,-0.051239,1.002151,0.007279,-0.004078,-0.004843,60.156326,26.249252,-146.320175,,,
729608286.373991,-2.902129,-1.668664,57.109241,0.033646,-0.050964,1.007935,0.00844,0.024581,0.004008,60.156326,26.249252,-146.320175,,,
729608286.377391,-2.89944,-1.661811,57.111366,0.033646,-0.050964,1.007935,0.00844,0.024581,0.004008,60.156326,26.249252,-146.320175,,,
729608286.38067,-2.89944,-1.661811,57.111366,0.033646,-0.050964,1.007935,0.00844,0.024581,0.004008,60.156326,26.249252,-146.320175,,,
729608286.38406,-2.895633,-1.652292,57.115104,0.030991,-0.057343,1.004623,0.002948,0.0476,0.015515,60.156326,26.249252,-146.320175,,,
729608286.387335,-2.895028,-1.637974,57.119786,0.030991,-0.057343,1.004623,0.002948,0.0476,0.015515,60.156326,26.249252,-146.320175,,,
729608286.390687,-2.895028,-1.637974,57.119786,0.030991,-0.057343,1.004623,0.002948,0.0476,0.015515,60.156326,26.249252,-146.320175,,,
729608286.394005,-2.893259,-1.623962,57.124697,0.026657,-0.05632,1.002533,-0.000583,0.058627,0.016172,60.156326,26.249252,-146.320175,,,
729608286.397389,-2.89352,-1.607397,57.129979,0.026657,-0.05632,1.002533,-0.000583,0.058627,0.016172,60.156326,26.249252,-146.320175,,,
729608286.40069,-2.89352,-1.607397,57.129979,0.026657,-0.05632,1.002533,-0.000583,0.058627,0.016172,60.156326,26.249252,-146.320175,,,
729608286.404011,-2.890627,-1.594027,57.135336,0.021927,-0.05426,1.001236,0.009654,0.045963,0.016908,60.156326,26.249252,-146.320175,,,
729608286.407434,-2.888183,-1.582755,57.140416,0.021927,-0.05426,1.001236,0.009654,0.045963,0.016908,60.156326,26.249252,-146.320175,,,
729608286.410652,-2.888183,-1.582755,57.140416,0.021927,-0.05426,1.001236,0.009654,0.045963,0.016908,60.275055,26.197769,-146.673798,,,
729608286.414007,-2.883181,-1.576678,57.144491,0.019638,-0.052795,0.999634,0.015681,0.014439,0.008157,60.275055,26.197769,-146.673798,,,
729608286.417381,-2.879535,-1.57453,57.147579,0.019638,-0.052795,0.999634,0.015681,0.014439,0.008157,60.275055,26.197769,-146.673798,,,
729608286.420668,-2.879535,-1.57453,57.147579,0.019638,-0.052795,0.999634,0.015681,0.014439,0.008157,60.275055,26.197769,-146.673798,,,
729608286.424078,-2.875515,-1.57724,57.149795,0.017502,-0.050934,0.995026,0.013738,-0.010985,0.00185,60.275055,26.197769,-146.673798,,,
729608286.427356,-2.871422,-1.582622,57.151563,0.017502,-0.050934,0.995026,0.013738,-0.010985,0.00185,60.275055,26.197769,-146.673798,,,
729608286.430668,-2.871422,-1.582622,57.151563,0.017502,-0.050934,0.995026,0.013738,-0.010985,0.00185,60.275055,26.197769,-146.673798,,,
729608286.434001,-2.867628,-1.591709,57.152965,0.021194,-0.049911,0.995743,0.016384,-0.030288,0.003687,60.275055,26.197769,-146.673798,,,
729608286.437416,-2.863659,-1.601812,57.154678,0.021194,-0.049911,0.995743,0.016384,-0.030288,0.003687,60.275055,26.197769,-146.673798,,,
729608286.440662,-2.863659,-1.601812,57.154678,0.021194,-0.049911,0.995743,0.016384,-0.030288,0.003687,60.275055,26.197769,-146.673798,,,
729608286.444007,-2.861126,-1.613827,57.157551,0.022827,-0.050339,0.997559,0.012873,-0.029864,0.009634,60.275055,26.197769,-146.673798,,,
729608286.447356,-2.858307,-1.622493,57.16139,0.022827,-0.050339,0.997559,0.012873,-0.029864,0.009634,60.275055,26.197769,-146.673798,,,
729608286.450724,-2.858307,-1.622493,57.16139,0.022827,-0.050339,0.997559,0.012873,-0.029864,0.009634,60.275055,26.197769,-146.673798,,,
729608286.453995,-2.854504,-1.628508,57.165887,0.025513,-0.055038,1.002747,0.019883,-0.007862,0.014828,60.004852,26.314545,-146.670364,,,
729608286.457379,-2.854504,-1.630617,57.171326,0.025513,-0.055038,1.002747,0.019883,-0.007862,0.014828,60.004852,26.314545,-146.670364,,,
729608286.460649,-2.849046,-1.630617,57.171326,0.025513,-0.055038,1.002747,0.019883,-0.007862,0.014828,60.004852,26.314545,-146.670364,,,
729608286.463999,-2.842842,-1.63219,57.176876,0.033142,-0.054321,1.009933,0.031751,0.003242,0.018307,60.004852,26.314545,-146.670364,,,
729608286.467365,-2.833737,-1.630745,57.182482,0.033142,-0.054321,1.009933,0.031751,0.003242,0.018307,60.004852,26.314545,-146.670364,,,
729608286.470672,-2.833737,-1.630745,57.182482,0.033142,-0.054321,1.009933,0.031751,0.003242,0.018307,60.004852,26.314545,-146.670364,,,
729608286.474031,-2.825099,-1.625643,57.187364,0.039139,-0.050888,1.005859,0.036001,0.026425,0.012082,60.004852,26.314545,-146.670364,,,
729608286.477454,-2.815206,-1.617384,57.191126,0.039139,-0.050888,1.005859,0.036001,0.026425,0.012082,60.004852,26.314545,-146.670364,,,
729608286.480699,-2.815206,-1.617384,57.191126,0.039139,-0.050888,1.005859,0.036001,0.026425,0.012082,60.004852,26.314545,-146.670364,,,
729608286.484013,-2.806803,-1.606201,57.195174,0.041107,-0.046402,1.00174,0.034116,0.039263,0.008853,60.004852,26.314545,-146.670364,,,
