Time (sec),Pitch (deg),Roll (deg),Yaw(deg),X-Acceleration (g),Y-Acceleration (g),Z-Acceleration (g),Pitch Rate (deg/sec),Roll Rate (deg/sec),Yaw Rate (deg/sec),Magnetic Field in X direction (uT),Magnetic Field in Y direction (uT),Magnetic Field in Z Direction (uT),Latitude (deg),Longitude (deg),Altitude (m)
729605335.052,1.522655,-0.395456,32.489677,-0.010239,0.008957,1.009293,0.069308,0.060883,-0.086163,63.621964,16.516418,-149.081512,,,
729605335.055274,1.542513,-0.387566,32.466732,-0.010239,0.008957,1.009293,0.065647,0.03403,-0.080034,63.621964,16.516418,-149.081512,,,
729605335.058608,1.559274,-0.380275,32.445298,-0.016937,0.011078,0.997818,0.065647,0.03403,-0.080034,63.621964,16.516418,-149.081512,,,
729605335.061931,1.559274,-0.380275,32.445298,-0.016937,0.011078,0.997818,0.065647,0.03403,-0.080034,63.621964,16.516418,-149.081512,,,
729605335.065315,1.573673,-0.378544,32.425745,-0.016937,0.011078,0.997818,0.042556,0.011494,-0.066918,63.621964,16.516418,-149.081512,,,
729605335.068618,1.580847,-0.378537,32.407813,-0.020508,0.014725,0.984161,0.042556,0.011494,-0.066918,63.621964,16.516418,-149.081512,,,
729605335.071932,1.580847,-0.378537,32.407813,-0.020508,0.014725,0.984161,0.042556,0.011494,-0.066918,63.621964,16.516418,-149.081512,,,
729605335.075289,1.582532,-0.382892,32.391832,-0.020508,0.014725,0.984161,-0.003099,-0.007767,-0.053607,63.621964,16.516418,-149.081512,,,
729605335.078631,1.57564,-0.385503,32.377762,-0.02388,0.024521,0.978378,-0.003099,-0.007767,-0.053607,63.621964,16.516418,-149.081512,,,
729605335.082023,1.57564,-0.385503,32.377762,-0.02388,0.024521,0.978378,-0.003099,-0.007767,-0.053607,63.621964,16.516418,-149.081512,,,
729605335.085205,1.56151,-0.390592,32.365889,-0.02388,0.024521,0.978378,-0.056964,-0.007087,-0.041974,63.627533,16.489868,-148.801819,,,
729605335.088554,1.540781,-0.394001,32.355625,-0.028046,0.029892,0.986893,-0.056964,-0.007087,-0.041974,63.627533,16.489868,-148.801819,,,
729605335.091908,1.540781,-0.394001,32.355625,-0.028046,0.029892,0.986893,-0.056964,-0.007087,-0.041974,63.627533,16.489868,-148.801819,,,
729605335.095219,1.513781,-0.399526,32.34624,-0.028046,0.029892,0.986893,-0.098484,-0.013415,-0.030465,63.627533,16.489868,-148.801819,,,
729605335.098448,1.481062,-0.405311,32.338922,-0.02887,0.025589,0.987076,-0.098484,-0.013415,-0.030465,63.627533,16.489868,-148.801819,,,
729605335.101985,1.481062,-0.405311,32.338922,-0.02887,0.025589,0.987076,-0.098484,-0.013415,-0.030465,63.627533,16.489868,-148.801819,,,
729605335.105265,1.444012,-0.412094,32.33473,-0.02887,0.025589,0.987076,-0.129037,-0.019259,-0.012994,63.627533,16.489868,-148.801819,,,
729605335.108594,1.406454,-0.417345,32.332455,-0.026337,0.018433,1.001648,-0.129037,-0.019259,-0.012994,63.627533,16.489868,-148.801819,,,
729605335.111999,1.406454,-0.417345,32.332455,-0.026337,0.018433,1.001648,-0.129037,-0.019259,-0.012994,63.627533,16.489868,-148.801819,,,
729605335.115352,1.368444,-0.422864,32.331851,-0.026337,0.018433,1.001648,-0.12575,-0.014644,-0.000285,63.627533,16.489868,-148.801819,,,
729605335.118606,1.333381,-0.429566,32.333408,-0.019974,0.012482,1.021667,-0.12575,-0.014644,-0.000285,63.627533,16.489868,-148.801819,,,
729605335.121932,1.333381,-0.429566,32.333408,-0.019974,0.012482,1.021667,-0.12575,-0.014644,-0.000285,63.627533,16.489868,-148.801819,,,
729605335.125267,1.298759,-0.437759,32.337172,-0.019974,0.012482,1.021667,-0.111791,-0.030698,0.015069,63.554092,16.671509,-148.674133,,,
729605335.128597,1.267523,-0.448085,32.344153,-0.02243,0.007492,1.017365,-0.111791,-0.030698,0.015069,63.554092,16.671509,-148.674133,,,
729605335.13201,1.267523,-0.448085,32.344153,-0.02243,0.007492,1.017365,-0.111791,-0.030698,0.015069,63.554092,16.671509,-148.674133,,,
729605335.135386,1.236304,-0.45636,32.354892,-0.02243,0.007492,1.017365,-0.099742,-0.034958,0.040103,63.554092,16.671509,-148.674133,,,
729605335.138603,1.20804,-0.467519,32.369191,-0.028351,0.004517,1.021179,-0.099742,-0.034958,0.040103,63.554092,16.671509,-148.674133,,,
729605335.141955,1.20804,-0.467519,32.369191,-0.028351,0.004517,1.021179,-0.099742,-0.034958,0.040103,63.554092,16.671509,-148.674133,,,
729605335.145371,1.180322,-0.475166,32.38619,-0.028351,0.004517,1.021179,-0.08699,-0.035354,0.059679,63.554092,16.671509,-148.674133,,,
729605335.148645,1.157919,-0.48703,32.404759,-0.018982,0.007217,1.027679,-0.08699,-0.035354,0.059679,63.554092,16.671509,-148.674133,,,
729605335.151949,1.157919,-0.48703,32.404759,-0.018982,0.007217,1.027679,-0.08699,-0.035354,0.059679,63.554092,16.671509,-148.674133,,,
729605335.15533,1.140878,-0.496877,32.423394,-0.018982,0.007217,1.027679,-0.052845,-0.042868,0.063493,63.554092,16.671509,-148.674133,,,
729605335.158598,1.130153,-0.514726,32.441039,-0.003601,0.009674,1.035492,-0.052845,-0.042868,0.063493,63.554092,16.671509,-148.674133,,,
729605335.162005,1.130153,-0.514726,32.441039,-0.003601,0.009674,1.035492,-0.052845,-0.042868,0.063493,63.554092,16.671509,-148.674133,,,
729605335.165303,1.127082,-0.533626,32.45581,-0.003601,0.009674,1.035492,-0.009251,-0.079846,0.048875,63.554092,16.671509,-148.674133,,,
729605335.16866,1.128312,-0.562018,32.467654,0.009125,0.010406,1.031891,-0.009251,-0.079846,0.048875,63.525864,16.75351,-149.105713,,,
729605335.171973,1.128312,-0.562018,32.467654,0.009125,0.010406,1.031891,-0.009251,-0.079846,0.048875,63.525864,16.75351,-149.105713,,,
729605335.175295,1.134611,-0.588356,32.477229,0.009125,0.010406,1.031891,0.020746,-0.109128,0.031673,63.525864,16.75351,-149.105713,,,
729605335.181305,1.141616,-0.62052,32.484754,0.006454,0.012711,1.024414,0.020746,-0.109128,0.031673,63.525864,16.75351,-149.105713,,,
729605335.181704,1.141616,-0.62052,32.484754,0.006454,0.012711,1.024414,0.020746,-0.109128,0.031673,63.525864,16.75351,-149.105713,,,
729605335.185316,1.148936,-0.64702,32.490885,0.006454,0.012711,1.024414,0.022519,-0.105795,0.018948,63.525864,16.75351,-149.105713,,,
729605335.188597,1.153144,-0.678226,32.496881,0.007599,0.016296,1.008423,0.022519,-0.105795,0.018948,63.525864,16.75351,-149.105713,,,
729605335.191954,1.153144,-0.678226,32.496881,0.007599,0.016296,1.008423,0.022519,-0.105795,0.018948,63.525864,16.75351,-149.105713,,,
729605335.195262,1.152033,-0.703969,32.502961,0.007599,0.016296,1.008423,-0.006768,-0.098811,0.020145,63.525864,16.75351,-149.105713,,,
729605335.198642,1.145914,-0.731565,32.509166,0.01712,0.023605,0.986328,-0.006768,-0.098811,0.020145,63.525864,16.75351,-149.105713,,,
729605335.202051,1.145914,-0.731565,32.509166,0.01712,0.023605,0.986328,-0.006768,-0.098811,0.020145,63.525864,16.75351,-149.105713,,,
729605335.205356,1.133345,-0.750963,32.514874,0.01712,0.023605,0.986328,-0.046063,-0.074994,0.018535,63.525864,16.75351,-149.105713,,,
729605335.208597,1.116833,-0.771209,32.519747,0.034332,0.031189,0.97905,-0.046063,-0.074994,0.018535,63.25882,16.999054,-148.987488,,,
729605335.211931,1.116833,-0.771209,32.519747,0.034332,0.031189,0.97905,-0.046063,-0.074994,0.018535,63.25882,16.999054,-148.987488,,,
729605335.215343,1.093442,-0.78438,32.523327,0.034332,0.031189,0.97905,-0.076923,-0.059141,0.012563,63.25882,16.999054,-148.987488,,,
729605335.218606,1.068809,-0.800625,32.52538,0.041733,0.029526,0.970963,-0.076923,-0.059141,0.012563,63.25882,16.999054,-148.987488,,,
729605335.221937,1.068809,-0.800625,32.52538,0.041733,0.029526,0.970963,-0.076923,-0.059141,0.012563,63.25882,16.999054,-148.987488,,,
729605335.225288,1.041109,-0.809522,32.525041,0.041733,0.029526,0.970963,-0.092501,-0.040127,-0.002426,63.25882,16.999054,-148.987488,,,
729605335.2286,1.014539,-0.817783,32.522396,0.041718,0.025269,0.973724,-0.092501,-0.040127,-0.002426,63.25882,16.999054,-148.987488,,,
729605335.231985,1.014539,-0.817783,32.522396,0.041718,0.025269,0.973724,-0.092501,-0.040127,-0.002426,63.25882,16.999054,-148.987488,,,
729605335.235348,0.988413,-0.820384,32.517145,0.041718,0.025269,0.973724,-0.085246,-0.011872,-0.021397,63.25882,16.999054,-148.987488,,,
729605335.23859,0.965628,-0.822457,32.509181,0.054947,0.026154,0.982697,-0.085246,-0.011872,-0.021397,63.25882,16.999054,-148.987488,,,
729605335.241943,0.965628,-0.822457,32.509181,0.054947,0.026154,0.982697,-0.085246,-0.011872,-0.021397,63.25882,16.999054,-148.987488,,,
729605335.245251,0.94525,-0.821985,32.499156,0.054947,0.026154,0.982697,-0.06486,0.002093,-0.039424,63.25882,16.999054,-148.987488,,,
729605335.248637,0.928189,-0.821888,32.488078,0.052139,0.023499,0.979691,-0.06486,0.002093,-0.039424,63.098465,17.068848,-148.716415,,,
729605335.251929,0.928189,-0.821888,32.488078,0.052139,0.023499,0.979691,-0.06486,0.002093,-0.039424,63.098465,17.068848,-148.716415,,,
729605335.25529,0.912142,-0.820758,32.476759,0.052139,0.023499,0.979691,-0.0527,0.005989,-0.038317,63.098465,17.068848,-148.716415,,,
729605335.258628,0.896259,-0.818236,32.466297,0.036911,0.02272,0.971146,-0.0527,0.005989,-0.038317,63.098465,17.068848,-148.716415,,,
729605335.261997,0.896259,-0.818236,32.466297,0.036911,0.02272,0.971146,-0.0527,0.005989,-0.038317,63.098465,17.068848,-148.716415,,,
729605335.265301,0.878449,-0.812944,32.456631,0.036911,0.02272,0.971146,-0.064146,0.022195,-0.03333,63.098465,17.068848,-148.716415,,,
729605335.268469,0.878449,-0.807386,32.447488,0.036911,0.02272,0.971146,-0.064146,0.022195,-0.03333,63.098465,17.068848,-148.716415,,,
729605335.271951,0.857099,-0.807386,32.447488,0.033447,0.026001,0.967819,-0.064146,0.022195,-0.03333,63.098465,17.068848,-148.716415,,,
729605335.275337,0.83293,-0.802041,32.438778,0.033447,0.026001,0.967819,-0.090519,0.019293,-0.02974,63.098465,17.068848,-148.716415,,,
729605335.278655,0.806438,-0.797964,32.430041,0.033081,0.027588,0.960617,-0.090519,0.019293,-0.02974,63.098465,17.068848,-148.716415,,,
729605335.281977,0.806438,-0.797964,32.430041,0.033081,0.027588,0.960617,-0.090519,0.019293,-0.02974,63.098465,17.068848,-148.716415,,,
729605335.285288,0.780028,-0.795637,32.421484,0.033081,0.027588,0.960617,-0.095376,0.013473,-0.030105,63.098465,17.068848,-148.716415,,,
729605335.288603,0.752027,-0.794535,32.413178,0.023682,0.021484,0.971313,-0.095376,0.013473,-0.030105,63.301575,17.192139,-149.188782,,,
729605335.291924,0.752027,-0.794535,32.413178,0.023682,0.021484,0.971313,-0.095376,0.013473,-0.030105,63.301575,17.192139,-149.188782,,,
729605335.295289,0.725126,-0.798449,32.405746,0.023682,0.021484,0.971313,-0.10033,-0.006135,-0.027308,63.301575,17.192139,-149.188782,,,
729605335.298698,0.695029,-0.802969,32.399052,0.011719,0.013382,0.976013,-0.10033,-0.006135,-0.027308,63.301575,17.192139,-149.188782,,,
729605335.301924,0.695029,-0.802969,32.399052,0.011719,0.013382,0.976013,-0.10033,-0.006135,-0.027308,63.301575,17.192139,-149.188782,,,
729605335.305266,0.664322,-0.813071,32.392674,0.011719,0.013382,0.976013,-0.115117,-0.02251,-0.022595,63.301575,17.192139,-149.188782,,,
729605335.308623,0.63039,-0.823351,32.386147,0.003555,0.013351,0.978943,-0.115117,-0.02251,-0.022595,63.301575,17.192139,-149.188782,,,
729605335.311935,0.63039,-0.823351,32.386147,0.003555,0.013351,0.978943,-0.115117,-0.02251,-0.022595,63.301575,17.192139,-149.188782,,,
729605335.315359,0.597745,-0.83943,32.378207,0.003555,0.013351,0.978943,-0.121198,-0.044388,-0.030768,63.301575,17.192139,-149.188782,,,
729605335.318615,0.565341,-0.856093,32.367633,0.009094,0.016357,0.994278,-0.121198,-0.044388,-0.030768,63.301575,17.192139,-149.188782,,,
729605335.32193,0.565341,-0.856093,32.367633,0.009094,0.016357,0.994278,-0.121198,-0.044388,-0.030768,63.301575,17.192139,-149.188782,,,
729605335.325258,0.537294,-0.880838,32.353832,0.009094,0.016357,0.994278,-0.099696,-0.077217,-0.050936,63.301575,17.192139,-149.188782,,,
729605335.328598,0.512172,-0.905763,32.336758,0.014709,0.011383,1.006668,-0.099696,-0.077217,-0.050936,63.301575,17.192139,-149.188782,,,
729605335.331986,0.512172,-0.905763,32.336758,0.014709,0.011383,1.006668,-0.099696,-0.077217,-0.050936,63.205582,17.491364,-148.996765,,,
729605335.335268,0.493064,-0.935581,32.317163,0.014709,0.011383,1.006668,-0.067731,-0.093908,-0.069793,63.205582,17.491364,-148.996765,,,
729605335.338626,0.478023,-0.964133,32.295822,0.006042,0.003296,1.020813,-0.067731,-0.093908,-0.069793,63.205582,17.491364,-148.996765,,,
729605335.342025,0.478023,-0.964133,32.295822,0.006042,0.003296,1.020813,-0.067731,-0.093908,-0.069793,63.205582,17.491364,-148.996765,,,
729605335.345281,0.469815,-0.993119,32.273293,0.006042,0.003296,1.020813,-0.026757,-0.091665,-0.082736,63.205582,17.491364,-148.996765,,,
729605335.348665,0.466412,-1.019584,32.249454,0.010849,-0.002502,1.031967,-0.026757,-0.091665,-0.082736,63.205582,17.491364,-148.996765,,,
729605335.351939,0.466412,-1.019584,32.249454,0.010849,-0.002502,1.031967,-0.026757,-0.091665,-0.082736,63.205582,17.491364,-148.996765,,,
729605335.355258,0.471324,-1.048332,32.224117,0.010849,-0.002502,1.031967,0.013333,-0.090512,-0.090365,63.205582,17.491364,-148.996765,,,
729605335.358648,0.479873,-1.077425,32.197971,0.02121,-0.001877,1.028397,0.013333,-0.090512,-0.090365,63.205582,17.491364,-148.996765,,,
729605335.361928,0.479873,-1.077425,32.197971,0.02121,-0.001877,1.028397,0.013333,-0.090512,-0.090365,63.205582,17.491364,-148.996765,,,
729605335.365313,0.495243,-1.10956,32.172272,0.02121,-0.001877,1.028397,0.048408,-0.106705,-0.093368,63.205582,17.491364,-148.996765,,,
729605335.368657,0.511144,-1.139484,32.14688,0.015656,-0.000427,1.018051,0.048408,-0.106705,-0.093368,63.205582,17.491364,-148.996765,,,
729605335.371918,0.511144,-1.139484,32.14688,0.015656,-0.000427,1.018051,0.048408,-0.106705,-0.093368,62.964813,17.388382,-148.969757,,,
729605335.375256,0.528858,-1.164635,32.121976,0.015656,-0.000427,1.018051,0.058576,-0.077832,-0.089762,62.964813,17.388382,-148.969757,,,
729605335.378654,0.544688,-1.184481,32.098423,0.009644,0.001633,1.015564,0.058576,-0.077832,-0.089762,62.964813,17.388382,-148.969757,,,
729605335.382033,0.544688,-1.184481,32.098423,0.009644,0.001633,1.015564,0.058576,-0.077832,-0.089762,62.964813,17.388382,-148.969757,,,
729605335.385298,0.55783,-1.199163,32.075607,0.009644,0.001633,1.015564,0.042454,-0.051634,-0.079581,62.964813,17.388382,-148.969757,,,
729605335.388726,0.567117,-1.212957,32.053582,0.014526,0.007172,0.998489,0.042454,-0.051634,-0.079581,62.964813,17.388382,-148.969757,,,
729605335.391955,0.567117,-1.212957,32.053582,0.014526,0.007172,0.998489,0.042454,-0.051634,-0.079581,62.964813,17.388382,-148.969757,,,
729605335.395266,0.573948,-1.224277,32.032278,0.014526,0.007172,0.998489,0.017488,-0.041072,-0.075274,62.964813,17.388382,-148.969757,,,
729605335.398685,0.577278,-1.236413,32.011003,0.014526,0.007172,0.998489,0.017488,-0.041072,-0.075274,62.964813,17.388382,-148.969757,,,
729605335.401953,0.577278,-1.236413,32.011003,0.021576,0.013489,0.983734,0.017488,-0.041072,-0.075274,62.964813,17.388382,-148.969757,,,
729605335.405268,0.579745,-1.24697,31.988377,0.021576,0.013489,0.983734,0.006455,-0.037156,-0.081136,62.964813,17.388382,-148.969757,,,
729605335.408663,0.581494,-1.258791,31.963497,0.021576,0.013489,0.983734,0.006455,-0.037156,-0.081136,62.964813,17.388382,-148.969757,,,
729605335.411924,0.581494,-1.258791,31.963497,0.028488,0.014359,0.987854,0.006455,-0.037156,-0.081136,62.748795,17.265244,-149.477463,,,
729605335.415311,0.584284,-1.270513,31.936819,0.028488,0.014359,0.987854,0.009053,-0.040853,-0.095548,62.748795,17.265244,-149.477463,,,
729605335.418667,0.584284,-1.270513,31.936819,0.028488,0.014359,0.987854,0.009053,-0.040853,-0.095548,62.748795,17.265244,-149.477463,,,
729605335.421926,0.590486,-1.286166,31.908852,0.025848,0.010315,0.993591,0.009053,-0.040853,-0.095548,62.748795,17.265244,-149.477463,,,
729605335.425259,0.5995,-1.30413,31.879533,0.025848,0.010315,0.993591,0.040004,-0.071857,-0.104949,62.748795,17.265244,-149.477463,,,
729605335.428625,0.5995,-1.30413,31.879533,0.025848,0.010315,0.993591,0.040004,-0.071857,-0.104949,62.748795,17.265244,-149.477463,,,
729605335.431992,0.613079,-1.328693,31.848428,0.01889,0.005081,0.996704,0.040004,-0.071857,-0.104949,62.748795,17.265244,-149.477463,,,
729605335.435343,0.627042,-1.356391,31.816508,0.01889,0.005081,0.996704,0.055242,-0.100139,-0.113492,62.748795,17.265244,-149.477463,,,
729605335.438597,0.627042,-1.356391,31.816508,0.01889,0.005081,0.996704,0.055242,-0.100139,-0.113492,62.748795,17.265244,-149.477463,,,
729605335.441939,0.643222,-1.389568,31.784304,0.016724,0.004532,0.994217,0.055242,-0.100139,-0.113492,62.748795,17.265244,-149.477463,,,
729605335.445262,0.656798,-1.428601,31.750743,0.016724,0.004532,0.994217,0.051887,-0.143102,-0.119816,62.748795,17.265244,-149.477463,,,
729605335.448697,0.656798,-1.428601,31.750743,0.016724,0.004532,0.994217,0.051887,-0.143102,-0.119816,62.748795,17.265244,-149.477463,,,
729605335.451933,0.670196,-1.476218,31.71525,0.017944,0.005264,0.984146,0.051887,-0.143102,-0.119816,62.748795,17.265244,-149.477463,,,
729605335.45526,0.678579,-1.529149,31.677469,0.017944,0.005264,0.984146,0.028546,-0.196548,-0.134804,62.485703,17.081238,-148.756729,,,
729605335.458613,0.678579,-1.529149,31.677469,0.017944,0.005264,0.984146,0.028546,-0.196548,-0.134804,62.485703,17.081238,-148.756729,,,
729605335.461924,0.684971,-1.589777,31.637631,0.024551,0.00882,0.978043,0.028546,-0.196548,-0.134804,62.485703,17.081238,-148.756729,,,
729605335.465324,0.687283,-1.651439,31.596619,0.024551,0.00882,0.978043,0.006546,-0.223345,-0.144575,62.485703,17.081238,-148.756729,,,
729605335.468678,0.687283,-1.651439,31.596619,0.024551,0.00882,0.978043,0.006546,-0.223345,-0.144575,62.485703,17.081238,-148.756729,,,
729605335.472023,0.689049,-1.715334,31.554628,0.030243,0.004333,0.994141,0.006546,-0.223345,-0.144575,62.485703,17.081238,-148.756729,,,
729605335.475265,0.690024,-1.774838,31.511892,0.030243,0.004333,0.994141,0.001425,-0.209567,-0.151037,62.485703,17.081238,-148.756729,,,
729605335.478605,0.690024,-1.774838,31.511892,0.030243,0.004333,0.994141,0.001425,-0.209567,-0.151037,62.485703,17.081238,-148.756729,,,
729605335.481998,0.691147,-1.831396,31.469723,0.041107,-0.003632,1.013275,0.001425,-0.209567,-0.151037,62.485703,17.081238,-148.756729,,,
729605335.485256,0.692333,-1.881381,31.42878,0.041107,-0.003632,1.013275,-0.001202,-0.170651,-0.145004,62.485703,17.081238,-148.756729,,,
729605335.488632,0.692333,-1.881381,31.42878,0.041107,-0.003632,1.013275,-0.001202,-0.170651,-0.145004,62.485703,17.081238,-148.756729,,,
729605335.491921,0.693132,-1.924816,31.390016,0.045319,-0.009598,1.022049,-0.001202,-0.170651,-0.145004,62.485703,17.081238,-148.756729,,,
729605335.495266,0.69444,-1.959233,31.35432,0.045319,-0.009598,1.022049,-0.001646,-0.113181,-0.125155,62.237381,17.10495,-148.846588,,,
729605335.498641,0.69444,-1.959233,31.35432,0.045319,-0.009598,1.022049,-0.001646,-0.113181,-0.125155,62.237381,17.10495,-148.846588,,,
729605335.501934,0.696145,-1.986412,31.322678,0.044296,-0.012527,1.028214,-0.001646,-0.113181,-0.125155,62.237381,17.10495,-148.846588,,,
729605335.505271,0.699158,-2.004534,31.295499,0.044296,-0.012527,1.028214,0.009123,-0.058796,-0.091361,62.237381,17.10495,-148.846588,,,
729605335.508622,0.699158,-2.004534,31.295499,0.044296,-0.012527,1.028214,0.009123,-0.058796,-0.091361,62.237381,17.10495,-148.846588,,,
729605335.511922,0.706324,-2.016688,31.272446,0.041595,-0.011993,1.036453,0.009123,-0.058796,-0.091361,62.237381,17.10495,-148.846588,,,
729605335.51528,0.716903,-2.020331,31.252588,0.041595,-0.011993,1.036453,0.042734,-0.012295,-0.070413,62.237381,17.10495,-148.846588,,,
729605335.518588,0.716903,-2.020331,31.252588,0.041595,-0.011993,1.036453,0.042734,-0.012295,-0.070413,62.237381,17.10495,-148.846588,,,
729605335.521919,0.7324,-2.021632,31.234617,0.051758,-0.009003,1.046722,0.042734,-0.012295,-0.070413,62.237381,17.10495,-148.846588,,,
729605335.525254,0.750073,-2.017517,31.218005,0.051758,-0.009003,1.046722,0.069478,0.009807,-0.058851,62.237381,17.10495,-148.846588,,,
729605335.528589,0.750073,-2.017517,31.218005,0.051758,-0.009003,1.046722,0.069478,0.009807,-0.058851,62.237381,17.10495,-148.846588,,,
729605335.531989,0.771265,-2.013978,31.203408,0.040771,-0.003021,1.032028,0.069478,0.009807,-0.058851,62.237381,17.10495,-148.846588,,,
729605335.535376,0.791501,-2.006589,31.190493,0.040771,-0.003021,1.032028,0.072221,0.026228,-0.049463,62.226288,16.961655,-149.000519,,,
729605335.538634,0.791501,-2.006589,31.190493,0.040771,-0.003021,1.032028,0.072221,0.026228,-0.049463,62.226288,16.961655,-149.000519,,,
729605335.541919,0.810598,-1.999481,31.177865,0.030472,0.002365,1.016678,0.072221,0.026228,-0.049463,62.226288,16.961655,-149.000519,,,
729605335.545269,0.826528,-1.992409,31.165999,0.030472,0.002365,1.016678,0.055341,0.022394,-0.04249,62.226288,16.961655,-149.000519,,,
729605335.548638,0.826528,-1.992409,31.165999,0.030472,0.002365,1.016678,0.055341,0.022394,-0.04249,62.226288,16.961655,-149.000519,,,
729605335.551918,0.840049,-1.989186,31.156488,0.029083,0.009415,1.001465,0.055341,0.022394,-0.04249,62.226288,16.961655,-149.000519,,,
729605335.555281,0.84745,-1.988519,31.148676,0.029083,0.009415,1.001465,0.029413,0.003837,-0.028017,62.226288,16.961655,-149.000519,,,
729605335.558608,0.84745,-1.988519,31.148676,0.029083,0.009415,1.001465,0.029413,0.003837,-0.028017,62.226288,16.961655,-149.000519,,,
729605335.56203,0.851275,-1.989883,31.141383,0.025833,0.008774,0.988632,0.029413,0.003837,-0.028017,62.226288,16.961655,-149.000519,,,
729605335.56531,0.848115,-1.992746,31.134051,0.025833,0.008774,0.988632,-0.002641,-0.001406,-0.030071,62.226288,16.961655,-149.000519,,,
729605335.568266,0.848115,-1.992746,31.134051,0.025833,0.008774,0.988632,-0.002641,-0.001406,-0.030071,62.226288,16.961655,-149.000519,,,
729605335.571982,0.845624,-1.994945,31.125031,0.035339,0.012741,0.990967,-0.002641,-0.001406,-0.030071,62.226288,16.961655,-149.000519,,,
729605335.57526,0.839062,-1.999931,31.112816,0.035339,0.012741,0.990967,-0.010088,-0.011437,-0.04929,62.120361,16.929977,-148.966141,,,
729605335.578596,0.839062,-1.999931,31.112816,0.035339,0.012741,0.990967,-0.010088,-0.011437,-0.04929,62.120361,16.929977,-148.966141,,,
729605335.581986,0.836375,-2.006353,31.097356,0.044998,0.016617,0.996262,-0.010088,-0.011437,-0.04929,62.120361,16.929977,-148.966141,,,
729605335.585261,0.8307,-2.01534,31.079534,0.044998,0.016617,0.996262,-0.007038,-0.026043,-0.06236,62.120361,16.929977,-148.966141,,,
729605335.588628,0.8307,-2.01534,31.079534,0.044998,0.016617,0.996262,-0.007038,-0.026043,-0.06236,62.120361,16.929977,-148.966141,,,
729605335.591972,0.829907,-2.023258,31.061389,0.034805,0.011795,0.997833,-0.007038,-0.026043,-0.06236,62.120361,16.929977,-148.966141,,,
729605335.595259,0.826923,-2.032017,31.04385,0.034805,0.011795,0.997833,0.000893,-0.025314,-0.061548,62.120361,16.929977,-148.966141,,,
729605335.598638,0.826923,-2.032017,31.04385,0.034805,0.011795,0.997833,0.000893,-0.025314,-0.061548,62.120361,16.929977,-148.966141,,,
729605335.601938,0.828485,-2.040545,31.028052,0.028259,0.005325,1.002548,0.000893,-0.025314,-0.061548,62.120361,16.929977,-148.966141,,,
729605335.605258,0.827886,-2.051554,31.015039,0.028259,0.005325,1.002548,0.008691,-0.031605,-0.04566,62.120361,16.929977,-148.966141,,,
729605335.608594,0.827886,-2.051554,31.015039,0.028259,0.005325,1.002548,0.008691,-0.031605,-0.04566,62.120361,16.929977,-148.966141,,,
729605335.611956,0.832143,-2.061601,31.004509,0.030396,0.003403,0.9953,0.008691,-0.031605,-0.04566,62.120361,16.929977,-148.966141,,,
729605335.615321,0.837342,-2.07248,30.995679,0.030396,0.003403,0.9953,0.027722,-0.036433,-0.031124,62.120361,16.929977,-148.966141,,,
729605335.618603,0.837342,-2.07248,30.995679,0.030396,0.003403,0.9953,0.027722,-0.036433,-0.031124,61.950882,16.875244,-149.252548,,,
729605335.621931,0.847185,-2.084121,30.987422,0.033066,0.001938,0.992859,0.027722,-0.036433,-0.031124,61.950882,16.875244,-149.252548,,,
729605335.625255,0.857799,-2.092994,30.979358,0.033066,0.001938,0.992859,0.041341,-0.029627,-0.031915,61.950882,16.875244,-149.252548,,,
729605335.62859,0.857799,-2.092994,30.979358,0.033066,0.001938,0.992859,0.041341,-0.029627,-0.031915,61.950882,16.875244,-149.252548,,,
729605335.631969,0.869887,-2.098963,30.97118,0.031998,0.005035,0.993698,0.041341,-0.029627,-0.031915,61.950882,16.875244,-149.252548,,,
729605335.635267,0.879683,-2.100046,30.96256,0.031998,0.005035,0.993698,0.037207,-0.00085,-0.035481,61.950882,16.875244,-149.252548,,,
729605335.638648,0.879683,-2.100046,30.96256,0.031998,0.005035,0.993698,0.037207,-0.00085,-0.035481,61.950882,16.875244,-149.252548,,,
729605335.641686,0.888463,-2.099364,30.953471,0.029236,0.008316,0.987274,0.037207,-0.00085,-0.035481,61.950882,16.875244,-149.252548,,,
729605335.645342,0.894312,-2.095797,30.943613,0.029236,0.008316,0.987274,0.021108,0.012877,-0.03774,61.950882,16.875244,-149.252548,,,
729605335.648763,0.894312,-2.095797,30.943613,0.029236,0.008316,0.987274,0.021108,0.012877,-0.03774,61.950882,16.875244,-149.252548,,,
729605335.651936,0.898132,-2.091739,30.933565,0.032639,0.011948,0.97493,0.021108,0.012877,-0.03774,61.950882,16.875244,-149.252548,,,
729605335.655254,0.89836,-2.086444,30.923751,0.032639,0.011948,0.97493,-0.006587,0.024425,-0.036269,61.950882,16.875244,-149.252548,,,
729605335.658698,0.89836,-2.086444,30.923751,0.032639,0.011948,0.97493,-0.006587,0.024425,-0.036269,62.171524,16.693329,-148.910904,,,
729605335.66203,0.894206,-2.079045,30.9136,0.026245,0.012741,0.970032,-0.006587,0.024425,-0.036269,62.171524,16.693329,-148.910904,,,
729605335.665304,0.885898,-2.071792,30.903015,0.026245,0.012741,0.970032,-0.030616,0.030016,-0.03665,62.171524,16.693329,-148.910904,,,
729605335.668613,0.885898,-2.071792,30.903015,0.026245,0.012741,0.970032,-0.030616,0.030016,-0.03665,62.171524,16.693329,-148.910904,,,
729605335.671925,0.874985,-2.06447,30.891465,0.027145,0.015793,0.964798,-0.030616,0.030016,-0.03665,62.171524,16.693329,-148.910904,,,
729605335.675257,0.862826,-2.056969,30.877065,0.027145,0.015793,0.964798,-0.042982,0.02274,-0.055936,62.171524,16.693329,-148.910904,,,
729605335.678456,0.862826,-2.056969,30.877065,0.027145,0.015793,0.964798,-0.042982,0.02274,-0.055936,62.171524,16.693329,-148.910904,,,
729605335.682025,0.852928,-2.051037,30.858762,0.038086,0.017349,0.974884,-0.042982,0.02274,-0.055936,62.171524,16.693329,-148.910904,,,
729605335.685264,0.844648,-2.045161,30.83644,0.038086,0.017349,0.974884,-0.023477,0.019794,-0.083019,62.171524,16.693329,-148.910904,,,
729605335.688664,0.844648,-2.045161,30.83644,0.038086,0.017349,0.974884,-0.023477,0.019794,-0.083019,62.171524,16.693329,-148.910904,,,
729605335.691921,0.842327,-2.041152,30.810835,0.047562,0.016785,0.989578,-0.023477,0.019794,-0.083019,62.171524,16.693329,-148.910904,,,
729605335.69526,0.842652,-2.038047,30.783759,0.047562,0.016785,0.989578,0.006676,0.010417,-0.098014,62.171524,16.693329,-148.910904,,,
729605335.698633,0.842652,-2.038047,30.783759,0.047562,0.016785,0.989578,0.006676,0.010417,-0.098014,62.260818,16.778976,-149.062561,,,
729605335.70193,0.848035,-2.036454,30.756869,0.042297,0.01001,0.990585,0.006676,0.010417,-0.098014,62.260818,16.778976,-149.062561,,,
729605335.705257,0.854609,-2.033858,30.731177,0.042297,0.01001,0.990585,0.026653,0.013291,-0.089073,62.260818,16.778976,-149.062561,,,
729605335.708602,0.854609,-2.033858,30.731177,0.042297,0.01001,0.990585,0.026653,0.013291,-0.089073,62.260818,16.778976,-149.062561,,,
729605335.711938,0.863842,-2.029043,30.707725,0.038086,0.005798,0.990616,0.026653,0.013291,-0.089073,62.260818,16.778976,-149.062561,,,
729605335.715311,0.872764,-2.022256,30.687262,0.038086,0.005798,0.990616,0.032696,0.025465,-0.069033,62.260818,16.778976,-149.062561,,,
729605335.718587,0.872764,-2.022256,30.687262,0.038086,0.005798,0.990616,0.032696,0.025465,-0.069033,62.260818,16.778976,-149.062561,,,
729605335.721944,0.881667,-2.016099,30.669637,0.041336,0.01033,0.985428,0.032696,0.025465,-0.069033,62.260818,16.778976,-149.062561,,,
729605335.725262,0.885275,-2.007664,30.653794,0.041336,0.01033,0.985428,0.007147,0.031858,-0.057274,62.260818,16.778976,-149.062561,,,
729605335.728605,0.885275,-2.007664,30.653794,0.041336,0.01033,0.985428,0.007147,0.031858,-0.057274,62.260818,16.778976,-149.062561,,,
729605335.731973,0.883794,-1.994251,30.638731,0.043228,0.018204,0.96788,0.007147,0.031858,-0.057274,62.260818,16.778976,-149.062561,,,
729605335.735267,0.878215,-1.975335,30.623487,0.043228,0.018204,0.96788,-0.024688,0.069095,-0.053009,62.260818,16.778976,-149.062561,,,
729605335.738595,0.878215,-1.975335,30.623487,0.043228,0.018204,0.96788,-0.024688,0.069095,-0.053009,62.384567,16.572769,-149.370361,,,
729605335.741933,0.870034,-1.953941,30.606653,0.044983,0.028503,0.9729,-0.024688,0.069095,-0.053009,62.384567,16.572769,-149.370361,,,
729605335.745251,0.859161,-1.930063,30.586567,0.044983,0.028503,0.9729,-0.042863,0.082351,-0.074942,62.384567,16.572769,-149.370361,,,
729605335.74864,0.859161,-1.930063,30.586567,0.044983,0.028503,0.9729,-0.042863,0.082351,-0.074942,62.384567,16.572769,-149.370361,,,
729605335.752028,0.845361,-1.903322,30.562912,0.058578,0.03476,0.975754,-0.042863,0.082351,-0.074942,62.384567,16.572769,-149.370361,,,
729605335.75524,0.829236,-1.87257,30.537679,0.058578,0.03476,0.975754,-0.05902,0.112151,-0.088241,62.384567,16.572769,-149.370361,,,
729605335.758608,0.829236,-1.87257,30.537679,0.058578,0.03476,0.975754,-0.05902,0.112151,-0.088241,62.384567,16.572769,-149.370361,,,
729605335.761926,0.811116,-1.839077,30.51176,0.046799,0.02681,0.977783,-0.05902,0.112151,-0.088241,62.384567,16.572769,-149.370361,,,
729605335.765294,0.791719,-1.80423,30.486033,0.046799,0.02681,0.977783,-0.072223,0.128627,-0.088091,62.384567,16.572769,-149.370361,,,
729605335.768618,0.791719,-1.80423,30.486033,0.046799,0.02681,0.977783,-0.072223,0.128627,-0.088091,62.384567,16.572769,-149.370361,,,
729605335.771921,0.770725,-1.767221,30.461349,0.032211,0.016922,0.98288,-0.072223,0.128627,-0.088091,62.384567,16.572769,-149.370361,,,
729605335.775254,0.749197,-1.730466,30.437539,0.032211,0.016922,0.98288,-0.077944,0.13486,-0.080923,62.384567,16.572769,-149.370361,,,
729605335.778594,0.749197,-1.730466,30.437539,0.032211,0.016922,0.98288,-0.077944,0.13486,-0.080923,62.384567,16.572769,-149.370361,,,
729605335.781963,0.727568,-1.693924,30.41541,0.026703,0.015121,0.983917,-0.077944,0.13486,-0.080923,62.546249,16.988586,-149.223114,,,
729605335.785265,0.706237,-1.661227,30.394745,0.026703,0.015121,0.983917,-0.073331,0.111814,-0.068779,62.546249,16.988586,-149.223114,,,
729605335.788594,0.706237,-1.661227,30.394745,0.026703,0.015121,0.983917,-0.073331,0.111814,-0.068779,62.546249,16.988586,-149.223114,,,
729605335.791958,0.687226,-1.632312,30.375134,0.016647,0.009293,0.986786,-0.073331,0.111814,-0.068779,62.546249,16.988586,-149.223114,,,
729605335.795257,0.671586,-1.609551,30.35674,0.016647,0.009293,0.986786,-0.050078,0.078337,-0.064294,62.546249,16.988586,-149.223114,,,
729605335.798648,0.671586,-1.609551,30.35674,0.016647,0.009293,0.986786,-0.050078,0.078337,-0.064294,62.546249,16.988586,-149.223114,,,
729605335.801959,0.660024,-1.592477,30.338764,0.00946,0.002792,0.994064,-0.050078,0.078337,-0.064294,62.546249,16.988586,-149.223114,,,
729605335.805254,0.651106,-1.582008,30.321286,0.00946,0.002792,0.994064,-0.029464,0.036459,-0.061692,62.546249,16.988586,-149.223114,,,
729605335.808609,0.651106,-1.582008,30.321286,0.00946,0.002792,0.994064,-0.029464,0.036459,-0.061692,62.546249,16.988586,-149.223114,,,
729605335.811868,0.642598,-1.575976,30.304041,0.004715,0.00061,0.992752,-0.029464,0.036459,-0.061692,62.546249,16.988586,-149.223114,,,
729605335.815311,0.63426,-1.575837,30.286528,0.004715,0.00061,0.992752,-0.029896,0.001509,-0.060295,62.546249,16.988586,-149.223114,,,
729605335.818656,0.63426,-1.575837,30.286528,0.004715,0.00061,0.992752,-0.029896,0.001509,-0.060295,62.546249,16.988586,-149.223114,,,
729605335.821915,0.623673,-1.577397,30.268865,-0.001022,0.008224,0.986282,-0.029896,0.001509,-0.060295,62.831161,16.814438,-149.121536,,,
729605335.825259,0.612758,-1.582579,30.252038,-0.001022,0.008224,0.986282,-0.048189,-0.010375,-0.057875,62.831161,16.814438,-149.121536,,,
729605335.828609,0.612758,-1.582579,30.252038,-0.001022,0.008224,0.986282,-0.048189,-0.010375,-0.057875,62.831161,16.814438,-149.121536,,,
729605335.832026,0.598608,-1.587314,30.23665,0.000198,0.00914,0.990814,-0.048189,-0.010375,-0.057875,62.831161,16.814438,-149.121536,,,
729605335.835246,0.585407,-1.595601,30.222903,0.000198,0.00914,0.990814,-0.055409,-0.018647,-0.046071,62.831161,16.814438,-149.121536,,,
729605335.838592,0.585407,-1.595601,30.222903,0.000198,0.00914,0.990814,-0.055409,-0.018647,-0.046071,62.831161,16.814438,-149.121536,,,
729605335.841938,0.569781,-1.601839,30.210996,0.006546,0.003677,0.997818,-0.055409,-0.018647,-0.046071,62.831161,16.814438,-149.121536,,,
729605335.84531,0.55552,-1.608303,30.200751,0.006546,0.003677,0.997818,-0.053694,-0.017543,-0.035667,62.831161,16.814438,-149.121536,,,
729605335.848703,0.55552,-1.608303,30.200751,0.006546,0.003677,0.997818,-0.053694,-0.017543,-0.035667,62.831161,16.814438,-149.121536,,,
729605335.851938,0.541073,-1.610932,30.192156,0.010513,-0.000122,1.004974,-0.053694,-0.017543,-0.035667,62.831161,16.814438,-149.121536,,,
729605335.855262,0.529269,-1.610392,30.184506,0.010513,-0.000122,1.004974,-0.040631,0.00808,-0.025612,62.831161,16.814438,-149.121536,,,
729605335.8587,0.529269,-1.610392,30.184506,0.010513,-0.000122,1.004974,-0.040631,0.00808,-0.025612,62.831161,16.814438,-149.121536,,,
729605335.861922,0.519235,-1.60686,30.176762,0.012573,0.001465,1.018692,-0.040631,0.00808,-0.025612,62.88147,17.027573,-149.283798,,,
729605335.865313,0.511833,-1.600812,30.169436,0.012573,0.001465,1.018692,-0.026549,0.023785,-0.026285,62.88147,17.027573,-149.283798,,,
729605335.868592,0.511833,-1.600812,30.169436,0.012573,0.001465,1.018692,-0.026549,0.023785,-0.026285,62.88147,17.027573,-149.283798,,,
729605335.871934,0.505364,-1.594039,30.162986,0.014923,0.005417,1.017517,-0.026549,0.023785,-0.026285,62.88147,17.027573,-149.283798,,,
729605335.875263,0.499237,-1.584462,30.157259,0.014923,0.005417,1.017517,-0.019071,0.030584,-0.020061,62.88147,17.027573,-149.283798,,,
729605335.8786,0.499237,-1.584462,30.157259,0.014923,0.005417,1.017517,-0.019071,0.030584,-0.020061,62.88147,17.027573,-149.283798,,,
729605335.881981,0.493156,-1.576056,30.152078,0.01001,0.00354,1.008972,-0.019071,0.030584,-0.020061,62.88147,17.027573,-149.283798,,,
729605335.885254,0.485959,-1.565626,30.147307,0.01001,0.00354,1.008972,-0.020859,0.02953,-0.016831,62.88147,17.027573,-149.283798,,,
729605335.888596,0.485959,-1.565626,30.147307,0.01001,0.00354,1.008972,-0.020859,0.02953,-0.016831,62.88147,17.027573,-149.283798,,,
729605335.891939,0.481476,-1.558916,30.143273,0.012299,0.005524,1.007721,-0.020859,0.02953,-0.016831,62.88147,17.027573,-149.283798,,,
729605335.895258,0.478587,-1.5511,30.13967,0.012299,0.005524,1.007721,-0.006461,0.020179,-0.015788,62.88147,17.027573,-149.283798,,,
729605335.898635,0.478587,-1.5511,30.13967,0.012299,0.005524,1.007721,-0.006461,0.020179,-0.015788,62.88147,17.027573,-149.283798,,,
729605335.901978,0.478039,-1.548788,30.136585,0.011993,0.002945,1.00914,-0.006461,0.020179,-0.015788,62.889328,17.052505,-149.462967,,,
729605335.90528,0.479367,-1.544205,30.134668,0.011993,0.002945,1.00914,0.005617,0.007516,-0.006707,62.889328,17.052505,-149.462967,,,
729605335.908622,0.479367,-1.544205,30.134668,0.011993,0.002945,1.00914,0.005617,0.007516,-0.006707,62.889328,17.052505,-149.462967,,,
729605335.912029,0.480234,-1.54369,30.133828,0.008209,0.000763,1.002655,0.005617,0.007516,-0.006707,62.889328,17.052505,-149.462967,,,
729605335.915311,0.478907,-1.539688,30.133721,0.008209,0.000763,1.002655,-0.003413,0.006348,0.000549,62.889328,17.052505,-149.462967,,,
729605335.918593,0.478907,-1.539688,30.133721,0.008209,0.000763,1.002655,-0.003413,0.006348,0.000549,62.889328,17.052505,-149.462967,,,
729605335.921931,0.475138,-1.537969,30.13414,0.005554,0.008789,0.994843,-0.003413,0.006348,0.000549,62.889328,17.052505,-149.462967,,,
729605335.925263,0.468343,-1.533504,30.134642,0.005554,0.008789,0.994843,-0.023167,0.011335,0.00166,62.889328,17.052505,-149.462967,,,
729605335.928591,0.468343,-1.533504,30.134642,0.005554,0.008789,0.994843,-0.023167,0.011335,0.00166,62.889328,17.052505,-149.462967,,,
729605335.931971,0.462537,-1.531244,30.135073,0.014557,0.013504,0.993179,-0.023167,0.011335,0.00166,62.889328,17.052505,-149.462967,,,
729605335.935261,0.458574,-1.52846,30.135383,0.014557,0.013504,0.993179,-0.004994,0.004706,-0.000679,62.889328,17.052505,-149.462967,,,
729605335.938588,0.458574,-1.52846,30.135383,0.014557,0.013504,0.993179,-0.004994,0.004706,-0.000679,62.889328,17.052505,-149.462967,,,
729605335.941934,0.459859,-1.530508,30.136013,0.019119,0.007126,1.008667,-0.004994,0.004706,-0.000679,62.889328,17.052505,-149.462967,,,
729605335.94527,0.464144,-1.532749,30.137244,0.019119,0.007126,1.008667,0.022937,-0.010274,0.003927,62.77063,17.016571,-149.213135,,,
729605335.948645,0.464144,-1.532749,30.137244,0.019119,0.007126,1.008667,0.022937,-0.010274,0.003927,62.77063,17.016571,-149.213135,,,
729605335.951968,0.47125,-1.536672,30.140273,0.010574,-0.000671,1.012161,0.022937,-0.010274,0.003927,62.77063,17.016571,-149.213135,,,
729605335.955258,0.478252,-1.539088,30.146004,0.010574,-0.000671,1.012161,0.027333,-0.011608,0.018875,62.77063,17.016571,-149.213135,,,
729605335.958633,0.478252,-1.539088,30.146004,0.010574,-0.000671,1.012161,0.027333,-0.011608,0.018875,62.77063,17.016571,-149.213135,,,
729605335.962047,0.484318,-1.544291,30.153305,0.00853,0.001053,1.003265,0.027333,-0.011608,0.018875,62.77063,17.016571,-149.213135,,,
729605335.965398,0.486442,-1.548304,30.161172,0.00853,0.001053,1.003265,0.007603,-0.021535,0.027898,62.77063,17.016571,-149.213135,,,
729605335.968622,0.486442,-1.548304,30.161172,0.00853,0.001053,1.003265,0.007603,-0.021535,0.027898,62.77063,17.016571,-149.213135,,,
729605335.971937,0.484317,-1.554844,30.16976,0.022064,0.01355,0.985916,0.007603,-0.021535,0.027898,62.77063,17.016571,-149.213135,,,
729605335.975267,0.476635,-1.558637,30.1792,0.022064,0.01355,0.985916,-0.027393,-0.016087,0.030484,62.77063,17.016571,-149.213135,,,
729605335.978696,0.476635,-1.558637,30.1792,0.022064,0.01355,0.985916,-0.027393,-0.016087,0.030484,62.77063,17.016571,-149.213135,,,
729605335.981995,0.466405,-1.562101,30.189323,0.022964,0.013382,0.982941,-0.027393,-0.016087,0.030484,62.77063,17.016571,-149.213135,,,
729605335.985258,0.455151,-1.560208,30.199483,0.022964,0.013382,0.982941,-0.036126,0.006816,0.03468,62.705124,17.074661,-149.562592,,,
729605335.988586,0.455151,-1.560208,30.199483,0.022964,0.013382,0.982941,-0.036126,0.006816,0.03468,62.705124,17.074661,-149.562592,,,
729605335.992008,0.447676,-1.558143,30.208772,0.030334,0.007797,1.002869,-0.036126,0.006816,0.03468,62.705124,17.074661,-149.562592,,,
729605335.995253,0.446187,-1.554174,30.215769,0.030334,0.007797,1.002869,0.004155,0.004869,0.021903,62.705124,17.074661,-149.562592,,,
729605335.998651,0.446187,-1.554174,30.215769,0.030334,0.007797,1.002869,0.004155,0.004869,0.021903,62.705124,17.074661,-149.562592,,,
729605336.001943,0.451975,-1.554939,30.220518,0.05098,0.005417,1.014664,0.004155,0.004869,0.021903,62.705124,17.074661,-149.562592,,,
729605336.005348,0.461995,-1.554751,30.224495,0.05098,0.005417,1.014664,0.034684,-0.010625,0.010959,62.705124,17.074661,-149.562592,,,
729605336.008601,0.461995,-1.554751,30.224495,0.05098,0.005417,1.014664,0.034684,-0.010625,0.010959,62.705124,17.074661,-149.562592,,,
729605336.011946,0.472448,-1.557805,30.228701,0.037903,0.005447,1.005905,0.034684,-0.010625,0.010959,62.705124,17.074661,-149.562592,,,
729605336.01531,0.482065,-1.559593,30.233105,0.037903,0.005447,1.005905,0.030365,-0.007862,0.011706,62.705124,17.074661,-149.562592,,,
729605336.01868,0.482065,-1.559593,30.233105,0.037903,0.005447,1.005905,0.030365,-0.007862,0.011706,62.705124,17.074661,-149.562592,,,
729605336.021913,0.486974,-1.561417,30.237252,0.025177,0.012878,0.987213,0.030365,-0.007862,0.011706,62.705124,17.074661,-149.562592,,,
729605336.025256,0.485546,-1.56034,30.241412,0.025177,0.012878,0.987213,-0.004905,0.005566,0.011861,62.707382,17.174545,-149.09848,,,
729605336.028595,0.485546,-1.56034,30.241412,0.025177,0.012878,0.987213,-0.004905,0.005566,0.011861,62.707382,17.174545,-149.09848,,,
729605336.032052,0.479996,-1.558238,30.246536,0.024734,0.016174,0.981628,-0.004905,0.005566,0.011861,62.707382,17.174545,-149.09848,,,
729605336.03525,0.470175,-1.551332,30.252567,0.024734,0.016174,0.981628,-0.033526,0.019012,0.022245,62.707382,17.174545,-149.09848,,,
729605336.038591,0.470175,-1.551332,30.252567,0.024734,0.016174,0.981628,-0.033526,0.019012,0.022245,62.707382,17.174545,-149.09848,,,
729605336.041928,0.461347,-1.545731,30.258732,0.02916,0.009491,0.981628,-0.033526,0.019012,0.022245,62.707382,17.174545,-149.09848,,,
729605336.045137,0.45612,-1.538844,30.263791,0.02916,0.009491,0.981628,-0.01046,0.020861,0.015231,62.707382,17.174545,-149.09848,,,
729605336.048662,0.45612,-1.538844,30.263791,0.02916,0.009491,0.981628,-0.01046,0.020861,0.015231,62.707382,17.174545,-149.09848,,,
729605336.051934,0.457846,-1.536492,30.266669,0.044937,0.003265,1.004196,-0.01046,0.020861,0.015231,62.707382,17.174545,-149.09848,,,
729605336.055262,0.467731,-1.538637,30.266921,0.044937,0.003265,1.004196,0.039829,-0.012876,-0.000681,62.707382,17.174545,-149.09848,,,
729605336.058648,0.467731,-1.538637,30.266921,0.044937,0.003265,1.004196,0.039829,-0.012876,-0.000681,62.707382,17.174545,-149.09848,,,
729605336.061935,0.481503,-1.545438,30.265044,0.043716,0.00322,1.01329,0.039829,-0.012876,-0.000681,62.707382,17.174545,-149.09848,,,
729605336.065316,0.497787,-1.555605,30.262702,0.043716,0.00322,1.01329,0.057716,-0.040959,-0.010893,62.70607,16.914001,-149.28183,,,
729605336.068608,0.497787,-1.555605,30.262702,0.043716,0.00322,1.01329,0.057716,-0.040959,-0.010893,62.70607,16.914001,-149.28183,,,
729605336.071926,0.513373,-1.56916,30.260538,0.020752,0.001419,1.00238,0.057716,-0.040959,-0.010893,62.70607,16.914001,-149.28183,,,
729605336.07526,0.526466,-1.5858,30.258235,0.020752,0.001419,1.00238,0.046538,-0.049894,-0.00989,62.70607,16.914001,-149.28183,,,
729605336.078598,0.526466,-1.5858,30.258235,0.020752,0.001419,1.00238,0.046538,-0.049894,-0.00989,62.70607,16.914001,-149.28183,,,
729605336.081982,0.537808,-1.602139,30.255412,0.019775,0.00444,0.991028,0.046538,-0.049894,-0.00989,62.70607,16.914001,-149.28183,,,
729605336.085255,0.54607,-1.622563,30.25251,0.019775,0.00444,0.991028,0.027539,-0.060185,-0.010803,62.70607,16.914001,-149.28183,,,
729605336.088589,0.54607,-1.622563,30.25251,0.019775,0.00444,0.991028,0.027539,-0.060185,-0.010803,62.70607,16.914001,-149.28183,,,
729605336.091929,0.552396,-1.641335,30.250408,0.031281,0.006668,0.986954,0.027539,-0.060185,-0.010803,62.70607,16.914001,-149.28183,,,
729605336.09526,0.555572,-1.660727,30.248847,0.031281,0.006668,0.986954,0.007404,-0.064045,-0.00835,62.70607,16.914001,-149.28183,,,
729605336.098673,0.555572,-1.660727,30.248847,0.031281,0.006668,0.986954,0.007404,-0.064045,-0.00835,62.70607,16.914001,-149.28183,,,
729605336.101951,0.556642,-1.679882,30.24737,0.037933,0.009232,0.987473,0.007404,-0.064045,-0.00835,62.70607,16.914001,-149.28183,,,
729605336.105256,0.55683,-1.696955,30.245193,0.037933,0.009232,0.987473,-0.006987,-0.057661,-0.009338,62.70607,16.914001,-149.28183,,,
729605336.10861,0.55683,-1.696955,30.245193,0.037933,0.009232,0.987473,-0.006987,-0.057661,-0.009338,62.514297,17.008713,-149.151642,,,
729605336.112013,0.554105,-1.711828,30.241796,0.042099,0.013443,0.995193,-0.006987,-0.057661,-0.009338,62.514297,17.008713,-149.151642,,,
729605336.115371,0.550263,-1.723127,30.23696,0.042099,0.013443,0.995193,-0.017882,-0.034792,-0.01811,62.514297,17.008713,-149.151642,,,
729605336.1186,0.550263,-1.723127,30.23696,0.042099,0.013443,0.995193,-0.017882,-0.034792,-0.01811,62.514297,17.008713,-149.151642,,,
729605336.121923,0.544456,-1.731503,30.231027,0.047668,0.015503,0.999039,-0.017882,-0.034792,-0.01811,62.514297,17.008713,-149.151642,,,
729605336.125252,0.537721,-1.737212,30.224191,0.047668,0.015503,0.999039,-0.021809,-0.009094,-0.027833,62.514297,17.008713,-149.151642,,,
729605336.1286,0.537721,-1.737212,30.224191,0.047668,0.015503,0.999039,-0.021809,-0.009094,-0.027833,62.514297,17.008713,-149.151642,,,
729605336.132016,0.531771,-1.73904,30.21661,0.053665,0.013474,1.002274,-0.021809,-0.009094,-0.027833,62.514297,17.008713,-149.151642,,,
729605336.135249,0.531771,-1.73904,30.21661,0.053665,0.013474,1.002274,-0.014765,0.008323,-0.032311,62.514297,17.008713,-149.151642,,,
729605336.138599,0.526357,-1.740343,30.20858,0.053665,0.013474,1.002274,-0.014765,0.008323,-0.032311,62.514297,17.008713,-149.151642,,,
729605336.141927,0.523297,-1.738029,30.200298,0.055267,0.009872,1.005524,-0.014765,0.008323,-0.032311,62.514297,17.008713,-149.151642,,,
729605336.145261,0.523297,-1.736426,30.192795,0.055267,0.009872,1.005524,-0.006944,0.010569,-0.028168,62.514297,17.008713,-149.151642,,,
729605336.148653,0.52041,-1.736426,30.192795,0.055267,0.009872,1.005524,-0.006944,0.010569,-0.028168,62.371872,17.159637,-148.797821,,,
729605336.151971,0.519524,-1.735008,30.185748,0.046753,0.007355,0.997253,-0.006944,0.010569,-0.028168,62.371872,17.159637,-148.797821,,,
729605336.155262,0.519524,-1.735008,30.185748,0.046753,0.007355,0.997253,0.006491,0.000814,-0.027979,62.371872,17.159637,-148.797821,,,
729605336.158619,0.519316,-1.733175,30.178257,0.046753,0.007355,0.997253,0.006491,0.000814,-0.027979,62.371872,17.159637,-148.797821,,,
729605336.16195,0.521247,-1.735004,30.170107,0.044235,0.008896,0.994537,0.006491,0.000814,-0.027979,62.371872,17.159637,-148.797821,,,
729605336.165322,0.522803,-1.738484,30.161453,0.044235,0.008896,0.994537,0.005322,-0.012418,-0.033987,62.371872,17.159637,-148.797821,,,
729605336.168598,0.522803,-1.738484,30.161453,0.044235,0.008896,0.994537,0.005322,-0.012418,-0.033987,62.371872,17.159637,-148.797821,,,
729605336.171923,0.523854,-1.746038,30.152341,0.043289,0.008575,0.987335,0.005322,-0.012418,-0.033987,62.371872,17.159637,-148.797821,,,
729605336.175249,0.523854,-1.746038,30.152341,0.043289,0.008575,0.987335,-0.000912,-0.038686,-0.03733,62.371872,17.159637,-148.797821,,,
729605336.178679,0.523248,-1.7575,30.142538,0.043289,0.008575,0.987335,-0.000912,-0.038686,-0.03733,62.371872,17.159637,-148.797821,,,
729605336.181966,0.521649,-1.77044,30.131767,0.039993,0.008118,0.983231,-0.000912,-0.038686,-0.03733,62.371872,17.159637,-148.797821,,,
729605336.185244,0.521649,-1.77044,30.131767,0.039993,0.008118,0.983231,-0.013729,-0.04211,-0.04047,62.371872,17.159637,-148.797821,,,
729605336.188597,0.518477,-1.784598,30.120285,0.039993,0.008118,0.983231,-0.013729,-0.04211,-0.04047,62.320465,17.078552,-148.934677,,,
729605336.191927,0.513505,-1.796124,30.108477,0.040924,0.009827,0.990479,-0.013729,-0.04211,-0.04047,62.320465,17.078552,-148.934677,,,
729605336.195261,0.513505,-1.796124,30.108477,0.040924,0.009827,0.990479,-0.018848,-0.025084,-0.04417,62.320465,17.078552,-148.934677,,,
729605336.198628,0.509548,-1.806723,30.096382,0.040924,0.009827,0.990479,-0.018848,-0.025084,-0.04417,62.320465,17.078552,-148.934677,,,
729605336.201922,0.505718,-1.814506,30.083715,0.04541,0.010223,1.004532,-0.018848,-0.025084,-0.04417,62.320465,17.078552,-148.934677,,,
729605336.20528,0.505718,-1.814506,30.083715,0.04541,0.010223,1.004532,-0.010639,-0.023903,-0.048269,62.320465,17.078552,-148.934677,,,
729605336.208608,0.502945,-1.824106,30.070559,0.04541,0.010223,1.004532,-0.010639,-0.023903,-0.048269,62.320465,17.078552,-148.934677,,,
729605336.211932,0.499957,-1.829475,30.057162,0.042496,0.005508,1.004227,-0.010639,-0.023903,-0.048269,62.320465,17.078552,-148.934677,,,
729605336.21522,0.499957,-1.829475,30.057162,0.042496,0.005508,1.004227,-0.00248,-0.001052,-0.047282,62.320465,17.078552,-148.934677,,,
729605336.21867,0.499288,-1.834415,30.044101,0.042496,0.005508,1.004227,-0.00248,-0.001052,-0.047282,62.320465,17.078552,-148.934677,,,
729605336.221918,0.500856,-1.832942,30.031519,0.036301,0.002106,1.014313,-0.00248,-0.001052,-0.047282,62.320465,17.078552,-148.934677,,,
729605336.225253,0.500856,-1.832942,30.031519,0.036301,0.002106,1.014313,0.020216,0.015035,-0.041355,62.320465,17.078552,-148.934677,,,
729605336.228606,0.505793,-1.832537,30.020031,0.036301,0.002106,1.014313,0.020216,0.015035,-0.041355,62.320465,17.078552,-148.934677,,,
729605336.231962,0.513731,-1.830618,30.010432,0.035156,-0.000916,1.016434,0.020216,0.015035,-0.041355,62.423065,16.885101,-149.139511,,,
729605336.235251,0.513731,-1.830618,30.010432,0.035156,-0.000916,1.016434,0.020216,0.015035,-0.041355,62.423065,16.885101,-149.139511,,,
729605336.238587,0.523413,-1.831605,30.002617,0.035156,-0.000916,1.016434,0.037534,0.002867,-0.029016,62.423065,16.885101,-149.139511,,,
729605336.241917,0.534061,-1.830712,29.996933,0.02475,-0.001923,1.004898,0.037534,0.002867,-0.029016,62.423065,16.885101,-149.139511,,,
729605336.245259,0.534061,-1.830712,29.996933,0.02475,-0.001923,1.004898,0.037534,0.002867,-0.029016,62.423065,16.885101,-149.139511,,,
729605336.248648,0.542904,-1.830224,29.992461,0.02475,-0.001923,1.004898,0.028697,0.012399,-0.015735,62.423065,16.885101,-149.139511,,,
729605336.251912,0.549422,-1.826979,29.988134,0.022583,0.003021,1.000122,0.028697,0.012399,-0.015735,62.423065,16.885101,-149.139511,,,
729605336.255255,0.549422,-1.826979,29.988134,0.022583,0.003021,1.000122,0.028697,0.012399,-0.015735,62.423065,16.885101,-149.139511,,,
729605336.258664,0.553368,-1.824726,29.983459,0.022583,0.003021,1.000122,0.010565,0.016306,-0.019588,62.423065,16.885101,-149.139511,,,
729605336.261909,0.553709,-1.82218,29.977835,0.023895,0.011276,0.990463,0.010565,0.016306,-0.019588,62.423065,16.885101,-149.139511,,,
729605336.265362,0.553709,-1.82218,29.977835,0.023895,0.011276,0.990463,0.010565,0.016306,-0.019588,62.423065,16.885101,-149.139511,,,
729605336.268617,0.549925,-1.821525,29.971551,0.023895,0.011276,0.990463,-0.013867,0.009789,-0.023416,62.423065,16.885101,-149.139511,,,
729605336.271924,0.542412,-1.819578,29.964198,0.020966,0.015869,0.984528,-0.013867,0.009789,-0.023416,62.378372,17.024719,-149.175583,,,
729605336.275311,0.542412,-1.819578,29.964198,0.020966,0.015869,0.984528,-0.013867,0.009789,-0.023416,62.378372,17.024719,-149.175583,,,
729605336.278607,0.531476,-1.818745,29.957032,0.020966,0.015869,0.984528,-0.040111,0.009527,-0.026269,62.378372,17.024719,-149.175583,,,
729605336.281973,0.517385,-1.816508,29.950501,0.017761,0.015213,0.985275,-0.040111,0.009527,-0.026269,62.378372,17.024719,-149.175583,,,
729605336.28525,0.517385,-1.816508,29.950501,0.017761,0.015213,0.985275,-0.040111,0.009527,-0.026269,62.378372,17.024719,-149.175583,,,
729605336.288591,0.500825,-1.815616,29.943949,0.017761,0.015213,0.985275,-0.061228,0.013471,-0.022663,62.378372,17.024719,-149.175583,,,
729605336.29193,0.48361,-1.81298,29.937729,0.021683,0.012619,0.993301,-0.061228,0.013471,-0.022663,62.378372,17.024719,-149.175583,,,
729605336.295352,0.48361,-1.81298,29.937729,0.021683,0.012619,0.993301,-0.061228,0.013471,-0.022663,62.378372,17.024719,-149.175583,,,
729605336.298623,0.466072,-1.812216,29.931795,0.021683,0.012619,0.993301,-0.058486,0.010154,-0.020408,62.378372,17.024719,-149.175583,,,
729605336.301936,0.450555,-1.811751,29.925596,0.027283,0.011627,0.998077,-0.058486,0.010154,-0.020408,62.378372,17.024719,-149.175583,,,
729605336.305283,0.450555,-1.811751,29.925596,0.027283,0.011627,0.998077,-0.058486,0.010154,-0.020408,62.378372,17.024719,-149.175583,,,
729605336.30867,0.437319,-1.812885,29.918689,0.027283,0.011627,0.998077,-0.041742,-0.000301,-0.023313,62.378372,17.024719,-149.175583,,,
729605336.311912,0.428833,-1.814263,29.911447,0.029648,0.012039,1.004471,-0.041742,-0.000301,-0.023313,62.495468,17.122131,-149.281067,,,
729605336.315303,0.428833,-1.814263,29.911447,0.029648,0.012039,1.004471,-0.041742,-0.000301,-0.023313,62.495468,17.122131,-149.281067,,,
729605336.318601,0.423473,-1.816883,29.904125,0.029648,0.012039,1.004471,-0.01218,-0.00803,-0.026144,62.495468,17.122131,-149.281067,,,
729605336.321925,0.423947,-1.82168,29.897172,0.028595,0.010208,1.009872,-0.01218,-0.00803,-0.026144,62.495468,17.122131,-149.281067,,,
729605336.325296,0.423947,-1.82168,29.897172,0.028595,0.010208,1.009872,-0.01218,-0.00803,-0.026144,62.495468,17.122131,-149.281067,,,
729605336.328606,0.42802,-1.826189,29.891542,0.028595,0.010208,1.009872,0.021336,-0.015736,-0.019385,62.495468,17.122131,-149.281067,,,
729605336.331963,0.436638,-1.830894,29.887656,0.024673,0.004227,1.011246,0.021336,-0.015736,-0.019385,62.495468,17.122131,-149.281067,,,
729605336.335275,0.436638,-1.830894,29.887656,0.024673,0.004227,1.011246,0.021336,-0.015736,-0.019385,62.495468,17.122131,-149.281067,,,
729605336.338585,0.447207,-1.834182,29.885184,0.024673,0.004227,1.011246,0.037246,-0.012963,-0.011541,62.495468,17.122131,-149.281067,,,
729605336.341926,0.458523,-1.840495,29.883062,0.028122,0.005981,1.009171,0.037246,-0.012963,-0.011541,62.495468,17.122131,-149.281067,,,
729605336.345368,0.458523,-1.840495,29.883062,0.028122,0.005981,1.009171,0.037246,-0.012963,-0.011541,62.495468,17.122131,-149.281067,,,
729605336.348635,0.469945,-1.848209,29.880565,0.028122,0.005981,1.009171,0.03572,-0.031246,-0.011502,62.495468,17.122131,-149.281067,,,
729605336.351914,0.478572,-1.858187,29.877242,0.029083,0.013367,0.993942,0.03572,-0.031246,-0.011502,62.542038,17.055786,-149.441025,,,
729605336.355298,0.478572,-1.858187,29.877242,0.029083,0.013367,0.993942,0.03572,-0.031246,-0.011502,62.542038,17.055786,-149.441025,,,
729605336.358648,0.484973,-1.866147,29.872441,0.029083,0.013367,0.993942,0.0147,-0.030568,-0.020296,62.542038,17.055786,-149.441025,,,
729605336.361916,0.485589,-1.874618,29.865814,0.032013,0.019226,0.98732,0.0147,-0.030568,-0.020296,62.542038,17.055786,-149.441025,,,
729605336.365313,0.485589,-1.874618,29.865814,0.032013,0.019226,0.98732,0.0147,-0.030568,-0.020296,62.542038,17.055786,-149.441025,,,
729605336.368604,0.481523,-1.88018,29.857401,0.032013,0.019226,0.98732,-0.022114,-0.019743,-0.030149,62.542038,17.055786,-149.441025,,,
729605336.371918,0.471685,-1.886028,29.847981,0.032455,0.021988,0.980774,-0.022114,-0.019743,-0.030149,62.542038,17.055786,-149.441025,,,
729605336.375268,0.471685,-1.886028,29.847981,0.032455,0.021988,0.980774,-0.022114,-0.019743,-0.030149,62.542038,17.055786,-149.441025,,,
729605336.378607,0.457622,-1.888481,29.838186,0.032455,0.021988,0.980774,-0.057815,-0.00531,-0.0349,62.542038,17.055786,-149.441025,,,
729605336.381974,0.438789,-1.889471,29.828635,0.030289,0.018494,0.983521,-0.057815,-0.00531,-0.0349,62.542038,17.055786,-149.441025,,,
729605336.385302,0.438789,-1.889471,29.828635,0.030289,0.018494,0.983521,-0.057815,-0.00531,-0.0349,62.542038,17.055786,-149.441025,,,
729605336.388623,0.41641,-1.887572,29.819981,0.030289,0.018494,0.983521,-0.083099,0.011664,-0.028695,62.542038,17.055786,-149.441025,,,
729605336.391942,0.390212,-1.883784,29.812293,0.029877,0.014435,0.982895,-0.083099,0.011664,-0.028695,62.542038,17.055786,-149.441025,,,
729605336.395272,0.390212,-1.883784,29.812293,0.029877,0.014435,0.982895,-0.083099,0.011664,-0.028695,62.523727,17.24205,-149.477509,,,
729605336.398677,0.363159,-1.877709,29.804748,0.029877,0.014435,0.982895,-0.098967,0.024889,-0.024167,62.523727,17.24205,-149.477509,,,
729605336.401917,0.336018,-1.871387,29.796965,0.033569,0.011169,0.986969,-0.098967,0.024889,-0.024167,62.523727,17.24205,-149.477509,,,
729605336.405277,0.336018,-1.871387,29.796965,0.033569,0.011169,0.986969,-0.098967,0.024889,-0.024167,62.523727,17.24205,-149.477509,,,
729605336.408615,0.311649,-1.864997,29.788705,0.033569,0.011169,0.986969,-0.084347,0.022795,-0.028812,62.523727,17.24205,-149.477509,,,
729605336.411917,0.291942,-1.861022,29.779922,0.035721,0.007706,0.995422,-0.084347,0.022795,-0.028812,62.523727,17.24205,-149.477509,,,
729605336.415322,0.291942,-1.861022,29.779922,0.035721,0.007706,0.995422,-0.084347,0.022795,-0.028812,62.523727,17.24205,-149.477509,,,
729605336.418595,0.278957,-1.858092,29.771209,0.035721,0.007706,0.995422,-0.037143,0.005042,-0.030726,62.523727,17.24205,-149.477509,,,
729605336.421916,0.272915,-1.858415,29.763477,0.031357,-0.001221,1.008789,-0.037143,0.005042,-0.030726,62.523727,17.24205,-149.477509,,,
729605336.425352,0.272915,-1.858415,29.763477,0.031357,-0.001221,1.008789,-0.037143,0.005042,-0.030726,62.523727,17.24205,-149.477509,,,
729605336.428591,0.272666,-1.85969,29.757646,0.031357,-0.001221,1.008789,0.001988,-0.00412,-0.022289,62.523727,17.24205,-149.477509,,,
729605336.432004,0.274912,-1.86225,29.754015,0.024918,-0.005829,1.007156,0.001988,-0.00412,-0.022289,62.523727,17.24205,-149.477509,,,
729605336.435248,0.274912,-1.86225,29.754015,0.024918,-0.005829,1.007156,0.001988,-0.00412,-0.022289,62.700684,17.113449,-149.295319,,,
729605336.438594,0.279523,-1.866782,29.752294,0.024918,-0.005829,1.007156,0.013185,-0.015444,-0.005998,62.700684,17.113449,-149.295319,,,
729605336.441926,0.281919,-1.874456,29.751849,0.022278,-0.003906,0.994278,0.013185,-0.015444,-0.005998,62.700684,17.113449,-149.295319,,,
729605336.445262,0.281919,-1.874456,29.751849,0.022278,-0.003906,0.994278,0.013185,-0.015444,-0.005998,62.700684,17.113449,-149.295319,,,
729605336.448652,0.284674,-1.884304,29.752172,0.022278,-0.003906,0.994278,0.00237,-0.033866,0.001471,62.700684,17.113449,-149.295319,,,
729605336.451919,0.282434,-1.895366,29.752126,0.027924,0.00473,0.981979,0.00237,-0.033866,0.001471,62.700684,17.113449,-149.295319,,,
729605336.455252,0.282434,-1.895366,29.752126,0.027924,0.00473,0.981979,0.00237,-0.033866,0.001471,62.700684,17.113449,-149.295319,,,
729605336.458608,0.27842,-1.906864,29.750895,0.027924,0.00473,0.981979,-0.025262,-0.034901,-0.005477,62.700684,17.113449,-149.295319,,,
729605336.461916,0.269028,-1.91765,29.748304,0.034378,0.006882,0.984283,-0.025262,-0.034901,-0.005477,62.700684,17.113449,-149.295319,,,
729605336.465361,0.269028,-1.91765,29.748304,0.034378,0.006882,0.984283,-0.025262,-0.034901,-0.005477,62.700684,17.113449,-149.295319,,,
729605336.468589,0.259748,-1.927302,29.743415,0.034378,0.006882,0.984283,-0.03862,-0.030436,-0.020998,62.700684,17.113449,-149.295319,,,
729605336.471945,0.248471,-1.936982,29.735996,0.043716,0.006317,0.988998,-0.03862,-0.030436,-0.020998,62.700684,17.113449,-149.295319,,,
729605336.475255,0.248471,-1.936982,29.735996,0.043716,0.006317,0.988998,-0.03862,-0.030436,-0.020998,62.592972,17.298431,-149.482025,,,
729605336.478694,0.238491,-1.945618,29.727562,0.043716,0.006317,0.988998,-0.038136,-0.028732,-0.032095,62.592972,17.298431,-149.482025,,,
729605336.481983,0.227252,-1.953268,29.71894,0.043777,0.005219,0.996994,-0.038136,-0.028732,-0.032095,62.592972,17.298431,-149.482025,,,
729605336.485273,0.227252,-1.953268,29.71894,0.043777,0.005219,0.996994,-0.038136,-0.028732,-0.032095,62.592972,17.298431,-149.482025,,,
729605336.488588,0.217104,-1.958535,29.710909,0.043777,0.005219,0.996994,-0.03742,-0.011172,-0.028909,62.592972,17.298431,-149.482025,,,
729605336.491927,0.206637,-1.960215,29.704145,0.03772,-1.5e-05,1.006104,-0.03742,-0.011172,-0.028909,62.592972,17.298431,-149.482025,,,
729605336.495272,0.206637,-1.960215,29.704145,0.03772,-1.5e-05,1.006104,-0.03742,-0.011172,-0.028909,62.592972,17.298431,-149.482025,,,
729605336.498639,0.196925,-1.959013,29.698659,0.03772,-1.5e-05,1.006104,-0.032836,0.01048,-0.01616,62.592972,17.298431,-149.482025,,,
729605336.501917,0.188282,-1.955905,29.694878,0.03479,-0.004349,1.005737,-0.032836,0.01048,-0.01616,62.592972,17.298431,-149.482025,,,
729605336.505252,0.188282,-1.955905,29.694878,0.03479,-0.004349,1.005737,-0.032836,0.01048,-0.01616,62.592972,17.298431,-149.482025,,,
729605336.508601,0.180511,-1.950828,29.692783,0.03479,-0.004349,1.005737,-0.021584,0.019705,-0.007937,62.592972,17.298431,-149.482025,,,
729605336.51191,0.17554,-1.944686,29.691335,0.036819,-0.005402,1.0047,-0.021584,0.019705,-0.007937,62.592972,17.298431,-149.482025,,,
