Time (sec),Pitch (deg),Roll (deg),Yaw(deg),X-Acceleration (g),Y-Acceleration (g),Z-Acceleration (g),Pitch Rate (deg/sec),Roll Rate (deg/sec),Yaw Rate (deg/sec),Magnetic Field in X direction (uT),Magnetic Field in Y direction (uT),Magnetic Field in Z Direction (uT),Latitude (deg),Longitude (deg),Altitude (m)
729608792.50994,-0.430731,-1.700812,61.693283,0.027573,-0.012863,0.970901,-0.052557,-0.007463,-0.003386,62.109177,23.9599,-147.050827,,,
729608792.513208,-0.449905,-1.707685,61.6922,0.030914,-0.016861,0.978485,-0.059503,-0.02334,-0.003104,62.109177,23.9599,-147.050827,,,
729608792.517072,-0.467432,-1.716916,61.689626,0.030914,-0.016861,0.978485,-0.059503,-0.02334,-0.003104,61.929657,24.03241,-146.993576,,,
729608792.519876,-0.467432,-1.716916,61.689626,0.030914,-0.016861,0.978485,-0.059503,-0.02334,-0.003104,61.929657,24.03241,-146.993576,,,
729608792.52322,-0.486556,-1.727324,61.685366,0.034454,-0.012863,0.987228,-0.060284,-0.030022,-0.014859,61.929657,24.03241,-146.993576,,,
729608792.526599,-0.503538,-1.738059,61.680075,0.034454,-0.012863,0.987228,-0.060284,-0.030022,-0.014859,61.929657,24.03241,-146.993576,,,
729608792.529882,-0.503538,-1.738059,61.680075,0.034454,-0.012863,0.987228,-0.060284,-0.030022,-0.014859,61.929657,24.03241,-146.993576,,,
729608792.533315,-0.5202,-1.750993,61.674167,0.033722,-0.013901,0.997528,-0.0544,-0.037028,-0.019705,61.929657,24.03241,-146.993576,,,
729608792.536552,-0.535648,-1.761132,61.668114,0.033722,-0.013901,0.997528,-0.0544,-0.037028,-0.019705,61.929657,24.03241,-146.993576,,,
729608792.540133,-0.535648,-1.761132,61.668114,0.033722,-0.013901,0.997528,-0.046725,-0.024579,-0.019318,61.929657,24.03241,-146.993576,,,
729608792.54326,-0.549287,-1.770129,61.662733,0.033005,-0.020447,1.00621,-0.046725,-0.024579,-0.019318,61.929657,24.03241,-146.993576,,,
729608792.546541,-0.560979,-1.775103,61.658378,0.033005,-0.020447,1.00621,-0.046725,-0.024579,-0.019318,61.929657,24.03241,-146.993576,,,
729608792.549895,-0.560979,-1.775103,61.658378,0.033005,-0.020447,1.00621,-0.046725,-0.024579,-0.019318,61.929657,24.03241,-146.993576,,,
729608792.553336,-0.56988,-1.778985,61.654457,0.030869,-0.022659,1.013824,-0.030487,-0.00963,-0.012809,61.929657,24.03241,-146.993576,,,
729608792.556547,-0.576851,-1.779113,61.650611,0.030869,-0.022659,1.013824,-0.030487,-0.00963,-0.012809,61.929657,24.03241,-146.993576,,,
729608792.559948,-0.576851,-1.779113,61.650611,0.030869,-0.022659,1.013824,-0.030487,-0.00963,-0.012809,61.896927,24.141296,-146.849411,,,
729608792.563203,-0.581727,-1.77717,61.646083,0.030136,-0.019791,1.022598,-0.016214,0.012319,-0.016555,61.896927,24.141296,-146.849411,,,
729608792.566552,-0.584561,-1.770684,61.641043,0.030136,-0.019791,1.022598,-0.016214,0.012319,-0.016555,61.896927,24.141296,-146.849411,,,
729608792.569896,-0.584561,-1.770684,61.641043,0.030136,-0.019791,1.022598,-0.016214,0.012319,-0.016555,61.896927,24.141296,-146.849411,,,
729608792.573212,-0.585768,-1.763288,61.635829,0.03157,-0.013153,1.023376,-0.008075,0.035213,-0.018939,61.896927,24.141296,-146.849411,,,
729608792.576585,-0.586998,-1.752026,61.630788,0.03157,-0.013153,1.023376,-0.008075,0.035213,-0.018939,61.896927,24.141296,-146.849411,,,
729608792.579981,-0.586998,-1.752026,61.630788,0.03157,-0.013153,1.023376,-0.008075,0.035213,-0.018939,61.896927,24.141296,-146.849411,,,
729608792.583184,-0.587328,-1.739584,61.627126,0.031357,-0.011246,1.018829,-0.000108,0.04604,-0.015204,61.896927,24.141296,-146.849411,,,
729608792.586498,-0.587224,-1.727567,61.624122,0.031357,-0.011246,1.018829,-0.000108,0.04604,-0.015204,61.896927,24.141296,-146.849411,,,
729608792.5899,-0.587224,-1.727567,61.624122,0.031357,-0.011246,1.018829,-0.000108,0.04604,-0.015204,61.896927,24.141296,-146.849411,,,
729608792.593328,-0.588113,-1.716969,61.620548,0.028442,-0.010452,1.010757,0.002577,0.041776,-0.014563,61.896927,24.141296,-146.849411,,,
729608792.596535,-0.587122,-1.708767,61.616317,0.028442,-0.010452,1.010757,0.002577,0.041776,-0.014563,61.896927,24.141296,-146.849411,,,
729608792.59988,-0.587122,-1.708767,61.616317,0.028442,-0.010452,1.010757,0.002577,0.041776,-0.014563,61.984344,24.151794,-147.099045,,,
729608792.603227,-0.586276,-1.705287,61.610453,0.032898,-0.003281,1.003937,0.005659,0.01732,-0.022992,61.984344,24.151794,-147.099045,,,
729608792.606549,-0.583264,-1.704883,61.602804,0.032898,-0.003281,1.003937,0.005659,0.01732,-0.022992,61.984344,24.151794,-147.099045,,,
729608792.609956,-0.583264,-1.704883,61.602804,0.032898,-0.003281,1.003937,0.005659,0.01732,-0.022992,61.984344,24.151794,-147.099045,,,
729608792.613231,-0.580499,-1.710001,61.593579,0.036346,0.004089,1.001984,0.008413,-0.011147,-0.033957,61.984344,24.151794,-147.099045,,,
729608792.616582,-0.577254,-1.717355,61.58308,0.036346,0.004089,1.001984,0.008413,-0.011147,-0.033957,61.984344,24.151794,-147.099045,,,
729608792.619877,-0.577254,-1.717355,61.58308,0.036346,0.004089,1.001984,0.008413,-0.011147,-0.033957,61.984344,24.151794,-147.099045,,,
729608792.623234,-0.576531,-1.728481,61.572624,0.034454,0.003372,0.99855,0.008279,-0.0332,-0.037666,61.984344,24.151794,-147.099045,,,
729608792.626643,-0.574511,-1.740494,61.562367,0.034454,0.003372,0.99855,0.008279,-0.0332,-0.037666,61.984344,24.151794,-147.099045,,,
729608792.630002,-0.574511,-1.740494,61.562367,0.034454,0.003372,0.99855,0.008279,-0.0332,-0.037666,61.984344,24.151794,-147.099045,,,
729608792.633219,-0.576183,-1.753551,61.552532,0.032211,-0.00322,1.001617,0.005258,-0.041534,-0.036967,61.984344,24.151794,-147.099045,,,
729608792.636555,-0.573464,-1.765272,61.543713,0.032211,-0.00322,1.001617,0.005258,-0.041534,-0.036967,61.984344,24.151794,-147.099045,,,
729608792.639917,-0.573464,-1.765272,61.543713,0.032211,-0.00322,1.001617,0.005258,-0.041534,-0.036967,61.902069,24.221146,-146.8302,,,
729608792.643354,-0.573804,-1.775019,61.535481,0.034103,-0.006256,1.013077,0.010621,-0.031471,-0.030656,61.902069,24.221146,-146.8302,,,
729608792.646541,-0.568524,-1.783579,61.527311,0.034103,-0.006256,1.013077,0.010621,-0.031471,-0.030656,61.902069,24.221146,-146.8302,,,
729608792.649901,-0.568524,-1.783579,61.527311,0.034103,-0.006256,1.013077,0.010621,-0.031471,-0.030656,61.902069,24.221146,-146.8302,,,
729608792.65323,-0.562549,-1.789934,61.519675,0.034973,-0.007462,1.017532,0.026962,-0.021629,-0.027351,61.902069,24.221146,-146.8302,,,
729608792.656549,-0.551622,-1.794168,61.513252,0.034973,-0.007462,1.017532,0.026962,-0.021629,-0.027351,61.902069,24.221146,-146.8302,,,
729608792.659937,-0.551622,-1.794168,61.513252,0.034973,-0.007462,1.017532,0.026962,-0.021629,-0.027351,61.902069,24.221146,-146.8302,,,
729608792.663237,-0.537867,-1.795226,61.507422,0.033646,-0.01059,1.023758,0.051006,-0.003906,-0.024781,61.902069,24.221146,-146.8302,,,
729608792.666536,-0.521211,-1.793403,61.501447,0.033646,-0.01059,1.023758,0.051006,-0.003906,-0.024781,61.902069,24.221146,-146.8302,,,
729608792.669948,-0.521211,-1.793403,61.501447,0.033646,-0.01059,1.023758,0.051006,-0.003906,-0.024781,61.902069,24.221146,-146.8302,,,
729608792.673216,-0.503264,-1.787337,61.494996,0.037857,-0.011887,1.022232,0.069403,0.019935,-0.024322,61.902069,24.221146,-146.8302,,,
729608792.676585,-0.484359,-1.779981,61.487784,0.037857,-0.011887,1.022232,0.069403,0.019935,-0.024322,61.902069,24.221146,-146.8302,,,
729608792.679895,-0.484359,-1.779981,61.487784,0.037857,-0.011887,1.022232,0.069403,0.019935,-0.024322,61.902069,24.221146,-146.8302,,,
729608792.683217,-0.465594,-1.771328,61.479807,0.036209,-0.006317,1.009766,0.062808,0.03568,-0.031048,61.900772,24.070877,-146.993515,,,
729608792.68654,-0.448621,-1.762432,61.471553,0.036209,-0.006317,1.009766,0.062808,0.03568,-0.031048,61.900772,24.070877,-146.993515,,,
729608792.689879,-0.448621,-1.762432,61.471553,0.036209,-0.006317,1.009766,0.062808,0.03568,-0.031048,61.900772,24.070877,-146.993515,,,
729608792.693315,-0.431798,-1.75578,61.463613,0.031448,-0.004761,0.994232,0.051306,0.029552,-0.029602,61.900772,24.070877,-146.993515,,,
729608792.696537,-0.419781,-1.750038,61.455668,0.031448,-0.004761,0.994232,0.051306,0.029552,-0.029602,61.900772,24.070877,-146.993515,,,
729608792.699897,-0.419781,-1.750038,61.455668,0.031448,-0.004761,0.994232,0.051306,0.029552,-0.029602,61.900772,24.070877,-146.993515,,,
729608792.703221,-0.406232,-1.749227,61.446785,0.027374,-0.004044,0.981262,0.033145,0.013183,-0.03188,61.900772,24.070877,-146.993515,,,
729608792.706539,-0.398588,-1.750889,61.436842,0.027374,-0.004044,0.981262,0.033145,0.013183,-0.03188,61.900772,24.070877,-146.993515,,,
729608792.710029,-0.398588,-1.750889,61.436842,0.027374,-0.004044,0.981262,0.033145,0.013183,-0.03188,61.900772,24.070877,-146.993515,,,
729608792.713224,-0.390894,-1.757557,61.425964,0.026993,-0.003845,0.973846,0.01829,-0.017067,-0.040448,61.900772,24.070877,-146.993515,,,
729608792.716556,-0.386126,-1.767529,61.413902,0.026993,-0.003845,0.973846,0.01829,-0.017067,-0.040448,61.900772,24.070877,-146.993515,,,
729608792.719923,-0.386126,-1.767529,61.413902,0.026993,-0.003845,0.973846,0.01829,-0.017067,-0.040448,61.900772,24.070877,-146.993515,,,
729608792.723237,-0.381705,-1.781478,61.401206,0.022842,-0.005478,0.976974,0.013714,-0.042091,-0.046059,61.794662,23.983826,-147.075745,,,
729608792.726602,-0.378811,-1.796943,61.388174,0.022842,-0.005478,0.976974,0.013714,-0.042091,-0.046059,61.794662,23.983826,-147.075745,,,
729608792.729891,-0.378811,-1.796943,61.388174,0.022842,-0.005478,0.976974,0.013714,-0.042091,-0.046059,61.794662,23.983826,-147.075745,,,
729608792.733295,-0.377631,-1.814274,61.374989,0.021515,-0.010056,0.97818,0.003987,-0.053546,-0.048807,61.794662,23.983826,-147.075745,,,
729608792.736536,-0.378152,-1.829889,61.362756,0.021515,-0.010056,0.97818,0.003987,-0.053546,-0.048807,61.794662,23.983826,-147.075745,,,
729608792.739912,-0.378152,-1.829889,61.362756,0.021515,-0.010056,0.97818,0.003987,-0.053546,-0.048807,61.794662,23.983826,-147.075745,,,
729608792.743292,-0.380845,-1.844589,61.352267,0.019592,-0.015457,0.981522,-0.005249,-0.045361,-0.040075,61.794662,23.983826,-147.075745,,,
729608792.746543,-0.38367,-1.857428,61.343645,0.019592,-0.015457,0.981522,-0.005249,-0.045361,-0.040075,61.794662,23.983826,-147.075745,,,
729608792.749901,-0.38367,-1.857428,61.343645,0.019592,-0.015457,0.981522,-0.005249,-0.045361,-0.040075,61.794662,23.983826,-147.075745,,,
729608792.753225,-0.388443,-1.869793,61.33742,0.01619,-0.019272,0.990005,-0.012093,-0.035115,-0.024727,61.794662,23.983826,-147.075745,,,
729608792.756548,-0.391017,-1.879453,61.333658,0.01619,-0.019272,0.990005,-0.012093,-0.035115,-0.024727,61.794662,23.983826,-147.075745,,,
729608792.759985,-0.391017,-1.879453,61.333658,0.01619,-0.019272,0.990005,-0.012093,-0.035115,-0.024727,61.794662,23.983826,-147.075745,,,
729608792.763203,-0.393233,-1.888965,61.331697,0.014786,-0.022079,0.994537,-0.005415,-0.025238,-0.009113,61.734924,24.121445,-147.03775,,,
729608792.76654,-0.394083,-1.895913,61.331895,0.014786,-0.022079,0.994537,-0.005415,-0.025238,-0.009113,61.734924,24.121445,-147.03775,,,
729608792.769883,-0.394083,-1.895913,61.331895,0.014786,-0.022079,0.994537,-0.005415,-0.025238,-0.009113,61.734924,24.121445,-147.03775,,,
729608792.773274,-0.394456,-1.902034,61.33411,0.020981,-0.020874,0.992477,0.002001,-0.019858,0.006994,61.734924,24.121445,-147.03775,,,
729608792.776578,-0.395344,-1.906814,61.33765,0.020981,-0.020874,0.992477,0.002001,-0.019858,0.006994,61.734924,24.121445,-147.03775,,,
729608792.779895,-0.395344,-1.906814,61.33765,0.020981,-0.020874,0.992477,0.002001,-0.019858,0.006994,61.734924,24.121445,-147.03775,,,
729608792.783222,-0.39625,-1.909188,61.341629,0.030823,-0.013748,0.988174,-0.006834,-0.008504,0.012858,61.734924,24.121445,-147.03775,,,
729608792.786541,-0.399441,-1.912149,61.344917,0.030823,-0.013748,0.988174,-0.006834,-0.008504,0.012858,61.734924,24.121445,-147.03775,,,
729608792.789888,-0.399441,-1.912149,61.344917,0.030823,-0.013748,0.988174,-0.006834,-0.008504,0.012858,61.734924,24.121445,-147.03775,,,
729608792.793256,-0.403262,-1.913643,61.34673,0.038651,-0.005722,0.983154,-0.016888,-0.006542,0.006253,61.734924,24.121445,-147.03775,,,
729608792.796537,-0.410311,-1.917385,61.347114,0.038651,-0.005722,0.983154,-0.016888,-0.006542,0.006253,61.734924,24.121445,-147.03775,,,
729608792.799988,-0.410311,-1.917385,61.347114,0.038651,-0.005722,0.983154,-0.016888,-0.006542,0.006253,61.734924,24.121445,-147.03775,,,
729608792.803216,-0.419648,-1.918544,61.347094,0.041916,0.001068,0.976486,-0.032302,-0.013736,-4.5e-05,61.887894,23.938965,-146.891785,,,
729608792.806556,-0.432744,-1.923709,61.346887,0.041916,0.001068,0.976486,-0.032302,-0.013736,-4.5e-05,61.887894,23.938965,-146.891785,,,
729608792.809952,-0.432744,-1.923709,61.346887,0.041916,0.001068,0.976486,-0.032302,-0.013736,-4.5e-05,61.887894,23.938965,-146.891785,,,
729608792.813247,-0.44787,-1.927212,61.346272,0.043213,0.003677,0.979477,-0.053888,-0.019211,-0.004761,61.887894,23.938965,-146.891785,,,
729608792.816552,-0.463166,-1.937082,61.344605,0.043213,0.003677,0.979477,-0.053888,-0.019211,-0.004761,61.887894,23.938965,-146.891785,,,
729608792.8199,-0.463166,-1.937082,61.344605,0.043213,0.003677,0.979477,-0.053888,-0.019211,-0.004761,61.887894,23.938965,-146.891785,,,
729608792.82324,-0.479463,-1.946769,61.341631,0.040482,0.001801,0.981827,-0.053116,-0.046261,-0.009135,61.887894,23.938965,-146.891785,,,
729608792.826595,-0.494673,-1.963148,61.33772,0.040482,0.001801,0.981827,-0.053116,-0.046261,-0.009135,61.887894,23.938965,-146.891785,,,
729608792.829896,-0.494673,-1.963148,61.33772,0.040482,0.001801,0.981827,-0.053116,-0.046261,-0.009135,61.887894,23.938965,-146.891785,,,
729608792.833232,-0.512789,-1.975447,61.333001,0.040359,-0.000763,0.988235,-0.058012,-0.055869,-0.01679,61.887894,23.938965,-146.891785,,,
729608792.836548,-0.52969,-1.991856,61.327368,0.040359,-0.000763,0.988235,-0.058012,-0.055869,-0.01679,61.887894,23.938965,-146.891785,,,
729608792.839955,-0.52969,-1.991856,61.327368,0.040359,-0.000763,0.988235,-0.058012,-0.055869,-0.01679,61.887894,23.938965,-146.891785,,,
729608792.843263,-0.55013,-2.002299,61.321047,0.041794,-0.00148,0.995834,-0.063614,-0.050499,-0.021039,61.887894,23.938965,-146.891785,,,
729608792.846545,-0.567835,-2.016124,61.314591,0.041794,-0.00148,0.995834,-0.063614,-0.050499,-0.021039,61.575256,24.098572,-146.52327,,,
729608792.84989,-0.567835,-2.016124,61.314591,0.041794,-0.00148,0.995834,-0.063614,-0.050499,-0.021039,61.575256,24.098572,-146.52327,,,
729608792.853273,-0.587736,-2.024707,61.308015,0.041855,0.00061,1.000015,-0.064027,-0.040223,-0.021193,61.575256,24.098572,-146.52327,,,
729608792.856543,-0.605014,-2.034756,61.301477,0.041855,0.00061,1.000015,-0.064027,-0.040223,-0.021193,61.575256,24.098572,-146.52327,,,
729608792.859934,-0.605014,-2.034756,61.301477,0.041855,0.00061,1.000015,-0.064027,-0.040223,-0.021193,61.575256,24.098572,-146.52327,,,
729608792.863219,-0.62313,-2.040525,61.29557,0.039673,-0.006866,1.00737,-0.056727,-0.023911,-0.022059,61.575256,24.098572,-146.52327,,,
729608792.866542,-0.637742,-2.045761,61.289441,0.039673,-0.006866,1.00737,-0.056727,-0.023911,-0.022059,61.575256,24.098572,-146.52327,,,
729608792.869895,-0.637742,-2.045761,61.289441,0.039673,-0.006866,1.00737,-0.056727,-0.023911,-0.022059,61.575256,24.098572,-146.52327,,,
729608792.873224,-0.649488,-2.049227,61.282865,0.038437,-0.010666,1.014832,-0.043368,-0.005764,-0.023193,61.575256,24.098572,-146.52327,,,
729608792.876582,-0.659546,-2.050288,61.276711,0.038437,-0.010666,1.014832,-0.043368,-0.005764,-0.023193,61.575256,24.098572,-146.52327,,,
729608792.879973,-0.659546,-2.050288,61.276711,0.038437,-0.010666,1.014832,-0.043368,-0.005764,-0.023193,61.575256,24.098572,-146.52327,,,
729608792.883235,-0.663693,-2.0519,61.271287,0.03392,-0.011108,1.018814,-0.025389,0.005996,-0.018602,61.575256,24.098572,-146.52327,,,
729608792.886553,-0.668586,-2.0497,61.266381,0.03392,-0.011108,1.018814,-0.025389,0.005996,-0.018602,61.700592,23.831924,-146.541534,,,
729608792.88991,-0.668586,-2.0497,61.266381,0.03392,-0.011108,1.018814,-0.025389,0.005996,-0.018602,61.700592,23.831924,-146.541534,,,
729608792.893272,-0.666703,-2.048492,61.262054,0.028519,-0.014816,1.01683,-0.010606,0.014948,-0.01456,61.700592,23.831924,-146.541534,,,
729608792.896547,-0.667267,-2.043988,61.258344,0.028519,-0.014816,1.01683,-0.010606,0.014948,-0.01456,61.700592,23.831924,-146.541534,,,
729608792.8999,-0.667267,-2.043988,61.258344,0.028519,-0.014816,1.01683,-0.010606,0.014948,-0.01456,61.700592,23.831924,-146.541534,,,
729608792.903313,-0.661768,-2.042231,61.254188,0.02742,-0.011093,1.016907,0.005138,0.018614,-0.015092,61.700592,23.831924,-146.541534,,,
729608792.906546,-0.659249,-2.038581,61.249158,0.02742,-0.011093,1.016907,0.005138,0.018614,-0.015092,61.700592,23.831924,-146.541534,,,
729608792.909945,-0.659249,-2.038581,61.249158,0.02742,-0.011093,1.016907,0.005138,0.018614,-0.015092,61.700592,23.831924,-146.541534,,,
729608792.913224,-0.651538,-2.038423,61.243836,0.028214,-0.006744,1.009155,0.014517,0.010487,-0.019665,61.700592,23.831924,-146.541534,,,
729608792.916545,-0.646301,-2.0388,61.238885,0.028214,-0.006744,1.009155,0.014517,0.010487,-0.019665,61.700592,23.831924,-146.541534,,,
729608792.919909,-0.646301,-2.0388,61.238885,0.028214,-0.006744,1.009155,0.014517,0.010487,-0.019665,61.700592,23.831924,-146.541534,,,
729608792.923236,-0.636879,-2.043401,61.234031,0.025787,-0.00885,1.002243,0.023158,-0.006443,-0.02151,61.700592,23.831924,-146.541534,,,
729608792.926584,-0.630353,-2.048423,61.228648,0.025787,-0.00885,1.002243,0.023158,-0.006443,-0.02151,61.825302,24.040482,-146.53299,,,
729608792.929954,-0.630353,-2.048423,61.228648,0.025787,-0.00885,1.002243,0.023158,-0.006443,-0.02151,61.825302,24.040482,-146.53299,,,
729608792.933212,-0.619895,-2.057548,61.223062,0.025314,-0.007126,0.996384,0.024033,-0.020498,-0.020141,61.825302,24.040482,-146.53299,,,
729608792.93655,-0.611918,-2.06654,61.217901,0.025314,-0.007126,0.996384,0.024033,-0.020498,-0.020141,61.825302,24.040482,-146.53299,,,
729608792.939896,-0.611918,-2.06654,61.217901,0.025314,-0.007126,0.996384,0.024033,-0.020498,-0.020141,61.825302,24.040482,-146.53299,,,
729608792.943329,-0.600637,-2.077986,61.213108,0.030823,-0.006378,0.994858,0.03106,-0.032438,-0.019072,61.825302,24.040482,-146.53299,,,
729608792.946558,-0.591627,-2.086649,61.208861,0.030823,-0.006378,0.994858,0.03106,-0.032438,-0.019072,61.825302,24.040482,-146.53299,,,
729608792.949891,-0.591627,-2.086649,61.208861,0.030823,-0.006378,0.994858,0.03106,-0.032438,-0.019072,61.825302,24.040482,-146.53299,,,
729608792.953228,-0.582658,-2.09345,61.205804,0.035583,-0.00679,0.99234,0.031833,-0.023163,-0.010715,61.825302,24.040482,-146.53299,,,
729608792.956458,-0.573624,-2.096335,61.203841,0.035583,-0.00679,0.99234,0.031833,-0.023163,-0.010715,61.825302,24.040482,-146.53299,,,
729608792.959971,-0.573624,-2.096335,61.203841,0.035583,-0.00679,0.99234,0.031833,-0.023163,-0.010715,61.825302,24.040482,-146.53299,,,
729608792.963223,-0.565234,-2.095145,61.20207,0.044312,-0.003525,0.992844,0.027893,0.005622,-0.010858,61.825302,24.040482,-146.53299,,,
729608792.966573,-0.55703,-2.091135,61.200491,0.044312,-0.003525,0.992844,0.027893,0.005622,-0.010858,61.895859,23.84256,-146.553391,,,
729608792.969942,-0.55703,-2.091135,61.200491,0.044312,-0.003525,0.992844,0.027893,0.005622,-0.010858,61.895859,23.84256,-146.553391,,,
729608792.97321,-0.549595,-2.08281,61.198926,0.046555,-0.001053,0.991959,0.02778,0.025819,-0.009105,61.895859,23.84256,-146.553391,,,
729608792.976588,-0.541575,-2.074918,61.197066,0.046555,-0.001053,0.991959,0.02778,0.025819,-0.009105,61.895859,23.84256,-146.553391,,,
729608792.979886,-0.541575,-2.074918,61.197066,0.046555,-0.001053,0.991959,0.02778,0.025819,-0.009105,61.895859,23.84256,-146.553391,,,
729608792.983279,-0.535269,-2.062828,61.195043,0.04364,9.2e-05,0.990173,0.025755,0.036046,-0.011267,61.895859,23.84256,-146.553391,,,
729608792.98654,-0.528494,-2.053346,61.192512,0.04364,9.2e-05,0.990173,0.025755,0.036046,-0.011267,61.895859,23.84256,-146.553391,,,
729608792.989896,-0.528494,-2.053346,61.192512,0.04364,9.2e-05,0.990173,0.025755,0.036046,-0.011267,61.895859,23.84256,-146.553391,,,
729608792.993266,-0.521537,-2.040879,61.189195,0.040436,0.000351,0.987442,0.021185,0.036723,-0.012592,61.895859,23.84256,-146.553391,,,
729608792.996537,-0.514735,-2.032804,61.185491,0.040436,0.000351,0.987442,0.021185,0.036723,-0.012592,61.895859,23.84256,-146.553391,,,
729608792.999891,-0.514735,-2.032804,61.185491,0.040436,0.000351,0.987442,0.021185,0.036723,-0.012592,61.895859,23.84256,-146.553391,,,
729608793.003227,-0.507298,-2.024537,61.18209,0.030411,-0.002197,0.992661,0.026196,0.022249,-0.013992,61.895859,23.84256,-146.553391,,,
729608793.006547,-0.499249,-2.02192,61.179539,0.030411,-0.002197,0.992661,0.026196,0.022249,-0.013992,61.895859,23.84256,-146.553391,,,
729608793.009972,-0.499249,-2.02192,61.179539,0.030411,-0.002197,0.992661,0.026196,0.022249,-0.013992,61.965088,23.701782,-146.753891,,,
729608793.01322,-0.490308,-2.01764,61.178341,0.028412,-0.010925,0.990799,0.031093,0.00588,-0.005188,61.965088,23.701782,-146.753891,,,
729608793.016541,-0.481136,-2.017662,61.177327,0.028412,-0.010925,0.990799,0.031093,0.00588,-0.005188,61.965088,23.701782,-146.753891,,,
729608793.019956,-0.481136,-2.017662,61.177327,0.028412,-0.010925,0.990799,0.031093,0.00588,-0.005188,61.965088,23.701782,-146.753891,,,
729608793.023277,-0.471093,-2.015968,61.175961,0.032898,-0.011047,0.996521,0.033248,0.002217,-0.006745,61.965088,23.701782,-146.753891,,,
729608793.02659,-0.461381,-2.016364,61.174313,0.032898,-0.011047,0.996521,0.033248,0.002217,-0.006745,61.965088,23.701782,-146.753891,,,
729608793.029898,-0.461381,-2.016364,61.174313,0.032898,-0.011047,0.996521,0.033248,0.002217,-0.006745,61.965088,23.701782,-146.753891,,,
729608793.033232,-0.451422,-2.015512,61.172608,0.038223,-0.0047,0.995758,0.03538,0.006816,-0.006222,61.965088,23.701782,-146.753891,,,
729608793.036547,-0.443158,-2.012934,61.171454,0.038223,-0.0047,0.995758,0.03538,0.006816,-0.006222,61.965088,23.701782,-146.753891,,,
729608793.039891,-0.443158,-2.012934,61.171454,0.038223,-0.0047,0.995758,0.03538,0.006816,-0.006222,61.965088,23.701782,-146.753891,,,
729608793.043283,-0.436517,-2.00969,61.170743,0.039352,0.000137,0.993729,0.020894,0.021121,-0.003257,61.965088,23.701782,-146.753891,,,
729608793.046542,-0.433213,-2.001905,61.170339,0.039352,0.000137,0.993729,0.020894,0.021121,-0.003257,61.965088,23.701782,-146.753891,,,
729608793.049885,-0.433213,-2.001905,61.170339,0.039352,0.000137,0.993729,0.020894,0.021121,-0.003257,61.980484,23.629181,-146.866043,,,
729608793.053221,-0.430019,-1.99667,61.170063,0.042831,-0.001663,0.990051,0.005495,0.038004,-0.00467,61.980484,23.629181,-146.866043,,,
729608793.05655,-0.429122,-1.987254,61.169659,0.042831,-0.001663,0.990051,0.005495,0.038004,-0.00467,61.980484,23.629181,-146.866043,,,
729608793.059985,-0.429122,-1.987254,61.169659,0.042831,-0.001663,0.990051,0.005495,0.038004,-0.00467,61.980484,23.629181,-146.866043,,,
729608793.063228,-0.425767,-1.982133,61.16924,0.039627,-0.001526,0.989319,0.005433,0.033211,0.000497,61.980484,23.629181,-146.866043,,,
729608793.066555,-0.424674,-1.97496,61.169147,0.039627,-0.001526,0.989319,0.005433,0.033211,0.000497,61.980484,23.629181,-146.866043,,,
729608793.069888,-0.424674,-1.97496,61.169147,0.039627,-0.001526,0.989319,0.005433,0.033211,0.000497,61.980484,23.629181,-146.866043,,,
729608793.07323,-0.421012,-1.973417,61.168917,0.034698,-0.001648,0.99144,0.004031,0.021221,-0.003388,61.980484,23.629181,-146.866043,,,
729608793.07661,-0.419842,-1.972071,61.168832,0.034698,-0.001648,0.99144,0.004031,0.021221,-0.003388,61.980484,23.629181,-146.866043,,,
729608793.07989,-0.419842,-1.972071,61.168832,0.034698,-0.001648,0.99144,0.004031,0.021221,-0.003388,61.980484,23.629181,-146.866043,,,
729608793.083238,-0.416553,-1.973495,61.16932,0.030426,-0.002411,0.988983,0.004674,-0.003265,-0.00083,61.980484,23.629181,-146.866043,,,
729608793.086548,-0.415769,-1.976962,61.170095,0.030426,-0.002411,0.988983,0.004674,-0.003265,-0.00083,61.980484,23.629181,-146.866043,,,
729608793.089884,-0.415769,-1.976962,61.170095,0.030426,-0.002411,0.988983,0.004674,-0.003265,-0.00083,62.019104,23.471176,-146.734924,,,
729608793.093262,-0.415205,-1.980637,61.171605,0.030777,-0.004822,0.992874,0.004033,-0.015965,0.002286,62.019104,23.471176,-146.734924,,,
729608793.096538,-0.413808,-1.9883,61.17311,0.030777,-0.004822,0.992874,0.004033,-0.015965,0.002286,62.019104,23.471176,-146.734924,,,
729608793.09996,-0.413808,-1.9883,61.17311,0.030777,-0.004822,0.992874,0.004033,-0.015965,0.002286,62.019104,23.471176,-146.734924,,,
729608793.103202,-0.414137,-1.995125,61.173536,0.03595,-0.005234,0.99437,0.003447,-0.025493,0.002084,62.019104,23.471176,-146.734924,,,
729608793.10654,-0.413251,-2.002735,61.172797,0.03595,-0.005234,0.99437,0.003447,-0.025493,0.002084,62.019104,23.471176,-146.734924,,,
729608793.10993,-0.413251,-2.002735,61.172797,0.03595,-0.005234,0.99437,0.003447,-0.025493,0.002084,62.019104,23.471176,-146.734924,,,
729608793.113262,-0.413474,-2.009472,61.170806,0.040344,-0.001938,0.998566,-0.000462,-0.019684,-0.009488,62.019104,23.471176,-146.734924,,,
729608793.116535,-0.414508,-2.014308,61.168637,0.040344,-0.001938,0.998566,-0.000462,-0.019684,-0.009488,62.019104,23.471176,-146.734924,,,
729608793.119677,-0.414508,-2.014308,61.168637,0.040344,-0.001938,0.998566,-0.000462,-0.019684,-0.009488,62.019104,23.471176,-146.734924,,,
729608793.123252,-0.413947,-2.019218,61.167505,0.038116,-0.006226,1.003326,-0.004149,-0.012169,-0.008845,62.019104,23.471176,-146.734924,,,
729608793.126581,-0.415288,-2.021152,61.16742,0.038116,-0.006226,1.003326,-0.004149,-0.012169,-0.008845,62.019104,23.471176,-146.734924,,,
729608793.129897,-0.415288,-2.021152,61.16742,0.038116,-0.006226,1.003326,-0.004149,-0.012169,-0.008845,62.019104,23.471176,-146.734924,,,
729608793.133217,-0.414886,-2.023844,61.168178,0.032928,-0.01329,1.00589,-0.005697,0.001394,0.001016,62.000244,23.746063,-146.943222,,,
729608793.136553,-0.416676,-2.022575,61.170027,0.032928,-0.01329,1.00589,-0.005697,0.001394,0.001016,62.000244,23.746063,-146.943222,,,
729608793.139905,-0.416676,-2.022575,61.170027,0.032928,-0.01329,1.00589,-0.005697,0.001394,0.001016,62.000244,23.746063,-146.943222,,,
729608793.143295,-0.416252,-2.022243,61.172895,0.03093,-0.015259,1.007309,-0.004045,0.013789,0.005768,62.000244,23.746063,-146.943222,,,
729608793.146538,-0.416135,-2.019105,61.176466,0.03093,-0.015259,1.007309,-0.004045,0.013789,0.005768,62.000244,23.746063,-146.943222,,,
729608793.149977,-0.416135,-2.019105,61.176466,0.03093,-0.015259,1.007309,-0.004045,0.013789,0.005768,62.000244,23.746063,-146.943222,,,
729608793.153226,-0.413078,-2.016622,61.180413,0.031281,-0.011398,1.008194,0.00795,0.012592,0.014229,62.000244,23.746063,-146.943222,,,
729608793.156588,-0.410924,-2.014456,61.184563,0.031281,-0.011398,1.008194,0.00795,0.012592,0.014229,62.000244,23.746063,-146.943222,,,
729608793.15994,-0.410924,-2.014456,61.184563,0.031281,-0.011398,1.008194,0.00795,0.012592,0.014229,62.000244,23.746063,-146.943222,,,
729608793.163276,-0.406597,-2.011222,61.18848,0.035004,-0.008347,1.004868,0.010831,0.010463,0.011407,62.000244,23.746063,-146.943222,,,
729608793.166543,-0.402725,-2.009677,61.191314,0.035004,-0.008347,1.004868,0.010831,0.010463,0.011407,62.000244,23.746063,-146.943222,,,
729608793.169893,-0.402725,-2.009677,61.191314,0.035004,-0.008347,1.004868,0.010831,0.010463,0.011407,62.000244,23.746063,-146.943222,,,
729608793.173216,-0.397188,-2.008204,61.19331,0.035507,-0.006622,0.99971,0.016155,0.001731,0.006785,61.891144,23.774155,-146.936813,,,
729608793.176591,-0.392873,-2.009532,61.194931,0.035507,-0.006622,0.99971,0.016155,0.001731,0.006785,61.891144,23.774155,-146.936813,,,
729608793.179876,-0.392873,-2.009532,61.194931,0.035507,-0.006622,0.99971,0.016155,0.001731,0.006785,61.891144,23.774155,-146.936813,,,
729608793.183211,-0.388211,-2.010403,61.195757,0.03537,-0.004364,0.994492,0.013661,-0.004163,-0.000151,61.891144,23.774155,-146.936813,,,
729608793.18661,-0.384592,-2.012051,61.196248,0.03537,-0.004364,0.994492,0.013661,-0.004163,-0.000151,61.891144,23.774155,-146.936813,,,
729608793.189876,-0.384592,-2.012051,61.196248,0.03537,-0.004364,0.994492,0.013661,-0.004163,-0.000151,61.891144,23.774155,-146.936813,,,
729608793.193264,-0.381352,-2.015291,61.197488,0.031021,-0.005707,0.991302,0.006294,-0.001241,-0.000349,61.891144,23.774155,-146.936813,,,
729608793.196556,-0.380768,-2.016617,61.199638,0.031021,-0.005707,0.991302,0.006294,-0.001241,-0.000349,61.891144,23.774155,-146.936813,,,
729608793.199891,-0.380768,-2.016617,61.199638,0.031021,-0.005707,0.991302,0.006294,-0.001241,-0.000349,61.891144,23.774155,-146.936813,,,
729608793.20322,-0.380477,-2.020108,61.201948,0.031448,-0.009155,0.991577,5.5e-05,-0.006168,0.008956,61.891144,23.774155,-146.936813,,,
729608793.206609,-0.381464,-2.023366,61.203524,0.031448,-0.009155,0.991577,5.5e-05,-0.006168,0.008956,61.891144,23.774155,-146.936813,,,
729608793.209928,-0.381464,-2.023366,61.203524,0.031448,-0.009155,0.991577,5.5e-05,-0.006168,0.008956,61.891144,23.774155,-146.936813,,,
729608793.213214,-0.383308,-2.026756,61.203862,0.03923,-0.004242,0.995544,-0.004397,-0.00977,-0.001306,61.964981,23.709213,-147.062134,,,
729608793.216649,-0.383206,-2.030536,61.202451,0.03923,-0.004242,0.995544,-0.004397,-0.00977,-0.001306,61.964981,23.709213,-147.062134,,,
729608793.219878,-0.383206,-2.030536,61.202451,0.03923,-0.004242,0.995544,-0.004397,-0.00977,-0.001306,61.964981,23.709213,-147.062134,,,
729608793.223282,-0.385182,-2.032579,61.199691,0.047073,-7.6e-05,1.003555,0.003432,-0.008023,-0.012222,61.964981,23.709213,-147.062134,,,
729608793.226645,-0.383529,-2.034568,61.195856,0.047073,-7.6e-05,1.003555,0.003432,-0.008023,-0.012222,61.964981,23.709213,-147.062134,,,
729608793.229924,-0.383529,-2.034568,61.195856,0.047073,-7.6e-05,1.003555,0.003432,-0.008023,-0.012222,61.964981,23.709213,-147.062134,,,
729608793.233222,-0.38297,-2.032615,61.191064,0.051315,-0.000763,1.000931,0.011459,0.003458,-0.018316,61.964981,23.709213,-147.062134,,,
729608793.236566,-0.380321,-2.030031,61.186073,0.051315,-0.000763,1.000931,0.011459,0.003458,-0.018316,61.964981,23.709213,-147.062134,,,
729608793.239935,-0.380321,-2.030031,61.186073,0.051315,-0.000763,1.000931,0.011459,0.003458,-0.018316,61.964981,23.709213,-147.062134,,,
729608793.243286,-0.378933,-2.024882,61.181364,0.052551,-0.00238,1.000458,0.008571,0.018945,-0.021153,61.964981,23.709213,-147.062134,,,
729608793.24661,-0.376942,-2.019909,61.176376,0.052551,-0.00238,1.000458,0.008571,0.018945,-0.021153,61.964981,23.709213,-147.062134,,,
729608793.249902,-0.376942,-2.019909,61.176376,0.052551,-0.00238,1.000458,0.008571,0.018945,-0.021153,61.964981,23.709213,-147.062134,,,
729608793.253215,-0.376034,-2.015237,61.170351,0.050262,-0.001389,0.99469,0.005501,0.022572,-0.025164,61.964981,23.709213,-147.062134,,,
729608793.256596,-0.37605,-2.00994,61.162843,0.050262,-0.001389,0.99469,0.005501,0.022572,-0.025164,61.734406,23.731018,-147.068985,,,
729608793.259872,-0.37605,-2.00994,61.162843,0.050262,-0.001389,0.99469,0.005501,0.022572,-0.025164,61.734406,23.731018,-147.068985,,,
729608793.26321,-0.376935,-2.004214,61.153173,0.046478,0.0047,0.990509,-0.004854,0.023466,-0.034534,61.734406,23.731018,-147.068985,,,
729608793.266577,-0.379248,-1.999965,61.142046,0.046478,0.0047,0.990509,-0.004854,0.023466,-0.034534,61.734406,23.731018,-147.068985,,,
729608793.269917,-0.379248,-1.999965,61.142046,0.046478,0.0047,0.990509,-0.004854,0.023466,-0.034534,61.734406,23.731018,-147.068985,,,
729608793.273211,-0.380799,-1.998246,61.130476,0.036362,0.00235,0.991028,-0.007328,0.00862,-0.040052,61.734406,23.731018,-147.068985,,,
729608793.276566,-0.380799,-2.000645,61.119473,0.036362,0.00235,0.991028,-0.007328,0.00862,-0.040052,61.734406,23.731018,-147.068985,,,
729608793.279876,-0.382426,-2.000645,61.119473,0.036362,0.00235,0.991028,-0.007328,0.00862,-0.040052,61.734406,23.731018,-147.068985,,,
729608793.28322,-0.383169,-2.005251,61.10959,0.02533,-0.006989,0.992752,-0.002356,-0.020352,-0.03734,61.734406,23.731018,-147.068985,,,
729608793.286561,-0.383169,-2.013724,61.10043,0.02533,-0.006989,0.992752,-0.002356,-0.020352,-0.03734,61.734406,23.731018,-147.068985,,,
729608793.289891,-0.38229,-2.013724,61.10043,0.02533,-0.006989,0.992752,-0.002356,-0.020352,-0.03734,61.734406,23.731018,-147.068985,,,
729608793.293209,-0.379883,-2.023301,61.091734,0.021973,-0.01651,0.998352,0.007599,-0.02846,-0.032909,61.734406,23.731018,-147.068985,,,
729608793.296629,-0.376156,-2.032562,61.083818,0.021973,-0.01651,0.998352,0.007599,-0.02846,-0.032909,61.88089,23.782532,-147.000595,,,
729608793.299877,-0.376156,-2.032562,61.083818,0.021973,-0.01651,0.998352,0.007599,-0.02846,-0.032909,61.88089,23.782532,-147.000595,,,
729608793.303215,-0.370139,-2.044552,61.077382,0.025558,-0.0177,1.003372,0.017173,-0.027009,-0.024128,61.88089,23.782532,-147.000595,,,
729608793.306604,-0.370139,-2.052096,61.073163,0.025558,-0.0177,1.003372,0.017173,-0.027009,-0.024128,61.88089,23.782532,-147.000595,,,
729608793.309964,-0.365259,-2.052096,61.073163,0.025558,-0.0177,1.003372,0.017173,-0.027009,-0.024128,61.88089,23.782532,-147.000595,,,
729608793.313213,-0.358825,-2.061548,61.070821,0.023438,-0.019043,0.997574,0.016901,-0.01333,-0.010566,61.88089,23.782532,-147.000595,,,
729608793.31656,-0.358825,-2.061548,61.070821,0.023438,-0.019043,0.997574,0.016901,-0.01333,-0.010566,61.88089,23.782532,-147.000595,,,
729608793.319894,-0.354953,-2.063088,61.069768,0.023438,-0.019043,0.997574,0.016901,-0.01333,-0.010566,61.88089,23.782532,-147.000595,,,
729608793.323282,-0.34983,-2.067891,61.069129,0.027145,-0.01799,0.996567,0.015423,0.004246,-0.002743,61.88089,23.782532,-147.000595,,,
729608793.326546,-0.34983,-2.067891,61.069129,0.027145,-0.01799,0.996567,0.015423,0.004246,-0.002743,61.88089,23.782532,-147.000595,,,
729608793.32992,-0.345582,-2.065482,61.068298,0.027145,-0.01799,0.996567,0.015423,0.004246,-0.002743,61.88089,23.782532,-147.000595,,,
729608793.33321,-0.339337,-2.067853,61.067381,0.033463,-0.011536,0.997192,0.019243,0.011749,-0.008991,61.88089,23.782532,-147.000595,,,
729608793.336535,-0.339337,-2.067853,61.067381,0.033463,-0.011536,0.997192,0.019243,0.011749,-0.008991,61.980148,23.67749,-147.043457,,,
729608793.339886,-0.335117,-2.06392,61.066158,0.033463,-0.011536,0.997192,0.019243,0.011749,-0.008991,61.980148,23.67749,-147.043457,,,
729608793.343205,-0.329243,-2.062727,61.065285,0.032059,-0.01059,0.992172,0.013851,0.020781,-0.004097,61.980148,23.67749,-147.043457,,,
729608793.346581,-0.329243,-2.062727,61.065285,0.032059,-0.01059,0.992172,0.013851,0.020781,-0.004097,61.980148,23.67749,-147.043457,,,
729608793.349883,-0.325914,-2.055771,61.066067,0.032059,-0.01059,0.992172,0.013851,0.020781,-0.004097,61.980148,23.67749,-147.043457,,,
729608793.353214,-0.319579,-2.050903,61.068026,0.025925,-0.012787,0.993057,0.014243,0.029007,0.00427,61.980148,23.67749,-147.043457,,,
729608793.356545,-0.319579,-2.050903,61.068026,0.025925,-0.012787,0.993057,0.014243,0.029007,0.00427,61.980148,23.67749,-147.043457,,,
729608793.359939,-0.316188,-2.045438,61.069984,0.025925,-0.012787,0.993057,0.014243,0.029007,0.00427,61.980148,23.67749,-147.043457,,,
729608793.363207,-0.311895,-2.039627,61.072156,0.027863,-0.012177,0.99231,0.013842,0.015439,0.005976,61.980148,23.67749,-147.043457,,,
729608793.366577,-0.311895,-2.039627,61.072156,0.027863,-0.012177,0.99231,0.013842,0.015439,0.005976,61.980148,23.67749,-147.043457,,,
729608793.369903,-0.308746,-2.037571,61.074693,0.027863,-0.012177,0.99231,0.013842,0.015439,0.005976,61.980148,23.67749,-147.043457,,,
729608793.373214,-0.309159,-2.030949,61.07769,0.026978,-0.011124,0.98587,0.007181,0.010739,0.009258,61.980148,23.67749,-147.043457,,,
729608793.376541,-0.309159,-2.030949,61.07769,0.026978,-0.011124,0.98587,0.007181,0.010739,0.009258,61.925461,23.744659,-147.143234,,,
729608793.379895,-0.30841,-2.028551,61.081379,0.026978,-0.011124,0.98587,0.007181,0.010739,0.009258,61.925461,23.744659,-147.143234,,,
729608793.383206,-0.313308,-2.02209,61.085491,0.030701,-0.010818,0.985184,-0.002888,0.011313,0.014274,61.925461,23.744659,-147.143234,,,
729608793.386607,-0.313308,-2.02209,61.085491,0.030701,-0.010818,0.985184,-0.002888,0.011313,0.014274,61.925461,23.744659,-147.143234,,,
729608793.389883,-0.315854,-2.019838,61.089595,0.030701,-0.010818,0.985184,-0.002888,0.011313,0.014274,61.925461,23.744659,-147.143234,,,
729608793.393204,-0.323248,-2.015261,61.093194,0.036026,-0.008591,0.985611,-0.009064,0.004331,0.011857,61.925461,23.744659,-147.143234,,,
729608793.396559,-0.323248,-2.015261,61.093194,0.036026,-0.008591,0.985611,-0.009064,0.004331,0.011857,61.925461,23.744659,-147.143234,,,
729608793.399964,-0.32787,-2.016136,61.09579,0.036026,-0.008591,0.985611,-0.009064,0.004331,0.011857,61.925461,23.744659,-147.143234,,,
729608793.403209,-0.33793,-2.013907,61.097056,0.041351,-0.005493,0.984207,-0.019647,0.000259,0.004616,61.925461,23.744659,-147.143234,,,
729608793.406561,-0.33793,-2.013907,61.097056,0.041351,-0.005493,0.984207,-0.019647,0.000259,0.004616,61.925461,23.744659,-147.143234,,,
729608793.409898,-0.344267,-2.014732,61.09726,0.041351,-0.005493,0.984207,-0.019647,0.000259,0.004616,61.925461,23.744659,-147.143234,,,
729608793.413219,-0.353921,-2.014033,61.096348,0.043503,-0.007065,0.986404,-0.024551,-0.003731,-0.000822,61.925461,23.744659,-147.143234,,,
729608793.41655,-0.353921,-2.014033,61.096348,0.043503,-0.007065,0.986404,-0.024551,-0.003731,-0.000822,61.945679,23.817184,-147.448044,,,
729608793.419899,-0.36211,-2.013777,61.09493,0.043503,-0.007065,0.986404,-0.024551,-0.003731,-0.000822,61.945679,23.817184,-147.448044,,,
729608793.423216,-0.372549,-2.011134,61.093946,0.045746,-0.009262,0.990768,-0.031154,0.008695,-0.004575,61.945679,23.817184,-147.448044,,,
729608793.426618,-0.372549,-2.011134,61.093946,0.045746,-0.009262,0.990768,-0.031154,0.008695,-0.004575,61.945679,23.817184,-147.448044,,,
729608793.429885,-0.382634,-2.007036,61.093066,0.045746,-0.009262,0.990768,-0.031154,0.008695,-0.004575,61.945679,23.817184,-147.448044,,,
729608793.433216,-0.394508,-1.999495,61.092102,0.045837,-0.009888,0.995605,-0.034415,0.020856,-0.003081,61.945679,23.817184,-147.448044,,,
729608793.43655,-0.394508,-1.999495,61.092102,0.045837,-0.009888,0.995605,-0.034415,0.020856,-0.003081,61.945679,23.817184,-147.448044,,,
729608793.439958,-0.405842,-1.994141,61.09043,0.045837,-0.009888,0.995605,-0.034415,0.020856,-0.003081,61.945679,23.817184,-147.448044,,,
729608793.443213,-0.419606,-1.986272,61.087367,0.046555,-0.008102,0.995331,-0.042053,0.019459,-0.011254,61.945679,23.817184,-147.448044,,,
729608793.446541,-0.419606,-1.986272,61.087367,0.046555,-0.008102,0.995331,-0.042053,0.019459,-0.011254,61.945679,23.817184,-147.448044,,,
729608793.449897,-0.430924,-1.982037,61.082624,0.046555,-0.008102,0.995331,-0.042053,0.019459,-0.011254,61.945679,23.817184,-147.448044,,,
729608793.45322,-0.4429,-1.975357,61.07722,0.042709,-0.005325,0.996246,-0.039055,0.01785,-0.020304,61.945679,23.817184,-147.448044,,,
729608793.456557,-0.4429,-1.975357,61.07722,0.042709,-0.005325,0.996246,-0.039055,0.01785,-0.020304,61.945679,23.817184,-147.448044,,,
729608793.459901,-0.453445,-1.970881,61.071956,0.042709,-0.005325,0.996246,-0.039055,0.01785,-0.020304,61.888947,23.832672,-147.043411,,,
729608793.463212,-0.464396,-1.964465,61.068058,0.032776,-0.010712,1.000336,-0.034739,0.016821,-0.012495,61.888947,23.832672,-147.043411,,,
729608793.466628,-0.464396,-1.964465,61.068058,0.032776,-0.010712,1.000336,-0.034739,0.016821,-0.012495,61.888947,23.832672,-147.043411,,,
729608793.46988,-0.472711,-1.958814,61.066567,0.032776,-0.010712,1.000336,-0.034739,0.016821,-0.012495,61.888947,23.832672,-147.043411,,,
729608793.473208,-0.479502,-1.951871,61.066899,0.030563,-0.020706,1.007294,-0.023031,0.02748,0.00086,61.888947,23.832672,-147.043411,,,
729608793.476562,-0.479502,-1.951871,61.066899,0.030563,-0.020706,1.007294,-0.023031,0.02748,0.00086,61.888947,23.832672,-147.043411,,,
729608793.479931,-0.484069,-1.943617,61.068311,0.030563,-0.020706,1.007294,-0.023031,0.02748,0.00086,61.888947,23.832672,-147.043411,,,
729608793.48321,-0.486483,-1.936184,61.070185,0.032639,-0.021576,1.008545,-0.009536,0.033956,0.005799,61.888947,23.832672,-147.043411,,,
729608793.486551,-0.486483,-1.936184,61.070185,0.032639,-0.021576,1.008545,-0.009536,0.033956,0.005799,61.888947,23.832672,-147.043411,,,
729608793.48989,-0.488865,-1.925712,61.072384,0.032639,-0.021576,1.008545,-0.009536,0.033956,0.005799,61.888947,23.832672,-147.043411,,,
729608793.493206,-0.489504,-1.917201,61.074472,0.033218,-0.012375,1.007172,-0.005289,0.048082,0.003765,61.888947,23.832672,-147.043411,,,
729608793.496542,-0.489504,-1.917201,61.074472,0.033218,-0.012375,1.007172,-0.005289,0.048082,0.003765,61.888947,23.832672,-147.043411,,,
729608793.499893,-0.489677,-1.903439,61.076173,0.033218,-0.012375,1.007172,-0.005289,0.048082,0.003765,61.859421,23.8983,-147.161026,,,
729608793.503211,-0.489738,-1.892464,61.077979,0.031845,-0.006165,1.007217,-0.0011,0.056901,0.004054,61.859421,23.8983,-147.161026,,,
729608793.506548,-0.489738,-1.892464,61.077979,0.031845,-0.006165,1.007217,-0.0011,0.056901,0.004054,61.859421,23.8983,-147.161026,,,
729608793.509894,-0.490016,-1.876641,61.080014,0.031845,-0.006165,1.007217,-0.0011,0.056901,0.004054,61.859421,23.8983,-147.161026,,,
729608793.513205,-0.491426,-1.865149,61.082086,0.031158,-0.00592,1.000565,-0.003887,0.060169,0.005201,61.859421,23.8983,-147.161026,,,
729608793.516548,-0.491426,-1.865149,61.082086,0.031158,-0.00592,1.000565,-0.003887,0.060169,0.005201,61.859421,23.8983,-147.161026,,,
729608793.519949,-0.492916,-1.850421,61.084255,0.031158,-0.00592,1.000565,-0.003887,0.060169,0.005201,61.859421,23.8983,-147.161026,,,
729608793.523201,-0.494992,-1.841901,61.086415,0.030731,-0.005676,0.991959,-0.003769,0.049938,0.007684,61.859421,23.8983,-147.161026,,,
729608793.526558,-0.494992,-1.841901,61.086415,0.030731,-0.005676,0.991959,-0.003769,0.049938,0.007684,61.859421,23.8983,-147.161026,,,
729608793.529876,-0.496712,-1.83045,61.089191,0.030731,-0.005676,0.991959,-0.003769,0.049938,0.007684,61.859421,23.8983,-147.161026,,,
729608793.533207,-0.497842,-1.826362,61.091743,0.030823,-0.003632,0.993744,-0.003802,0.034642,0.006818,61.859421,23.8983,-147.161026,,,
729608793.536648,-0.497842,-1.826362,61.091743,0.030823,-0.003632,0.993744,-0.003802,0.034642,0.006818,61.859421,23.8983,-147.161026,,,
729608793.539876,-0.499132,-1.820454,61.094097,0.030823,-0.003632,0.993744,-0.003802,0.034642,0.006818,62.052872,23.915634,-147.024094,,,
729608793.543219,-0.499047,-1.816331,61.09665,0.029953,-0.000717,0.992905,0.000198,0.02158,0.005955,62.052872,23.915634,-147.024094,,,
729608793.546609,-0.499047,-1.816331,61.09665,0.029953,-0.000717,0.992905,0.000198,0.02158,0.005955,62.052872,23.915634,-147.024094,,,
729608793.549892,-0.49946,-1.808496,61.099024,0.029953,-0.000717,0.992905,0.000198,0.02158,0.005955,62.052872,23.915634,-147.024094,,,
729608793.553215,-0.502872,-1.798961,61.102218,0.031723,-0.002899,1.005707,-0.001593,0.034703,0.010174,62.052872,23.915634,-147.024094,,,
729608793.55657,-0.502872,-1.798961,61.102218,0.031723,-0.002899,1.005707,-0.001593,0.034703,0.010174,62.052872,23.915634,-147.024094,,,
729608793.559955,-0.503712,-1.790722,61.106275,0.031723,-0.002899,1.005707,-0.001593,0.034703,0.010174,62.052872,23.915634,-147.024094,,,
729608793.5632,-0.509171,-1.783747,61.11038,0.038147,-0.00174,0.993851,-0.002416,0.02858,0.014601,62.052872,23.915634,-147.024094,,,
729608793.566571,-0.509171,-1.783747,61.11038,0.038147,-0.00174,0.993851,-0.002416,0.02858,0.014601,62.052872,23.915634,-147.024094,,,
729608793.569898,-0.511416,-1.77898,61.113582,0.038147,-0.00174,0.993851,-0.002416,0.02858,0.014601,62.052872,23.915634,-147.024094,,,
729608793.573206,-0.517155,-1.777414,61.114446,0.034119,0.003738,0.988846,-0.012033,0.01088,0.002924,62.052872,23.915634,-147.024094,,,
729608793.57655,-0.517155,-1.777414,61.114446,0.034119,0.003738,0.988846,-0.012033,0.01088,0.002924,62.052872,23.915634,-147.024094,,,
729608793.579903,-0.521384,-1.778542,61.112716,0.034119,0.003738,0.988846,-0.012033,0.01088,0.002924,62.212555,24.033066,-147.034134,,,
729608793.58322,-0.526144,-1.783691,61.108683,0.031601,0.010849,0.985458,-0.015807,-0.015635,-0.014329,62.212555,24.033066,-147.034134,,,
729608793.586605,-0.526144,-1.783691,61.108683,0.031601,0.010849,0.985458,-0.015807,-0.015635,-0.014329,62.212555,24.033066,-147.034134,,,
729608793.589874,-0.531838,-1.792557,61.10236,0.031601,0.010849,0.985458,-0.015807,-0.015635,-0.014329,62.212555,24.033066,-147.034134,,,
729608793.593208,-0.536713,-1.804497,61.094214,0.03302,0.011871,0.987808,-0.019562,-0.039602,-0.02879,62.212555,24.033066,-147.034134,,,
729608793.596539,-0.536713,-1.804497,61.094214,0.03302,0.011871,0.987808,-0.019562,-0.039602,-0.02879,62.212555,24.033066,-147.034134,,,
729608793.59994,-0.542784,-1.818145,61.085417,0.03302,0.011871,0.987808,-0.019562,-0.039602,-0.02879,62.212555,24.033066,-147.034134,,,
729608793.60322,-0.547618,-1.83247,61.076552,0.030807,0.001099,0.993515,-0.019593,-0.044849,-0.03113,62.212555,24.033066,-147.034134,,,
729608793.606556,-0.547618,-1.83247,61.076552,0.030807,0.001099,0.993515,-0.019593,-0.044849,-0.03113,62.212555,24.033066,-147.034134,,,
729608793.609887,-0.55263,-1.847008,61.067615,0.030807,0.001099,0.993515,-0.019593,-0.044849,-0.03113,62.212555,24.033066,-147.034134,,,
729608793.613205,-0.554693,-1.860444,61.059018,0.025955,-0.008682,1.003647,-0.011968,-0.043916,-0.031101,62.212555,24.033066,-147.034134,,,
729608793.616585,-0.554693,-1.860444,61.059018,0.025955,-0.008682,1.003647,-0.011968,-0.043916,-0.031101,62.212555,24.033066,-147.034134,,,
729608793.619915,-0.555963,-1.873118,61.05088,0.025955,-0.008682,1.003647,-0.011968,-0.043916,-0.031101,62.212555,24.033066,-147.034134,,,
729608793.623224,-0.552841,-1.882626,61.043438,0.026642,-0.012222,1.008087,0.002157,-0.032872,-0.025922,62.267151,23.899445,-146.998962,,,
729608793.626637,-0.552841,-1.882626,61.043438,0.026642,-0.012222,1.008087,0.002157,-0.032872,-0.025922,62.267151,23.899445,-146.998962,,,
729608793.629893,-0.549978,-1.889246,61.038131,0.026642,-0.012222,1.008087,0.002157,-0.032872,-0.025922,62.267151,23.899445,-146.998962,,,
729608793.633215,-0.542387,-1.891682,61.036044,0.020554,-0.017578,1.016495,0.017581,-0.008494,-0.010951,62.267151,23.899445,-146.998962,,,
729608793.636544,-0.542387,-1.891682,61.036044,0.020554,-0.017578,1.016495,0.017581,-0.008494,-0.010951,62.267151,23.899445,-146.998962,,,
729608793.639956,-0.534942,-1.892316,61.036825,0.020554,-0.017578,1.016495,0.017581,-0.008494,-0.010951,62.267151,23.899445,-146.998962,,,
729608793.643203,-0.52372,-1.891673,61.039607,0.014877,-0.019836,1.014191,0.033862,0.00953,0.008395,62.267151,23.899445,-146.998962,,,
729608793.646537,-0.52372,-1.891673,61.039607,0.014877,-0.019836,1.014191,0.033862,0.00953,0.008395,62.267151,23.899445,-146.998962,,,
729608793.649886,-0.513742,-1.886062,61.043865,0.014877,-0.019836,1.014191,0.033862,0.00953,0.008395,62.267151,23.899445,-146.998962,,,
729608793.653211,-0.499988,-1.878223,61.048543,0.018234,-0.013824,1.012329,0.036556,0.034871,0.011736,62.267151,23.899445,-146.998962,,,
729608793.656568,-0.499988,-1.878223,61.048543,0.018234,-0.013824,1.012329,0.036556,0.034871,0.011736,62.267151,23.899445,-146.998962,,,
729608793.659888,-0.489294,-1.866584,61.052758,0.018234,-0.013824,1.012329,0.036556,0.034871,0.011736,62.267151,23.899445,-146.998962,,,
729608793.663214,-0.473859,-1.854221,61.056512,0.024353,-0.004837,1.009338,0.036797,0.044911,0.008361,62.164154,24.034225,-146.902557,,,
729608793.666625,-0.473859,-1.854221,61.056512,0.024353,-0.004837,1.009338,0.036797,0.044911,0.008361,62.164154,24.034225,-146.902557,,,
729608793.669893,-0.464363,-1.843142,61.059593,0.024353,-0.004837,1.009338,0.036797,0.044911,0.008361,62.164154,24.034225,-146.902557,,,
729608793.673211,-0.449121,-1.834804,61.062105,0.023987,-0.003143,0.99585,0.033533,0.034197,0.005352,62.164154,24.034225,-146.902557,,,
729608793.676558,-0.449121,-1.834804,61.062105,0.023987,-0.003143,0.99585,0.033533,0.034197,0.005352,62.164154,24.034225,-146.902557,,,
729608793.679949,-0.441814,-1.829398,61.064359,0.023987,-0.003143,0.99585,0.033533,0.034197,0.005352,62.164154,24.034225,-146.902557,,,
729608793.68321,-0.431533,-1.827589,61.066811,0.021332,-0.005722,0.984787,0.020869,0.011883,0.004771,62.164154,24.034225,-146.902557,,,
729608793.686545,-0.431533,-1.827589,61.066811,0.021332,-0.005722,0.984787,0.020869,0.011883,0.004771,62.164154,24.034225,-146.902557,,,
729608793.689898,-0.426899,-1.828307,61.069385,0.021332,-0.005722,0.984787,0.020869,0.011883,0.004771,62.164154,24.034225,-146.902557,,,
729608793.693215,-0.422862,-1.830839,61.071554,0.028732,-0.007339,0.984131,0.012565,-0.010035,0.00511,62.164154,24.034225,-146.902557,,,
729608793.696608,-0.422862,-1.830839,61.071554,0.028732,-0.007339,0.984131,0.012565,-0.010035,0.00511,62.164154,24.034225,-146.902557,,,
729608793.699891,-0.419785,-1.838076,61.073098,0.028732,-0.007339,0.984131,0.012565,-0.010035,0.00511,62.164154,24.034225,-146.902557,,,
729608793.703214,-0.418807,-1.845456,61.073832,0.035385,-0.004715,0.98143,0.0073,-0.030595,-0.000541,62.099152,23.902878,-146.697754,,,
729608793.706596,-0.418807,-1.845456,61.073832,0.035385,-0.004715,0.98143,0.0073,-0.030595,-0.000541,62.099152,23.902878,-146.697754,,,
729608793.709902,-0.418605,-1.855469,61.073927,0.035385,-0.004715,0.98143,0.0073,-0.030595,-0.000541,62.099152,23.902878,-146.697754,,,
729608793.713216,-0.422268,-1.86174,61.073841,0.038422,-0.005234,0.981354,-0.004112,-0.031386,-0.001975,62.099152,23.902878,-146.697754,,,
729608793.716559,-0.422268,-1.86174,61.073841,0.038422,-0.005234,0.981354,-0.004112,-0.031386,-0.001975,62.099152,23.902878,-146.697754,,,
729608793.719968,-0.423998,-1.870619,61.074089,0.038422,-0.005234,0.981354,-0.004112,-0.031386,-0.001975,62.099152,23.902878,-146.697754,,,
729608793.723202,-0.428631,-1.873682,61.074843,0.041199,-0.00708,0.986877,-0.004234,-0.023393,-0.000403,62.099152,23.902878,-146.697754,,,
729608793.726566,-0.428631,-1.873682,61.074843,0.041199,-0.00708,0.986877,-0.004234,-0.023393,-0.000403,62.099152,23.902878,-146.697754,,,
729608793.729883,-0.42928,-1.879933,61.076109,0.041199,-0.00708,0.986877,-0.004234,-0.023393,-0.000403,62.099152,23.902878,-146.697754,,,
729608793.733206,-0.432985,-1.877495,61.078384,0.041641,-0.013657,0.992752,-0.003459,-0.010655,0.00454,62.099152,23.902878,-146.697754,,,
729608793.736541,-0.432985,-1.877495,61.078384,0.041641,-0.013657,0.992752,-0.003459,-0.010655,0.00454,62.099152,23.902878,-146.697754,,,
729608793.739896,-0.434552,-1.877375,61.081588,0.041641,-0.013657,0.992752,-0.003459,-0.010655,0.00454,62.099152,23.902878,-146.697754,,,
729608793.74322,-0.436576,-1.869353,61.085424,0.04126,-0.017685,0.993301,-0.007219,0.017198,0.013716,62.099152,23.902878,-146.697754,,,
729608793.746625,-0.436576,-1.869353,61.085424,0.04126,-0.017685,0.993301,-0.007219,0.017198,0.013716,61.805191,24.084244,-146.961182,,,
729608793.749892,-0.438153,-1.861151,61.08959,0.04126,-0.017685,0.993301,-0.007219,0.017198,0.013716,61.805191,24.084244,-146.961182,,,
729608793.753216,-0.437223,-1.848514,61.093061,0.045898,-0.01326,1.000183,-9.9e-05,0.038104,0.010241,61.805191,24.084244,-146.961182,,,
729608793.756559,-0.437223,-1.848514,61.093061,0.045898,-0.01326,1.000183,-9.9e-05,0.038104,0.010241,61.805191,24.084244,-146.961182,,,
729608793.759951,-0.436943,-1.837728,61.094819,0.045898,-0.01326,1.000183,-9.9e-05,0.038104,0.010241,61.805191,24.084244,-146.961182,,,
729608793.763206,-0.435144,-1.82396,61.094797,0.043533,-0.009003,0.997086,0.003124,0.038662,-0.002303,61.805191,24.084244,-146.961182,,,
729608793.766557,-0.435144,-1.82396,61.094797,0.043533,-0.009003,0.997086,0.003124,0.038662,-0.002303,61.805191,24.084244,-146.961182,,,
729608793.769896,-0.434515,-1.814433,61.092748,0.043533,-0.009003,0.997086,0.003124,0.038662,-0.002303,61.805191,24.084244,-146.961182,,,
729608793.773212,-0.434231,-1.803258,61.089475,0.03775,-0.008392,0.994492,0.001189,0.036621,-0.014552,61.805191,24.084244,-146.961182,,,
729608793.776565,-0.434231,-1.803258,61.089475,0.03775,-0.008392,0.994492,0.001189,0.036621,-0.014552,61.805191,24.084244,-146.961182,,,
729608793.779893,-0.433962,-1.794678,61.085063,0.03775,-0.008392,0.994492,0.001189,0.036621,-0.014552,61.805191,24.084244,-146.961182,,,
729608793.783208,-0.433803,-1.788369,61.080053,0.033127,-0.006226,0.994873,-0.000822,0.029052,-0.016801,61.805191,24.084244,-146.961182,,,
729608793.786567,-0.433803,-1.788369,61.080053,0.033127,-0.006226,0.994873,-0.000822,0.029052,-0.016801,62.103638,24.012695,-146.733627,,,
729608793.789887,-0.434894,-1.782605,61.075919,0.033127,-0.006226,0.994873,-0.000822,0.029052,-0.016801,62.103638,24.012695,-146.733627,,,
729608793.793204,-0.435171,-1.780847,61.072622,0.024185,-0.010269,0.992233,-0.002431,0.01465,-0.014998,62.103638,24.012695,-146.733627,,,
729608793.796539,-0.435171,-1.780847,61.072622,0.024185,-0.010269,0.992233,-0.002431,0.01465,-0.014998,62.103638,24.012695,-146.733627,,,
729608793.799876,-0.435947,-1.778919,61.070024,0.024185,-0.010269,0.992233,-0.002431,0.01465,-0.014998,62.103638,24.012695,-146.733627,,,
729608793.803213,-0.435563,-1.782465,61.068549,0.020355,-0.016998,0.995041,5.6e-05,0.001932,-0.006222,62.103638,24.012695,-146.733627,,,
729608793.806593,-0.435563,-1.782465,61.068549,0.020355,-0.016998,0.995041,5.6e-05,0.001932,-0.006222,62.103638,24.012695,-146.733627,,,
729608793.809966,-0.435147,-1.784924,61.068181,0.020355,-0.016998,0.995041,5.6e-05,0.001932,-0.006222,62.103638,24.012695,-146.733627,,,
729608793.813209,-0.435774,-1.792499,61.06754,0.02478,-0.01564,0.997772,-0.000152,-0.011196,-0.004239,62.103638,24.012695,-146.733627,,,
729608793.816554,-0.435774,-1.792499,61.06754,0.02478,-0.01564,0.997772,-0.000152,-0.011196,-0.004239,62.103638,24.012695,-146.733627,,,
729608793.819897,-0.436647,-1.796101,61.066824,0.02478,-0.01564,0.997772,-0.000152,-0.011196,-0.004239,62.103638,24.012695,-146.733627,,,
729608793.823217,-0.441412,-1.801925,61.067506,0.028931,-0.011246,0.998444,-0.006885,-0.004763,0.002221,62.103638,24.012695,-146.733627,,,
729608793.826547,-0.441412,-1.801925,61.067506,0.028931,-0.011246,0.998444,-0.006885,-0.004763,0.002221,62.121262,23.672516,-146.972427,,,
729608793.829884,-0.444247,-1.803662,61.070534,0.028931,-0.011246,0.998444,-0.006885,-0.004763,0.002221,62.121262,23.672516,-146.972427,,,
729608793.833218,-0.450203,-1.807667,61.075205,0.028229,-0.011536,1.001984,-0.010704,0.005757,0.017021,62.121262,23.672516,-146.972427,,,
729608793.836545,-0.450203,-1.807667,61.075205,0.028229,-0.011536,1.001984,-0.010704,0.005757,0.017021,62.121262,23.672516,-146.972427,,,
729608793.839886,-0.454102,-1.805694,61.080416,0.028229,-0.011536,1.001984,-0.010704,0.005757,0.017021,62.121262,23.672516,-146.972427,,,
729608793.843222,-0.459296,-1.808415,61.085052,0.036072,-0.011658,1.003662,-0.016408,0.011227,0.016075,62.121262,23.672516,-146.972427,,,
729608793.846612,-0.459296,-1.808415,61.085052,0.036072,-0.011658,1.003662,-0.016408,0.011227,0.016075,62.121262,23.672516,-146.972427,,,
729608793.849891,-0.463604,-1.808039,61.087913,0.036072,-0.011658,1.003662,-0.016408,0.011227,0.016075,62.121262,23.672516,-146.972427,,,
729608793.853218,-0.466619,-1.813171,61.088497,0.0457,-0.002411,1.002686,-0.013237,-0.002525,9.8e-05,62.121262,23.672516,-146.972427,,,
729608793.856555,-0.466619,-1.813171,61.088497,0.0457,-0.002411,1.002686,-0.013237,-0.002525,9.8e-05,62.121262,23.672516,-146.972427,,,
729608793.859943,-0.467976,-1.8187,61.086663,0.0457,-0.002411,1.002686,-0.013237,-0.002525,9.8e-05,62.121262,23.672516,-146.972427,,,
729608793.863212,-0.468176,-1.828108,61.082779,0.045395,0.001907,1.004272,9.3e-05,-0.025043,-0.013893,62.121262,23.672516,-146.972427,,,
729608793.866554,-0.468176,-1.828108,61.082779,0.045395,0.001907,1.004272,9.3e-05,-0.025043,-0.013893,62.110199,23.814758,-146.761597,,,
729608793.869911,-0.468017,-1.838221,61.077878,0.045395,0.001907,1.004272,9.3e-05,-0.025043,-0.013893,62.110199,23.814758,-146.761597,,,
729608793.873213,-0.466973,-1.847782,61.072939,0.044632,-0.003937,1.004288,0.004123,-0.033817,-0.019971,62.110199,23.814758,-146.761597,,,
729608793.876575,-0.466973,-1.847782,61.072939,0.044632,-0.003937,1.004288,0.004123,-0.033817,-0.019971,62.110199,23.814758,-146.761597,,,
729608793.879899,-0.464582,-1.858742,61.068044,0.044632,-0.003937,1.004288,0.004123,-0.033817,-0.019971,62.110199,23.814758,-146.761597,,,
729608793.883218,-0.46185,-1.866001,61.062839,0.045471,-0.009918,1.007217,0.014761,-0.037245,-0.019497,62.110199,23.814758,-146.761597,,,
729608793.886545,-0.46185,-1.866001,61.062839,0.045471,-0.009918,1.007217,0.014761,-0.037245,-0.019497,62.110199,23.814758,-146.761597,,,
729608793.889883,-0.455244,-1.876804,61.057113,0.045471,-0.009918,1.007217,0.014761,-0.037245,-0.019497,62.110199,23.814758,-146.761597,,,
729608793.893218,-0.449973,-1.882194,61.050651,0.046768,-0.006256,1.008942,0.029416,-0.028878,-0.025111,62.110199,23.814758,-146.761597,,,
729608793.896624,-0.449973,-1.882194,61.050651,0.046768,-0.006256,1.008942,0.029416,-0.028878,-0.025111,62.110199,23.814758,-146.761597,,,
729608793.899885,-0.441903,-1.887769,61.044314,0.046768,-0.006256,1.008942,0.029416,-0.028878,-0.025111,62.110199,23.814758,-146.761597,,,
729608793.903212,-0.434757,-1.887935,61.03919,0.041565,-0.007095,1.013306,0.034949,-0.003718,-0.023406,62.110199,23.814758,-146.761597,,,
729608793.906543,-0.434757,-1.887935,61.03919,0.041565,-0.007095,1.013306,0.034949,-0.003718,-0.023406,62.110199,23.814758,-146.761597,,,
729608793.909957,-0.4248,-1.886196,61.0351,0.041565,-0.007095,1.013306,0.034949,-0.003718,-0.023406,61.999191,23.806076,-146.864456,,,
729608793.913203,-0.4248,-1.886196,61.0351,0.034622,-0.010559,1.009567,0.036752,0.018296,-0.009877,61.999191,23.806076,-146.864456,,,
729608793.916559,-0.415745,-1.880034,61.032849,0.034622,-0.010559,1.009567,0.036752,0.018296,-0.009877,61.999191,23.806076,-146.864456,,,
729608793.919884,-0.404577,-1.873755,61.032125,0.034622,-0.010559,1.009567,0.036752,0.018296,-0.009877,61.999191,23.806076,-146.864456,,,
729608793.923218,-0.393202,-1.86656,61.03165,0.030426,-0.010712,1.006027,0.049196,0.02837,-0.00167,61.999191,23.806076,-146.864456,,,
729608793.926559,-0.393202,-1.86656,61.03165,0.030426,-0.010712,1.006027,0.049196,0.02837,-0.00167,61.999191,23.806076,-146.864456,,,
729608793.929896,-0.3789,-1.859771,61.03098,0.030426,-0.010712,1.006027,0.049196,0.02837,-0.00167,61.999191,23.806076,-146.864456,,,
729608793.933207,-0.3789,-1.856996,61.02959,0.038086,-0.004684,0.997498,0.051881,0.024624,-0.008137,61.999191,23.806076,-146.864456,,,
729608793.936546,-0.364514,-1.856996,61.02959,0.038086,-0.004684,0.997498,0.051881,0.024624,-0.008137,61.999191,23.806076,-146.864456,,,
729608793.939883,-0.350647,-1.851294,61.026435,0.038086,-0.004684,0.997498,0.051881,0.024624,-0.008137,61.999191,23.806076,-146.864456,,,
729608793.943248,-0.335605,-1.850849,61.021939,0.041107,0.005035,0.992523,0.045233,0.019455,-0.019373,61.999191,23.806076,-146.864456,,,
729608793.946578,-0.335605,-1.850849,61.021939,0.041107,0.005035,0.992523,0.045233,0.019455,-0.019373,61.999191,23.806076,-146.864456,,,
729608793.949878,-0.324472,-1.84796,61.016993,0.041107,0.005035,0.992523,0.045233,0.019455,-0.019373,62.054916,23.709869,-146.402481,,,
729608793.953282,-0.313636,-1.852213,61.011589,0.033661,0.005417,0.982407,0.033972,0.005513,-0.020906,62.054916,23.709869,-146.402481,,,
729608793.956564,-0.313636,-1.852213,61.011589,0.033661,0.005417,0.982407,0.033972,0.005513,-0.020906,62.054916,23.709869,-146.402481,,,
