Time (sec),Pitch (deg),Roll (deg),Yaw(deg),X-Acceleration (g),Y-Acceleration (g),Z-Acceleration (g),Pitch Rate (deg/sec),Roll Rate (deg/sec),Yaw Rate (deg/sec),Magnetic Field in X direction (uT),Magnetic Field in Y direction (uT),Magnetic Field in Z Direction (uT),Latitude (deg),Longitude (deg),Altitude (m)
729607152.218224,1.664461,1.8643,51.634947,-0.036346,0.025833,0.998093,-0.027191,-0.050983,-0.032474,64.187286,21.081177,-147.732559,,,
729607152.221463,1.655519,1.848611,51.626366,-0.036346,0.025833,0.998093,-0.027191,-0.050983,-0.032474,64.187286,21.081177,-147.732559,,,
729607152.224801,1.649029,1.836385,51.618105,-0.029877,0.023575,1.010208,-0.022839,-0.041099,-0.031559,64.187286,21.081177,-147.732559,,,
729607152.22813,1.649029,1.836385,51.618105,-0.029877,0.023575,1.010208,-0.022839,-0.041099,-0.031559,64.187286,21.081177,-147.732559,,,
729607152.231528,1.642572,1.830875,51.610922,-0.029877,0.023575,1.010208,-0.022839,-0.041099,-0.031559,64.187286,21.081177,-147.732559,,,
729607152.234786,1.63893,1.828722,51.605519,-0.029251,0.016113,1.022705,-0.01053,-0.008106,-0.021886,64.187286,21.081177,-147.732559,,,
729607152.23813,1.63893,1.828722,51.605519,-0.029251,0.016113,1.022705,-0.01053,-0.008106,-0.021886,64.187286,21.081177,-147.732559,,,
729607152.241472,1.635915,1.833376,51.602162,-0.029251,0.016113,1.022705,-0.01053,-0.008106,-0.021886,64.187286,21.081177,-147.732559,,,
729607152.244787,1.636598,1.840247,51.600699,-0.031265,0.01268,1.025375,0.006106,0.026522,-0.005234,64.187286,21.081177,-147.732559,,,
729607152.248139,1.636598,1.840247,51.600699,-0.031265,0.01268,1.025375,0.006106,0.026522,-0.005234,64.187286,21.081177,-147.732559,,,
729607152.251461,1.638959,1.849327,51.600102,-0.031265,0.01268,1.025375,0.006106,0.026522,-0.005234,64.187286,21.081177,-147.732559,,,
729607152.254793,1.643162,1.861376,51.599275,-0.028061,0.016693,1.016907,0.013807,0.047498,-0.005543,64.480392,21.153778,-147.63298,,,
729607152.258165,1.643162,1.861376,51.599275,-0.028061,0.016693,1.016907,0.013807,0.047498,-0.005543,64.480392,21.153778,-147.63298,,,
729607152.261478,1.648875,1.872921,51.596871,-0.028061,0.016693,1.016907,0.013807,0.047498,-0.005543,64.480392,21.153778,-147.63298,,,
729607152.264786,1.653763,1.884781,51.592245,-0.025894,0.024139,1.003769,0.017857,0.043344,-0.0132,64.480392,21.153778,-147.63298,,,
729607152.268217,1.653763,1.884781,51.592245,-0.025894,0.024139,1.003769,0.017857,0.043344,-0.0132,64.480392,21.153778,-147.63298,,,
729607152.271463,1.658563,1.897117,51.585908,-0.025894,0.024139,1.003769,0.017857,0.043344,-0.0132,64.480392,21.153778,-147.63298,,,
729607152.274794,1.662745,1.903495,51.578088,-0.027191,0.028381,0.991653,0.017078,0.024407,-0.026347,64.480392,21.153778,-147.63298,,,
729607152.278128,1.662745,1.903495,51.578088,-0.027191,0.028381,0.991653,0.017078,0.024407,-0.026347,64.480392,21.153778,-147.63298,,,
729607152.281539,1.664917,1.9094,51.569645,-0.027191,0.028381,0.991653,0.017078,0.024407,-0.026347,64.480392,21.153778,-147.63298,,,
729607152.284774,1.667616,1.906423,51.561588,-0.031555,0.025375,0.980362,0.007742,-0.007882,-0.028993,64.480392,21.153778,-147.63298,,,
729607152.28813,1.667616,1.906423,51.561588,-0.031555,0.025375,0.980362,0.007742,-0.007882,-0.028993,64.480392,21.153778,-147.63298,,,
729607152.291483,1.668575,1.903512,51.553471,-0.031555,0.025375,0.980362,0.007742,-0.007882,-0.028993,64.480392,21.153778,-147.63298,,,
729607152.294851,1.669516,1.89731,51.545646,-0.030548,0.024429,0.981659,0.004802,-0.01839,-0.026008,64.507675,20.990814,-147.538788,,,
729607152.298141,1.669516,1.89731,51.545646,-0.030548,0.024429,0.981659,0.004802,-0.01839,-0.026008,64.507675,20.990814,-147.538788,,,
729607152.301476,1.66881,1.89164,51.537774,-0.030548,0.024429,0.981659,0.004802,-0.01839,-0.026008,64.507675,20.990814,-147.538788,,,
729607152.304787,1.668503,1.887004,51.52929,-0.022369,0.030945,0.982315,-0.002638,-0.014892,-0.030897,64.507675,20.990814,-147.538788,,,
729607152.308194,1.668503,1.887004,51.52929,-0.022369,0.030945,0.982315,-0.002638,-0.014892,-0.030897,64.507675,20.990814,-147.538788,,,
729607152.311453,1.66583,1.88327,51.520677,-0.022369,0.030945,0.982315,-0.002638,-0.014892,-0.030897,64.507675,20.990814,-147.538788,,,
729607152.314788,1.663939,1.883886,51.512425,-0.017502,0.035645,0.984329,-0.005763,0.004814,-0.029077,64.507675,20.990814,-147.538788,,,
729607152.318142,1.663939,1.883886,51.512425,-0.017502,0.035645,0.984329,-0.005763,0.004814,-0.029077,64.507675,20.990814,-147.538788,,,
729607152.321543,1.657928,1.884856,51.504711,-0.017502,0.035645,0.984329,-0.005763,0.004814,-0.029077,64.507675,20.990814,-147.538788,,,
729607152.324834,1.654027,1.888411,51.49697,-0.015518,0.037033,0.97583,-0.01281,0.013126,-0.030314,64.507675,20.990814,-147.538788,,,
729607152.328185,1.654027,1.888411,51.49697,-0.015518,0.037033,0.97583,-0.01281,0.013126,-0.030314,64.507675,20.990814,-147.538788,,,
729607152.331483,1.645012,1.890936,51.488656,-0.015518,0.037033,0.97583,-0.01281,0.013126,-0.030314,64.507675,20.990814,-147.538788,,,
729607152.334788,1.637236,1.895276,51.479764,-0.016434,0.044098,0.971481,-0.023078,0.015524,-0.031415,64.372711,20.87114,-147.803726,,,
729607152.338135,1.637236,1.895276,51.479764,-0.016434,0.044098,0.971481,-0.023078,0.015524,-0.031415,64.372711,20.87114,-147.803726,,,
729607152.341474,1.625169,1.895537,51.46998,-0.016434,0.044098,0.971481,-0.023078,0.015524,-0.031415,64.372711,20.87114,-147.803726,,,
729607152.344788,1.613122,1.8967,51.458603,-0.019501,0.045639,0.965439,-0.038791,0.007674,-0.042805,64.372711,20.87114,-147.803726,,,
729607152.348219,1.613122,1.8967,51.458603,-0.019501,0.045639,0.965439,-0.038791,0.007674,-0.042805,64.372711,20.87114,-147.803726,,,
729607152.351463,1.598685,1.892335,51.446631,-0.019501,0.045639,0.965439,-0.038791,0.007674,-0.042805,64.372711,20.87114,-147.803726,,,
729607152.354857,1.583882,1.889596,51.434877,-0.030426,0.038437,0.969406,-0.049121,-0.007606,-0.04674,64.372711,20.87114,-147.803726,,,
729607152.35812,1.583882,1.889596,51.434877,-0.030426,0.038437,0.969406,-0.049121,-0.007606,-0.04674,64.372711,20.87114,-147.803726,,,
729607152.361506,1.570091,1.882886,51.423231,-0.030426,0.038437,0.969406,-0.049121,-0.007606,-0.04674,64.372711,20.87114,-147.803726,,,
729607152.364816,1.556334,1.876345,51.412319,-0.041962,0.034195,0.985092,-0.048197,-0.020812,-0.041915,64.372711,20.87114,-147.803726,,,
729607152.368141,1.556334,1.876345,51.412319,-0.041962,0.034195,0.985092,-0.048197,-0.020812,-0.041915,64.372711,20.87114,-147.803726,,,
729607152.371462,1.542519,1.869006,51.403253,-0.041962,0.034195,0.985092,-0.048197,-0.020812,-0.041915,64.372711,20.87114,-147.803726,,,
729607152.374812,1.542519,1.862166,51.396052,-0.049469,0.030655,0.996216,-0.04053,-0.021161,-0.026673,64.372711,20.87114,-147.803726,,,
729607152.378138,1.530689,1.862166,51.396052,-0.049469,0.030655,0.996216,-0.04053,-0.021161,-0.026673,64.555344,21.083435,-147.217041,,,
729607152.381472,1.520621,1.855519,51.390429,-0.049469,0.030655,0.996216,-0.04053,-0.021161,-0.026673,64.555344,21.083435,-147.217041,,,
729607152.384815,1.51193,1.852604,51.385508,-0.048172,0.028427,1.00975,-0.028123,-0.005477,-0.017643,64.555344,21.083435,-147.217041,,,
729607152.388186,1.51193,1.852604,51.385508,-0.048172,0.028427,1.00975,-0.028123,-0.005477,-0.017643,64.555344,21.083435,-147.217041,,,
729607152.391479,1.506378,1.846115,51.380484,-0.048172,0.028427,1.00975,-0.028123,-0.005477,-0.017643,64.555344,21.083435,-147.217041,,,
729607152.394788,1.50024,1.84739,51.375037,-0.048172,0.028427,1.00975,-0.021943,0.00659,-0.021676,64.555344,21.083435,-147.217041,,,
729607152.398147,1.50024,1.84739,51.375037,-0.039734,0.035858,1.009354,-0.021943,0.00659,-0.021676,64.555344,21.083435,-147.217041,,,
729607152.401547,1.496485,1.843962,51.369825,-0.039734,0.035858,1.009354,-0.021943,0.00659,-0.021676,64.555344,21.083435,-147.217041,,,
729607152.404818,1.490589,1.848403,51.364515,-0.041656,0.03653,1.008209,-0.021732,0.01835,-0.020747,64.555344,21.083435,-147.217041,,,
729607152.408139,1.490589,1.848403,51.364515,-0.041656,0.03653,1.008209,-0.021732,0.01835,-0.020747,64.555344,21.083435,-147.217041,,,
729607152.411458,1.487834,1.845142,51.360116,-0.041656,0.03653,1.008209,-0.021732,0.01835,-0.020747,64.555344,21.083435,-147.217041,,,
729607152.414786,1.487834,1.845142,51.356552,-0.041656,0.03653,1.008209,-0.016684,0.012046,-0.015039,64.555344,21.083435,-147.217041,,,
729607152.418169,1.483086,1.847111,51.356552,-0.047913,0.031281,1.006088,-0.016684,0.012046,-0.015039,64.534332,21.25766,-147.834106,,,
729607152.421464,1.484282,1.839592,51.353779,-0.047913,0.031281,1.006088,-0.016684,0.012046,-0.015039,64.534332,21.25766,-147.834106,,,
729607152.424841,1.482064,1.834827,51.351496,-0.051941,0.027328,1.010071,-0.002947,-0.013278,-0.007341,64.534332,21.25766,-147.834106,,,
729607152.428186,1.482064,1.834827,51.351496,-0.051941,0.027328,1.010071,-0.002947,-0.013278,-0.007341,64.534332,21.25766,-147.834106,,,
729607152.431488,1.484942,1.821832,51.349862,-0.051941,0.027328,1.010071,-0.002947,-0.013278,-0.007341,64.534332,21.25766,-147.834106,,,
729607152.434889,1.484942,1.809212,51.348529,-0.051941,0.027328,1.007065,-0.000194,-0.040845,-0.005191,64.534332,21.25766,-147.834106,,,
729607152.438134,1.4846,1.809212,51.348529,-0.052795,0.027054,1.007065,-0.000194,-0.040845,-0.005191,64.534332,21.25766,-147.834106,,,
729607152.44153,1.487568,1.797314,51.3478,-0.052795,0.027054,1.007065,-0.000194,-0.040845,-0.005191,64.534332,21.25766,-147.834106,,,
729607152.444794,1.487568,1.797314,51.3478,-0.052795,0.027054,1.007065,0.005038,-0.045301,-0.004266,64.534332,21.25766,-147.834106,,,
729607152.448135,1.488882,1.783653,51.347104,-0.046097,0.027176,1.009277,0.005038,-0.045301,-0.004266,64.534332,21.25766,-147.834106,,,
729607152.451485,1.493398,1.777032,51.34626,-0.046097,0.027176,1.009277,0.005038,-0.045301,-0.004266,64.534332,21.25766,-147.834106,,,
729607152.454812,1.493398,1.777032,51.34626,-0.032867,0.02858,1.016937,0.017041,-0.038312,-0.001309,64.534332,21.25766,-147.834106,,,
729607152.458158,1.497884,1.766204,51.345498,-0.032867,0.02858,1.016937,0.017041,-0.038312,-0.001309,64.49057,21.161835,-147.506424,,,
729607152.461454,1.504147,1.76747,51.344522,-0.032867,0.02858,1.016937,0.017041,-0.038312,-0.001309,64.49057,21.161835,-147.506424,,,
729607152.464833,1.504147,1.76747,51.344522,-0.032867,0.02858,1.016937,0.017041,-0.038312,-0.001309,64.49057,21.161835,-147.506424,,,
729607152.468125,1.511007,1.764025,51.344847,-0.025879,0.028732,1.017715,0.023832,-0.007227,-0.000459,64.49057,21.161835,-147.506424,,,
729607152.471458,1.519945,1.771219,51.34638,-0.025879,0.028732,1.017715,0.023832,-0.007227,-0.000459,64.49057,21.161835,-147.506424,,,
729607152.474861,1.519945,1.771219,51.34638,-0.025879,0.028732,1.017715,0.03147,0.020558,0.0101,64.49057,21.161835,-147.506424,,,
729607152.478205,1.528447,1.776655,51.34966,-0.033035,0.024292,1.00972,0.03147,0.020558,0.0101,64.49057,21.161835,-147.506424,,,
729607152.481458,1.539556,1.787927,51.35457,-0.033035,0.024292,1.00972,0.03147,0.020558,0.0101,64.49057,21.161835,-147.506424,,,
729607152.484812,1.539556,1.787927,51.35457,-0.033035,0.024292,1.00972,0.03147,0.020558,0.0101,64.49057,21.161835,-147.506424,,,
729607152.488136,1.548017,1.796407,51.360965,-0.04158,0.026199,0.993713,0.028838,0.035132,0.021962,64.49057,21.161835,-147.506424,,,
729607152.491507,1.556029,1.80939,51.36796,-0.04158,0.026199,0.993713,0.028838,0.035132,0.021962,64.49057,21.161835,-147.506424,,,
729607152.494823,1.556029,1.80939,51.36796,-0.04158,0.026199,0.993713,0.028838,0.035132,0.021962,64.49057,21.161835,-147.506424,,,
729607152.498118,1.559849,1.815094,51.375379,-0.046066,0.028839,0.978134,0.015376,0.021973,0.026926,64.503876,21.156204,-147.469498,,,
729607152.501459,1.561566,1.826861,51.382519,-0.046066,0.028839,0.978134,0.015376,0.021973,0.026926,64.503876,21.156204,-147.469498,,,
729607152.504872,1.561566,1.826861,51.382519,-0.046066,0.028839,0.978134,0.015376,0.021973,0.026926,64.503876,21.156204,-147.469498,,,
729607152.508126,1.560879,1.828374,51.389961,-0.052216,0.027054,0.974167,-0.002993,0.009587,0.023224,64.503876,21.156204,-147.469498,,,
729607152.511453,1.557792,1.836179,51.397657,-0.052216,0.027054,0.974167,-0.002993,0.009587,0.023224,64.503876,21.156204,-147.469498,,,
729607152.514877,1.557792,1.836179,51.397657,-0.052216,0.027054,0.974167,-0.002993,0.009587,0.023224,64.503876,21.156204,-147.469498,,,
729607152.518179,1.553836,1.830732,51.40626,-0.058701,0.024948,0.974594,-0.014818,-0.016369,0.029043,64.503876,21.156204,-147.469498,,,
729607152.521462,1.549162,1.830042,51.415486,-0.058701,0.024948,0.974594,-0.014818,-0.016369,0.029043,64.503876,21.156204,-147.469498,,,
729607152.524813,1.549162,1.830042,51.415486,-0.058701,0.024948,0.974594,-0.014818,-0.016369,0.029043,64.503876,21.156204,-147.469498,,,
729607152.528172,1.543871,1.81919,51.425721,-0.060532,0.020157,0.977829,-0.017654,-0.035392,0.035555,64.503876,21.156204,-147.469498,,,
729607152.531547,1.538375,1.812805,51.43639,-0.060532,0.020157,0.977829,-0.017654,-0.035392,0.035555,64.503876,21.156204,-147.469498,,,
729607152.53482,1.538375,1.812805,51.43639,-0.060532,0.020157,0.977829,-0.017654,-0.035392,0.035555,64.503876,21.156204,-147.469498,,,
729607152.538182,1.532177,1.803228,51.447368,-0.053101,0.020126,0.982391,-0.024176,-0.029934,0.038772,64.503876,21.156204,-147.469498,,,
729607152.541518,1.524432,1.794549,51.457996,-0.053101,0.020126,0.982391,-0.024176,-0.029934,0.038772,64.501678,20.99234,-147.721313,,,
729607152.544878,1.524432,1.794549,51.457996,-0.053101,0.020126,0.982391,-0.024176,-0.029934,0.038772,64.501678,20.99234,-147.721313,,,
729607152.548118,1.514743,1.790347,51.468376,-0.039764,0.021713,0.981705,-0.034704,-0.010864,0.033488,64.501678,20.99234,-147.721313,,,
729607152.551466,1.504647,1.787639,51.479066,-0.039764,0.021713,0.981705,-0.034704,-0.010864,0.033488,64.501678,20.99234,-147.721313,,,
729607152.554836,1.504647,1.787639,51.479066,-0.039764,0.021713,0.981705,-0.034704,-0.010864,0.033488,64.501678,20.99234,-147.721313,,,
729607152.558168,1.494211,1.78915,51.489477,-0.031967,0.022705,0.986816,-0.037286,0.010947,0.032825,64.501678,20.99234,-147.721313,,,
729607152.561453,1.48281,1.794564,51.49989,-0.031967,0.022705,0.986816,-0.037286,0.010947,0.032825,64.501678,20.99234,-147.721313,,,
729607152.564842,1.48281,1.794564,51.49989,-0.031967,0.022705,0.986816,-0.037286,0.010947,0.032825,64.501678,20.99234,-147.721313,,,
729607152.568107,1.472458,1.798028,51.511009,-0.032333,0.018219,0.988831,-0.039093,0.016278,0.0375,64.501678,20.99234,-147.721313,,,
729607152.571542,1.464223,1.808154,51.522417,-0.032333,0.018219,0.988831,-0.039093,0.016278,0.0375,64.501678,20.99234,-147.721313,,,
729607152.574835,1.464223,1.808154,51.522417,-0.032333,0.018219,0.988831,-0.039093,0.016278,0.0375,64.501678,20.99234,-147.721313,,,
729607152.578118,1.456476,1.814006,51.533507,-0.03154,0.016327,0.995377,-0.030096,0.02185,0.037232,64.501678,20.99234,-147.721313,,,
729607152.58147,1.450471,1.828431,51.543028,-0.03154,0.016327,0.995377,-0.030096,0.02185,0.037232,64.505188,21.187119,-147.669205,,,
729607152.584878,1.450471,1.828431,51.543028,-0.03154,0.016327,0.995377,-0.030096,0.02185,0.037232,64.505188,21.187119,-147.669205,,,
729607152.588125,1.445114,1.835348,51.551584,-0.025482,0.018036,1.002106,-0.017965,0.029911,0.028202,64.505188,21.187119,-147.669205,,,
729607152.591465,1.441276,1.852851,51.558958,-0.025482,0.018036,1.002106,-0.017965,0.029911,0.028202,64.505188,21.187119,-147.669205,,,
729607152.594801,1.441276,1.852851,51.558958,-0.025482,0.018036,1.002106,-0.017965,0.029911,0.028202,64.505188,21.187119,-147.669205,,,
729607152.598215,1.437421,1.858742,51.565366,-0.020798,0.021576,1.000427,-0.014677,0.024665,0.020256,64.505188,21.187119,-147.669205,,,
729607152.60147,1.433958,1.878013,51.57044,-0.020798,0.021576,1.000427,-0.014677,0.024665,0.020256,64.505188,21.187119,-147.669205,,,
729607152.604797,1.433958,1.878013,51.57044,-0.020798,0.021576,1.000427,-0.014677,0.024665,0.020256,64.505188,21.187119,-147.669205,,,
729607152.608141,1.431411,1.884581,51.57447,-0.019043,0.019165,1.001282,-0.008631,0.02578,0.011869,64.505188,21.187119,-147.669205,,,
729607152.611535,1.428122,1.904058,51.575725,-0.019043,0.019165,1.001282,-0.008631,0.02578,0.011869,64.505188,21.187119,-147.669205,,,
729607152.614771,1.428122,1.904058,51.575725,-0.019043,0.019165,1.001282,-0.008631,0.02578,0.011869,64.505188,21.187119,-147.669205,,,
729607152.618142,1.425579,1.911698,51.57483,-0.01062,0.023026,1.003448,-0.007521,0.030024,-0.005998,64.505188,21.187119,-147.669205,,,
729607152.621445,1.422436,1.926281,51.572291,-0.01062,0.023026,1.003448,-0.007521,0.030024,-0.005998,64.385651,21.362595,-147.60704,,,
729607152.624782,1.422436,1.926281,51.572291,-0.01062,0.023026,1.003448,-0.007521,0.030024,-0.005998,64.385651,21.362595,-147.60704,,,
729607152.628134,1.420625,1.934553,51.56914,-0.010498,0.020218,1.002182,-0.007716,0.031723,-0.011893,64.385651,21.362595,-147.60704,,,
729607152.631459,1.419313,1.943961,51.565416,-0.010498,0.020218,1.002182,-0.007716,0.031723,-0.011893,64.385651,21.362595,-147.60704,,,
729607152.634887,1.419313,1.943961,51.565416,-0.010498,0.020218,1.002182,-0.007716,0.031723,-0.011893,64.385651,21.362595,-147.60704,,,
729607152.638109,1.419893,1.951346,51.562294,-0.020325,0.014114,1.005829,0.003524,0.031069,-0.011728,64.385651,21.362595,-147.60704,,,
729607152.641464,1.422245,1.957096,51.560045,-0.020325,0.014114,1.005829,0.003524,0.031069,-0.011728,64.385651,21.362595,-147.60704,,,
729607152.644818,1.422245,1.957096,51.560045,-0.020325,0.014114,1.005829,0.003524,0.031069,-0.011728,64.385651,21.362595,-147.60704,,,
729607152.648214,1.426863,1.963946,51.557876,-0.024216,0.010605,1.01001,0.014393,0.029742,-0.009545,64.385651,21.362595,-147.60704,,,
729607152.651478,1.431329,1.97058,51.5557,-0.024216,0.010605,1.01001,0.014393,0.029742,-0.009545,64.385651,21.362595,-147.60704,,,
729607152.6548,1.431329,1.97058,51.5557,-0.024216,0.010605,1.01001,0.014393,0.029742,-0.009545,64.385651,21.362595,-147.60704,,,
729607152.658203,1.43811,1.978015,51.553508,-0.021378,0.015076,1.010101,0.023533,0.027169,-0.00745,64.385651,21.362595,-147.60704,,,
729607152.661519,1.442158,1.983932,51.55129,-0.021378,0.015076,1.010101,0.023533,0.027169,-0.00745,64.519882,21.356766,-147.424957,,,
729607152.664812,1.442158,1.983932,51.55129,-0.021378,0.015076,1.010101,0.023533,0.027169,-0.00745,64.519882,21.356766,-147.424957,,,
729607152.668152,1.447187,1.992624,51.548868,-0.020706,0.017899,1.002182,0.018387,0.03141,-0.008929,64.519882,21.356766,-147.424957,,,
729607152.671466,1.450227,1.996344,51.546432,-0.020706,0.017899,1.002182,0.018387,0.03141,-0.008929,64.519882,21.356766,-147.424957,,,
729607152.674864,1.450227,1.996344,51.546432,-0.020706,0.017899,1.002182,0.018387,0.03141,-0.008929,64.519882,21.356766,-147.424957,,,
729607152.678233,1.453724,2.005358,51.543212,-0.022476,0.02005,1.004135,0.014585,0.034091,-0.01293,64.519882,21.356766,-147.424957,,,
729607152.681466,1.456432,2.007339,51.539076,-0.022476,0.02005,1.004135,0.014585,0.034091,-0.01293,64.519882,21.356766,-147.424957,,,
729607152.684806,1.456432,2.007339,51.539076,-0.022476,0.02005,1.004135,0.014585,0.034091,-0.01293,64.519882,21.356766,-147.424957,,,
729607152.688194,1.460561,2.015094,51.533698,-0.021423,0.026352,1.003754,0.016048,0.030888,-0.019038,64.519882,21.356766,-147.424957,,,
729607152.69147,1.462891,2.013543,51.527993,-0.021423,0.026352,1.003754,0.016048,0.030888,-0.019038,64.519882,21.356766,-147.424957,,,
729607152.694795,1.462891,2.013543,51.527993,-0.021423,0.026352,1.003754,0.016048,0.030888,-0.019038,64.519882,21.356766,-147.424957,,,
729607152.698131,1.465893,2.01971,51.521999,-0.024994,0.028168,1.005554,0.012265,0.022585,-0.02298,64.519882,21.356766,-147.424957,,,
729607152.701522,1.468208,2.012391,51.51668,-0.024994,0.028168,1.005554,0.012265,0.022585,-0.02298,64.519882,21.356766,-147.424957,,,
729607152.704848,1.468208,2.012391,51.51668,-0.024994,0.028168,1.005554,0.012265,0.022585,-0.02298,64.66011,21.092453,-147.599503,,,
729607152.708129,1.469952,2.014586,51.51191,-0.030502,0.028351,1.00148,0.010252,0.013213,-0.018512,64.66011,21.092453,-147.599503,,,
729607152.711477,1.469194,2.005721,51.507385,-0.030502,0.028351,1.00148,0.010252,0.013213,-0.018512,64.66011,21.092453,-147.599503,,,
729607152.714845,1.469194,2.005721,51.507385,-0.030502,0.028351,1.00148,0.010252,0.013213,-0.018512,64.66011,21.092453,-147.599503,,,
729607152.718134,1.468993,2.004965,51.501604,-0.029297,0.030365,1.000076,-6.6e-05,-0.002092,-0.02085,64.66011,21.092453,-147.599503,,,
729607152.721467,1.464446,1.996186,51.495587,-0.029297,0.030365,1.000076,-6.6e-05,-0.002092,-0.02085,64.66011,21.092453,-147.599503,,,
729607152.724805,1.464446,1.996186,51.495587,-0.029297,0.030365,1.000076,-6.6e-05,-0.002092,-0.02085,64.66011,21.092453,-147.599503,,,
729607152.728223,1.461384,1.990792,51.488289,-0.02597,0.036072,0.999832,-0.007278,-0.013796,-0.029161,64.66011,21.092453,-147.599503,,,
729607152.731469,1.454538,1.979768,51.479,-0.02597,0.036072,0.999832,-0.007278,-0.013796,-0.029161,64.66011,21.092453,-147.599503,,,
729607152.734803,1.454538,1.979768,51.479,-0.02597,0.036072,0.999832,-0.007278,-0.013796,-0.029161,64.66011,21.092453,-147.599503,,,
729607152.738124,1.449923,1.973473,51.468674,-0.028931,0.037659,1.00235,-0.015549,-0.018242,-0.035485,64.66011,21.092453,-147.599503,,,
729607152.741551,1.443223,1.96135,51.458318,-0.028931,0.037659,1.00235,-0.015549,-0.018242,-0.035485,64.66011,21.092453,-147.599503,,,
729607152.744806,1.443223,1.96135,51.458318,-0.028931,0.037659,1.00235,-0.015549,-0.018242,-0.035485,64.77388,21.024429,-147.397324,,,
729607152.748149,1.440082,1.956006,51.448408,-0.03717,0.03418,1.007629,-0.006471,-0.017377,-0.038171,64.77388,21.024429,-147.397324,,,
729607152.751469,1.437493,1.945073,51.439818,-0.03717,0.03418,1.007629,-0.006471,-0.017377,-0.038171,64.77388,21.024429,-147.397324,,,
729607152.754847,1.437493,1.945073,51.439818,-0.03717,0.03418,1.007629,-0.006471,-0.017377,-0.038171,64.77388,21.024429,-147.397324,,,
729607152.75813,1.43811,1.940465,51.432992,-0.046722,0.025208,1.014648,0.005242,-0.014235,-0.024298,64.77388,21.024429,-147.397324,,,
729607152.761473,1.44055,1.931966,51.428876,-0.046722,0.025208,1.014648,0.005242,-0.014235,-0.024298,64.77388,21.024429,-147.397324,,,
729607152.764785,1.44055,1.931966,51.428876,-0.046722,0.025208,1.014648,0.005242,-0.014235,-0.024298,64.77388,21.024429,-147.397324,,,
729607152.768195,1.444801,1.930207,51.427071,-0.054932,0.020401,1.017838,0.015387,-0.0024,-0.004914,64.77388,21.024429,-147.397324,,,
729607152.771461,1.450021,1.924272,51.427184,-0.054932,0.020401,1.017838,0.015387,-0.0024,-0.004914,64.77388,21.024429,-147.397324,,,
729607152.774806,1.450021,1.924272,51.427184,-0.054932,0.020401,1.017838,0.015387,-0.0024,-0.004914,64.77388,21.024429,-147.397324,,,
729607152.778136,1.455459,1.925299,51.428509,-0.055862,0.02562,1.015625,0.019715,0.009099,0.004343,64.77388,21.024429,-147.397324,,,
729607152.781531,1.461045,1.923688,51.430937,-0.055862,0.02562,1.015625,0.019715,0.009099,0.004343,64.77388,21.024429,-147.397324,,,
729607152.784487,1.461045,1.923688,51.430937,-0.055862,0.02562,1.015625,0.019715,0.009099,0.004343,64.679718,21.144028,-147.345078,,,
729607152.788157,1.46544,1.923953,51.433745,-0.054291,0.02626,1.009933,0.016414,0.005026,0.008789,64.679718,21.144028,-147.345078,,,
729607152.79146,1.469997,1.920223,51.43697,-0.054291,0.02626,1.009933,0.016414,0.005026,0.008789,64.679718,21.144028,-147.345078,,,
729607152.794909,1.469997,1.920223,51.43697,-0.054291,0.02626,1.009933,0.016414,0.005026,0.008789,64.679718,21.144028,-147.345078,,,
729607152.798156,1.473508,1.914455,51.440155,-0.050735,0.026581,1.00058,0.013408,-0.015406,0.010376,64.679718,21.144028,-147.345078,,,
729607152.801458,1.47834,1.903288,51.442632,-0.050735,0.026581,1.00058,0.013408,-0.015406,0.010376,64.679718,21.144028,-147.345078,,,
729607152.804799,1.47834,1.903288,51.442632,-0.050735,0.026581,1.00058,0.013408,-0.015406,0.010376,64.679718,21.144028,-147.345078,,,
729607152.808204,1.48177,1.893249,51.443959,-0.042923,0.030899,1.004013,0.01197,-0.02757,0.003544,64.679718,21.144028,-147.345078,,,
729607152.811459,1.487449,1.878287,51.444373,-0.042923,0.030899,1.004013,0.01197,-0.02757,0.003544,64.679718,21.144028,-147.345078,,,
729607152.814791,1.487449,1.878287,51.444373,-0.042923,0.030899,1.004013,0.01197,-0.02757,0.003544,64.679718,21.144028,-147.345078,,,
729607152.818144,1.490464,1.864262,51.443759,-0.039917,0.033569,1.000809,0.012545,-0.046841,-0.006297,64.679718,21.144028,-147.345078,,,
729607152.82152,1.496345,1.849779,51.442737,-0.039917,0.033569,1.000809,0.012545,-0.046841,-0.006297,64.679718,21.144028,-147.345078,,,
729607152.824792,1.496345,1.849779,51.442737,-0.039917,0.033569,1.000809,0.012545,-0.046841,-0.006297,64.650909,21.103775,-147.746796,,,
729607152.828143,1.501256,1.836687,51.441904,-0.033325,0.02977,1.005951,0.017053,-0.044634,-0.002593,64.650909,21.103775,-147.746796,,,
729607152.831463,1.508296,1.828609,51.441953,-0.033325,0.02977,1.005951,0.017053,-0.044634,-0.002593,64.650909,21.103775,-147.746796,,,
729607152.834866,1.508296,1.828609,51.441953,-0.033325,0.02977,1.005951,0.017053,-0.044634,-0.002593,64.650909,21.103775,-147.746796,,,
729607152.838124,1.515522,1.819976,51.443407,-0.029343,0.028061,1.009857,0.029003,-0.030202,0.003042,64.650909,21.103775,-147.746796,,,
729607152.841535,1.524911,1.822562,51.446806,-0.029343,0.028061,1.009857,0.029003,-0.030202,0.003042,64.650909,21.103775,-147.746796,,,
729607152.844802,1.524911,1.822562,51.446806,-0.029343,0.028061,1.009857,0.029003,-0.030202,0.003042,64.650909,21.103775,-147.746796,,,
729607152.8482,1.539558,1.821527,51.452722,-0.029602,0.02475,1.015106,0.050066,0.003475,0.018808,64.650909,21.103775,-147.746796,,,
729607152.851468,1.556992,1.835517,51.459808,-0.029602,0.02475,1.015106,0.050066,0.003475,0.018808,64.650909,21.103775,-147.746796,,,
729607152.854799,1.556992,1.835517,51.459808,-0.029602,0.02475,1.015106,0.050066,0.003475,0.018808,64.650909,21.103775,-147.746796,,,
729607152.858161,1.579095,1.842612,51.468923,-0.031372,0.025208,1.01857,0.074513,0.028248,0.034543,64.650909,21.103775,-147.746796,,,
729607152.86153,1.603608,1.863626,51.479214,-0.031372,0.025208,1.01857,0.074513,0.028248,0.034543,64.650909,21.103775,-147.746796,,,
729607152.864798,1.603608,1.863626,51.479214,-0.031372,0.025208,1.01857,0.074513,0.028248,0.034543,64.650909,21.103775,-147.746796,,,
729607152.868141,1.630567,1.877535,51.490627,-0.036011,0.029022,1.013702,0.094179,0.052596,0.040286,64.475372,20.949265,-147.7836,,,
729607152.871454,1.657491,1.900643,51.502026,-0.036011,0.029022,1.013702,0.094179,0.052596,0.040286,64.475372,20.949265,-147.7836,,,
729607152.874809,1.657491,1.900643,51.502026,-0.036011,0.029022,1.013702,0.094179,0.052596,0.040286,64.475372,20.949265,-147.7836,,,
729607152.878142,1.683346,1.912897,51.513727,-0.039658,0.03241,0.996658,0.086601,0.046322,0.044012,64.475372,20.949265,-147.7836,,,
729607152.881445,1.706068,1.930071,51.525078,-0.039658,0.03241,0.996658,0.086601,0.046322,0.044012,64.475372,20.949265,-147.7836,,,
729607152.884797,1.706068,1.930071,51.525078,-0.039658,0.03241,0.996658,0.086601,0.046322,0.044012,64.475372,20.949265,-147.7836,,,
729607152.888209,1.726107,1.937674,51.535337,-0.037872,0.03537,0.980957,0.073031,0.030318,0.037754,64.475372,20.949265,-147.7836,,,
729607152.89145,1.744337,1.945057,51.543389,-0.037872,0.03537,0.980957,0.073031,0.030318,0.037754,64.475372,20.949265,-147.7836,,,
729607152.894804,1.744337,1.945057,51.543389,-0.037872,0.03537,0.980957,0.073031,0.030318,0.037754,64.475372,20.949265,-147.7836,,,
729607152.898122,1.759861,1.945746,51.549177,-0.034332,0.043564,0.976379,0.053136,0.006071,0.022441,64.475372,20.949265,-147.7836,,,
729607152.90155,1.772842,1.945564,51.552729,-0.034332,0.043564,0.976379,0.053136,0.006071,0.022441,64.475372,20.949265,-147.7836,,,
729607152.904795,1.772842,1.945564,51.552729,-0.034332,0.043564,0.976379,0.053136,0.006071,0.022441,64.475372,20.949265,-147.7836,,,
729607152.908139,1.783145,1.942014,51.554843,-0.03009,0.046997,0.972412,0.040335,-0.009771,0.00506,64.588531,20.850082,-147.68454,,,
729607152.911466,1.79077,1.937145,51.555963,-0.03009,0.046997,0.972412,0.040335,-0.009771,0.00506,64.588531,20.850082,-147.68454,,,
729607152.914863,1.79077,1.937145,51.555963,-0.03009,0.046997,0.972412,0.040335,-0.009771,0.00506,64.588531,20.850082,-147.68454,,,
729607152.918129,1.796622,1.935333,51.556195,-0.025757,0.040497,0.973724,0.019827,-0.003285,-0.000151,64.588531,20.850082,-147.68454,,,
729607152.921463,1.800477,1.933149,51.556811,-0.025757,0.040497,0.973724,0.019827,-0.003285,-0.000151,64.588531,20.850082,-147.68454,,,
729607152.924825,1.800477,1.933149,51.556811,-0.025757,0.040497,0.973724,0.019827,-0.003285,-0.000151,64.588531,20.850082,-147.68454,,,
729607152.928171,1.804178,1.935616,51.558905,-0.026337,0.034973,0.976379,0.011386,0.014734,0.003629,64.588531,20.850082,-147.68454,,,
729607152.931471,1.80536,1.938624,51.56293,-0.026337,0.034973,0.976379,0.011386,0.014734,0.003629,64.588531,20.850082,-147.68454,,,
729607152.93478,1.80536,1.938624,51.56293,-0.026337,0.034973,0.976379,0.011386,0.014734,0.003629,64.588531,20.850082,-147.68454,,,
729607152.938117,1.807396,1.944448,51.569177,-0.035248,0.025711,0.978958,0.006571,0.022239,0.022124,64.588531,20.850082,-147.68454,,,
729607152.941556,1.807848,1.949095,51.577519,-0.035248,0.025711,0.978958,0.006571,0.022239,0.022124,64.588531,20.850082,-147.68454,,,
729607152.944799,1.807848,1.949095,51.577519,-0.035248,0.025711,0.978958,0.006571,0.022239,0.022124,64.588531,20.850082,-147.68454,,,
729607152.948127,1.809562,1.953344,51.586925,-0.03746,0.019272,0.980042,0.005633,0.019388,0.03292,64.641586,20.873001,-147.772018,,,
729607152.951466,1.810638,1.957884,51.59592,-0.03746,0.019272,0.980042,0.005633,0.019388,0.03292,64.641586,20.873001,-147.772018,,,
729607152.954876,1.810638,1.957884,51.59592,-0.03746,0.019272,0.980042,0.005633,0.019388,0.03292,64.641586,20.873001,-147.772018,,,
729607152.958125,1.811675,1.959207,51.602537,-0.028625,0.02536,0.983246,0.003378,0.008582,0.022468,64.641586,20.873001,-147.772018,,,
729607152.961458,1.812659,1.961355,51.606263,-0.028625,0.02536,0.983246,0.003378,0.008582,0.022468,64.641586,20.873001,-147.772018,,,
729607152.96479,1.812659,1.961355,51.606263,-0.028625,0.02536,0.983246,0.003378,0.008582,0.022468,64.641586,20.873001,-147.772018,,,
729607152.968195,1.812445,1.961104,51.607932,-0.023773,0.031448,0.985352,-0.000803,0.001738,0.003259,64.641586,20.873001,-147.772018,,,
729607152.971459,1.81277,1.963065,51.607343,-0.023773,0.031448,0.985352,-0.000803,0.001738,0.003259,64.641586,20.873001,-147.772018,,,
729607152.974797,1.81277,1.963065,51.607343,-0.023773,0.031448,0.985352,-0.000803,0.001738,0.003259,64.641586,20.873001,-147.772018,,,
729607152.978125,1.810122,1.965072,51.605001,-0.023468,0.032974,0.988403,-0.008731,0.008273,-0.010366,64.641586,20.873001,-147.772018,,,
729607152.981522,1.808465,1.967709,51.601973,-0.023468,0.032974,0.988403,-0.008731,0.008273,-0.010366,64.641586,20.873001,-147.772018,,,
729607152.98478,1.808465,1.967709,51.601973,-0.023468,0.032974,0.988403,-0.008731,0.008273,-0.010366,64.641586,20.873001,-147.772018,,,
729607152.988114,1.800788,1.970983,51.598129,-0.021606,0.032166,0.982651,-0.027054,0.012219,-0.015592,64.629974,20.920258,-147.540237,,,
729607152.9915,1.793198,1.972459,51.593658,-0.021606,0.032166,0.982651,-0.027054,0.012219,-0.015592,64.629974,20.920258,-147.540237,,,
729607152.994837,1.793198,1.972459,51.593658,-0.021606,0.032166,0.982651,-0.027054,0.012219,-0.015592,64.629974,20.920258,-147.540237,,,
729607152.998198,1.7794,1.97776,51.588981,-0.021103,0.030029,0.977722,-0.047247,0.02187,-0.018574,64.629974,20.920258,-147.540237,,,
729607153.001468,1.763925,1.980841,51.584127,-0.021103,0.030029,0.977722,-0.047247,0.02187,-0.018574,64.629974,20.920258,-147.540237,,,
729607153.004791,1.763925,1.980841,51.584127,-0.021103,0.030029,0.977722,-0.047247,0.02187,-0.018574,64.629974,20.920258,-147.540237,,,
729607153.008148,1.744844,1.986726,51.579213,-0.02272,0.030029,0.97998,-0.065015,0.022756,-0.020784,64.629974,20.920258,-147.540237,,,
729607153.011487,1.724481,1.989355,51.574734,-0.02272,0.030029,0.97998,-0.065015,0.022756,-0.020784,64.629974,20.920258,-147.540237,,,
729607153.014798,1.724481,1.989355,51.574734,-0.02272,0.030029,0.97998,-0.065015,0.022756,-0.020784,64.629974,20.920258,-147.540237,,,
729607153.018144,1.703279,1.991711,51.570415,-0.028488,0.028091,0.981308,-0.073876,0.011089,-0.019798,64.629974,20.920258,-147.540237,,,
729607153.021531,1.680798,1.993809,51.56687,-0.028488,0.028091,0.981308,-0.073876,0.011089,-0.019798,64.629974,20.920258,-147.540237,,,
729607153.024785,1.680798,1.993809,51.56687,-0.028488,0.028091,0.981308,-0.073876,0.011089,-0.019798,64.629974,20.920258,-147.540237,,,
729607153.028133,1.658914,1.993693,51.565242,-0.037476,0.021362,0.994736,-0.07434,-0.000308,-0.011379,64.629974,20.920258,-147.540237,,,
729607153.031455,1.637526,1.992492,51.565447,-0.037476,0.021362,0.994736,-0.07434,-0.000308,-0.011379,64.634659,21.054062,-147.669693,,,
729607153.034779,1.637526,1.992492,51.565447,-0.037476,0.021362,0.994736,-0.07434,-0.000308,-0.011379,64.634659,21.054062,-147.669693,,,
729607153.038137,1.618512,1.990324,51.567267,-0.044266,0.012558,1.008896,-0.06689,-0.005289,0.003498,64.634659,21.054062,-147.669693,,,
729607153.041458,1.600691,1.985989,51.570157,-0.044266,0.012558,1.008896,-0.06689,-0.005289,0.003498,64.634659,21.054062,-147.669693,,,
729607153.04487,1.600691,1.985989,51.570157,-0.044266,0.012558,1.008896,-0.06689,-0.005289,0.003498,64.634659,21.054062,-147.669693,,,
729607153.048172,1.584699,1.984615,51.572884,-0.038589,0.012344,1.02298,-0.055309,0.000489,0.006799,64.634659,21.054062,-147.669693,,,
729607153.051466,1.571255,1.980546,51.574215,-0.038589,0.012344,1.02298,-0.055309,0.000489,0.006799,64.634659,21.054062,-147.669693,,,
729607153.054766,1.571255,1.980546,51.574215,-0.038589,0.012344,1.02298,-0.055309,0.000489,0.006799,64.634659,21.054062,-147.669693,,,
729607153.058235,1.558701,1.981074,51.573695,-0.03009,0.018616,1.028076,-0.044432,0.005831,-0.003729,64.634659,21.054062,-147.669693,,,
729607153.061452,1.549005,1.977717,51.571561,-0.03009,0.018616,1.028076,-0.044432,0.005831,-0.003729,64.634659,21.054062,-147.669693,,,
729607153.064817,1.549005,1.977717,51.571561,-0.03009,0.018616,1.028076,-0.044432,0.005831,-0.003729,64.634659,21.054062,-147.669693,,,
729607153.068179,1.53862,1.980756,51.567685,-0.027313,0.022079,1.022903,-0.035923,0.012658,-0.014782,64.634659,21.054062,-147.669693,,,
729607153.071359,1.529944,1.978146,51.563747,-0.027313,0.022079,1.022903,-0.035923,0.012658,-0.014782,64.495148,21.045609,-147.752792,,,
729607153.07481,1.529944,1.978146,51.563747,-0.027313,0.022079,1.022903,-0.035923,0.012658,-0.014782,64.495148,21.045609,-147.752792,,,
729607153.078114,1.52089,1.981092,51.560267,-0.029556,0.022171,1.017471,-0.033452,0.014901,-0.017043,64.495148,21.045609,-147.752792,,,
729607153.081469,1.512905,1.976443,51.557604,-0.029556,0.022171,1.017471,-0.033452,0.014901,-0.017043,64.495148,21.045609,-147.752792,,,
729607153.084855,1.512905,1.976443,51.557604,-0.029556,0.022171,1.017471,-0.033452,0.014901,-0.017043,64.495148,21.045609,-147.752792,,,
729607153.088131,1.504117,1.976249,51.555417,-0.033417,0.02356,1.007263,-0.030878,0.005817,-0.009738,64.495148,21.045609,-147.752792,,,
729607153.091481,1.495453,1.970101,51.554612,-0.033417,0.02356,1.007263,-0.030878,0.005817,-0.009738,64.495148,21.045609,-147.752792,,,
729607153.0948,1.495453,1.970101,51.554612,-0.033417,0.02356,1.007263,-0.030878,0.005817,-0.009738,64.495148,21.045609,-147.752792,,,
729607153.098203,1.485382,1.9665,51.554952,-0.037537,0.025772,1.003036,-0.036611,-0.009199,-0.001374,64.495148,21.045609,-147.752792,,,
729607153.101458,1.475333,1.960396,51.555733,-0.037537,0.025772,1.003036,-0.036611,-0.009199,-0.001374,64.495148,21.045609,-147.752792,,,
729607153.104804,1.475333,1.960396,51.555733,-0.037537,0.025772,1.003036,-0.036611,-0.009199,-0.001374,64.495148,21.045609,-147.752792,,,
729607153.10821,1.464868,1.954046,51.556692,-0.039246,0.031143,1.001419,-0.033943,-0.022424,0.000447,64.495148,21.045609,-147.752792,,,
729607153.111447,1.453306,1.949835,51.5575,-0.039246,0.031143,1.001419,-0.033943,-0.022424,0.000447,64.534409,21.251541,-147.520401,,,
729607153.114802,1.453306,1.949835,51.5575,-0.039246,0.031143,1.001419,-0.033943,-0.022424,0.000447,64.534409,21.251541,-147.520401,,,
729607153.118131,1.444614,1.940933,51.557797,-0.033829,0.034348,1.003067,-0.031215,-0.029739,-0.001035,64.534409,21.251541,-147.520401,,,
729607153.121468,1.433592,1.936239,51.557398,-0.033829,0.034348,1.003067,-0.031215,-0.029739,-0.001035,64.534409,21.251541,-147.520401,,,
729607153.124859,1.433592,1.936239,51.557398,-0.033829,0.034348,1.003067,-0.031215,-0.029739,-0.001035,64.534409,21.251541,-147.520401,,,
729607153.128159,1.426318,1.929619,51.556248,-0.026733,0.037476,1.007477,-0.022672,-0.019882,-0.005305,64.534409,21.251541,-147.520401,,,
729607153.131498,1.417756,1.924634,51.554691,-0.026733,0.037476,1.007477,-0.022672,-0.019882,-0.005305,64.534409,21.251541,-147.520401,,,
729607153.134899,1.417756,1.924634,51.554691,-0.026733,0.037476,1.007477,-0.022672,-0.019882,-0.005305,64.534409,21.251541,-147.520401,,,
729607153.138147,1.41234,1.919874,51.553151,-0.029541,0.035858,1.009079,-0.018343,-0.014736,-0.005794,64.534409,21.251541,-147.520401,,,
729607153.141501,1.407091,1.912497,51.552044,-0.029541,0.035858,1.009079,-0.018343,-0.014736,-0.005794,64.534409,21.251541,-147.520401,,,
729607153.144817,1.407091,1.912497,51.552044,-0.029541,0.035858,1.009079,-0.018343,-0.014736,-0.005794,64.534409,21.251541,-147.520401,,,
729607153.148199,1.404575,1.907895,51.551429,-0.033722,0.034088,1.004349,-0.010654,-0.013963,-0.002884,64.534409,21.251541,-147.520401,,,
729607153.151482,1.40258,1.899841,51.551137,-0.033722,0.034088,1.004349,-0.010654,-0.013963,-0.002884,64.534409,21.251541,-147.520401,,,
729607153.154797,1.40258,1.899841,51.551137,-0.033722,0.034088,1.004349,-0.010654,-0.013963,-0.002884,64.629654,21.13559,-147.708786,,,
729607153.158136,1.401977,1.894217,51.551613,-0.039017,0.032242,1.005203,-0.003334,-0.016515,0.000947,64.629654,21.13559,-147.708786,,,
729607153.161457,1.401063,1.886959,51.553415,-0.039017,0.032242,1.005203,-0.003334,-0.016515,0.000947,64.629654,21.13559,-147.708786,,,
729607153.164799,1.401063,1.886959,51.553415,-0.039017,0.032242,1.005203,-0.003334,-0.016515,0.000947,64.629654,21.13559,-147.708786,,,
729607153.168148,1.400953,1.879892,51.557172,-0.046951,0.032822,1.000076,0.001423,-0.020791,0.010384,64.629654,21.13559,-147.708786,,,
729607153.171529,1.401602,1.874601,51.562761,-0.046951,0.032822,1.000076,0.001423,-0.020791,0.010384,64.629654,21.13559,-147.708786,,,
729607153.174784,1.401602,1.874601,51.562761,-0.046951,0.032822,1.000076,0.001423,-0.020791,0.010384,64.629654,21.13559,-147.708786,,,
729607153.17817,1.402681,1.869443,51.569326,-0.048447,0.029236,1.007782,0.002344,-0.01286,0.019909,64.629654,21.13559,-147.708786,,,
729607153.181455,1.404678,1.867449,51.576574,-0.048447,0.029236,1.007782,0.002344,-0.01286,0.019909,64.629654,21.13559,-147.708786,,,
729607153.184843,1.404678,1.867449,51.576574,-0.048447,0.029236,1.007782,0.002344,-0.01286,0.019909,64.629654,21.13559,-147.708786,,,
729607153.188125,1.406718,1.863178,51.584366,-0.043304,0.032455,1.00325,0.00816,-0.011641,0.02522,64.629654,21.13559,-147.708786,,,
729607153.191496,1.406718,1.862012,51.592186,-0.043304,0.032455,1.00325,0.00816,-0.011641,0.02522,64.629654,21.13559,-147.708786,,,
729607153.194784,1.410834,1.862012,51.592186,-0.043304,0.032455,1.00325,0.00816,-0.011641,0.02522,64.756744,21.088211,-147.865692,,,
729607153.19821,1.413895,1.859677,51.600063,-0.041214,0.038147,0.99968,0.011372,-0.002952,0.02361,64.756744,21.088211,-147.865692,,,
729607153.201458,1.419452,1.856428,51.608245,-0.041214,0.038147,0.99968,0.011372,-0.002952,0.02361,64.756744,21.088211,-147.865692,,,
729607153.204797,1.419452,1.856428,51.608245,-0.041214,0.038147,0.99968,0.011372,-0.002952,0.02361,64.756744,21.088211,-147.865692,,,
729607153.208171,1.421558,1.853388,51.616544,-0.04039,0.039749,0.990631,0.00806,-0.005092,0.028132,64.756744,21.088211,-147.865692,,,
729607153.211444,1.421558,1.853388,51.616544,-0.04039,0.039749,0.990631,0.00806,-0.005092,0.028132,64.756744,21.088211,-147.865692,,,
729607153.214794,1.424499,1.845936,51.625033,-0.04039,0.039749,0.990631,0.00806,-0.005092,0.028132,64.756744,21.088211,-147.865692,,,
729607153.218119,1.423034,1.839229,51.633551,-0.037521,0.040955,0.974884,-0.004461,-0.020055,0.028998,64.756744,21.088211,-147.865692,,,
729607153.221537,1.421921,1.829603,51.642369,-0.037521,0.040955,0.974884,-0.004461,-0.020055,0.028998,64.756744,21.088211,-147.865692,,,
729607153.224774,1.421921,1.829603,51.642369,-0.037521,0.040955,0.974884,-0.004461,-0.020055,0.028998,64.756744,21.088211,-147.865692,,,
729607153.228113,1.417033,1.817147,51.651358,-0.032944,0.039825,0.970154,-0.02114,-0.040498,0.027587,64.756744,21.088211,-147.865692,,,
729607153.231443,1.417033,1.817147,51.651358,-0.032944,0.039825,0.970154,-0.02114,-0.040498,0.027587,64.756744,21.088211,-147.865692,,,
729607153.234867,1.411513,1.803325,51.660036,-0.032944,0.039825,0.970154,-0.02114,-0.040498,0.027587,64.533859,21.20871,-147.638657,,,
729607153.23811,1.403237,1.785747,51.668431,-0.031662,0.032806,0.97374,-0.03096,-0.057995,0.028422,64.533859,21.20871,-147.638657,,,
729607153.241452,1.403237,1.785747,51.668431,-0.031662,0.032806,0.97374,-0.03096,-0.057995,0.028422,64.533859,21.20871,-147.638657,,,
729607153.2448,1.396673,1.771461,51.675751,-0.031662,0.032806,0.97374,-0.03096,-0.057995,0.028422,64.533859,21.20871,-147.638657,,,
729607153.248118,1.388602,1.752902,51.681993,-0.022766,0.028641,0.982224,-0.028022,-0.061728,0.020355,64.533859,21.20871,-147.638657,,,
729607153.251459,1.388602,1.752902,51.681993,-0.022766,0.028641,0.982224,-0.028022,-0.061728,0.020355,64.533859,21.20871,-147.638657,,,
729607153.254786,1.383034,1.74451,51.687327,-0.022766,0.028641,0.982224,-0.028022,-0.061728,0.020355,64.533859,21.20871,-147.638657,,,
729607153.258155,1.378401,1.730391,51.692156,-0.01857,0.024918,0.998489,-0.01266,-0.048203,0.016927,64.533859,21.20871,-147.638657,,,
729607153.261541,1.378401,1.730391,51.692156,-0.01857,0.024918,0.998489,-0.01266,-0.048203,0.016927,64.533859,21.20871,-147.638657,,,
729607153.264797,1.377363,1.726327,51.697046,-0.01857,0.024918,0.998489,-0.01266,-0.048203,0.016927,64.533859,21.20871,-147.638657,,,
729607153.268119,1.377143,1.718324,51.702948,-0.017151,0.017273,1.009247,1.9e-05,-0.024469,0.019356,64.533859,21.20871,-147.638657,,,
729607153.271462,1.377143,1.718324,51.702948,-0.017151,0.017273,1.009247,1.9e-05,-0.024469,0.019356,64.533859,21.20871,-147.638657,,,
729607153.274802,1.379713,1.719493,51.709284,-0.017151,0.017273,1.009247,1.9e-05,-0.024469,0.019356,64.419861,21.153061,-147.791504,,,
729607153.278112,1.3798,1.719342,51.716596,-0.022125,0.00946,1.004425,-0.001189,0.003763,0.024913,64.419861,21.153061,-147.791504,,,
729607153.281457,1.3798,1.719342,51.716596,-0.022125,0.00946,1.004425,-0.001189,0.003763,0.024913,64.419861,21.153061,-147.791504,,,
729607153.284787,1.38264,1.72666,51.724263,-0.022125,0.00946,1.004425,-0.001189,0.003763,0.024913,64.419861,21.153061,-147.791504,,,
729607153.288115,1.381977,1.730649,51.731696,-0.025909,0.011276,1.002014,-0.004342,0.016133,0.024706,64.419861,21.153061,-147.791504,,,
729607153.291479,1.381977,1.730649,51.731696,-0.025909,0.011276,1.002014,-0.004342,0.016133,0.024706,64.419861,21.153061,-147.791504,,,
729607153.294785,1.384967,1.740249,51.738121,-0.025909,0.011276,1.002014,-0.004342,0.016133,0.024706,64.419861,21.153061,-147.791504,,,
729607153.298115,1.385504,1.745215,51.743984,-0.030014,0.015305,1.003708,0.000383,0.021072,0.017755,64.419861,21.153061,-147.791504,,,
729607153.301541,1.385504,1.745215,51.743984,-0.030014,0.015305,1.003708,0.000383,0.021072,0.017755,64.419861,21.153061,-147.791504,,,
729607153.304795,1.39061,1.752291,51.749447,-0.030014,0.015305,1.003708,0.000383,0.021072,0.017755,64.419861,21.153061,-147.791504,,,
729607153.308123,1.392099,1.755573,51.75442,-0.033981,0.01358,1.001328,0.005349,0.012991,0.016391,64.419861,21.153061,-147.791504,,,
729607153.311459,1.392099,1.755573,51.75442,-0.033981,0.01358,1.001328,0.005349,0.012991,0.016391,64.419861,21.153061,-147.791504,,,
729607153.314885,1.397506,1.758757,51.758888,-0.033981,0.01358,1.001328,0.005349,0.012991,0.016391,64.419861,21.153061,-147.791504,,,
729607153.318097,1.400364,1.759013,51.763261,-0.036392,0.016403,1.000992,0.012006,0.003815,0.014298,64.517136,21.20639,-147.76207,,,
729607153.321464,1.400364,1.759013,51.763261,-0.036392,0.016403,1.000992,0.012006,0.003815,0.014298,64.517136,21.20639,-147.76207,,,
729607153.324804,1.404775,1.757699,51.767604,-0.036392,0.016403,1.000992,0.012006,0.003815,0.014298,64.517136,21.20639,-147.76207,,,
729607153.328223,1.407324,1.756483,51.771558,-0.029083,0.021393,0.993286,0.006741,-0.003648,0.013472,64.517136,21.20639,-147.76207,,,
729607153.331464,1.407324,1.756483,51.771558,-0.029083,0.021393,0.993286,0.006741,-0.003648,0.013472,64.517136,21.20639,-147.76207,,,
729607153.334806,1.40956,1.750517,51.775263,-0.029083,0.021393,0.993286,0.006741,-0.003648,0.013472,64.517136,21.20639,-147.76207,,,
729607153.338113,1.409494,1.747811,51.778508,-0.026505,0.020599,0.990143,0.000958,-0.005673,0.009945,64.517136,21.20639,-147.76207,,,
729607153.341453,1.409494,1.747811,51.778508,-0.026505,0.020599,0.990143,0.000958,-0.005673,0.009945,64.517136,21.20639,-147.76207,,,
729607153.344782,1.407041,1.738248,51.781192,-0.026505,0.020599,0.990143,0.000958,-0.005673,0.009945,64.517136,21.20639,-147.76207,,,
729607153.34811,1.403955,1.734772,51.782757,-0.027863,0.018051,0.988556,-0.009555,-0.008858,0.000695,64.517136,21.20639,-147.76207,,,
729607153.35151,1.403955,1.734772,51.782757,-0.027863,0.018051,0.988556,-0.009555,-0.008858,0.000695,64.517136,21.20639,-147.76207,,,
729607153.354768,1.398619,1.725571,51.783391,-0.027863,0.018051,0.988556,-0.009555,-0.008858,0.000695,64.517136,21.20639,-147.76207,,,
729607153.358114,1.396045,1.720949,51.783469,-0.027267,0.017746,0.994797,-0.007676,-0.015821,-0.001213,64.498474,21.503708,-147.531982,,,
729607153.361463,1.396045,1.720949,51.783469,-0.027267,0.017746,0.994797,-0.007676,-0.015821,-0.001213,64.498474,21.503708,-147.531982,,,
729607153.364886,1.391435,1.71377,51.783878,-0.027267,0.017746,0.994797,-0.007676,-0.015821,-0.001213,64.498474,21.503708,-147.531982,,,
729607153.368117,1.391843,1.71123,51.784747,-0.027374,0.016312,1.00383,0.003282,-0.009251,0.00291,64.498474,21.503708,-147.531982,,,
729607153.371465,1.391843,1.71123,51.784747,-0.027374,0.016312,1.00383,0.003282,-0.009251,0.00291,64.498474,21.503708,-147.531982,,,
729607153.374801,1.391644,1.708869,51.78669,-0.027374,0.016312,1.00383,0.003282,-0.009251,0.00291,64.498474,21.503708,-147.531982,,,
729607153.378125,1.394478,1.709523,51.789869,-0.026001,0.013382,1.009216,0.012301,0.005238,0.011143,64.498474,21.503708,-147.531982,,,
729607153.38147,1.394478,1.709523,51.789869,-0.026001,0.013382,1.009216,0.012301,0.005238,0.011143,64.498474,21.503708,-147.531982,,,
729607153.384796,1.394964,1.713281,51.794037,-0.026001,0.013382,1.009216,0.012301,0.005238,0.011143,64.498474,21.503708,-147.531982,,,
729607153.388123,1.397229,1.719834,51.798599,-0.024094,0.015121,1.005386,0.008556,0.027176,0.014762,64.498474,21.503708,-147.531982,,,
729607153.391474,1.397229,1.719834,51.798599,-0.024094,0.015121,1.005386,0.008556,0.027176,0.014762,64.498474,21.503708,-147.531982,,,
729607153.394841,1.396885,1.731366,51.802968,-0.024094,0.015121,1.005386,0.008556,0.027176,0.014762,64.498474,21.503708,-147.531982,,,
729607153.398119,1.397403,1.741445,51.806942,-0.020538,0.017883,1.001724,0.003736,0.037765,0.01343,64.466217,21.243439,-147.851501,,,
729607153.401537,1.397403,1.741445,51.806942,-0.020538,0.017883,1.001724,0.003736,0.037765,0.01343,64.466217,21.243439,-147.851501,,,
729607153.404791,1.395629,1.751889,51.81087,-0.020538,0.017883,1.001724,0.003736,0.037765,0.01343,64.466217,21.243439,-147.851501,,,
729607153.408161,1.39381,1.757946,51.814696,-0.025375,0.022995,0.98938,-0.00493,0.0249,0.012612,64.466217,21.243439,-147.851501,,,
729607153.411441,1.39381,1.757946,51.814696,-0.025375,0.022995,0.98938,-0.00493,0.0249,0.012612,64.466217,21.243439,-147.851501,,,
729607153.414855,1.389704,1.759482,51.817865,-0.025375,0.022995,0.98938,-0.00493,0.0249,0.012612,64.466217,21.243439,-147.851501,,,
729607153.41812,1.385085,1.75923,51.819867,-0.025116,0.026352,0.985474,-0.017382,0.002176,0.006624,64.466217,21.243439,-147.851501,,,
729607153.421447,1.385085,1.75923,51.819867,-0.025116,0.026352,0.985474,-0.017382,0.002176,0.006624,64.466217,21.243439,-147.851501,,,
729607153.424799,1.379072,1.753779,51.82025,-0.025116,0.026352,0.985474,-0.017382,0.002176,0.006624,64.466217,21.243439,-147.851501,,,
729607153.428113,1.373221,1.746135,51.819162,-0.023773,0.028107,0.988434,-0.021976,-0.021802,-0.006185,64.466217,21.243439,-147.851501,,,
729607153.431464,1.373221,1.746135,51.819162,-0.023773,0.028107,0.988434,-0.021976,-0.021802,-0.006185,64.466217,21.243439,-147.851501,,,
729607153.434774,1.365228,1.734826,51.81693,-0.023773,0.028107,0.988434,-0.021976,-0.021802,-0.006185,64.466217,21.243439,-147.851501,,,
729607153.438115,1.357324,1.722868,51.81454,-0.019745,0.029388,0.993317,-0.023998,-0.038952,-0.010257,64.417725,21.244858,-147.532242,,,
729607153.441448,1.357324,1.722868,51.81454,-0.019745,0.029388,0.993317,-0.023998,-0.038952,-0.010257,64.417725,21.244858,-147.532242,,,
729607153.444793,1.347491,1.70984,51.812463,-0.019745,0.029388,0.993317,-0.023998,-0.038952,-0.010257,64.417725,21.244858,-147.532242,,,
729607153.448118,1.339295,1.700346,51.810863,-0.022385,0.025528,0.998795,-0.029581,-0.030208,-0.008285,64.417725,21.244858,-147.532242,,,
729607153.451501,1.339295,1.700346,51.810863,-0.022385,0.025528,0.998795,-0.029581,-0.030208,-0.008285,64.417725,21.244858,-147.532242,,,
729607153.454789,1.329658,1.692201,51.810094,-0.022385,0.025528,0.998795,-0.029581,-0.030208,-0.008285,64.417725,21.244858,-147.532242,,,
729607153.458133,1.322066,1.687153,51.809416,-0.020508,0.0224,1.006851,-0.025568,-0.012999,-0.00446,64.417725,21.244858,-147.532242,,,
729607153.46147,1.322066,1.687153,51.809416,-0.020508,0.0224,1.006851,-0.025568,-0.012999,-0.00446,64.417725,21.244858,-147.532242,,,
729607153.464889,1.312547,1.681981,51.808555,-0.020508,0.0224,1.006851,-0.025568,-0.012999,-0.00446,64.417725,21.244858,-147.532242,,,
729607153.468118,1.306236,1.680044,51.807451,-0.019073,0.023819,1.008301,-0.020473,-0.004361,-0.006815,64.417725,21.244858,-147.532242,,,
729607153.471471,1.306236,1.680044,51.807451,-0.019073,0.023819,1.008301,-0.020473,-0.004361,-0.006815,64.417725,21.244858,-147.532242,,,
729607153.47482,1.299437,1.676265,51.80646,-0.019073,0.023819,1.008301,-0.020473,-0.004361,-0.006815,64.417725,21.244858,-147.532242,,,
729607153.478119,1.294327,1.677653,51.806111,-0.024689,0.0215,1.011276,-0.017154,0.009406,-0.005793,64.417725,21.244858,-147.532242,,,
729607153.481459,1.294327,1.677653,51.806111,-0.024689,0.0215,1.011276,-0.017154,0.009406,-0.005793,64.592316,21.189529,-147.792358,,,
729607153.484781,1.289689,1.677593,51.806132,-0.024689,0.0215,1.011276,-0.017154,0.009406,-0.005793,64.592316,21.189529,-147.792358,,,
729607153.488122,1.286062,1.680948,51.806574,-0.036209,0.020523,1.014359,-0.012756,0.015089,0.000629,64.592316,21.189529,-147.792358,,,
729607153.491565,1.286062,1.680948,51.806574,-0.036209,0.020523,1.014359,-0.012756,0.015089,0.000629,64.592316,21.189529,-147.792358,,,
729607153.494769,1.284337,1.682309,51.808252,-0.036209,0.020523,1.014359,-0.012756,0.015089,0.000629,64.592316,21.189529,-147.792358,,,
729607153.498124,1.283562,1.683838,51.811136,-0.042053,0.017654,1.010925,-0.004774,0.010089,0.009198,64.592316,21.189529,-147.792358,,,
729607153.501515,1.283562,1.683838,51.811136,-0.042053,0.017654,1.010925,-0.004774,0.010089,0.009198,64.592316,21.189529,-147.792358,,,
729607153.504795,1.284581,1.682514,51.81428,-0.042053,0.017654,1.010925,-0.004774,0.010089,0.009198,64.592316,21.189529,-147.792358,,,
729607153.508113,1.285975,1.681437,51.816363,-0.039368,0.020706,1.009293,0.00564,-0.000435,0.004891,64.592316,21.189529,-147.792358,,,
729607153.511468,1.285975,1.681437,51.816363,-0.039368,0.020706,1.009293,0.00564,-0.000435,0.004891,64.592316,21.189529,-147.792358,,,
729607153.514867,1.289472,1.675415,51.81677,-0.039368,0.020706,1.009293,0.00564,-0.000435,0.004891,64.592316,21.189529,-147.792358,,,
729607153.518116,1.291855,1.672293,51.815035,-0.035019,0.027267,1.000763,0.009881,-0.007408,-0.007143,64.592316,21.189529,-147.792358,,,
729607153.521453,1.291855,1.672293,51.815035,-0.035019,0.027267,1.000763,0.009881,-0.007408,-0.007143,64.294205,21.444901,-147.653915,,,
729607153.52486,1.29458,1.666476,51.812066,-0.035019,0.027267,1.000763,0.009881,-0.007408,-0.007143,64.294205,21.444901,-147.653915,,,
729607153.528219,1.295187,1.66518,51.809014,-0.03775,0.02774,0.992157,0.004496,-0.004059,-0.012447,64.294205,21.444901,-147.653915,,,
729607153.53149,1.295187,1.66518,51.809014,-0.03775,0.02774,0.992157,0.004496,-0.004059,-0.012447,64.294205,21.444901,-147.653915,,,
729607153.534788,1.294985,1.661423,51.80737,-0.03775,0.02774,0.992157,0.004496,-0.004059,-0.012447,64.294205,21.444901,-147.653915,,,
729607153.538162,1.293615,1.661507,51.807655,-0.042465,0.021118,0.982849,-0.005167,0.001361,-0.000136,64.294205,21.444901,-147.653915,,,
729607153.541564,1.293615,1.661507,51.807655,-0.042465,0.021118,0.982849,-0.005167,0.001361,-0.000136,64.294205,21.444901,-147.653915,,,
729607153.544802,1.291895,1.657795,51.809995,-0.042465,0.021118,0.982849,-0.005167,0.001361,-0.000136,64.294205,21.444901,-147.653915,,,
729607153.54812,1.289735,1.661194,51.814292,-0.043869,0.016586,0.978485,-0.006175,0.017779,0.014176,64.294205,21.444901,-147.653915,,,
729607153.551472,1.289735,1.661194,51.814292,-0.043869,0.016586,0.978485,-0.006175,0.017779,0.014176,64.294205,21.444901,-147.653915,,,
729607153.554878,1.287914,1.664707,51.821141,-0.043869,0.016586,0.978485,-0.006175,0.017779,0.014176,64.294205,21.444901,-147.653915,,,
729607153.558108,1.286781,1.675172,51.82965,-0.050079,0.014694,0.97728,-0.00551,0.039139,0.028928,64.294205,21.444901,-147.653915,,,
729607153.561452,1.286781,1.675172,51.82965,-0.050079,0.014694,0.97728,-0.00551,0.039139,0.028928,64.437241,21.225586,-147.50766,,,
729607153.564799,1.286494,1.688216,51.839575,-0.050079,0.014694,0.97728,-0.00551,0.039139,0.028928,64.437241,21.225586,-147.50766,,,
729607153.568115,1.286825,1.7032,51.850063,-0.050644,0.017746,0.977386,0.002566,0.058671,0.038474,64.437241,21.225586,-147.50766,,,
729607153.571464,1.286825,1.7032,51.850063,-0.050644,0.017746,0.977386,0.002566,0.058671,0.038474,64.437241,21.225586,-147.50766,,,
729607153.574801,1.285456,1.722009,51.860078,-0.050644,0.017746,0.977386,0.002566,0.058671,0.038474,64.437241,21.225586,-147.50766,,,
729607153.578123,1.282879,1.735491,51.869682,-0.045181,0.022141,0.963333,-0.007793,0.050013,0.032112,64.437241,21.225586,-147.50766,,,
729607153.581513,1.282879,1.735491,51.869682,-0.045181,0.022141,0.963333,-0.007793,0.050013,0.032112,64.437241,21.225586,-147.50766,,,
729607153.58479,1.277005,1.752561,51.878281,-0.045181,0.022141,0.963333,-0.007793,0.050013,0.032112,64.437241,21.225586,-147.50766,,,
729607153.588121,1.268996,1.76322,51.886432,-0.041565,0.025864,0.952423,-0.03011,0.042131,0.026172,64.437241,21.225586,-147.50766,,,
729607153.591467,1.268996,1.76322,51.886432,-0.041565,0.025864,0.952423,-0.03011,0.042131,0.026172,64.437241,21.225586,-147.50766,,,
729607153.594818,1.257741,1.773265,51.893931,-0.041565,0.025864,0.952423,-0.03011,0.042131,0.026172,64.437241,21.225586,-147.50766,,,
729607153.598113,1.243564,1.776386,51.901023,-0.041946,0.02356,0.949249,-0.050627,0.012775,0.02071,64.437241,21.225586,-147.50766,,,
729607153.601448,1.243564,1.776386,51.901023,-0.041946,0.02356,0.949249,-0.050627,0.012775,0.02071,64.387054,21.308792,-147.494995,,,
729607153.604889,1.2283,1.777234,51.908549,-0.041946,0.02356,0.949249,-0.050627,0.012775,0.02071,64.387054,21.308792,-147.494995,,,
729607153.608103,1.210419,1.773415,51.916228,-0.036469,0.018738,0.954575,-0.059253,-0.010973,0.026558,64.387054,21.308792,-147.494995,,,
729607153.611457,1.210419,1.773415,51.916228,-0.036469,0.018738,0.954575,-0.059253,-0.010973,0.026558,64.387054,21.308792,-147.494995,,,
729607153.614775,1.192127,1.771479,51.923959,-0.036469,0.018738,0.954575,-0.059253,-0.010973,0.026558,64.387054,21.308792,-147.494995,,,
729607153.618113,1.172348,1.766847,51.931633,-0.026535,0.021942,0.96846,-0.065706,-0.015178,0.021993,64.387054,21.308792,-147.494995,,,
729607153.621474,1.172348,1.766847,51.931633,-0.026535,0.021942,0.96846,-0.065706,-0.015178,0.021993,64.387054,21.308792,-147.494995,,,
729607153.624796,1.152076,1.767937,51.937577,-0.026535,0.021942,0.96846,-0.065706,-0.015178,0.021993,64.387054,21.308792,-147.494995,,,
729607153.62812,1.131834,1.769674,51.941519,-0.005951,0.027649,0.981934,-0.071428,0.008352,0.008479,64.387054,21.308792,-147.494995,,,
729607153.631537,1.131834,1.769674,51.941519,-0.005951,0.027649,0.981934,-0.071428,0.008352,0.008479,64.387054,21.308792,-147.494995,,,
729607153.634796,1.11134,1.780952,51.943435,-0.005951,0.027649,0.981934,-0.071428,0.008352,0.008479,64.387054,21.308792,-147.494995,,,
729607153.638122,1.091815,1.793216,51.94403,0.002441,0.02713,0.993774,-0.065731,0.045842,-0.002386,64.387054,21.308792,-147.494995,,,
729607153.64145,1.091815,1.793216,51.94403,0.002441,0.02713,0.993774,-0.065731,0.045842,-0.002386,64.387054,21.308792,-147.494995,,,
729607153.644823,1.073162,1.814703,51.943267,0.002441,0.02713,0.993774,-0.065731,0.045842,-0.002386,64.561462,21.550888,-147.945297,,,
729607153.648123,1.05624,1.834737,51.941345,0.001236,0.020401,1.001389,-0.058236,0.068275,-0.009269,64.561462,21.550888,-147.945297,,,
729607153.651463,1.05624,1.834737,51.941345,0.001236,0.020401,1.001389,-0.058236,0.068275,-0.009269,64.561462,21.550888,-147.945297,,,
729607153.654788,1.041174,1.859382,51.938143,0.001236,0.020401,1.001389,-0.058236,0.068275,-0.009269,64.561462,21.550888,-147.945297,,,
729607153.658235,1.027201,1.880008,51.933643,-0.010773,0.016037,1.006577,-0.048741,0.07964,-0.021341,64.561462,21.550888,-147.945297,,,
729607153.661477,1.027201,1.880008,51.933643,-0.010773,0.016037,1.006577,-0.048741,0.07964,-0.021341,64.561462,21.550888,-147.945297,,,
729607153.664815,1.015063,1.902078,51.928319,-0.010773,0.016037,1.006577,-0.048741,0.07964,-0.021341,64.561462,21.550888,-147.945297,,,
729607153.66812,1.003307,1.91803,51.922544,-0.024551,0.01033,1.008636,-0.040536,0.059614,-0.025397,64.561462,21.550888,-147.945297,,,
729607153.671544,1.003307,1.91803,51.922544,-0.024551,0.01033,1.008636,-0.040536,0.059614,-0.025397,64.561462,21.550888,-147.945297,,,
729607153.67486,0.993276,1.932338,51.916635,-0.024551,0.01033,1.008636,-0.040536,0.059614,-0.025397,64.561462,21.550888,-147.945297,,,
729607153.678114,0.983441,1.941178,51.910926,-0.037857,0.0047,1.006973,-0.033954,0.030956,-0.024243,64.561462,21.550888,-147.945297,,,
729607153.68147,0.983441,1.941178,51.910926,-0.037857,0.0047,1.006973,-0.033954,0.030956,-0.024243,64.561462,21.550888,-147.945297,,,
729607153.684861,0.975207,1.950626,51.905263,-0.037857,0.0047,1.006973,-0.033954,0.030956,-0.024243,64.797745,21.501129,-147.823975,,,
729607153.688109,0.968051,1.957701,51.900542,-0.041855,0.002533,1.017044,-0.023311,0.026356,-0.018027,64.797745,21.501129,-147.823975,,,
