Time (sec),Pitch (deg),Roll (deg),Yaw(deg),X-Acceleration (g),Y-Acceleration (g),Z-Acceleration (g),Pitch Rate (deg/sec),Roll Rate (deg/sec),Yaw Rate (deg/sec),Magnetic Field in X direction (uT),Magnetic Field in Y direction (uT),Magnetic Field in Z Direction (uT),Latitude (deg),Longitude (deg),Altitude (m)
729600931.425837,0.988402,0.870238,-3.826008,-0.007767,0.015778,0.996887,-0.033572,-0.029052,0.003884,67.305618,8.960205,-147.474258,,,
729600931.429126,0.973559,0.865244,-3.823388,-0.00293,0.020187,0.989014,-0.050382,-0.017127,0.007755,67.261688,8.969742,-147.31102,,,
729600931.432529,0.973559,0.865244,-3.823388,-0.00293,0.020187,0.989014,-0.050382,-0.017127,0.007755,67.261688,8.969742,-147.31102,,,
729600931.435807,0.958304,0.861443,-3.820206,-0.00293,0.020187,0.989014,-0.050382,-0.017127,0.007755,67.261688,8.969742,-147.31102,,,
729600931.43913,0.941977,0.86308,-3.816724,-0.002625,0.020721,0.994339,-0.052348,0.009337,0.009979,67.261688,8.969742,-147.31102,,,
729600931.44251,0.941977,0.86308,-3.816724,-0.002625,0.020721,0.994339,-0.052348,0.009337,0.009979,67.261688,8.969742,-147.31102,,,
729600931.445869,0.927356,0.866548,-3.813298,-0.002625,0.020721,0.994339,-0.052348,0.009337,0.009979,67.261688,8.969742,-147.31102,,,
729600931.449121,0.913685,0.872656,-3.81049,0.000702,0.019897,1.002579,-0.043111,0.02338,0.005891,67.261688,8.969742,-147.31102,,,
729600931.452477,0.913685,0.872656,-3.81049,0.000702,0.019897,1.002579,-0.043111,0.02338,0.005891,67.261688,8.969742,-147.31102,,,
729600931.45581,0.901646,0.877793,-3.808932,0.000702,0.019897,1.002579,-0.043111,0.02338,0.005891,67.261688,8.969742,-147.31102,,,
729600931.459165,0.890502,0.880008,-3.809013,0.002197,0.021194,1.001968,-0.034846,0.006402,-0.005453,67.261688,8.969742,-147.31102,,,
729600931.46247,0.890502,0.880008,-3.809013,0.002197,0.021194,1.001968,-0.034846,0.006402,-0.005453,67.261688,8.969742,-147.31102,,,
729600931.465834,0.879972,0.879447,-3.811303,0.002197,0.021194,1.001968,-0.034846,0.006402,-0.005453,67.261688,8.969742,-147.31102,,,
729600931.469136,0.869165,0.874781,-3.815797,-0.001755,0.020752,0.991959,-0.037404,-0.012589,-0.020971,67.43042,9.119583,-147.219986,,,
729600931.472433,0.869165,0.874781,-3.815797,-0.001755,0.020752,0.991959,-0.037404,-0.012589,-0.020971,67.43042,9.119583,-147.219986,,,
729600931.475874,0.85847,0.869425,-3.82148,-0.001755,0.020752,0.991959,-0.037404,-0.012589,-0.020971,67.43042,9.119583,-147.219986,,,
729600931.479127,0.848053,0.860348,-3.827447,-0.012848,0.013092,0.991409,-0.03427,-0.02758,-0.023054,67.43042,9.119583,-147.219986,,,
729600931.482533,0.848053,0.860348,-3.827447,-0.012848,0.013092,0.991409,-0.03427,-0.02758,-0.023054,67.43042,9.119583,-147.219986,,,
729600931.485801,0.837804,0.849444,-3.832974,-0.012848,0.013092,0.991409,-0.03427,-0.02758,-0.023054,67.43042,9.119583,-147.219986,,,
729600931.489125,0.827685,0.834453,-3.837745,-0.019043,0.005081,0.989075,-0.033868,-0.047699,-0.017889,67.43042,9.119583,-147.219986,,,
729600931.492523,0.827685,0.834453,-3.837745,-0.019043,0.005081,0.989075,-0.033868,-0.047699,-0.017889,67.43042,9.119583,-147.219986,,,
729600931.495829,0.817788,0.819613,-3.841759,-0.019043,0.005081,0.989075,-0.033868,-0.047699,-0.017889,67.43042,9.119583,-147.219986,,,
729600931.499124,0.810464,0.802712,-3.844614,-0.015411,0.005737,0.991806,-0.022054,-0.047854,-0.009797,67.43042,9.119583,-147.219986,,,
729600931.502473,0.810464,0.802712,-3.844614,-0.015411,0.005737,0.991806,-0.022054,-0.047854,-0.009797,67.43042,9.119583,-147.219986,,,
729600931.505799,0.805578,0.788369,-3.847622,-0.015411,0.005737,0.991806,-0.022054,-0.047854,-0.009797,67.43042,9.119583,-147.219986,,,
729600931.509211,0.804726,0.7717,-3.851932,-0.005157,0.009216,1.005875,-0.005815,-0.046513,-0.018879,67.43042,9.119583,-147.219986,,,
729600931.512455,0.804726,0.7717,-3.851932,-0.005157,0.009216,1.005875,-0.005815,-0.046513,-0.018879,67.310593,9.116821,-147.528076,,,
729600931.515809,0.803576,0.758121,-3.857634,-0.005157,0.009216,1.005875,-0.005815,-0.046513,-0.018879,67.310593,9.116821,-147.528076,,,
729600931.519119,0.804538,0.743819,-3.864683,0.000183,0.014542,1.001358,-0.000497,-0.031894,-0.028478,67.310593,9.116821,-147.528076,,,
729600931.522516,0.804538,0.743819,-3.864683,0.000183,0.014542,1.001358,-0.000497,-0.031894,-0.028478,67.310593,9.116821,-147.528076,,,
729600931.525841,0.803874,0.73616,-3.873169,0.000183,0.014542,1.001358,-0.000497,-0.031894,-0.028478,67.310593,9.116821,-147.528076,,,
729600931.529116,0.804317,0.730273,-3.883163,0.002426,0.016983,0.9944,-0.002678,0.004523,-0.039339,67.310593,9.116821,-147.528076,,,
729600931.532477,0.804317,0.730273,-3.883163,0.002426,0.016983,0.9944,-0.002678,0.004523,-0.039339,67.310593,9.116821,-147.528076,,,
729600931.535883,0.803695,0.733223,-3.894037,0.002426,0.016983,0.9944,-0.002678,0.004523,-0.039339,67.310593,9.116821,-147.528076,,,
729600931.539128,0.803695,0.735878,-3.905167,0.004501,0.01918,0.993515,0.001099,0.028135,-0.041475,67.310593,9.116821,-147.528076,,,
729600931.542518,0.805435,0.735878,-3.905167,0.004501,0.01918,0.993515,0.001099,0.028135,-0.041475,67.310593,9.116821,-147.528076,,,
729600931.545798,0.805831,0.74411,-3.91708,0.004501,0.01918,0.993515,0.001099,0.028135,-0.041475,67.310593,9.116821,-147.528076,,,
729600931.549133,0.807903,0.753017,-3.929638,0.007401,0.02449,0.979324,0.003861,0.044769,-0.046079,67.310593,9.116821,-147.528076,,,
729600931.552464,0.807903,0.753017,-3.929638,0.007401,0.02449,0.979324,0.003861,0.044769,-0.046079,67.27594,9.099915,-147.077042,,,
729600931.55581,0.808168,0.767057,-3.943288,0.007401,0.02449,0.979324,0.003861,0.044769,-0.046079,67.27594,9.099915,-147.077042,,,
729600931.559168,0.808168,0.785062,-3.957985,0.005661,0.029877,0.970627,-0.003719,0.06766,-0.053407,67.27594,9.099915,-147.077042,,,
729600931.562474,0.806246,0.785062,-3.957985,0.005661,0.029877,0.970627,-0.003719,0.06766,-0.053407,67.27594,9.099915,-147.077042,,,
729600931.565808,0.803985,0.804531,-3.973066,0.005661,0.029877,0.970627,-0.003719,0.06766,-0.053407,67.27594,9.099915,-147.077042,,,
729600931.569156,0.803985,0.826516,-3.988698,0.001648,0.031067,0.967911,-0.013914,0.075949,-0.057297,67.27594,9.099915,-147.077042,,,
729600931.572544,0.798001,0.826516,-3.988698,0.001648,0.031067,0.967911,-0.013914,0.075949,-0.057297,67.27594,9.099915,-147.077042,,,
729600931.575849,0.793255,0.847712,-4.005442,0.001648,0.031067,0.967911,-0.013914,0.075949,-0.057297,67.27594,9.099915,-147.077042,,,
729600931.579143,0.793255,0.847712,-4.005442,-0.002884,0.030014,0.965225,-0.018924,0.080104,-0.062308,67.27594,9.099915,-147.077042,,,
729600931.582465,0.786255,0.868895,-4.022876,-0.002884,0.030014,0.965225,-0.018924,0.080104,-0.062308,67.27594,9.099915,-147.077042,,,
729600931.585861,0.780905,0.890925,-4.040694,-0.002884,0.030014,0.965225,-0.018924,0.080104,-0.062308,67.27594,9.099915,-147.077042,,,
729600931.589117,0.780905,0.890925,-4.040694,-0.011261,0.025238,0.973877,-0.009578,0.08088,-0.066734,67.27594,9.099915,-147.077042,,,
729600931.592505,0.776412,0.910421,-4.059133,-0.011261,0.025238,0.973877,-0.009578,0.08088,-0.066734,67.48494,9.141602,-147.052658,,,
729600931.595787,0.773609,0.933079,-4.077972,-0.011261,0.025238,0.973877,-0.009578,0.08088,-0.066734,67.48494,9.141602,-147.052658,,,
729600931.599153,0.773609,0.933079,-4.077972,-0.015427,0.019745,0.981598,-0.006005,0.081463,-0.067971,67.48494,9.141602,-147.052658,,,
729600931.60246,0.771887,0.952552,-4.096962,-0.015427,0.019745,0.981598,-0.006005,0.081463,-0.067971,67.48494,9.141602,-147.052658,,,
729600931.605789,0.769563,0.975316,-4.115298,-0.015427,0.019745,0.981598,-0.006005,0.081463,-0.067971,67.48494,9.141602,-147.052658,,,
729600931.609174,0.769563,0.975316,-4.115298,-0.02121,0.013443,0.978149,-0.006557,0.079888,-0.058854,67.48494,9.141602,-147.052658,,,
729600931.612514,0.767762,0.994595,-4.132276,-0.02121,0.013443,0.978149,-0.006557,0.079888,-0.058854,67.48494,9.141602,-147.052658,,,
729600931.615799,0.76544,1.01608,-4.148269,-0.02121,0.013443,0.978149,-0.006557,0.079888,-0.058854,67.48494,9.141602,-147.052658,,,
729600931.619121,0.76544,1.01608,-4.148269,-0.023117,0.012833,0.980957,-0.004163,0.058728,-0.04834,67.48494,9.141602,-147.052658,,,
729600931.622472,0.764689,1.030917,-4.162704,-0.023117,0.012833,0.980957,-0.004163,0.058728,-0.04834,67.48494,9.141602,-147.052658,,,
729600931.625837,0.762719,1.044535,-4.175825,-0.023117,0.012833,0.980957,-0.004163,0.058728,-0.04834,67.48494,9.141602,-147.052658,,,
729600931.62911,0.762719,1.044535,-4.175825,-0.023117,0.017792,0.978119,-0.010272,0.025182,-0.045097,67.48494,9.141602,-147.052658,,,
729600931.632463,0.7619,1.049659,-4.188401,-0.025177,0.017792,0.978119,-0.010272,0.025182,-0.045097,67.560974,9.348572,-147.288177,,,
729600931.635793,0.75869,1.054147,-4.200399,-0.025177,0.017792,0.978119,-0.010272,0.025182,-0.045097,67.560974,9.348572,-147.288177,,,
729600931.639126,0.75869,1.054147,-4.200399,-0.025177,0.017792,0.978119,-0.012786,0.005576,-0.038245,67.560974,9.348572,-147.288177,,,
729600931.642529,0.757638,1.052639,-4.211368,-0.026215,0.02359,0.980408,-0.012786,0.005576,-0.038245,67.560974,9.348572,-147.288177,,,
729600931.645778,0.753988,1.052294,-4.221993,-0.026215,0.02359,0.980408,-0.012786,0.005576,-0.038245,67.560974,9.348572,-147.288177,,,
729600931.649155,0.753988,1.052294,-4.221993,-0.023575,0.026657,0.990448,-0.014434,-0.010093,-0.041372,67.560974,9.348572,-147.288177,,,
729600931.652492,0.752748,1.047014,-4.233026,-0.023575,0.026657,0.990448,-0.014434,-0.010093,-0.041372,67.560974,9.348572,-147.288177,,,
729600931.655846,0.74788,1.043083,-4.244167,-0.023575,0.026657,0.990448,-0.014434,-0.010093,-0.041372,67.560974,9.348572,-147.288177,,,
729600931.659209,0.74788,1.043083,-4.244167,-0.023575,0.026657,0.990448,-0.014434,-0.010093,-0.041372,67.560974,9.348572,-147.288177,,,
729600931.662482,0.744794,1.037078,-4.255227,-0.016708,0.02655,0.988007,-0.018367,-0.013264,-0.041033,67.560974,9.348572,-147.288177,,,
729600931.665801,0.737913,1.033582,-4.267218,-0.016708,0.02655,0.988007,-0.018367,-0.013264,-0.041033,67.560974,9.348572,-147.288177,,,
729600931.669202,0.737913,1.033582,-4.267218,-0.016708,0.02655,0.988007,-0.018367,-0.013264,-0.041033,67.560974,9.348572,-147.288177,,,
729600931.672524,0.731128,1.032202,-4.28017,-0.009583,0.025864,0.992279,-0.027296,0.005451,-0.047972,67.560974,9.348572,-147.288177,,,
729600931.675846,0.722378,1.034057,-4.29396,-0.009583,0.025864,0.992279,-0.027296,0.005451,-0.047972,67.59697,9.36058,-147.379059,,,
729600931.679161,0.722378,1.034057,-4.29396,-0.009583,0.025864,0.992279,-0.027296,0.005451,-0.047972,67.59697,9.36058,-147.379059,,,
729600931.682451,0.713603,1.037112,-4.308304,-0.0065,0.025635,1.002975,-0.032545,0.014452,-0.051929,67.59697,9.36058,-147.379059,,,
729600931.685788,0.703273,1.041506,-4.322525,-0.0065,0.025635,1.002975,-0.032545,0.014452,-0.051929,67.59697,9.36058,-147.379059,,,
729600931.689128,0.703273,1.041506,-4.322525,-0.0065,0.025635,1.002975,-0.040408,0.030022,-0.04822,67.59697,9.36058,-147.379059,,,
729600931.692501,0.691851,1.04882,-4.336203,-0.014023,0.017532,1.001495,-0.040408,0.030022,-0.04822,67.59697,9.36058,-147.379059,,,
729600931.695787,0.67977,1.058123,-4.34833,-0.014023,0.017532,1.001495,-0.040408,0.030022,-0.04822,67.59697,9.36058,-147.379059,,,
729600931.699182,0.67977,1.058123,-4.34833,-0.014023,0.017532,1.001495,-0.040408,0.030022,-0.04822,67.59697,9.36058,-147.379059,,,
729600931.702455,0.667814,1.070931,-4.357897,-0.024734,0.009933,1.003326,-0.042856,0.048132,-0.030358,67.59697,9.36058,-147.379059,,,
729600931.705786,0.655502,1.0844,-4.364555,-0.024734,0.009933,1.003326,-0.042856,0.048132,-0.030358,67.59697,9.36058,-147.379059,,,
729600931.709187,0.655502,1.0844,-4.364555,-0.024734,0.009933,1.003326,-0.042856,0.048132,-0.030358,67.59697,9.36058,-147.379059,,,
729600931.71256,0.645442,1.098864,-4.369006,-0.031998,0.005051,1.012039,-0.038858,0.046745,-0.014804,67.59697,9.36058,-147.379059,,,
729600931.715787,0.634819,1.111389,-4.371901,-0.031998,0.005051,1.012039,-0.038858,0.046745,-0.014804,67.840759,9.513062,-147.481583,,,
729600931.719199,0.634819,1.111389,-4.371901,-0.031998,0.005051,1.012039,-0.038858,0.046745,-0.014804,67.840759,9.513062,-147.481583,,,
729600931.722464,0.629237,1.125118,-4.373894,-0.031479,0.004395,1.014755,-0.027483,0.042569,-0.008177,67.840759,9.513062,-147.481583,,,
729600931.72584,0.621302,1.137166,-4.3748,-0.031479,0.004395,1.014755,-0.027483,0.042569,-0.008177,67.840759,9.513062,-147.481583,,,
729600931.729175,0.621302,1.137166,-4.3748,-0.031479,0.004395,1.014755,-0.027483,0.042569,-0.008177,67.840759,9.513062,-147.481583,,,
729600931.73247,0.618594,1.151198,-4.375092,-0.032364,0.002655,1.016647,-0.019005,0.052997,-0.003696,67.840759,9.513062,-147.481583,,,
729600931.735799,0.613903,1.165851,-4.374869,-0.032364,0.002655,1.016647,-0.019005,0.052997,-0.003696,67.840759,9.513062,-147.481583,,,
729600931.739191,0.613903,1.165851,-4.374869,-0.032364,0.002655,1.016647,-0.019005,0.052997,-0.003696,67.840759,9.513062,-147.481583,,,
729600931.742511,0.615435,1.178003,-4.374236,-0.032074,0.00148,1.023865,-0.002119,0.046658,-0.000639,67.840759,9.513062,-147.481583,,,
729600931.745788,0.615042,1.189239,-4.37413,-0.032074,0.00148,1.023865,-0.002119,0.046658,-0.000639,67.840759,9.513062,-147.481583,,,
729600931.749193,0.615042,1.189239,-4.37413,-0.032074,0.00148,1.023865,-0.002119,0.046658,-0.000639,67.840759,9.513062,-147.481583,,,
729600931.752515,0.619884,1.195065,-4.374165,-0.030533,0.001175,1.016403,0.008946,0.031195,-0.001618,67.840759,9.513062,-147.481583,,,
729600931.755787,0.623647,1.203404,-4.37454,-0.030533,0.001175,1.016403,0.008946,0.031195,-0.001618,67.772583,9.464798,-147.395386,,,
729600931.759276,0.623647,1.203404,-4.37454,-0.030533,0.001175,1.016403,0.008946,0.031195,-0.001618,67.772583,9.464798,-147.395386,,,
729600931.762446,0.633473,1.209285,-4.375716,-0.029358,0.002075,1.019394,0.030098,0.036078,-0.006972,67.772583,9.464798,-147.395386,,,
729600931.765649,0.643521,1.217506,-4.377855,-0.029358,0.002075,1.019394,0.030098,0.036078,-0.006972,67.772583,9.464798,-147.395386,,,
729600931.769176,0.643521,1.217506,-4.377855,-0.029358,0.002075,1.019394,0.030098,0.036078,-0.006972,67.772583,9.464798,-147.395386,,,
729600931.772444,0.657363,1.221973,-4.381223,-0.023926,0.002625,1.023941,0.051313,0.014733,-0.015084,67.772583,9.464798,-147.395386,,,
729600931.77583,0.672882,1.224274,-4.386166,-0.023926,0.002625,1.023941,0.051313,0.014733,-0.015084,67.772583,9.464798,-147.395386,,,
729600931.779267,0.672882,1.224274,-4.386166,-0.023926,0.002625,1.023941,0.051313,0.014733,-0.015084,67.772583,9.464798,-147.395386,,,
729600931.782456,0.689129,1.22733,-4.393065,-0.020462,0.00499,1.01651,0.063687,0.008412,-0.028358,67.772583,9.464798,-147.395386,,,
729600931.785797,0.707038,1.229153,-4.401863,-0.020462,0.00499,1.01651,0.063687,0.008412,-0.028358,67.772583,9.464798,-147.395386,,,
729600931.789162,0.707038,1.229153,-4.401863,-0.020462,0.00499,1.01651,0.063687,0.008412,-0.028358,67.772583,9.464798,-147.395386,,,
729600931.792536,0.722398,1.233873,-4.411493,-0.017609,0.007736,1.020004,0.059066,0.01166,-0.034019,67.772583,9.464798,-147.395386,,,
729600931.795793,0.738194,1.237253,-4.421812,-0.017609,0.007736,1.020004,0.059066,0.01166,-0.034019,67.771667,9.612045,-147.077179,,,
729600931.799153,0.738194,1.237253,-4.421812,-0.017609,0.007736,1.020004,0.059066,0.01166,-0.034019,67.771667,9.612045,-147.077179,,,
729600931.802459,0.749421,1.244031,-4.432133,-0.023972,0.008423,1.011703,0.04264,0.021,-0.034193,67.771667,9.612045,-147.077179,,,
729600931.805786,0.760319,1.250838,-4.440877,-0.023972,0.008423,1.011703,0.04264,0.021,-0.034193,67.771667,9.612045,-147.077179,,,
729600931.809304,0.760319,1.250838,-4.440877,-0.023972,0.008423,1.011703,0.04264,0.021,-0.034193,67.771667,9.612045,-147.077179,,,
729600931.812532,0.767278,1.26192,-4.447604,-0.03302,0.008057,1.012283,0.030666,0.035764,-0.0202,67.771667,9.612045,-147.077179,,,
729600931.815788,0.77484,1.272113,-4.45227,-0.03302,0.008057,1.012283,0.030666,0.035764,-0.0202,67.771667,9.612045,-147.077179,,,
729600931.819195,0.77484,1.272113,-4.45227,-0.03302,0.008057,1.012283,0.030666,0.035764,-0.0202,67.771667,9.612045,-147.077179,,,
729600931.822465,0.778447,1.284409,-4.456086,-0.033218,0.009521,1.010284,0.018964,0.040468,-0.014425,67.771667,9.612045,-147.077179,,,
729600931.825845,0.783182,1.294898,-4.459159,-0.033218,0.009521,1.010284,0.018964,0.040468,-0.014425,67.771667,9.612045,-147.077179,,,
729600931.829141,0.783182,1.294898,-4.459159,-0.033218,0.009521,1.010284,0.018964,0.040468,-0.014425,67.771667,9.612045,-147.077179,,,
729600931.83253,0.785736,1.30634,-4.461588,-0.031357,0.010971,1.008377,0.018532,0.03921,-0.009787,67.771667,9.612045,-147.077179,,,
729600931.835777,0.791231,1.315967,-4.46381,-0.031357,0.010971,1.008377,0.018532,0.03921,-0.009787,67.771667,9.612045,-147.077179,,,
729600931.83912,0.791231,1.315967,-4.46381,-0.031357,0.010971,1.008377,0.018532,0.03921,-0.009787,67.933212,9.082138,-147.256882,,,
729600931.842516,0.795427,1.324011,-4.466104,-0.031631,0.010895,1.009567,0.024223,0.022657,-0.010013,67.933212,9.082138,-147.256882,,,
729600931.84578,0.802777,1.327736,-4.46881,-0.031631,0.010895,1.009567,0.024223,0.022657,-0.010013,67.933212,9.082138,-147.256882,,,
729600931.84913,0.802777,1.327736,-4.46881,-0.031631,0.010895,1.009567,0.024223,0.022657,-0.010013,67.933212,9.082138,-147.256882,,,
729600931.852483,0.810974,1.328463,-4.471858,-0.034149,0.007126,1.002853,0.042421,0.00274,-0.01198,67.933212,9.082138,-147.256882,,,
729600931.855785,0.825064,1.327178,-4.47539,-0.034149,0.007126,1.002853,0.042421,0.00274,-0.01198,67.933212,9.082138,-147.256882,,,
729600931.85923,0.825064,1.327178,-4.47539,-0.034149,0.007126,1.002853,0.042421,0.00274,-0.01198,67.933212,9.082138,-147.256882,,,
729600931.862457,0.84249,1.321605,-4.479203,-0.035339,0.002609,1.015442,0.074559,-0.022126,-0.013274,67.933212,9.082138,-147.256882,,,
729600931.865793,0.865532,1.311417,-4.483513,-0.035339,0.002609,1.015442,0.074559,-0.022126,-0.013274,67.933212,9.082138,-147.256882,,,
729600931.869147,0.865532,1.311417,-4.483513,-0.035339,0.002609,1.015442,0.074559,-0.022126,-0.013274,67.933212,9.082138,-147.256882,,,
729600931.872526,0.889645,1.293797,-4.488604,-0.02948,0.000732,1.014664,0.090143,-0.06906,-0.018401,67.933212,9.082138,-147.256882,,,
729600931.875825,0.915459,1.271884,-4.494516,-0.02948,0.000732,1.014664,0.090143,-0.06906,-0.018401,67.933212,9.082138,-147.256882,,,
729600931.879145,0.915459,1.271884,-4.494516,-0.02948,0.000732,1.014664,0.090143,-0.06906,-0.018401,67.88829,9.150543,-147.575867,,,
729600931.88248,0.940243,1.251509,-4.501555,-0.021835,-0.000565,0.995712,0.091986,-0.064002,-0.026216,67.88829,9.150543,-147.575867,,,
729600931.885791,0.965849,1.23364,-4.510037,-0.021835,-0.000565,0.995712,0.091986,-0.064002,-0.026216,67.88829,9.150543,-147.575867,,,
729600931.889128,0.965849,1.23364,-4.510037,-0.021835,-0.000565,0.995712,0.091986,-0.064002,-0.026216,67.88829,9.150543,-147.575867,,,
729600931.892521,0.988491,1.219505,-4.52054,-0.014359,0.00795,1.014404,0.082945,-0.05368,-0.040311,67.88829,9.150543,-147.575867,,,
729600931.895788,1.010506,1.202729,-4.532481,-0.014359,0.00795,1.014404,0.082945,-0.05368,-0.040311,67.88829,9.150543,-147.575867,,,
729600931.899188,1.010506,1.202729,-4.532481,-0.014359,0.00795,1.014404,0.082945,-0.05368,-0.040311,67.88829,9.150543,-147.575867,,,
729600931.902461,1.028294,1.189255,-4.544947,-0.009171,0.014984,0.993484,0.064519,-0.048526,-0.044069,67.88829,9.150543,-147.575867,,,
729600931.90586,1.045607,1.17692,-4.55829,-0.009171,0.014984,0.993484,0.064519,-0.048526,-0.044069,67.88829,9.150543,-147.575867,,,
729600931.909162,1.045607,1.17692,-4.55829,-0.009171,0.014984,0.993484,0.064519,-0.048526,-0.044069,67.88829,9.150543,-147.575867,,,
729600931.912592,1.05944,1.172737,-4.572775,-0.011261,0.023453,0.992645,0.05341,-0.009203,-0.051958,67.88829,9.150543,-147.575867,,,
729600931.915842,1.072596,1.172811,-4.587819,-0.011261,0.023453,0.992645,0.05341,-0.009203,-0.051958,67.88829,9.150543,-147.575867,,,
729600931.919123,1.072596,1.172811,-4.587819,-0.011261,0.023453,0.992645,0.05341,-0.009203,-0.051958,67.770844,8.971527,-147.274994,,,
729600931.922556,1.080099,1.181117,-4.602565,-0.017593,0.027481,0.995453,0.029594,0.029138,-0.049987,67.770844,8.971527,-147.274994,,,
729600931.925844,1.086945,1.190568,-4.616085,-0.017593,0.027481,0.995453,0.029594,0.029138,-0.049987,67.770844,8.971527,-147.274994,,,
729600931.929122,1.086945,1.190568,-4.616085,-0.017593,0.027481,0.995453,0.029594,0.029138,-0.049987,67.770844,8.971527,-147.274994,,,
729600931.932493,1.088038,1.205601,-4.628188,-0.025223,0.024673,0.982849,0.011649,0.04419,-0.040041,67.770844,8.971527,-147.274994,,,
729600931.935793,1.090442,1.218417,-4.638028,-0.025223,0.024673,0.982849,0.011649,0.04419,-0.040041,67.770844,8.971527,-147.274994,,,
729600931.939141,1.090442,1.218417,-4.638028,-0.025223,0.024673,0.982849,0.011649,0.04419,-0.040041,67.770844,8.971527,-147.274994,,,
729600931.942525,1.087821,1.234417,-4.645458,-0.033218,0.01767,0.981033,0.005622,0.0473,-0.023029,67.770844,8.971527,-147.274994,,,
729600931.945788,1.089599,1.245081,-4.649716,-0.033218,0.01767,0.981033,0.005622,0.0473,-0.023029,67.770844,8.971527,-147.274994,,,
729600931.94919,1.089599,1.245081,-4.649716,-0.033218,0.01767,0.981033,0.005622,0.0473,-0.023029,67.770844,8.971527,-147.274994,,,
729600931.95249,1.087302,1.252264,-4.650224,-0.046967,0.010056,0.983139,0.009564,0.015678,0.003353,67.770844,8.971527,-147.274994,,,
729600931.955795,1.09092,1.254033,-4.647175,-0.046967,0.010056,0.983139,0.009564,0.015678,0.003353,67.770844,8.971527,-147.274994,,,
729600931.959174,1.09092,1.254033,-4.647175,-0.046967,0.010056,0.983139,0.009564,0.015678,0.003353,67.882889,9.018463,-147.402542,,,
729600931.962533,1.092223,1.251215,-4.641491,-0.04892,0.007034,0.977264,0.022091,-0.0108,0.021885,67.882889,9.018463,-147.402542,,,
729600931.965787,1.099061,1.245727,-4.635662,-0.04892,0.007034,0.977264,0.022091,-0.0108,0.021885,67.882889,9.018463,-147.402542,,,
729600931.969135,1.099061,1.245727,-4.635662,-0.04892,0.007034,0.977264,0.022091,-0.0108,0.021885,67.882889,9.018463,-147.402542,,,
729600931.972468,1.103938,1.235189,-4.631009,-0.043518,0.013855,0.983322,0.022838,-0.029582,0.01337,67.882889,9.018463,-147.402542,,,
729600931.975835,1.109351,1.224383,-4.628035,-0.043518,0.013855,0.983322,0.022838,-0.029582,0.01337,67.882889,9.018463,-147.402542,,,
729600931.979138,1.109351,1.224383,-4.628035,-0.043518,0.013855,0.983322,0.022838,-0.029582,0.01337,67.882889,9.018463,-147.402542,,,
729600931.982466,1.112584,1.209173,-4.626842,-0.03302,0.024948,0.982391,0.009512,-0.039127,0.000246,67.882889,9.018463,-147.402542,,,
729600931.985792,1.11328,1.197705,-4.626915,-0.03302,0.024948,0.982391,0.009512,-0.039127,0.000246,67.882889,9.018463,-147.402542,,,
729600931.989187,1.11328,1.197705,-4.626915,-0.03302,0.024948,0.982391,0.009512,-0.039127,0.000246,67.882889,9.018463,-147.402542,,,
729600931.99251,1.111401,1.185659,-4.627211,-0.031006,0.034225,0.983612,-0.019768,-0.030877,-0.002149,67.882889,9.018463,-147.402542,,,
729600931.995787,1.10304,1.175245,-4.626302,-0.031006,0.034225,0.983612,-0.019768,-0.030877,-0.002149,67.882889,9.018463,-147.402542,,,
729600931.999155,1.10304,1.175245,-4.626302,-0.031006,0.034225,0.983612,-0.019768,-0.030877,-0.002149,67.882889,9.018463,-147.402542,,,
729600932.002521,1.090829,1.163903,-4.622915,-0.038315,0.032684,0.980774,-0.060567,-0.038444,0.014294,67.760727,9.152649,-147.250351,,,
729600932.005795,1.070512,1.151233,-4.616248,-0.038315,0.032684,0.980774,-0.060567,-0.038444,0.014294,67.760727,9.152649,-147.250351,,,
729600932.009238,1.070512,1.151233,-4.616248,-0.038315,0.032684,0.980774,-0.060567,-0.038444,0.014294,67.760727,9.152649,-147.250351,,,
729600932.012504,1.045759,1.139394,-4.605877,-0.045624,0.02739,0.968399,-0.100623,-0.044789,0.039557,67.760727,9.152649,-147.250351,,,
729600932.015804,1.01483,1.125807,-4.592154,-0.045624,0.02739,0.968399,-0.100623,-0.044789,0.039557,67.760727,9.152649,-147.250351,,,
729600932.019145,1.01483,1.125807,-4.592154,-0.045624,0.02739,0.968399,-0.100623,-0.044789,0.039557,67.760727,9.152649,-147.250351,,,
729600932.022451,0.980641,1.117223,-4.576441,-0.043396,0.027145,0.978729,-0.119706,-0.036961,0.053544,67.760727,9.152649,-147.250351,,,
729600932.025833,0.946659,1.104495,-4.559338,-0.043396,0.027145,0.978729,-0.119706,-0.036961,0.053544,67.760727,9.152649,-147.250351,,,
729600932.029116,0.946659,1.104495,-4.559338,-0.043396,0.027145,0.978729,-0.119706,-0.036961,0.053544,67.760727,9.152649,-147.250351,,,
729600932.032596,0.911795,1.095267,-4.541717,-0.032501,0.024612,0.995728,-0.114925,-0.054538,0.057925,67.760727,9.152649,-147.250351,,,
729600932.035783,0.880268,1.077325,-4.524181,-0.032501,0.024612,0.995728,-0.114925,-0.054538,0.057925,67.760727,9.152649,-147.250351,,,
729600932.039191,0.880268,1.077325,-4.524181,-0.032501,0.024612,0.995728,-0.114925,-0.054538,0.057925,67.760727,9.152649,-147.250351,,,
729600932.042515,0.850481,1.062806,-4.507317,-0.024887,0.019913,0.995773,-0.093446,-0.068714,0.054244,67.69696,9.453751,-147.323669,,,
729600932.045789,0.825749,1.042994,-4.490994,-0.024887,0.019913,0.995773,-0.093446,-0.068714,0.054244,67.69696,9.453751,-147.323669,,,
729600932.049178,0.825749,1.042994,-4.490994,-0.024887,0.019913,0.995773,-0.093446,-0.068714,0.054244,67.69696,9.453751,-147.323669,,,
729600932.052535,0.806816,1.03013,-4.475015,-0.026031,0.008667,1.006866,-0.058591,-0.051067,0.053033,67.69696,9.453751,-147.323669,,,
729600932.055784,0.793387,1.014677,-4.460022,-0.026031,0.008667,1.006866,-0.058591,-0.051067,0.053033,67.69696,9.453751,-147.323669,,,
729600932.059142,0.793387,1.014677,-4.460022,-0.026031,0.008667,1.006866,-0.058591,-0.051067,0.053033,67.69696,9.453751,-147.323669,,,
729600932.062493,0.789139,1.001545,-4.446082,-0.021194,0.002838,1.025238,-0.021432,-0.056631,0.046696,67.69696,9.453751,-147.323669,,,
729600932.065788,0.784306,0.983368,-4.432929,-0.021194,0.002838,1.025238,-0.021432,-0.056631,0.046696,67.69696,9.453751,-147.323669,,,
729600932.069178,0.784306,0.983368,-4.432929,-0.021194,0.002838,1.025238,-0.021432,-0.056631,0.046696,67.69696,9.453751,-147.323669,,,
729600932.072459,0.787239,0.968944,-4.420251,-0.014923,0.001984,1.010895,-0.002964,-0.059063,0.044116,67.69696,9.453751,-147.323669,,,
729600932.075786,0.786345,0.953472,-4.406919,-0.014923,0.001984,1.010895,-0.002964,-0.059063,0.044116,67.69696,9.453751,-147.323669,,,
729600932.079184,0.786345,0.953472,-4.406919,-0.014923,0.001984,1.010895,-0.002964,-0.059063,0.044116,67.69696,9.453751,-147.323669,,,
729600932.082442,0.789744,0.948569,-4.392563,-0.012726,0.008438,1.008423,-0.002418,-0.030577,0.051865,67.531845,9.19841,-146.98233,,,
729600932.085784,0.78876,0.938781,-4.376252,-0.012726,0.008438,1.008423,-0.002418,-0.030577,0.051865,67.531845,9.19841,-146.98233,,,
729600932.089124,0.78876,0.938781,-4.376252,-0.012726,0.008438,1.008423,-0.002418,-0.030577,0.051865,67.531845,9.19841,-146.98233,,,
729600932.09249,0.790428,0.935255,-4.358301,-0.013535,0.021393,1.003998,-0.007844,-0.038289,0.063896,67.531845,9.19841,-146.98233,,,
729600932.095728,0.787853,0.922329,-4.338273,-0.013535,0.021393,1.003998,-0.007844,-0.038289,0.063896,67.531845,9.19841,-146.98233,,,
729600932.099142,0.787853,0.922329,-4.338273,-0.013535,0.021393,1.003998,-0.007844,-0.038289,0.063896,67.531845,9.19841,-146.98233,,,
729600932.102488,0.787219,0.91428,-4.317452,-0.011627,0.030334,0.991272,-0.015026,-0.04656,0.069977,67.531845,9.19841,-146.98233,,,
729600932.105784,0.782247,0.899984,-4.297972,-0.011627,0.030334,0.991272,-0.015026,-0.04656,0.069977,67.531845,9.19841,-146.98233,,,
729600932.109156,0.782247,0.899984,-4.297972,-0.011627,0.030334,0.991272,-0.015026,-0.04656,0.069977,67.531845,9.19841,-146.98233,,,
729600932.11246,0.778516,0.888606,-4.280847,-0.002914,0.037628,0.996201,-0.021783,-0.048605,0.053807,67.531845,9.19841,-146.98233,,,
729600932.115789,0.771929,0.873307,-4.266838,-0.002914,0.037628,0.996201,-0.021783,-0.048605,0.053807,67.531845,9.19841,-146.98233,,,
729600932.119176,0.771929,0.873307,-4.266838,-0.002914,0.037628,0.996201,-0.021783,-0.048605,0.053807,67.531845,9.19841,-146.98233,,,
729600932.122471,0.766246,0.859201,-4.256898,0.008438,0.039719,0.996872,-0.018678,-0.059318,0.025776,67.531845,9.19841,-146.98233,,,
729600932.125788,0.761204,0.839704,-4.250691,0.008438,0.039719,0.996872,-0.018678,-0.059318,0.025776,67.461639,9.445984,-147.07341,,,
729600932.129134,0.761204,0.839704,-4.250691,0.008438,0.039719,0.996872,-0.018678,-0.059318,0.025776,67.461639,9.445984,-147.07341,,,
729600932.132558,0.756269,0.820081,-4.247576,0.012253,0.031693,1.000687,-0.003639,-0.078743,0.004711,67.461639,9.445984,-147.07341,,,
729600932.135786,0.75726,0.796913,-4.246506,0.012253,0.031693,1.000687,-0.003639,-0.078743,0.004711,67.461639,9.445984,-147.07341,,,
729600932.139139,0.75726,0.796913,-4.246506,0.012253,0.031693,1.000687,-0.003639,-0.078743,0.004711,67.461639,9.445984,-147.07341,,,
729600932.142487,0.760495,0.776431,-4.246666,0.011185,0.018646,1.008987,0.031956,-0.066864,-0.003267,67.461639,9.445984,-147.07341,,,
729600932.145791,0.772014,0.758434,-4.247463,0.011185,0.018646,1.008987,0.031956,-0.066864,-0.003267,67.461639,9.445984,-147.07341,,,
729600932.149149,0.772014,0.758434,-4.247463,0.011185,0.018646,1.008987,0.031956,-0.066864,-0.003267,67.461639,9.445984,-147.07341,,,
729600932.152474,0.785006,0.742455,-4.248918,0.011978,0.01152,1.026047,0.058761,-0.052987,-0.007544,67.461639,9.445984,-147.07341,,,
729600932.15579,0.803183,0.728113,-4.251351,0.011978,0.01152,1.026047,0.058761,-0.052987,-0.007544,67.461639,9.445984,-147.07341,,,
729600932.159197,0.803183,0.728113,-4.251351,0.011978,0.01152,1.026047,0.058761,-0.052987,-0.007544,67.461639,9.445984,-147.07341,,,
729600932.162467,0.824682,0.718984,-4.25435,0.015533,0.011169,1.009872,0.083608,-0.016576,-0.011255,67.461639,9.445984,-147.07341,,,
729600932.16579,0.848706,0.71648,-4.257343,0.015533,0.011169,1.009872,0.083608,-0.016576,-0.011255,67.37088,9.117035,-147.364899,,,
729600932.169144,0.848706,0.71648,-4.257343,0.015533,0.011169,1.009872,0.083608,-0.016576,-0.011255,67.37088,9.117035,-147.364899,,,
729600932.172501,0.875676,0.719349,-4.259734,0.015213,0.01326,1.023819,0.086297,0.020756,-0.006991,67.37088,9.117035,-147.364899,,,
729600932.175785,0.899941,0.726463,-4.261066,0.015213,0.01326,1.023819,0.086297,0.020756,-0.006991,67.37088,9.117035,-147.364899,,,
729600932.179139,0.899941,0.726463,-4.261066,0.015213,0.01326,1.023819,0.086297,0.020756,-0.006991,67.37088,9.117035,-147.364899,,,
729600932.182468,0.927751,0.736312,-4.261523,0.00795,0.016281,1.011292,0.081174,0.043904,-0.001009,67.37088,9.117035,-147.364899,,,
729600932.18578,0.94944,0.74961,-4.261756,0.00795,0.016281,1.011292,0.081174,0.043904,-0.001009,67.37088,9.117035,-147.364899,,,
729600932.189139,0.94944,0.74961,-4.261756,0.00795,0.016281,1.011292,0.081174,0.043904,-0.001009,67.37088,9.117035,-147.364899,,,
729600932.192474,0.974358,0.761827,-4.261834,0.000504,0.020889,1.002884,0.065784,0.061544,-0.000525,67.37088,9.117035,-147.364899,,,
729600932.195776,0.992617,0.777903,-4.262402,0.000504,0.020889,1.002884,0.065784,0.061544,-0.000525,67.37088,9.117035,-147.364899,,,
729600932.199214,0.992617,0.777903,-4.262402,0.000504,0.020889,1.002884,0.065784,0.061544,-0.000525,67.37088,9.117035,-147.364899,,,
729600932.202466,1.015044,0.78687,-4.264148,-0.005859,0.02594,0.997482,0.060722,0.053401,-0.009511,67.37088,9.117035,-147.364899,,,
729600932.205793,1.032304,0.800012,-4.267441,-0.005859,0.02594,0.997482,0.060722,0.053401,-0.009511,67.346252,9.065918,-147.266754,,,
729600932.209131,1.032304,0.800012,-4.267441,-0.005859,0.02594,0.997482,0.060722,0.053401,-0.009511,67.346252,9.065918,-147.266754,,,
729600932.212559,1.05331,0.803585,-4.27225,-0.007324,0.021637,0.992523,0.070722,0.03082,-0.0207,67.346252,9.065918,-147.266754,,,
729600932.215782,1.074691,0.808171,-4.278571,-0.007324,0.021637,0.992523,0.070722,0.03082,-0.0207,67.346252,9.065918,-147.266754,,,
729600932.219121,1.074691,0.808171,-4.278571,-0.007324,0.021637,0.992523,0.070722,0.03082,-0.0207,67.346252,9.065918,-147.266754,,,
729600932.222471,1.097018,0.800058,-4.286347,-0.006531,0.019272,0.992599,0.084558,-0.01641,-0.031423,67.346252,9.065918,-147.266754,,,
729600932.225784,1.121182,0.792181,-4.296928,-0.006531,0.019272,0.992599,0.084558,-0.01641,-0.031423,67.346252,9.065918,-147.266754,,,
729600932.22913,1.121182,0.792181,-4.296928,-0.006531,0.019272,0.992599,0.084558,-0.01641,-0.031423,67.346252,9.065918,-147.266754,,,
729600932.232466,1.144027,0.773787,-4.309815,-0.008774,0.016068,0.987152,0.090535,-0.044649,-0.048361,67.346252,9.065918,-147.266754,,,
729600932.235884,1.169808,0.759425,-4.324461,-0.008774,0.016068,0.987152,0.090535,-0.044649,-0.048361,67.346252,9.065918,-147.266754,,,
729600932.239204,1.169808,0.759425,-4.324461,-0.008774,0.016068,0.987152,0.090535,-0.044649,-0.048361,67.346252,9.065918,-147.266754,,,
729600932.242461,1.194297,0.736262,-4.34056,-0.005737,0.015869,0.994019,0.096458,-0.056828,-0.059476,67.346252,9.065918,-147.266754,,,
729600932.245786,1.221961,0.719398,-4.358056,-0.005737,0.015869,0.994019,0.096458,-0.056828,-0.059476,67.350952,8.902649,-147.041061,,,
729600932.249147,1.221961,0.719398,-4.358056,-0.005737,0.015869,0.994019,0.096458,-0.056828,-0.059476,67.350952,8.902649,-147.041061,,,
729600932.252513,1.248389,0.698119,-4.37627,-0.002106,0.019241,0.995697,0.099193,-0.045165,-0.06538,67.350952,8.902649,-147.041061,,,
729600932.255782,1.276277,0.687785,-4.395442,-0.002106,0.019241,0.995697,0.099193,-0.045165,-0.06538,67.350952,8.902649,-147.041061,,,
729600932.259131,1.276277,0.687785,-4.395442,-0.002106,0.019241,0.995697,0.099193,-0.045165,-0.06538,67.350952,8.902649,-147.041061,,,
729600932.262467,1.301632,0.679859,-4.414743,-0.001282,0.022903,1.006302,0.091121,-0.000344,-0.067004,67.350952,8.902649,-147.041061,,,
729600932.265783,1.32597,0.681978,-4.433489,-0.001282,0.022903,1.006302,0.091121,-0.000344,-0.067004,67.350952,8.902649,-147.041061,,,
729600932.269134,1.32597,0.681978,-4.433489,-0.001282,0.022903,1.006302,0.091121,-0.000344,-0.067004,67.350952,8.902649,-147.041061,,,
729600932.272466,1.346867,0.686795,-4.450826,-0.006226,0.022903,1.006012,0.067421,0.035406,-0.057913,67.350952,8.902649,-147.041061,,,
729600932.275781,1.363738,0.699022,-4.46596,-0.006226,0.022903,1.006012,0.067421,0.035406,-0.057913,67.350952,8.902649,-147.041061,,,
729600932.279182,1.363738,0.699022,-4.46596,-0.006226,0.022903,1.006012,0.067421,0.035406,-0.057913,67.350952,8.902649,-147.041061,,,
729600932.282448,1.376669,0.71358,-4.477757,-0.019562,0.019821,0.995773,0.037659,0.060497,-0.035222,67.350952,8.902649,-147.041061,,,
729600932.285833,1.384553,0.730256,-4.486285,-0.019562,0.019821,0.995773,0.037659,0.060497,-0.035222,67.350952,8.902649,-147.041061,,,
729600932.289137,1.384553,0.730256,-4.486285,-0.019562,0.019821,0.995773,0.037659,0.060497,-0.035222,67.416061,8.748001,-147.587677,,,
729600932.292552,1.387207,0.744555,-4.491669,-0.030106,0.017395,0.985199,0.00625,0.055149,-0.014002,67.416061,8.748001,-147.587677,,,
729600932.29578,1.386724,0.758091,-4.494372,-0.030106,0.017395,0.985199,0.00625,0.055149,-0.014002,67.416061,8.748001,-147.587677,,,
729600932.299146,1.386724,0.758091,-4.494372,-0.030106,0.017395,0.985199,0.00625,0.055149,-0.014002,67.416061,8.748001,-147.587677,,,
729600932.302461,1.381767,0.766592,-4.495133,-0.039398,0.017105,0.975372,-0.014703,0.031299,-0.000982,67.416061,8.748001,-147.587677,,,
729600932.305805,1.37729,0.772691,-4.494789,-0.039398,0.017105,0.975372,-0.014703,0.031299,-0.000982,67.416061,8.748001,-147.587677,,,
729600932.30915,1.37729,0.772691,-4.494789,-0.039398,0.017105,0.975372,-0.014703,0.031299,-0.000982,67.416061,8.748001,-147.587677,,,
729600932.312466,1.370706,0.772108,-4.494577,-0.039124,0.016113,0.980408,-0.015181,-0.006773,-0.002095,67.416061,8.748001,-147.587677,,,
729600932.315843,1.366774,0.766058,-4.495072,-0.039124,0.016113,0.980408,-0.015181,-0.006773,-0.002095,67.416061,8.748001,-147.587677,,,
729600932.31919,1.366774,0.766058,-4.495072,-0.039124,0.016113,0.980408,-0.015181,-0.006773,-0.002095,67.416061,8.748001,-147.587677,,,
729600932.322465,1.361222,0.753042,-4.496274,-0.035706,0.014633,0.980179,-0.015103,-0.040812,-0.00741,67.416061,8.748001,-147.587677,,,
729600932.325803,1.35745,0.738795,-4.498242,-0.035706,0.014633,0.980179,-0.015103,-0.040812,-0.00741,67.416061,8.748001,-147.587677,,,
729600932.329135,1.35745,0.738795,-4.498242,-0.035706,0.014633,0.980179,-0.015103,-0.040812,-0.00741,67.309418,8.881134,-146.974518,,,
729600932.332445,1.353975,0.719118,-4.50083,-0.029129,0.01207,0.983963,-0.008005,-0.059529,-0.0121,67.309418,8.881134,-146.974518,,,
729600932.335788,1.352478,0.700549,-4.50445,-0.029129,0.01207,0.983963,-0.008005,-0.059529,-0.0121,67.309418,8.881134,-146.974518,,,
729600932.339113,1.352478,0.700549,-4.50445,-0.029129,0.01207,0.983963,-0.008005,-0.059529,-0.0121,67.309418,8.881134,-146.974518,,,
729600932.342452,1.353464,0.679506,-4.508694,-0.024857,0.012634,0.993927,0.011476,-0.058755,-0.016667,67.309418,8.881134,-146.974518,,,
729600932.345869,1.358017,0.662902,-4.512345,-0.024857,0.012634,0.993927,0.011476,-0.058755,-0.016667,67.309418,8.881134,-146.974518,,,
729600932.349123,1.358017,0.662902,-4.512345,-0.024857,0.012634,0.993927,0.011476,-0.058755,-0.016667,67.309418,8.881134,-146.974518,,,
729600932.352471,1.365323,0.648588,-4.515037,-0.017929,0.011734,1.010605,0.032646,-0.040082,-0.009834,67.309418,8.881134,-146.974518,,,
729600932.355839,1.374561,0.637086,-4.516899,-0.017929,0.011734,1.010605,0.032646,-0.040082,-0.009834,67.309418,8.881134,-146.974518,,,
729600932.35913,1.374561,0.637086,-4.516899,-0.017929,0.011734,1.010605,0.032646,-0.040082,-0.009834,67.309418,8.881134,-146.974518,,,
729600932.362468,1.382466,0.631055,-4.517223,-0.013748,0.014847,1.006683,0.031591,-0.023591,0.00137,67.309418,8.881134,-146.974518,,,
729600932.365842,1.390123,0.626373,-4.515707,-0.013748,0.014847,1.006683,0.031591,-0.023591,0.00137,67.309418,8.881134,-146.974518,,,
729600932.369166,1.390123,0.626373,-4.515707,-0.013748,0.014847,1.006683,0.031591,-0.023591,0.00137,67.205872,8.858078,-147.163177,,,
729600932.372453,1.392857,0.632099,-4.51259,-0.014557,0.019043,0.994781,0.008663,0.009897,0.01326,67.205872,8.858078,-147.163177,,,
729600932.375816,1.392775,0.634344,-4.508024,-0.014557,0.019043,0.994781,0.008663,0.009897,0.01326,67.205872,8.858078,-147.163177,,,
729600932.379205,1.392775,0.634344,-4.508024,-0.014557,0.019043,0.994781,0.008663,0.009897,0.01326,67.205872,8.858078,-147.163177,,,
729600932.38245,1.387071,0.643098,-4.503035,-0.011246,0.029037,0.989838,-0.018573,0.006266,0.017039,67.205872,8.858078,-147.163177,,,
729600932.385863,1.379048,0.642332,-4.498018,-0.011246,0.029037,0.989838,-0.018573,0.006266,0.017039,67.205872,8.858078,-147.163177,,,
729600932.389115,1.379048,0.642332,-4.498018,-0.011246,0.029037,0.989838,-0.018573,0.006266,0.017039,67.205872,8.858078,-147.163177,,,
729600932.392517,1.364387,0.645475,-4.494508,-0.001846,0.038086,0.969406,-0.05151,-0.013939,0.007314,67.205872,8.858078,-147.163177,,,
729600932.395831,1.347757,0.639696,-4.493179,-0.001846,0.038086,0.969406,-0.05151,-0.013939,0.007314,67.205872,8.858078,-147.163177,,,
729600932.399109,1.347757,0.639696,-4.493179,-0.001846,0.038086,0.969406,-0.05151,-0.013939,0.007314,67.205872,8.858078,-147.163177,,,
729600932.402449,1.325708,0.637209,-4.494154,0.004562,0.044907,0.966812,-0.074389,-0.027241,-0.00816,67.205872,8.858078,-147.163177,,,
729600932.405835,1.303077,0.627202,-4.497069,0.004562,0.044907,0.966812,-0.074389,-0.027241,-0.00816,67.205872,8.858078,-147.163177,,,
729600932.409107,1.303077,0.627202,-4.497069,0.004562,0.044907,0.966812,-0.074389,-0.027241,-0.00816,67.217789,8.781006,-147.370377,,,
729600932.412451,1.276828,0.617688,-4.502084,0.008072,0.043396,0.968445,-0.085487,-0.046776,-0.022326,67.217789,8.781006,-147.370377,,,
729600932.415785,1.251689,0.602871,-4.508675,0.008072,0.043396,0.968445,-0.085487,-0.046776,-0.022326,67.217789,8.781006,-147.370377,,,
729600932.419183,1.251689,0.602871,-4.508675,0.008072,0.043396,0.968445,-0.085487,-0.046776,-0.022326,67.217789,8.781006,-147.370377,,,
729600932.422459,1.22474,0.589659,-4.516744,0.011658,0.041656,0.976608,-0.086762,-0.048894,-0.032275,67.217789,8.781006,-147.370377,,,
729600932.425827,1.199849,0.576013,-4.525998,0.011658,0.041656,0.976608,-0.086762,-0.048894,-0.032275,67.217789,8.781006,-147.370377,,,
729600932.429127,1.199849,0.576013,-4.525998,0.011658,0.041656,0.976608,-0.086762,-0.048894,-0.032275,67.217789,8.781006,-147.370377,,,
729600932.432536,1.173584,0.565992,-4.536512,0.013138,0.039734,0.995255,-0.085951,-0.03159,-0.040832,67.217789,8.781006,-147.370377,,,
729600932.43583,1.149182,0.558475,-4.547161,0.013138,0.039734,0.995255,-0.085951,-0.03159,-0.040832,67.217789,8.781006,-147.370377,,,
729600932.439129,1.149182,0.558475,-4.547161,0.013138,0.039734,0.995255,-0.085951,-0.03159,-0.040832,67.217789,8.781006,-147.370377,,,
729600932.442473,1.12489,0.556193,-4.556442,0.008789,0.035934,1.002594,-0.081343,-0.000819,-0.03113,67.217789,8.781006,-147.370377,,,
729600932.445877,1.101283,0.556852,-4.563682,0.008789,0.035934,1.002594,-0.081343,-0.000819,-0.03113,67.217789,8.781006,-147.370377,,,
729600932.449112,1.101283,0.556852,-4.563682,0.008789,0.035934,1.002594,-0.081343,-0.000819,-0.03113,67.217789,8.781006,-147.370377,,,
729600932.452474,1.07952,0.561346,-4.569094,0.006317,0.029343,1.006927,-0.073821,0.020043,-0.018204,67.111511,9.108658,-147.45108,,,
729600932.455823,1.059878,0.567108,-4.573014,0.006317,0.029343,1.006927,-0.073821,0.020043,-0.018204,67.111511,9.108658,-147.45108,,,
729600932.459173,1.059878,0.567108,-4.573014,0.006317,0.029343,1.006927,-0.073821,0.020043,-0.018204,67.111511,9.108658,-147.45108,,,
729600932.462502,1.047647,0.574053,-4.576963,0.00293,0.021103,1.014496,-0.046326,0.03077,-0.018168,67.111511,9.108658,-147.45108,,,
729600932.46583,1.047647,0.581547,-4.582073,0.00293,0.021103,1.014496,-0.046326,0.03077,-0.018168,67.111511,9.108658,-147.45108,,,
729600932.46912,1.036266,0.581547,-4.582073,0.00293,0.021103,1.014496,-0.046326,0.03077,-0.018168,67.111511,9.108658,-147.45108,,,
729600932.472524,1.03488,0.583436,-4.589034,0.002045,0.016724,1.02832,-0.017506,0.010441,-0.031123,67.111511,9.108658,-147.45108,,,
729600932.475785,1.03488,0.584265,-4.598959,0.002045,0.016724,1.02832,-0.017506,0.010441,-0.031123,67.111511,9.108658,-147.45108,,,
729600932.47913,1.030376,0.584265,-4.598959,0.002045,0.016724,1.02832,-0.017506,0.010441,-0.031123,67.111511,9.108658,-147.45108,,,
729600932.482462,1.034046,0.579248,-4.611598,-0.001694,0.016144,1.015594,-0.007815,-0.003942,-0.05042,67.111511,9.108658,-147.45108,,,
729600932.485886,1.034046,0.577553,-4.626432,-0.001694,0.016144,1.015594,-0.007815,-0.003942,-0.05042,67.111511,9.108658,-147.45108,,,
729600932.489106,1.031381,0.577553,-4.626432,-0.001694,0.016144,1.015594,-0.007815,-0.003942,-0.05042,67.111511,9.108658,-147.45108,,,
729600932.492481,1.035396,0.570592,-4.642016,-0.012741,0.008408,1.018311,-0.00483,-0.008192,-0.056207,67.128296,9.289429,-147.38031,,,
729600932.495797,1.035396,0.570592,-4.642016,-0.012741,0.008408,1.018311,-0.00483,-0.008192,-0.056207,67.128296,9.289429,-147.38031,,,
729600932.499111,1.033573,0.565851,-4.657842,-0.012741,0.008408,1.018311,-0.00483,-0.008192,-0.056207,67.128296,9.289429,-147.38031,,,
729600932.502456,1.03692,0.552459,-4.673107,-0.022156,0.002289,1.016647,-0.009013,-0.031195,-0.05302,67.128296,9.289429,-147.38031,,,
729600932.505813,1.03692,0.552459,-4.673107,-0.022156,0.002289,1.016647,-0.009013,-0.031195,-0.05302,67.128296,9.289429,-147.38031,,,
729600932.509133,1.034917,0.542013,-4.687218,-0.022156,0.002289,1.016647,-0.009013,-0.031195,-0.05302,67.128296,9.289429,-147.38031,,,
729600932.51252,1.039548,0.525792,-4.69929,-0.024002,0.003784,1.009186,0.003364,-0.03409,-0.039324,67.128296,9.289429,-147.38031,,,
729600932.51581,1.039548,0.525792,-4.69929,-0.024002,0.003784,1.009186,0.003364,-0.03409,-0.039324,67.128296,9.289429,-147.38031,,,
729600932.519123,1.041446,0.51591,-4.709454,-0.024002,0.003784,1.009186,0.003364,-0.03409,-0.039324,67.128296,9.289429,-147.38031,,,
729600932.522461,1.049866,0.503907,-4.71784,-0.025848,0.005951,1.020462,0.023742,-0.021654,-0.027224,67.128296,9.289429,-147.38031,,,
729600932.525863,1.049866,0.503907,-4.71784,-0.025848,0.005951,1.020462,0.023742,-0.021654,-0.027224,67.128296,9.289429,-147.38031,,,
729600932.529123,1.05795,0.497193,-4.724505,-0.025848,0.005951,1.020462,0.023742,-0.021654,-0.027224,67.128296,9.289429,-147.38031,,,
729600932.532451,1.071822,0.487348,-4.729469,-0.023529,0.005783,1.024765,0.051213,-0.019652,-0.01556,67.282867,9.117767,-147.076828,,,
729600932.535797,1.071822,0.487348,-4.729469,-0.023529,0.005783,1.024765,0.051213,-0.019652,-0.01556,67.282867,9.117767,-147.076828,,,
729600932.539191,1.087944,0.480923,-4.73258,-0.023529,0.005783,1.024765,0.051213,-0.019652,-0.01556,67.282867,9.117767,-147.076828,,,
729600932.542445,1.106448,0.471696,-4.734706,-0.018021,0.003983,1.021469,0.069348,-0.022511,-0.008894,67.282867,9.117767,-147.076828,,,
729600932.545703,1.106448,0.471696,-4.734706,-0.018021,0.003983,1.021469,0.069348,-0.022511,-0.008894,67.282867,9.117767,-147.076828,,,
729600932.549151,1.127013,0.464881,-4.737286,-0.018021,0.003983,1.021469,0.069348,-0.022511,-0.008894,67.282867,9.117767,-147.076828,,,
729600932.552521,1.147643,0.456845,-4.739983,-0.015335,0.005814,1.01123,0.074457,-0.015066,-0.010008,67.282867,9.117767,-147.076828,,,
729600932.555798,1.147643,0.456845,-4.739983,-0.015335,0.005814,1.01123,0.074457,-0.015066,-0.010008,67.282867,9.117767,-147.076828,,,
729600932.559127,1.169529,0.452091,-4.742947,-0.015335,0.005814,1.01123,0.074457,-0.015066,-0.010008,67.282867,9.117767,-147.076828,,,
729600932.562453,1.18979,0.447321,-4.746908,-0.009155,0.008011,1.005157,0.072828,-0.011924,-0.017029,67.282867,9.117767,-147.076828,,,
729600932.565871,1.18979,0.447321,-4.746908,-0.009155,0.008011,1.005157,0.072828,-0.011924,-0.017029,67.282867,9.117767,-147.076828,,,
729600932.569125,1.210452,0.442284,-4.75145,-0.009155,0.008011,1.005157,0.072828,-0.011924,-0.017029,67.282867,9.117767,-147.076828,,,
729600932.572458,1.225788,0.436854,-4.755444,-0.007919,0.012939,0.993195,0.060995,-0.028342,-0.012964,66.978516,9.008636,-147.077209,,,
729600932.575801,1.225788,0.436854,-4.755444,-0.007919,0.012939,0.993195,0.060995,-0.028342,-0.012964,66.978516,9.008636,-147.077209,,,
729600932.579185,1.240934,0.427724,-4.758124,-0.007919,0.012939,0.993195,0.060995,-0.028342,-0.012964,66.978516,9.008636,-147.077209,,,
729600932.582438,1.24776,0.421865,-4.758976,-0.013367,0.017334,0.982422,0.033862,-0.030946,9.5e-05,66.978516,9.008636,-147.077209,,,
729600932.585805,1.24776,0.421865,-4.758976,-0.013367,0.017334,0.982422,0.033862,-0.030946,9.5e-05,66.978516,9.008636,-147.077209,,,
729600932.589124,1.254766,0.412418,-4.757368,-0.013367,0.017334,0.982422,0.033862,-0.030946,9.5e-05,66.978516,9.008636,-147.077209,,,
729600932.592448,1.252652,0.408248,-4.753521,-0.017807,0.022003,0.97757,-0.001839,-0.020824,0.015973,66.978516,9.008636,-147.077209,,,
729600932.595802,1.252652,0.408248,-4.753521,-0.017807,0.022003,0.97757,-0.001839,-0.020824,0.015973,66.978516,9.008636,-147.077209,,,
729600932.599129,1.250786,0.401016,-4.748025,-0.017807,0.022003,0.97757,-0.001839,-0.020824,0.015973,66.978516,9.008636,-147.077209,,,
729600932.602446,1.243302,0.396971,-4.742427,-0.01059,0.02916,0.978882,-0.015719,-0.027799,0.017261,66.978516,9.008636,-147.077209,,,
729600932.605871,1.243302,0.396971,-4.742427,-0.01059,0.02916,0.978882,-0.015719,-0.027799,0.017261,66.978516,9.008636,-147.077209,,,
729600932.609123,1.238933,0.387645,-4.737948,-0.01059,0.02916,0.978882,-0.015719,-0.027799,0.017261,66.978516,9.008636,-147.077209,,,
729600932.612458,1.23218,0.381373,-4.734856,-0.001801,0.033554,0.988571,-0.0052,-0.029838,0.008179,66.978516,9.008636,-147.077209,,,
729600932.61578,1.23218,0.381373,-4.734856,-0.001801,0.033554,0.988571,-0.0052,-0.029838,0.008179,67.186966,9.096542,-147.173157,,,
729600932.619193,1.231047,0.372375,-4.733282,-0.001801,0.033554,0.988571,-0.0052,-0.029838,0.008179,67.186966,9.096542,-147.173157,,,
729600932.622442,1.227157,0.364988,-4.733469,0.00061,0.028854,1.002747,0.003417,-0.034805,-0.003698,67.186966,9.096542,-147.173157,,,
729600932.625801,1.227157,0.364988,-4.733469,0.00061,0.028854,1.002747,0.003417,-0.034805,-0.003698,67.186966,9.096542,-147.173157,,,
729600932.629112,1.227568,0.354199,-4.734335,0.00061,0.028854,1.002747,0.003417,-0.034805,-0.003698,67.186966,9.096542,-147.173157,,,
729600932.632452,1.22444,0.345395,-4.735428,-0.00856,0.021591,0.992111,0.004017,-0.032291,-0.005005,67.186966,9.096542,-147.173157,,,
729600932.635789,1.22444,0.345395,-4.735428,-0.00856,0.021591,0.992111,0.004017,-0.032291,-0.005005,67.186966,9.096542,-147.173157,,,
729600932.63912,1.225192,0.335118,-4.735523,-0.00856,0.021591,0.992111,0.004017,-0.032291,-0.005005,67.186966,9.096542,-147.173157,,,
729600932.642455,1.222574,0.325078,-4.733306,-0.016342,0.015182,0.991852,-0.000138,-0.03338,0.011133,67.186966,9.096542,-147.173157,,,
729600932.645829,1.222574,0.325078,-4.733306,-0.016342,0.015182,0.991852,-0.000138,-0.03338,0.011133,67.186966,9.096542,-147.173157,,,
729600932.649124,1.221274,0.31341,-4.728554,-0.016342,0.015182,0.991852,-0.000138,-0.03338,0.011133,67.186966,9.096542,-147.173157,,,
729600932.652447,1.216586,0.301174,-4.722039,-0.018494,0.014893,0.985992,-0.013529,-0.043453,0.023511,67.186966,9.096542,-147.173157,,,
729600932.655778,1.216586,0.301174,-4.722039,-0.018494,0.014893,0.985992,-0.013529,-0.043453,0.023511,66.841843,9.007446,-147.320557,,,
729600932.659213,1.211791,0.287164,-4.714139,-0.018494,0.014893,0.985992,-0.013529,-0.043453,0.023511,66.841843,9.007446,-147.320557,,,
729600932.662451,1.204695,0.274987,-4.705581,-0.01532,0.022995,0.984344,-0.026344,-0.048495,0.028411,66.841843,9.007446,-147.320557,,,
729600932.665801,1.204695,0.274987,-4.705581,-0.01532,0.022995,0.984344,-0.026344,-0.048495,0.028411,66.841843,9.007446,-147.320557,,,
729600932.669135,1.195633,0.259892,-4.69754,-0.01532,0.022995,0.984344,-0.026344,-0.048495,0.028411,66.841843,9.007446,-147.320557,,,
729600932.672457,1.185477,0.24755,-4.690127,-0.01355,0.026321,0.985367,-0.040847,-0.049516,0.024414,66.841843,9.007446,-147.320557,,,
729600932.675801,1.185477,0.24755,-4.690127,-0.01355,0.026321,0.985367,-0.040847,-0.049516,0.024414,66.841843,9.007446,-147.320557,,,
729600932.679136,1.172631,0.231895,-4.683198,-0.01355,0.026321,0.985367,-0.040847,-0.049516,0.024414,66.841843,9.007446,-147.320557,,,
729600932.682456,1.161281,0.215865,-4.677079,-0.012527,0.021194,0.985657,-0.050403,-0.05615,0.018835,66.841843,9.007446,-147.320557,,,
729600932.685839,1.161281,0.215865,-4.677079,-0.012527,0.021194,0.985657,-0.050403,-0.05615,0.018835,66.841843,9.007446,-147.320557,,,
729600932.689125,1.146628,0.198047,-4.670991,-0.012527,0.021194,0.985657,-0.050403,-0.05615,0.018835,66.841843,9.007446,-147.320557,,,
729600932.692457,1.135622,0.178762,-4.664683,-0.016998,0.014465,0.989883,-0.045815,-0.059546,0.020252,66.841843,9.007446,-147.320557,,,
729600932.695788,1.135622,0.178762,-4.664683,-0.016998,0.014465,0.989883,-0.045815,-0.059546,0.020252,66.697632,9.061844,-147.000854,,,
729600932.699176,1.123427,0.159446,-4.658101,-0.016998,0.014465,0.989883,-0.045815,-0.059546,0.020252,66.697632,9.061844,-147.000854,,,
729600932.702451,1.113942,0.137584,-4.651594,-0.014847,0.007751,0.996567,-0.037919,-0.077114,0.019792,66.697632,9.061844,-147.000854,,,
729600932.705802,1.113942,0.137584,-4.651594,-0.014847,0.007751,0.996567,-0.037919,-0.077114,0.019792,66.697632,9.061844,-147.000854,,,
729600932.709133,1.103028,0.114707,-4.645301,-0.014847,0.007751,0.996567,-0.037919,-0.077114,0.019792,66.697632,9.061844,-147.000854,,,
729600932.7125,1.093268,0.095854,-4.638632,-0.009094,0.00856,0.991013,-0.028986,-0.0663,0.022819,66.697632,9.061844,-147.000854,,,
729600932.715795,1.093268,0.095854,-4.638632,-0.009094,0.00856,0.991013,-0.028986,-0.0663,0.022819,66.697632,9.061844,-147.000854,,,
729600932.719141,1.085886,0.077206,-4.63197,-0.009094,0.00856,0.991013,-0.028986,-0.0663,0.022819,66.697632,9.061844,-147.000854,,,
729600932.722454,1.079606,0.064615,-4.625871,-0.002609,0.011673,1.00531,-0.01266,-0.052801,0.019482,66.697632,9.061844,-147.000854,,,
729600932.72585,1.079606,0.064615,-4.625871,-0.002609,0.011673,1.00531,-0.01266,-0.052801,0.019482,66.697632,9.061844,-147.000854,,,
729600932.729116,1.076965,0.049766,-4.619841,-0.002609,0.011673,1.00531,-0.01266,-0.052801,0.019482,66.697632,9.061844,-147.000854,,,
729600932.732456,1.077577,0.042435,-4.61358,0.004562,0.01442,1.006378,0.01255,-0.028354,0.021622,66.697632,9.061844,-147.000854,,,
729600932.735806,1.077577,0.042435,-4.61358,0.004562,0.01442,1.006378,0.01255,-0.028354,0.021622,66.697632,9.061844,-147.000854,,,
729600932.739175,1.081725,0.035233,-4.607012,0.004562,0.01442,1.006378,0.01255,-0.028354,0.021622,66.622406,9.059448,-147.315994,,,
729600932.742442,1.088737,0.034748,-4.600538,0.008926,0.013351,1.009491,0.021191,-0.004649,0.021441,66.622406,9.059448,-147.315994,,,
729600932.745786,1.088737,0.034748,-4.600538,0.008926,0.013351,1.009491,0.021191,-0.004649,0.021441,66.622406,9.059448,-147.315994,,,
729600932.749134,1.094587,0.033304,-4.594199,0.008926,0.013351,1.009491,0.021191,-0.004649,0.021441,66.622406,9.059448,-147.315994,,,
729600932.752447,1.101566,0.036761,-4.588608,0.01297,0.019272,0.997574,0.01865,0.009988,0.016582,66.622406,9.059448,-147.315994,,,
729600932.755798,1.101566,0.036761,-4.588608,0.01297,0.019272,0.997574,0.01865,0.009988,0.016582,66.622406,9.059448,-147.315994,,,
729600932.75912,1.107059,0.038842,-4.583756,0.01297,0.019272,0.997574,0.01865,0.009988,0.016582,66.622406,9.059448,-147.315994,,,
729600932.762454,1.113181,0.043836,-4.580591,0.014282,0.028656,0.990341,0.022135,0.007649,0.005262,66.622406,9.059448,-147.315994,,,
729600932.765876,1.113181,0.043836,-4.580591,0.014282,0.028656,0.990341,0.022135,0.007649,0.005262,66.622406,9.059448,-147.315994,,,
729600932.769127,1.119353,0.043979,-4.579683,0.014282,0.028656,0.990341,0.022135,0.007649,0.005262,66.622406,9.059448,-147.315994,,,
729600932.772448,1.123531,0.045205,-4.581031,0.012894,0.037384,0.986237,0.021593,-0.01178,-0.009937,66.622406,9.059448,-147.315994,,,
729600932.775793,1.123531,0.045205,-4.581031,0.012894,0.037384,0.986237,0.021593,-0.01178,-0.009937,66.622406,9.059448,-147.315994,,,
729600932.779184,1.129169,0.039257,-4.584617,0.012894,0.037384,0.986237,0.021593,-0.01178,-0.009937,66.468552,8.948441,-147.149017,,,
729600932.782449,1.131283,0.033554,-4.590595,0.008698,0.043503,0.973907,0.016365,-0.029943,-0.026243,66.468552,8.948441,-147.149017,,,
729600932.785811,1.131283,0.033554,-4.590595,0.008698,0.043503,0.973907,0.016365,-0.029943,-0.026243,66.468552,8.948441,-147.149017,,,
729600932.789145,1.134633,0.024805,-4.598716,0.008698,0.043503,0.973907,0.016365,-0.029943,-0.026243,66.468552,8.948441,-147.149017,,,
729600932.79245,1.13507,0.017768,-4.607882,0.004761,0.040527,0.974655,0.013323,-0.028705,-0.033328,66.468552,8.948441,-147.149017,,,
729600932.795799,1.13507,0.017768,-4.607882,0.004761,0.040527,0.974655,0.013323,-0.028705,-0.033328,66.468552,8.948441,-147.149017,,,
729600932.799117,1.137717,0.007866,-4.61677,0.004761,0.040527,0.974655,0.013323,-0.028705,-0.033328,66.468552,8.948441,-147.149017,,,
729600932.802451,1.137631,-0.003503,-4.625187,0.00177,0.034286,0.979507,0.005887,-0.039236,-0.030047,66.468552,8.948441,-147.149017,,,
729600932.805851,1.137631,-0.003503,-4.625187,0.00177,0.034286,0.979507,0.005887,-0.039236,-0.030047,66.468552,8.948441,-147.149017,,,
729600932.809128,1.139228,-0.01579,-4.631606,0.00177,0.034286,0.979507,0.005887,-0.039236,-0.030047,66.468552,8.948441,-147.149017,,,
729600932.812457,1.139927,-0.030361,-4.635292,-0.002151,0.02504,0.976532,0.010094,-0.042962,-0.011235,66.468552,8.948441,-147.149017,,,
729600932.815803,1.139927,-0.030361,-4.635292,-0.002151,0.02504,0.976532,0.010094,-0.042962,-0.011235,66.468552,8.948441,-147.149017,,,
729600932.819193,1.143772,-0.044024,-4.636797,-0.002151,0.02504,0.976532,0.010094,-0.042962,-0.011235,66.51767,9.153244,-147.329102,,,
729600932.822455,1.149414,-0.061061,-4.635838,-0.004776,0.018204,0.987686,0.0325,-0.051115,0.005644,66.51767,9.153244,-147.329102,,,
729600932.825797,1.149414,-0.061061,-4.635838,-0.004776,0.018204,0.987686,0.0325,-0.051115,0.005644,66.51767,9.153244,-147.329102,,,
729600932.829127,1.160017,-0.077147,-4.632724,-0.004776,0.018204,0.987686,0.0325,-0.051115,0.005644,66.51767,9.153244,-147.329102,,,
729600932.832452,1.174151,-0.09705,-4.627837,-0.005478,0.016754,1.004227,0.05279,-0.05716,0.017521,66.51767,9.153244,-147.329102,,,
729600932.835798,1.174151,-0.09705,-4.627837,-0.005478,0.016754,1.004227,0.05279,-0.05716,0.017521,66.51767,9.153244,-147.329102,,,
729600932.839144,1.189501,-0.112824,-4.622176,-0.005478,0.016754,1.004227,0.05279,-0.05716,0.017521,66.51767,9.153244,-147.329102,,,
729600932.842448,1.208227,-0.126548,-4.616243,-0.000473,0.018509,1.005707,0.058206,-0.022207,0.01891,66.51767,9.153244,-147.329102,,,
729600932.845859,1.208227,-0.126548,-4.616243,-0.000473,0.018509,1.005707,0.058206,-0.022207,0.01891,66.51767,9.153244,-147.329102,,,
729600932.849135,1.22504,-0.130871,-4.6111,-0.000473,0.018509,1.005707,0.058206,-0.022207,0.01891,66.51767,9.153244,-147.329102,,,
729600932.852446,1.24698,-0.131159,-4.607317,0.006058,0.02092,1.013962,0.061995,0.02073,0.009039,66.51767,9.153244,-147.329102,,,
729600932.855794,1.24698,-0.131159,-4.607317,0.006058,0.02092,1.013962,0.061995,0.02073,0.009039,66.51767,9.153244,-147.329102,,,
729600932.859204,1.263941,-0.124587,-4.605179,0.006058,0.02092,1.013962,0.061995,0.02073,0.009039,66.562927,8.760056,-147.052322,,,
729600932.862448,1.284686,-0.117376,-4.604545,0.008514,0.025436,1.006058,0.052685,0.033632,-0.001617,66.562927,8.760056,-147.052322,,,
729600932.865849,1.284686,-0.117376,-4.604545,0.008514,0.025436,1.006058,0.052685,0.033632,-0.001617,66.562927,8.760056,-147.052322,,,
729600932.869201,1.298152,-0.107913,-4.605303,0.008514,0.025436,1.006058,0.052685,0.033632,-0.001617,66.562927,8.760056,-147.052322,,,
729600932.872462,1.31297,-0.097363,-4.607267,0.003922,0.028839,0.991379,0.035164,0.044181,-0.010046,66.562927,8.760056,-147.052322,,,
729600932.875789,1.31297,-0.097363,-4.607267,0.003922,0.028839,0.991379,0.035164,0.044181,-0.010046,66.562927,8.760056,-147.052322,,,
729600932.87915,1.321337,-0.08491,-4.609448,0.003922,0.028839,0.991379,0.035164,0.044181,-0.010046,66.562927,8.760056,-147.052322,,,
729600932.882458,1.328775,-0.071454,-4.611725,-0.002579,0.030548,0.988312,0.014381,0.049279,-0.010618,66.562927,8.760056,-147.052322,,,
729600932.885801,1.328775,-0.071454,-4.611725,-0.002579,0.030548,0.988312,0.014381,0.049279,-0.010618,66.562927,8.760056,-147.052322,,,
729600932.88914,1.331654,-0.059421,-4.613965,-0.002579,0.030548,0.988312,0.014381,0.049279,-0.010618,66.562927,8.760056,-147.052322,,,
729600932.892454,1.332396,-0.049283,-4.615541,-0.007538,0.034012,0.985703,-0.000202,0.028659,-0.005787,66.562927,8.760056,-147.052322,,,
729600932.895885,1.332396,-0.049283,-4.615541,-0.007538,0.034012,0.985703,-0.000202,0.028659,-0.005787,66.562927,8.760056,-147.052322,,,
729600932.899181,1.331114,-0.042715,-4.616652,-0.007538,0.034012,0.985703,-0.000202,0.028659,-0.005787,66.562927,8.760056,-147.052322,,,
729600932.902452,1.326645,-0.036058,-4.617164,-0.006042,0.036133,0.981018,-0.011908,0.018101,-0.001311,66.781631,8.616531,-147.22023,,,
729600932.905797,1.326645,-0.036058,-4.617164,-0.006042,0.036133,0.981018,-0.011908,0.018101,-0.001311,66.781631,8.616531,-147.22023,,,
