Time (sec),Pitch (deg),Roll (deg),Yaw(deg),X-Acceleration (g),Y-Acceleration (g),Z-Acceleration (g),Pitch Rate (deg/sec),Roll Rate (deg/sec),Yaw Rate (deg/sec),Magnetic Field in X direction (uT),Magnetic Field in Y direction (uT),Magnetic Field in Z Direction (uT),Latitude (deg),Longitude (deg),Altitude (m)
729600765.209985,3.111133,0.628511,-3.352802,-0.001724,0.056198,1.02507,0.062754,0.018561,-0.066229,68.132309,8.377716,-147.51413,,,
729600765.213198,3.130546,0.630467,-3.371078,-0.008453,0.05426,1.021042,0.071706,0.007147,-0.0624,68.132309,8.377716,-147.51413,,,
729600765.216664,3.151289,0.631729,-3.388245,-0.008453,0.05426,1.021042,0.071706,0.007147,-0.0624,68.132309,8.377716,-147.51413,,,
729600765.22003,3.151289,0.631729,-3.388245,-0.008453,0.05426,1.021042,0.071706,0.007147,-0.0624,68.132309,8.377716,-147.51413,,,
729600765.223326,3.171916,0.631062,-3.404481,-0.014496,0.054443,1.013428,0.071571,0.001025,-0.056314,68.132309,8.377716,-147.51413,,,
729600765.226656,3.191254,0.631096,-3.419873,-0.014496,0.054443,1.013428,0.071571,0.001025,-0.056314,68.132309,8.377716,-147.51413,,,
729600765.229923,3.191254,0.631096,-3.419873,-0.014496,0.054443,1.013428,0.071571,0.001025,-0.056314,68.132309,8.377716,-147.51413,,,
729600765.233339,3.208916,0.629629,-3.434035,-0.013992,0.056808,1.003357,0.061891,-0.001723,-0.04828,68.132309,8.377716,-147.51413,,,
729600765.236649,3.224861,0.628763,-3.447238,-0.013992,0.056808,1.003357,0.061891,-0.001723,-0.04828,68.132309,8.377716,-147.51413,,,
729600765.240065,3.224861,0.628763,-3.447238,-0.013992,0.056808,1.003357,0.061891,-0.001723,-0.04828,68.132309,8.377716,-147.51413,,,
729600765.243313,3.238086,0.626592,-3.459248,-0.017761,0.061539,0.995132,0.045392,-0.002698,-0.040583,68.07341,8.030029,-147.466583,,,
729600765.246478,3.249431,0.625284,-3.470402,-0.017761,0.061539,0.995132,0.045392,-0.002698,-0.040583,68.07341,8.030029,-147.466583,,,
729600765.250023,3.249431,0.625284,-3.470402,-0.017761,0.061539,0.995132,0.045392,-0.002698,-0.040583,68.07341,8.030029,-147.466583,,,
729600765.253309,3.257069,0.622556,-3.481398,-0.020004,0.064041,0.991577,0.024482,-0.007048,-0.039996,68.07341,8.030029,-147.466583,,,
729600765.256656,3.262879,0.619348,-3.492486,-0.020004,0.064041,0.991577,0.024482,-0.007048,-0.039996,68.07341,8.030029,-147.466583,,,
729600765.26005,3.262879,0.619348,-3.492486,-0.020004,0.064041,0.991577,0.024482,-0.007048,-0.039996,68.07341,8.030029,-147.466583,,,
729600765.26316,3.265782,0.613898,-3.503681,-0.022217,0.06488,0.984238,0.007744,-0.01714,-0.041231,68.07341,8.030029,-147.466583,,,
729600765.266672,3.266952,0.607485,-3.514637,-0.022217,0.06488,0.984238,0.007744,-0.01714,-0.041231,68.07341,8.030029,-147.466583,,,
729600765.270053,3.266952,0.607485,-3.514637,-0.022217,0.06488,0.984238,0.007744,-0.01714,-0.041231,68.07341,8.030029,-147.466583,,,
729600765.273324,3.266712,0.599049,-3.52474,-0.02298,0.063568,0.976425,-0.001145,-0.023262,-0.035761,68.07341,8.030029,-147.466583,,,
729600765.276647,3.265816,0.592267,-3.534418,-0.02298,0.063568,0.976425,-0.001145,-0.023262,-0.035761,68.07341,8.030029,-147.466583,,,
729600765.279833,3.265816,0.592267,-3.534418,-0.02298,0.063568,0.976425,-0.001145,-0.023262,-0.035761,68.07341,8.030029,-147.466583,,,
729600765.283342,3.264657,0.585974,-3.543296,-0.019897,0.062256,0.985352,-0.000232,-0.013814,-0.030511,67.986664,8.300415,-147.418488,,,
729600765.286646,3.264594,0.582087,-3.551413,-0.019897,0.062256,0.985352,-0.000232,-0.013814,-0.030511,67.986664,8.300415,-147.418488,,,
729600765.289986,3.264594,0.582087,-3.551413,-0.019897,0.062256,0.985352,-0.000232,-0.013814,-0.030511,67.986664,8.300415,-147.418488,,,
729600765.293325,3.264761,0.57943,-3.558726,-0.018204,0.061676,0.991928,0.004869,-0.005663,-0.024838,67.986664,8.300415,-147.418488,,,
729600765.296478,3.265928,0.578921,-3.56497,-0.018204,0.061676,0.991928,0.004869,-0.005663,-0.024838,67.986664,8.300415,-147.418488,,,
729600765.300043,3.265928,0.578921,-3.56497,-0.018204,0.061676,0.991928,0.004869,-0.005663,-0.024838,67.986664,8.300415,-147.418488,,,
729600765.303318,3.26652,0.582821,-3.570293,-0.019394,0.057571,0.988464,0.003096,0.019862,-0.018123,67.986664,8.300415,-147.418488,,,
729600765.30665,3.266301,0.589137,-3.574734,-0.019394,0.057571,0.988464,0.003096,0.019862,-0.018123,67.986664,8.300415,-147.418488,,,
729600765.309983,3.266301,0.589137,-3.574734,-0.019394,0.057571,0.988464,0.003096,0.019862,-0.018123,67.986664,8.300415,-147.418488,,,
729600765.313152,3.264557,0.597759,-3.578474,-0.019882,0.062073,0.980896,-0.00947,0.030314,-0.012997,67.986664,8.300415,-147.418488,,,
729600765.31667,3.260249,0.605302,-3.581859,-0.019882,0.062073,0.980896,-0.00947,0.030314,-0.012997,67.986664,8.300415,-147.418488,,,
729600765.320034,3.260249,0.605302,-3.581859,-0.019882,0.062073,0.980896,-0.00947,0.030314,-0.012997,67.986664,8.300415,-147.418488,,,
729600765.323312,3.253878,0.612827,-3.585648,-0.025833,0.066513,0.967239,-0.032161,0.019044,-0.015419,68.137421,8.129303,-146.993317,,,
729600765.326663,3.242557,0.61621,-3.589585,-0.025833,0.066513,0.967239,-0.032161,0.019044,-0.015419,68.137421,8.129303,-146.993317,,,
729600765.32986,3.242557,0.61621,-3.589585,-0.025833,0.066513,0.967239,-0.032161,0.019044,-0.015419,68.137421,8.129303,-146.993317,,,
729600765.333439,3.228954,0.618107,-3.593728,-0.033722,0.066589,0.954773,-0.058357,-0.003858,-0.016426,68.137421,8.129303,-146.993317,,,
729600765.336656,3.209862,0.614268,-3.597766,-0.033722,0.066589,0.954773,-0.058357,-0.003858,-0.016426,68.137421,8.129303,-146.993317,,,
729600765.339993,3.209862,0.614268,-3.597766,-0.033722,0.066589,0.954773,-0.058357,-0.003858,-0.016426,68.137421,8.129303,-146.993317,,,
729600765.343327,3.188463,0.608272,-3.601757,-0.038666,0.069901,0.95224,-0.086437,-0.03413,-0.015454,68.137421,8.129303,-146.993317,,,
729600765.346486,3.161778,0.596391,-3.606129,-0.038666,0.069901,0.95224,-0.086437,-0.03413,-0.015454,68.137421,8.129303,-146.993317,,,
729600765.350022,3.161778,0.596391,-3.606129,-0.038666,0.069901,0.95224,-0.086437,-0.03413,-0.015454,68.137421,8.129303,-146.993317,,,
729600765.353337,3.133834,0.583291,-3.610867,-0.036667,0.070007,0.955978,-0.105326,-0.055923,-0.017374,68.137421,8.129303,-146.993317,,,
729600765.356662,3.102847,0.566171,-3.614864,-0.036667,0.070007,0.955978,-0.105326,-0.055923,-0.017374,68.137421,8.129303,-146.993317,,,
729600765.359986,3.102847,0.566171,-3.614864,-0.036667,0.070007,0.955978,-0.105326,-0.055923,-0.017374,68.137421,8.129303,-146.993317,,,
729600765.363158,3.072031,0.549441,-3.617847,-0.033142,0.061798,0.967636,-0.110981,-0.060636,-0.009884,67.707642,8.225586,-147.286713,,,
729600765.366735,3.039645,0.532108,-3.61826,-0.033142,0.061798,0.967636,-0.110981,-0.060636,-0.009884,67.707642,8.225586,-147.286713,,,
729600765.369984,3.039645,0.532108,-3.61826,-0.033142,0.061798,0.967636,-0.110981,-0.060636,-0.009884,67.707642,8.225586,-147.286713,,,
729600765.373086,3.008006,0.517164,-3.615536,-0.034912,0.051224,0.98288,-0.111596,-0.049649,0.012334,67.707642,8.225586,-147.286713,,,
729600765.376689,2.975811,0.502729,-3.610503,-0.034912,0.051224,0.98288,-0.111596,-0.049649,0.012334,67.707642,8.225586,-147.286713,,,
729600765.379831,2.975811,0.502729,-3.610503,-0.034912,0.051224,0.98288,-0.111596,-0.049649,0.012334,67.707642,8.225586,-147.286713,,,
729600765.383355,2.945113,0.491131,-3.603151,-0.027618,0.045868,0.992737,-0.105673,-0.036334,0.028928,67.707642,8.225586,-147.286713,,,
729600765.386651,2.915157,0.480135,-3.593351,-0.027618,0.045868,0.992737,-0.105673,-0.036334,0.028928,67.707642,8.225586,-147.286713,,,
729600765.389998,2.915157,0.480135,-3.593351,-0.027618,0.045868,0.992737,-0.105673,-0.036334,0.028928,67.707642,8.225586,-147.286713,,,
729600765.39332,2.88819,0.471755,-3.582587,-0.017914,0.048004,1.000793,-0.095915,-0.027327,0.036198,67.707642,8.225586,-147.286713,,,
729600765.396483,2.861271,0.462768,-3.571425,-0.017914,0.048004,1.000793,-0.095915,-0.027327,0.036198,67.707642,8.225586,-147.286713,,,
729600765.400087,2.861271,0.462768,-3.571425,-0.017914,0.048004,1.000793,-0.095915,-0.027327,0.036198,67.707642,8.225586,-147.286713,,,
729600765.403318,2.837366,0.455829,-3.560717,-0.008392,0.053802,1.002045,-0.088242,-0.029053,0.033913,67.707642,8.225586,-147.286713,,,
729600765.406652,2.812819,0.445744,-3.551088,-0.008392,0.053802,1.002045,-0.088242,-0.029053,0.033913,67.855377,8.310699,-147.688232,,,
729600765.409981,2.812819,0.445744,-3.551088,-0.008392,0.053802,1.002045,-0.088242,-0.029053,0.033913,67.855377,8.310699,-147.688232,,,
729600765.413218,2.79242,0.437789,-3.542753,-0.001617,0.057343,1.00029,-0.076044,-0.03721,0.026079,67.855377,8.310699,-147.688232,,,
729600765.416686,2.771903,0.425417,-3.535546,-0.001617,0.057343,1.00029,-0.076044,-0.03721,0.026079,67.855377,8.310699,-147.688232,,,
729600765.419999,2.771903,0.425417,-3.535546,-0.001617,0.057343,1.00029,-0.076044,-0.03721,0.026079,67.855377,8.310699,-147.688232,,,
729600765.423328,2.756616,0.415283,-3.529461,0.005341,0.060226,1.002167,-0.061594,-0.049801,0.019708,67.855377,8.310699,-147.688232,,,
729600765.426653,2.739128,0.399291,-3.524065,0.005341,0.060226,1.002167,-0.061594,-0.049801,0.019708,67.855377,8.310699,-147.688232,,,
729600765.429808,2.739128,0.399291,-3.524065,0.005341,0.060226,1.002167,-0.061594,-0.049801,0.019708,67.855377,8.310699,-147.688232,,,
729600765.433353,2.725451,0.386679,-3.519455,0.00882,0.061859,1.001709,-0.055425,-0.054146,0.015648,67.855377,8.310699,-147.688232,,,
729600765.436649,2.70943,0.370121,-3.514673,0.00882,0.061859,1.001709,-0.055425,-0.054146,0.015648,67.855377,8.310699,-147.688232,,,
729600765.440086,2.70943,0.370121,-3.514673,0.00882,0.061859,1.001709,-0.055425,-0.054146,0.015648,67.855377,8.310699,-147.688232,,,
729600765.443302,2.695652,0.35806,-3.510207,0.007141,0.058197,1.003113,-0.052826,-0.051771,0.014922,67.855377,8.310699,-147.688232,,,
729600765.446475,2.680464,0.342294,-3.505711,0.007141,0.058197,1.003113,-0.052826,-0.051771,0.014922,67.96904,8.482697,-147.664124,,,
729600765.450012,2.680464,0.342294,-3.505711,0.007141,0.058197,1.003113,-0.052826,-0.051771,0.014922,67.96904,8.482697,-147.664124,,,
729600765.453373,2.665123,0.331583,-3.501995,0.004547,0.057571,1.004059,-0.055566,-0.046688,0.010946,67.96904,8.482697,-147.664124,,,
729600765.456646,2.648902,0.317353,-3.498713,0.004547,0.057571,1.004059,-0.055566,-0.046688,0.010946,67.96904,8.482697,-147.664124,,,
729600765.459982,2.648902,0.317353,-3.498713,0.004547,0.057571,1.004059,-0.055566,-0.046688,0.010946,67.96904,8.482697,-147.664124,,,
729600765.463157,2.632572,0.306846,-3.496173,0.003296,0.054062,1.004807,-0.056653,-0.044059,0.006873,67.96904,8.482697,-147.664124,,,
729600765.466668,2.61547,0.293129,-3.49416,0.003296,0.054062,1.004807,-0.056653,-0.044059,0.006873,67.96904,8.482697,-147.664124,,,
729600765.469996,2.61547,0.293129,-3.49416,0.003296,0.054062,1.004807,-0.056653,-0.044059,0.006873,67.96904,8.482697,-147.664124,,,
729600765.473358,2.599582,0.280717,-3.493048,0.001724,0.049896,1.008636,-0.054898,-0.049124,0.00126,67.96904,8.482697,-147.664124,,,
729600765.476742,2.58417,0.265315,-3.492661,0.001724,0.049896,1.008636,-0.054898,-0.049124,0.00126,67.96904,8.482697,-147.664124,,,
729600765.479915,2.58417,0.265315,-3.492661,0.001724,0.049896,1.008636,-0.054898,-0.049124,0.00126,67.96904,8.482697,-147.664124,,,
729600765.483356,2.573146,0.25025,-3.493126,-0.000473,0.04512,1.012344,-0.039449,-0.04821,-0.004492,67.96904,8.482697,-147.664124,,,
729600765.486647,2.56423,0.236877,-3.494681,-0.000473,0.04512,1.012344,-0.039449,-0.04821,-0.004492,67.681656,8.604294,-147.64032,,,
729600765.489983,2.56423,0.236877,-3.494681,-0.000473,0.04512,1.012344,-0.039449,-0.04821,-0.004492,67.681656,8.604294,-147.64032,,,
729600765.493322,2.564575,0.22652,-3.49731,-0.000977,0.034882,1.029755,0.005988,-0.020205,-0.012097,67.681656,8.604294,-147.64032,,,
729600765.496494,2.56982,0.222893,-3.500302,-0.000977,0.034882,1.029755,0.005988,-0.020205,-0.012097,67.681656,8.604294,-147.64032,,,
729600765.500008,2.56982,0.222893,-3.500302,-0.000977,0.034882,1.029755,0.005988,-0.020205,-0.012097,67.681656,8.604294,-147.64032,,,
729600765.503328,2.585753,0.221839,-3.503639,0.001068,0.026413,1.054855,0.059122,0.011904,-0.014931,67.681656,8.604294,-147.64032,,,
729600765.506646,2.605683,0.225977,-3.506934,0.001068,0.026413,1.054855,0.059122,0.011904,-0.014931,67.681656,8.604294,-147.64032,,,
729600765.509982,2.605683,0.225977,-3.506934,0.001068,0.026413,1.054855,0.059122,0.011904,-0.014931,67.681656,8.604294,-147.64032,,,
729600765.513154,2.634037,0.23048,-3.508604,-0.00238,0.023819,1.048538,0.097899,0.032456,-0.00424,67.681656,8.604294,-147.64032,,,
729600765.516675,2.663747,0.240093,-3.508765,-0.00238,0.023819,1.048538,0.097899,0.032456,-0.00424,67.681656,8.604294,-147.64032,,,
729600765.520045,2.663747,0.240093,-3.508765,-0.00238,0.023819,1.048538,0.097899,0.032456,-0.00424,67.681656,8.604294,-147.64032,,,
729600765.523324,2.69819,0.251002,-3.507814,-0.012863,0.02504,1.035919,0.119656,0.051467,0.003173,67.681656,8.604294,-147.64032,,,
729600765.526658,2.732682,0.265106,-3.506211,-0.012863,0.02504,1.035919,0.119656,0.051467,0.003173,67.792252,8.52916,-147.650467,,,
729600765.529907,2.732682,0.265106,-3.506211,-0.012863,0.02504,1.035919,0.119656,0.051467,0.003173,67.792252,8.52916,-147.650467,,,
729600765.533399,2.768258,0.278119,-3.504124,-0.013245,0.03389,1.019989,0.120447,0.051582,0.006207,67.792252,8.52916,-147.650467,,,
729600765.536644,2.801816,0.291278,-3.502034,-0.013245,0.03389,1.019989,0.120447,0.051582,0.006207,67.792252,8.52916,-147.650467,,,
729600765.540002,2.801816,0.291278,-3.502034,-0.013245,0.03389,1.019989,0.120447,0.051582,0.006207,67.792252,8.52916,-147.650467,,,
729600765.543317,2.833984,0.301653,-3.500125,-0.00975,0.044632,0.999329,0.107723,0.039253,0.004604,67.792252,8.52916,-147.650467,,,
729600765.546475,2.863451,0.310204,-3.499135,-0.00975,0.044632,0.999329,0.107723,0.039253,0.004604,67.792252,8.52916,-147.650467,,,
729600765.550021,2.863451,0.310204,-3.499135,-0.00975,0.044632,0.999329,0.107723,0.039253,0.004604,67.792252,8.52916,-147.650467,,,
729600765.55333,2.889682,0.31486,-3.498689,-0.012329,0.051559,0.986343,0.087715,0.018236,0.000402,67.792252,8.52916,-147.650467,,,
729600765.556653,2.912771,0.317846,-3.498658,-0.012329,0.051559,0.986343,0.087715,0.018236,0.000402,67.792252,8.52916,-147.650467,,,
729600765.559982,2.912771,0.317846,-3.498658,-0.012329,0.051559,0.986343,0.087715,0.018236,0.000402,67.792252,8.52916,-147.650467,,,
729600765.563172,2.930884,0.317397,-3.499047,-0.013733,0.052628,0.980286,0.063064,0.000138,-0.002963,67.792252,8.52916,-147.650467,,,
729600765.566666,2.947061,0.315513,-3.498717,-0.013733,0.052628,0.980286,0.063064,0.000138,-0.002963,67.792252,8.52916,-147.650467,,,
729600765.570014,2.947061,0.315513,-3.498717,-0.013733,0.052628,0.980286,0.063064,0.000138,-0.002963,67.571823,8.458267,-147.405762,,,
729600765.573416,2.957013,0.310957,-3.496748,-0.013199,0.051849,0.977707,0.046066,-0.012478,0.008089,67.571823,8.458267,-147.405762,,,
729600765.576737,2.970121,0.30617,-3.493835,-0.013199,0.051849,0.977707,0.046066,-0.012478,0.008089,67.571823,8.458267,-147.405762,,,
729600765.579836,2.970121,0.30617,-3.493835,-0.013199,0.051849,0.977707,0.046066,-0.012478,0.008089,67.571823,8.458267,-147.405762,,,
729600765.58335,2.979066,0.300578,-3.4897,-0.012207,0.049698,0.984497,0.048316,-0.009499,0.016164,67.571823,8.458267,-147.405762,,,
729600765.586648,2.993421,0.297207,-3.484317,-0.012207,0.049698,0.984497,0.048316,-0.009499,0.016164,67.571823,8.458267,-147.405762,,,
729600765.589981,2.993421,0.297207,-3.484317,-0.012207,0.049698,0.984497,0.048316,-0.009499,0.016164,67.571823,8.458267,-147.405762,,,
729600765.593314,3.003824,0.294477,-3.478317,-0.007935,0.049713,0.992691,0.053826,-0.005703,0.0205,67.571823,8.458267,-147.405762,,,
729600765.596471,3.018998,0.291446,-3.471181,-0.007935,0.049713,0.992691,0.053826,-0.005703,0.0205,67.571823,8.458267,-147.405762,,,
729600765.600004,3.018998,0.291446,-3.471181,-0.007935,0.049713,0.992691,0.053826,-0.005703,0.0205,67.571823,8.458267,-147.405762,,,
729600765.603305,3.029621,0.29017,-3.462517,-0.008041,0.048569,0.988007,0.049252,-0.001829,0.031512,67.571823,8.458267,-147.405762,,,
729600765.606645,3.043304,0.289249,-3.452475,-0.008041,0.048569,0.988007,0.049252,-0.001829,0.031512,67.571823,8.458267,-147.405762,,,
729600765.60998,3.043304,0.289249,-3.452475,-0.008041,0.048569,0.988007,0.049252,-0.001829,0.031512,67.724976,8.221481,-147.488235,,,
729600765.613138,3.05493,0.291266,-3.440969,-0.012375,0.049942,0.982529,0.050277,0.012423,0.042028,67.724976,8.221481,-147.488235,,,
729600765.616669,3.069154,0.29347,-3.427958,-0.012375,0.049942,0.982529,0.050277,0.012423,0.042028,67.724976,8.221481,-147.488235,,,
729600765.619987,3.069154,0.29347,-3.427958,-0.012375,0.049942,0.982529,0.050277,0.012423,0.042028,67.724976,8.221481,-147.488235,,,
729600765.623317,3.081786,0.296529,-3.413734,-0.006836,0.051895,0.987549,0.044404,0.015735,0.050566,67.724976,8.221481,-147.488235,,,
729600765.626646,3.09383,0.298665,-3.398364,-0.006836,0.051895,0.987549,0.044404,0.015735,0.050566,67.724976,8.221481,-147.488235,,,
729600765.629825,3.09383,0.298665,-3.398364,-0.006836,0.051895,0.987549,0.044404,0.015735,0.050566,67.724976,8.221481,-147.488235,,,
729600765.633345,3.103341,0.300997,-3.382301,-0.005188,0.051834,0.983383,0.027726,0.009018,0.05575,67.724976,8.221481,-147.488235,,,
729600765.636643,3.109277,0.301766,-3.366032,-0.005188,0.051834,0.983383,0.027726,0.009018,0.05575,67.724976,8.221481,-147.488235,,,
729600765.639982,3.109277,0.301766,-3.366032,-0.005188,0.051834,0.983383,0.027726,0.009018,0.05575,67.724976,8.221481,-147.488235,,,
729600765.643313,3.111319,0.303181,-3.350465,-0.006638,0.050888,0.978302,0.000873,0.007026,0.051042,67.724976,8.221481,-147.488235,,,
729600765.646472,3.109664,0.302589,-3.336148,-0.006638,0.050888,0.978302,0.000873,0.007026,0.051042,67.724976,8.221481,-147.488235,,,
729600765.65001,3.109664,0.302589,-3.336148,-0.006638,0.050888,0.978302,0.000873,0.007026,0.051042,67.533783,8.301285,-147.369934,,,
729600765.653313,3.103585,0.302109,-3.323731,-0.003372,0.056183,0.978714,-0.02668,-0.001647,0.038106,67.533783,8.301285,-147.369934,,,
729600765.656648,3.094031,0.299228,-3.312278,-0.003372,0.056183,0.978714,-0.02668,-0.001647,0.038106,67.533783,8.301285,-147.369934,,,
729600765.659979,3.094031,0.299228,-3.312278,-0.003372,0.056183,0.978714,-0.02668,-0.001647,0.038106,67.533783,8.301285,-147.369934,,,
729600765.663138,3.080927,0.296006,-3.301077,-0.003021,0.060638,0.975754,-0.046336,-0.010636,0.036576,67.533783,8.301285,-147.369934,,,
729600765.666671,3.066604,0.290731,-3.290056,-0.003021,0.060638,0.975754,-0.046336,-0.010636,0.036576,67.533783,8.301285,-147.369934,,,
729600765.669995,3.066604,0.290731,-3.290056,-0.003021,0.060638,0.975754,-0.046336,-0.010636,0.036576,67.533783,8.301285,-147.369934,,,
729600765.67331,3.050264,0.284776,-3.278897,-0.006241,0.056274,0.982025,-0.054952,-0.018548,0.037672,67.533783,8.301285,-147.369934,,,
729600765.676646,3.034281,0.277866,-3.267092,-0.006241,0.056274,0.982025,-0.054952,-0.018548,0.037672,67.533783,8.301285,-147.369934,,,
729600765.679821,3.034281,0.277866,-3.267092,-0.006241,0.056274,0.982025,-0.054952,-0.018548,0.037672,67.533783,8.301285,-147.369934,,,
729600765.683357,3.018738,0.27135,-3.254421,-0.010208,0.048828,0.992783,-0.048112,-0.020797,0.043973,67.533783,8.301285,-147.369934,,,
729600765.68664,3.006322,0.262894,-3.240399,-0.010208,0.048828,0.992783,-0.048112,-0.020797,0.043973,67.533783,8.301285,-147.369934,,,
729600765.689978,3.006322,0.262894,-3.240399,-0.010208,0.048828,0.992783,-0.048112,-0.020797,0.043973,67.888733,8.207062,-147.31015,,,
729600765.693313,2.996583,0.254136,-3.224725,-0.013718,0.04306,1.00148,-0.029012,-0.030152,0.055938,67.888733,8.207062,-147.31015,,,
729600765.696468,2.989068,0.242706,-3.206998,-0.013718,0.04306,1.00148,-0.029012,-0.030152,0.055938,67.888733,8.207062,-147.31015,,,
729600765.70007,2.989068,0.242706,-3.206998,-0.013718,0.04306,1.00148,-0.029012,-0.030152,0.055938,67.888733,8.207062,-147.31015,,,
729600765.703302,2.983633,0.230179,-3.188214,-0.016266,0.036942,1.00351,-0.016,-0.038556,0.063356,67.888733,8.207062,-147.31015,,,
729600765.706649,2.979497,0.218001,-3.169558,-0.016266,0.036942,1.00351,-0.016,-0.038556,0.063356,67.888733,8.207062,-147.31015,,,
729600765.709979,2.979497,0.218001,-3.169558,-0.016266,0.036942,1.00351,-0.016,-0.038556,0.063356,67.888733,8.207062,-147.31015,,,
729600765.71324,2.976697,0.206537,-3.151147,-0.01506,0.038956,1.005569,-0.006221,-0.035859,0.061808,67.888733,8.207062,-147.31015,,,
729600765.716673,2.975379,0.194319,-3.134255,-0.01506,0.038956,1.005569,-0.006221,-0.035859,0.061808,67.888733,8.207062,-147.31015,,,
729600765.720003,2.975379,0.194319,-3.134255,-0.01506,0.038956,1.005569,-0.006221,-0.035859,0.061808,67.888733,8.207062,-147.31015,,,
729600765.723348,2.974537,0.182174,-3.119382,-0.00769,0.042877,1.007355,-0.003687,-0.040832,0.048084,67.888733,8.207062,-147.31015,,,
729600765.72665,2.973493,0.168486,-3.105937,-0.00769,0.042877,1.007355,-0.003687,-0.040832,0.048084,67.888733,8.207062,-147.31015,,,
729600765.729838,2.973493,0.168486,-3.105937,-0.00769,0.042877,1.007355,-0.003687,-0.040832,0.048084,67.888733,8.207062,-147.31015,,,
729600765.733368,2.974592,0.154639,-3.093361,-0.002014,0.041595,1.002701,-0.00105,-0.0422,0.041984,67.758224,8.290573,-147.773987,,,
729600765.736648,2.973306,0.140703,-3.081291,-0.002014,0.041595,1.002701,-0.00105,-0.0422,0.041984,67.758224,8.290573,-147.773987,,,
729600765.740068,2.973306,0.140703,-3.081291,-0.002014,0.041595,1.002701,-0.00105,-0.0422,0.041984,67.758224,8.290573,-147.773987,,,
729600765.743313,2.973159,0.126299,-3.069955,-0.000351,0.037415,1.003433,-0.006395,-0.048196,0.036965,67.758224,8.290573,-147.773987,,,
729600765.746487,2.970016,0.111621,-3.059565,-0.000351,0.037415,1.003433,-0.006395,-0.048196,0.036965,67.758224,8.290573,-147.773987,,,
729600765.750029,2.970016,0.111621,-3.059565,-0.000351,0.037415,1.003433,-0.006395,-0.048196,0.036965,67.758224,8.290573,-147.773987,,,
729600765.753383,2.965232,0.09957,-3.049745,0.00853,0.044754,0.997894,-0.020816,-0.039524,0.033463,67.758224,8.290573,-147.773987,,,
729600765.756645,2.958507,0.087268,-3.040029,0.00853,0.044754,0.997894,-0.020816,-0.039524,0.033463,67.758224,8.290573,-147.773987,,,
729600765.759982,2.958507,0.087268,-3.040029,0.00853,0.044754,0.997894,-0.020816,-0.039524,0.033463,67.758224,8.290573,-147.773987,,,
729600765.763172,2.950114,0.077481,-3.031055,0.012726,0.052124,0.996613,-0.024122,-0.037365,0.029082,67.758224,8.290573,-147.773987,,,
729600765.766672,2.943337,0.065375,-3.023251,0.012726,0.052124,0.996613,-0.024122,-0.037365,0.029082,67.758224,8.290573,-147.773987,,,
729600765.769992,2.943337,0.065375,-3.023251,0.012726,0.052124,0.996613,-0.024122,-0.037365,0.029082,67.758224,8.290573,-147.773987,,,
729600765.773348,2.935666,0.05732,-3.017044,0.016006,0.046951,0.998077,-0.014054,-0.029176,0.018967,67.482239,8.344559,-147.466522,,,
729600765.776652,2.933268,0.047862,-3.012684,0.016006,0.046951,0.998077,-0.014054,-0.029176,0.018967,67.482239,8.344559,-147.466522,,,
729600765.779846,2.933268,0.047862,-3.012684,0.016006,0.046951,0.998077,-0.014054,-0.029176,0.018967,67.482239,8.344559,-147.466522,,,
729600765.783346,2.930939,0.0427,-3.010479,0.021973,0.03891,1.003357,0.006991,-0.022158,0.005128,67.482239,8.344559,-147.466522,,,
729600765.786645,2.934565,0.036288,-3.009195,0.021973,0.03891,1.003357,0.006991,-0.022158,0.005128,67.482239,8.344559,-147.466522,,,
729600765.789998,2.934565,0.036288,-3.009195,0.021973,0.03891,1.003357,0.006991,-0.022158,0.005128,67.482239,8.344559,-147.466522,,,
729600765.793321,2.939101,0.033339,-3.008947,0.021805,0.034531,1.005386,0.028185,-0.015685,-0.001177,67.482239,8.344559,-147.466522,,,
729600765.796521,2.947309,0.027961,-3.009806,0.021805,0.034531,1.005386,0.028185,-0.015685,-0.001177,67.482239,8.344559,-147.466522,,,
729600765.800007,2.947309,0.027961,-3.009806,0.021805,0.034531,1.005386,0.028185,-0.015685,-0.001177,67.482239,8.344559,-147.466522,,,
729600765.803326,2.954648,0.023272,-3.01175,0.019974,0.038742,0.998688,0.033088,-0.016986,-0.008452,67.482239,8.344559,-147.466522,,,
729600765.806645,2.963648,0.017721,-3.014517,0.019974,0.038742,0.998688,0.033088,-0.016986,-0.008452,67.482239,8.344559,-147.466522,,,
729600765.80998,2.963648,0.017721,-3.014517,0.019974,0.038742,0.998688,0.033088,-0.016986,-0.008452,67.482239,8.344559,-147.466522,,,
729600765.813173,2.969982,0.013458,-3.018843,0.019684,0.048477,0.988907,0.03288,-0.009589,-0.019211,67.328552,8.262238,-147.344589,,,
729600765.816718,2.978797,0.010827,-3.025067,0.019684,0.048477,0.988907,0.03288,-0.009589,-0.019211,67.328552,8.262238,-147.344589,,,
729600765.82005,2.978797,0.010827,-3.025067,0.019684,0.048477,0.988907,0.03288,-0.009589,-0.019211,67.328552,8.262238,-147.344589,,,
729600765.823341,2.984539,0.009238,-3.033248,0.021561,0.054428,0.987885,0.029949,0.000694,-0.033052,67.328552,8.262238,-147.344589,,,
729600765.826667,2.992604,0.009369,-3.042969,0.021561,0.054428,0.987885,0.029949,0.000694,-0.033052,67.328552,8.262238,-147.344589,,,
729600765.82986,2.992604,0.009369,-3.042969,0.021561,0.054428,0.987885,0.029949,0.000694,-0.033052,67.328552,8.262238,-147.344589,,,
729600765.833431,2.998874,0.007188,-3.053633,0.023682,0.055573,0.983154,0.022214,0.000728,-0.04049,67.328552,8.262238,-147.344589,,,
729600765.836641,3.004226,0.006928,-3.065628,0.023682,0.055573,0.983154,0.022214,0.000728,-0.04049,67.328552,8.262238,-147.344589,,,
729600765.839984,3.004226,0.006928,-3.065628,0.023682,0.055573,0.983154,0.022214,0.000728,-0.04049,67.328552,8.262238,-147.344589,,,
729600765.843314,3.007906,0.004698,-3.078619,0.023788,0.054031,0.973022,0.011853,0.005048,-0.048368,67.328552,8.262238,-147.344589,,,
729600765.846583,3.010314,0.007687,-3.09252,0.023788,0.054031,0.973022,0.011853,0.005048,-0.048368,67.328552,8.262238,-147.344589,,,
729600765.850015,3.010314,0.007687,-3.09252,0.023788,0.054031,0.973022,0.011853,0.005048,-0.048368,67.328552,8.262238,-147.344589,,,
729600765.853313,3.01022,0.009906,-3.107328,0.023163,0.05513,0.977676,0.005675,0.026848,-0.05611,67.442291,8.281891,-147.092499,,,
729600765.856648,3.010964,0.017735,-3.124057,0.023163,0.05513,0.977676,0.005675,0.026848,-0.05611,67.442291,8.281891,-147.092499,,,
729600765.859985,3.010964,0.017735,-3.124057,0.023163,0.05513,0.977676,0.005675,0.026848,-0.05611,67.442291,8.281891,-147.092499,,,
729600765.863135,3.00711,0.021018,-3.141565,0.025223,0.061279,0.97757,-0.002933,0.02584,-0.063169,67.442291,8.281891,-147.092499,,,
729600765.866669,3.005882,0.027807,-3.159826,0.025223,0.061279,0.97757,-0.002933,0.02584,-0.063169,67.442291,8.281891,-147.092499,,,
729600765.869997,3.005882,0.027807,-3.159826,0.025223,0.061279,0.97757,-0.002933,0.02584,-0.063169,67.442291,8.281891,-147.092499,,,
729600765.873382,3.000075,0.030105,-3.178853,0.018494,0.061569,0.967728,-0.009299,0.023929,-0.07007,67.442291,8.281891,-147.092499,,,
729600765.876645,2.996631,0.037016,-3.198585,0.018494,0.061569,0.967728,-0.009299,0.023929,-0.07007,67.442291,8.281891,-147.092499,,,
729600765.879822,2.996631,0.037016,-3.198585,0.018494,0.061569,0.967728,-0.009299,0.023929,-0.07007,67.442291,8.281891,-147.092499,,,
729600765.883332,2.989889,0.038938,-3.218629,0.01059,0.062073,0.972687,-0.018331,0.016811,-0.073705,67.442291,8.281891,-147.092499,,,
729600765.886703,2.984773,0.042668,-3.239678,0.01059,0.062073,0.972687,-0.018331,0.016811,-0.073705,67.442291,8.281891,-147.092499,,,
729600765.889986,2.984773,0.042668,-3.239678,0.01059,0.062073,0.972687,-0.018331,0.016811,-0.073705,67.442291,8.281891,-147.092499,,,
729600765.893313,2.97948,0.040836,-3.261016,0.00798,0.059891,0.97316,-0.0199,0.003865,-0.077081,67.442291,8.281891,-147.092499,,,
729600765.896518,2.97948,0.041614,-3.28246,0.00798,0.059891,0.97316,-0.0199,0.003865,-0.077081,67.50499,8.262146,-147.199936,,,
729600765.900058,2.973042,0.041614,-3.28246,0.00798,0.059891,0.97316,-0.0199,0.003865,-0.077081,67.50499,8.262146,-147.199936,,,
729600765.90333,2.966161,0.037892,-3.302585,0.000534,0.056747,0.97345,-0.027133,-0.002311,-0.069229,67.50499,8.262146,-147.199936,,,
729600765.906721,2.95716,0.037381,-3.321903,0.000534,0.056747,0.97345,-0.027133,-0.002311,-0.069229,67.50499,8.262146,-147.199936,,,
729600765.909977,2.95716,0.037381,-3.321903,0.000534,0.056747,0.97345,-0.027133,-0.002311,-0.069229,67.50499,8.262146,-147.199936,,,
729600765.913143,2.947777,0.034279,-3.340526,-0.009323,0.054382,0.976517,-0.034528,0.004441,-0.065698,67.50499,8.262146,-147.199936,,,
729600765.916701,2.93696,0.035893,-3.358671,-0.009323,0.054382,0.976517,-0.034528,0.004441,-0.065698,67.50499,8.262146,-147.199936,,,
729600765.91999,2.93696,0.035893,-3.358671,-0.009323,0.054382,0.976517,-0.034528,0.004441,-0.065698,67.50499,8.262146,-147.199936,,,
729600765.92332,2.92542,0.034929,-3.376203,-0.003952,0.054535,0.984863,-0.042774,0.009644,-0.062602,67.50499,8.262146,-147.199936,,,
729600765.926655,2.912474,0.038133,-3.393537,-0.003952,0.054535,0.984863,-0.042774,0.009644,-0.062602,67.50499,8.262146,-147.199936,,,
729600765.929834,2.912474,0.038133,-3.393537,-0.003952,0.054535,0.984863,-0.042774,0.009644,-0.062602,67.50499,8.262146,-147.199936,,,
729600765.933347,2.899889,0.038928,-3.410234,-0.001434,0.053391,0.98735,-0.047091,0.015085,-0.059383,67.50499,8.262146,-147.199936,,,
729600765.936683,2.886134,0.043517,-3.425696,-0.001434,0.053391,0.98735,-0.047091,0.015085,-0.059383,67.507141,8.290115,-147.375504,,,
729600765.940002,2.886134,0.043517,-3.425696,-0.001434,0.053391,0.98735,-0.047091,0.015085,-0.059383,67.507141,8.290115,-147.375504,,,
729600765.943315,2.873856,0.045761,-3.439497,-0.00972,0.052658,0.990555,-0.047624,0.020406,-0.048897,67.507141,8.290115,-147.375504,,,
729600765.946497,2.873856,0.045761,-3.439497,-0.00972,0.052658,0.990555,-0.047624,0.020406,-0.048897,67.507141,8.290115,-147.375504,,,
729600765.950073,2.860018,0.05092,-3.453179,-0.00972,0.052658,0.990555,-0.047624,0.020406,-0.048897,67.507141,8.290115,-147.375504,,,
729600765.953314,2.847669,0.052498,-3.466971,-0.006744,0.054291,0.997528,-0.049401,0.008865,-0.050324,67.507141,8.290115,-147.375504,,,
729600765.956709,2.832906,0.053888,-3.480732,-0.006744,0.054291,0.997528,-0.049401,0.008865,-0.050324,67.507141,8.290115,-147.375504,,,
729600765.959973,2.832906,0.053888,-3.480732,-0.006744,0.054291,0.997528,-0.049401,0.008865,-0.050324,67.507141,8.290115,-147.375504,,,
729600765.963182,2.819056,0.052202,-3.493727,-0.005371,0.054123,0.995178,-0.05424,-0.003791,-0.045432,67.507141,8.290115,-147.375504,,,
729600765.966715,2.802892,0.050622,-3.505858,-0.005371,0.054123,0.995178,-0.05424,-0.003791,-0.045432,67.507141,8.290115,-147.375504,,,
729600765.969987,2.802892,0.050622,-3.505858,-0.005371,0.054123,0.995178,-0.05424,-0.003791,-0.045432,67.507141,8.290115,-147.375504,,,
729600765.973361,2.78763,0.047166,-3.517524,-0.01062,0.052444,0.996902,-0.057527,-0.010992,-0.042484,67.507141,8.290115,-147.375504,,,
729600765.976667,2.78763,0.043094,-3.529239,-0.01062,0.052444,0.996902,-0.057527,-0.010992,-0.042484,67.585159,8.524765,-147.223572,,,
729600765.979836,2.770725,0.043094,-3.529239,-0.01062,0.052444,0.996902,-0.057527,-0.010992,-0.042484,67.585159,8.524765,-147.223572,,,
729600765.983379,2.7538,0.037479,-3.540352,-0.007889,0.056091,1.000259,-0.065515,-0.024238,-0.038195,67.585159,8.524765,-147.223572,,,
729600765.986679,2.7538,0.028992,-3.550532,-0.007889,0.056091,1.000259,-0.065515,-0.024238,-0.038195,67.585159,8.524765,-147.223572,,,
729600765.990009,2.734397,0.028992,-3.550532,-0.007889,0.056091,1.000259,-0.065515,-0.024238,-0.038195,67.585159,8.524765,-147.223572,,,
729600765.993318,2.714854,0.019859,-3.559835,-0.005463,0.05687,0.99646,-0.073509,-0.037846,-0.031623,67.585159,8.524765,-147.223572,,,
729600765.996511,2.714854,0.019859,-3.559835,-0.005463,0.05687,0.99646,-0.073509,-0.037846,-0.031623,67.585159,8.524765,-147.223572,,,
729600766.000029,2.693449,0.007971,-3.568177,-0.005463,0.05687,0.99646,-0.073509,-0.037846,-0.031623,67.585159,8.524765,-147.223572,,,
729600766.003319,2.673567,-0.00432,-3.576109,-0.004944,0.05545,1.001495,-0.073052,-0.041688,-0.028709,67.585159,8.524765,-147.223572,,,
729600766.006373,2.673567,-0.00432,-3.576109,-0.004944,0.05545,1.001495,-0.073052,-0.041688,-0.028709,67.585159,8.524765,-147.223572,,,
729600766.010029,2.653211,-0.016694,-3.583888,-0.004944,0.05545,1.001495,-0.073052,-0.041688,-0.028709,67.585159,8.524765,-147.223572,,,
729600766.013156,2.63641,-0.028018,-3.591425,-0.008133,0.050018,1.014038,-0.056883,-0.040226,-0.026762,67.585159,8.524765,-147.223572,,,
729600766.016735,2.63641,-0.028018,-3.591425,-0.008133,0.050018,1.014038,-0.056883,-0.040226,-0.026762,67.585159,8.524765,-147.223572,,,
729600766.019986,2.62193,-0.039288,-3.598449,-0.008133,0.050018,1.014038,-0.056883,-0.040226,-0.026762,67.676834,8.614609,-147.415161,,,
729600766.023327,2.612706,-0.046362,-3.60556,-0.003967,0.04454,1.027451,-0.031414,-0.026567,-0.026602,67.676834,8.614609,-147.415161,,,
729600766.026663,2.612706,-0.046362,-3.60556,-0.003967,0.04454,1.027451,-0.031414,-0.026567,-0.026602,67.676834,8.614609,-147.415161,,,
729600766.02991,2.60557,-0.05328,-3.61228,-0.003967,0.04454,1.027451,-0.031414,-0.026567,-0.026602,67.676834,8.614609,-147.415161,,,
729600766.033336,2.603978,-0.056604,-3.618316,-0.003937,0.039368,1.033585,-0.004214,-0.009382,-0.021503,67.676834,8.614609,-147.415161,,,
729600766.036667,2.603978,-0.056604,-3.618316,-0.003937,0.039368,1.033585,-0.004214,-0.009382,-0.021503,67.676834,8.614609,-147.415161,,,
729600766.04,2.604586,-0.058524,-3.623103,-0.003937,0.039368,1.033585,-0.004214,-0.009382,-0.021503,67.676834,8.614609,-147.415161,,,
729600766.043318,2.610984,-0.055318,-3.626638,-0.004868,0.037201,1.03653,0.024561,0.014071,-0.012207,67.676834,8.614609,-147.415161,,,
729600766.046497,2.610984,-0.055318,-3.626638,-0.004868,0.037201,1.03653,0.024561,0.014071,-0.012207,67.676834,8.614609,-147.415161,,,
729600766.050019,2.619778,-0.050643,-3.62951,-0.004868,0.037201,1.03653,0.024561,0.014071,-0.012207,67.676834,8.614609,-147.415161,,,
729600766.053374,2.633488,-0.042147,-3.632063,-0.002014,0.040329,1.041183,0.048946,0.024731,-0.009252,67.676834,8.614609,-147.415161,,,
729600766.056657,2.633488,-0.042147,-3.632063,-0.002014,0.040329,1.041183,0.048946,0.024731,-0.009252,67.676834,8.614609,-147.415161,,,
729600766.059977,2.647912,-0.036256,-3.63438,-0.002014,0.040329,1.041183,0.048946,0.024731,-0.009252,67.670898,8.400497,-147.299118,,,
729600766.06314,2.664851,-0.029652,-3.63655,0.000137,0.042542,1.030579,0.050297,0.019678,-0.007761,67.670898,8.400497,-147.299118,,,
729600766.066754,2.664851,-0.029652,-3.63655,0.000137,0.042542,1.030579,0.050297,0.019678,-0.007761,67.670898,8.400497,-147.299118,,,
729600766.069988,2.677685,-0.025176,-3.638503,0.000137,0.042542,1.030579,0.050297,0.019678,-0.007761,67.670898,8.400497,-147.299118,,,
729600766.073317,2.689069,-0.021261,-3.641449,-0.004089,0.046097,1.012283,0.027961,0.008434,-0.014339,67.670898,8.400497,-147.299118,,,
729600766.076746,2.689069,-0.021261,-3.641449,-0.004089,0.046097,1.012283,0.027961,0.008434,-0.014339,67.670898,8.400497,-147.299118,,,
729600766.079874,2.694558,-0.021484,-3.64585,-0.004089,0.046097,1.012283,0.027961,0.008434,-0.014339,67.670898,8.400497,-147.299118,,,
729600766.083341,2.696344,-0.024404,-3.65123,-0.00679,0.056549,0.99826,-0.006724,-0.019222,-0.020754,67.670898,8.400497,-147.299118,,,
729600766.086662,2.696344,-0.024404,-3.65123,-0.00679,0.056549,0.99826,-0.006724,-0.019222,-0.020754,67.670898,8.400497,-147.299118,,,
729600766.08999,2.69187,-0.033033,-3.65712,-0.00679,0.056549,0.99826,-0.006724,-0.019222,-0.020754,67.670898,8.400497,-147.299118,,,
729600766.093319,2.682989,-0.045109,-3.664071,-0.003983,0.062393,0.987076,-0.037729,-0.051935,-0.027691,67.670898,8.400497,-147.299118,,,
729600766.096485,2.682989,-0.045109,-3.664071,-0.003983,0.062393,0.987076,-0.037729,-0.051935,-0.027691,67.670898,8.400497,-147.299118,,,
729600766.10001,2.670617,-0.061689,-3.67148,-0.003983,0.062393,0.987076,-0.037729,-0.051935,-0.027691,67.426544,8.5103,-147.192184,,,
729600766.103315,2.65586,-0.078745,-3.679153,-0.007401,0.059402,0.993469,-0.047373,-0.061145,-0.029178,67.426544,8.5103,-147.192184,,,
729600766.10671,2.65586,-0.078745,-3.679153,-0.007401,0.059402,0.993469,-0.047373,-0.061145,-0.029178,67.426544,8.5103,-147.192184,,,
729600766.109978,2.642409,-0.096409,-3.687628,-0.007401,0.059402,0.993469,-0.047373,-0.061145,-0.029178,67.426544,8.5103,-147.192184,,,
729600766.113148,2.629404,-0.113069,-3.697376,0.000427,0.051682,1.013733,-0.035014,-0.060499,-0.037747,67.426544,8.5103,-147.192184,,,
729600766.116684,2.629404,-0.113069,-3.697376,0.000427,0.051682,1.013733,-0.035014,-0.060499,-0.037747,67.426544,8.5103,-147.192184,,,
729600766.120043,2.621643,-0.130302,-3.708017,0.000427,0.051682,1.013733,-0.035014,-0.060499,-0.037747,67.426544,8.5103,-147.192184,,,
729600766.123314,2.617881,-0.144858,-3.718447,0.009933,0.043457,1.026184,0.001211,-0.04808,-0.036036,67.426544,8.5103,-147.192184,,,
729600766.126648,2.617881,-0.144858,-3.718447,0.009933,0.043457,1.026184,0.001211,-0.04808,-0.036036,67.426544,8.5103,-147.192184,,,
729600766.12983,2.621357,-0.156923,-3.727535,0.009933,0.043457,1.026184,0.001211,-0.04808,-0.036036,67.426544,8.5103,-147.192184,,,
729600766.133338,2.630504,-0.164156,-3.734585,0.002243,0.02948,1.037064,0.04529,-0.016932,-0.021832,67.426544,8.5103,-147.192184,,,
729600766.136397,2.630504,-0.164156,-3.734585,0.002243,0.02948,1.037064,0.04529,-0.016932,-0.021832,67.426544,8.5103,-147.192184,,,
729600766.140018,2.64644,-0.167544,-3.739985,0.002243,0.02948,1.037064,0.04529,-0.016932,-0.021832,67.348846,8.462204,-147.340118,,,
729600766.143309,2.667219,-0.167932,-3.744021,-0.000977,0.021942,1.043457,0.08163,0.00263,-0.012396,67.348846,8.462204,-147.340118,,,
729600766.146548,2.667219,-0.167932,-3.744021,-0.000977,0.021942,1.043457,0.08163,0.00263,-0.012396,67.348846,8.462204,-147.340118,,,
729600766.149992,2.691605,-0.168095,-3.746894,-0.000977,0.021942,1.043457,0.08163,0.00263,-0.012396,67.348846,8.462204,-147.340118,,,
729600766.153319,2.717098,-0.167357,-3.749323,0.000351,0.023499,1.027252,0.087948,0.003627,-0.009056,67.348846,8.462204,-147.340118,,,
729600766.156642,2.717098,-0.167357,-3.749323,0.000351,0.023499,1.027252,0.087948,0.003627,-0.009056,67.348846,8.462204,-147.340118,,,
729600766.159981,2.741253,-0.167361,-3.750756,0.000351,0.023499,1.027252,0.087948,0.003627,-0.009056,67.348846,8.462204,-147.340118,,,
729600766.163133,2.764444,-0.167618,-3.75202,-0.004349,0.02951,1.009583,0.073985,-0.002491,-0.007642,67.348846,8.462204,-147.340118,,,
729600766.16667,2.764444,-0.167618,-3.75202,-0.004349,0.02951,1.009583,0.073985,-0.002491,-0.007642,67.348846,8.462204,-147.340118,,,
729600766.169993,2.783369,-0.169648,-3.75398,-0.004349,0.02951,1.009583,0.073985,-0.002491,-0.007642,67.348846,8.462204,-147.340118,,,
729600766.173309,2.800016,-0.173361,-3.756162,-0.00119,0.042145,0.99588,0.049185,-0.02001,-0.008858,67.348846,8.462204,-147.340118,,,
729600766.176643,2.800016,-0.173361,-3.756162,-0.00119,0.042145,0.99588,0.049185,-0.02001,-0.008858,67.348846,8.462204,-147.340118,,,
729600766.179821,2.812206,-0.181026,-3.758431,-0.00119,0.042145,0.99588,0.049185,-0.02001,-0.008858,67.348846,8.462204,-147.340118,,,
729600766.18334,2.822448,-0.189522,-3.76045,-0.002136,0.049164,0.985046,0.02976,-0.033587,-0.006662,67.045547,8.429031,-147.441498,,,
729600766.186696,2.822448,-0.189522,-3.76045,-0.002136,0.049164,0.985046,0.02976,-0.033587,-0.006662,67.045547,8.429031,-147.441498,,,
729600766.189977,2.830463,-0.20134,-3.762146,-0.002136,0.049164,0.985046,0.02976,-0.033587,-0.006662,67.045547,8.429031,-147.441498,,,
729600766.193315,2.837046,-0.216413,-3.763516,-0.004135,0.046356,0.983902,0.021159,-0.053553,-0.00448,67.045547,8.429031,-147.441498,,,
729600766.196486,2.837046,-0.216413,-3.763516,-0.004135,0.046356,0.983902,0.021159,-0.053553,-0.00448,67.045547,8.429031,-147.441498,,,
729600766.200095,2.843156,-0.234485,-3.76442,-0.004135,0.046356,0.983902,0.021159,-0.053553,-0.00448,67.045547,8.429031,-147.441498,,,
729600766.203329,2.846732,-0.256843,-3.765646,-0.000748,0.045013,0.982651,0.020567,-0.077602,-0.00703,67.045547,8.429031,-147.441498,,,
729600766.20666,2.846732,-0.256843,-3.765646,-0.000748,0.045013,0.982651,0.020567,-0.077602,-0.00703,67.045547,8.429031,-147.441498,,,
729600766.209983,2.852561,-0.280272,-3.767336,-0.000748,0.045013,0.982651,0.020567,-0.077602,-0.00703,67.045547,8.429031,-147.441498,,,
729600766.213179,2.853199,-0.302726,-3.769448,0.001694,0.047119,0.979279,0.021126,-0.079002,-0.009589,67.045547,8.429031,-147.441498,,,
729600766.216678,2.853199,-0.302726,-3.769448,0.001694,0.047119,0.979279,0.021126,-0.079002,-0.009589,67.045547,8.429031,-147.441498,,,
729600766.219987,2.859575,-0.325683,-3.772507,0.001694,0.047119,0.979279,0.021126,-0.079002,-0.009589,67.045547,8.429031,-147.441498,,,
729600766.22331,2.862348,-0.345904,-3.776619,0.009735,0.051605,0.982452,0.035304,-0.068136,-0.01662,67.104355,8.43985,-147.188644,,,
729600766.226642,2.862348,-0.345904,-3.776619,0.009735,0.051605,0.982452,0.035304,-0.068136,-0.01662,67.104355,8.43985,-147.188644,,,
729600766.229839,2.873543,-0.363831,-3.780965,0.009735,0.051605,0.982452,0.035304,-0.068136,-0.01662,67.104355,8.43985,-147.188644,,,
729600766.233341,2.880706,-0.375964,-3.784866,0.015198,0.054138,0.988998,0.044279,-0.03819,-0.013054,67.104355,8.43985,-147.188644,,,
729600766.236656,2.880706,-0.375964,-3.784866,0.015198,0.054138,0.988998,0.044279,-0.03819,-0.013054,67.104355,8.43985,-147.188644,,,
729600766.239976,2.892805,-0.386541,-3.7879,0.015198,0.054138,0.988998,0.044279,-0.03819,-0.013054,67.104355,8.43985,-147.188644,,,
729600766.243317,2.901035,-0.39394,-3.789977,0.013916,0.055328,0.983307,0.038188,-0.028678,-0.005663,67.104355,8.43985,-147.188644,,,
729600766.246489,2.901035,-0.39394,-3.789977,0.013916,0.055328,0.983307,0.038188,-0.028678,-0.005663,67.104355,8.43985,-147.188644,,,
729600766.250019,2.910203,-0.402588,-3.790447,0.013916,0.055328,0.983307,0.038188,-0.028678,-0.005663,67.104355,8.43985,-147.188644,,,
729600766.253305,2.916036,-0.408614,-3.790057,0.009857,0.05603,0.967072,0.020132,-0.018887,0.000903,67.104355,8.43985,-147.188644,,,
729600766.256639,2.916036,-0.408614,-3.790057,0.009857,0.05603,0.967072,0.020132,-0.018887,0.000903,67.104355,8.43985,-147.188644,,,
729600766.259976,2.920387,-0.414101,-3.789922,0.009857,0.05603,0.967072,0.020132,-0.018887,0.000903,67.104355,8.43985,-147.188644,,,
729600766.263134,2.922478,-0.417587,-3.79129,0.009293,0.060104,0.974701,0.005554,-0.017319,-0.008854,66.972153,8.224243,-147.020676,,,
729600766.266685,2.922478,-0.417587,-3.79129,0.009293,0.060104,0.974701,0.005554,-0.017319,-0.008854,66.972153,8.224243,-147.020676,,,
729600766.270002,2.922655,-0.424582,-3.794141,0.009293,0.060104,0.974701,0.005554,-0.017319,-0.008854,66.972153,8.224243,-147.020676,,,
729600766.273316,2.919859,-0.432414,-3.798439,0.015152,0.061813,0.967392,-0.009577,-0.034426,-0.018265,66.972153,8.224243,-147.020676,,,
729600766.276644,2.919859,-0.432414,-3.798439,0.015152,0.061813,0.967392,-0.009577,-0.034426,-0.018265,66.972153,8.224243,-147.020676,,,
729600766.279866,2.916791,-0.443142,-3.803164,0.015152,0.061813,0.967392,-0.009577,-0.034426,-0.018265,66.972153,8.224243,-147.020676,,,
729600766.283331,2.912094,-0.452428,-3.807902,0.010162,0.0569,0.971664,-0.015649,-0.033761,-0.017863,66.972153,8.224243,-147.020676,,,
729600766.286664,2.912094,-0.452428,-3.807902,0.010162,0.0569,0.971664,-0.015649,-0.033761,-0.017863,66.972153,8.224243,-147.020676,,,
729600766.290063,2.906992,-0.463223,-3.812657,0.010162,0.0569,0.971664,-0.015649,-0.033761,-0.017863,66.972153,8.224243,-147.020676,,,
729600766.293311,2.901083,-0.474528,-3.816989,0.00354,0.055313,0.98024,-0.019901,-0.041929,-0.014622,66.972153,8.224243,-147.020676,,,
729600766.296492,2.901083,-0.474528,-3.816989,0.00354,0.055313,0.98024,-0.019901,-0.041929,-0.014622,66.972153,8.224243,-147.020676,,,
729600766.300017,2.89531,-0.488157,-3.820074,0.00354,0.055313,0.98024,-0.019901,-0.041929,-0.014622,66.972153,8.224243,-147.020676,,,
729600766.30331,2.88965,-0.502962,-3.822198,0.005539,0.052643,0.978287,-0.021985,-0.045717,-0.008087,66.872589,8.331055,-146.93544,,,
729600766.30666,2.88965,-0.502962,-3.822198,0.005539,0.052643,0.978287,-0.021985,-0.045717,-0.008087,66.872589,8.331055,-146.93544,,,
729600766.309976,2.883301,-0.516399,-3.82393,0.005539,0.052643,0.978287,-0.021985,-0.045717,-0.008087,66.872589,8.331055,-146.93544,,,
729600766.313137,2.878029,-0.529196,-3.82556,0.004517,0.052124,0.983047,-0.018486,-0.036531,-0.007572,66.872589,8.331055,-146.93544,,,
729600766.316726,2.878029,-0.529196,-3.82556,0.004517,0.052124,0.983047,-0.018486,-0.036531,-0.007572,66.872589,8.331055,-146.93544,,,
729600766.319982,2.872346,-0.539642,-3.827507,0.004517,0.052124,0.983047,-0.018486,-0.036531,-0.007572,66.872589,8.331055,-146.93544,,,
729600766.32331,2.86774,-0.548398,-3.829203,0.007751,0.054367,0.990265,-0.016153,-0.022623,-0.005989,66.872589,8.331055,-146.93544,,,
729600766.326689,2.86774,-0.548398,-3.829203,0.007751,0.054367,0.990265,-0.016153,-0.022623,-0.005989,66.872589,8.331055,-146.93544,,,
729600766.329874,2.86352,-0.554599,-3.830227,0.007751,0.054367,0.990265,-0.016153,-0.022623,-0.005989,66.872589,8.331055,-146.93544,,,
729600766.333327,2.862097,-0.558608,-3.830767,0.005585,0.051666,0.991135,-0.003636,-0.008414,-0.002674,66.872589,8.331055,-146.93544,,,
729600766.336656,2.862097,-0.558608,-3.830767,0.005585,0.051666,0.991135,-0.003636,-0.008414,-0.002674,66.872589,8.331055,-146.93544,,,
729600766.339982,2.862345,-0.561113,-3.830355,0.005585,0.051666,0.991135,-0.003636,-0.008414,-0.002674,66.872589,8.331055,-146.93544,,,
729600766.343312,2.866679,-0.56218,-3.829124,0.004379,0.049759,1.001724,0.0147,0.004614,0.002709,66.872589,8.331055,-146.93544,,,
729600766.346485,2.866679,-0.56218,-3.829124,0.004379,0.049759,1.001724,0.0147,0.004614,0.002709,66.854065,8.366058,-147.5065,,,
729600766.350015,2.87083,-0.562181,-3.827796,0.004379,0.049759,1.001724,0.0147,0.004614,0.002709,66.854065,8.366058,-147.5065,,,
729600766.353306,2.876551,-0.564082,-3.826426,0.006927,0.051483,0.999008,0.014254,-0.004965,0.002788,66.854065,8.366058,-147.5065,,,
729600766.356697,2.876551,-0.564082,-3.826426,0.006927,0.051483,0.999008,0.014254,-0.004965,0.002788,66.854065,8.366058,-147.5065,,,
729600766.359969,2.879051,-0.567691,-3.824676,0.006927,0.051483,0.999008,0.014254,-0.004965,0.002788,66.854065,8.366058,-147.5065,,,
729600766.363137,2.879609,-0.572301,-3.822505,0.004547,0.05336,0.983337,-0.004953,-0.014174,0.00608,66.854065,8.366058,-147.5065,,,
729600766.36667,2.879609,-0.572301,-3.822505,0.004547,0.05336,0.983337,-0.004953,-0.014174,0.00608,66.854065,8.366058,-147.5065,,,
729600766.370005,2.87666,-0.57753,-3.820499,0.004547,0.05336,0.983337,-0.004953,-0.014174,0.00608,66.854065,8.366058,-147.5065,,,
729600766.373332,2.871732,-0.583122,-3.818765,0.002792,0.055771,0.983673,-0.02336,-0.021337,0.004617,66.854065,8.366058,-147.5065,,,
729600766.376642,2.871732,-0.583122,-3.818765,0.002792,0.055771,0.983673,-0.02336,-0.021337,0.004617,66.854065,8.366058,-147.5065,,,
729600766.379806,2.863757,-0.59139,-3.817722,0.002792,0.055771,0.983673,-0.02336,-0.021337,0.004617,66.854065,8.366058,-147.5065,,,
729600766.383333,2.854317,-0.600716,-3.8176,0.007965,0.06015,0.982315,-0.035972,-0.033196,-0.001443,66.854065,8.366058,-147.5065,,,
729600766.386637,2.854317,-0.600716,-3.8176,0.007965,0.06015,0.982315,-0.035972,-0.033196,-0.001443,66.842117,8.19545,-147.153625,,,
729600766.389994,2.842735,-0.611454,-3.818306,0.007965,0.06015,0.982315,-0.035972,-0.033196,-0.001443,66.842117,8.19545,-147.153625,,,
729600766.393313,2.83095,-0.622192,-3.819478,0.009155,0.060669,0.986328,-0.040966,-0.037126,-0.004464,66.842117,8.19545,-147.153625,,,
729600766.396469,2.83095,-0.622192,-3.819478,0.009155,0.060669,0.986328,-0.040966,-0.037126,-0.004464,66.842117,8.19545,-147.153625,,,
729600766.400017,2.819336,-0.633699,-3.820551,0.009155,0.060669,0.986328,-0.040966,-0.037126,-0.004464,66.842117,8.19545,-147.153625,,,
729600766.403312,2.809093,-0.644686,-3.821052,0.008621,0.058975,0.999756,-0.036312,-0.036682,-0.000323,66.842117,8.19545,-147.153625,,,
729600766.406747,2.809093,-0.644686,-3.821052,0.008621,0.058975,0.999756,-0.036312,-0.036682,-0.000323,66.842117,8.19545,-147.153625,,,
729600766.409963,2.799103,-0.656064,-3.820582,0.008621,0.058975,0.999756,-0.036312,-0.036682,-0.000323,66.842117,8.19545,-147.153625,,,
729600766.413163,2.79086,-0.666146,-3.819499,0.009506,0.059326,1.007874,-0.026149,-0.036768,0.004329,66.842117,8.19545,-147.153625,,,
729600766.416673,2.79086,-0.666146,-3.819499,0.009506,0.059326,1.007874,-0.026149,-0.036768,0.004329,66.842117,8.19545,-147.153625,,,
729600766.420039,2.783859,-0.676869,-3.817775,0.009506,0.059326,1.007874,-0.026149,-0.036768,0.004329,66.842117,8.19545,-147.153625,,,
729600766.423302,2.77892,-0.684998,-3.81623,0.008606,0.061707,1.011902,-0.013219,-0.027376,0.003394,66.842117,8.19545,-147.153625,,,
729600766.426642,2.77892,-0.684998,-3.81623,0.008606,0.061707,1.011902,-0.013219,-0.027376,0.003394,66.647842,8.402313,-147.543961,,,
729600766.429815,2.776107,-0.693734,-3.815064,0.008606,0.061707,1.011902,-0.013219,-0.027376,0.003394,66.647842,8.402313,-147.543961,,,
729600766.433332,2.776864,-0.700521,-3.814596,0.010422,0.066315,1.018448,0.006103,-0.022293,-0.001304,66.647842,8.402313,-147.543961,,,
729600766.436657,2.776864,-0.700521,-3.814596,0.010422,0.066315,1.018448,0.006103,-0.022293,-0.001304,66.647842,8.402313,-147.543961,,,
729600766.439985,2.780309,-0.706075,-3.815185,0.010422,0.066315,1.018448,0.006103,-0.022293,-0.001304,66.647842,8.402313,-147.543961,,,
729600766.443312,2.789091,-0.707316,-3.816658,0.009277,0.062256,1.029816,0.033365,-0.005081,-0.007177,66.647842,8.402313,-147.543961,,,
729600766.446532,2.789091,-0.707316,-3.816658,0.009277,0.062256,1.029816,0.033365,-0.005081,-0.007177,66.647842,8.402313,-147.543961,,,
729600766.450013,2.800134,-0.709543,-3.818088,0.009277,0.062256,1.029816,0.033365,-0.005081,-0.007177,66.647842,8.402313,-147.543961,,,
729600766.453309,2.815125,-0.710088,-3.819372,0.010101,0.059174,1.025528,0.047349,-0.005627,-0.005719,66.647842,8.402313,-147.543961,,,
729600766.456661,2.815125,-0.710088,-3.819372,0.010101,0.059174,1.025528,0.047349,-0.005627,-0.005719,66.647842,8.402313,-147.543961,,,
729600766.459974,2.828951,-0.712154,-3.819914,0.010101,0.059174,1.025528,0.047349,-0.005627,-0.005719,66.647842,8.402313,-147.543961,,,
729600766.463135,2.846448,-0.712913,-3.818742,0.004456,0.056015,1.013687,0.055222,0.000237,0.00629,66.647842,8.402313,-147.543961,,,
729600766.466658,2.846448,-0.712913,-3.818742,0.004456,0.056015,1.013687,0.055222,0.000237,0.00629,66.662903,8.414001,-147.117599,,,
729600766.469994,2.8621,-0.71328,-3.815933,0.004456,0.056015,1.013687,0.055222,0.000237,0.00629,66.662903,8.414001,-147.117599,,,
729600766.473307,2.879522,-0.712306,-3.812185,0.005463,0.057709,1.012329,0.053949,0.004118,0.013125,66.662903,8.414001,-147.117599,,,
729600766.476763,2.879522,-0.712306,-3.812185,0.005463,0.057709,1.012329,0.053949,0.004118,0.013125,66.662903,8.414001,-147.117599,,,
729600766.479813,2.894966,-0.711907,-3.807107,0.005463,0.057709,1.012329,0.053949,0.004118,0.013125,66.662903,8.414001,-147.117599,,,
729600766.483333,2.91216,-0.710751,-3.800868,0.005707,0.060486,1.00444,0.055125,0.005669,0.021403,66.662903,8.414001,-147.117599,,,
729600766.486734,2.91216,-0.710751,-3.800868,0.005707,0.060486,1.00444,0.055125,0.005669,0.021403,66.662903,8.414001,-147.117599,,,
729600766.489995,2.928472,-0.710692,-3.793316,0.005707,0.060486,1.00444,0.055125,0.005669,0.021403,66.662903,8.414001,-147.117599,,,
729600766.493333,2.947758,-0.710322,-3.785132,0.005936,0.057434,1.003586,0.063792,0.003754,0.025925,66.662903,8.414001,-147.117599,,,
729600766.496499,2.947758,-0.710322,-3.785132,0.005936,0.057434,1.003586,0.063792,0.003754,0.025925,66.662903,8.414001,-147.117599,,,
729600766.500078,2.967308,-0.710297,-3.777927,0.005936,0.057434,1.003586,0.063792,0.003754,0.025925,66.662903,8.414001,-147.117599,,,
729600766.503172,2.991535,-0.70968,-3.771768,0.013672,0.05304,1.007629,0.080605,0.00249,0.018743,66.662903,8.414001,-147.117599,,,
729600766.506691,2.991535,-0.70968,-3.771768,0.013672,0.05304,1.007629,0.080605,0.00249,0.018743,66.662903,8.414001,-147.117599,,,
729600766.509982,3.015538,-0.711218,-3.766017,0.013672,0.05304,1.007629,0.080605,0.00249,0.018743,66.912048,8.126678,-147.009857,,,
729600766.513154,3.043032,-0.714394,-3.760642,0.013519,0.050156,0.999191,0.089434,-0.011919,0.016133,66.912048,8.126678,-147.009857,,,
729600766.51669,3.043032,-0.714394,-3.760642,0.013519,0.050156,0.999191,0.089434,-0.011919,0.016133,66.912048,8.126678,-147.009857,,,
729600766.52001,3.068194,-0.719896,-3.755081,0.013519,0.050156,0.999191,0.089434,-0.011919,0.016133,66.912048,8.126678,-147.009857,,,
729600766.523314,3.094016,-0.725828,-3.75001,0.009598,0.048859,0.988876,0.086031,-0.019913,0.012986,66.912048,8.126678,-147.009857,,,
729600766.526644,3.094016,-0.725828,-3.75001,0.009598,0.048859,0.988876,0.086031,-0.019913,0.012986,66.912048,8.126678,-147.009857,,,
729600766.529821,3.117589,-0.733104,-3.745454,0.009598,0.048859,0.988876,0.086031,-0.019913,0.012986,66.912048,8.126678,-147.009857,,,
729600766.533339,3.139125,-0.741373,-3.740741,0.009201,0.052185,0.983978,0.069675,-0.032557,0.01461,66.912048,8.126678,-147.009857,,,
729600766.536652,3.139125,-0.741373,-3.740741,0.009201,0.052185,0.983978,0.069675,-0.032557,0.01461,66.912048,8.126678,-147.009857,,,
729600766.540065,3.15747,-0.752545,-3.735777,0.009201,0.052185,0.983978,0.069675,-0.032557,0.01461,66.912048,8.126678,-147.009857,,,
729600766.543309,3.172912,-0.763022,-3.72961,0.008881,0.055618,0.974548,0.050259,-0.040478,0.02394,66.912048,8.126678,-147.009857,,,
729600766.546484,3.172912,-0.763022,-3.72961,0.008881,0.055618,0.974548,0.050259,-0.040478,0.02394,66.912048,8.126678,-147.009857,,,
729600766.550015,3.185546,-0.775064,-3.721386,0.008881,0.055618,0.974548,0.050259,-0.040478,0.02394,66.561447,8.19313,-147.446259,,,
729600766.553315,3.195742,-0.783818,-3.711658,0.008072,0.053482,0.976089,0.028655,-0.027703,0.035288,66.561447,8.19313,-147.446259,,,
729600766.556682,3.195742,-0.783818,-3.711658,0.008072,0.053482,0.976089,0.028655,-0.027703,0.035288,66.561447,8.19313,-147.446259,,,
729600766.559983,3.202446,-0.792391,-3.700072,0.008072,0.053482,0.976089,0.028655,-0.027703,0.035288,66.561447,8.19313,-147.446259,,,
729600766.563143,3.207443,-0.797313,-3.68657,0.00882,0.049469,0.980011,0.01231,-0.013842,0.049512,66.561447,8.19313,-147.446259,,,
729600766.566741,3.207443,-0.797313,-3.68657,0.00882,0.049469,0.980011,0.01231,-0.013842,0.049512,66.561447,8.19313,-147.446259,,,
729600766.569993,3.209653,-0.802184,-3.671421,0.00882,0.049469,0.980011,0.01231,-0.013842,0.049512,66.561447,8.19313,-147.446259,,,
729600766.573313,3.210284,-0.804645,-3.655597,0.011917,0.047958,0.979446,0.000629,-0.002995,0.054757,66.561447,8.19313,-147.446259,,,
729600766.576655,3.210284,-0.804645,-3.655597,0.011917,0.047958,0.979446,0.000629,-0.002995,0.054757,66.561447,8.19313,-147.446259,,,
729600766.579887,3.209878,-0.807167,-3.639806,0.011917,0.047958,0.979446,0.000629,-0.002995,0.054757,66.561447,8.19313,-147.446259,,,
729600766.583331,3.207439,-0.809483,-3.625079,0.018509,0.050705,0.980164,-0.006819,-0.000973,0.047406,66.561447,8.19313,-147.446259,,,
729600766.586661,3.207439,-0.809483,-3.625079,0.018509,0.050705,0.980164,-0.006819,-0.000973,0.047406,66.561447,8.19313,-147.446259,,,
729600766.589987,3.204549,-0.811305,-3.611751,0.018509,0.050705,0.980164,-0.006819,-0.000973,0.047406,66.567017,8.042664,-147.319962,,,
729600766.593324,3.199762,-0.813271,-3.599577,0.018921,0.055313,0.9758,-0.011643,-0.004813,0.039577,66.567017,8.042664,-147.319962,,,
729600766.59649,3.199762,-0.813271,-3.599577,0.018921,0.055313,0.9758,-0.011643,-0.004813,0.039577,66.567017,8.042664,-147.319962,,,
729600766.600026,3.196019,-0.816903,-3.587824,0.018921,0.055313,0.9758,-0.011643,-0.004813,0.039577,66.567017,8.042664,-147.319962,,,
729600766.603311,3.190932,-0.820938,-3.576421,0.018875,0.053146,0.97261,-0.013131,-0.015409,0.037649,66.567017,8.042664,-147.319962,,,
729600766.606703,3.190932,-0.820938,-3.576421,0.018875,0.053146,0.97261,-0.013131,-0.015409,0.037649,66.567017,8.042664,-147.319962,,,
729600766.609976,3.18682,-0.828194,-3.56559,0.018875,0.053146,0.97261,-0.013131,-0.015409,0.037649,66.567017,8.042664,-147.319962,,,
729600766.613176,3.18682,-0.828194,-3.56559,0.018326,0.0504,0.975815,-0.016532,-0.036061,0.034957,66.567017,8.042664,-147.319962,,,
729600766.616686,3.181952,-0.837485,-3.55521,0.018326,0.0504,0.975815,-0.016532,-0.036061,0.034957,66.567017,8.042664,-147.319962,,,
729600766.620053,3.176379,-0.850953,-3.544769,0.018326,0.0504,0.975815,-0.016532,-0.036061,0.034957,66.567017,8.042664,-147.319962,,,
729600766.62331,3.17042,-0.866084,-3.534552,0.015274,0.048508,0.973709,-0.021289,-0.054809,0.033883,66.567017,8.042664,-147.319962,,,
729600766.626646,3.17042,-0.866084,-3.534552,0.015274,0.048508,0.973709,-0.021289,-0.054809,0.033883,66.567017,8.042664,-147.319962,,,
729600766.629816,3.162742,-0.883626,-3.525317,0.015274,0.048508,0.973709,-0.021289,-0.054809,0.033883,66.567017,8.042664,-147.319962,,,
729600766.633332,3.153956,-0.899696,-3.51751,0.02034,0.047928,0.976639,-0.026995,-0.051225,0.024348,66.510025,7.994507,-147.372726,,,
729600766.636653,3.153956,-0.899696,-3.51751,0.02034,0.047928,0.976639,-0.026995,-0.051225,0.024348,66.510025,7.994507,-147.372726,,,
729600766.639998,3.146472,-0.914528,-3.511581,0.02034,0.047928,0.976639,-0.026995,-0.051225,0.024348,66.510025,7.994507,-147.372726,,,
729600766.643314,3.139842,-0.924766,-3.507637,0.029022,0.046432,0.992538,-0.016542,-0.025119,0.010663,66.510025,7.994507,-147.372726,,,
729600766.646524,3.139842,-0.924766,-3.507637,0.029022,0.046432,0.992538,-0.016542,-0.025119,0.010663,66.510025,7.994507,-147.372726,,,
729600766.650027,3.136177,-0.930609,-3.504641,0.029022,0.046432,0.992538,-0.016542,-0.025119,0.010663,66.510025,7.994507,-147.372726,,,
729600766.65331,3.136177,-0.930609,-3.504641,0.032898,0.041809,1.006836,-0.005777,0.00571,0.008947,66.510025,7.994507,-147.372726,,,
729600766.656667,3.133252,-0.931806,-3.501878,0.032898,0.041809,1.006836,-0.005777,0.00571,0.008947,66.510025,7.994507,-147.372726,,,
729600766.659981,3.13203,-0.929619,-3.498483,0.032898,0.041809,1.006836,-0.005777,0.00571,0.008947,66.510025,7.994507,-147.372726,,,
729600766.663163,3.13203,-0.929619,-3.498483,0.032898,0.041809,1.006836,-0.00798,0.026464,0.013281,66.510025,7.994507,-147.372726,,,
729600766.666688,3.130369,-0.9249,-3.494446,0.028168,0.037735,1.00296,-0.00798,0.026464,0.013281,66.510025,7.994507,-147.372726,,,
729600766.669994,3.127669,-0.917067,-3.489352,0.028168,0.037735,1.00296,-0.00798,0.026464,0.013281,66.510025,7.994507,-147.372726,,,
729600766.673311,3.127669,-0.917067,-3.489352,0.022552,0.041092,0.994736,-0.017277,0.036842,0.021339,66.75415,7.961304,-147.29245,,,
729600766.676643,3.123804,-0.908362,-3.483086,0.022552,0.041092,0.994736,-0.017277,0.036842,0.021339,66.75415,7.961304,-147.29245,,,
729600766.679802,3.117476,-0.899628,-3.476222,0.022552,0.041092,0.994736,-0.017277,0.036842,0.021339,66.75415,7.961304,-147.29245,,,
729600766.68333,3.117476,-0.899628,-3.46911,0.016785,0.045776,0.981796,-0.034563,0.019878,0.023152,66.75415,7.961304,-147.29245,,,
729600766.686704,3.108635,-0.893746,-3.46911,0.016785,0.045776,0.981796,-0.034563,0.019878,0.023152,66.75415,7.961304,-147.29245,,,
729600766.689988,3.096618,-0.89112,-3.462673,0.016785,0.045776,0.981796,-0.034563,0.019878,0.023152,66.75415,7.961304,-147.29245,,,
