Time (sec),Pitch (deg),Roll (deg),Yaw(deg),X-Acceleration (g),Y-Acceleration (g),Z-Acceleration (g),Pitch Rate (deg/sec),Roll Rate (deg/sec),Yaw Rate (deg/sec),Magnetic Field in X direction (uT),Magnetic Field in Y direction (uT),Magnetic Field in Z Direction (uT),Latitude (deg),Longitude (deg),Altitude (m)
729607066.13849,1.527127,1.205581,49.859347,-0.023499,0.026779,1.004227,-0.021641,-0.000787,-0.008775,63.33313,20.405731,-147.603638,,,
729607066.141928,1.527127,1.205581,49.859347,-0.023499,0.026779,1.004227,-0.021641,-0.000787,-0.008775,63.33313,20.405731,-147.603638,,,
729607066.14516,1.521146,1.202275,49.858043,-0.028412,0.024185,1.002182,-0.020626,-0.007414,-0.004984,63.33313,20.405731,-147.603638,,,
729607066.148552,1.515425,1.200646,49.857399,-0.028412,0.024185,1.002182,-0.020626,-0.007414,-0.004984,63.33313,20.405731,-147.603638,,,
729607066.151883,1.515425,1.200646,49.857399,-0.028412,0.024185,1.002182,-0.020626,-0.007414,-0.004984,63.33313,20.405731,-147.603638,,,
729607066.155158,1.509962,1.19453,49.856599,-0.028641,0.020828,1.004333,-0.017186,-0.01778,0.000129,63.239548,20.421188,-147.518204,,,
729607066.158505,1.504261,1.190035,49.85584,-0.028641,0.020828,1.004333,-0.017186,-0.01778,0.000129,63.239548,20.421188,-147.518204,,,
729607066.161901,1.504261,1.190035,49.85584,-0.028641,0.020828,1.004333,-0.017186,-0.01778,0.000129,63.239548,20.421188,-147.518204,,,
729607066.16517,1.499038,1.181287,49.855237,-0.028091,0.022095,1.001266,-0.017499,-0.029159,-0.004093,63.239548,20.421188,-147.518204,,,
729607066.168515,1.494508,1.175916,49.85345,-0.028091,0.022095,1.001266,-0.017499,-0.029159,-0.004093,63.239548,20.421188,-147.518204,,,
729607066.171859,1.494508,1.175916,49.85345,-0.028091,0.022095,1.001266,-0.017499,-0.029159,-0.004093,63.239548,20.421188,-147.518204,,,
729607066.175218,1.491984,1.167133,49.851123,-0.027756,0.017517,1.008179,-0.007026,-0.028849,-0.008443,63.239548,20.421188,-147.518204,,,
729607066.178489,1.491585,1.160827,49.849034,-0.027756,0.017517,1.008179,-0.007026,-0.028849,-0.008443,63.239548,20.421188,-147.518204,,,
729607066.181859,1.491585,1.160827,49.849034,-0.027756,0.017517,1.008179,-0.007026,-0.028849,-0.008443,63.239548,20.421188,-147.518204,,,
729607066.185172,1.493515,1.152318,49.847661,-0.030869,0.009995,1.012253,0.006093,-0.025351,-0.007443,63.239548,20.421188,-147.518204,,,
729607066.188488,1.497326,1.145975,49.84807,-0.030869,0.009995,1.012253,0.006093,-0.025351,-0.007443,63.239548,20.421188,-147.518204,,,
729607066.191875,1.497326,1.145975,49.84807,-0.030869,0.009995,1.012253,0.006093,-0.025351,-0.007443,63.239548,20.421188,-147.518204,,,
729607066.195155,1.50263,1.137365,49.850644,-0.034195,0.002625,1.008163,0.01823,-0.024048,0.008545,63.252182,20.207764,-147.761963,,,
729607066.198488,1.509415,1.130116,49.854665,-0.034195,0.002625,1.008163,0.01823,-0.024048,0.008545,63.252182,20.207764,-147.761963,,,
729607066.20196,1.509415,1.130116,49.854665,-0.034195,0.002625,1.008163,0.01823,-0.024048,0.008545,63.252182,20.207764,-147.761963,,,
729607066.205146,1.518324,1.122385,49.860351,-0.029724,0.002304,1.004807,0.030615,-0.023929,0.019236,63.252182,20.207764,-147.761963,,,
729607066.208512,1.528349,1.117514,49.866615,-0.029724,0.002304,1.004807,0.030615,-0.023929,0.019236,63.252182,20.207764,-147.761963,,,
729607066.211858,1.528349,1.117514,49.866615,-0.029724,0.002304,1.004807,0.030615,-0.023929,0.019236,63.252182,20.207764,-147.761963,,,
729607066.215234,1.539406,1.112465,49.8725,-0.018967,0.011963,0.999649,0.039367,-0.016534,0.020421,63.252182,20.207764,-147.761963,,,
729607066.218483,1.550873,1.111622,49.877593,-0.018967,0.011963,0.999649,0.039367,-0.016534,0.020421,63.252182,20.207764,-147.761963,,,
729607066.221833,1.550873,1.111622,49.877593,-0.018967,0.011963,0.999649,0.039367,-0.016534,0.020421,63.252182,20.207764,-147.761963,,,
729607066.225167,1.562309,1.110295,49.882292,-0.011063,0.018417,0.993118,0.0398,-9.4e-05,0.014137,63.252182,20.207764,-147.761963,,,
729607066.228545,1.57235,1.115901,49.886393,-0.011063,0.018417,0.993118,0.0398,-9.4e-05,0.014137,63.252182,20.207764,-147.761963,,,
729607066.231822,1.57235,1.115901,49.886393,-0.011063,0.018417,0.993118,0.0398,-9.4e-05,0.014137,63.252182,20.207764,-147.761963,,,
729607066.235162,1.581944,1.119594,49.889998,-0.007782,0.022568,0.98584,0.032743,0.016154,0.011355,63.132401,20.390442,-147.626266,,,
729607066.238506,1.588582,1.12974,49.893835,-0.007782,0.022568,0.98584,0.032743,0.016154,0.011355,63.132401,20.390442,-147.626266,,,
729607066.24184,1.588582,1.12974,49.893835,-0.007782,0.022568,0.98584,0.032743,0.016154,0.011355,63.132401,20.390442,-147.626266,,,
729607066.245173,1.595414,1.137863,49.898628,-0.009811,0.027222,0.981049,0.025123,0.034351,0.014458,63.132401,20.390442,-147.626266,,,
729607066.248503,1.599502,1.150168,49.903655,-0.009811,0.027222,0.981049,0.025123,0.034351,0.014458,63.132401,20.390442,-147.626266,,,
729607066.251913,1.599502,1.150168,49.903655,-0.009811,0.027222,0.981049,0.025123,0.034351,0.014458,63.132401,20.390442,-147.626266,,,
729607066.255154,1.602969,1.158183,49.909041,-0.013062,0.030426,0.977036,0.014333,0.032797,0.018468,63.132401,20.390442,-147.626266,,,
729607066.25849,1.602027,1.167808,49.914462,-0.013062,0.030426,0.977036,0.014333,0.032797,0.018468,63.132401,20.390442,-147.626266,,,
729607066.261829,1.602027,1.167808,49.914462,-0.013062,0.030426,0.977036,0.014333,0.032797,0.018468,63.132401,20.390442,-147.626266,,,
729607066.265156,1.601939,1.171963,49.919657,-0.013962,0.033554,0.971725,-0.000119,0.01523,0.019537,63.132401,20.390442,-147.626266,,,
729607066.268519,1.596209,1.179098,49.924007,-0.013962,0.033554,0.971725,-0.000119,0.01523,0.019537,63.132401,20.390442,-147.626266,,,
729607066.271821,1.596209,1.179098,49.924007,-0.013962,0.033554,0.971725,-0.000119,0.01523,0.019537,63.132401,20.390442,-147.626266,,,
729607066.275175,1.593811,1.179618,49.926713,-0.00795,0.037704,0.973465,-0.007746,0.005179,0.009522,63.132401,20.390442,-147.626266,,,
729607066.278534,1.586395,1.184699,49.926931,-0.00795,0.037704,0.973465,-0.007746,0.005179,0.009522,63.101883,20.34523,-147.736252,,,
729607066.281814,1.586395,1.184699,49.926931,-0.00795,0.037704,0.973465,-0.007746,0.005179,0.009522,63.101883,20.34523,-147.736252,,,
729607066.285162,1.585138,1.183227,49.925284,1.5e-05,0.041626,0.981628,-0.00637,-0.002713,-0.004068,63.101883,20.34523,-147.736252,,,
729607066.288513,1.581206,1.184671,49.922507,1.5e-05,0.041626,0.981628,-0.00637,-0.002713,-0.004068,63.101883,20.34523,-147.736252,,,
729607066.291934,1.581206,1.184671,49.922507,1.5e-05,0.041626,0.981628,-0.00637,-0.002713,-0.004068,63.101883,20.34523,-147.736252,,,
729607066.295172,1.582644,1.187473,49.919185,0.001785,0.040802,0.99086,0.006176,0.009406,-0.013424,63.101883,20.34523,-147.736252,,,
729607066.298505,1.582606,1.192885,49.915012,0.001785,0.040802,0.99086,0.006176,0.009406,-0.013424,63.101883,20.34523,-147.736252,,,
729607066.301824,1.582606,1.192885,49.915012,0.001785,0.040802,0.99086,0.006176,0.009406,-0.013424,63.101883,20.34523,-147.736252,,,
729607066.305164,1.585253,1.203896,49.909746,0.002045,0.03978,0.995941,0.012925,0.04073,-0.017179,63.101883,20.34523,-147.736252,,,
729607066.308491,1.586145,1.211941,49.904133,0.002045,0.03978,0.995941,0.012925,0.04073,-0.017179,63.101883,20.34523,-147.736252,,,
729607066.311825,1.586145,1.211941,49.904133,0.002045,0.03978,0.995941,0.012925,0.04073,-0.017179,63.101883,20.34523,-147.736252,,,
729607066.315235,1.587098,1.228572,49.8986,-0.000565,0.041458,0.98407,0.003178,0.062787,-0.019795,63.101883,20.34523,-147.736252,,,
729607066.318589,1.585006,1.243622,49.892962,-0.000565,0.041458,0.98407,0.003178,0.062787,-0.019795,63.186798,20.554947,-147.677109,,,
729607066.321849,1.585006,1.243622,49.892962,-0.000565,0.041458,0.98407,0.003178,0.062787,-0.019795,63.186798,20.554947,-147.677109,,,
729607066.325198,1.580897,1.266325,49.886191,-0.005783,0.042267,0.981171,-0.013441,0.082798,-0.024717,63.186798,20.554947,-147.677109,,,
729607066.328597,1.574365,1.283797,49.878406,-0.005783,0.042267,0.981171,-0.013441,0.082798,-0.024717,63.186798,20.554947,-147.677109,,,
729607066.331828,1.574365,1.283797,49.878406,-0.005783,0.042267,0.981171,-0.013441,0.082798,-0.024717,63.186798,20.554947,-147.677109,,,
729607066.335176,1.565519,1.30408,49.86892,-0.01152,0.040924,0.977448,-0.031507,0.072923,-0.033603,63.186798,20.554947,-147.677109,,,
729607066.338495,1.556034,1.317618,49.85854,-0.01152,0.040924,0.977448,-0.031507,0.072923,-0.033603,63.186798,20.554947,-147.677109,,,
729607066.341924,1.556034,1.317618,49.85854,-0.01152,0.040924,0.977448,-0.031507,0.072923,-0.033603,63.186798,20.554947,-147.677109,,,
729607066.345177,1.545263,1.331337,49.847191,-0.021439,0.037582,0.976898,-0.036848,0.049157,-0.041798,63.186798,20.554947,-147.677109,,,
729607066.348507,1.535472,1.339679,49.834183,-0.021439,0.037582,0.976898,-0.036848,0.049157,-0.041798,63.186798,20.554947,-147.677109,,,
729607066.351838,1.535472,1.339679,49.834183,-0.021439,0.037582,0.976898,-0.036848,0.049157,-0.041798,63.186798,20.554947,-147.677109,,,
729607066.35516,1.524238,1.349612,49.820009,-0.026703,0.035843,0.986801,-0.036971,0.034974,-0.050699,63.186798,20.554947,-147.677109,,,
729607066.35849,1.515099,1.352441,49.805679,-0.026703,0.035843,0.986801,-0.036971,0.034974,-0.050699,63.333054,20.47084,-147.634476,,,
729607066.361837,1.515099,1.352441,49.805679,-0.026703,0.035843,0.986801,-0.036971,0.034974,-0.050699,63.333054,20.47084,-147.634476,,,
729607066.365176,1.504186,1.358499,49.791716,-0.029694,0.034531,0.991959,-0.038,0.021919,-0.049345,63.333054,20.47084,-147.634476,,,
729607066.368542,1.49509,1.356584,49.779593,-0.029694,0.034531,0.991959,-0.038,0.021919,-0.049345,63.333054,20.47084,-147.634476,,,
729607066.371816,1.49509,1.356584,49.779593,-0.029694,0.034531,0.991959,-0.038,0.021919,-0.049345,63.333054,20.47084,-147.634476,,,
729607066.375173,1.483344,1.362434,49.768661,-0.031799,0.032318,0.992462,-0.042375,0.025577,-0.041428,63.333054,20.47084,-147.634476,,,
729607066.378511,1.472582,1.360985,49.759457,-0.031799,0.032318,0.992462,-0.042375,0.025577,-0.041428,63.333054,20.47084,-147.634476,,,
729607066.381886,1.472582,1.360985,49.759457,-0.031799,0.032318,0.992462,-0.042375,0.025577,-0.041428,63.333054,20.47084,-147.634476,,,
729607066.385168,1.46045,1.366108,49.752039,-0.035919,0.029709,0.993378,-0.043032,0.020711,-0.027153,63.333054,20.47084,-147.634476,,,
729607066.388493,1.450788,1.364598,49.746502,-0.035919,0.029709,0.993378,-0.043032,0.020711,-0.027153,63.333054,20.47084,-147.634476,,,
729607066.391841,1.450788,1.364598,49.746502,-0.035919,0.029709,0.993378,-0.043032,0.020711,-0.027153,63.333054,20.47084,-147.634476,,,
729607066.395152,1.440077,1.372651,49.742741,-0.034515,0.02887,1.002609,-0.038243,0.03216,-0.015793,63.333054,20.47084,-147.634476,,,
729607066.398484,1.433527,1.377737,49.740029,-0.034515,0.02887,1.002609,-0.038243,0.03216,-0.015793,63.404724,20.69455,-147.409958,,,
729607066.401831,1.433527,1.377737,49.740029,-0.034515,0.02887,1.002609,-0.038243,0.03216,-0.015793,63.404724,20.69455,-147.409958,,,
729607066.405165,1.426427,1.392941,49.737792,-0.034164,0.028198,1.019806,-0.023043,0.05485,-0.007717,63.404724,20.69455,-147.409958,,,
729607066.408584,1.423687,1.402822,49.73652,-0.034164,0.028198,1.019806,-0.023043,0.05485,-0.007717,63.404724,20.69455,-147.409958,,,
729607066.411831,1.423687,1.402822,49.73652,-0.034164,0.028198,1.019806,-0.023043,0.05485,-0.007717,63.404724,20.69455,-147.409958,,,
729607066.415182,1.419383,1.420505,49.735189,-0.032776,0.030548,1.016464,-0.012502,0.064699,-0.005023,63.404724,20.69455,-147.409958,,,
729607066.418498,1.420653,1.434361,49.734488,-0.032776,0.030548,1.016464,-0.012502,0.064699,-0.005023,63.404724,20.69455,-147.409958,,,
729607066.421832,1.420653,1.434361,49.734488,-0.032776,0.030548,1.016464,-0.012502,0.064699,-0.005023,63.404724,20.69455,-147.409958,,,
729607066.425161,1.420571,1.451611,49.734043,-0.033325,0.030884,1.01767,0.000129,0.062319,-0.004519,63.404724,20.69455,-147.409958,,,
729607066.428498,1.423325,1.466001,49.73381,-0.033325,0.030884,1.01767,0.000129,0.062319,-0.004519,63.404724,20.69455,-147.409958,,,
729607066.431835,1.423325,1.466001,49.73381,-0.033325,0.030884,1.01767,0.000129,0.062319,-0.004519,63.404724,20.69455,-147.409958,,,
729607066.435232,1.422139,1.47671,49.733815,-0.039139,0.030777,1.005966,-0.003921,0.042468,7.6e-05,63.404724,20.69455,-147.409958,,,
729607066.438502,1.420727,1.484272,49.734,-0.039139,0.030777,1.005966,-0.003921,0.042468,7.6e-05,63.404724,20.69455,-147.409958,,,
729607066.441825,1.420727,1.484272,49.734,-0.039139,0.030777,1.005966,-0.003921,0.042468,7.6e-05,63.495911,20.608688,-147.901932,,,
729607066.445177,1.415443,1.486266,49.734782,-0.040771,0.032455,0.994171,-0.016988,0.010619,0.002092,63.495911,20.608688,-147.901932,,,
729607066.448569,1.409319,1.486168,49.735337,-0.040771,0.032455,0.994171,-0.016988,0.010619,0.002092,63.495911,20.608688,-147.901932,,,
729607066.451823,1.409319,1.486168,49.735337,-0.040771,0.032455,0.994171,-0.016988,0.010619,0.002092,63.495911,20.608688,-147.901932,,,
729607066.455155,1.399556,1.479318,49.735446,-0.038971,0.032639,0.993576,-0.032395,-0.019457,-0.002588,63.495911,20.608688,-147.901932,,,
729607066.458504,1.389552,1.472757,49.73519,-0.038971,0.032639,0.993576,-0.032395,-0.019457,-0.002588,63.495911,20.608688,-147.901932,,,
729607066.46189,1.389552,1.472757,49.73519,-0.038971,0.032639,0.993576,-0.032395,-0.019457,-0.002588,63.495911,20.608688,-147.901932,,,
729607066.465164,1.376791,1.46192,49.73432,-0.033585,0.028702,0.999512,-0.039846,-0.03509,-0.004771,63.495911,20.608688,-147.901932,,,
729607066.468508,1.365501,1.456645,49.733328,-0.033585,0.028702,0.999512,-0.039846,-0.03509,-0.004771,63.495911,20.608688,-147.901932,,,
729607066.471844,1.365501,1.456645,49.733328,-0.033585,0.028702,0.999512,-0.039846,-0.03509,-0.004771,63.495911,20.608688,-147.901932,,,
729607066.475149,1.354506,1.44917,49.732801,-0.034637,0.022156,1.018967,-0.04047,-0.024282,-0.005245,63.495911,20.608688,-147.901932,,,
729607066.478495,1.345473,1.448238,49.733366,-0.034637,0.022156,1.018967,-0.04047,-0.024282,-0.005245,63.495911,20.608688,-147.901932,,,
729607066.48183,1.345473,1.448238,49.733366,-0.034637,0.022156,1.018967,-0.04047,-0.024282,-0.005245,63.622711,20.72168,-147.5242,,,
729607066.485213,1.337173,1.445638,49.735866,-0.034348,0.019119,1.026535,-0.02754,-0.0066,0.005808,63.622711,20.72168,-147.5242,,,
729607066.488481,1.331473,1.448646,49.739893,-0.034348,0.019119,1.026535,-0.02754,-0.0066,0.005808,63.622711,20.72168,-147.5242,,,
729607066.491827,1.331473,1.448646,49.739893,-0.034348,0.019119,1.026535,-0.02754,-0.0066,0.005808,63.622711,20.72168,-147.5242,,,
729607066.495169,1.326495,1.449956,49.745628,-0.03093,0.017151,1.02594,-0.016818,0.005802,0.01846,63.622711,20.72168,-147.5242,,,
729607066.498547,1.324352,1.454438,49.752343,-0.03093,0.017151,1.02594,-0.016818,0.005802,0.01846,63.622711,20.72168,-147.5242,,,
729607066.501827,1.324352,1.454438,49.752343,-0.03093,0.017151,1.02594,-0.016818,0.005802,0.01846,63.622711,20.72168,-147.5242,,,
729607066.505158,1.322222,1.455453,49.759588,-0.028656,0.019821,1.019791,-0.008882,0.006419,0.026723,63.622711,20.72168,-147.5242,,,
729607066.508494,1.323132,1.460627,49.766772,-0.028656,0.019821,1.019791,-0.008882,0.006419,0.026723,63.622711,20.72168,-147.5242,,,
729607066.511894,1.323132,1.460627,49.766772,-0.028656,0.019821,1.019791,-0.008882,0.006419,0.026723,63.622711,20.72168,-147.5242,,,
729607066.515145,1.323619,1.462059,49.774055,-0.029526,0.021545,1.017685,0.000346,0.007098,0.023356,63.622711,20.72168,-147.5242,,,
729607066.518507,1.326911,1.470254,49.78102,-0.029526,0.021545,1.017685,0.000346,0.007098,0.023356,63.622711,20.72168,-147.5242,,,
729607066.521823,1.326911,1.470254,49.78102,-0.029526,0.021545,1.017685,0.000346,0.007098,0.023356,63.742828,20.825348,-147.807434,,,
729607066.525221,1.330669,1.472079,49.787711,-0.028641,0.020767,1.020447,0.013276,0.009563,0.022822,63.742828,20.825348,-147.807434,,,
729607066.528505,1.337271,1.478495,49.793979,-0.028641,0.020767,1.020447,0.013276,0.009563,0.022822,63.742828,20.825348,-147.807434,,,
729607066.531846,1.337271,1.478495,49.793979,-0.028641,0.020767,1.020447,0.013276,0.009563,0.022822,63.742828,20.825348,-147.807434,,,
729607066.535164,1.343678,1.477531,49.800168,-0.026047,0.018158,1.014679,0.020979,0.000325,0.021392,63.742828,20.825348,-147.807434,,,
729607066.538488,1.35225,1.47826,49.8057,-0.026047,0.018158,1.014679,0.020979,0.000325,0.021392,63.742828,20.825348,-147.807434,,,
729607066.541826,1.35225,1.47826,49.8057,-0.026047,0.018158,1.014679,0.020979,0.000325,0.021392,63.742828,20.825348,-147.807434,,,
729607066.545155,1.359558,1.474138,49.810463,-0.021744,0.016968,1.008255,0.025282,-0.011627,0.016083,63.742828,20.825348,-147.807434,,,
729607066.548502,1.366865,1.472291,49.813911,-0.021744,0.016968,1.008255,0.025282,-0.011627,0.016083,63.742828,20.825348,-147.807434,,,
729607066.551876,1.366865,1.472291,49.813911,-0.021744,0.016968,1.008255,0.025282,-0.011627,0.016083,63.742828,20.825348,-147.807434,,,
729607066.555156,1.374031,1.468679,49.816071,-0.023575,0.017731,1.011063,0.025713,-0.007434,0.006331,63.742828,20.825348,-147.807434,,,
729607066.558504,1.38132,1.467886,49.817565,-0.023575,0.017731,1.011063,0.025713,-0.007434,0.006331,63.742828,20.825348,-147.807434,,,
729607066.561853,1.38132,1.467886,49.817565,-0.023575,0.017731,1.011063,0.025713,-0.007434,0.006331,63.742828,20.825348,-147.807434,,,
729607066.565213,1.389339,1.464567,49.81861,-0.023972,0.016983,1.010193,0.02662,-0.009715,0.00152,63.469696,20.814194,-147.612442,,,
729607066.568492,1.396885,1.464142,49.818775,-0.023972,0.016983,1.010193,0.02662,-0.009715,0.00152,63.469696,20.814194,-147.612442,,,
729607066.571816,1.396885,1.464142,49.818775,-0.023972,0.016983,1.010193,0.02662,-0.009715,0.00152,63.469696,20.814194,-147.612442,,,
729607066.575156,1.405851,1.462661,49.818454,-0.023682,0.020157,1.007767,0.032566,-0.003593,-0.004358,63.469696,20.814194,-147.612442,,,
729607066.578581,1.414576,1.46405,49.818147,-0.023682,0.020157,1.007767,0.032566,-0.003593,-0.004358,63.469696,20.814194,-147.612442,,,
729607066.58183,1.414576,1.46405,49.818147,-0.023682,0.020157,1.007767,0.032566,-0.003593,-0.004358,63.469696,20.814194,-147.612442,,,
729607066.585227,1.424766,1.465542,49.818302,-0.022476,0.020447,1.007584,0.0347,0.007658,0.001502,63.469696,20.814194,-147.612442,,,
729607066.5885,1.433861,1.46948,49.81984,-0.022476,0.020447,1.007584,0.0347,0.007658,0.001502,63.469696,20.814194,-147.612442,,,
729607066.591879,1.433861,1.46948,49.81984,-0.022476,0.020447,1.007584,0.0347,0.007658,0.001502,63.469696,20.814194,-147.612442,,,
729607066.595167,1.443417,1.472544,49.823266,-0.029633,0.018967,1.001755,0.035188,0.01627,0.010903,63.469696,20.814194,-147.612442,,,
729607066.59852,1.451323,1.476183,49.828332,-0.029633,0.018967,1.001755,0.035188,0.01627,0.010903,63.469696,20.814194,-147.612442,,,
729607066.601848,1.451323,1.476183,49.828332,-0.029633,0.018967,1.001755,0.035188,0.01627,0.010903,63.469696,20.814194,-147.612442,,,
729607066.605167,1.459532,1.477459,49.835156,-0.035934,0.017868,0.992432,0.025579,0.007199,0.023542,63.603699,20.842178,-147.819687,,,
729607066.608508,1.46614,1.477631,49.842124,-0.035934,0.017868,0.992432,0.025579,0.007199,0.023542,63.603699,20.842178,-147.819687,,,
729607066.611836,1.46614,1.477631,49.842124,-0.035934,0.017868,0.992432,0.025579,0.007199,0.023542,63.603699,20.842178,-147.819687,,,
729607066.615285,1.471741,1.476214,49.84839,-0.030624,0.022186,0.986938,0.017961,-0.00174,0.021663,63.603699,20.842178,-147.819687,,,
729607066.618564,1.474607,1.472561,49.853857,-0.030624,0.022186,0.986938,0.017961,-0.00174,0.021663,63.603699,20.842178,-147.819687,,,
729607066.621822,1.474607,1.472561,49.853857,-0.030624,0.022186,0.986938,0.017961,-0.00174,0.021663,63.603699,20.842178,-147.819687,,,
729607066.625151,1.478738,1.467792,49.857804,-0.027084,0.025787,0.987381,0.017304,-0.012382,0.014816,63.603699,20.842178,-147.819687,,,
729607066.628497,1.48148,1.459117,49.86027,-0.027084,0.025787,0.987381,0.017304,-0.012382,0.014816,63.603699,20.842178,-147.819687,,,
729607066.631902,1.48148,1.459117,49.86027,-0.027084,0.025787,0.987381,0.017304,-0.012382,0.014816,63.603699,20.842178,-147.819687,,,
729607066.635209,1.486152,1.449325,49.861562,-0.029526,0.024963,0.991516,0.015855,-0.031004,0.005115,63.603699,20.842178,-147.819687,,,
729607066.63851,1.488824,1.434814,49.862836,-0.029526,0.024963,0.991516,0.015855,-0.031004,0.005115,63.603699,20.842178,-147.819687,,,
729607066.64159,1.488824,1.434814,49.862836,-0.029526,0.024963,0.991516,0.015855,-0.031004,0.005115,63.603699,20.842178,-147.819687,,,
729607066.645192,1.493032,1.418419,49.865355,-0.029068,0.019943,0.991394,0.018626,-0.055494,0.007876,63.616318,20.739273,-147.592896,,,
729607066.648507,1.496132,1.401009,49.869426,-0.029068,0.019943,0.991394,0.018626,-0.055494,0.007876,63.616318,20.739273,-147.592896,,,
729607066.651833,1.496132,1.401009,49.869426,-0.029068,0.019943,0.991394,0.018626,-0.055494,0.007876,63.616318,20.739273,-147.592896,,,
729607066.655308,1.500943,1.384452,49.87466,-0.029587,0.015778,0.997589,0.016078,-0.056603,0.016184,63.616318,20.739273,-147.592896,,,
729607066.65849,1.505194,1.369122,49.880576,-0.029587,0.015778,0.997589,0.016078,-0.056603,0.016184,63.616318,20.739273,-147.592896,,,
729607066.661836,1.505194,1.369122,49.880576,-0.029587,0.015778,0.997589,0.016078,-0.056603,0.016184,63.616318,20.739273,-147.592896,,,
729607066.665187,1.511473,1.357313,49.886586,-0.022064,0.017807,1.002533,0.02244,-0.038819,0.022971,63.616318,20.739273,-147.592896,,,
729607066.668557,1.517826,1.348868,49.893073,-0.022064,0.017807,1.002533,0.02244,-0.038819,0.022971,63.616318,20.739273,-147.592896,,,
729607066.671923,1.517826,1.348868,49.893073,-0.022064,0.017807,1.002533,0.02244,-0.038819,0.022971,63.616318,20.739273,-147.592896,,,
729607066.675166,1.526433,1.343531,49.899833,-0.016327,0.022934,1.00676,0.031694,-0.01506,0.02294,63.616318,20.739273,-147.592896,,,
729607066.678499,1.534467,1.345824,49.906279,-0.016327,0.022934,1.00676,0.031694,-0.01506,0.02294,63.616318,20.739273,-147.592896,,,
729607066.6819,1.534467,1.345824,49.906279,-0.016327,0.022934,1.00676,0.031694,-0.01506,0.02294,63.616318,20.739273,-147.592896,,,
729607066.685154,1.544267,1.346592,49.913112,-0.014587,0.026077,1.001709,0.033231,0.007237,0.022897,63.49765,20.489594,-147.401154,,,
729607066.688557,1.550869,1.35513,49.919613,-0.014587,0.026077,1.001709,0.033231,0.007237,0.022897,63.49765,20.489594,-147.401154,,,
729607066.691815,1.550869,1.35513,49.919613,-0.014587,0.026077,1.001709,0.033231,0.007237,0.022897,63.49765,20.489594,-147.401154,,,
729607066.695161,1.555851,1.359701,49.926263,-0.01619,0.02594,0.987564,0.01845,0.019723,0.021927,63.49765,20.489594,-147.401154,,,
729607066.6985,1.556464,1.366434,49.933013,-0.01619,0.02594,0.987564,0.01845,0.019723,0.021927,63.49765,20.489594,-147.401154,,,
729607066.701836,1.556464,1.366434,49.933013,-0.01619,0.02594,0.987564,0.01845,0.019723,0.021927,63.49765,20.489594,-147.401154,,,
729607066.705273,1.55446,1.370422,49.939847,-0.021179,0.027802,0.976364,-0.00638,0.018,0.022435,63.49765,20.489594,-147.401154,,,
729607066.708505,1.549279,1.374677,49.946826,-0.021179,0.027802,0.976364,-0.00638,0.018,0.022435,63.49765,20.489594,-147.401154,,,
729607066.71184,1.549279,1.374677,49.946826,-0.021179,0.027802,0.976364,-0.00638,0.018,0.022435,63.49765,20.489594,-147.401154,,,
729607066.715173,1.541145,1.373674,49.953485,-0.03006,0.02652,0.968582,-0.026587,-0.000443,0.019804,63.49765,20.489594,-147.401154,,,
729607066.718562,1.530111,1.370688,49.958947,-0.03006,0.02652,0.968582,-0.026587,-0.000443,0.019804,63.49765,20.489594,-147.401154,,,
729607066.721874,1.530111,1.370688,49.958947,-0.03006,0.02652,0.968582,-0.026587,-0.000443,0.019804,63.49765,20.489594,-147.401154,,,
729607066.72517,1.518781,1.361163,49.963421,-0.029709,0.027313,0.970413,-0.038285,-0.031645,0.011878,63.49765,20.489594,-147.401154,,,
729607066.728502,1.505795,1.351948,49.966535,-0.029709,0.027313,0.970413,-0.038285,-0.031645,0.011878,63.438507,20.561584,-147.511139,,,
729607066.731901,1.505795,1.351948,49.966535,-0.029709,0.027313,0.970413,-0.038285,-0.031645,0.011878,63.438507,20.561584,-147.511139,,,
729607066.735173,1.495631,1.338314,49.967933,-0.02774,0.028687,0.985672,-0.03516,-0.043052,0.000382,63.438507,20.561584,-147.511139,,,
729607066.738539,1.484021,1.326197,49.967856,-0.02774,0.028687,0.985672,-0.03516,-0.043052,0.000382,63.438507,20.561584,-147.511139,,,
729607066.741837,1.484021,1.326197,49.967856,-0.02774,0.028687,0.985672,-0.03516,-0.043052,0.000382,63.438507,20.561584,-147.511139,,,
729607066.745222,1.474786,1.312645,49.967745,-0.0289,0.024658,0.997391,-0.029769,-0.044397,-0.003585,63.438507,20.561584,-147.511139,,,
729607066.748498,1.464774,1.298881,49.969049,-0.0289,0.024658,0.997391,-0.029769,-0.044397,-0.003585,63.438507,20.561584,-147.511139,,,
729607066.751818,1.464774,1.298881,49.969049,-0.0289,0.024658,0.997391,-0.029769,-0.044397,-0.003585,63.438507,20.561584,-147.511139,,,
729607066.755212,1.455271,1.290397,49.971775,-0.030884,0.017746,0.996246,-0.033626,-0.028232,0.006979,63.438507,20.561584,-147.511139,,,
729607066.758523,1.445398,1.282702,49.976314,-0.030884,0.017746,0.996246,-0.033626,-0.028232,0.006979,63.438507,20.561584,-147.511139,,,
729607066.761819,1.445398,1.282702,49.976314,-0.030884,0.017746,0.996246,-0.033626,-0.028232,0.006979,63.438507,20.561584,-147.511139,,,
729607066.764948,1.436256,1.281528,49.982666,-0.028412,0.014328,1.00354,-0.033264,-0.000829,0.021401,63.438507,20.561584,-147.511139,,,
729607066.768533,1.428085,1.27994,49.990867,-0.028412,0.014328,1.00354,-0.033264,-0.000829,0.021401,63.322083,20.691452,-147.532578,,,
729607066.77191,1.428085,1.27994,49.990867,-0.028412,0.014328,1.00354,-0.033264,-0.000829,0.021401,63.322083,20.691452,-147.532578,,,
729607066.775157,1.420985,1.284181,50.001022,-0.026932,0.012695,1.006561,-0.027184,0.019571,0.032361,63.322083,20.691452,-147.532578,,,
729607066.778482,1.414436,1.286763,50.012443,-0.026932,0.012695,1.006561,-0.027184,0.019571,0.032361,63.322083,20.691452,-147.532578,,,
729607066.781818,1.414436,1.286763,50.012443,-0.026932,0.012695,1.006561,-0.027184,0.019571,0.032361,63.322083,20.691452,-147.532578,,,
729607066.785163,1.407315,1.291244,50.02351,-0.0224,0.016327,1.001129,-0.023467,0.017702,0.033916,63.322083,20.691452,-147.532578,,,
729607066.78855,1.401108,1.297214,50.033092,-0.0224,0.016327,1.001129,-0.023467,0.017702,0.033916,63.322083,20.691452,-147.532578,,,
729607066.791846,1.401108,1.297214,50.033092,-0.0224,0.016327,1.001129,-0.023467,0.017702,0.033916,63.322083,20.691452,-147.532578,,,
729607066.795171,1.393835,1.300376,50.04104,-0.021164,0.02095,0.998459,-0.027669,0.01492,0.026793,63.322083,20.691452,-147.532578,,,
729607066.798573,1.38633,1.304587,50.047057,-0.021164,0.02095,0.998459,-0.027669,0.01492,0.026793,63.322083,20.691452,-147.532578,,,
729607066.801822,1.38633,1.304587,50.047057,-0.021164,0.02095,0.998459,-0.027669,0.01492,0.026793,63.322083,20.691452,-147.532578,,,
729607066.805223,1.377981,1.303027,50.051637,-0.021011,0.020584,0.991119,-0.030189,-0.002822,0.016137,63.322083,20.691452,-147.532578,,,
729607066.80848,1.377981,1.301674,50.055365,-0.021011,0.020584,0.991119,-0.030189,-0.002822,0.016137,63.286728,20.862656,-147.287048,,,
729607066.811904,1.370771,1.301674,50.055365,-0.021011,0.020584,0.991119,-0.030189,-0.002822,0.016137,63.286728,20.862656,-147.287048,,,
729607066.815172,1.363384,1.294244,50.05874,-0.020737,0.020035,0.993805,-0.023861,-0.024394,0.008446,63.286728,20.862656,-147.287048,,,
729607066.8185,1.357605,1.286682,50.061705,-0.020737,0.020035,0.993805,-0.023861,-0.024394,0.008446,63.286728,20.862656,-147.287048,,,
729607066.82188,1.357605,1.286682,50.061705,-0.020737,0.020035,0.993805,-0.023861,-0.024394,0.008446,63.286728,20.862656,-147.287048,,,
729607066.825165,1.350845,1.274618,50.064018,-0.01503,0.023315,0.992859,-0.022692,-0.037937,0.008223,63.286728,20.862656,-147.287048,,,
729607066.828498,1.350845,1.274618,50.064018,-0.01503,0.023315,0.992859,-0.022692,-0.037937,0.008223,63.286728,20.862656,-147.287048,,,
729607066.831837,1.344461,1.265541,50.065738,-0.01503,0.023315,0.992859,-0.022692,-0.037937,0.008223,63.286728,20.862656,-147.287048,,,
729607066.83516,1.339044,1.254848,50.066881,-0.012344,0.022842,0.995728,-0.018548,-0.032607,0.003207,63.286728,20.862656,-147.287048,,,
729607066.838561,1.333442,1.24976,50.067375,-0.012344,0.022842,0.995728,-0.018548,-0.032607,0.003207,63.286728,20.862656,-147.287048,,,
729607066.841831,1.333442,1.24976,50.067375,-0.012344,0.022842,0.995728,-0.018548,-0.032607,0.003207,63.286728,20.862656,-147.287048,,,
729607066.845162,1.330301,1.242184,50.068005,-0.008789,0.021454,0.999619,-0.012256,-0.022988,-0.001318,63.286728,20.862656,-147.287048,,,
729607066.848484,1.330301,1.237855,50.068924,-0.008789,0.021454,0.999619,-0.012256,-0.022988,-0.001318,63.330872,20.65567,-147.799637,,,
729607066.85189,1.325714,1.237855,50.068924,-0.008789,0.021454,0.999619,-0.012256,-0.022988,-0.001318,63.330872,20.65567,-147.799637,,,
729607066.855194,1.323571,1.232272,50.070463,-0.005859,0.019745,0.995041,-0.008985,-0.015206,0.006192,63.330872,20.65567,-147.799637,,,
729607066.858485,1.323571,1.232272,50.070463,-0.005859,0.019745,0.995041,-0.008985,-0.015206,0.006192,63.330872,20.65567,-147.799637,,,
729607066.861837,1.320057,1.230457,50.072358,-0.005859,0.019745,0.995041,-0.008985,-0.015206,0.006192,63.330872,20.65567,-147.799637,,,
729607066.865149,1.318019,1.227797,50.074341,-0.00415,0.023346,0.997803,-0.007055,-0.00558,0.005717,63.330872,20.65567,-147.799637,,,
729607066.868484,1.318019,1.227797,50.074341,-0.00415,0.023346,0.997803,-0.007055,-0.00558,0.005717,63.330872,20.65567,-147.799637,,,
729607066.871862,1.314115,1.22548,50.075274,-0.00415,0.023346,0.997803,-0.007055,-0.00558,0.005717,63.330872,20.65567,-147.799637,,,
729607066.875151,1.310157,1.224111,50.074727,-0.003784,0.030899,0.991074,-0.014175,-0.002532,-0.003961,63.330872,20.65567,-147.799637,,,
729607066.878559,1.310157,1.224111,50.073028,-0.003784,0.030899,0.991074,-0.014175,-0.002532,-0.003961,63.330872,20.65567,-147.799637,,,
729607066.881828,1.305485,1.223977,50.073028,-0.003784,0.030899,0.991074,-0.014175,-0.002532,-0.003961,63.330872,20.65567,-147.799637,,,
729607066.885151,1.300937,1.225396,50.069918,-0.005142,0.031876,0.99588,-0.015413,0.009376,-0.013381,63.330872,20.65567,-147.799637,,,
729607066.888535,1.300937,1.225396,50.069918,-0.005142,0.031876,0.99588,-0.015413,0.009376,-0.013381,63.330872,20.65567,-147.799637,,,
729607066.891814,1.295103,1.225654,50.066065,-0.005142,0.031876,0.99588,-0.015413,0.009376,-0.013381,63.240173,20.821426,-147.517899,,,
729607066.89515,1.289867,1.223767,50.061086,-0.007629,0.031433,0.994202,-0.015526,-0.004782,-0.019592,63.240173,20.821426,-147.517899,,,
729607066.898527,1.289867,1.223767,50.061086,-0.007629,0.031433,0.994202,-0.015526,-0.004782,-0.019592,63.240173,20.821426,-147.517899,,,
729607066.901867,1.285049,1.218473,50.055037,-0.007629,0.031433,0.994202,-0.015526,-0.004782,-0.019592,63.240173,20.821426,-147.517899,,,
729607066.905188,1.281148,1.213034,50.048402,-0.00853,0.031174,0.991669,-0.014581,-0.01478,-0.027003,63.240173,20.821426,-147.517899,,,
729607066.908482,1.281148,1.213034,50.048402,-0.00853,0.031174,0.991669,-0.014581,-0.01478,-0.027003,63.240173,20.821426,-147.517899,,,
729607066.911852,1.277915,1.203677,50.040778,-0.00853,0.031174,0.991669,-0.014581,-0.01478,-0.027003,63.240173,20.821426,-147.517899,,,
729607066.915156,1.274357,1.198378,50.032566,-0.018326,0.029221,0.997604,-0.013141,-0.016259,-0.032762,63.240173,20.821426,-147.517899,,,
729607066.918519,1.274357,1.198378,50.032566,-0.018326,0.029221,0.997604,-0.013141,-0.016259,-0.032762,63.240173,20.821426,-147.517899,,,
729607066.921857,1.270754,1.189269,50.02455,-0.018326,0.029221,0.997604,-0.013141,-0.016259,-0.032762,63.240173,20.821426,-147.517899,,,
729607066.925149,1.267529,1.185355,50.016748,-0.021133,0.028809,0.997269,-0.011222,-0.011711,-0.03197,63.240173,20.821426,-147.517899,,,
729607066.928573,1.267529,1.185355,50.016748,-0.021133,0.028809,0.997269,-0.011222,-0.011711,-0.03197,63.240173,20.821426,-147.517899,,,
729607066.93184,1.264598,1.177028,50.009534,-0.021133,0.028809,0.997269,-0.011222,-0.011711,-0.03197,63.210526,20.879532,-147.449966,,,
729607066.935156,1.262225,1.176633,50.003094,-0.023483,0.027435,1.000534,-0.008491,0.00209,-0.023158,63.210526,20.879532,-147.449966,,,
729607066.938544,1.262225,1.176633,50.003094,-0.023483,0.027435,1.000534,-0.008491,0.00209,-0.023158,63.210526,20.879532,-147.449966,,,
729607066.941846,1.260535,1.171324,49.997589,-0.023483,0.027435,1.000534,-0.008491,0.00209,-0.023158,63.210526,20.879532,-147.449966,,,
729607066.945159,1.260744,1.174077,49.992988,-0.028107,0.02533,1.004639,0.0021,0.011751,-0.01653,63.210526,20.879532,-147.449966,,,
729607066.948504,1.260744,1.174077,49.992988,-0.028107,0.02533,1.004639,0.0021,0.011751,-0.01653,63.210526,20.879532,-147.449966,,,
729607066.951898,1.26294,1.170275,49.989758,-0.028107,0.02533,1.004639,0.0021,0.011751,-0.01653,63.210526,20.879532,-147.449966,,,
729607066.955196,1.264934,1.173715,49.987354,-0.033951,0.022751,1.007339,0.010558,0.013751,-0.007062,63.210526,20.879532,-147.449966,,,
729607066.958487,1.264934,1.173715,49.987354,-0.033951,0.022751,1.007339,0.010558,0.013751,-0.007062,63.210526,20.879532,-147.449966,,,
729607066.961823,1.2693,1.168306,49.98659,-0.033951,0.022751,1.007339,0.010558,0.013751,-0.007062,63.210526,20.879532,-147.449966,,,
729607066.965163,1.272659,1.16849,49.987233,-0.037521,0.021698,0.999695,0.010756,0.002917,0.000858,63.210526,20.879532,-147.449966,,,
729607066.968483,1.272659,1.16849,49.987233,-0.037521,0.021698,0.999695,0.010756,0.002917,0.000858,63.210526,20.879532,-147.449966,,,
729607066.971871,1.277708,1.162786,49.989092,-0.037521,0.021698,0.999695,0.010756,0.002917,0.000858,63.349258,20.813385,-147.609879,,,
729607066.975152,1.280639,1.164145,49.990832,-0.03653,0.021622,1.004593,0.010105,0.00587,0.004879,63.349258,20.813385,-147.609879,,,
729607066.978555,1.280639,1.164145,49.990832,-0.03653,0.021622,1.004593,0.010105,0.00587,0.004879,63.349258,20.813385,-147.609879,,,
729607066.981833,1.285096,1.160246,49.992301,-0.03653,0.021622,1.004593,0.010105,0.00587,0.004879,63.349258,20.813385,-147.609879,,,
729607066.985167,1.287447,1.162199,49.99359,-0.03064,0.026382,1.003052,0.006101,0.007939,0.001458,63.349258,20.813385,-147.609879,,,
729607066.988533,1.287447,1.162199,49.99359,-0.03064,0.026382,1.003052,0.006101,0.007939,0.001458,63.349258,20.813385,-147.609879,,,
729607066.991816,1.290819,1.160402,49.99496,-0.03064,0.026382,1.003052,0.006101,0.007939,0.001458,63.349258,20.813385,-147.609879,,,
729607066.995161,1.292024,1.162579,49.996449,-0.030045,0.026138,0.997696,-0.000166,0.009738,0.005144,63.349258,20.813385,-147.609879,,,
729607066.998515,1.292024,1.162579,49.996449,-0.030045,0.026138,0.997696,-0.000166,0.009738,0.005144,63.349258,20.813385,-147.609879,,,
729607067.001909,1.293799,1.164462,49.998257,-0.030045,0.026138,0.997696,-0.000166,0.009738,0.005144,63.349258,20.813385,-147.609879,,,
729607067.005214,1.293913,1.165399,50.000473,-0.029236,0.025177,0.994461,-0.000162,0.006007,0.006795,63.349258,20.813385,-147.609879,,,
729607067.008481,1.293913,1.165399,50.000473,-0.029236,0.025177,0.994461,-0.000162,0.006007,0.006795,63.349258,20.813385,-147.609879,,,
729607067.011811,1.294681,1.165549,50.003321,-0.029236,0.025177,0.994461,-0.000162,0.006007,0.006795,63.167435,21.038422,-147.89064,,,
729607067.015151,1.294296,1.163654,50.006051,-0.026276,0.024872,0.99115,0.000477,-0.006512,0.007316,63.167435,21.038422,-147.89064,,,
729607067.018478,1.294296,1.163654,50.006051,-0.026276,0.024872,0.99115,0.000477,-0.006512,0.007316,63.167435,21.038422,-147.89064,,,
729607067.021741,1.294727,1.162819,50.008194,-0.026276,0.024872,0.99115,0.000477,-0.006512,0.007316,63.167435,21.038422,-147.89064,,,
729607067.025179,1.294629,1.158694,50.010226,-0.021332,0.02507,0.992981,0.001641,-0.011514,0.004171,63.167435,21.038422,-147.89064,,,
729607067.028548,1.294629,1.158694,50.010226,-0.021332,0.02507,0.992981,0.001641,-0.011514,0.004171,63.167435,21.038422,-147.89064,,,
729607067.031838,1.295206,1.157872,50.012151,-0.021332,0.02507,0.992981,0.001641,-0.011514,0.004171,63.167435,21.038422,-147.89064,,,
729607067.035159,1.29652,1.152796,50.014065,-0.023834,0.023788,0.996216,0.004349,-0.016911,0.006808,63.167435,21.038422,-147.89064,,,
729607067.038542,1.29652,1.152796,50.014065,-0.023834,0.023788,0.996216,0.004349,-0.016911,0.006808,63.167435,21.038422,-147.89064,,,
729607067.04182,1.298256,1.155191,50.016413,-0.023834,0.023788,0.996216,0.004349,-0.016911,0.006808,63.167435,21.038422,-147.89064,,,
729607067.045162,1.299518,1.152338,50.019601,-0.026566,0.020142,1.001724,0.005216,-0.0088,0.007309,63.167435,21.038422,-147.89064,,,
729607067.04851,1.299518,1.152338,50.019601,-0.026566,0.020142,1.001724,0.005216,-0.0088,0.007309,63.167435,21.038422,-147.89064,,,
729607067.051893,1.299826,1.158367,50.023033,-0.026566,0.020142,1.001724,0.005216,-0.0088,0.007309,63.167435,21.038422,-147.89064,,,
729607067.055181,1.299825,1.157411,50.027634,-0.022705,0.019608,1.000031,0.000769,-0.000201,0.014287,63.433197,20.907883,-147.691574,,,
729607067.05848,1.299825,1.157411,50.027634,-0.022705,0.019608,1.000031,0.000769,-0.000201,0.014287,63.433197,20.907883,-147.691574,,,
729607067.061828,1.300044,1.163606,50.032963,-0.022705,0.019608,1.000031,0.000769,-0.000201,0.014287,63.433197,20.907883,-147.691574,,,
729607067.065156,1.299987,1.165038,50.038794,-0.019958,0.018173,1.001007,-0.000618,0.010693,0.017484,63.433197,20.907883,-147.691574,,,
729607067.068482,1.299987,1.165038,50.038794,-0.019958,0.018173,1.001007,-0.000618,0.010693,0.017484,63.433197,20.907883,-147.691574,,,
729607067.071877,1.300983,1.171742,50.044253,-0.019958,0.018173,1.001007,-0.000618,0.010693,0.017484,63.433197,20.907883,-147.691574,,,
729607067.075182,1.30166,1.174929,50.048185,-0.014587,0.023346,1.001907,0.003368,0.012198,0.01388,63.433197,20.907883,-147.691574,,,
729607067.07849,1.30166,1.174929,50.048185,-0.014587,0.023346,1.001907,0.003368,0.012198,0.01388,63.433197,20.907883,-147.691574,,,
729607067.081837,1.303194,1.181525,50.049858,-0.014587,0.023346,1.001907,0.003368,0.012198,0.01388,63.433197,20.907883,-147.691574,,,
729607067.085157,1.304374,1.182207,50.050436,-0.012558,0.025726,0.996948,0.003575,0.006952,-0.002563,63.433197,20.907883,-147.691574,,,
729607067.088668,1.304374,1.182207,50.050436,-0.012558,0.025726,0.996948,0.003575,0.006952,-0.002563,63.433197,20.907883,-147.691574,,,
729607067.091842,1.305738,1.185091,50.049653,-0.012558,0.025726,0.996948,0.003575,0.006952,-0.002563,63.433197,20.907883,-147.691574,,,
729607067.09517,1.306853,1.1849,50.048184,-0.016678,0.023071,0.995682,0.004256,0.002585,-0.008138,63.301285,20.9487,-147.772324,,,
729607067.098513,1.306853,1.1849,50.048184,-0.016678,0.023071,0.995682,0.004256,0.002585,-0.008138,63.301285,20.9487,-147.772324,,,
729607067.101909,1.309069,1.186207,50.046627,-0.016678,0.023071,0.995682,0.004256,0.002585,-0.008138,63.301285,20.9487,-147.772324,,,
729607067.105192,1.311376,1.185147,50.045139,-0.020554,0.018692,0.998596,0.00867,-0.001003,-0.004117,63.301285,20.9487,-147.772324,,,
729607067.108484,1.311376,1.185147,50.045139,-0.020554,0.018692,0.998596,0.00867,-0.001003,-0.004117,63.301285,20.9487,-147.772324,,,
729607067.111838,1.314396,1.183079,50.044118,-0.020554,0.018692,0.998596,0.00867,-0.001003,-0.004117,63.301285,20.9487,-147.772324,,,
729607067.11515,1.317194,1.180509,50.04342,-0.024307,0.018005,0.998871,0.009917,-0.002883,-0.002965,63.301285,20.9487,-147.772324,,,
729607067.118494,1.317194,1.180509,50.04342,-0.024307,0.018005,0.998871,0.009917,-0.002883,-0.002965,63.301285,20.9487,-147.772324,,,
729607067.121892,1.320015,1.182339,50.043091,-0.024307,0.018005,0.998871,0.009917,-0.002883,-0.002965,63.301285,20.9487,-147.772324,,,
729607067.125153,1.322254,1.184013,50.043,-0.02475,0.020081,1.001297,0.00981,0.00736,-0.001219,63.301285,20.9487,-147.772324,,,
729607067.128571,1.322254,1.184013,50.043,-0.02475,0.020081,1.001297,0.00981,0.00736,-0.001219,63.301285,20.9487,-147.772324,,,
729607067.131821,1.323671,1.189023,50.042835,-0.02475,0.020081,1.001297,0.00981,0.00736,-0.001219,63.301285,20.9487,-147.772324,,,
729607067.135164,1.326056,1.192263,50.043002,-0.027191,0.021622,0.999481,0.009697,0.01235,-0.000416,63.55687,20.864105,-147.376266,,,
729607067.138562,1.326056,1.192263,50.043002,-0.027191,0.021622,0.999481,0.009697,0.01235,-0.000416,63.55687,20.864105,-147.376266,,,
729607067.141816,1.327973,1.195499,50.044352,-0.027191,0.021622,0.999481,0.009697,0.01235,-0.000416,63.55687,20.864105,-147.376266,,,
729607067.145162,1.331473,1.198485,50.046986,-0.031433,0.019531,0.996872,0.013091,0.013485,0.006922,63.55687,20.864105,-147.376266,,,
729607067.148502,1.331473,1.198485,50.046986,-0.031433,0.019531,0.996872,0.013091,0.013485,0.006922,63.55687,20.864105,-147.376266,,,
729607067.151897,1.334795,1.200042,50.05044,-0.031433,0.019531,0.996872,0.013091,0.013485,0.006922,63.55687,20.864105,-147.376266,,,
729607067.155187,1.339406,1.201687,50.053919,-0.029236,0.019791,0.997284,0.015347,0.008885,0.010054,63.55687,20.864105,-147.376266,,,
729607067.158481,1.339406,1.201687,50.053919,-0.029236,0.019791,0.997284,0.015347,0.008885,0.010054,63.55687,20.864105,-147.376266,,,
729607067.161849,1.344168,1.198045,50.056911,-0.029236,0.019791,0.997284,0.015347,0.008885,0.010054,63.55687,20.864105,-147.376266,,,
729607067.165148,1.34776,1.197069,50.059562,-0.028961,0.021591,0.992416,0.013205,-0.003199,0.00976,63.55687,20.864105,-147.376266,,,
729607067.168487,1.34776,1.197069,50.059562,-0.028961,0.021591,0.992416,0.013205,-0.003199,0.00976,63.55687,20.864105,-147.376266,,,
729607067.171819,1.351349,1.193066,50.062734,-0.028961,0.021591,0.992416,0.013205,-0.003199,0.00976,63.55687,20.864105,-147.376266,,,
729607067.175162,1.354801,1.192789,50.065789,-0.028824,0.020706,0.998795,0.011659,0.00358,0.008232,63.55687,20.864105,-147.376266,,,
729607067.17854,1.354801,1.192789,50.065789,-0.028824,0.020706,0.998795,0.011659,0.00358,0.008232,63.330582,21.035645,-147.906998,,,
729607067.181831,1.357969,1.191063,50.068475,-0.028824,0.020706,0.998795,0.011659,0.00358,0.008232,63.330582,21.035645,-147.906998,,,
729607067.185149,1.361399,1.189563,50.07157,-0.025848,0.021133,0.998718,0.011164,-0.002091,0.010866,63.330582,21.035645,-147.906998,,,
729607067.188561,1.361399,1.189563,50.07157,-0.025848,0.021133,0.998718,0.011164,-0.002091,0.010866,63.330582,21.035645,-147.906998,,,
729607067.191816,1.363727,1.187941,50.074921,-0.025848,0.021133,0.998718,0.011164,-0.002091,0.010866,63.330582,21.035645,-147.906998,,,
729607067.195151,1.367113,1.185768,50.078192,-0.019257,0.022171,0.998108,0.012161,-0.002658,0.009639,63.330582,21.035645,-147.906998,,,
729607067.198515,1.367113,1.185768,50.078192,-0.019257,0.022171,0.998108,0.012161,-0.002658,0.009639,63.330582,21.035645,-147.906998,,,
729607067.201889,1.369705,1.185688,50.080971,-0.019257,0.022171,0.998108,0.012161,-0.002658,0.009639,63.330582,21.035645,-147.906998,,,
729607067.205225,1.373615,1.184938,50.082848,-0.014603,0.026199,0.998138,0.013312,-0.000871,0.006546,63.330582,21.035645,-147.906998,,,
729607067.208477,1.373615,1.184938,50.082848,-0.014603,0.026199,0.998138,0.013312,-0.000871,0.006546,63.330582,21.035645,-147.906998,,,
729607067.211831,1.376975,1.186371,50.084287,-0.014603,0.026199,0.998138,0.013312,-0.000871,0.006546,63.330582,21.035645,-147.906998,,,
729607067.215156,1.380494,1.186136,50.085692,-0.01474,0.026169,0.999252,0.011166,0.001832,0.004916,63.330582,21.035645,-147.906998,,,
729607067.218341,1.380494,1.186136,50.085692,-0.01474,0.026169,0.999252,0.011166,0.001832,0.004916,63.295654,20.893295,-147.880096,,,
729607067.221884,1.382669,1.189926,50.087143,-0.01474,0.026169,0.999252,0.011166,0.001832,0.004916,63.295654,20.893295,-147.880096,,,
729607067.225142,1.384885,1.190107,50.089397,-0.018555,0.021576,0.997452,0.007022,0.004789,0.006703,63.295654,20.893295,-147.880096,,,
729607067.228486,1.384885,1.190107,50.089397,-0.018555,0.021576,0.997452,0.007022,0.004789,0.006703,63.295654,20.893295,-147.880096,,,
729607067.231825,1.386448,1.196214,50.092114,-0.018555,0.021576,0.997452,0.007022,0.004789,0.006703,63.295654,20.893295,-147.880096,,,
729607067.235151,1.389886,1.198744,50.095336,-0.019241,0.020859,1.001038,0.011841,0.011316,0.010504,63.295654,20.893295,-147.880096,,,
729607067.238614,1.389886,1.198744,50.095336,-0.019241,0.020859,1.001038,0.011841,0.011316,0.010504,63.295654,20.893295,-147.880096,,,
729607067.241808,1.393967,1.204536,50.098957,-0.019241,0.020859,1.001038,0.011841,0.011316,0.010504,63.295654,20.893295,-147.880096,,,
729607067.245162,1.399228,1.207008,50.102798,-0.020432,0.021423,1.007156,0.017589,0.012861,0.011035,63.295654,20.893295,-147.880096,,,
729607067.248502,1.399228,1.207008,50.102798,-0.020432,0.021423,1.007156,0.017589,0.012861,0.011035,63.295654,20.893295,-147.880096,,,
729607067.251892,1.404058,1.212862,50.106528,-0.020432,0.021423,1.007156,0.017589,0.012861,0.011035,63.295654,20.893295,-147.880096,,,
729607067.255193,1.409397,1.213905,50.110265,-0.025711,0.020142,1.002914,0.019179,0.00884,0.011538,63.295654,20.893295,-147.880096,,,
729607067.258488,1.409397,1.213905,50.110265,-0.025711,0.020142,1.002914,0.019179,0.00884,0.011538,63.402985,20.901428,-147.830658,,,
729607067.261835,1.412858,1.216723,50.113627,-0.025711,0.020142,1.002914,0.019179,0.00884,0.011538,63.402985,20.901428,-147.830658,,,
729607067.265182,1.415614,1.21572,50.116526,-0.025101,0.019348,0.999268,0.009354,-0.000667,0.008391,63.402985,20.901428,-147.830658,,,
729607067.268482,1.415614,1.21572,50.116526,-0.025101,0.019348,0.999268,0.009354,-0.000667,0.008391,63.402985,20.901428,-147.830658,,,
729607067.271862,1.41672,1.213794,50.119032,-0.025101,0.019348,0.999268,0.009354,-0.000667,0.008391,63.402985,20.901428,-147.830658,,,
729607067.275154,1.417686,1.20976,50.121243,-0.022308,0.018127,0.996765,0.002381,-0.010694,0.003896,63.402985,20.901428,-147.830658,,,
729607067.278478,1.417686,1.20976,50.121243,-0.022308,0.018127,0.996765,0.002381,-0.010694,0.003896,63.402985,20.901428,-147.830658,,,
729607067.28185,1.418432,1.204437,50.122786,-0.022308,0.018127,0.996765,0.002381,-0.010694,0.003896,63.402985,20.901428,-147.830658,,,
729607067.285156,1.420673,1.200368,50.123355,-0.020462,0.016251,1.004547,0.006261,-0.009783,0.000477,63.402985,20.901428,-147.830658,,,
729607067.288543,1.420673,1.200368,50.123355,-0.020462,0.016251,1.004547,0.006261,-0.009783,0.000477,63.402985,20.901428,-147.830658,,,
729607067.291826,1.425093,1.193306,50.123459,-0.020462,0.016251,1.004547,0.006261,-0.009783,0.000477,63.402985,20.901428,-147.830658,,,
729607067.295157,1.431031,1.190227,50.123862,-0.017899,0.018692,1.004852,0.022013,-0.006412,-0.001285,63.402985,20.901428,-147.830658,,,
729607067.29856,1.431031,1.190227,50.123862,-0.017899,0.018692,1.004852,0.022013,-0.006412,-0.001285,63.453156,20.740875,-147.456558,,,
729607067.30189,1.438524,1.18647,50.124881,-0.017899,0.018692,1.004852,0.022013,-0.006412,-0.001285,63.453156,20.740875,-147.456558,,,
729607067.305197,1.447133,1.186803,50.127002,-0.020065,0.018082,1.004974,0.02924,0.004699,0.006529,63.453156,20.740875,-147.456558,,,
729607067.308483,1.447133,1.186803,50.127002,-0.020065,0.018082,1.004974,0.02924,0.004699,0.006529,63.453156,20.740875,-147.456558,,,
729607067.311832,1.455139,1.188939,50.130417,-0.020065,0.018082,1.004974,0.02924,0.004699,0.006529,63.453156,20.740875,-147.456558,,,
729607067.315149,1.464122,1.193335,50.134458,-0.017838,0.015961,1.003098,0.032886,0.020413,0.010663,63.453156,20.740875,-147.456558,,,
729607067.3185,1.464122,1.193335,50.134458,-0.017838,0.015961,1.003098,0.032886,0.020413,0.010663,63.453156,20.740875,-147.456558,,,
729607067.321873,1.472481,1.19743,50.137952,-0.017838,0.015961,1.003098,0.032886,0.020413,0.010663,63.453156,20.740875,-147.456558,,,
729607067.325165,1.482011,1.202399,50.139826,-0.010422,0.021408,0.995453,0.032651,0.021423,0.006328,63.453156,20.740875,-147.456558,,,
729607067.328499,1.482011,1.202399,50.139826,-0.010422,0.021408,0.995453,0.032651,0.021423,0.006328,63.453156,20.740875,-147.456558,,,
729607067.331841,1.490252,1.207852,50.139624,-0.010422,0.021408,0.995453,0.032651,0.021423,0.006328,63.453156,20.740875,-147.456558,,,
729607067.335154,1.498936,1.212961,50.137527,-0.007202,0.02916,0.989609,0.033578,0.020263,-0.006277,63.453156,20.740875,-147.456558,,,
729607067.338591,1.498936,1.212961,50.137527,-0.007202,0.02916,0.989609,0.033578,0.020263,-0.006277,63.453156,20.740875,-147.456558,,,
729607067.341806,1.50574,1.220285,50.134327,-0.007202,0.02916,0.989609,0.033578,0.020263,-0.006277,63.284485,20.557358,-147.697571,,,
729607067.345149,1.512733,1.224129,50.130459,-0.013428,0.0336,0.983307,0.024407,0.017664,-0.012251,63.284485,20.557358,-147.697571,,,
729607067.348498,1.512733,1.224129,50.130459,-0.013428,0.0336,0.983307,0.024407,0.017664,-0.012251,63.284485,20.557358,-147.697571,,,
729607067.351879,1.516515,1.228125,50.126482,-0.013428,0.0336,0.983307,0.024407,0.017664,-0.012251,63.284485,20.557358,-147.697571,,,
729607067.355181,1.52007,1.229861,50.122971,-0.018311,0.030441,0.97998,0.012927,0.008877,-0.01359,63.284485,20.557358,-147.697571,,,
729607067.358482,1.52007,1.229861,50.122971,-0.018311,0.030441,0.97998,0.012927,0.008877,-0.01359,63.284485,20.557358,-147.697571,,,
729607067.361823,1.521213,1.230572,50.119657,-0.018311,0.030441,0.97998,0.012927,0.008877,-0.01359,63.284485,20.557358,-147.697571,,,
729607067.365147,1.52342,1.22996,50.116672,-0.020248,0.028168,0.986603,0.011268,0.000138,-0.009905,63.284485,20.557358,-147.697571,,,
729607067.368491,1.52342,1.22996,50.116672,-0.020248,0.028168,0.986603,0.011268,0.000138,-0.009905,63.284485,20.557358,-147.697571,,,
729607067.371857,1.523656,1.227618,50.114201,-0.020248,0.028168,0.986603,0.011268,0.000138,-0.009905,63.284485,20.557358,-147.697571,,,
729607067.375153,1.525636,1.22713,50.11225,-0.025879,0.029236,0.98851,0.007922,0.001602,-0.005181,63.284485,20.557358,-147.697571,,,
729607067.378557,1.525636,1.22713,50.11225,-0.025879,0.029236,0.98851,0.007922,0.001602,-0.005181,63.284485,20.557358,-147.697571,,,
729607067.381823,1.526483,1.2269,50.111188,-0.025879,0.029236,0.98851,0.007922,0.001602,-0.005181,63.31366,20.649139,-147.721756,,,
729607067.385148,1.529163,1.22893,50.110654,-0.025665,0.030609,0.996719,0.010502,0.008202,-0.002074,63.31366,20.649139,-147.721756,,,
729607067.38855,1.529163,1.22893,50.110654,-0.025665,0.030609,0.996719,0.010502,0.008202,-0.002074,63.31366,20.649139,-147.721756,,,
729607067.39181,1.530412,1.230311,50.110155,-0.025665,0.030609,0.996719,0.010502,0.008202,-0.002074,63.31366,20.649139,-147.721756,,,
729607067.395152,1.534711,1.232668,50.109247,-0.023193,0.029572,0.996719,0.016747,0.010583,-0.004733,63.31366,20.649139,-147.721756,,,
729607067.398481,1.534711,1.232668,50.109247,-0.023193,0.029572,0.996719,0.016747,0.010583,-0.004733,63.31366,20.649139,-147.721756,,,
729607067.401884,1.537856,1.232115,50.108164,-0.023193,0.029572,0.996719,0.016747,0.010583,-0.004733,63.31366,20.649139,-147.721756,,,
729607067.405184,1.543328,1.234735,50.107552,-0.026321,0.027817,1.000183,0.023656,0.011818,-0.002824,63.31366,20.649139,-147.721756,,,
729607067.408481,1.543328,1.234735,50.107552,-0.026321,0.027817,1.000183,0.023656,0.011818,-0.002824,63.31366,20.649139,-147.721756,,,
729607067.411839,1.548544,1.232426,50.108116,-0.026321,0.027817,1.000183,0.023656,0.011818,-0.002824,63.31366,20.649139,-147.721756,,,
729607067.415149,1.553666,1.235528,50.110013,-0.034012,0.027481,0.999313,0.019245,0.015954,0.005262,63.31366,20.649139,-147.721756,,,
729607067.4185,1.553666,1.235528,50.110013,-0.034012,0.027481,0.999313,0.019245,0.015954,0.005262,63.31366,20.649139,-147.721756,,,
729607067.421861,1.558319,1.23294,50.113799,-0.034012,0.027481,0.999313,0.019245,0.015954,0.005262,63.406799,20.580185,-147.514984,,,
729607067.425147,1.56006,1.234828,50.118594,-0.036163,0.023972,0.992691,0.00422,0.008862,0.014815,63.406799,20.580185,-147.514984,,,
729607067.428583,1.56006,1.234828,50.118594,-0.036163,0.023972,0.992691,0.00422,0.008862,0.014815,63.406799,20.580185,-147.514984,,,
729607067.431814,1.561217,1.232769,50.1241,-0.036163,0.023972,0.992691,0.00422,0.008862,0.014815,63.406799,20.580185,-147.514984,,,
729607067.43516,1.559585,1.231314,50.129528,-0.031845,0.02504,0.990936,-0.006771,-0.003577,0.019295,63.406799,20.580185,-147.514984,,,
729607067.438545,1.559585,1.231314,50.129528,-0.031845,0.02504,0.990936,-0.006771,-0.003577,0.019295,63.406799,20.580185,-147.514984,,,
729607067.441814,1.557663,1.227651,50.134046,-0.031845,0.02504,0.990936,-0.006771,-0.003577,0.019295,63.406799,20.580185,-147.514984,,,
729607067.445162,1.555316,1.224074,50.137097,-0.024109,0.029251,0.999969,-0.009124,-0.008086,0.010889,63.406799,20.580185,-147.514984,,,
729607067.448501,1.555316,1.224074,50.137097,-0.024109,0.029251,0.999969,-0.009124,-0.008086,0.010889,63.406799,20.580185,-147.514984,,,
729607067.451899,1.553444,1.219915,50.138907,-0.024109,0.029251,0.999969,-0.009124,-0.008086,0.010889,63.406799,20.580185,-147.514984,,,
729607067.455189,1.551287,1.214848,50.14017,-0.021988,0.030289,1.004929,-0.007967,-0.013254,0.002124,63.406799,20.580185,-147.514984,,,
729607067.458485,1.551287,1.214848,50.14017,-0.021988,0.030289,1.004929,-0.007967,-0.013254,0.002124,63.406799,20.580185,-147.514984,,,
729607067.461815,1.550346,1.211983,50.141296,-0.021988,0.030289,1.004929,-0.007967,-0.013254,0.002124,63.594574,20.698914,-147.88295,,,
729607067.465149,1.549729,1.206806,50.143433,-0.024185,0.024414,1.011169,-0.00122,-0.012861,0.005326,63.594574,20.698914,-147.88295,,,
729607067.468482,1.549729,1.206806,50.143433,-0.024185,0.024414,1.011169,-0.00122,-0.012861,0.005326,63.594574,20.698914,-147.88295,,,
729607067.471862,1.550087,1.203775,50.146613,-0.024185,0.024414,1.011169,-0.00122,-0.012861,0.005326,63.594574,20.698914,-147.88295,,,
729607067.47514,1.550141,1.19959,50.151156,-0.020081,0.02359,1.007065,-0.00086,-0.012822,0.012827,63.594574,20.698914,-147.88295,,,
729607067.478571,1.550141,1.19959,50.151156,-0.020081,0.02359,1.007065,-0.00086,-0.012822,0.012827,63.594574,20.698914,-147.88295,,,
729607067.481819,1.5502,1.197217,50.156875,-0.020081,0.02359,1.007065,-0.00086,-0.012822,0.012827,63.594574,20.698914,-147.88295,,,
729607067.485166,1.548481,1.194759,50.163295,-0.017715,0.024246,1.002594,-0.004086,-0.006648,0.022735,63.594574,20.698914,-147.88295,,,
729607067.48856,1.548481,1.194759,50.163295,-0.017715,0.024246,1.002594,-0.004086,-0.006648,0.022735,63.594574,20.698914,-147.88295,,,
729607067.491814,1.545517,1.197191,50.170467,-0.017715,0.024246,1.002594,-0.004086,-0.006648,0.022735,63.594574,20.698914,-147.88295,,,
729607067.495218,1.541485,1.196019,50.17773,-0.01474,0.025986,1.004364,-0.012684,-0.000482,0.023802,63.594574,20.698914,-147.88295,,,
729607067.498492,1.541485,1.196019,50.17773,-0.01474,0.025986,1.004364,-0.012684,-0.000482,0.023802,63.594574,20.698914,-147.88295,,,
729607067.501892,1.537128,1.20074,50.184381,-0.01474,0.025986,1.004364,-0.012684,-0.000482,0.023802,63.594574,20.698914,-147.88295,,,
729607067.505264,1.533346,1.199116,50.189656,-0.011459,0.029053,1.003372,-0.010275,-0.000617,0.018635,63.416702,20.718018,-147.391129,,,
729607067.508475,1.533346,1.199116,50.189656,-0.011459,0.029053,1.003372,-0.010275,-0.000617,0.018635,63.416702,20.718018,-147.391129,,,
729607067.51184,1.530087,1.204445,50.192535,-0.011459,0.029053,1.003372,-0.010275,-0.000617,0.018635,63.416702,20.718018,-147.391129,,,
729607067.515148,1.528781,1.202282,50.194882,-0.010483,0.031342,1.007217,-0.002876,-0.004861,0.008167,63.416702,20.718018,-147.391129,,,
729607067.518311,1.528781,1.202282,50.194882,-0.010483,0.031342,1.007217,-0.002876,-0.004861,0.008167,63.416702,20.718018,-147.391129,,,
729607067.521897,1.528298,1.202092,50.197211,-0.010483,0.031342,1.007217,-0.002876,-0.004861,0.008167,63.416702,20.718018,-147.391129,,,
729607067.525143,1.528262,1.197798,50.19916,-0.015427,0.029984,1.00769,0.002105,-0.010613,0.006252,63.416702,20.718018,-147.391129,,,
729607067.528569,1.528262,1.197798,50.19916,-0.015427,0.029984,1.00769,0.002105,-0.010613,0.006252,63.416702,20.718018,-147.391129,,,
729607067.53181,1.52932,1.192766,50.201323,-0.015427,0.029984,1.00769,0.002105,-0.010613,0.006252,63.416702,20.718018,-147.391129,,,
729607067.535231,1.529633,1.186512,50.203821,-0.021423,0.023621,1.003082,0.000192,-0.017982,0.007955,63.416702,20.718018,-147.391129,,,
729607067.538547,1.529633,1.186512,50.203821,-0.021423,0.023621,1.003082,0.000192,-0.017982,0.007955,63.416702,20.718018,-147.391129,,,
729607067.541818,1.529525,1.180916,50.206594,-0.021423,0.023621,1.003082,0.000192,-0.017982,0.007955,63.416702,20.718018,-147.391129,,,
729607067.545174,1.527692,1.173929,50.210006,-0.021454,0.02211,1.003464,-0.006921,-0.021918,0.010212,63.444595,20.623886,-147.428207,,,
729607067.548505,1.527692,1.173929,50.210006,-0.021454,0.02211,1.003464,-0.006921,-0.021918,0.010212,63.444595,20.623886,-147.428207,,,
729607067.551905,1.523924,1.167141,50.213693,-0.021454,0.02211,1.003464,-0.006921,-0.021918,0.010212,63.444595,20.623886,-147.428207,,,
729607067.555173,1.52018,1.159318,50.217232,-0.021332,0.022141,1.004547,-0.013816,-0.023353,0.009771,63.444595,20.623886,-147.428207,,,
729607067.558492,1.52018,1.159318,50.217232,-0.021332,0.022141,1.004547,-0.013816,-0.023353,0.009771,63.444595,20.623886,-147.428207,,,
729607067.561834,1.515712,1.15046,50.22016,-0.021332,0.022141,1.004547,-0.013816,-0.023353,0.009771,63.444595,20.623886,-147.428207,,,
729607067.565145,1.512298,1.141323,50.222352,-0.020615,0.023346,1.008362,-0.012603,-0.027735,0.005539,63.444595,20.623886,-147.428207,,,
729607067.5685,1.512298,1.141323,50.222352,-0.020615,0.023346,1.008362,-0.012603,-0.027735,0.005539,63.444595,20.623886,-147.428207,,,
729607067.57187,1.510065,1.130662,50.223252,-0.020615,0.023346,1.008362,-0.012603,-0.027735,0.005539,63.444595,20.623886,-147.428207,,,
729607067.575157,1.510083,1.121694,50.222632,-0.018784,0.024536,1.013092,-0.00023,-0.028187,-0.005275,63.444595,20.623886,-147.428207,,,
729607067.578545,1.510083,1.121694,50.222632,-0.018784,0.024536,1.013092,-0.00023,-0.028187,-0.005275,63.444595,20.623886,-147.428207,,,
729607067.581826,1.511595,1.109884,50.220997,-0.018784,0.024536,1.013092,-0.00023,-0.028187,-0.005275,63.444595,20.623886,-147.428207,,,
729607067.585211,1.514681,1.101877,50.218829,-0.020676,0.023956,1.01358,0.013981,-0.023853,-0.009368,63.274246,20.793213,-147.953705,,,
729607067.588544,1.514681,1.101877,50.218829,-0.020676,0.023956,1.01358,0.013981,-0.023853,-0.009368,63.274246,20.793213,-147.953705,,,
729607067.591816,1.520765,1.091076,50.217399,-0.020676,0.023956,1.01358,0.013981,-0.023853,-0.009368,63.274246,20.793213,-147.953705,,,
729607067.59522,1.527935,1.083913,50.217027,-0.024261,0.01857,1.011688,0.026025,-0.021815,-0.003055,63.274246,20.793213,-147.953705,,,
729607067.598493,1.527935,1.083913,50.217027,-0.024261,0.01857,1.011688,0.026025,-0.021815,-0.003055,63.274246,20.793213,-147.953705,,,
729607067.6019,1.536637,1.072112,50.217599,-0.024261,0.01857,1.011688,0.026025,-0.021815,-0.003055,63.274246,20.793213,-147.953705,,,
729607067.605152,1.544652,1.062471,50.218979,-0.024261,0.01857,1.011688,0.024314,-0.031803,0.003257,63.274246,20.793213,-147.953705,,,
729607067.608493,1.544652,1.062471,50.218979,-0.021439,0.018707,0.996994,0.024314,-0.031803,0.003257,63.274246,20.793213,-147.953705,,,
729607067.611827,1.552642,1.053242,50.220363,-0.021439,0.018707,0.996994,0.024314,-0.031803,0.003257,63.274246,20.793213,-147.953705,,,
