Time (sec),Pitch (deg),Roll (deg),Yaw(deg),X-Acceleration (g),Y-Acceleration (g),Z-Acceleration (g),Pitch Rate (deg/sec),Roll Rate (deg/sec),Yaw Rate (deg/sec),Magnetic Field in X direction (uT),Magnetic Field in Y direction (uT),Magnetic Field in Z Direction (uT),Latitude (deg),Longitude (deg),Altitude (m)
729606399.147986,0.700881,0.952782,50.28733,-0.009613,-0.000778,1.008484,-0.02035,0.017264,-0.018156,64.366577,21.14711,-150.49147,,,
729606399.151387,0.696915,0.951864,50.281646,-0.009613,-0.000778,1.008484,-0.020734,0.011224,-0.021023,64.366577,21.14711,-150.49147,,,
729606399.154647,0.68992,0.954781,50.275273,-0.006241,0.004517,1.003983,-0.020734,0.011224,-0.021023,64.366577,21.14711,-150.49147,,,
729606399.158015,0.68992,0.954781,50.275273,-0.006241,0.004517,1.003983,-0.020734,0.011224,-0.021023,64.366577,21.14711,-150.49147,,,
729606399.161313,0.684284,0.947943,50.26911,-0.006241,0.004517,1.003983,-0.029014,0.01805,-0.02433,64.366577,21.14711,-150.49147,,,
729606399.164647,0.672647,0.953327,50.263295,-0.011917,0.007675,1.002777,-0.029014,0.01805,-0.02433,64.474854,21.03746,-150.421112,,,
729606399.168,0.672647,0.953327,50.263295,-0.011917,0.007675,1.002777,-0.029014,0.01805,-0.02433,64.474854,21.03746,-150.421112,,,
729606399.171324,0.661572,0.942973,50.258008,-0.011917,0.007675,1.002777,-0.048039,0.017752,-0.020537,64.474854,21.03746,-150.421112,,,
729606399.174648,0.645013,0.946064,50.253137,-0.019531,0.007584,0.996948,-0.048039,0.017752,-0.020537,64.474854,21.03746,-150.421112,,,
729606399.178055,0.645013,0.946064,50.253137,-0.019531,0.007584,0.996948,-0.048039,0.017752,-0.020537,64.474854,21.03746,-150.421112,,,
729606399.181304,0.631243,0.935478,50.248417,-0.019531,0.007584,0.996948,-0.057663,0.007393,-0.019141,64.474854,21.03746,-150.421112,,,
729606399.184651,0.615374,0.934776,50.243012,-0.020523,0.007248,1.001236,-0.057663,0.007393,-0.019141,64.474854,21.03746,-150.421112,,,
729606399.187992,0.615374,0.934776,50.243012,-0.020523,0.007248,1.001236,-0.057663,0.007393,-0.019141,64.474854,21.03746,-150.421112,,,
729606399.191375,0.602509,0.924168,50.236936,-0.020523,0.007248,1.001236,-0.050708,-0.005197,-0.026107,64.474854,21.03746,-150.421112,,,
729606399.194639,0.59033,0.921689,50.230223,-0.016327,0.006134,1.009293,-0.050708,-0.005197,-0.026107,64.474854,21.03746,-150.421112,,,
729606399.197979,0.59033,0.921689,50.230223,-0.016327,0.006134,1.009293,-0.050708,-0.005197,-0.026107,64.474854,21.03746,-150.421112,,,
729606399.201075,0.580072,0.912176,50.223123,-0.016327,0.006134,1.009293,-0.034976,-0.008733,-0.027152,64.474854,21.03746,-150.421112,,,
729606399.204705,0.571383,0.909661,50.215597,-0.01564,0.005463,1.010437,-0.034976,-0.008733,-0.027152,64.242111,21.153519,-150.591537,,,
729606399.208015,0.571383,0.909661,50.215597,-0.01564,0.005463,1.010437,-0.034976,-0.008733,-0.027152,64.242111,21.153519,-150.591537,,,
729606399.211327,0.561888,0.904037,50.209014,-0.01564,0.005463,1.010437,-0.02718,-0.001711,-0.02518,64.242111,21.153519,-150.591537,,,
729606399.21466,0.55415,0.903818,50.203685,-0.01889,0.009384,1.004349,-0.02718,-0.001711,-0.02518,64.242111,21.153519,-150.591537,,,
729606399.218088,0.55415,0.903818,50.203685,-0.01889,0.009384,1.004349,-0.02718,-0.001711,-0.02518,64.242111,21.153519,-150.591537,,,
729606399.221331,0.542899,0.902504,50.20018,-0.01889,0.009384,1.004349,-0.026546,0.002982,-0.01416,64.242111,21.153519,-150.591537,,,
729606399.224655,0.533975,0.902685,50.198985,-0.023788,0.009033,0.995148,-0.026546,0.002982,-0.01416,64.242111,21.153519,-150.591537,,,
729606399.227985,0.533975,0.902685,50.198985,-0.023788,0.009033,0.995148,-0.026546,0.002982,-0.01416,64.242111,21.153519,-150.591537,,,
729606399.23132,0.52215,0.898833,50.199833,-0.023788,0.009033,0.995148,-0.033349,0.000659,0.000875,64.242111,21.153519,-150.591537,,,
729606399.234647,0.510749,0.896409,50.201624,-0.027832,0.011856,0.989151,-0.033349,0.000659,0.000875,64.242111,21.153519,-150.591537,,,
729606399.237994,0.510749,0.896409,50.201624,-0.027832,0.011856,0.989151,-0.033349,0.000659,0.000875,64.242111,21.153519,-150.591537,,,
729606399.241375,0.497711,0.889451,50.203517,-0.027832,0.011856,0.989151,-0.042783,-0.0091,0.002717,64.242111,21.153519,-150.591537,,,
729606399.244643,0.485405,0.885409,50.20444,-0.024582,0.016708,0.989365,-0.042783,-0.0091,0.002717,64.242111,21.153519,-150.591537,,,
729606399.247981,0.485405,0.885409,50.20444,-0.024582,0.016708,0.989365,-0.042783,-0.0091,0.002717,64.29805,21.463104,-150.338348,,,
729606399.251309,0.47347,0.881873,50.204115,-0.024582,0.016708,0.989365,-0.041983,-0.010076,-0.002243,64.29805,21.463104,-150.338348,,,
729606399.254718,0.462546,0.877881,50.203218,-0.022842,0.018234,1.000488,-0.041983,-0.010076,-0.002243,64.29805,21.463104,-150.338348,,,
729606399.257983,0.462546,0.877881,50.203218,-0.022842,0.018234,1.000488,-0.041983,-0.010076,-0.002243,64.29805,21.463104,-150.338348,,,
729606399.261314,0.452907,0.874676,50.20214,-0.022842,0.018234,1.000488,-0.030189,-0.014043,-0.005343,64.29805,21.463104,-150.338348,,,
729606399.264688,0.44498,0.869865,50.201667,-0.024734,0.013367,1.001556,-0.030189,-0.014043,-0.005343,64.29805,21.463104,-150.338348,,,
729606399.268047,0.44498,0.869865,50.201667,-0.024734,0.013367,1.001556,-0.030189,-0.014043,-0.005343,64.29805,21.463104,-150.338348,,,
729606399.271319,0.438825,0.867929,50.202277,-0.024734,0.013367,1.001556,-0.022688,-0.008994,0.000542,64.29805,21.463104,-150.338348,,,
729606399.274647,0.434067,0.865847,50.203324,-0.020462,0.013062,1.00441,-0.022688,-0.008994,0.000542,64.29805,21.463104,-150.338348,,,
729606399.277977,0.434067,0.865847,50.203324,-0.020462,0.013062,1.00441,-0.022688,-0.008994,0.000542,64.29805,21.463104,-150.338348,,,
729606399.281313,0.429009,0.864561,50.204358,-0.020462,0.013062,1.00441,-0.013752,-0.001882,0.001883,64.29805,21.463104,-150.338348,,,
729606399.284648,0.424198,0.864271,50.205548,-0.011032,0.016602,0.997925,-0.013752,-0.001882,0.001883,64.29805,21.463104,-150.338348,,,
729606399.288026,0.424198,0.864271,50.205548,-0.011032,0.016602,0.997925,-0.013752,-0.001882,0.001883,64.31575,21.291977,-150.434158,,,
729606399.291312,0.419307,0.865835,50.20701,-0.011032,0.016602,0.997925,-0.015134,0.004577,0.003287,64.31575,21.291977,-150.434158,,,
729606399.294661,0.414578,0.865486,50.20837,-0.009308,0.022247,0.991302,-0.015134,0.004577,0.003287,64.31575,21.291977,-150.434158,,,
729606399.298042,0.414578,0.865486,50.20837,-0.009308,0.022247,0.991302,-0.015134,0.004577,0.003287,64.31575,21.291977,-150.434158,,,
729606399.301372,0.409919,0.865282,50.209292,-0.009308,0.022247,0.991302,-0.018579,-0.002373,0.000842,64.31575,21.291977,-150.434158,,,
729606399.304688,0.404342,0.861724,50.210484,-0.011185,0.023331,0.98558,-0.018579,-0.002373,0.000842,64.31575,21.291977,-150.434158,,,
729606399.308061,0.404342,0.861724,50.210484,-0.011185,0.023331,0.98558,-0.018579,-0.002373,0.000842,64.31575,21.291977,-150.434158,,,
729606399.311333,0.399177,0.86131,50.2117,-0.011185,0.023331,0.98558,-0.017804,-0.011176,0.001094,64.31575,21.291977,-150.434158,,,
729606399.314729,0.393593,0.855755,50.212544,-0.011688,0.023087,0.988129,-0.017804,-0.011176,0.001094,64.31575,21.291977,-150.434158,,,
729606399.318007,0.393593,0.855755,50.212544,-0.011688,0.023087,0.988129,-0.017804,-0.011176,0.001094,64.31575,21.291977,-150.434158,,,
729606399.321407,0.389917,0.854084,50.213324,-0.011688,0.023087,0.988129,-0.017161,-0.017411,0.001148,64.31575,21.291977,-150.434158,,,
729606399.324645,0.386055,0.84795,50.213795,-0.011215,0.021881,0.99379,-0.017161,-0.017411,0.001148,64.31575,21.291977,-150.434158,,,
729606399.327996,0.386055,0.84795,50.213795,-0.011215,0.021881,0.99379,-0.017161,-0.017411,0.001148,64.221252,21.475952,-150.486725,,,
729606399.3314,0.388019,0.845252,50.213336,-0.011215,0.021881,0.99379,-0.002834,-0.015965,-0.003494,64.221252,21.475952,-150.486725,,,
729606399.334632,0.389716,0.839861,50.212142,-0.010544,0.023453,1.005508,-0.002834,-0.015965,-0.003494,64.221252,21.475952,-150.486725,,,
729606399.337991,0.389716,0.839861,50.212142,-0.010544,0.023453,1.005508,-0.002834,-0.015965,-0.003494,64.221252,21.475952,-150.486725,,,
729606399.34131,0.395982,0.837552,50.210322,-0.010544,0.023453,1.005508,0.012806,-0.017282,-0.006206,64.221252,21.475952,-150.486725,,,
729606399.344642,0.401397,0.833329,50.208665,-0.013763,0.023285,1.006104,0.012806,-0.017282,-0.006206,64.221252,21.475952,-150.486725,,,
729606399.34798,0.401397,0.833329,50.208665,-0.013763,0.023285,1.006104,0.012806,-0.017282,-0.006206,64.221252,21.475952,-150.486725,,,
729606399.351309,0.408944,0.834902,50.207667,-0.013763,0.023285,1.006104,0.024791,-0.002345,-0.00424,64.221252,21.475952,-150.486725,,,
729606399.354678,0.415034,0.8349,50.20801,-0.018829,0.019135,1.008865,0.024791,-0.002345,-0.00424,64.221252,21.475952,-150.486725,,,
729606399.357986,0.415034,0.8349,50.20801,-0.018829,0.019135,1.008865,0.024791,-0.002345,-0.00424,64.221252,21.475952,-150.486725,,,
729606399.361308,0.42248,0.836064,50.209704,-0.018829,0.019135,1.008865,0.022666,0.005355,0.004599,64.221252,21.475952,-150.486725,,,
729606399.364387,0.42248,0.836064,50.209704,-0.018829,0.019135,1.008865,0.022666,0.005355,0.004599,64.221252,21.475952,-150.486725,,,
729606399.368049,0.427907,0.83658,50.212475,-0.023773,0.020676,1.000092,0.022666,0.005355,0.004599,64.221252,21.475952,-150.486725,,,
729606399.371299,0.435253,0.834601,50.216053,-0.023773,0.020676,1.000092,0.015791,0.000603,0.012003,64.209106,21.427505,-150.333694,,,
729606399.374503,0.435253,0.834601,50.216053,-0.023773,0.020676,1.000092,0.015791,0.000603,0.012003,64.209106,21.427505,-150.333694,,,
729606399.378024,0.438373,0.833675,50.21979,-0.025711,0.024445,0.996307,0.015791,0.000603,0.012003,64.209106,21.427505,-150.333694,,,
729606399.381318,0.445428,0.829505,50.223134,-0.025711,0.024445,0.996307,0.00929,-0.00754,0.012184,64.209106,21.427505,-150.333694,,,
729606399.384774,0.449583,0.824426,50.226,-0.026886,0.022644,0.99762,0.00929,-0.00754,0.012184,64.209106,21.427505,-150.333694,,,
729606399.388048,0.449583,0.824426,50.226,-0.026886,0.022644,0.99762,0.00929,-0.00754,0.012184,64.209106,21.427505,-150.333694,,,
729606399.391318,0.458917,0.816091,50.229443,-0.026886,0.022644,0.99762,0.019821,-0.020632,0.010513,64.209106,21.427505,-150.333694,,,
729606399.394674,0.458917,0.816091,50.233711,-0.026886,0.022644,1.007095,0.019821,-0.020632,0.010513,64.209106,21.427505,-150.333694,,,
729606399.397975,0.465811,0.807264,50.233711,-0.032059,0.018799,1.007095,0.019821,-0.020632,0.010513,64.209106,21.427505,-150.333694,,,
729606399.401311,0.477555,0.795866,50.239007,-0.032059,0.018799,1.007095,0.028176,-0.032757,0.016579,64.209106,21.427505,-150.333694,,,
729606399.404675,0.477555,0.795866,50.245558,-0.032104,0.013489,1.0103,0.028176,-0.032757,0.016579,64.209106,21.427505,-150.333694,,,
729606399.407993,0.486945,0.783593,50.245558,-0.032104,0.013489,1.0103,0.028176,-0.032757,0.016579,64.209106,21.427505,-150.333694,,,
729606399.411319,0.502015,0.769505,50.253074,-0.032104,0.013489,1.0103,0.039348,-0.042178,0.026871,64.104324,21.237854,-150.088089,,,
729606399.414752,0.515365,0.757486,50.26097,-0.032104,0.013489,1.0103,0.039348,-0.042178,0.026871,64.104324,21.237854,-150.088089,,,
729606399.417987,0.515365,0.757486,50.26097,-0.026398,0.013046,1.010757,0.039348,-0.042178,0.026871,64.104324,21.237854,-150.088089,,,
729606399.421337,0.533229,0.747456,50.269381,-0.026398,0.013046,1.010757,0.048019,-0.028885,0.028397,64.104324,21.237854,-150.088089,,,
729606399.424738,0.533229,0.74132,50.278785,-0.026398,0.013046,1.010757,0.048019,-0.028885,0.028397,64.104324,21.237854,-150.088089,,,
729606399.427983,0.547375,0.74132,50.278785,-0.020142,0.015564,1.015976,0.048019,-0.028885,0.028397,64.104324,21.237854,-150.088089,,,
729606399.431315,0.564631,0.738816,50.289418,-0.020142,0.015564,1.015976,0.051262,-0.009994,0.038034,64.104324,21.237854,-150.088089,,,
729606399.434655,0.564631,0.738816,50.289418,-0.020142,0.015564,1.015976,0.051262,-0.009994,0.038034,64.104324,21.237854,-150.088089,,,
729606399.438037,0.579151,0.736761,50.301654,-0.018951,0.013031,1.010712,0.051262,-0.009994,0.038034,64.104324,21.237854,-150.088089,,,
729606399.44132,0.59583,0.738064,50.315261,-0.018951,0.013031,1.010712,0.050472,-0.000574,0.046582,64.104324,21.237854,-150.088089,,,
729606399.444643,0.59583,0.738064,50.315261,-0.018951,0.013031,1.010712,0.050472,-0.000574,0.046582,64.104324,21.237854,-150.088089,,,
729606399.447982,0.609991,0.736334,50.32931,-0.020935,0.010712,1.009964,0.050472,-0.000574,0.046582,64.104324,21.237854,-150.088089,,,
729606399.451313,0.627103,0.737469,50.34284,-0.020935,0.010712,1.009964,0.049637,-0.007383,0.048122,64.088913,21.492493,-150.565094,,,
729606399.454757,0.627103,0.731793,50.355592,-0.020935,0.010712,1.009964,0.049637,-0.007383,0.048122,64.088913,21.492493,-150.565094,,,
729606399.458022,0.64214,0.731793,50.355592,-0.019623,0.013336,1.000488,0.049637,-0.007383,0.048122,64.088913,21.492493,-150.565094,,,
729606399.461318,0.660287,0.728602,50.367343,-0.019623,0.013336,1.000488,0.052172,-0.023521,0.040562,64.088913,21.492493,-150.565094,,,
729606399.464739,0.660287,0.728602,50.367343,-0.019623,0.013336,1.000488,0.052172,-0.023521,0.040562,64.088913,21.492493,-150.565094,,,
729606399.46799,0.67499,0.719057,50.378589,-0.0215,0.013611,1.002151,0.052172,-0.023521,0.040562,64.088913,21.492493,-150.565094,,,
729606399.47135,0.692521,0.714194,50.389929,-0.0215,0.013611,1.002151,0.0519,-0.03282,0.036832,64.088913,21.492493,-150.565094,,,
729606399.474738,0.692521,0.714194,50.389929,-0.0215,0.013611,1.002151,0.0519,-0.03282,0.036832,64.088913,21.492493,-150.565094,,,
729606399.477986,0.707462,0.703229,50.40184,-0.02272,0.009598,1.006439,0.0519,-0.03282,0.036832,64.088913,21.492493,-150.565094,,,
729606399.481336,0.723892,0.699135,50.414661,-0.02272,0.009598,1.006439,0.052758,-0.03564,0.043503,64.088913,21.492493,-150.565094,,,
729606399.484702,0.723892,0.699135,50.414661,-0.02272,0.009598,1.006439,0.052758,-0.03564,0.043503,64.088913,21.492493,-150.565094,,,
729606399.488087,0.739612,0.688943,50.429144,-0.023102,0.003723,1.008759,0.052758,-0.03564,0.043503,64.088913,21.492493,-150.565094,,,
729606399.49131,0.755266,0.687384,50.445355,-0.023102,0.003723,1.008759,0.056362,-0.023748,0.052096,64.079208,21.130615,-150.322662,,,
729606399.494707,0.755266,0.687384,50.445355,-0.023102,0.003723,1.008759,0.056362,-0.023748,0.052096,64.079208,21.130615,-150.322662,,,
729606399.497977,0.771666,0.681766,50.463124,-0.019867,0.00499,1.009979,0.056362,-0.023748,0.052096,64.079208,21.130615,-150.322662,,,
729606399.501318,0.787948,0.681586,50.481071,-0.019867,0.00499,1.009979,0.056219,-0.009465,0.0634,64.079208,21.130615,-150.322662,,,
729606399.50471,0.787948,0.681586,50.481071,-0.019867,0.00499,1.009979,0.056219,-0.009465,0.0634,64.079208,21.130615,-150.322662,,,
729606399.507989,0.803746,0.678404,50.499135,-0.007812,0.010971,1.004578,0.056219,-0.009465,0.0634,64.079208,21.130615,-150.322662,,,
729606399.51139,0.819582,0.679116,50.516604,-0.007812,0.010971,1.004578,0.051732,-0.002182,0.059582,64.079208,21.130615,-150.322662,,,
729606399.514635,0.819582,0.679116,50.516604,-0.007812,0.010971,1.004578,0.051732,-0.002182,0.059582,64.079208,21.130615,-150.322662,,,
729606399.517997,0.834766,0.677718,50.533355,-0.004883,0.013229,1.000229,0.051732,-0.002182,0.059582,64.079208,21.130615,-150.322662,,,
729606399.52131,0.848465,0.678326,50.549505,-0.004883,0.013229,1.000229,0.051931,-0.002676,0.055145,64.079208,21.130615,-150.322662,,,
729606399.524645,0.848465,0.678326,50.549505,-0.004883,0.013229,1.000229,0.051931,-0.002676,0.055145,64.079208,21.130615,-150.322662,,,
729606399.527989,0.862018,0.673885,50.56518,-0.00943,0.00853,0.994339,0.051931,-0.002676,0.055145,64.079208,21.130615,-150.322662,,,
729606399.531308,0.873959,0.669112,50.580381,-0.00943,0.00853,0.994339,0.043904,-0.026294,0.050384,64.079208,21.130615,-150.322662,,,
729606399.534649,0.873959,0.669112,50.580381,-0.00943,0.00853,0.994339,0.043904,-0.026294,0.050384,63.959747,21.113281,-150.093567,,,
729606399.537984,0.885211,0.657767,50.594493,-0.009338,0.007477,0.985458,0.043904,-0.026294,0.050384,63.959747,21.113281,-150.093567,,,
729606399.541314,0.89453,0.646047,50.607583,-0.009338,0.007477,0.985458,0.033255,-0.049936,0.045769,63.959747,21.113281,-150.093567,,,
729606399.544658,0.89453,0.646047,50.607583,-0.009338,0.007477,0.985458,0.033255,-0.049936,0.045769,63.959747,21.113281,-150.093567,,,
729606399.547984,0.903212,0.630273,50.619534,-0.008347,0.00621,0.985687,0.033255,-0.049936,0.045769,63.959747,21.113281,-150.093567,,,
729606399.551313,0.90973,0.618451,50.630696,-0.008347,0.00621,0.985687,0.025079,-0.050594,0.038034,63.959747,21.113281,-150.093567,,,
729606399.554671,0.90973,0.618451,50.630696,-0.008347,0.00621,0.985687,0.025079,-0.050594,0.038034,63.959747,21.113281,-150.093567,,,
729606399.557976,0.915327,0.604312,50.641685,-0.008591,0.007919,0.992355,0.025079,-0.050594,0.038034,63.959747,21.113281,-150.093567,,,
729606399.56131,0.917861,0.597399,50.65304,-0.008591,0.007919,0.992355,0.018047,-0.038546,0.038379,63.959747,21.113281,-150.093567,,,
729606399.564644,0.917861,0.597399,50.65304,-0.008591,0.007919,0.992355,0.018047,-0.038546,0.038379,63.959747,21.113281,-150.093567,,,
729606399.567996,0.922485,0.588716,50.665906,-0.010757,0.006104,0.997086,0.018047,-0.038546,0.038379,63.959747,21.113281,-150.093567,,,
729606399.571308,0.923671,0.58772,50.680523,-0.010757,0.006104,0.997086,0.015377,-0.013814,0.051771,63.959747,21.113281,-150.093567,,,
729606399.574649,0.923671,0.58772,50.680523,-0.010757,0.006104,0.997086,0.015377,-0.013814,0.051771,63.894089,21.183014,-150.329636,,,
729606399.578035,0.92797,0.585068,50.698369,-0.015945,0.002441,0.995682,0.015377,-0.013814,0.051771,63.894089,21.183014,-150.329636,,,
729606399.581306,0.92976,0.58611,50.719946,-0.015945,0.002441,0.995682,0.014554,0.000421,0.075135,63.894089,21.183014,-150.329636,,,
729606399.584663,0.92976,0.58611,50.719946,-0.015945,0.002441,0.995682,0.014554,0.000421,0.075135,63.894089,21.183014,-150.329636,,,
729606399.587996,0.93305,0.584653,50.744367,-0.019043,0.004105,0.989914,0.014554,0.000421,0.075135,63.894089,21.183014,-150.329636,,,
729606399.591309,0.934535,0.57993,50.770516,-0.019043,0.004105,0.989914,0.010043,-0.000673,0.093083,63.894089,21.183014,-150.329636,,,
729606399.594657,0.934535,0.57993,50.770516,-0.019043,0.004105,0.989914,0.010043,-0.000673,0.093083,63.894089,21.183014,-150.329636,,,
729606399.597976,0.934958,0.57609,50.797546,-0.01651,0.011368,0.981415,0.010043,-0.000673,0.093083,63.894089,21.183014,-150.329636,,,
729606399.601311,0.931476,0.568237,50.824215,-0.01651,0.011368,0.981415,-0.00732,-0.020369,0.091903,63.894089,21.183014,-150.329636,,,
729606399.604703,0.931476,0.568237,50.824215,-0.01651,0.011368,0.981415,-0.00732,-0.020369,0.091903,63.894089,21.183014,-150.329636,,,
729606399.608001,0.925877,0.557679,50.848991,-0.009552,0.018341,0.972794,-0.00732,-0.020369,0.091903,63.894089,21.183014,-150.329636,,,
729606399.611316,0.914712,0.544224,50.871025,-0.009552,0.018341,0.972794,-0.033385,-0.043226,0.074855,63.894089,21.183014,-150.329636,,,
729606399.614772,0.914712,0.544224,50.871025,-0.009552,0.018341,0.972794,-0.033385,-0.043226,0.074855,63.801224,21.175781,-150.264572,,,
729606399.618045,0.902155,0.528542,50.890502,0.000412,0.024368,0.97551,-0.033385,-0.043226,0.074855,63.801224,21.175781,-150.264572,,,
729606399.621323,0.884544,0.510681,50.907887,0.000412,0.024368,0.97551,-0.05161,-0.059065,0.055596,63.801224,21.175781,-150.264572,,,
729606399.624742,0.884544,0.510681,50.907887,0.000412,0.024368,0.97551,-0.05161,-0.059065,0.055596,63.801224,21.175781,-150.264572,,,
729606399.628059,0.868459,0.492186,50.922991,0.006821,0.020111,0.983795,-0.05161,-0.059065,0.055596,63.801224,21.175781,-150.264572,,,
729606399.631315,0.849942,0.474922,50.93611,0.006821,0.020111,0.983795,-0.060075,-0.058253,0.04358,63.801224,21.175781,-150.264572,,,
729606399.634651,0.849942,0.474922,50.93611,0.006821,0.020111,0.983795,-0.060075,-0.058253,0.04358,63.801224,21.175781,-150.264572,,,
729606399.638007,0.832978,0.459058,50.948503,0.006897,0.011719,0.993561,-0.060075,-0.058253,0.04358,63.801224,21.175781,-150.264572,,,
729606399.64132,0.81486,0.444901,50.961319,0.006897,0.011719,0.993561,-0.055297,-0.045679,0.042403,63.801224,21.175781,-150.264572,,,
729606399.644666,0.81486,0.444901,50.961319,0.006897,0.011719,0.993561,-0.055297,-0.045679,0.042403,63.801224,21.175781,-150.264572,,,
729606399.647984,0.799146,0.43301,50.974666,0.004929,0.004013,0.999908,-0.055297,-0.045679,0.042403,63.801224,21.175781,-150.264572,,,
729606399.651319,0.782152,0.426472,50.988031,0.004929,0.004013,0.999908,-0.048198,-0.028357,0.04551,63.801224,21.175781,-150.264572,,,
729606399.654653,0.782152,0.426472,50.988031,0.004929,0.004013,0.999908,-0.048198,-0.028357,0.04551,63.609802,21.33345,-150.262466,,,
729606399.658,0.769427,0.421858,51.001631,-0.000473,0.003326,1.004272,-0.048198,-0.028357,0.04551,63.609802,21.33345,-150.262466,,,
729606399.661331,0.754755,0.424027,51.015603,-0.000473,0.003326,1.004272,-0.043354,-0.001139,0.045284,63.609802,21.33345,-150.262466,,,
729606399.664641,0.754755,0.424027,51.015603,-0.000473,0.003326,1.004272,-0.043354,-0.001139,0.045284,63.609802,21.33345,-150.262466,,,
729606399.668053,0.742708,0.424331,51.029883,-0.008057,0.002533,1.003723,-0.043354,-0.001139,0.045284,63.609802,21.33345,-150.262466,,,
729606399.671304,0.729387,0.428783,51.043754,-0.008057,0.002533,1.003723,-0.038855,0.003189,0.048577,63.609802,21.33345,-150.262466,,,
729606399.674668,0.729387,0.428783,51.043754,-0.008057,0.002533,1.003723,-0.038855,0.003189,0.048577,63.609802,21.33345,-150.262466,,,
729606399.677996,0.718652,0.427275,51.057535,-0.016098,0.001694,0.996323,-0.038855,0.003189,0.048577,63.609802,21.33345,-150.262466,,,
729606399.681382,0.709482,0.425706,51.071011,-0.016098,0.001694,0.996323,-0.033754,-0.01166,0.04585,63.609802,21.33345,-150.262466,,,
729606399.68466,0.709482,0.425706,51.071011,-0.016098,0.001694,0.996323,-0.033754,-0.01166,0.04585,63.609802,21.33345,-150.262466,,,
729606399.688004,0.700715,0.419821,51.083265,-0.017715,0.000702,0.994995,-0.033754,-0.01166,0.04585,63.609802,21.33345,-150.262466,,,
729606399.691314,0.694479,0.411618,51.094576,-0.017715,0.000702,0.994995,-0.030176,-0.020855,0.035478,63.609802,21.33345,-150.262466,,,
729606399.694751,0.694479,0.411618,51.094576,-0.017715,0.000702,0.994995,-0.030176,-0.020855,0.035478,63.609802,21.33345,-150.262466,,,
729606399.697969,0.686088,0.401293,51.105013,-0.018311,-0.000336,0.996033,-0.030176,-0.020855,0.035478,63.485428,21.360687,-150.193802,,,
729606399.701318,0.681107,0.3848,51.115359,-0.018311,-0.000336,0.996033,-0.024466,-0.041624,0.035495,63.485428,21.360687,-150.193802,,,
729606399.704656,0.681107,0.3848,51.115359,-0.018311,-0.000336,0.996033,-0.024466,-0.041624,0.035495,63.485428,21.360687,-150.193802,,,
729606399.708055,0.673218,0.370917,51.126437,-0.016754,-0.002441,0.990463,-0.024466,-0.041624,0.035495,63.485428,21.360687,-150.193802,,,
729606399.711309,0.666912,0.352668,51.138074,-0.016754,-0.002441,0.990463,-0.028408,-0.044049,0.040089,63.485428,21.360687,-150.193802,,,
729606399.714646,0.666912,0.352668,51.138074,-0.016754,-0.002441,0.990463,-0.028408,-0.044049,0.040089,63.485428,21.360687,-150.193802,,,
729606399.718003,0.658259,0.341296,51.149608,-0.005432,0.001007,0.996979,-0.028408,-0.044049,0.040089,63.485428,21.360687,-150.193802,,,
729606399.721314,0.648381,0.326365,51.160263,-0.005432,0.001007,0.996979,-0.031933,-0.032234,0.035733,63.485428,21.360687,-150.193802,,,
729606399.724652,0.648381,0.326365,51.160263,-0.005432,0.001007,0.996979,-0.031933,-0.032234,0.035733,63.485428,21.360687,-150.193802,,,
729606399.727986,0.639745,0.317532,51.169497,0.009384,0.008286,0.99678,-0.031933,-0.032234,0.035733,63.485428,21.360687,-150.193802,,,
729606399.731316,0.629524,0.308322,51.177254,0.009384,0.008286,0.99678,-0.029437,-0.018625,0.024756,63.485428,21.360687,-150.193802,,,
729606399.734702,0.629524,0.308322,51.177254,0.009384,0.008286,0.99678,-0.029437,-0.018625,0.024756,63.485428,21.360687,-150.193802,,,
729606399.737994,0.621477,0.304747,51.183043,0.016068,0.009552,0.999863,-0.029437,-0.018625,0.024756,63.653778,21.595932,-150.356613,,,
729606399.741315,0.611803,0.301957,51.186803,0.016068,0.009552,0.999863,-0.026508,-0.003936,0.009492,63.653778,21.595932,-150.356613,,,
729606399.744662,0.611803,0.301957,51.186803,0.016068,0.009552,0.999863,-0.026508,-0.003936,0.009492,63.653778,21.595932,-150.356613,,,
729606399.747984,0.604606,0.300045,51.188736,0.016571,0.008469,0.999359,-0.026508,-0.003936,0.009492,63.653778,21.595932,-150.356613,,,
729606399.751318,0.596713,0.300744,51.189093,0.016571,0.008469,0.999359,-0.025066,-0.003607,-0.000401,63.653778,21.595932,-150.356613,,,
729606399.754662,0.596713,0.300744,51.189093,0.016571,0.008469,0.999359,-0.025066,-0.003607,-0.000401,63.653778,21.595932,-150.356613,,,
729606399.757983,0.592817,0.300363,51.188681,0.009171,0.005142,0.997559,-0.025066,-0.003607,-0.000401,63.653778,21.595932,-150.356613,,,
729606399.761317,0.588865,0.304319,51.187892,0.009171,0.005142,0.997559,-0.006242,0.004307,-0.004102,63.653778,21.595932,-150.356613,,,
729606399.764647,0.588865,0.304319,51.187892,0.009171,0.005142,0.997559,-0.006242,0.004307,-0.004102,63.653778,21.595932,-150.356613,,,
729606399.768003,0.588871,0.303647,51.186966,0.006729,0.005157,1.005722,-0.006242,0.004307,-0.004102,63.653778,21.595932,-150.356613,,,
729606399.771314,0.587667,0.306603,51.184909,0.006729,0.005157,1.005722,0.004813,-0.004795,-0.008678,63.653778,21.595932,-150.356613,,,
729606399.774712,0.587667,0.306603,51.184909,0.006729,0.005157,1.005722,0.004813,-0.004795,-0.008678,63.653778,21.595932,-150.356613,,,
729606399.777974,0.589232,0.305039,51.181998,0.003357,0.007431,0.99794,0.004813,-0.004795,-0.008678,63.822647,21.449265,-150.387299,,,
729606399.781317,0.58738,0.309397,51.17882,0.003357,0.007431,0.99794,0.004508,0.003331,-0.01129,63.822647,21.449265,-150.387299,,,
729606399.784414,0.58738,0.309397,51.17882,0.003357,0.007431,0.99794,0.004508,0.003331,-0.01129,63.822647,21.449265,-150.387299,,,
729606399.788017,0.588082,0.310363,51.174958,-0.001022,0.011475,1.000122,0.004508,0.003331,-0.01129,63.822647,21.449265,-150.387299,,,
729606399.791329,0.585075,0.314415,51.170436,-0.001022,0.011475,1.000122,-0.001249,0.006346,-0.018415,63.822647,21.449265,-150.387299,,,
729606399.794668,0.585075,0.314415,51.170436,-0.001022,0.011475,1.000122,-0.001249,0.006346,-0.018415,63.822647,21.449265,-150.387299,,,
729606399.797982,0.584591,0.314936,51.165617,-0.004257,0.01329,0.996399,-0.001249,0.006346,-0.018415,63.822647,21.449265,-150.387299,,,
729606399.801321,0.582566,0.312443,51.160617,-0.004257,0.01329,0.996399,-0.001595,0.002229,-0.020778,63.822647,21.449265,-150.387299,,,
729606399.804675,0.582566,0.312443,51.160617,-0.004257,0.01329,0.996399,-0.001595,0.002229,-0.020778,63.822647,21.449265,-150.387299,,,
729606399.80798,0.581815,0.310876,51.155459,-0.011993,0.010651,0.999344,-0.001595,0.002229,-0.020778,63.822647,21.449265,-150.387299,,,
729606399.811315,0.581316,0.301607,51.150838,-0.011993,0.010651,0.999344,-0.001397,-0.004911,-0.018436,63.822647,21.449265,-150.387299,,,
729606399.814654,0.581316,0.301607,51.150838,-0.011993,0.010651,0.999344,-0.001397,-0.004911,-0.018436,63.822647,21.449265,-150.387299,,,
729606399.817983,0.581681,0.29691,51.147148,-0.02037,0.007599,1.000473,-0.001397,-0.004911,-0.018436,63.434631,21.623505,-150.519684,,,
729606399.821322,0.582403,0.282422,51.144353,-0.02037,0.007599,1.000473,0.004623,-0.020422,-0.011345,63.434631,21.623505,-150.519684,,,
729606399.824662,0.582403,0.282422,51.144353,-0.02037,0.007599,1.000473,0.004623,-0.020422,-0.011345,63.434631,21.623505,-150.519684,,,
729606399.828033,0.584724,0.273671,51.141931,-0.023071,0.007507,1.002518,0.004623,-0.020422,-0.011345,63.434631,21.623505,-150.519684,,,
729606399.831322,0.588005,0.256455,51.140409,-0.023071,0.007507,1.002518,0.011415,-0.036458,-0.003832,63.434631,21.623505,-150.519684,,,
729606399.834654,0.588005,0.256455,51.140409,-0.023071,0.007507,1.002518,0.011415,-0.036458,-0.003832,63.434631,21.623505,-150.519684,,,
729606399.838001,0.593985,0.245166,51.140046,-0.018356,0.007233,1.006485,0.011415,-0.036458,-0.003832,63.434631,21.623505,-150.519684,,,
729606399.841315,0.600022,0.229291,51.140796,-0.018356,0.007233,1.006485,0.025222,-0.038409,0.001994,63.434631,21.623505,-150.519684,,,
729606399.844662,0.600022,0.229291,51.140796,-0.018356,0.007233,1.006485,0.025222,-0.038409,0.001994,63.434631,21.623505,-150.519684,,,
729606399.848004,0.608068,0.217107,51.14211,-0.010315,0.00975,1.008453,0.025222,-0.038409,0.001994,63.434631,21.623505,-150.519684,,,
729606399.851362,0.615547,0.201867,51.143272,-0.010315,0.00975,1.008453,0.032699,-0.038896,0.002793,63.434631,21.623505,-150.519684,,,
729606399.85471,0.615547,0.201867,51.143272,-0.010315,0.00975,1.008453,0.032699,-0.038896,0.002793,63.434631,21.623505,-150.519684,,,
729606399.857991,0.623677,0.190945,51.143658,-0.000244,0.016418,1.00386,0.032699,-0.038896,0.002793,63.434631,21.623505,-150.519684,,,
729606399.861331,0.630279,0.180306,51.143078,-0.000244,0.016418,1.00386,0.025391,-0.028711,-0.001667,63.491379,21.482224,-150.418259,,,
729606399.864647,0.630279,0.180306,51.143078,-0.000244,0.016418,1.00386,0.025391,-0.028711,-0.001667,63.491379,21.482224,-150.418259,,,
729606399.867985,0.635979,0.174164,51.142,0.009476,0.022476,0.999146,0.025391,-0.028711,-0.001667,63.491379,21.482224,-150.418259,,,
729606399.871315,0.64104,0.170229,51.140757,0.009476,0.022476,0.999146,0.017433,-0.008591,-0.008834,63.491379,21.482224,-150.418259,,,
729606399.874662,0.64104,0.170229,51.140757,0.009476,0.022476,0.999146,0.017433,-0.008591,-0.008834,63.491379,21.482224,-150.418259,,,
729606399.878067,0.645058,0.167999,51.139279,0.007675,0.024719,0.996918,0.017433,-0.008591,-0.008834,63.491379,21.482224,-150.418259,,,
729606399.881304,0.649255,0.167172,51.138423,0.007675,0.024719,0.996918,0.01126,-0.004495,-0.003675,63.491379,21.482224,-150.418259,,,
729606399.884655,0.649255,0.167172,51.138423,0.007675,0.024719,0.996918,0.01126,-0.004495,-0.003675,63.491379,21.482224,-150.418259,,,
729606399.887999,0.652554,0.16387,51.138605,-0.000443,0.019531,0.994476,0.01126,-0.004495,-0.003675,63.491379,21.482224,-150.418259,,,
729606399.891314,0.655821,0.164021,51.139479,-0.000443,0.019531,0.994476,0.016842,-0.011868,0.003767,63.491379,21.482224,-150.418259,,,
729606399.894659,0.655821,0.164021,51.139479,-0.000443,0.019531,0.994476,0.016842,-0.011868,0.003767,63.491379,21.482224,-150.418259,,,
729606399.897984,0.660845,0.158275,51.141401,-0.007507,0.017059,0.995712,0.016842,-0.011868,0.003767,63.491379,21.482224,-150.418259,,,
729606399.901317,0.665271,0.156598,51.143374,-0.007507,0.017059,0.995712,0.021355,-0.026194,0.004226,63.60199,21.142395,-150.37265,,,
729606399.904696,0.665271,0.156598,51.143374,-0.007507,0.017059,0.995712,0.021355,-0.026194,0.004226,63.60199,21.142395,-150.37265,,,
729606399.908001,0.671026,0.145258,51.144602,-0.007599,0.018311,0.993149,0.021355,-0.026194,0.004226,63.60199,21.142395,-150.37265,,,
729606399.911328,0.675412,0.138659,51.145584,-0.007599,0.018311,0.993149,0.018904,-0.043053,0.002458,63.60199,21.142395,-150.37265,,,
729606399.91465,0.675412,0.138659,51.145584,-0.007599,0.018311,0.993149,0.018904,-0.043053,0.002458,63.60199,21.142395,-150.37265,,,
729606399.918059,0.680757,0.124331,51.146684,-0.006439,0.019592,0.992126,0.018904,-0.043053,0.002458,63.60199,21.142395,-150.37265,,,
729606399.921304,0.685186,0.115389,51.147976,-0.006439,0.019592,0.992126,0.021783,-0.045875,0.005146,63.60199,21.142395,-150.37265,,,
729606399.924661,0.685186,0.115389,51.147976,-0.006439,0.019592,0.992126,0.021783,-0.045875,0.005146,63.60199,21.142395,-150.37265,,,
729606399.927984,0.690426,0.103251,51.149721,-0.003967,0.020752,0.998062,0.021783,-0.045875,0.005146,63.60199,21.142395,-150.37265,,,
729606399.931317,0.695449,0.095252,51.151805,-0.003967,0.020752,0.998062,0.017052,-0.035217,0.005943,63.60199,21.142395,-150.37265,,,
729606399.934659,0.695449,0.095252,51.151805,-0.003967,0.020752,0.998062,0.017052,-0.035217,0.005943,63.60199,21.142395,-150.37265,,,
729606399.938007,0.700094,0.087433,51.154869,-0.001984,0.019684,0.99791,0.017052,-0.035217,0.005943,63.60199,21.142395,-150.37265,,,
729606399.941307,0.705269,0.08017,51.158875,-0.001984,0.019684,0.99791,0.012551,-0.014946,0.013925,63.391998,21.473221,-150.371826,,,
729606399.944729,0.705269,0.08017,51.158875,-0.001984,0.019684,0.99791,0.012551,-0.014946,0.013925,63.391998,21.473221,-150.371826,,,
729606399.947992,0.70866,0.077085,51.16438,-0.006439,0.013229,1.00058,0.012551,-0.014946,0.013925,63.391998,21.473221,-150.371826,,,
729606399.95131,0.715292,0.070741,51.170911,-0.006439,0.013229,1.00058,0.014264,-0.003648,0.024524,63.391998,21.473221,-150.371826,,,
729606399.954658,0.715292,0.070741,51.170911,-0.006439,0.013229,1.00058,0.014264,-0.003648,0.024524,63.391998,21.473221,-150.371826,,,
729606399.958058,0.71938,0.068508,51.177397,-0.008148,0.016113,0.997711,0.014264,-0.003648,0.024524,63.391998,21.473221,-150.371826,,,
729606399.961309,0.727088,0.063508,51.184244,-0.008148,0.016113,0.997711,0.016854,-0.005889,0.023083,63.391998,21.473221,-150.371826,,,
729606399.964644,0.727088,0.063508,51.184244,-0.008148,0.016113,0.997711,0.016854,-0.005889,0.023083,63.391998,21.473221,-150.371826,,,
729606399.967986,0.733112,0.060718,51.191059,-0.010269,0.01976,0.998413,0.016854,-0.005889,0.023083,63.391998,21.473221,-150.371826,,,
729606399.971322,0.741721,0.059057,51.197342,-0.010269,0.01976,0.998413,0.024091,-0.004953,0.020112,63.391998,21.473221,-150.371826,,,
729606399.974651,0.741721,0.059057,51.197342,-0.010269,0.01976,0.998413,0.024091,-0.004953,0.020112,63.391998,21.473221,-150.371826,,,
729606399.977994,0.749281,0.056275,51.203623,-0.012009,0.019852,0.998993,0.024091,-0.004953,0.020112,63.391998,21.473221,-150.371826,,,
729606399.98132,0.757808,0.055467,51.210378,-0.012009,0.019852,0.998993,0.026015,-0.007954,0.021133,63.391998,21.473221,-150.371826,,,
729606399.984705,0.757808,0.055467,51.210378,-0.012009,0.019852,0.998993,0.026015,-0.007954,0.021133,63.340286,21.300919,-150.452774,,,
729606399.987983,0.765149,0.051015,51.217604,-0.011948,0.022354,0.993774,0.026015,-0.007954,0.021133,63.340286,21.300919,-150.452774,,,
729606399.991312,0.77336,0.046843,51.225447,-0.011948,0.022354,0.993774,0.02633,-0.01853,0.025424,63.340286,21.300919,-150.452774,,,
729606399.994657,0.77336,0.046843,51.225447,-0.011948,0.022354,0.993774,0.02633,-0.01853,0.025424,63.340286,21.300919,-150.452774,,,
729606399.997984,0.779482,0.039722,51.234603,-0.015732,0.020966,0.985855,0.02633,-0.01853,0.025424,63.340286,21.300919,-150.452774,,,
729606400.001325,0.786643,0.033595,51.244635,-0.015732,0.020966,0.985855,0.022381,-0.025556,0.033472,63.340286,21.300919,-150.452774,,,
729606400.004669,0.786643,0.033595,51.244635,-0.015732,0.020966,0.985855,0.022381,-0.025556,0.033472,63.340286,21.300919,-150.452774,,,
729606400.008009,0.790805,0.024297,51.254925,-0.013748,0.019165,0.985504,0.022381,-0.025556,0.033472,63.340286,21.300919,-150.452774,,,
729606400.011314,0.795912,0.014665,51.265192,-0.013748,0.019165,0.985504,0.010162,-0.032378,0.031903,63.340286,21.300919,-150.452774,,,
729606400.014643,0.795912,0.014665,51.265192,-0.013748,0.019165,0.985504,0.010162,-0.032378,0.031903,63.340286,21.300919,-150.452774,,,
729606400.017996,0.79853,0.003826,51.274585,-0.002258,0.022781,0.9832,0.010162,-0.032378,0.031903,63.340286,21.300919,-150.452774,,,
729606400.021314,0.80174,-0.004937,51.283113,-0.002258,0.022781,0.9832,0.007829,-0.031227,0.026279,63.340286,21.300919,-150.452774,,,
729606400.024646,0.80174,-0.004937,51.283113,-0.002258,0.022781,0.9832,0.007829,-0.031227,0.026279,63.196243,21.230072,-150.180328,,,
729606400.027993,0.804985,-0.012337,51.290279,0.007446,0.022202,0.99292,0.007829,-0.031227,0.026279,63.196243,21.230072,-150.180328,,,
729606400.031324,0.809179,-0.014036,51.296147,0.007446,0.022202,0.99292,0.014259,-0.010304,0.018671,63.196243,21.230072,-150.180328,,,
729606400.034663,0.809179,-0.014036,51.296147,0.007446,0.022202,0.99292,0.014259,-0.010304,0.018671,63.196243,21.230072,-150.180328,,,
729606400.037978,0.814618,-0.0161,51.302134,0.006973,0.018478,1.002823,0.014259,-0.010304,0.018671,63.196243,21.230072,-150.180328,,,
729606400.041315,0.821668,-0.012373,51.309273,0.006973,0.018478,1.002823,0.021039,0.003302,0.022123,63.196243,21.230072,-150.180328,,,
729606400.044653,0.821668,-0.012373,51.309273,0.006973,0.018478,1.002823,0.021039,0.003302,0.022123,63.196243,21.230072,-150.180328,,,
729606400.047981,0.828367,-0.009114,51.318605,-0.002884,0.007614,1.00032,0.021039,0.003302,0.022123,63.196243,21.230072,-150.180328,,,
729606400.051318,0.837224,0.000706,51.330045,-0.002884,0.007614,1.00032,0.02737,0.02651,0.03794,63.196243,21.230072,-150.180328,,,
729606400.054651,0.837224,0.000706,51.330045,-0.002884,0.007614,1.00032,0.02737,0.02651,0.03794,63.196243,21.230072,-150.180328,,,
729606400.057996,0.844941,0.008045,51.343357,-0.010025,0.003845,0.999954,0.02737,0.02651,0.03794,63.196243,21.230072,-150.180328,,,
729606400.061315,0.854818,0.020099,51.357773,-0.010025,0.003845,0.999954,0.029601,0.031842,0.046452,63.196243,21.230072,-150.180328,,,
729606400.064646,0.854818,0.020099,51.357773,-0.010025,0.003845,0.999954,0.029601,0.031842,0.046452,63.198349,21.079697,-150.382797,,,
729606400.067986,0.863138,0.027155,51.372539,-0.006882,0.006638,0.992966,0.029601,0.031842,0.046452,63.198349,21.079697,-150.382797,,,
729606400.071316,0.872619,0.038527,51.386548,-0.006882,0.006638,0.992966,0.029759,0.029656,0.047521,63.198349,21.079697,-150.382797,,,
729606400.074733,0.872619,0.038527,51.386548,-0.006882,0.006638,0.992966,0.029759,0.029656,0.047521,63.198349,21.079697,-150.382797,,,
729606400.077991,0.879367,0.045159,51.399636,-0.004898,0.009216,0.986801,0.029759,0.029656,0.047521,63.198349,21.079697,-150.382797,,,
729606400.081312,0.886568,0.055023,51.411192,-0.004898,0.009216,0.986801,0.019548,0.01967,0.04011,63.198349,21.079697,-150.382797,,,
729606400.084648,0.886568,0.055023,51.411192,-0.004898,0.009216,0.986801,0.019548,0.01967,0.04011,63.198349,21.079697,-150.382797,,,
729606400.088039,0.891264,0.056504,51.421306,-0.000809,0.012436,0.982315,0.019548,0.01967,0.04011,63.198349,21.079697,-150.382797,,,
729606400.091299,0.891264,0.056504,51.430595,-0.000809,0.012436,0.982315,0.015347,-0.001805,0.029424,63.198349,21.079697,-150.382797,,,
729606400.094662,0.896477,0.05803,51.430595,-0.000809,0.012436,0.982315,0.015347,-0.001805,0.029424,63.198349,21.079697,-150.382797,,,
729606400.097974,0.899967,0.054038,51.439396,0.00119,0.011002,0.98056,0.015347,-0.001805,0.029424,63.198349,21.079697,-150.382797,,,
729606400.101307,0.904139,0.048629,51.447603,0.00119,0.011002,0.98056,0.008441,-0.013489,0.027705,63.198349,21.079697,-150.382797,,,
729606400.104647,0.904139,0.048629,51.447603,0.00119,0.011002,0.98056,0.008441,-0.013489,0.027705,63.154968,21.226273,-150.288406,,,
729606400.10797,0.905907,0.044989,51.455841,0.003891,0.010422,0.98378,0.008441,-0.013489,0.027705,63.154968,21.226273,-150.288406,,,
729606400.111307,0.905907,0.044989,51.455841,0.003891,0.010422,0.98378,0.005775,-0.004947,0.028142,63.154968,21.226273,-150.288406,,,
729606400.114642,0.908789,0.039382,51.464072,0.003891,0.010422,0.98378,0.005775,-0.004947,0.028142,63.154968,21.226273,-150.288406,,,
729606400.117978,0.90987,0.039729,51.471418,0.013641,0.015884,0.99144,0.005775,-0.004947,0.028142,63.154968,21.226273,-150.288406,,,
729606400.121305,0.90987,0.039729,51.477795,0.013641,0.015884,0.99144,0.005396,0.015358,0.019839,63.154968,21.226273,-150.288406,,,
729606400.124666,0.910784,0.041645,51.477795,0.013641,0.015884,0.99144,0.005396,0.015358,0.019839,63.154968,21.226273,-150.288406,,,
729606400.128053,0.911416,0.048359,51.483325,0.017014,0.019394,0.998138,0.005396,0.015358,0.019839,63.154968,21.226273,-150.288406,,,
729606400.131298,0.911416,0.048359,51.483325,0.017014,0.019394,0.998138,0.000917,0.038807,0.018934,63.154968,21.226273,-150.288406,,,
729606400.134657,0.909273,0.060217,51.488762,0.017014,0.019394,0.998138,0.000917,0.038807,0.018934,63.154968,21.226273,-150.288406,,,
729606400.137982,0.910058,0.072306,51.494165,0.015427,0.012863,0.998306,0.000917,0.038807,0.018934,63.154968,21.226273,-150.288406,,,
729606400.141303,0.910058,0.072306,51.494165,0.015427,0.012863,0.998306,0.004163,0.050284,0.019816,63.154968,21.226273,-150.288406,,,
729606400.144657,0.908332,0.08889,51.499522,0.015427,0.012863,0.998306,0.004163,0.050284,0.019816,63.154968,21.226273,-150.288406,,,
729606400.147968,0.910188,0.101964,51.504192,0.008575,0.01178,0.994858,0.004163,0.050284,0.019816,63.327042,21.524185,-150.255203,,,
729606400.151301,0.910188,0.101964,51.504192,0.008575,0.01178,0.994858,0.012903,0.043921,0.010291,63.327042,21.524185,-150.255203,,,
729606400.154638,0.911017,0.114894,51.507312,0.008575,0.01178,0.994858,0.012903,0.043921,0.010291,63.327042,21.524185,-150.255203,,,
729606400.157985,0.914369,0.125615,51.509481,0.004959,0.014725,0.994354,0.012903,0.043921,0.010291,63.327042,21.524185,-150.255203,,,
729606400.161352,0.914369,0.125615,51.509481,0.004959,0.014725,0.994354,0.012542,0.036854,0.00607,63.327042,21.524185,-150.255203,,,
729606400.164638,0.916313,0.135787,51.510939,0.004959,0.014725,0.994354,0.012542,0.036854,0.00607,63.327042,21.524185,-150.255203,,,
729606400.167978,0.919223,0.143185,51.512096,0.000656,0.012665,0.989517,0.012542,0.036854,0.00607,63.327042,21.524185,-150.255203,,,
729606400.171301,0.919223,0.143185,51.512096,0.000656,0.012665,0.989517,0.009601,0.022709,0.002638,63.327042,21.524185,-150.255203,,,
729606400.17467,0.920957,0.147235,51.513219,0.000656,0.012665,0.989517,0.009601,0.022709,0.002638,63.327042,21.524185,-150.255203,,,
729606400.178027,0.922635,0.151171,51.514423,-0.005768,0.009796,0.989502,0.009601,0.022709,0.002638,63.327042,21.524185,-150.255203,,,
729606400.18131,0.922635,0.151171,51.514423,-0.005768,0.009796,0.989502,0.003463,0.015853,0.006152,63.327042,21.524185,-150.255203,,,
729606400.184653,0.921577,0.153307,51.516234,-0.005768,0.009796,0.989502,0.003463,0.015853,0.006152,63.327042,21.524185,-150.255203,,,
729606400.187996,0.92146,0.156669,51.519283,-0.010345,0.008514,0.99408,0.003463,0.015853,0.006152,63.189194,21.266983,-150.62291,,,
729606400.191337,0.92146,0.156669,51.519283,-0.010345,0.008514,0.99408,-0.00223,0.014482,0.011159,63.189194,21.266983,-150.62291,,,
729606400.19465,0.919968,0.156943,51.523622,-0.010345,0.008514,0.99408,-0.00223,0.014482,0.011159,63.189194,21.266983,-150.62291,,,
729606400.198008,0.918754,0.162298,51.528822,-0.008591,0.004929,0.997223,-0.00223,0.014482,0.011159,63.189194,21.266983,-150.62291,,,
729606400.201361,0.918754,0.162298,51.528822,-0.008591,0.004929,0.997223,-0.005119,0.02888,0.021611,63.189194,21.266983,-150.62291,,,
729606400.20472,0.917483,0.162941,51.535522,-0.008591,0.004929,0.997223,-0.005119,0.02888,0.021611,63.189194,21.266983,-150.62291,,,
729606400.207973,0.914235,0.170533,51.543277,-0.008698,0.003998,0.998215,-0.005119,0.02888,0.021611,63.189194,21.266983,-150.62291,,,
729606400.211314,0.914235,0.170533,51.543277,-0.008698,0.003998,0.998215,-0.005119,0.02888,0.021611,63.189194,21.266983,-150.62291,,,
729606400.214648,0.910464,0.170133,51.55194,-0.008698,0.003998,0.998215,-0.010362,0.026722,0.02983,63.189194,21.266983,-150.62291,,,
729606400.217975,0.906095,0.175978,51.560977,-0.00238,0.003326,0.994736,-0.010362,0.026722,0.02983,63.189194,21.266983,-150.62291,,,
729606400.221329,0.906095,0.175978,51.560977,-0.00238,0.003326,0.994736,-0.010362,0.026722,0.02983,63.189194,21.266983,-150.62291,,,
729606400.224643,0.899814,0.174228,51.569529,-0.00238,0.003326,0.994736,-0.015201,0.016564,0.030595,63.189194,21.266983,-150.62291,,,
729606400.227974,0.893191,0.175997,51.577209,0.000687,0.002243,0.990921,-0.015201,0.016564,0.030595,63.282303,21.432281,-150.564835,,,
729606400.231391,0.893191,0.175997,51.577209,0.000687,0.002243,0.990921,-0.028251,0.005659,0.023836,63.282303,21.432281,-150.564835,,,
729606400.234641,0.884305,0.173151,51.584246,0.000687,0.002243,0.990921,-0.028251,0.005659,0.023836,63.282303,21.432281,-150.564835,,,
729606400.237987,0.873781,0.173913,51.59021,0.001663,0.00351,0.989883,-0.028251,0.005659,0.023836,63.282303,21.432281,-150.564835,,,
729606400.241329,0.873781,0.173913,51.59021,0.001663,0.00351,0.989883,-0.028251,0.005659,0.023836,63.282303,21.432281,-150.564835,,,
729606400.24472,0.861769,0.171968,51.595452,0.001663,0.00351,0.989883,-0.040992,0.006351,0.016135,63.282303,21.432281,-150.564835,,,
729606400.247969,0.849634,0.172137,51.599916,0.006531,0.004486,0.992966,-0.040992,0.006351,0.016135,63.282303,21.432281,-150.564835,,,
729606400.251344,0.849634,0.172137,51.599916,0.006531,0.004486,0.992966,-0.040992,0.006351,0.016135,63.282303,21.432281,-150.564835,,,
729606400.25465,0.836702,0.171593,51.603984,0.006531,0.004486,0.992966,-0.043603,0.001797,0.014717,63.282303,21.432281,-150.564835,,,
729606400.257979,0.825494,0.171917,51.607515,0.009125,0.004913,0.996323,-0.043603,0.001797,0.014717,63.282303,21.432281,-150.564835,,,
729606400.261332,0.825494,0.171917,51.607515,0.009125,0.004913,0.996323,-0.043603,0.001797,0.014717,63.282303,21.432281,-150.564835,,,
729606400.264665,0.813595,0.175166,51.609894,0.009125,0.004913,0.996323,-0.036434,0.008737,0.009629,63.282303,21.432281,-150.564835,,,
729606400.267985,0.802763,0.178473,51.611451,0.014206,0.00621,1.004623,-0.036434,0.008737,0.009629,63.401627,21.692581,-150.329697,,,
729606400.271375,0.802763,0.178473,51.611451,0.014206,0.00621,1.004623,-0.036434,0.008737,0.009629,63.401627,21.692581,-150.329697,,,
729606400.274637,0.789868,0.185116,51.611905,0.014206,0.00621,1.004623,-0.03659,0.018004,-0.000654,63.401627,21.692581,-150.329697,,,
729606400.277982,0.778587,0.189637,51.611556,0.014709,0.008224,0.996719,-0.03659,0.018004,-0.000654,63.401627,21.692581,-150.329697,,,
729606400.281368,0.778587,0.189637,51.611556,0.014709,0.008224,0.996719,-0.03659,0.018004,-0.000654,63.401627,21.692581,-150.329697,,,
729606400.284639,0.764993,0.195089,51.610858,0.014709,0.008224,0.996719,-0.039434,0.019319,-0.003717,63.401627,21.692581,-150.329697,,,
729606400.287982,0.754453,0.197397,51.609895,0.00676,0.005936,0.996033,-0.039434,0.019319,-0.003717,63.401627,21.692581,-150.329697,,,
729606400.291322,0.754453,0.197397,51.609895,0.00676,0.005936,0.996033,-0.039434,0.019319,-0.003717,63.401627,21.692581,-150.329697,,,
729606400.294688,0.742809,0.199614,51.60854,0.00676,0.005936,0.996033,-0.030652,0.007945,-0.005291,63.401627,21.692581,-150.329697,,,
729606400.297974,0.734219,0.199651,51.606521,0.004395,0.007584,0.999298,-0.030652,0.007945,-0.005291,63.401627,21.692581,-150.329697,,,
729606400.301348,0.734219,0.199651,51.606521,0.004395,0.007584,0.999298,-0.030652,0.007945,-0.005291,63.401627,21.692581,-150.329697,,,
729606400.304645,0.723545,0.198451,51.60337,0.004395,0.007584,0.999298,-0.027378,0.002939,-0.01261,63.401627,21.692581,-150.329697,,,
729606400.307983,0.714865,0.198982,51.599039,0.003891,0.009277,0.998672,-0.027378,0.002939,-0.01261,63.401627,21.692581,-150.329697,,,
729606400.311354,0.714865,0.198982,51.599039,0.003891,0.009277,0.998672,-0.027378,0.002939,-0.01261,63.510254,21.70932,-150.202698,,,
729606400.314637,0.70281,0.199747,51.593775,0.003891,0.009277,0.998672,-0.033443,0.010682,-0.01851,63.510254,21.70932,-150.202698,,,
729606400.31799,0.692368,0.204246,51.588055,-0.00264,0.009857,1.004364,-0.033443,0.010682,-0.01851,63.510254,21.70932,-150.202698,,,
729606400.321401,0.692368,0.204246,51.588055,-0.00264,0.009857,1.004364,-0.033443,0.010682,-0.01851,63.510254,21.70932,-150.202698,,,
729606400.324774,0.679075,0.207714,51.582358,-0.00264,0.009857,1.004364,-0.038217,0.023026,-0.022107,63.510254,21.70932,-150.202698,,,
729606400.327986,0.667882,0.213704,51.576728,-0.008606,0.008087,1.006073,-0.038217,0.023026,-0.022107,63.510254,21.70932,-150.202698,,,
729606400.331427,0.667882,0.213704,51.576728,-0.008606,0.008087,1.006073,-0.038217,0.023026,-0.022107,63.510254,21.70932,-150.202698,,,
729606400.334706,0.65575,0.214934,51.571185,-0.008606,0.008087,1.006073,-0.03536,0.01867,-0.01837,63.510254,21.70932,-150.202698,,,
729606400.337968,0.64572,0.219252,51.565734,-0.013702,0.008179,1.002991,-0.03536,0.01867,-0.01837,63.510254,21.70932,-150.202698,,,
729606400.341331,0.64572,0.219252,51.565734,-0.013702,0.008179,1.002991,-0.03536,0.01867,-0.01837,63.510254,21.70932,-150.202698,,,
729606400.344652,0.634986,0.217312,51.560425,-0.013702,0.008179,1.002991,-0.031349,0.014106,-0.017854,63.510254,21.70932,-150.202698,,,
729606400.347977,0.627238,0.219352,51.554839,-0.013657,0.010208,1.008911,-0.031349,0.014106,-0.017854,63.510254,21.70932,-150.202698,,,
729606400.351309,0.627238,0.219352,51.554839,-0.013657,0.010208,1.008911,-0.031349,0.014106,-0.017854,63.331604,21.78154,-150.116699,,,
729606400.354659,0.619353,0.212977,51.548428,-0.013657,0.010208,1.008911,-0.021406,0.002246,-0.025568,63.331604,21.78154,-150.116699,,,
729606400.357971,0.612796,0.210946,51.541079,-0.009369,0.014755,1.001862,-0.021406,0.002246,-0.025568,63.331604,21.78154,-150.116699,,,
729606400.361379,0.612796,0.210946,51.541079,-0.009369,0.014755,1.001862,-0.021406,0.002246,-0.025568,63.331604,21.78154,-150.116699,,,
729606400.364634,0.605519,0.202093,51.533751,-0.009369,0.014755,1.001862,-0.022372,-0.01024,-0.027756,63.331604,21.78154,-150.116699,,,
729606400.367975,0.599405,0.197427,51.526026,-0.011597,0.014435,0.998367,-0.022372,-0.01024,-0.027756,63.331604,21.78154,-150.116699,,,
729606400.371334,0.599405,0.197427,51.526026,-0.011597,0.014435,0.998367,-0.022372,-0.01024,-0.027756,63.331604,21.78154,-150.116699,,,
729606400.37467,0.593243,0.189363,51.518199,-0.011597,0.014435,0.998367,-0.016425,-0.01546,-0.028225,63.331604,21.78154,-150.116699,,,
729606400.377967,0.589858,0.183626,51.511328,-0.012161,0.009857,1.002823,-0.016425,-0.01546,-0.028225,63.331604,21.78154,-150.116699,,,
729606400.381332,0.589858,0.183626,51.511328,-0.012161,0.009857,1.002823,-0.016425,-0.01546,-0.028225,63.331604,21.78154,-150.116699,,,
729606400.384646,0.588717,0.174946,51.504957,-0.012161,0.009857,1.002823,-0.001183,-0.017075,-0.025245,63.331604,21.78154,-150.116699,,,
729606400.387969,0.591458,0.170215,51.499003,-0.009933,0.009399,1.007065,-0.001183,-0.017075,-0.025245,63.331604,21.78154,-150.116699,,,
729606400.391304,0.591458,0.170215,51.499003,-0.009933,0.009399,1.007065,-0.001183,-0.017075,-0.025245,63.577408,21.531036,-150.182236,,,
729606400.39464,0.596922,0.166095,51.494189,-0.009933,0.009399,1.007065,0.020034,-0.005889,-0.01961,63.577408,21.531036,-150.182236,,,
729606400.397991,0.603863,0.166976,51.490495,-0.009735,0.010437,1.012131,0.020034,-0.005889,-0.01961,63.577408,21.531036,-150.182236,,,
729606400.401415,0.603863,0.166976,51.490495,-0.009735,0.010437,1.012131,0.020034,-0.005889,-0.01961,63.577408,21.531036,-150.182236,,,
729606400.40465,0.609988,0.171212,51.488098,-0.009735,0.010437,1.012131,0.025071,0.014973,-0.009874,63.577408,21.531036,-150.182236,,,
729606400.40799,0.61566,0.177705,51.486794,-0.010468,0.013123,1.006577,0.025071,0.014973,-0.009874,63.577408,21.531036,-150.182236,,,
729606400.411332,0.61566,0.177705,51.486794,-0.010468,0.013123,1.006577,0.025071,0.014973,-0.009874,63.577408,21.531036,-150.182236,,,
729606400.41466,0.62008,0.189785,51.48677,-0.010468,0.013123,1.006577,0.020145,0.037529,0.001614,63.577408,21.531036,-150.182236,,,
729606400.417991,0.625597,0.200966,51.487843,-0.014801,0.014328,1.002106,0.020145,0.037529,0.001614,63.577408,21.531036,-150.182236,,,
729606400.421313,0.625597,0.200966,51.487843,-0.014801,0.014328,1.002106,0.020145,0.037529,0.001614,63.577408,21.531036,-150.182236,,,
729606400.424663,0.630411,0.215753,51.489384,-0.014801,0.014328,1.002106,0.019633,0.04203,0.00563,63.577408,21.531036,-150.182236,,,
729606400.427983,0.635332,0.224347,51.490604,-0.011642,0.017365,0.993591,0.019633,0.04203,0.00563,63.577408,21.531036,-150.182236,,,
729606400.431315,0.635332,0.224347,51.490604,-0.011642,0.017365,0.993591,0.019633,0.04203,0.00563,63.55629,21.621628,-150.330231,,,
729606400.434684,0.639821,0.233348,51.490066,-0.011642,0.017365,0.993591,0.016495,0.023285,-0.00245,63.55629,21.621628,-150.330231,,,
729606400.437973,0.644319,0.237318,51.487308,-0.003586,0.020782,0.987244,0.016495,0.023285,-0.00245,63.55629,21.621628,-150.330231,,,
729606400.441381,0.644319,0.237318,51.487308,-0.003586,0.020782,0.987244,0.016495,0.023285,-0.00245,63.55629,21.621628,-150.330231,,,
729606400.444653,0.650003,0.241157,51.48246,-0.003586,0.020782,0.987244,0.018218,0.007739,-0.017025,63.55629,21.621628,-150.330231,,,
729606400.447977,0.653709,0.24026,51.476125,0.004105,0.025085,0.984161,0.018218,0.007739,-0.017025,63.55629,21.621628,-150.330231,,,
729606400.451325,0.653709,0.24026,51.476125,0.004105,0.025085,0.984161,0.018218,0.007739,-0.017025,63.55629,21.621628,-150.330231,,,
729606400.454733,0.656261,0.239581,51.46924,0.004105,0.025085,0.984161,0.006556,-0.011064,-0.025861,63.55629,21.621628,-150.330231,,,
729606400.457976,0.656491,0.234242,51.46192,0.005585,0.027878,0.973175,0.006556,-0.011064,-0.025861,63.55629,21.621628,-150.330231,,,
729606400.461339,0.656491,0.234242,51.46192,0.005585,0.027878,0.973175,0.006556,-0.011064,-0.025861,63.55629,21.621628,-150.330231,,,
729606400.464638,0.654383,0.230668,51.454656,0.005585,0.027878,0.973175,-0.004659,-0.017316,-0.025566,63.55629,21.621628,-150.330231,,,
729606400.467974,0.652085,0.224621,51.448723,0.00325,0.024887,0.97403,-0.004659,-0.017316,-0.025566,63.55629,21.621628,-150.330231,,,
729606400.471317,0.652085,0.224621,51.448723,0.00325,0.024887,0.97403,-0.004659,-0.017316,-0.025566,63.55629,21.621628,-150.330231,,,
729606400.47465,0.648888,0.221914,51.443878,0.00325,0.024887,0.97403,-0.00952,-0.013344,-0.018733,63.398132,21.801773,-150.356369,,,
729606400.477977,0.645568,0.219126,51.439832,0.005844,0.020782,0.980499,-0.00952,-0.013344,-0.018733,63.398132,21.801773,-150.356369,,,
729606400.481317,0.645568,0.219126,51.439832,0.005844,0.020782,0.980499,-0.00952,-0.013344,-0.018733,63.398132,21.801773,-150.356369,,,
729606400.484654,0.641836,0.220714,51.436985,0.005844,0.020782,0.980499,-0.011601,-0.0001,-0.010212,63.398132,21.801773,-150.356369,,,
729606400.487999,0.638027,0.222583,51.434959,0.004532,0.015686,0.989105,-0.011601,-0.0001,-0.010212,63.398132,21.801773,-150.356369,,,
729606400.491323,0.638027,0.222583,51.434959,0.004532,0.015686,0.989105,-0.011601,-0.0001,-0.010212,63.398132,21.801773,-150.356369,,,
729606400.494701,0.635351,0.229709,51.433029,0.004532,0.015686,0.989105,-0.01189,0.016337,-0.00812,63.398132,21.801773,-150.356369,,,
729606400.497973,0.632052,0.235944,51.431124,0.002396,0.013458,0.996902,-0.01189,0.016337,-0.00812,63.398132,21.801773,-150.356369,,,
729606400.501317,0.632052,0.235944,51.431124,0.002396,0.013458,0.996902,-0.01189,0.016337,-0.00812,63.398132,21.801773,-150.356369,,,
729606400.504645,0.629342,0.247605,51.428912,0.002396,0.013458,0.996902,-0.011067,0.031449,-0.009926,63.398132,21.801773,-150.356369,,,
729606400.507967,0.625153,0.255712,51.426808,0.001205,0.010895,0.998947,-0.011067,0.031449,-0.009926,63.398132,21.801773,-150.356369,,,
729606400.511329,0.625153,0.255712,51.426808,0.001205,0.010895,0.998947,-0.011067,0.031449,-0.009926,63.398132,21.801773,-150.356369,,,
729606400.514635,0.622034,0.264415,51.424772,0.001205,0.010895,0.998947,-0.016245,0.027232,-0.010048,63.558838,21.63147,-150.518158,,,
729606400.517972,0.61549,0.270308,51.42256,-0.003876,0.011749,0.993546,-0.016245,0.027232,-0.010048,63.558838,21.63147,-150.518158,,,
729606400.521372,0.61549,0.270308,51.42256,-0.003876,0.011749,0.993546,-0.016245,0.027232,-0.010048,63.558838,21.63147,-150.518158,,,
729606400.524659,0.610456,0.273085,51.420556,-0.003876,0.011749,0.993546,-0.030395,0.016786,-0.00882,63.558838,21.63147,-150.518158,,,
729606400.527977,0.601299,0.275745,51.418895,-0.005173,0.010223,0.991547,-0.030395,0.016786,-0.00882,63.558838,21.63147,-150.518158,,,
729606400.531307,0.601299,0.275745,51.418895,-0.005173,0.010223,0.991547,-0.030395,0.016786,-0.00882,63.558838,21.63147,-150.518158,,,
729606400.534683,0.596335,0.273892,51.416824,-0.005173,0.010223,0.991547,-0.030234,0.008611,-0.009142,63.558838,21.63147,-150.518158,,,
729606400.537977,0.588877,0.274181,51.414787,-0.009186,0.004883,1.001755,-0.030234,0.008611,-0.009142,63.558838,21.63147,-150.518158,,,
729606400.541314,0.588877,0.274181,51.414787,-0.009186,0.004883,1.001755,-0.030234,0.008611,-0.009142,63.558838,21.63147,-150.518158,,,
729606400.54464,0.587219,0.270111,51.413641,-0.009186,0.004883,1.001755,-0.020781,0.000378,-0.007724,63.558838,21.63147,-150.518158,,,
729606400.547974,0.583249,0.270449,51.413026,-0.015015,-0.001572,1.013718,-0.020781,0.000378,-0.007724,63.558838,21.63147,-150.518158,,,
729606400.551306,0.583249,0.270449,51.413026,-0.015015,-0.001572,1.013718,-0.020781,0.000378,-0.007724,63.558838,21.63147,-150.518158,,,
729606400.55464,0.585821,0.269204,51.412947,-0.015015,-0.001572,1.013718,-0.003403,0.009424,-0.002241,63.642792,21.847412,-150.12619,,,
729606400.557971,0.587622,0.271725,51.412905,-0.009506,0.002808,1.018387,-0.003403,0.009424,-0.002241,63.642792,21.847412,-150.12619,,,
729606400.561397,0.587622,0.271725,51.412905,-0.009506,0.002808,1.018387,-0.003403,0.009424,-0.002241,63.642792,21.847412,-150.12619,,,
729606400.564627,0.592793,0.272573,51.412515,-0.009506,0.002808,1.018387,0.014249,0.020838,-0.003685,63.642792,21.847412,-150.12619,,,
729606400.567971,0.596554,0.279462,51.4114,-0.000381,0.010681,1.011383,0.014249,0.020838,-0.003685,63.642792,21.847412,-150.12619,,,
729606400.57133,0.596554,0.279462,51.4114,-0.000381,0.010681,1.011383,0.014249,0.020838,-0.003685,63.642792,21.847412,-150.12619,,,
729606400.574709,0.601554,0.284603,51.409853,-0.000381,0.010681,1.011383,0.014722,0.034216,-0.006507,63.642792,21.847412,-150.12619,,,
729606400.577969,0.605386,0.293843,51.408317,-0.000336,0.014511,1.003693,0.014722,0.034216,-0.006507,63.642792,21.847412,-150.12619,,,
729606400.581308,0.605386,0.293843,51.408317,-0.000336,0.014511,1.003693,0.014722,0.034216,-0.006507,63.642792,21.847412,-150.12619,,,
729606400.584654,0.609212,0.300312,51.406756,-0.000336,0.014511,1.003693,0.010593,0.034106,-0.009135,63.642792,21.847412,-150.12619,,,
729606400.587995,0.611136,0.308456,51.405027,-0.006241,0.014099,0.992935,0.010593,0.034106,-0.009135,63.642792,21.847412,-150.12619,,,
729606400.591311,0.611136,0.308456,51.405027,-0.006241,0.014099,0.992935,0.010593,0.034106,-0.009135,63.642792,21.847412,-150.12619,,,
729606400.594636,0.611877,0.314679,51.40323,-0.006241,0.014099,0.992935,0.002146,0.028587,-0.006236,63.627533,21.622726,-150.392639,,,
729606400.597975,0.611981,0.322624,51.401741,-0.011444,0.013,0.991531,0.002146,0.028587,-0.006236,63.627533,21.622726,-150.392639,,,
729606400.601396,0.611981,0.322624,51.401741,-0.011444,0.013,0.991531,0.002146,0.028587,-0.006236,63.627533,21.622726,-150.392639,,,
729606400.604654,0.612375,0.329148,51.400942,-0.011444,0.013,0.991531,0.001545,0.02902,-0.004738,63.627533,21.622726,-150.392639,,,
729606400.607983,0.612719,0.334862,51.400698,-0.011963,0.010544,0.994431,0.001545,0.02902,-0.004738,63.627533,21.622726,-150.392639,,,
729606400.611323,0.612719,0.334862,51.400698,-0.011963,0.010544,0.994431,0.001545,0.02902,-0.004738,63.627533,21.622726,-150.392639,,,
729606400.614647,0.612521,0.339449,51.401279,-0.011963,0.010544,0.994431,0.000202,0.018681,-6.8e-05,63.627533,21.622726,-150.392639,,,
729606400.617984,0.612337,0.342667,51.402065,-0.011292,0.011856,0.99118,0.000202,0.018681,-6.8e-05,63.627533,21.622726,-150.392639,,,
