Time (sec),Pitch (deg),Roll (deg),Yaw(deg),X-Acceleration (g),Y-Acceleration (g),Z-Acceleration (g),Pitch Rate (deg/sec),Roll Rate (deg/sec),Yaw Rate (deg/sec),Magnetic Field in X direction (uT),Magnetic Field in Y direction (uT),Magnetic Field in Z Direction (uT),Latitude (deg),Longitude (deg),Altitude (m)
729606377.401475,0.61636,1.182135,49.92796,0.002151,-0.004089,1.012741,0.013373,0.030832,-0.017956,64.144821,21.156586,-150.368454,,,
729606377.404742,0.624865,1.198118,49.924684,0.002151,-0.004089,1.012741,0.031294,0.051353,-0.011767,64.144821,21.156586,-150.368454,,,
729606377.40817,0.624865,1.198118,49.924684,0.002151,-0.004089,1.012741,0.031294,0.051353,-0.011767,64.144821,21.156586,-150.368454,,,
729606377.411424,0.635307,1.214002,49.9226,-0.002045,0.000916,1.010193,0.031294,0.051353,-0.011767,64.144821,21.156586,-150.368454,,,
729606377.414892,0.645403,1.232164,49.921543,-0.002045,0.000916,1.010193,0.040364,0.056448,-0.005938,64.222855,21.238174,-150.671173,,,
729606377.418126,0.645403,1.232164,49.921543,-0.002045,0.000916,1.010193,0.040364,0.056448,-0.005938,64.222855,21.238174,-150.671173,,,
729606377.421403,0.655201,1.245227,49.921196,-0.008133,0.006592,0.995911,0.040364,0.056448,-0.005938,64.222855,21.238174,-150.671173,,,
729606377.424759,0.659871,1.257584,49.921698,-0.008133,0.006592,0.995911,0.026695,0.034517,0.004398,64.222855,21.238174,-150.671173,,,
729606377.428099,0.659871,1.257584,49.921698,-0.008133,0.006592,0.995911,0.026695,0.034517,0.004398,64.222855,21.238174,-150.671173,,,
729606377.431417,0.662383,1.263325,49.922198,-0.014999,0.014999,0.975891,0.026695,0.034517,0.004398,64.222855,21.238174,-150.671173,,,
729606377.434745,0.654956,1.26619,49.921522,-0.014999,0.014999,0.975891,-0.013533,0.010706,-0.0046,64.222855,21.238174,-150.671173,,,
729606377.43816,0.654956,1.26619,49.921522,-0.014999,0.014999,0.975891,-0.013533,0.010706,-0.0046,64.222855,21.238174,-150.671173,,,
729606377.441453,0.64426,1.263049,49.919277,-0.015198,0.021393,0.965225,-0.013533,0.010706,-0.0046,64.222855,21.238174,-150.671173,,,
729606377.444734,0.625861,1.252119,49.915492,-0.015198,0.021393,0.965225,-0.052965,-0.02661,-0.014704,64.222855,21.238174,-150.671173,,,
729606377.448083,0.625861,1.252119,49.915492,-0.015198,0.021393,0.965225,-0.052965,-0.02661,-0.014704,64.222855,21.238174,-150.671173,,,
729606377.451407,0.605192,1.238374,49.909721,-0.015915,0.027054,0.964615,-0.052965,-0.02661,-0.014704,64.222855,21.238174,-150.671173,,,
729606377.454737,0.577896,1.214388,49.902788,-0.015915,0.027054,0.964615,-0.086117,-0.058775,-0.028053,64.176788,21.526337,-150.471436,,,
729606377.458069,0.577896,1.214388,49.902788,-0.015915,0.027054,0.964615,-0.086117,-0.058775,-0.028053,64.176788,21.526337,-150.471436,,,
729606377.46141,0.551808,1.194117,49.895279,-0.018295,0.020752,0.978897,-0.086117,-0.058775,-0.028053,64.176788,21.526337,-150.471436,,,
729606377.464742,0.522495,1.164168,49.887988,-0.018295,0.020752,0.978897,-0.090794,-0.07253,-0.029747,64.176788,21.526337,-150.471436,,,
729606377.468073,0.522495,1.164168,49.887988,-0.018295,0.020752,0.978897,-0.090794,-0.07253,-0.029747,64.176788,21.526337,-150.471436,,,
729606377.471428,0.497908,1.141911,49.881733,-0.020462,0.009277,1.002609,-0.090794,-0.07253,-0.029747,64.176788,21.526337,-150.471436,,,
729606377.474787,0.472115,1.113886,49.87735,-0.020462,0.009277,1.002609,-0.077362,-0.068788,-0.019093,64.176788,21.526337,-150.471436,,,
729606377.478071,0.472115,1.113886,49.87735,-0.020462,0.009277,1.002609,-0.077362,-0.068788,-0.019093,64.176788,21.526337,-150.471436,,,
729606377.481428,0.452646,1.096073,49.87471,-0.018585,0.004044,1.018524,-0.077362,-0.068788,-0.019093,64.176788,21.526337,-150.471436,,,
729606377.484738,0.432771,1.074482,49.873409,-0.018585,0.004044,1.018524,-0.05955,-0.046354,-0.008111,64.176788,21.526337,-150.471436,,,
729606377.488164,0.432771,1.074482,49.873409,-0.018585,0.004044,1.018524,-0.05955,-0.046354,-0.008111,64.176788,21.526337,-150.471436,,,
729606377.491414,0.416813,1.064123,49.873859,-0.022766,0.005966,1.023361,-0.05955,-0.046354,-0.008111,64.176788,21.526337,-150.471436,,,
729606377.494813,0.400732,1.052643,49.8763,-0.022766,0.005966,1.023361,-0.05144,-0.017787,0.005381,64.071182,21.673553,-150.761719,,,
729606377.498071,0.400732,1.052643,49.8763,-0.022766,0.005966,1.023361,-0.05144,-0.017787,0.005381,64.071182,21.673553,-150.761719,,,
729606377.50149,0.38592,1.048769,49.87983,-0.021683,0.009705,1.017929,-0.05144,-0.017787,0.005381,64.071182,21.673553,-150.761719,,,
729606377.504737,0.371968,1.043556,49.883444,-0.021683,0.009705,1.017929,-0.052857,-0.006574,0.010225,64.071182,21.673553,-150.761719,,,
729606377.508131,0.371968,1.043556,49.883444,-0.021683,0.009705,1.017929,-0.052857,-0.006574,0.010225,64.071182,21.673553,-150.761719,,,
729606377.51142,0.35778,1.039668,49.886344,-0.019958,0.012238,1.008682,-0.052857,-0.006574,0.010225,64.071182,21.673553,-150.761719,,,
729606377.514746,0.346948,1.03304,49.888007,-0.019958,0.012238,1.008682,-0.044224,-0.015385,0.006967,64.071182,21.673553,-150.761719,,,
729606377.518084,0.346948,1.03304,49.888007,-0.019958,0.012238,1.008682,-0.044224,-0.015385,0.006967,64.071182,21.673553,-150.761719,,,
729606377.521419,0.334334,1.025082,49.888399,-0.022903,0.013138,1.003708,-0.044224,-0.015385,0.006967,64.071182,21.673553,-150.761719,,,
729606377.524744,0.326598,1.013768,49.887065,-0.022903,0.013138,1.003708,-0.042002,-0.035002,-0.006204,64.071182,21.673553,-150.761719,,,
729606377.528075,0.326598,1.013768,49.887065,-0.022903,0.013138,1.003708,-0.042002,-0.035002,-0.006204,64.071182,21.673553,-150.761719,,,
729606377.531431,0.314735,0.999441,49.884076,-0.027969,0.012192,1.000854,-0.042002,-0.035002,-0.006204,64.071182,21.673553,-150.761719,,,
729606377.53475,0.309434,0.981555,49.880225,-0.027969,0.012192,1.000854,-0.033939,-0.059372,-0.014556,64.071182,21.673553,-150.761719,,,
729606377.538075,0.309434,0.981555,49.880225,-0.027969,0.012192,1.000854,-0.033939,-0.059372,-0.014556,64.008804,21.524734,-150.235321,,,
729606377.541524,0.299433,0.962577,49.876137,-0.029587,0.011185,0.997681,-0.033939,-0.059372,-0.014556,64.008804,21.524734,-150.235321,,,
729606377.544728,0.291525,0.945128,49.872739,-0.029587,0.011185,0.997681,-0.035884,-0.059958,-0.013545,64.008804,21.524734,-150.235321,,,
729606377.548097,0.291525,0.945128,49.872739,-0.029587,0.011185,0.997681,-0.035884,-0.059958,-0.013545,64.008804,21.524734,-150.235321,,,
729606377.551437,0.280143,0.926953,49.869377,-0.026138,0.00853,1.001572,-0.035884,-0.059958,-0.013545,64.008804,21.524734,-150.235321,,,
729606377.554733,0.269617,0.911216,49.865491,-0.026138,0.00853,1.001572,-0.039012,-0.054797,-0.016652,64.008804,21.524734,-150.235321,,,
729606377.558103,0.269617,0.911216,49.865491,-0.026138,0.00853,1.001572,-0.039012,-0.054797,-0.016652,64.008804,21.524734,-150.235321,,,
729606377.561401,0.259657,0.895992,49.860703,-0.016602,0.009079,0.994904,-0.039012,-0.054797,-0.016652,64.008804,21.524734,-150.235321,,,
729606377.564737,0.250902,0.884399,49.854509,-0.016602,0.009079,0.994904,-0.030206,-0.040914,-0.022943,64.008804,21.524734,-150.235321,,,
729606377.567816,0.250902,0.884399,49.854509,-0.016602,0.009079,0.994904,-0.030206,-0.040914,-0.022943,64.008804,21.524734,-150.235321,,,
729606377.571452,0.243454,0.874117,49.8475,-0.01062,0.011307,1.001343,-0.030206,-0.040914,-0.022943,64.008804,21.524734,-150.235321,,,
729606377.574841,0.237595,0.868317,49.840332,-0.01062,0.011307,1.001343,-0.01934,-0.025302,-0.027805,64.008804,21.524734,-150.235321,,,
729606377.578064,0.237595,0.868317,49.840332,-0.01062,0.011307,1.001343,-0.01934,-0.025302,-0.027805,63.8246,21.770706,-150.594116,,,
729606377.581488,0.233965,0.861817,49.833786,-0.016998,0.007095,0.997498,-0.01934,-0.025302,-0.027805,63.8246,21.770706,-150.594116,,,
729606377.584737,0.236008,0.859473,49.828555,-0.016998,0.007095,0.997498,0.002094,-0.011461,-0.01989,63.8246,21.770706,-150.594116,,,
729606377.588088,0.236008,0.859473,49.828555,-0.016998,0.007095,0.997498,0.002094,-0.011461,-0.01989,63.8246,21.770706,-150.594116,,,
729606377.591421,0.239998,0.857515,49.825682,-0.024017,-0.001495,1.002365,0.002094,-0.011461,-0.01989,63.8246,21.770706,-150.594116,,,
729606377.594749,0.247447,0.858004,49.824607,-0.024017,-0.001495,1.002365,0.02079,-0.002116,-0.006516,63.8246,21.770706,-150.594116,,,
729606377.598088,0.247447,0.858004,49.824607,-0.024017,-0.001495,1.002365,0.02079,-0.002116,-0.006516,63.8246,21.770706,-150.594116,,,
729606377.601417,0.25273,0.85483,49.824778,-0.023499,-1.5e-05,0.988205,0.02079,-0.002116,-0.006516,63.8246,21.770706,-150.594116,,,
729606377.604744,0.25934,0.854335,49.825487,-0.023499,-1.5e-05,0.988205,0.013963,-0.012419,-0.002495,63.8246,21.770706,-150.594116,,,
729606377.608148,0.25934,0.854335,49.825487,-0.023499,-1.5e-05,0.988205,0.013963,-0.012419,-0.002495,63.8246,21.770706,-150.594116,,,
729606377.61143,0.262701,0.853524,49.825688,-0.020187,0.006836,0.971191,0.013963,-0.012419,-0.002495,63.8246,21.770706,-150.594116,,,
729606377.614738,0.268382,0.863318,49.825206,-0.020187,0.006836,0.971191,0.013495,0.021298,-0.002183,63.8246,21.770706,-150.594116,,,
729606377.618074,0.268382,0.863318,49.825206,-0.020187,0.006836,0.971191,0.013495,0.021298,-0.002183,63.88974,21.609955,-150.464188,,,
729606377.621441,0.272959,0.871393,49.824612,-0.019882,0.009933,0.998642,0.013495,0.021298,-0.002183,63.88974,21.609955,-150.464188,,,
729606377.624743,0.27867,0.881926,49.824474,-0.019882,0.009933,0.998642,0.013756,0.02404,-0.00227,63.88974,21.609955,-150.464188,,,
729606377.62807,0.27867,0.881926,49.824474,-0.019882,0.009933,0.998642,0.013756,0.02404,-0.00227,63.88974,21.609955,-150.464188,,,
729606377.631419,0.282106,0.882417,49.824327,-0.020813,0.011307,0.977554,0.013756,0.02404,-0.00227,63.88974,21.609955,-150.464188,,,
729606377.634737,0.283936,0.881712,49.823534,-0.020813,0.011307,0.977554,0.005655,-0.009053,-0.004667,63.88974,21.609955,-150.464188,,,
729606377.638107,0.283936,0.881712,49.823534,-0.020813,0.011307,0.977554,0.005655,-0.009053,-0.004667,63.88974,21.609955,-150.464188,,,
729606377.641477,0.282002,0.87659,49.820801,-0.019745,0.013809,0.960983,0.005655,-0.009053,-0.004667,63.88974,21.609955,-150.464188,,,
729606377.644733,0.278457,0.869908,49.81603,-0.019745,0.013809,0.960983,-0.014047,-0.016541,-0.018052,63.88974,21.609955,-150.464188,,,
729606377.648176,0.278457,0.869908,49.81603,-0.019745,0.013809,0.960983,-0.014047,-0.016541,-0.018052,63.88974,21.609955,-150.464188,,,
729606377.651425,0.271178,0.860925,49.810653,-0.014618,0.01828,0.967361,-0.014047,-0.016541,-0.018052,63.88974,21.609955,-150.464188,,,
729606377.654746,0.262566,0.845581,49.805436,-0.014618,0.01828,0.967361,-0.032363,-0.043592,-0.01946,63.88974,21.609955,-150.464188,,,
729606377.658127,0.262566,0.845581,49.805436,-0.014618,0.01828,0.967361,-0.032363,-0.043592,-0.01946,63.88974,21.609955,-150.464188,,,
729606377.661411,0.25047,0.828397,49.80075,-0.015823,0.013367,0.96077,-0.032363,-0.043592,-0.01946,63.739502,21.691971,-150.564178,,,
729606377.664743,0.237318,0.812735,49.796617,-0.015823,0.013367,0.96077,-0.042599,-0.058525,-0.016731,63.739502,21.691971,-150.564178,,,
729606377.668083,0.237318,0.812735,49.796617,-0.015823,0.013367,0.96077,-0.042599,-0.058525,-0.016731,63.739502,21.691971,-150.564178,,,
729606377.671476,0.224397,0.797546,49.792644,-0.014526,0.009537,0.975357,-0.042599,-0.058525,-0.016731,63.739502,21.691971,-150.564178,,,
729606377.674783,0.211245,0.788322,49.788494,-0.014526,0.009537,0.975357,-0.042294,-0.036993,-0.016903,63.739502,21.691971,-150.564178,,,
729606377.678072,0.211245,0.788322,49.788494,-0.014526,0.009537,0.975357,-0.042294,-0.036993,-0.016903,63.739502,21.691971,-150.564178,,,
729606377.681426,0.201888,0.778658,49.78423,-0.004532,0.005432,0.993683,-0.042294,-0.036993,-0.016903,63.739502,21.691971,-150.564178,,,
729606377.684743,0.195289,0.774414,49.780755,-0.004532,0.005432,0.993683,-0.021874,-0.018936,-0.013589,63.739502,21.691971,-150.564178,,,
729606377.687949,0.195289,0.774414,49.780755,-0.004532,0.005432,0.993683,-0.021874,-0.018936,-0.013589,63.739502,21.691971,-150.564178,,,
729606377.691447,0.191949,0.771033,49.778754,-0.006546,0.000732,1.003632,-0.021874,-0.018936,-0.013589,63.739502,21.691971,-150.564178,,,
729606377.694756,0.193,0.773001,49.778425,-0.006546,0.000732,1.003632,7.6e-05,0.005233,-0.004519,63.739502,21.691971,-150.564178,,,
729606377.698138,0.193,0.773001,49.778425,-0.006546,0.000732,1.003632,7.6e-05,0.005233,-0.004519,63.739502,21.691971,-150.564178,,,
729606377.701419,0.194809,0.776099,49.779806,-0.013306,-0.001602,1.009796,7.6e-05,0.005233,-0.004519,63.889877,21.767929,-150.356781,,,
729606377.704744,0.19906,0.783254,49.782599,-0.013306,-0.001602,1.009796,0.008481,0.024787,0.006989,63.889877,21.767929,-150.356781,,,
729606377.708135,0.19906,0.783254,49.782599,-0.013306,-0.001602,1.009796,0.008481,0.024787,0.006989,63.889877,21.767929,-150.356781,,,
729606377.711482,0.202176,0.790032,49.785692,-0.011368,0.004761,1.006744,0.008481,0.024787,0.006989,63.889877,21.767929,-150.356781,,,
729606377.714732,0.20672,0.800418,49.788133,-0.011368,0.004761,1.006744,0.011294,0.032095,0.006632,63.889877,21.767929,-150.356781,,,
729606377.718088,0.20672,0.800418,49.788133,-0.011368,0.004761,1.006744,0.011294,0.032095,0.006632,63.889877,21.767929,-150.356781,,,
729606377.721418,0.20909,0.808467,49.789735,-0.008575,0.012512,0.99881,0.011294,0.032095,0.006632,63.889877,21.767929,-150.356781,,,
729606377.724741,0.213726,0.816609,49.790057,-0.008575,0.012512,0.99881,0.006121,0.028221,0.000132,63.889877,21.767929,-150.356781,,,
729606377.72807,0.213726,0.816609,49.790057,-0.008575,0.012512,0.99881,0.006121,0.028221,0.000132,63.889877,21.767929,-150.356781,,,
729606377.731429,0.214681,0.821476,49.789406,-0.011398,0.01532,0.997467,0.006121,0.028221,0.000132,63.889877,21.767929,-150.356781,,,
729606377.734732,0.21769,0.823055,49.788005,-0.011398,0.01532,0.997467,0.000753,0.009464,-0.006453,63.889877,21.767929,-150.356781,,,
729606377.738134,0.21769,0.823055,49.788005,-0.011398,0.01532,0.997467,0.000753,0.009464,-0.006453,63.889877,21.767929,-150.356781,,,
729606377.741447,0.217286,0.821695,49.786092,-0.018982,0.00946,0.993301,0.000753,0.009464,-0.006453,64.021973,21.522125,-150.837082,,,
729606377.744734,0.2183,0.819967,49.784479,-0.018982,0.00946,0.993301,-0.000693,-0.00611,-0.008308,64.021973,21.522125,-150.837082,,,
729606377.748097,0.2183,0.819967,49.784479,-0.018982,0.00946,0.993301,-0.000693,-0.00611,-0.008308,64.021973,21.522125,-150.837082,,,
729606377.751482,0.217012,0.816273,49.783597,-0.024902,0.007614,0.999054,-0.000693,-0.00611,-0.008308,64.021973,21.522125,-150.837082,,,
729606377.754729,0.21675,0.809786,49.783545,-0.024902,0.007614,0.999054,-0.002481,-0.015838,-0.003109,64.021973,21.522125,-150.837082,,,
729606377.758076,0.21675,0.809786,49.783545,-0.024902,0.007614,0.999054,-0.002481,-0.015838,-0.003109,64.021973,21.522125,-150.837082,,,
729606377.761402,0.216336,0.80345,49.78496,-0.024048,0.006302,1.004669,-0.002481,-0.015838,-0.003109,64.021973,21.522125,-150.837082,,,
729606377.764738,0.216957,0.793371,49.788176,-0.024048,0.006302,1.004669,0.003495,-0.020628,0.009852,64.021973,21.522125,-150.837082,,,
729606377.768075,0.216957,0.793371,49.788176,-0.024048,0.006302,1.004669,0.003495,-0.020628,0.009852,64.021973,21.522125,-150.837082,,,
729606377.771426,0.218999,0.786504,49.793067,-0.024872,0.005112,1.009232,0.003495,-0.020628,0.009852,64.021973,21.522125,-150.837082,,,
729606377.774741,0.222033,0.778795,49.799311,-0.024872,0.005112,1.009232,0.016853,-0.016097,0.019809,64.021973,21.522125,-150.837082,,,
729606377.778069,0.222033,0.778795,49.799311,-0.024872,0.005112,1.009232,0.016853,-0.016097,0.019809,64.021973,21.522125,-150.837082,,,
729606377.781418,0.22975,0.77405,49.806785,-0.020554,0.002945,1.016129,0.016853,-0.016097,0.019809,63.897095,21.580719,-150.655121,,,
729606377.784743,0.240423,0.770851,49.815297,-0.020554,0.002945,1.016129,0.038911,-0.006178,0.028533,63.897095,21.580719,-150.655121,,,
729606377.788069,0.240423,0.770851,49.815297,-0.020554,0.002945,1.016129,0.038911,-0.006178,0.028533,63.897095,21.580719,-150.655121,,,
729606377.791504,0.254797,0.770525,49.824674,-0.01712,-0.000259,1.025528,0.038911,-0.006178,0.028533,63.897095,21.580719,-150.655121,,,
729606377.794795,0.271877,0.771338,49.834961,-0.01712,-0.000259,1.025528,0.056541,0.011355,0.034795,63.897095,21.580719,-150.655121,,,
729606377.798095,0.271877,0.771338,49.834961,-0.01712,-0.000259,1.025528,0.056541,0.011355,0.034795,63.897095,21.580719,-150.655121,,,
729606377.801429,0.289122,0.776339,49.846046,-0.012863,0.005081,1.020523,0.056541,0.011355,0.034795,63.897095,21.580719,-150.655121,,,
729606377.804738,0.308539,0.782731,49.857715,-0.012863,0.005081,1.020523,0.05641,0.031511,0.038544,63.897095,21.580719,-150.655121,,,
729606377.808101,0.308539,0.782731,49.857715,-0.012863,0.005081,1.020523,0.05641,0.031511,0.038544,63.897095,21.580719,-150.655121,,,
729606377.811404,0.325535,0.7924,49.869961,-0.009552,0.011703,1.0121,0.05641,0.031511,0.038544,63.897095,21.580719,-150.655121,,,
729606377.81474,0.343708,0.801332,49.882462,-0.009552,0.011703,1.0121,0.056128,0.036835,0.042791,63.897095,21.580719,-150.655121,,,
729606377.818159,0.343708,0.801332,49.882462,-0.009552,0.011703,1.0121,0.056128,0.036835,0.042791,63.897095,21.580719,-150.655121,,,
729606377.821423,0.35818,0.807861,49.894283,-0.009888,0.016098,1.001892,0.056128,0.036835,0.042791,63.897095,21.580719,-150.655121,,,
729606377.824743,0.370995,0.813632,49.905306,-0.009888,0.016098,1.001892,0.044634,0.01135,0.039247,63.835312,21.506989,-150.404938,,,
729606377.828082,0.370995,0.813632,49.905306,-0.009888,0.016098,1.001892,0.044634,0.01135,0.039247,63.835312,21.506989,-150.404938,,,
729606377.831498,0.381603,0.811852,49.915399,-0.013748,0.016769,0.988922,0.044634,0.01135,0.039247,63.835312,21.506989,-150.404938,,,
729606377.83473,0.389919,0.808349,49.923594,-0.013748,0.016769,0.988922,0.030146,-0.02136,0.025738,63.835312,21.506989,-150.404938,,,
729606377.838085,0.389919,0.808349,49.923594,-0.013748,0.016769,0.988922,0.030146,-0.02136,0.025738,63.835312,21.506989,-150.404938,,,
729606377.841416,0.395787,0.79657,49.929538,-0.014084,0.016541,0.9888,0.030146,-0.02136,0.025738,63.835312,21.506989,-150.404938,,,
729606377.844745,0.400366,0.784893,49.93373,-0.014084,0.016541,0.9888,0.014837,-0.052214,0.011396,63.835312,21.506989,-150.404938,,,
729606377.848084,0.400366,0.784893,49.93373,-0.014084,0.016541,0.9888,0.014837,-0.052214,0.011396,63.835312,21.506989,-150.404938,,,
729606377.851421,0.404817,0.767148,49.936534,-0.0121,0.013367,0.99118,0.014837,-0.052214,0.011396,63.835312,21.506989,-150.404938,,,
729606377.854736,0.408885,0.751831,49.938233,-0.0121,0.013367,0.99118,0.016905,-0.062039,0.003484,63.835312,21.506989,-150.404938,,,
729606377.858178,0.408885,0.751831,49.938233,-0.0121,0.013367,0.99118,0.016905,-0.062039,0.003484,63.835312,21.506989,-150.404938,,,
729606377.861389,0.413779,0.73346,49.940064,-0.012573,0.002365,1.003418,0.016905,-0.062039,0.003484,63.835312,21.506989,-150.404938,,,
729606377.864739,0.418808,0.718755,49.943652,-0.012573,0.002365,1.003418,0.023901,-0.056163,0.012205,63.875931,21.60202,-150.685852,,,
729606377.868076,0.418808,0.718755,49.943652,-0.012573,0.002365,1.003418,0.023901,-0.056163,0.012205,63.875931,21.60202,-150.685852,,,
729606377.871404,0.428687,0.705037,49.949931,-0.016434,-0.008545,1.013947,0.023901,-0.056163,0.012205,63.875931,21.60202,-150.685852,,,
729606377.874738,0.440556,0.69706,49.958206,-0.016434,-0.008545,1.013947,0.045679,-0.028785,0.025747,63.875931,21.60202,-150.685852,,,
729606377.878076,0.440556,0.69706,49.958206,-0.016434,-0.008545,1.013947,0.045679,-0.028785,0.025747,63.875931,21.60202,-150.685852,,,
729606377.88141,0.458077,0.693009,49.967582,-0.013428,-0.012451,1.027237,0.045679,-0.028785,0.025747,63.875931,21.60202,-150.685852,,,
729606377.884733,0.479011,0.693718,49.977499,-0.013428,-0.012451,1.027237,0.073426,0.006559,0.032395,63.875931,21.60202,-150.685852,,,
729606377.888081,0.479011,0.693718,49.977499,-0.013428,-0.012451,1.027237,0.073426,0.006559,0.032395,63.875931,21.60202,-150.685852,,,
729606377.891429,0.502948,0.699143,49.987428,-0.009399,-0.007492,1.027481,0.073426,0.006559,0.032395,63.875931,21.60202,-150.685852,,,
729606377.894735,0.530887,0.707856,49.996757,-0.009399,-0.007492,1.027481,0.095788,0.037541,0.031662,63.875931,21.60202,-150.685852,,,
729606377.89808,0.530887,0.707856,49.996757,-0.009399,-0.007492,1.027481,0.095788,0.037541,0.031662,63.875931,21.60202,-150.685852,,,
729606377.901423,0.559567,0.721315,50.005377,-0.010025,-0.000839,1.016403,0.095788,0.037541,0.031662,63.875931,21.60202,-150.685852,,,
729606377.904744,0.59007,0.735849,50.013861,-0.010025,-0.000839,1.016403,0.101355,0.055613,0.030214,63.845688,21.232056,-150.377731,,,
729606377.908132,0.59007,0.735849,50.013861,-0.010025,-0.000839,1.016403,0.101355,0.055613,0.030214,63.845688,21.232056,-150.377731,,,
729606377.911395,0.618293,0.749982,50.022445,-0.014252,0.005066,0.99855,0.101355,0.055613,0.030214,63.845688,21.232056,-150.377731,,,
729606377.914735,0.646641,0.762462,50.031089,-0.014252,0.005066,0.99855,0.095344,0.04418,0.030612,63.845688,21.232056,-150.377731,,,
729606377.918094,0.646641,0.762462,50.031089,-0.014252,0.005066,0.99855,0.095344,0.04418,0.030612,63.845688,21.232056,-150.377731,,,
729606377.921468,0.67154,0.770525,50.039709,-0.019958,0.008072,0.98175,0.095344,0.04418,0.030612,63.845688,21.232056,-150.377731,,,
729606377.924729,0.694866,0.773843,50.047705,-0.019958,0.008072,0.98175,0.077435,0.014499,0.030107,63.845688,21.232056,-150.377731,,,
729606377.928071,0.694866,0.773843,50.047705,-0.019958,0.008072,0.98175,0.077435,0.014499,0.030107,63.845688,21.232056,-150.377731,,,
729606377.931419,0.713674,0.772645,50.054918,-0.02298,0.013977,0.967514,0.077435,0.014499,0.030107,63.845688,21.232056,-150.377731,,,
729606377.934734,0.727926,0.76624,50.061543,-0.02298,0.013977,0.967514,0.051547,-0.016603,0.020024,63.845688,21.232056,-150.377731,,,
729606377.93809,0.727926,0.76624,50.061543,-0.02298,0.013977,0.967514,0.051547,-0.016603,0.020024,63.845688,21.232056,-150.377731,,,
729606377.941408,0.739239,0.756874,50.066848,-0.018845,0.019775,0.962204,0.051547,-0.016603,0.020024,63.845688,21.232056,-150.377731,,,
729606377.944743,0.743917,0.745835,50.070856,-0.018845,0.019775,0.962204,0.026969,-0.038217,0.01292,64.045715,21.196884,-150.262238,,,
729606377.948068,0.743917,0.745835,50.070856,-0.018845,0.019775,0.962204,0.026969,-0.038217,0.01292,64.045715,21.196884,-150.262238,,,
729606377.951418,0.74912,0.733331,50.074248,-0.015091,0.020218,0.966385,0.026969,-0.038217,0.01292,64.045715,21.196884,-150.262238,,,
729606377.954735,0.745776,0.722168,50.077531,-0.015091,0.020218,0.966385,0.00608,-0.040147,0.009959,64.045715,21.196884,-150.262238,,,
729606377.958168,0.745776,0.722168,50.077531,-0.015091,0.020218,0.966385,0.00608,-0.040147,0.009959,64.045715,21.196884,-150.262238,,,
729606377.96139,0.7461,0.709773,50.081472,-0.012543,0.014984,0.975571,0.00608,-0.040147,0.009959,64.045715,21.196884,-150.262238,,,
729606377.964739,0.739762,0.697127,50.087001,-0.012543,0.014984,0.975571,-0.002055,-0.039208,0.017145,64.045715,21.196884,-150.262238,,,
729606377.968087,0.739762,0.697127,50.087001,-0.012543,0.014984,0.975571,-0.002055,-0.039208,0.017145,64.045715,21.196884,-150.262238,,,
729606377.971221,0.739118,0.685205,50.094752,-0.014542,0.005737,0.984055,-0.002055,-0.039208,0.017145,64.045715,21.196884,-150.262238,,,
729606377.974767,0.734808,0.673607,50.104334,-0.014542,0.005737,0.984055,0.002009,-0.033283,0.031056,64.045715,21.196884,-150.262238,,,
729606377.978062,0.734808,0.673607,50.104334,-0.014542,0.005737,0.984055,0.002009,-0.033283,0.031056,64.045715,21.196884,-150.262238,,,
729606377.981399,0.736536,0.665589,50.114337,-0.013214,0.002625,0.998932,0.002009,-0.033283,0.031056,64.045715,21.196884,-150.262238,,,
729606377.984735,0.737175,0.659628,50.123656,-0.013214,0.002625,0.998932,0.011921,-0.013295,0.032309,64.045715,21.196884,-150.262238,,,
729606377.988078,0.737175,0.659628,50.123656,-0.013214,0.002625,0.998932,0.011921,-0.013295,0.032309,63.518417,21.238754,-150.507538,,,
729606377.991413,0.741137,0.656492,50.131721,-0.003815,0.008835,1.003983,0.011921,-0.013295,0.032309,63.518417,21.238754,-150.507538,,,
729606377.994733,0.742926,0.657965,50.138287,-0.003815,0.008835,1.003983,0.013638,0.001701,0.020462,63.518417,21.238754,-150.507538,,,
729606377.99816,0.742926,0.657965,50.138287,-0.003815,0.008835,1.003983,0.013638,0.001701,0.020462,63.518417,21.238754,-150.507538,,,
729606378.001428,0.746268,0.659348,50.144727,-0.001434,0.012466,1.000183,0.013638,0.001701,0.020462,63.518417,21.238754,-150.507538,,,
729606378.004748,0.748763,0.665784,50.151748,-0.001434,0.012466,1.000183,0.010396,0.014779,0.023824,63.518417,21.238754,-150.507538,,,
729606378.008092,0.748763,0.665784,50.151748,-0.001434,0.012466,1.000183,0.010396,0.014779,0.023824,63.518417,21.238754,-150.507538,,,
729606378.011414,0.751651,0.669259,50.158941,-0.006119,0.011856,0.995605,0.010396,0.014779,0.023824,63.518417,21.238754,-150.507538,,,
729606378.014746,0.755837,0.674869,50.166719,-0.006119,0.011856,0.995605,0.01235,0.00961,0.025205,63.518417,21.238754,-150.507538,,,
729606378.018085,0.755837,0.674869,50.166719,-0.006119,0.011856,0.995605,0.01235,0.00961,0.025205,63.518417,21.238754,-150.507538,,,
729606378.021481,0.758759,0.674423,50.175216,-0.007523,0.010864,0.99115,0.01235,0.00961,0.025205,63.518417,21.238754,-150.507538,,,
729606378.024727,0.758759,0.674423,50.184093,-0.007523,0.010864,0.99115,0.008235,-0.009906,0.030385,63.518417,21.238754,-150.507538,,,
729606378.02807,0.763128,0.673441,50.184093,-0.007523,0.010864,0.99115,0.008235,-0.009906,0.030385,63.671692,21.407364,-150.24649,,,
729606378.031397,0.764407,0.66793,50.193319,-0.005386,0.016556,0.988327,0.008235,-0.009906,0.030385,63.671692,21.407364,-150.24649,,,
729606378.034736,0.765568,0.661508,50.202638,-0.005386,0.016556,0.988327,-0.000456,-0.0229,0.031676,63.671692,21.407364,-150.24649,,,
729606378.038066,0.765568,0.661508,50.202638,-0.005386,0.016556,0.988327,-0.000456,-0.0229,0.031676,63.671692,21.407364,-150.24649,,,
729606378.041401,0.763623,0.653203,50.212516,-0.007019,0.021683,0.988892,-0.000456,-0.0229,0.031676,63.671692,21.407364,-150.24649,,,
729606378.044737,0.763623,0.653203,50.212516,-0.007019,0.021683,0.988892,-0.015519,-0.027879,0.037085,63.671692,21.407364,-150.24649,,,
729606378.048161,0.758779,0.644378,50.223461,-0.007019,0.021683,0.988892,-0.015519,-0.027879,0.037085,63.671692,21.407364,-150.24649,,,
729606378.05143,0.751801,0.634245,50.235546,-0.00618,0.024109,0.990036,-0.015519,-0.027879,0.037085,63.671692,21.407364,-150.24649,,,
729606378.054737,0.751801,0.625294,50.248607,-0.00618,0.024109,0.990036,-0.027434,-0.029421,0.041564,63.671692,21.407364,-150.24649,,,
729606378.058084,0.741707,0.625294,50.248607,-0.00618,0.024109,0.990036,-0.027434,-0.029421,0.041564,63.671692,21.407364,-150.24649,,,
729606378.061413,0.733,0.614477,50.262612,-0.002151,0.025909,0.997147,-0.027434,-0.029421,0.041564,63.671692,21.407364,-150.24649,,,
729606378.064739,0.733,0.614477,50.262612,-0.002151,0.025909,0.997147,-0.035934,-0.04155,0.049042,63.671692,21.407364,-150.24649,,,
729606378.068082,0.721018,0.601372,50.277401,-0.002151,0.025909,0.997147,-0.035934,-0.04155,0.049042,63.567596,21.506271,-150.5233,,,
729606378.071415,0.708481,0.586335,50.292556,-0.00032,0.024017,1.000717,-0.035934,-0.04155,0.049042,63.567596,21.506271,-150.5233,,,
729606378.074739,0.708481,0.586335,50.292556,-0.00032,0.024017,1.000717,-0.048195,-0.05618,0.051737,63.567596,21.506271,-150.5233,,,
729606378.078083,0.693965,0.567241,50.307586,-0.00032,0.024017,1.000717,-0.048195,-0.05618,0.051737,63.567596,21.506271,-150.5233,,,
729606378.081409,0.678294,0.548788,50.321955,0.003433,0.022598,1.005661,-0.048195,-0.05618,0.051737,63.567596,21.506271,-150.5233,,,
729606378.084737,0.678294,0.548788,50.321955,0.003433,0.022598,1.005661,-0.058793,-0.063642,0.041328,63.567596,21.506271,-150.5233,,,
729606378.088157,0.661462,0.526697,50.33439,0.003433,0.022598,1.005661,-0.058793,-0.063642,0.041328,63.567596,21.506271,-150.5233,,,
729606378.091428,0.644174,0.504938,50.344114,0.009338,0.023346,1.011047,-0.058793,-0.063642,0.041328,63.567596,21.506271,-150.5233,,,
729606378.094825,0.644174,0.480457,50.351561,0.009338,0.023346,1.011047,-0.057065,-0.080972,0.023784,63.567596,21.506271,-150.5233,,,
729606378.098093,0.627327,0.480457,50.351561,0.009338,0.023346,1.011047,-0.057065,-0.080972,0.023784,63.567596,21.506271,-150.5233,,,
729606378.101497,0.611196,0.453933,50.356996,0.009933,0.017426,1.013367,-0.057065,-0.080972,0.023784,63.567596,21.506271,-150.5233,,,
729606378.104778,0.611196,0.453933,50.356996,0.009933,0.017426,1.013367,-0.05185,-0.094817,0.012474,63.567596,21.506271,-150.5233,,,
729606378.10807,0.596652,0.425009,50.360852,0.009933,0.017426,1.013367,-0.05185,-0.094817,0.012474,63.357635,21.564514,-150.19931,,,
729606378.111492,0.583529,0.39592,50.362767,0.00853,0.008774,1.017838,-0.05185,-0.094817,0.012474,63.357635,21.564514,-150.19931,,,
729606378.114753,0.583529,0.39592,50.362767,0.00853,0.008774,1.017838,-0.035967,-0.099967,0.000195,63.357635,21.564514,-150.19931,,,
729606378.118086,0.575379,0.366766,50.362977,0.00853,0.008774,1.017838,-0.035967,-0.099967,0.000195,63.357635,21.564514,-150.19931,,,
729606378.121415,0.568916,0.339552,50.362771,0.008682,0.003357,1.028351,-0.035967,-0.099967,0.000195,63.357635,21.564514,-150.19931,,,
729606378.124795,0.568916,0.339552,50.362771,0.008682,0.003357,1.028351,-0.010821,-0.084973,-0.002413,63.357635,21.564514,-150.19931,,,
729606378.128172,0.569326,0.316036,50.362531,0.008682,0.003357,1.028351,-0.010821,-0.084973,-0.002413,63.357635,21.564514,-150.19931,,,
729606378.131455,0.569448,0.295037,50.363055,0.000214,-0.003067,1.036728,-0.010821,-0.084973,-0.002413,63.357635,21.564514,-150.19931,,,
729606378.134802,0.569448,0.295037,50.363055,0.000214,-0.003067,1.036728,-0.010821,-0.084973,-0.002413,63.357635,21.564514,-150.19931,,,
729606378.138158,0.57542,0.278047,50.365138,0.000214,-0.003067,1.036728,0.010552,-0.059116,0.003823,63.357635,21.564514,-150.19931,,,
729606378.141432,0.579974,0.2657,50.368728,-0.010208,-0.008255,1.033371,0.010552,-0.059116,0.003823,63.357635,21.564514,-150.19931,,,
729606378.14483,0.579974,0.2657,50.368728,-0.010208,-0.008255,1.033371,0.026202,-0.023256,0.017439,63.357635,21.564514,-150.19931,,,
729606378.148092,0.590763,0.256876,50.3741,-0.010208,-0.008255,1.033371,0.026202,-0.023256,0.017439,63.357635,21.564514,-150.19931,,,
729606378.151411,0.600614,0.252508,50.380579,-0.015335,-0.009033,1.032684,0.026202,-0.023256,0.017439,63.365646,21.604095,-150.283936,,,
729606378.154754,0.600614,0.252508,50.380579,-0.015335,-0.009033,1.032684,0.026202,-0.023256,0.017439,63.365646,21.604095,-150.283936,,,
729606378.15814,0.616036,0.247664,50.387361,-0.015335,-0.009033,1.032684,0.042918,-0.005777,0.022846,63.365646,21.604095,-150.283936,,,
729606378.161399,0.630174,0.244232,50.393094,-0.012344,-0.004257,1.020996,0.042918,-0.005777,0.022846,63.365646,21.604095,-150.283936,,,
729606378.164787,0.630174,0.244232,50.393094,-0.012344,-0.004257,1.020996,0.042918,-0.005777,0.022846,63.365646,21.604095,-150.283936,,,
729606378.168089,0.647748,0.236566,50.396626,-0.012344,-0.004257,1.020996,0.053676,-0.00999,0.011174,63.365646,21.604095,-150.283936,,,
729606378.171403,0.662363,0.231206,50.39726,-0.006622,0.004715,1.005157,0.053676,-0.00999,0.011174,63.365646,21.604095,-150.283936,,,
729606378.174767,0.662363,0.231206,50.39726,-0.006622,0.004715,1.005157,0.053676,-0.00999,0.011174,63.365646,21.604095,-150.283936,,,
729606378.178069,0.678929,0.21859,50.394941,-0.006622,0.004715,1.005157,0.052809,-0.02352,-0.008218,63.365646,21.604095,-150.283936,,,
729606378.181407,0.692611,0.208608,50.390433,-0.005188,0.007797,0.990707,0.052809,-0.02352,-0.008218,63.365646,21.604095,-150.283936,,,
729606378.184833,0.692611,0.208608,50.390433,-0.005188,0.007797,0.990707,0.052809,-0.02352,-0.008218,63.365646,21.604095,-150.283936,,,
729606378.188138,0.706145,0.192086,50.384562,-0.005188,0.007797,0.990707,0.04623,-0.039308,-0.02266,63.365646,21.604095,-150.283936,,,
729606378.191455,0.718183,0.177252,50.377975,-0.004608,0.007645,0.981735,0.04623,-0.039308,-0.02266,63.435059,21.216766,-150.541611,,,
729606378.194769,0.718183,0.177252,50.377975,-0.004608,0.007645,0.981735,0.04623,-0.039308,-0.02266,63.435059,21.216766,-150.541611,,,
729606378.198077,0.72754,0.156336,50.370995,-0.004608,0.007645,0.981735,0.039885,-0.053688,-0.025709,63.435059,21.216766,-150.541611,,,
729606378.2014,0.737798,0.138619,50.363604,-0.001129,0.008759,0.976105,0.039885,-0.053688,-0.025709,63.435059,21.216766,-150.541611,,,
729606378.204748,0.737798,0.138619,50.363604,-0.001129,0.008759,0.976105,0.039885,-0.053688,-0.025709,63.435059,21.216766,-150.541611,,,
729606378.208081,0.743925,0.118552,50.355995,-0.001129,0.008759,0.976105,0.031641,-0.055352,-0.026842,63.435059,21.216766,-150.541611,,,
729606378.211409,0.751149,0.104618,50.348075,0.005096,0.01091,0.976898,0.031641,-0.055352,-0.026842,63.435059,21.216766,-150.541611,,,
729606378.214823,0.751149,0.104618,50.348075,0.005096,0.01091,0.976898,0.031641,-0.055352,-0.026842,63.435059,21.216766,-150.541611,,,
729606378.218081,0.7537,0.095271,50.340226,0.005096,0.01091,0.976898,0.026019,-0.031648,-0.025896,63.435059,21.216766,-150.541611,,,
729606378.221406,0.76041,0.088878,50.333097,0.012054,0.009109,0.981537,0.026019,-0.031648,-0.025896,63.435059,21.216766,-150.541611,,,
729606378.224844,0.76041,0.088878,50.333097,0.012054,0.009109,0.981537,0.026019,-0.031648,-0.025896,63.435059,21.216766,-150.541611,,,
729606378.228145,0.761523,0.089245,50.326899,0.012054,0.009109,0.981537,0.021599,-0.010222,-0.02423,63.435059,21.216766,-150.541611,,,
729606378.231394,0.767855,0.088533,50.321157,0.015274,0.009277,0.979095,0.021599,-0.010222,-0.02423,63.083099,21.381989,-150.44986,,,
729606378.234783,0.767855,0.088533,50.321157,0.015274,0.009277,0.979095,0.021599,-0.010222,-0.02423,63.083099,21.381989,-150.44986,,,
729606378.238063,0.770406,0.095578,50.315093,0.015274,0.009277,0.979095,0.026259,0.011318,-0.020057,63.083099,21.381989,-150.44986,,,
729606378.241403,0.777912,0.101664,50.308655,0.014038,0.011276,0.983246,0.026259,0.011318,-0.020057,63.083099,21.381989,-150.44986,,,
729606378.24477,0.777912,0.101664,50.308655,0.014038,0.011276,0.983246,0.026259,0.011318,-0.020057,63.083099,21.381989,-150.44986,,,
729606378.248075,0.781949,0.111681,50.301758,0.014038,0.011276,0.983246,0.021533,0.030733,-0.026116,63.083099,21.381989,-150.44986,,,
729606378.251399,0.786803,0.119491,50.294446,0.008591,0.016159,0.975922,0.021533,0.030733,-0.026116,63.083099,21.381989,-150.44986,,,
729606378.254865,0.786803,0.119491,50.294446,0.008591,0.016159,0.975922,0.021533,0.030733,-0.026116,63.083099,21.381989,-150.44986,,,
729606378.258108,0.788382,0.126932,50.287286,0.008591,0.016159,0.975922,0.01055,0.025243,-0.025434,63.083099,21.381989,-150.44986,,,
729606378.261408,0.789498,0.131295,50.280888,-0.004013,0.014435,0.966721,0.01055,0.025243,-0.025434,63.083099,21.381989,-150.44986,,,
729606378.264758,0.789498,0.131295,50.280888,-0.004013,0.014435,0.966721,0.01055,0.025243,-0.025434,63.083099,21.381989,-150.44986,,,
729606378.268132,0.787446,0.133813,50.27484,-0.004013,0.014435,0.966721,-0.001149,0.009917,-0.024172,63.083099,21.381989,-150.44986,,,
729606378.27144,0.783903,0.132572,50.269195,-0.010254,0.012711,0.967148,-0.001149,0.009917,-0.024172,63.083099,21.381989,-150.44986,,,
729606378.274754,0.783903,0.132572,50.269195,-0.010254,0.012711,0.967148,-0.001149,0.009917,-0.024172,63.172546,21.198273,-150.289062,,,
729606378.278068,0.776397,0.127928,50.263672,-0.010254,0.012711,0.967148,-0.023287,-0.014606,-0.018776,63.172546,21.198273,-150.289062,,,
729606378.281409,0.76664,0.119626,50.257948,-0.009933,0.016205,0.962296,-0.023287,-0.014606,-0.018776,63.172546,21.198273,-150.289062,,,
729606378.284744,0.76664,0.119626,50.257948,-0.009933,0.016205,0.962296,-0.023287,-0.014606,-0.018776,63.172546,21.198273,-150.289062,,,
729606378.288069,0.75351,0.108459,50.251945,-0.009933,0.016205,0.962296,-0.042228,-0.035258,-0.023008,63.172546,21.198273,-150.289062,,,
729606378.29145,0.738261,0.09736,50.244745,-0.003326,0.018982,0.965179,-0.042228,-0.035258,-0.023008,63.172546,21.198273,-150.289062,,,
729606378.294734,0.738261,0.09736,50.244745,-0.003326,0.018982,0.965179,-0.042228,-0.035258,-0.023008,63.172546,21.198273,-150.289062,,,
729606378.298096,0.720973,0.083677,50.237346,-0.003326,0.018982,0.965179,-0.058845,-0.036842,-0.027045,63.172546,21.198273,-150.289062,,,
729606378.301405,0.702259,0.072527,50.230206,0.00029,0.019272,0.975571,-0.058845,-0.036842,-0.027045,63.172546,21.198273,-150.289062,,,
729606378.304816,0.702259,0.072527,50.230206,0.00029,0.019272,0.975571,-0.058845,-0.036842,-0.027045,63.172546,21.198273,-150.289062,,,
729606378.308078,0.682402,0.059542,50.223651,0.00029,0.019272,0.975571,-0.068615,-0.030999,-0.025658,63.172546,21.198273,-150.289062,,,
729606378.311407,0.663396,0.050833,50.219489,-0.005417,0.012146,0.986984,-0.068615,-0.030999,-0.025658,63.172546,21.198273,-150.289062,,,
729606378.314738,0.663396,0.050833,50.219489,-0.005417,0.012146,0.986984,-0.068615,-0.030999,-0.025658,63.171936,21.305893,-150.594345,,,
729606378.318137,0.644444,0.041594,50.217849,-0.005417,0.012146,0.986984,-0.064682,-0.019999,-0.007997,63.171936,21.305893,-150.594345,,,
729606378.321401,0.626774,0.036967,50.218125,-0.009674,0.006577,0.998428,-0.064682,-0.019999,-0.007997,63.171936,21.305893,-150.594345,,,
729606378.324793,0.626774,0.036967,50.218125,-0.009674,0.006577,0.998428,-0.064682,-0.019999,-0.007997,63.171936,21.305893,-150.594345,,,
729606378.32808,0.611325,0.032719,50.220206,-0.009674,0.006577,0.998428,-0.055275,-0.006418,0.004762,63.171936,21.305893,-150.594345,,,
729606378.331405,0.598752,0.0346,50.22305,-0.005676,0.006058,1.00972,-0.055275,-0.006418,0.004762,63.171936,21.305893,-150.594345,,,
729606378.334746,0.598752,0.0346,50.22305,-0.005676,0.006058,1.00972,-0.055275,-0.006418,0.004762,63.171936,21.305893,-150.594345,,,
729606378.33809,0.591352,0.039383,50.226117,-0.005676,0.006058,1.00972,-0.027002,0.026757,0.008358,63.171936,21.305893,-150.594345,,,
729606378.341485,0.586742,0.047409,50.229472,-0.001999,0.008133,1.024048,-0.027002,0.026757,0.008358,63.171936,21.305893,-150.594345,,,
729606378.344754,0.586742,0.047409,50.229472,-0.001999,0.008133,1.024048,-0.027002,0.026757,0.008358,63.171936,21.305893,-150.594345,,,
729606378.348098,0.583924,0.058163,50.232829,-0.001999,0.008133,1.024048,-0.010522,0.037443,0.01002,63.171936,21.305893,-150.594345,,,
729606378.351411,0.58056,0.068199,50.235874,-0.000702,0.013062,1.010284,-0.010522,0.037443,0.01002,63.171936,21.305893,-150.594345,,,
729606378.354742,0.58056,0.068199,50.235874,-0.000702,0.013062,1.010284,-0.010522,0.037443,0.01002,63.554276,21.142899,-150.744522,,,
729606378.358154,0.577064,0.079815,50.238968,-0.000702,0.013062,1.010284,-0.012381,0.036493,0.007709,63.554276,21.142899,-150.744522,,,
729606378.361409,0.571437,0.088047,50.241775,-0.009766,0.017578,1.000931,-0.012381,0.036493,0.007709,63.554276,21.142899,-150.744522,,,
729606378.364741,0.571437,0.088047,50.241775,-0.009766,0.017578,1.000931,-0.012381,0.036493,0.007709,63.554276,21.142899,-150.744522,,,
729606378.36813,0.564798,0.095118,50.244033,-0.009766,0.017578,1.000931,-0.026592,0.022116,0.007222,63.554276,21.142899,-150.744522,,,
729606378.371407,0.554323,0.095682,50.24628,-0.014511,0.018875,0.990433,-0.026592,0.022116,0.007222,63.554276,21.142899,-150.744522,,,
729606378.374739,0.554323,0.095682,50.24628,-0.014511,0.018875,0.990433,-0.026592,0.022116,0.007222,63.554276,21.142899,-150.744522,,,
729606378.37808,0.543767,0.090361,50.24853,-0.014511,0.018875,0.990433,-0.043805,-0.015642,0.005097,63.554276,21.142899,-150.744522,,,
729606378.381409,0.530553,0.080024,50.250841,-0.017059,0.016434,0.987701,-0.043805,-0.015642,0.005097,63.554276,21.142899,-150.744522,,,
729606378.384739,0.530553,0.080024,50.250841,-0.017059,0.016434,0.987701,-0.043805,-0.015642,0.005097,63.554276,21.142899,-150.744522,,,
729606378.388074,0.519622,0.065555,50.253312,-0.017059,0.016434,0.987701,-0.043904,-0.045955,0.007897,63.554276,21.142899,-150.744522,,,
729606378.391457,0.507695,0.047659,50.256494,-0.018127,0.01355,0.998108,-0.043904,-0.045955,0.007897,63.554276,21.142899,-150.744522,,,
729606378.394829,0.507695,0.047659,50.256494,-0.018127,0.01355,0.998108,-0.043904,-0.045955,0.007897,63.266541,21.318253,-150.274292,,,
729606378.398071,0.496574,0.02934,50.259836,-0.018127,0.01355,0.998108,-0.039869,-0.066021,0.010588,63.266541,21.318253,-150.274292,,,
729606378.401408,0.487102,0.00952,50.263461,-0.011124,0.009033,1.009369,-0.039869,-0.066021,0.010588,63.266541,21.318253,-150.274292,,,
729606378.40478,0.487102,0.00952,50.263461,-0.011124,0.009033,1.009369,-0.039869,-0.066021,0.010588,63.266541,21.318253,-150.274292,,,
729606378.408064,0.479023,-0.005083,50.267851,-0.011124,0.009033,1.009369,-0.027341,-0.05735,0.014818,63.266541,21.318253,-150.274292,,,
729606378.411405,0.47359,-0.018958,50.273008,-0.000885,0.007996,1.022568,-0.027341,-0.05735,0.014818,63.266541,21.318253,-150.274292,,,
729606378.41473,0.47359,-0.018958,50.273008,-0.000885,0.007996,1.022568,-0.027341,-0.05735,0.014818,63.266541,21.318253,-150.274292,,,
729606378.41816,0.470503,-0.02662,50.279015,-0.000885,0.007996,1.022568,-0.009224,-0.031591,0.018406,63.266541,21.318253,-150.274292,,,
729606378.421402,0.471353,-0.03132,50.285751,0.010239,0.005432,1.027023,-0.009224,-0.031591,0.018406,63.266541,21.318253,-150.274292,,,
729606378.424791,0.471353,-0.03132,50.285751,0.010239,0.005432,1.027023,-0.009224,-0.031591,0.018406,63.266541,21.318253,-150.274292,,,
729606378.428067,0.475492,-0.030898,50.293181,0.010239,0.005432,1.027023,0.015124,0.002156,0.023772,63.266541,21.318253,-150.274292,,,
729606378.431407,0.481609,-0.026526,50.301326,0.011292,0.003281,1.026978,0.015124,0.002156,0.023772,63.266541,21.318253,-150.274292,,,
729606378.434733,0.481609,-0.026526,50.301326,0.011292,0.003281,1.026978,0.015124,0.002156,0.023772,63.266541,21.318253,-150.274292,,,
729606378.438091,0.490873,-0.017401,50.310182,0.011292,0.003281,1.026978,0.031662,0.031635,0.028879,63.182922,21.402145,-150.174469,,,
729606378.441402,0.499852,-0.007881,50.319117,0.007034,0.00592,1.018738,0.031662,0.031635,0.028879,63.182922,21.402145,-150.174469,,,
729606378.444736,0.499852,-0.007881,50.319117,0.007034,0.00592,1.018738,0.031662,0.031635,0.028879,63.182922,21.402145,-150.174469,,,
729606378.448099,0.512169,0.007041,50.327864,0.007034,0.00592,1.018738,0.035635,0.042655,0.028748,63.182922,21.402145,-150.174469,,,
729606378.451461,0.523252,0.016734,50.336577,0.003021,0.009827,1.010468,0.035635,0.042655,0.028748,63.182922,21.402145,-150.174469,,,
729606378.454846,0.523252,0.016734,50.336577,0.003021,0.009827,1.010468,0.035635,0.042655,0.028748,63.182922,21.402145,-150.174469,,,
729606378.458153,0.538223,0.028926,50.34452,0.003021,0.009827,1.010468,0.044862,0.028169,0.024183,63.182922,21.402145,-150.174469,,,
729606378.461401,0.552168,0.032303,50.351076,0.001236,0.01358,1.001877,0.044862,0.028169,0.024183,63.182922,21.402145,-150.174469,,,
729606378.464759,0.552168,0.032303,50.351076,0.001236,0.01358,1.001877,0.044862,0.028169,0.024183,63.182922,21.402145,-150.174469,,,
729606378.468154,0.567973,0.038597,50.355424,0.001236,0.01358,1.001877,0.051084,1.9e-05,0.012691,63.182922,21.402145,-150.174469,,,
729606378.471405,0.581417,0.03515,50.357763,0.002777,0.0177,0.995987,0.051084,1.9e-05,0.012691,63.182922,21.402145,-150.174469,,,
729606378.47475,0.581417,0.03515,50.357763,0.002777,0.0177,0.995987,0.051084,1.9e-05,0.012691,63.182922,21.402145,-150.174469,,,
729606378.478076,0.593341,0.035781,50.358542,0.002777,0.0177,0.995987,0.043133,-0.015376,0.001453,63.275406,21.239761,-150.452942,,,
729606378.481402,0.603129,0.030608,50.358244,0.005066,0.017868,0.99028,0.043133,-0.015376,0.001453,63.275406,21.239761,-150.452942,,,
729606378.484747,0.603129,0.030608,50.358244,0.005066,0.017868,0.99028,0.043133,-0.015376,0.001453,63.275406,21.239761,-150.452942,,,
729606378.488091,0.610666,0.028034,50.357073,0.005066,0.017868,0.99028,0.028721,-0.01534,-0.006637,63.275406,21.239761,-150.452942,,,
729606378.491454,0.617027,0.022674,50.355896,0.0056,0.016418,0.987045,0.028721,-0.01534,-0.006637,63.275406,21.239761,-150.452942,,,
729606378.494733,0.617027,0.022674,50.355896,0.0056,0.016418,0.987045,0.028721,-0.01534,-0.006637,63.275406,21.239761,-150.452942,,,
729606378.498101,0.620662,0.015783,50.35538,0.0056,0.016418,0.987045,0.01728,-0.014644,-0.004288,63.275406,21.239761,-150.452942,,,
729606378.501404,0.624492,0.010123,50.356058,0.002014,0.013916,0.98558,0.01728,-0.014644,-0.004288,63.275406,21.239761,-150.452942,,,
729606378.504815,0.624492,0.010123,50.356058,0.002014,0.013916,0.98558,0.01728,-0.014644,-0.004288,63.275406,21.239761,-150.452942,,,
729606378.508079,0.627305,-0.000633,50.358271,0.002014,0.013916,0.98558,0.016443,-0.019223,0.002489,63.275406,21.239761,-150.452942,,,
729606378.511411,0.633547,-0.00779,50.361163,-0.001083,0.004242,0.990082,0.016443,-0.019223,0.002489,63.275406,21.239761,-150.452942,,,
729606378.514748,0.633547,-0.00779,50.361163,-0.001083,0.004242,0.990082,0.016443,-0.019223,0.002489,63.275406,21.239761,-150.452942,,,
729606378.518067,0.640766,-0.018047,50.364859,-0.001083,0.004242,0.990082,0.031762,-0.01989,0.012374,63.252014,21.202667,-150.153625,,,
729606378.521397,0.652728,-0.024616,50.368471,0.003067,0.00296,1.00119,0.031762,-0.01989,0.012374,63.252014,21.202667,-150.153625,,,
729606378.524799,0.652728,-0.024616,50.368471,0.003067,0.00296,1.00119,0.031762,-0.01989,0.012374,63.252014,21.202667,-150.153625,,,
729606378.528123,0.665843,-0.032193,50.371377,0.003067,0.00296,1.00119,0.051042,-0.016896,0.008842,63.252014,21.202667,-150.153625,,,
729606378.531405,0.680925,-0.03704,50.37407,0.006622,0.007523,1.002319,0.051042,-0.016896,0.008842,63.252014,21.202667,-150.153625,,,
729606378.534749,0.680925,-0.03704,50.37407,0.006622,0.007523,1.002319,0.051042,-0.016896,0.008842,63.252014,21.202667,-150.153625,,,
729606378.538066,0.695341,-0.039728,50.376327,0.006622,0.007523,1.002319,0.051446,-0.004289,0.004941,63.252014,21.202667,-150.153625,,,
729606378.541399,0.708758,-0.037852,50.378428,0.000778,0.011261,0.997574,0.051446,-0.004289,0.004941,63.252014,21.202667,-150.153625,,,
729606378.544733,0.708758,-0.037852,50.378428,0.000778,0.011261,0.997574,0.051446,-0.004289,0.004941,63.252014,21.202667,-150.153625,,,
729606378.548084,0.721605,-0.033711,50.380923,0.000778,0.011261,0.997574,0.042743,0.019094,0.006859,63.252014,21.202667,-150.153625,,,
729606378.5514,0.73196,-0.028267,50.383604,-0.000809,0.013763,0.995621,0.042743,0.019094,0.006859,63.252014,21.202667,-150.153625,,,
729606378.554794,0.73196,-0.028267,50.383604,-0.000809,0.013763,0.995621,0.042743,0.019094,0.006859,63.252014,21.202667,-150.153625,,,
729606378.558115,0.742504,-0.023019,50.386308,-0.000809,0.013763,0.995621,0.032019,0.02378,0.006857,62.983734,21.180862,-150.459396,,,
729606378.561397,0.750465,-0.01751,50.388766,0.00354,0.01506,0.989609,0.032019,0.02378,0.006857,62.983734,21.180862,-150.459396,,,
729606378.564784,0.750465,-0.01751,50.388766,0.00354,0.01506,0.989609,0.032019,0.02378,0.006857,62.983734,21.180862,-150.459396,,,
729606378.568188,0.758977,-0.015692,50.39076,0.00354,0.01506,0.989609,0.030264,0.01424,0.004614,62.983734,21.180862,-150.459396,,,
729606378.571417,0.766546,-0.013878,50.392155,-0.001251,0.015701,0.988373,0.030264,0.01424,0.004614,62.983734,21.180862,-150.459396,,,
729606378.574761,0.766546,-0.013878,50.392155,-0.001251,0.015701,0.988373,0.030264,0.01424,0.004614,62.983734,21.180862,-150.459396,,,
729606378.578072,0.774824,-0.015806,50.39266,-0.001251,0.015701,0.988373,0.024677,0.002816,0.000174,62.983734,21.180862,-150.459396,,,
729606378.581405,0.78222,-0.017913,50.392654,-0.005508,0.015442,0.986847,0.024677,0.002816,0.000174,62.983734,21.180862,-150.459396,,,
729606378.584755,0.78222,-0.017913,50.392654,-0.005508,0.015442,0.986847,0.024677,0.002816,0.000174,62.983734,21.180862,-150.459396,,,
729606378.588068,0.788778,-0.02144,50.392948,-0.005508,0.015442,0.986847,0.023913,-0.009488,-0.002669,62.983734,21.180862,-150.459396,,,
729606378.591507,0.796048,-0.025555,50.393763,-0.006866,0.01297,0.990067,0.023913,-0.009488,-0.002669,62.983734,21.180862,-150.459396,,,
729606378.59476,0.796048,-0.025555,50.393763,-0.006866,0.01297,0.990067,0.023913,-0.009488,-0.002669,62.983734,21.180862,-150.459396,,,
729606378.598087,0.80058,-0.029998,50.394803,-0.006866,0.01297,0.990067,0.028837,-0.015423,0.00071,62.983734,21.180862,-150.459396,,,
729606378.601401,0.808885,-0.034412,50.395885,-0.005814,0.009552,0.991821,0.028837,-0.015423,0.00071,63.21228,21.032516,-150.299408,,,
729606378.604804,0.808885,-0.034412,50.395885,-0.005814,0.009552,0.991821,0.028837,-0.015423,0.00071,63.21228,21.032516,-150.299408,,,
729606378.608073,0.815041,-0.039259,50.397144,-0.005814,0.009552,0.991821,0.029324,-0.007098,0.004564,63.21228,21.032516,-150.299408,,,
729606378.611404,0.822733,-0.040965,50.398951,-0.009811,0.009598,0.994095,0.029324,-0.007098,0.004564,63.21228,21.032516,-150.299408,,,
729606378.614742,0.822733,-0.040965,50.398951,-0.009811,0.009598,0.994095,0.029324,-0.007098,0.004564,63.21228,21.032516,-150.299408,,,
729606378.618132,0.828489,-0.042386,50.402063,-0.009811,0.009598,0.994095,0.024431,0.00104,0.008922,63.21228,21.032516,-150.299408,,,
729606378.621389,0.834342,-0.040317,50.405771,-0.007233,0.011414,0.991364,0.024431,0.00104,0.008922,63.21228,21.032516,-150.299408,,,
729606378.624785,0.834342,-0.040317,50.405771,-0.007233,0.011414,0.991364,0.024431,0.00104,0.008922,63.21228,21.032516,-150.299408,,,
729606378.628081,0.838871,-0.035551,50.40954,-0.007233,0.011414,0.991364,0.016742,0.019968,0.0104,63.21228,21.032516,-150.299408,,,
729606378.631406,0.842896,-0.030291,50.413384,0.001694,0.014648,0.994263,0.016742,0.019968,0.0104,63.21228,21.032516,-150.299408,,,
729606378.634747,0.842896,-0.030291,50.413384,0.001694,0.014648,0.994263,0.016742,0.019968,0.0104,63.21228,21.032516,-150.299408,,,
729606378.638097,0.845082,-0.024998,50.416644,0.001694,0.014648,0.994263,0.010617,0.02404,0.009736,63.21228,21.032516,-150.299408,,,
729606378.641393,0.845571,-0.018751,50.419693,0.005447,0.016785,0.990234,0.010617,0.02404,0.009736,63.208466,21.047974,-150.328339,,,
729606378.644733,0.845571,-0.018751,50.419693,0.005447,0.016785,0.990234,0.010617,0.02404,0.009736,63.208466,21.047974,-150.328339,,,
729606378.648094,0.845397,-0.012812,50.422294,0.005447,0.016785,0.990234,-0.002415,0.028243,0.006523,63.208466,21.047974,-150.328339,,,
729606378.651398,0.844261,-0.006706,50.424835,0.000137,0.016281,0.990555,-0.002415,0.028243,0.006523,63.208466,21.047974,-150.328339,,,
729606378.654787,0.844261,-0.006706,50.424835,0.000137,0.016281,0.990555,-0.002415,0.028243,0.006523,63.208466,21.047974,-150.328339,,,
729606378.658115,0.842108,-0.001315,50.427989,0.000137,0.016281,0.990555,-0.005578,0.018879,0.008538,63.208466,21.047974,-150.328339,,,
729606378.661397,0.838559,0.000527,50.431702,-0.00293,0.009644,0.989746,-0.005578,0.018879,0.008538,63.208466,21.047974,-150.328339,,,
729606378.664743,0.838559,0.000527,50.431702,-0.00293,0.009644,0.989746,-0.005578,0.018879,0.008538,63.208466,21.047974,-150.328339,,,
729606378.668142,0.833733,0.002806,50.435857,-0.00293,0.009644,0.989746,-0.014382,0.003482,0.010029,63.208466,21.047974,-150.328339,,,
729606378.671393,0.827568,0.001479,50.439321,0.002502,0.008957,0.986649,-0.014382,0.003482,0.010029,63.208466,21.047974,-150.328339,,,
729606378.67476,0.827568,0.001479,50.439321,0.002502,0.008957,0.986649,-0.014382,0.003482,0.010029,63.208466,21.047974,-150.328339,,,
729606378.678064,0.819385,0.000561,50.442328,0.002502,0.008957,0.986649,-0.028202,-0.007642,0.008646,63.208466,21.047974,-150.328339,,,
729606378.681401,0.810741,-0.003622,50.445448,0.003174,0.01001,0.991104,-0.028202,-0.007642,0.008646,62.942749,21.177948,-150.29834,,,
729606378.684743,0.810741,-0.003622,50.445448,0.003174,0.01001,0.991104,-0.028202,-0.007642,0.008646,62.942749,21.177948,-150.29834,,,
729606378.688197,0.800159,-0.005196,50.448273,0.003174,0.01001,0.991104,-0.034332,-0.011875,0.007947,62.942749,21.177948,-150.29834,,,
729606378.69144,0.789376,-0.009099,50.451417,-0.001526,0.008148,0.994492,-0.034332,-0.011875,0.007947,62.942749,21.177948,-150.29834,,,
729606378.6948,0.789376,-0.009099,50.451417,-0.001526,0.008148,0.994492,-0.034332,-0.011875,0.007947,62.942749,21.177948,-150.29834,,,
729606378.698086,0.776185,-0.010207,50.455379,-0.001526,0.008148,0.994492,-0.04147,-0.013881,0.012439,62.942749,21.177948,-150.29834,,,
729606378.701409,0.762713,-0.016361,50.460253,-0.005676,0.006531,0.997543,-0.04147,-0.013881,0.012439,62.942749,21.177948,-150.29834,,,
729606378.704754,0.762713,-0.016361,50.460253,-0.005676,0.006531,0.997543,-0.04147,-0.013881,0.012439,62.942749,21.177948,-150.29834,,,
729606378.708147,0.749186,-0.021346,50.465662,-0.005676,0.006531,0.997543,-0.047802,-0.017447,0.018405,62.942749,21.177948,-150.29834,,,
729606378.711397,0.736955,-0.026701,50.471703,-0.006424,0.000992,1.003113,-0.047802,-0.017447,0.018405,62.942749,21.177948,-150.29834,,,
729606378.714763,0.736955,-0.026701,50.471703,-0.006424,0.000992,1.003113,-0.047802,-0.017447,0.018405,62.942749,21.177948,-150.29834,,,
729606378.718091,0.726986,-0.03153,50.478756,-0.006424,0.000992,1.003113,-0.038788,-0.006265,0.0217,62.942749,21.177948,-150.29834,,,
729606378.721434,0.718603,-0.033819,50.486132,-0.002502,0.000961,1.014053,-0.038788,-0.006265,0.0217,62.978119,21.242783,-150.375458,,,
729606378.724806,0.718603,-0.033819,50.486132,-0.002502,0.000961,1.014053,-0.038788,-0.006265,0.0217,62.978119,21.242783,-150.375458,,,
729606378.728101,0.713233,-0.036619,50.493227,-0.002502,0.000961,1.014053,-0.021979,-0.005008,0.02505,62.978119,21.242783,-150.375458,,,
729606378.731396,0.707424,-0.03745,50.500152,0.001617,0.00116,1.007645,-0.021979,-0.005008,0.02505,62.978119,21.242783,-150.375458,,,
729606378.734819,0.707424,-0.03745,50.500152,0.001617,0.00116,1.007645,-0.021979,-0.005008,0.02505,62.978119,21.242783,-150.375458,,,
729606378.738083,0.70178,-0.035588,50.506825,0.001617,0.00116,1.007645,-0.02002,0.008291,0.023326,62.978119,21.242783,-150.375458,,,
729606378.741402,0.69532,-0.032517,50.51354,0.007675,0.001373,1.003372,-0.02002,0.008291,0.023326,62.978119,21.242783,-150.375458,,,
729606378.744744,0.69532,-0.032517,50.51354,0.007675,0.001373,1.003372,-0.02002,0.008291,0.023326,62.978119,21.242783,-150.375458,,,
729606378.748094,0.687282,-0.027421,50.520492,0.007675,0.001373,1.003372,-0.022587,0.018013,0.024494,62.978119,21.242783,-150.375458,,,
729606378.751404,0.680236,-0.0226,50.527316,0.008759,0.003906,0.994934,-0.022587,0.018013,0.024494,62.978119,21.242783,-150.375458,,,
729606378.754743,0.680236,-0.0226,50.527316,0.008759,0.003906,0.994934,-0.022587,0.018013,0.024494,62.978119,21.242783,-150.375458,,,
729606378.758161,0.672979,-0.018615,50.534294,0.008759,0.003906,0.994934,-0.024591,0.022083,0.022414,62.978119,21.242783,-150.375458,,,
729606378.761403,0.665708,-0.012906,50.541511,0.006271,0.006485,0.990143,-0.024591,0.022083,0.022414,62.978119,21.242783,-150.375458,,,
729606378.764761,0.665708,-0.012906,50.541511,0.006271,0.006485,0.990143,-0.024591,0.022083,0.022414,63.178391,21.173828,-150.249695,,,
729606378.768087,0.657772,-0.008221,50.548341,0.006271,0.006485,0.990143,-0.026015,0.022048,0.023046,63.178391,21.173828,-150.249695,,,
729606378.771405,0.649945,-0.003753,50.554455,0.006821,0.008957,0.988083,-0.026015,0.022048,0.023046,63.178391,21.173828,-150.249695,,,
729606378.77479,0.649945,-0.003753,50.554455,0.006821,0.008957,0.988083,-0.026015,0.022048,0.023046,63.178391,21.173828,-150.249695,,,
729606378.778113,0.639966,0.000411,50.559581,0.006821,0.008957,0.988083,-0.030637,0.013556,0.016572,63.178391,21.173828,-150.249695,,,
729606378.781486,0.628985,0.001414,50.563275,0.012283,0.013641,0.980194,-0.030637,0.013556,0.016572,63.178391,21.173828,-150.249695,,,
729606378.784816,0.628985,0.001414,50.563275,0.012283,0.013641,0.980194,-0.030637,0.013556,0.016572,63.178391,21.173828,-150.249695,,,
729606378.788078,0.615529,0.002242,50.565105,0.012283,0.013641,0.980194,-0.043327,-0.001933,0.003697,63.178391,21.173828,-150.249695,,,
729606378.791499,0.603261,-0.001384,50.565037,0.011383,0.016251,0.978607,-0.043327,-0.001933,0.003697,63.178391,21.173828,-150.249695,,,
729606378.794772,0.603261,-0.001384,50.565037,0.011383,0.016251,0.978607,-0.043327,-0.001933,0.003697,63.178391,21.173828,-150.249695,,,
729606378.798071,0.588781,-0.004593,50.563522,0.011383,0.016251,0.978607,-0.043408,-0.017017,-0.008311,63.178391,21.173828,-150.249695,,,
729606378.801441,0.577333,-0.010343,50.561056,0.009094,0.01326,0.989258,-0.043408,-0.017017,-0.008311,63.178391,21.173828,-150.249695,,,
729606378.804744,0.577333,-0.010343,50.561056,0.009094,0.01326,0.989258,-0.043408,-0.017017,-0.008311,63.146957,21.204376,-150.266998,,,
729606378.808075,0.564867,-0.015882,50.558824,0.009094,0.01326,0.989258,-0.034002,-0.017382,-0.010226,63.146957,21.204376,-150.266998,,,
729606378.81144,0.556098,-0.021622,50.557062,0.00621,0.007782,0.993439,-0.034002,-0.017382,-0.010226,63.146957,21.204376,-150.266998,,,
729606378.814753,0.556098,-0.021622,50.557062,0.00621,0.007782,0.993439,-0.034002,-0.017382,-0.010226,63.146957,21.204376,-150.266998,,,
729606378.818097,0.546252,-0.027338,50.555307,0.00621,0.007782,0.993439,-0.02612,-0.013938,-0.007663,63.146957,21.204376,-150.266998,,,
729606378.821478,0.539677,-0.029083,50.55382,0.009018,0.005722,0.995026,-0.02612,-0.013938,-0.007663,63.146957,21.204376,-150.266998,,,
729606378.824806,0.539677,-0.029083,50.55382,0.009018,0.005722,0.995026,-0.02612,-0.013938,-0.007663,63.146957,21.204376,-150.266998,,,
729606378.828095,0.532492,-0.030139,50.552159,0.009018,0.005722,0.995026,-0.016965,0.008068,-0.007889,63.146957,21.204376,-150.266998,,,
729606378.831399,0.528415,-0.025129,50.549637,0.016525,0.00946,0.996353,-0.016965,0.008068,-0.007889,63.146957,21.204376,-150.266998,,,
729606378.834749,0.528415,-0.025129,50.549637,0.016525,0.00946,0.996353,-0.016965,0.008068,-0.007889,63.146957,21.204376,-150.266998,,,
729606378.83813,0.523889,-0.020798,50.546366,0.016525,0.00946,0.996353,-0.009769,0.026935,-0.013393,63.146957,21.204376,-150.266998,,,
729606378.841435,0.521158,-0.011668,50.542092,0.013855,0.008652,0.992233,-0.009769,0.026935,-0.013393,63.146957,21.204376,-150.266998,,,
729606378.844771,0.521158,-0.011668,50.542092,0.013855,0.008652,0.992233,-0.009769,0.026935,-0.013393,63.094193,21.467453,-150.368652,,,
729606378.848093,0.517966,-0.002196,50.536678,0.013855,0.008652,0.992233,-0.010077,0.039296,-0.018063,63.094193,21.467453,-150.368652,,,
729606378.851403,0.514625,0.011068,50.530133,0.009384,0.012039,0.989334,-0.010077,0.039296,-0.018063,63.094193,21.467453,-150.368652,,,
729606378.854754,0.514625,0.011068,50.530133,0.009384,0.012039,0.989334,-0.010077,0.039296,-0.018063,63.094193,21.467453,-150.368652,,,
729606378.858121,0.511535,0.021812,50.522175,0.009384,0.012039,0.989334,-0.011004,0.051626,-0.030571,63.094193,21.467453,-150.368652,,,
729606378.861466,0.507506,0.035897,50.513074,0.010483,0.018158,0.987823,-0.011004,0.051626,-0.030571,63.094193,21.467453,-150.368652,,,
729606378.864809,0.507506,0.035897,50.513074,0.010483,0.018158,0.987823,-0.011004,0.051626,-0.030571,63.094193,21.467453,-150.368652,,,
729606378.868074,0.504648,0.045747,50.503387,0.010483,0.018158,0.987823,-0.015774,0.05057,-0.034461,63.094193,21.467453,-150.368652,,,
