Time (sec),Pitch (deg),Roll (deg),Yaw(deg),X-Acceleration (g),Y-Acceleration (g),Z-Acceleration (g),Pitch Rate (deg/sec),Roll Rate (deg/sec),Yaw Rate (deg/sec),Magnetic Field in X direction (uT),Magnetic Field in Y direction (uT),Magnetic Field in Z Direction (uT),Latitude (deg),Longitude (deg),Altitude (m)
729608372.363662,1.377259,0.933662,53.763724,-0.049515,0.016327,1.005188,0.024269,0.00962,0.025836,64.702225,21.329788,-148.345337,,,
729608372.366904,1.384153,0.935711,53.77161,-0.049515,0.016327,1.005188,0.024269,0.00962,0.025836,64.702225,21.329788,-148.345337,,,
729608372.37038,1.384153,0.935711,53.77161,-0.049515,0.016327,1.005188,0.024269,0.00962,0.025836,64.702225,21.329788,-148.345337,,,
729608372.373664,1.395465,0.934014,53.780202,-0.037323,0.019897,1.001205,0.023892,0.008521,0.031282,64.702225,21.329788,-148.345337,,,
729608372.377071,1.4013,0.935598,53.789449,-0.037323,0.019897,1.001205,0.023892,0.008521,0.031282,64.428253,21.510361,-148.364639,,,
729608372.380378,1.4013,0.935598,53.789449,-0.037323,0.019897,1.001205,0.023892,0.008521,0.031282,64.428253,21.510361,-148.364639,,,
729608372.383651,1.412059,0.936656,53.798887,-0.034637,0.023926,0.998291,0.017227,0.022311,0.030913,64.428253,21.510361,-148.364639,,,
729608372.387005,1.416147,0.941931,53.808173,-0.034637,0.023926,0.998291,0.017227,0.022311,0.030913,64.428253,21.510361,-148.364639,,,
729608372.390325,1.416147,0.941931,53.808173,-0.034637,0.023926,0.998291,0.017227,0.022311,0.030913,64.428253,21.510361,-148.364639,,,
729608372.393651,1.425939,0.947786,53.818204,-0.030685,0.024826,1.00116,0.00939,0.022383,0.038168,64.428253,21.510361,-148.364639,,,
729608372.396983,1.428655,0.953469,53.829785,-0.030685,0.024826,1.00116,0.00939,0.022383,0.038168,64.428253,21.510361,-148.364639,,,
729608372.400319,1.428655,0.953469,53.829785,-0.030685,0.024826,1.00116,0.00939,0.022383,0.038168,64.428253,21.510361,-148.364639,,,
729608372.403683,1.43647,0.959289,53.842862,-0.028656,0.018951,0.997452,0.001962,0.026618,0.048163,64.428253,21.510361,-148.364639,,,
729608372.40698,1.436653,0.965281,53.856431,-0.028656,0.018951,0.997452,0.001962,0.026618,0.048163,64.428253,21.510361,-148.364639,,,
729608372.410332,1.436653,0.965281,53.856431,-0.028656,0.018951,0.997452,0.001962,0.026618,0.048163,64.428253,21.510361,-148.364639,,,
729608372.413671,1.438352,0.973389,53.869687,-0.025543,0.017792,0.995865,-0.012875,0.019159,0.042916,64.428253,21.510361,-148.364639,,,
729608372.417116,1.434656,0.977491,53.882708,-0.025543,0.017792,0.995865,-0.012875,0.019159,0.042916,64.428253,21.510361,-148.364639,,,
729608372.420363,1.434656,0.977491,53.882708,-0.025543,0.017792,0.995865,-0.012875,0.019159,0.042916,64.798264,21.638321,-148.318176,,,
729608372.423675,1.429924,0.988341,53.895136,-0.020798,0.021042,0.993851,-0.024022,0.012694,0.040705,64.798264,21.638321,-148.318176,,,
729608372.426976,1.423286,0.990932,53.90755,-0.020798,0.021042,0.993851,-0.024022,0.012694,0.040705,64.798264,21.638321,-148.318176,,,
729608372.430411,1.423286,0.990932,53.90755,-0.020798,0.021042,0.993851,-0.024022,0.012694,0.040705,64.798264,21.638321,-148.318176,,,
729608372.433665,1.415988,1.004039,53.91954,-0.021973,0.021347,1.001205,-0.022637,0.009566,0.03946,64.798264,21.638321,-148.318176,,,
729608372.436981,1.409969,1.004644,53.931356,-0.021973,0.021347,1.001205,-0.022637,0.009566,0.03946,64.798264,21.638321,-148.318176,,,
729608372.440318,1.409969,1.004644,53.931356,-0.021973,0.021347,1.001205,-0.022637,0.009566,0.03946,64.798264,21.638321,-148.318176,,,
729608372.443643,1.402237,1.013899,53.942818,-0.021286,0.012314,1.003433,-0.018714,-0.000956,0.039049,64.798264,21.638321,-148.318176,,,
729608372.44697,1.397362,1.012611,53.954596,-0.021286,0.012314,1.003433,-0.018714,-0.000956,0.039049,64.798264,21.638321,-148.318176,,,
729608372.450305,1.397362,1.012611,53.954596,-0.021286,0.012314,1.003433,-0.018714,-0.000956,0.039049,64.798264,21.638321,-148.318176,,,
729608372.453645,1.392666,1.016585,53.966649,-0.024185,0.004715,1.007858,-0.009699,-0.00352,0.044647,64.798264,21.638321,-148.318176,,,
729608372.456974,1.391128,1.013878,53.979986,-0.024185,0.004715,1.007858,-0.009699,-0.00352,0.044647,64.798264,21.638321,-148.318176,,,
729608372.460303,1.391128,1.013878,53.979986,-0.024185,0.004715,1.007858,-0.009699,-0.00352,0.044647,64.675201,21.536606,-148.704849,,,
729608372.46366,1.39169,1.015246,53.994374,-0.026382,0.000778,1.011703,0.009539,-0.011239,0.051249,64.675201,21.536606,-148.704849,,,
729608372.467075,1.395253,1.011142,54.009287,-0.026382,0.000778,1.011703,0.009539,-0.011239,0.051249,64.675201,21.536606,-148.704849,,,
729608372.470321,1.395253,1.011142,54.009287,-0.026382,0.000778,1.011703,0.009539,-0.011239,0.051249,64.675201,21.536606,-148.704849,,,
729608372.47367,1.400816,1.010214,54.023881,-0.02095,0.002609,1.015106,0.021281,-0.013493,0.047928,64.675201,21.536606,-148.704849,,,
729608372.476979,1.407596,1.004798,54.038047,-0.02095,0.002609,1.015106,0.021281,-0.013493,0.047928,64.675201,21.536606,-148.704849,,,
729608372.480384,1.407596,1.004798,54.038047,-0.02095,0.002609,1.015106,0.021281,-0.013493,0.047928,64.675201,21.536606,-148.704849,,,
729608372.483645,1.41459,1.002392,54.051407,-0.01474,0.006393,1.010483,0.026792,-0.011004,0.044809,64.675201,21.536606,-148.704849,,,
729608372.486982,1.422629,0.99786,54.064415,-0.01474,0.006393,1.010483,0.026792,-0.011004,0.044809,64.675201,21.536606,-148.704849,,,
729608372.490312,1.422629,0.99786,54.064415,-0.01474,0.006393,1.010483,0.026792,-0.011004,0.044809,64.675201,21.536606,-148.704849,,,
729608372.493667,1.428104,0.997424,54.076745,-0.006989,0.008743,1.005112,0.020744,-0.00053,0.039157,64.675201,21.536606,-148.704849,,,
729608372.496979,1.433517,0.995552,54.088219,-0.006989,0.008743,1.005112,0.020744,-0.00053,0.039157,64.675201,21.536606,-148.704849,,,
729608372.500316,1.433517,0.995552,54.088219,-0.006989,0.008743,1.005112,0.020744,-0.00053,0.039157,64.744553,21.638748,-148.509338,,,
729608372.503702,1.435795,0.994966,54.098532,0.001801,0.014008,0.996964,0.007952,-0.003105,0.030453,64.744553,21.638748,-148.509338,,,
729608372.506974,1.437351,0.993244,54.107686,0.001801,0.014008,0.996964,0.007952,-0.003105,0.030453,64.744553,21.638748,-148.509338,,,
729608372.510319,1.437351,0.993244,54.107686,0.001801,0.014008,0.996964,0.007952,-0.003105,0.030453,64.744553,21.638748,-148.509338,,,
729608372.513666,1.436255,0.993124,54.115204,0.005966,0.017456,0.98703,-0.003695,-0.002977,0.020715,64.744553,21.638748,-148.509338,,,
729608372.516981,1.435172,0.992353,54.12112,0.005966,0.017456,0.98703,-0.003695,-0.002977,0.020715,64.744553,21.638748,-148.509338,,,
729608372.52037,1.435172,0.992353,54.12112,0.005966,0.017456,0.98703,-0.003695,-0.002977,0.020715,64.744553,21.638748,-148.509338,,,
729608372.52365,1.431194,0.992325,54.125852,0.006516,0.018936,0.98764,-0.00709,-0.000219,0.014246,64.744553,21.638748,-148.509338,,,
729608372.526985,1.429899,0.991293,54.129742,0.006516,0.018936,0.98764,-0.00709,-0.000219,0.014246,64.744553,21.638748,-148.509338,,,
729608372.530308,1.429899,0.991293,54.129742,0.006516,0.018936,0.98764,-0.00709,-0.000219,0.014246,64.744553,21.638748,-148.509338,,,
729608372.533759,1.424523,0.992168,54.133022,0.003494,0.020111,0.99176,-0.002213,0.000296,0.006046,64.744553,21.638748,-148.509338,,,
729608372.53698,1.422969,0.991327,54.135126,0.003494,0.020111,0.99176,-0.002213,0.000296,0.006046,64.744553,21.638748,-148.509338,,,
729608372.540371,1.422969,0.991327,54.135126,0.003494,0.020111,0.99176,-0.002213,0.000296,0.006046,64.744553,21.638748,-148.509338,,,
729608372.543906,1.414683,0.992112,54.135717,0.006165,0.024063,0.989731,-0.012562,-0.004115,-0.00316,64.661377,21.613678,-148.163284,,,
729608372.546963,1.410555,0.990552,54.135573,0.006165,0.024063,0.989731,-0.012562,-0.004115,-0.00316,64.661377,21.613678,-148.163284,,,
729608372.550322,1.410555,0.990552,54.135573,0.006165,0.024063,0.989731,-0.012562,-0.004115,-0.00316,64.661377,21.613678,-148.163284,,,
729608372.553663,1.400128,0.99075,54.134675,0.004181,0.027908,0.987259,-0.021571,-0.000616,-0.007881,64.661377,21.613678,-148.163284,,,
729608372.556981,1.393898,0.989107,54.132559,0.004181,0.027908,0.987259,-0.021571,-0.000616,-0.007881,64.661377,21.613678,-148.163284,,,
729608372.560309,1.393898,0.989107,54.132559,0.004181,0.027908,0.987259,-0.021571,-0.000616,-0.007881,64.661377,21.613678,-148.163284,,,
729608372.563664,1.382693,0.985992,54.129633,0.001801,0.032852,0.986557,-0.024274,-0.011912,-0.014903,64.661377,21.613678,-148.163284,,,
729608372.566942,1.375354,0.981868,54.125912,0.001801,0.032852,0.986557,-0.024274,-0.011912,-0.014903,64.661377,21.613678,-148.163284,,,
729608372.570343,1.375354,0.981868,54.125912,0.001801,0.032852,0.986557,-0.024274,-0.011912,-0.014903,64.661377,21.613678,-148.163284,,,
729608372.573732,1.363787,0.976196,54.121122,-0.001862,0.031006,0.986374,-0.027304,-0.006934,-0.022642,64.661377,21.613678,-148.163284,,,
729608372.576975,1.356436,0.973159,54.115642,-0.001862,0.031006,0.986374,-0.027304,-0.006934,-0.022642,64.661377,21.613678,-148.163284,,,
729608372.580319,1.356436,0.973159,54.115642,-0.001862,0.031006,0.986374,-0.027304,-0.006934,-0.022642,64.661377,21.613678,-148.163284,,,
729608372.583658,1.346351,0.966745,54.110404,-0.010223,0.022125,0.994705,-0.02625,-0.004099,-0.018987,64.633255,21.662064,-148.184265,,,
729608372.586975,1.338737,0.964744,54.10561,-0.010223,0.022125,0.994705,-0.02625,-0.004099,-0.018987,64.633255,21.662064,-148.184265,,,
729608372.59032,1.338737,0.964744,54.10561,-0.010223,0.022125,0.994705,-0.02625,-0.004099,-0.018987,64.633255,21.662064,-148.184265,,,
729608372.593652,1.32948,0.957424,54.101902,-0.024506,0.016144,0.997177,-0.025825,-0.000559,-0.011282,64.633255,21.662064,-148.184265,,,
729608372.596979,1.321653,0.956089,54.099564,-0.024506,0.016144,0.997177,-0.025825,-0.000559,-0.011282,64.633255,21.662064,-148.184265,,,
729608372.600306,1.321653,0.956089,54.099564,-0.024506,0.016144,0.997177,-0.025825,-0.000559,-0.011282,64.633255,21.662064,-148.184265,,,
729608372.603663,1.312645,0.948766,54.098059,-0.033875,0.016235,1.000259,-0.025929,-0.003,-0.005326,64.633255,21.662064,-148.184265,,,
729608372.606978,1.304966,0.947244,54.097008,-0.033875,0.016235,1.000259,-0.025929,-0.003,-0.005326,64.633255,21.662064,-148.184265,,,
729608372.610001,1.304966,0.947244,54.097008,-0.033875,0.016235,1.000259,-0.025929,-0.003,-0.005326,64.633255,21.662064,-148.184265,,,
729608372.613702,1.298399,0.939787,54.096854,-0.034576,0.017807,1.00116,-0.016556,-0.007382,0.000514,64.633255,21.662064,-148.184265,,,
729608372.616972,1.29398,0.936506,54.096868,-0.034576,0.017807,1.00116,-0.016556,-0.007382,0.000514,64.633255,21.662064,-148.184265,,,
729608372.620321,1.29398,0.936506,54.096868,-0.034576,0.017807,1.00116,-0.016556,-0.007382,0.000514,64.633255,21.662064,-148.184265,,,
729608372.623651,1.289962,0.925581,54.097094,-0.02832,0.016205,1.001694,-0.01195,-0.020707,-0.00265,64.652603,21.639389,-148.319809,,,
729608372.626981,1.28633,0.918128,54.096292,-0.02832,0.016205,1.001694,-0.01195,-0.020707,-0.00265,64.652603,21.639389,-148.319809,,,
729608372.630328,1.28633,0.918128,54.096292,-0.02832,0.016205,1.001694,-0.01195,-0.020707,-0.00265,64.652603,21.639389,-148.319809,,,
729608372.633738,1.284468,0.903903,54.094409,-0.023773,0.015289,0.996887,-0.00801,-0.030612,-0.013279,64.652603,21.639389,-148.319809,,,
729608372.636965,1.281939,0.893813,54.091413,-0.023773,0.015289,0.996887,-0.00801,-0.030612,-0.013279,64.652603,21.639389,-148.319809,,,
729608372.640393,1.281939,0.893813,54.091413,-0.023773,0.015289,0.996887,-0.00801,-0.030612,-0.013279,64.652603,21.639389,-148.319809,,,
729608372.643648,1.282499,0.878164,54.08789,-0.022049,0.018478,0.998978,-0.002172,-0.035663,-0.010325,64.652603,21.639389,-148.319809,,,
729608372.646976,1.282302,0.866325,54.085381,-0.022049,0.018478,0.998978,-0.002172,-0.035663,-0.010325,64.652603,21.639389,-148.319809,,,
729608372.65031,1.282302,0.866325,54.085381,-0.022049,0.018478,0.998978,-0.002172,-0.035663,-0.010325,64.652603,21.639389,-148.319809,,,
729608372.653645,1.286845,0.849599,54.085177,-0.022919,0.012863,1.004044,0.015732,-0.042392,0.00269,64.652603,21.639389,-148.319809,,,
729608372.656973,1.291603,0.83769,54.08631,-0.022919,0.012863,1.004044,0.015732,-0.042392,0.00269,64.652603,21.639389,-148.319809,,,
729608372.660305,1.291603,0.83769,54.08631,-0.022919,0.012863,1.004044,0.015732,-0.042392,0.00269,64.652603,21.639389,-148.319809,,,
729608372.663697,1.298979,0.825614,54.087557,-0.016953,0.00708,1.00589,0.032151,-0.029973,0.00246,64.757782,21.547653,-148.063812,,,
729608372.667069,1.307687,0.81704,54.08734,-0.016953,0.00708,1.00589,0.032151,-0.029973,0.00246,64.757782,21.547653,-148.063812,,,
729608372.670334,1.307687,0.81704,54.08734,-0.016953,0.00708,1.00589,0.032151,-0.029973,0.00246,64.757782,21.547653,-148.063812,,,
729608372.673661,1.317289,0.811186,54.085336,0.000259,0.018372,1.00502,0.045118,-0.015605,-0.011516,64.757782,21.547653,-148.063812,,,
729608372.676981,1.329957,0.806386,54.082143,0.000259,0.018372,1.00502,0.045118,-0.015605,-0.011516,64.757782,21.547653,-148.063812,,,
729608372.680317,1.329957,0.806386,54.082143,0.000259,0.018372,1.00502,0.045118,-0.015605,-0.011516,64.757782,21.547653,-148.063812,,,
729608372.683651,1.341694,0.809101,54.078367,0.001068,0.025742,1.003342,0.047625,0.006075,-0.014693,64.757782,21.547653,-148.063812,,,
729608372.686976,1.354384,0.811151,54.074809,0.001068,0.025742,1.003342,0.047625,0.006075,-0.014693,64.757782,21.547653,-148.063812,,,
729608372.690402,1.354384,0.811151,54.074809,0.001068,0.025742,1.003342,0.047625,0.006075,-0.014693,64.757782,21.547653,-148.063812,,,
729608372.693653,1.364291,0.822257,54.071226,-0.002991,0.023987,0.998657,0.037776,0.031943,-0.014487,64.757782,21.547653,-148.063812,,,
729608372.696982,1.374965,0.831278,54.067577,-0.002991,0.023987,0.998657,0.037776,0.031943,-0.014487,64.757782,21.547653,-148.063812,,,
729608372.700305,1.374965,0.831278,54.067577,-0.002991,0.023987,0.998657,0.037776,0.031943,-0.014487,64.757782,21.547653,-148.063812,,,
729608372.703657,1.383686,0.847508,54.063578,-0.005173,0.023788,0.993454,0.033592,0.052836,-0.012193,64.757782,21.547653,-148.063812,,,
729608372.707004,1.393792,0.861907,54.060279,-0.005173,0.023788,0.993454,0.033592,0.052836,-0.012193,64.741653,21.653702,-148.247772,,,
729608372.710312,1.393792,0.861907,54.060279,-0.005173,0.023788,0.993454,0.033592,0.052836,-0.012193,64.741653,21.653702,-148.247772,,,
729608372.713646,1.400784,0.880364,54.057069,-0.012299,0.023376,0.994827,0.035917,0.060545,-0.011996,64.741653,21.653702,-148.247772,,,
729608372.716971,1.409556,0.89702,54.0537,-0.012299,0.023376,0.994827,0.035917,0.060545,-0.011996,64.741653,21.653702,-148.247772,,,
729608372.720323,1.409556,0.89702,54.0537,-0.012299,0.023376,0.994827,0.035917,0.060545,-0.011996,64.741653,21.653702,-148.247772,,,
729608372.723651,1.41642,0.914911,54.050341,-0.018066,0.027252,0.990265,0.030569,0.053286,-0.015181,64.741653,21.653702,-148.247772,,,
729608372.726968,1.424834,0.928482,54.046034,-0.018066,0.027252,0.990265,0.030569,0.053286,-0.015181,64.741653,21.653702,-148.247772,,,
729608372.730307,1.424834,0.928482,54.046034,-0.018066,0.027252,0.990265,0.030569,0.053286,-0.015181,64.741653,21.653702,-148.247772,,,
729608372.733671,1.431372,0.93887,54.040555,-0.020035,0.030563,0.984787,0.030649,0.01832,-0.0208,64.741653,21.653702,-148.247772,,,
729608372.737102,1.439253,0.941752,54.034543,-0.020035,0.030563,0.984787,0.030649,0.01832,-0.0208,64.741653,21.653702,-148.247772,,,
729608372.740405,1.439253,0.941752,54.034543,-0.020035,0.030563,0.984787,0.030649,0.01832,-0.0208,64.741653,21.653702,-148.247772,,,
729608372.743677,1.44214,0.940772,54.027486,-0.022461,0.032654,0.976837,0.022866,-0.012395,-0.029428,64.741653,21.653702,-148.247772,,,
729608372.746985,1.448203,0.935277,54.019532,-0.022461,0.032654,0.976837,0.022866,-0.012395,-0.029428,64.846634,21.466049,-148.192215,,,
729608372.750331,1.448203,0.935277,54.019532,-0.022461,0.032654,0.976837,0.022866,-0.012395,-0.029428,64.846634,21.466049,-148.192215,,,
729608372.753756,1.450163,0.923875,54.011924,-0.022568,0.030701,0.978668,0.013757,-0.035934,-0.029314,64.846634,21.466049,-148.192215,,,
729608372.756968,1.454175,0.912166,54.004856,-0.022568,0.030701,0.978668,0.013757,-0.035934,-0.029314,64.846634,21.466049,-148.192215,,,
729608372.760312,1.454175,0.912166,54.004856,-0.022568,0.030701,0.978668,0.013757,-0.035934,-0.029314,64.846634,21.466049,-148.192215,,,
729608372.76364,1.457514,0.894073,53.9987,-0.021576,0.02597,0.986542,0.010761,-0.043985,-0.019188,64.846634,21.466049,-148.192215,,,
729608372.766976,1.459896,0.882111,53.99382,-0.021576,0.02597,0.986542,0.010761,-0.043985,-0.019188,64.846634,21.466049,-148.192215,,,
729608372.770319,1.459896,0.882111,53.99382,-0.021576,0.02597,0.986542,0.010761,-0.043985,-0.019188,64.846634,21.466049,-148.192215,,,
729608372.773646,1.460036,0.870022,53.989841,-0.018936,0.024185,0.996872,-0.002018,-0.016885,-0.014248,64.846634,21.466049,-148.192215,,,
729608372.776969,1.459116,0.865795,53.986427,-0.018936,0.024185,0.996872,-0.002018,-0.016885,-0.014248,64.846634,21.466049,-148.192215,,,
729608372.780395,1.459116,0.865795,53.986427,-0.018936,0.024185,0.996872,-0.002018,-0.016885,-0.014248,64.846634,21.466049,-148.192215,,,
729608372.783657,1.456502,0.863549,53.983766,-0.013885,0.026535,1.0065,-0.011269,0.017709,-0.006371,64.846634,21.466049,-148.192215,,,
729608372.786984,1.452972,0.869632,53.981846,-0.013885,0.026535,1.0065,-0.011269,0.017709,-0.006371,64.644669,21.480804,-148.169846,,,
729608372.790323,1.452972,0.869632,53.981846,-0.013885,0.026535,1.0065,-0.011269,0.017709,-0.006371,64.644669,21.480804,-148.169846,,,
729608372.793719,1.448647,0.878843,53.980844,-0.013336,0.026917,1.00914,-0.01381,0.050588,-0.003277,64.644669,21.480804,-148.169846,,,
729608372.796994,1.444744,0.893282,53.980349,-0.013336,0.026917,1.00914,-0.01381,0.050588,-0.003277,64.644669,21.480804,-148.169846,,,
729608372.800326,1.444744,0.893282,53.980349,-0.013336,0.026917,1.00914,-0.01381,0.050588,-0.003277,64.644669,21.480804,-148.169846,,,
729608372.80366,1.440803,0.910617,53.980148,-0.014893,0.025055,1.013992,-0.012952,0.063858,-0.001541,64.644669,21.480804,-148.169846,,,
729608372.806973,1.436195,0.928206,53.979977,-0.014893,0.025055,1.013992,-0.012952,0.063858,-0.001541,64.644669,21.480804,-148.169846,,,
729608372.810332,1.436195,0.928206,53.979977,-0.014893,0.025055,1.013992,-0.012952,0.063858,-0.001541,64.644669,21.480804,-148.169846,,,
729608372.813664,1.432549,0.944483,53.979999,-0.02005,0.0242,1.006439,-0.016141,0.049217,-0.002936,64.644669,21.480804,-148.169846,,,
729608372.816971,1.426817,0.956131,53.979867,-0.02005,0.0242,1.006439,-0.016141,0.049217,-0.002936,64.644669,21.480804,-148.169846,,,
729608372.820386,1.426817,0.956131,53.979867,-0.02005,0.0242,1.006439,-0.016141,0.049217,-0.002936,64.644669,21.480804,-148.169846,,,
729608372.823644,1.422278,0.965216,53.979235,-0.025543,0.022995,0.996841,-0.021164,0.014116,-0.003295,64.644669,21.480804,-148.169846,,,
729608372.827083,1.415789,0.967892,53.978038,-0.025543,0.022995,0.996841,-0.021164,0.014116,-0.003295,64.743103,21.479202,-147.900024,,,
729608372.830342,1.415789,0.967892,53.978038,-0.025543,0.022995,0.996841,-0.021164,0.014116,-0.003295,64.743103,21.479202,-147.900024,,,
729608372.833645,1.410841,0.966511,53.97655,-0.02475,0.026611,0.996368,-0.025103,-0.020238,-0.007109,64.743103,21.479202,-147.900024,,,
729608372.836981,1.403255,0.958291,53.975236,-0.02475,0.026611,0.996368,-0.025103,-0.020238,-0.007109,64.743103,21.479202,-147.900024,,,
729608372.840311,1.403255,0.958291,53.975236,-0.02475,0.026611,0.996368,-0.025103,-0.020238,-0.007109,64.743103,21.479202,-147.900024,,,
729608372.843708,1.396303,0.947078,53.974354,-0.027283,0.02565,0.998505,-0.027573,-0.051214,-0.002512,64.743103,21.479202,-147.900024,,,
729608372.846964,1.388797,0.931079,53.974067,-0.027283,0.02565,0.998505,-0.027573,-0.051214,-0.002512,64.743103,21.479202,-147.900024,,,
729608372.850325,1.388797,0.931079,53.974067,-0.027283,0.02565,0.998505,-0.027573,-0.051214,-0.002512,64.743103,21.479202,-147.900024,,,
729608372.853657,1.382115,0.913492,53.973496,-0.022324,0.021835,1.005295,-0.020512,-0.063679,-0.003857,64.743103,21.479202,-147.900024,,,
729608372.856986,1.375561,0.894027,53.97228,-0.022324,0.021835,1.005295,-0.020512,-0.063679,-0.003857,64.743103,21.479202,-147.900024,,,
729608372.860309,1.375561,0.894027,53.97228,-0.022324,0.021835,1.005295,-0.020512,-0.063679,-0.003857,64.743103,21.479202,-147.900024,,,
729608372.863667,1.36929,0.875858,53.970592,-0.011169,0.027039,1.0112,-0.02032,-0.054184,-0.009022,64.743103,21.479202,-147.900024,,,
729608372.866969,1.362187,0.860754,53.969177,-0.011169,0.027039,1.0112,-0.02032,-0.054184,-0.009022,64.743103,21.479202,-147.900024,,,
729608372.870395,1.362187,0.860754,53.969177,-0.011169,0.027039,1.0112,-0.02032,-0.054184,-0.009022,64.585403,21.524551,-148.158371,,,
729608372.873648,1.355232,0.848845,53.968405,-0.009216,0.02739,1.016876,-0.023948,-0.02283,-0.001776,64.585403,21.524551,-148.158371,,,
729608372.876972,1.347676,0.84252,53.968274,-0.009216,0.02739,1.016876,-0.023948,-0.02283,-0.001776,64.585403,21.524551,-148.158371,,,
729608372.880247,1.347676,0.84252,53.968274,-0.009216,0.02739,1.016876,-0.023948,-0.02283,-0.001776,64.585403,21.524551,-148.158371,,,
729608372.883657,1.340774,0.841484,53.968699,-0.007187,0.021576,1.023529,-0.023451,0.014955,-9.1e-05,64.585403,21.524551,-148.158371,,,
729608372.886975,1.33425,0.84531,53.968858,-0.007187,0.021576,1.023529,-0.023451,0.014955,-9.1e-05,64.585403,21.524551,-148.158371,,,
729608372.890429,1.33425,0.84531,53.968858,-0.007187,0.021576,1.023529,-0.023451,0.014955,-9.1e-05,64.585403,21.524551,-148.158371,,,
729608372.893677,1.329609,0.852241,53.968235,-0.00177,0.019989,1.025452,-0.009856,0.026915,-0.004814,64.585403,21.524551,-148.158371,,,
729608372.89705,1.327236,0.858745,53.967044,-0.00177,0.019989,1.025452,-0.009856,0.026915,-0.004814,64.585403,21.524551,-148.158371,,,
729608372.900319,1.327236,0.858745,53.967044,-0.00177,0.019989,1.025452,-0.009856,0.026915,-0.004814,64.585403,21.524551,-148.158371,,,
729608372.903644,1.326857,0.866849,53.965566,-0.006332,0.018219,1.018524,0.000649,0.020282,-0.005931,64.585403,21.524551,-148.158371,,,
729608372.907036,1.326398,0.870822,53.964317,-0.006332,0.018219,1.018524,0.000649,0.020282,-0.005931,64.585403,21.524551,-148.158371,,,
729608372.91038,1.326398,0.870822,53.964317,-0.006332,0.018219,1.018524,0.000649,0.020282,-0.005931,64.5793,21.627319,-148.047241,,,
729608372.913666,1.326044,0.875065,53.963399,-0.013184,0.017517,1.009644,-0.008515,0.001248,-0.001889,64.5793,21.627319,-148.047241,,,
729608372.916986,1.323935,0.873375,53.963643,-0.013184,0.017517,1.009644,-0.008515,0.001248,-0.001889,64.5793,21.627319,-148.047241,,,
729608372.920309,1.323935,0.873375,53.963643,-0.013184,0.017517,1.009644,-0.008515,0.001248,-0.001889,64.5793,21.627319,-148.047241,,,
729608372.923641,1.320834,0.870076,53.964812,-0.018356,0.017624,0.997665,-0.014538,-0.027683,0.005078,64.5793,21.627319,-148.047241,,,
729608372.927068,1.315737,0.859922,53.966597,-0.018356,0.017624,0.997665,-0.014538,-0.027683,0.005078,64.5793,21.627319,-148.047241,,,
729608372.930312,1.315737,0.859922,53.966597,-0.018356,0.017624,0.997665,-0.014538,-0.027683,0.005078,64.5793,21.627319,-148.047241,,,
729608372.933652,1.30991,0.848381,53.968353,-0.017731,0.020798,0.992874,-0.018673,-0.058734,0.002503,64.5793,21.627319,-148.047241,,,
729608372.937039,1.30394,0.829519,53.969262,-0.017731,0.020798,0.992874,-0.018673,-0.058734,0.002503,64.5793,21.627319,-148.047241,,,
729608372.940308,1.30394,0.829519,53.969262,-0.017731,0.020798,0.992874,-0.018673,-0.058734,0.002503,64.5793,21.627319,-148.047241,,,
729608372.943679,1.298108,0.807679,53.968901,-0.00885,0.02623,0.9935,-0.021302,-0.078287,-0.006196,64.5793,21.627319,-148.047241,,,
729608372.947063,1.291706,0.784695,53.967311,-0.00885,0.02623,0.9935,-0.021302,-0.078287,-0.006196,64.5793,21.627319,-148.047241,,,
729608372.950307,1.291706,0.784695,53.967311,-0.00885,0.02623,0.9935,-0.021302,-0.078287,-0.006196,64.312363,21.726257,-148.09993,,,
729608372.953648,1.286339,0.761891,53.964802,-0.005356,0.029083,0.993759,-0.023123,-0.065916,-0.013593,64.312363,21.726257,-148.09993,,,
729608372.957037,1.278653,0.743117,53.961648,-0.005356,0.029083,0.993759,-0.023123,-0.065916,-0.013593,64.312363,21.726257,-148.09993,,,
729608372.960353,1.278653,0.743117,53.961648,-0.005356,0.029083,0.993759,-0.023123,-0.065916,-0.013593,64.312363,21.726257,-148.09993,,,
729608372.963645,1.270545,0.725782,53.959093,-0.004669,0.030045,0.996887,-0.032939,-0.045141,-0.009031,64.312363,21.726257,-148.09993,,,
729608372.967003,1.261407,0.711977,53.957457,-0.004669,0.030045,0.996887,-0.032939,-0.045141,-0.009031,64.312363,21.726257,-148.09993,,,
729608372.97031,1.261407,0.711977,53.957457,-0.004669,0.030045,0.996887,-0.032939,-0.045141,-0.009031,64.312363,21.726257,-148.09993,,,
729608372.973705,1.249738,0.698481,53.95641,-0.006897,0.02626,0.994522,-0.044077,-0.028937,-0.005146,64.312363,21.726257,-148.09993,,,
729608372.977001,1.23732,0.68901,53.955218,-0.006897,0.02626,0.994522,-0.044077,-0.028937,-0.005146,64.312363,21.726257,-148.09993,,,
729608372.980304,1.23732,0.68901,53.955218,-0.006897,0.02626,0.994522,-0.044077,-0.028937,-0.005146,64.312363,21.726257,-148.09993,,,
729608372.983647,1.223534,0.676422,53.952803,-0.010941,0.0271,0.988968,-0.046428,-0.04047,-0.015806,64.312363,21.726257,-148.09993,,,
729608372.98705,1.20991,0.662606,53.948274,-0.010941,0.0271,0.988968,-0.046428,-0.04047,-0.015806,64.312363,21.726257,-148.09993,,,
729608372.990296,1.20991,0.662606,53.948274,-0.010941,0.0271,0.988968,-0.046428,-0.04047,-0.015806,64.397125,21.640839,-147.744888,,,
729608372.993645,1.194851,0.644668,53.942017,-0.012131,0.031311,0.982956,-0.047954,-0.072023,-0.027663,64.397125,21.640839,-147.744888,,,
729608372.997014,1.194851,0.644668,53.934734,-0.012131,0.031311,0.982956,-0.047954,-0.072023,-0.027663,64.397125,21.640839,-147.744888,,,
729608373.000333,1.180677,0.621643,53.934734,-0.012131,0.031311,0.982956,-0.047954,-0.072023,-0.027663,64.397125,21.640839,-147.744888,,,
729608373.003636,1.165574,0.594279,53.92694,-0.020004,0.027634,0.980911,-0.049152,-0.112149,-0.031191,64.397125,21.640839,-147.744888,,,
729608373.006991,1.165574,0.594279,53.92694,-0.020004,0.027634,0.980911,-0.049152,-0.112149,-0.031191,64.397125,21.640839,-147.744888,,,
729608373.010307,1.151117,0.56018,53.919115,-0.020004,0.027634,0.980911,-0.049152,-0.112149,-0.031191,64.397125,21.640839,-147.744888,,,
729608373.013637,1.136968,0.524904,53.91123,-0.026611,0.020233,0.982788,-0.045775,-0.132817,-0.027849,64.397125,21.640839,-147.744888,,,
729608373.016982,1.136968,0.524904,53.91123,-0.026611,0.020233,0.982788,-0.045775,-0.132817,-0.027849,64.397125,21.640839,-147.744888,,,
729608373.020318,1.123266,0.485545,53.903851,-0.026611,0.020233,0.982788,-0.045775,-0.132817,-0.027849,64.397125,21.640839,-147.744888,,,
729608373.023692,1.111568,0.447458,53.896264,-0.022064,0.016891,0.993774,-0.04057,-0.127718,-0.030057,64.397125,21.640839,-147.744888,,,
729608373.026981,1.111568,0.447458,53.896264,-0.022064,0.016891,0.993774,-0.04057,-0.127718,-0.030057,64.397125,21.640839,-147.744888,,,
729608373.030318,1.100009,0.411022,53.888291,-0.022064,0.016891,0.993774,-0.04057,-0.127718,-0.030057,64.397125,21.640839,-147.744888,,,
729608373.033634,1.093218,0.378266,53.881454,-0.013916,0.016479,1.006927,-0.018988,-0.095921,-0.020581,63.971588,22.086273,-147.891922,,,
729608373.037053,1.093218,0.378266,53.881454,-0.013916,0.016479,1.006927,-0.018988,-0.095921,-0.020581,63.971588,22.086273,-147.891922,,,
729608373.040307,1.08797,0.351101,53.875896,-0.013916,0.016479,1.006927,-0.018988,-0.095921,-0.020581,63.971588,22.086273,-147.891922,,,
729608373.043663,1.088821,0.329804,53.871536,-0.0065,0.012115,1.018051,0.004369,-0.053901,-0.010456,63.971588,22.086273,-147.891922,,,
729608373.046973,1.088821,0.329804,53.871536,-0.0065,0.012115,1.018051,0.004369,-0.053901,-0.010456,63.971588,22.086273,-147.891922,,,
729608373.05038,1.090182,0.315504,53.869225,-0.0065,0.012115,1.018051,0.004369,-0.053901,-0.010456,63.971588,22.086273,-147.891922,,,
729608373.053638,1.095894,0.308366,53.869191,-0.006546,0.003754,1.019852,0.016503,-0.003867,0.00242,63.971588,22.086273,-147.891922,,,
729608373.057032,1.095894,0.308366,53.869191,-0.006546,0.003754,1.019852,0.016503,-0.003867,0.00242,63.971588,22.086273,-147.891922,,,
729608373.060351,1.099992,0.308213,53.870819,-0.006546,0.003754,1.019852,0.016503,-0.003867,0.00242,63.971588,22.086273,-147.891922,,,
729608373.063657,1.105393,0.314823,53.873167,-0.003143,0.006073,1.013275,0.010146,0.032459,0.005482,63.971588,22.086273,-147.891922,,,
729608373.066993,1.105393,0.314823,53.873167,-0.003143,0.006073,1.013275,0.010146,0.032459,0.005482,63.971588,22.086273,-147.891922,,,
729608373.07034,1.10871,0.323389,53.87501,-0.003143,0.006073,1.013275,0.010146,0.032459,0.005482,63.971588,22.086273,-147.891922,,,
729608373.073747,1.113768,0.333407,53.875143,0.003967,0.019897,0.99971,0.006901,0.025135,-0.002952,63.867676,21.629532,-147.774185,,,
729608373.07704,1.113768,0.333407,53.875143,0.003967,0.019897,0.99971,0.006901,0.025135,-0.002952,63.867676,21.629532,-147.774185,,,
729608373.080318,1.115303,0.339128,53.873703,0.003967,0.019897,0.99971,0.006901,0.025135,-0.002952,63.867676,21.629532,-147.774185,,,
729608373.083644,1.118696,0.344222,53.870992,0.000717,0.023987,0.983368,0.001527,0.001369,-0.012403,63.867676,21.629532,-147.774185,,,
729608373.087,1.118696,0.344222,53.870992,0.000717,0.023987,0.983368,0.001527,0.001369,-0.012403,63.867676,21.629532,-147.774185,,,
729608373.090394,1.118324,0.342733,53.867374,0.000717,0.023987,0.983368,0.001527,0.001369,-0.012403,63.867676,21.629532,-147.774185,,,
729608373.093642,1.117972,0.342318,53.863396,-0.001221,0.019058,0.977524,-0.007816,-0.03058,-0.014349,63.867676,21.629532,-147.774185,,,
729608373.096984,1.117972,0.342318,53.863396,-0.001221,0.019058,0.977524,-0.007816,-0.03058,-0.014349,63.867676,21.629532,-147.774185,,,
729608373.100327,1.115527,0.332044,53.859546,-0.001221,0.019058,0.977524,-0.007816,-0.03058,-0.014349,63.867676,21.629532,-147.774185,,,
729608373.103639,1.111922,0.321595,53.855684,0.001007,0.016998,0.971848,-0.010155,-0.05848,-0.016041,63.867676,21.629532,-147.774185,,,
729608373.106991,1.111922,0.321595,53.855684,0.001007,0.016998,0.971848,-0.010155,-0.05848,-0.016041,63.867676,21.629532,-147.774185,,,
729608373.110329,1.108959,0.303375,53.852591,0.001007,0.016998,0.971848,-0.010155,-0.05848,-0.016041,63.867676,21.629532,-147.774185,,,
729608373.113639,1.105261,0.286653,53.849732,0.002441,0.016418,0.976746,-0.011259,-0.071258,-0.013865,64.004913,21.721863,-147.833679,,,
729608373.117054,1.105261,0.286653,53.849732,0.002441,0.016418,0.976746,-0.011259,-0.071258,-0.013865,64.004913,21.721863,-147.833679,,,
729608373.120323,1.1016,0.265186,53.845976,0.002441,0.016418,0.976746,-0.011259,-0.071258,-0.013865,64.004913,21.721863,-147.833679,,,
729608373.123649,1.094747,0.244416,53.841078,0.014801,0.021286,0.978943,-0.024227,-0.068605,-0.022987,64.004913,21.721863,-147.833679,,,
729608373.126985,1.094747,0.244416,53.841078,0.014801,0.021286,0.978943,-0.024227,-0.068605,-0.022987,64.004913,21.721863,-147.833679,,,
729608373.130395,1.086859,0.225155,53.834794,0.014801,0.021286,0.978943,-0.024227,-0.068605,-0.022987,64.004913,21.721863,-147.833679,,,
729608373.133638,1.074852,0.209978,53.827464,0.018509,0.025665,0.985596,-0.031104,-0.04101,-0.027195,64.004913,21.721863,-147.833679,,,
729608373.136995,1.074852,0.209978,53.827464,0.018509,0.025665,0.985596,-0.031104,-0.04101,-0.027195,64.004913,21.721863,-147.833679,,,
729608373.140329,1.064906,0.197732,53.820348,0.018509,0.025665,0.985596,-0.031104,-0.04101,-0.027195,64.004913,21.721863,-147.833679,,,
729608373.143648,1.050332,0.188718,53.813612,0.018448,0.021576,0.99379,-0.035905,-0.026752,-0.023249,64.004913,21.721863,-147.833679,,,
729608373.146991,1.050332,0.188718,53.813612,0.018448,0.021576,0.99379,-0.035905,-0.026752,-0.023249,64.004913,21.721863,-147.833679,,,
729608373.150327,1.039455,0.181606,53.806832,0.018448,0.021576,0.99379,-0.035905,-0.026752,-0.023249,64.004913,21.721863,-147.833679,,,
729608373.15364,1.026646,0.176542,53.799323,0.018188,0.01796,0.9944,-0.043617,-0.0018,-0.030137,63.715652,21.770096,-147.858765,,,
729608373.157048,1.026646,0.176542,53.799323,0.018188,0.01796,0.9944,-0.043617,-0.0018,-0.030137,63.715652,21.770096,-147.858765,,,
729608373.160328,1.012941,0.17599,53.790875,0.018188,0.01796,0.9944,-0.043617,-0.0018,-0.030137,63.715652,21.770096,-147.858765,,,
729608373.163648,1.000267,0.176676,53.781983,0.013824,0.017609,1.000046,-0.048617,0.016065,-0.032947,63.715652,21.770096,-147.858765,,,
729608373.166991,1.000267,0.176676,53.781983,0.013824,0.017609,1.000046,-0.048617,0.016065,-0.032947,63.715652,21.770096,-147.858765,,,
729608373.17034,0.986064,0.180519,53.772822,0.013824,0.017609,1.000046,-0.048617,0.016065,-0.032947,63.715652,21.770096,-147.858765,,,
729608373.17364,0.972713,0.184672,53.763538,0.007492,0.020004,1.000366,-0.047842,0.017963,-0.035968,63.715652,21.770096,-147.858765,,,
729608373.176993,0.972713,0.184672,53.763538,0.007492,0.020004,1.000366,-0.047842,0.017963,-0.035968,63.715652,21.770096,-147.858765,,,
729608373.180398,0.959062,0.188734,53.75358,0.007492,0.020004,1.000366,-0.047842,0.017963,-0.035968,63.715652,21.770096,-147.858765,,,
729608373.183638,0.946351,0.190863,53.743093,-0.00235,0.018036,0.999741,-0.040877,0.011626,-0.038759,63.715652,21.770096,-147.858765,,,
729608373.186992,0.946351,0.190863,53.743093,-0.00235,0.018036,0.999741,-0.040877,0.011626,-0.038759,63.715652,21.770096,-147.858765,,,
729608373.190315,0.933939,0.193129,53.732578,-0.00235,0.018036,0.999741,-0.040877,0.011626,-0.038759,63.715652,21.770096,-147.858765,,,
729608373.193646,0.92278,0.193383,53.722448,-0.010361,0.015915,1.001022,-0.036917,0.004051,-0.034155,63.715652,21.770096,-147.858765,,,
729608373.196968,0.92278,0.193383,53.722448,-0.010361,0.015915,1.001022,-0.036917,0.004051,-0.034155,64.050308,21.891357,-147.734924,,,
729608373.200307,0.91252,0.19351,53.713434,-0.010361,0.015915,1.001022,-0.036917,0.004051,-0.034155,64.050308,21.891357,-147.734924,,,
729608373.203639,0.904076,0.189138,53.705652,-0.017517,0.016296,1.003235,-0.030167,-0.000108,-0.026308,64.050308,21.891357,-147.734924,,,
729608373.207027,0.904076,0.189138,53.705652,-0.017517,0.016296,1.003235,-0.030167,-0.000108,-0.026308,64.050308,21.891357,-147.734924,,,
729608373.210308,0.895935,0.187195,53.699029,-0.017517,0.016296,1.003235,-0.030167,-0.000108,-0.026308,64.050308,21.891357,-147.734924,,,
729608373.213648,0.89093,0.17892,53.693769,-0.021973,0.016464,1.004913,-0.022451,-0.005443,-0.016994,64.050308,21.891357,-147.734924,,,
729608373.216991,0.89093,0.17892,53.693769,-0.021973,0.016464,1.004913,-0.022451,-0.005443,-0.016994,64.050308,21.891357,-147.734924,,,
729608373.220358,0.884576,0.1755,53.689292,-0.021973,0.016464,1.004913,-0.022451,-0.005443,-0.016994,64.050308,21.891357,-147.734924,,,
729608373.223635,0.880891,0.165727,53.685496,-0.022736,0.019485,1.00415,-0.015621,-0.013455,-0.015517,64.050308,21.891357,-147.734924,,,
729608373.226984,0.880891,0.165727,53.685496,-0.022736,0.019485,1.00415,-0.015621,-0.013455,-0.015517,64.050308,21.891357,-147.734924,,,
729608373.230311,0.876439,0.16117,53.682049,-0.022736,0.019485,1.00415,-0.015621,-0.013455,-0.015517,64.050308,21.891357,-147.734924,,,
729608373.233639,0.873572,0.151519,53.679483,-0.01799,0.023712,1.003311,-0.008003,-0.013869,-0.007987,64.050308,21.891357,-147.734924,,,
729608373.236967,0.873572,0.151519,53.679483,-0.01799,0.023712,1.003311,-0.008003,-0.013869,-0.007987,63.97551,21.849319,-147.859497,,,
729608373.240334,0.871439,0.147511,53.677915,-0.01799,0.023712,1.003311,-0.008003,-0.013869,-0.007987,63.97551,21.849319,-147.859497,,,
729608373.243635,0.871491,0.139392,53.677426,-0.017624,0.023453,1.007523,0.000781,-0.009002,-3.4e-05,63.97551,21.849319,-147.859497,,,
729608373.247033,0.871491,0.139392,53.677426,-0.017624,0.023453,1.007523,0.000781,-0.009002,-3.4e-05,63.97551,21.849319,-147.859497,,,
729608373.250313,0.871767,0.136939,53.678171,-0.017624,0.023453,1.007523,0.000781,-0.009002,-3.4e-05,63.97551,21.849319,-147.859497,,,
729608373.253643,0.872908,0.132747,53.679491,-0.012497,0.022903,1.008316,-0.001295,0.002834,0.003321,63.97551,21.849319,-147.859497,,,
729608373.256985,0.872908,0.132747,53.679491,-0.012497,0.022903,1.008316,-0.001295,0.002834,0.003321,63.97551,21.849319,-147.859497,,,
729608373.260354,0.872663,0.133416,53.680808,-0.012497,0.022903,1.008316,-0.001295,0.002834,0.003321,63.97551,21.849319,-147.859497,,,
729608373.263639,0.873374,0.134594,53.682628,-0.007095,0.029663,1.005402,-0.000604,0.014166,0.006058,63.97551,21.849319,-147.859497,,,
729608373.266985,0.873374,0.134594,53.682628,-0.007095,0.029663,1.005402,-0.000604,0.014166,0.006058,63.97551,21.849319,-147.859497,,,
729608373.270323,0.872603,0.137773,53.684996,-0.007095,0.029663,1.005402,-0.000604,0.014166,0.006058,63.97551,21.849319,-147.859497,,,
729608373.273642,0.872036,0.142215,53.687752,-0.009872,0.030457,1.004364,-0.001014,0.013832,0.009158,63.97551,21.849319,-147.859497,,,
729608373.276967,0.872036,0.142215,53.687752,-0.009872,0.030457,1.004364,-0.001014,0.013832,0.009158,63.956665,21.827744,-147.661179,,,
729608373.280314,0.871265,0.144021,53.691132,-0.009872,0.030457,1.004364,-0.001014,0.013832,0.009158,63.956665,21.827744,-147.661179,,,
729608373.283643,0.870787,0.14662,53.69459,-0.009155,0.028061,1.001221,0.000391,-0.006535,0.008186,63.956665,21.827744,-147.661179,,,
729608373.287047,0.870787,0.14662,53.69459,-0.009155,0.028061,1.001221,0.000391,-0.006535,0.008186,63.956665,21.827744,-147.661179,,,
729608373.29031,0.871002,0.143543,53.697555,-0.009155,0.028061,1.001221,0.000391,-0.006535,0.008186,63.956665,21.827744,-147.661179,,,
729608373.293645,0.872058,0.143535,53.699641,-0.008987,0.026154,1.001068,0.004058,-0.014431,0.004137,63.956665,21.827744,-147.661179,,,
729608373.296982,0.872058,0.143535,53.699641,-0.008987,0.026154,1.001068,0.004058,-0.014431,0.004137,63.956665,21.827744,-147.661179,,,
729608373.300349,0.872875,0.138287,53.701467,-0.008987,0.026154,1.001068,0.004058,-0.014431,0.004137,63.956665,21.827744,-147.661179,,,
729608373.303636,0.874805,0.137609,53.703292,-0.011383,0.024811,1.003387,0.011126,-0.018731,0.005468,63.956665,21.827744,-147.661179,,,
729608373.30702,0.874805,0.137609,53.703292,-0.011383,0.024811,1.003387,0.011126,-0.018731,0.005468,63.956665,21.827744,-147.661179,,,
729608373.310311,0.878028,0.131079,53.70572,-0.011383,0.024811,1.003387,0.011126,-0.018731,0.005468,63.956665,21.827744,-147.661179,,,
729608373.313641,0.885215,0.129797,53.709498,-0.01413,0.020279,1.008545,0.02641,-0.013336,0.016884,63.956665,21.827744,-147.661179,,,
729608373.31699,0.885215,0.129797,53.709498,-0.01413,0.020279,1.008545,0.02641,-0.013336,0.016884,63.956665,21.827744,-147.661179,,,
729608373.320316,0.892592,0.125222,53.714652,-0.01413,0.020279,1.008545,0.02641,-0.013336,0.016884,63.943436,21.987854,-148.054916,,,
729608373.32364,0.903736,0.125238,53.720482,-0.012375,0.013016,1.011917,0.037925,-0.009447,0.0207,63.943436,21.987854,-148.054916,,,
729608373.327064,0.903736,0.125238,53.720482,-0.012375,0.013016,1.011917,0.037925,-0.009447,0.0207,63.943436,21.987854,-148.054916,,,
729608373.330323,0.914654,0.12229,53.727115,-0.012375,0.013016,1.011917,0.037925,-0.009447,0.0207,63.943436,21.987854,-148.054916,,,
729608373.333653,0.928328,0.124026,53.734278,-0.009201,0.012436,1.008423,0.046067,0.001302,0.026386,63.943436,21.987854,-148.054916,,,
729608373.336983,0.928328,0.124026,53.734278,-0.009201,0.012436,1.008423,0.046067,0.001302,0.026386,63.943436,21.987854,-148.054916,,,
729608373.340384,0.940679,0.123835,53.7415,-0.009201,0.012436,1.008423,0.046067,0.001302,0.026386,63.943436,21.987854,-148.054916,,,
729608373.343644,0.955598,0.126129,53.749156,-0.007462,0.01825,1.00119,0.044187,0.004732,0.026089,63.943436,21.987854,-148.054916,,,
729608373.346975,0.955598,0.126129,53.749156,-0.007462,0.01825,1.00119,0.044187,0.004732,0.026089,63.943436,21.987854,-148.054916,,,
729608373.350327,0.96705,0.126325,53.757255,-0.007462,0.01825,1.00119,0.044187,0.004732,0.026089,63.943436,21.987854,-148.054916,,,
729608373.353642,0.98023,0.127226,53.764884,-0.003067,0.020355,0.992447,0.028812,-0.001447,0.025622,63.943436,21.987854,-148.054916,,,
729608373.356992,0.98023,0.127226,53.764884,-0.003067,0.020355,0.992447,0.028812,-0.001447,0.025622,63.943436,21.987854,-148.054916,,,
729608373.360327,0.988466,0.125516,53.772427,-0.003067,0.020355,0.992447,0.028812,-0.001447,0.025622,63.956833,21.835526,-147.943573,,,
729608373.363659,0.997622,0.124513,53.77971,-0.00029,0.022171,0.982635,0.018914,-0.0101,0.024208,63.956833,21.835526,-147.943573,,,
729608373.366997,0.997622,0.124513,53.77971,-0.00029,0.022171,0.982635,0.018914,-0.0101,0.024208,63.956833,21.835526,-147.943573,,,
729608373.370323,1.002764,0.120694,53.786332,-0.00029,0.022171,0.982635,0.018914,-0.0101,0.024208,63.956833,21.835526,-147.943573,,,
729608373.373635,1.009472,0.117008,53.791972,0.006104,0.02771,0.98143,0.015227,-0.021966,0.015438,63.956833,21.835526,-147.943573,,,
729608373.377023,1.009472,0.117008,53.791972,0.006104,0.02771,0.98143,0.015227,-0.021966,0.015438,63.956833,21.835526,-147.943573,,,
729608373.380357,1.014439,0.10965,53.796019,0.006104,0.02771,0.98143,0.015227,-0.021966,0.015438,63.956833,21.835526,-147.943573,,,
729608373.383645,1.022424,0.103572,53.798808,0.010086,0.032135,0.984909,0.026917,-0.026481,0.003216,63.956833,21.835526,-147.943573,,,
729608373.386995,1.022424,0.103572,53.798808,0.010086,0.032135,0.984909,0.026917,-0.026481,0.003216,63.956833,21.835526,-147.943573,,,
729608373.390325,1.029775,0.094597,53.800579,0.010086,0.032135,0.984909,0.026917,-0.026481,0.003216,63.956833,21.835526,-147.943573,,,
729608373.393638,1.039385,0.088102,53.800333,0.014252,0.029877,0.988739,0.034694,-0.027119,-0.005452,63.956833,21.835526,-147.943573,,,
729608373.396989,1.039385,0.088102,53.800333,0.014252,0.029877,0.988739,0.034694,-0.027119,-0.005452,63.956833,21.835526,-147.943573,,,
729608373.400311,1.048998,0.079915,53.798337,0.014252,0.029877,0.988739,0.034694,-0.027119,-0.005452,63.770538,21.692184,-147.859177,,,
729608373.403637,1.058624,0.077008,53.79538,0.012939,0.025879,0.987518,0.037534,-0.011501,-0.011702,63.770538,21.692184,-147.859177,,,
729608373.407082,1.058624,0.077008,53.79538,0.012939,0.025879,0.987518,0.037534,-0.011501,-0.011702,63.770538,21.692184,-147.859177,,,
729608373.41033,1.068693,0.073284,53.791871,0.012939,0.025879,0.987518,0.037534,-0.011501,-0.011702,63.770538,21.692184,-147.859177,,,
729608373.413653,1.076379,0.073407,53.78855,0.004913,0.022186,0.987152,0.030232,0.000564,-0.010857,63.770538,21.692184,-147.859177,,,
729608373.416992,1.076379,0.073407,53.78855,0.004913,0.022186,0.987152,0.030232,0.000564,-0.010857,63.770538,21.692184,-147.859177,,,
729608373.420337,1.084327,0.0735,53.785764,0.004913,0.022186,0.987152,0.030232,0.000564,-0.010857,63.770538,21.692184,-147.859177,,,
729608373.423643,1.089913,0.077402,53.783523,-0.003616,0.022415,0.98526,0.019975,0.014179,-0.006665,63.770538,21.692184,-147.859177,,,
729608373.426988,1.089913,0.077402,53.783523,-0.003616,0.022415,0.98526,0.019975,0.014179,-0.006665,63.770538,21.692184,-147.859177,,,
729608373.430393,1.095235,0.080111,53.782494,-0.003616,0.022415,0.98526,0.019975,0.014179,-0.006665,63.770538,21.692184,-147.859177,,,
729608373.433673,1.100594,0.084059,53.782216,-0.011337,0.020752,0.986633,0.022021,0.01627,-0.00252,63.770538,21.692184,-147.859177,,,
729608373.436999,1.100594,0.084059,53.782216,-0.011337,0.020752,0.986633,0.022021,0.01627,-0.00252,63.770538,21.692184,-147.859177,,,
729608373.440322,1.10647,0.087792,53.782178,-0.011337,0.020752,0.986633,0.022021,0.01627,-0.00252,64.070892,21.73407,-148.027191,,,
729608373.443648,1.115071,0.091319,53.782371,-0.016098,0.016464,0.99823,0.032787,0.014239,-0.000535,64.070892,21.73407,-148.027191,,,
729608373.446984,1.115071,0.091319,53.782371,-0.016098,0.016464,0.99823,0.032787,0.014239,-0.000535,64.070892,21.73407,-148.027191,,,
729608373.450318,1.124816,0.094788,53.782923,-0.016098,0.016464,0.99823,0.032787,0.014239,-0.000535,64.070892,21.73407,-148.027191,,,
729608373.453643,1.137643,0.097897,53.783402,-0.017303,0.013702,1.000519,0.040256,0.022752,0.000421,64.070892,21.73407,-148.027191,,,
729608373.457031,1.137643,0.097897,53.783402,-0.017303,0.013702,1.000519,0.040256,0.022752,0.000421,64.070892,21.73407,-148.027191,,,
729608373.460316,1.150329,0.104342,53.783987,-0.017303,0.013702,1.000519,0.040256,0.022752,0.000421,64.070892,21.73407,-148.027191,,,
729608373.463645,1.165797,0.109902,53.785766,-0.015823,0.01297,1.000336,0.045861,0.038328,0.00849,64.070892,21.73407,-148.027191,,,
729608373.466992,1.165797,0.109902,53.785766,-0.015823,0.01297,1.000336,0.045861,0.038328,0.00849,64.070892,21.73407,-148.027191,,,
729608373.470368,1.178876,0.119971,53.789219,-0.015823,0.01297,1.000336,0.045861,0.038328,0.00849,64.070892,21.73407,-148.027191,,,
729608373.473638,1.195247,0.127142,53.794314,-0.016022,0.012817,0.99498,0.051394,0.03749,0.020993,64.070892,21.73407,-148.027191,,,
729608373.47699,1.195247,0.127142,53.794314,-0.016022,0.012817,0.99498,0.051394,0.03749,0.020993,64.070892,21.73407,-148.027191,,,
729608373.480317,1.209057,0.136899,53.800576,-0.016022,0.012817,0.99498,0.051394,0.03749,0.020993,64.070892,21.73407,-148.027191,,,
729608373.483646,1.223806,0.140263,53.808854,-0.019104,0.0103,0.988281,0.042972,0.025454,0.031291,63.924728,21.800385,-147.679962,,,
729608373.486977,1.223806,0.140263,53.808854,-0.019104,0.0103,0.988281,0.042972,0.025454,0.031291,63.924728,21.800385,-147.679962,,,
729608373.490319,1.235318,0.145653,53.8183,-0.019104,0.0103,0.988281,0.042972,0.025454,0.031291,63.924728,21.800385,-147.679962,,,
729608373.493641,1.244536,0.146716,53.828467,-0.01506,0.012985,0.979599,0.022132,0.013164,0.03706,63.924728,21.800385,-147.679962,,,
729608373.497064,1.244536,0.146716,53.828467,-0.01506,0.012985,0.979599,0.022132,0.013164,0.03706,63.924728,21.800385,-147.679962,,,
729608373.500307,1.250145,0.148942,53.839109,-0.01506,0.012985,0.979599,0.022132,0.013164,0.03706,63.924728,21.800385,-147.679962,,,
729608373.503642,1.252788,0.149217,53.849513,-0.004852,0.020782,0.978943,0.003565,0.002429,0.035888,63.924728,21.800385,-147.679962,,,
729608373.506981,1.252788,0.149217,53.849513,-0.004852,0.020782,0.978943,0.003565,0.002429,0.035888,63.924728,21.800385,-147.679962,,,
729608373.51038,1.252698,0.148658,53.859386,-0.004852,0.020782,0.978943,0.003565,0.002429,0.035888,63.924728,21.800385,-147.679962,,,
729608373.513634,1.25044,0.148473,53.868594,0.00296,0.023911,0.979401,-0.013099,-0.000648,0.03022,63.924728,21.800385,-147.679962,,,
729608373.51698,1.25044,0.148473,53.868594,0.00296,0.023911,0.979401,-0.013099,-0.000648,0.03022,63.924728,21.800385,-147.679962,,,
729608373.52033,1.246404,0.147539,53.877799,0.00296,0.023911,0.979401,-0.013099,-0.000648,0.03022,63.924728,21.800385,-147.679962,,,
729608373.523638,1.240137,0.150651,53.887092,0.008682,0.019699,0.985138,-0.028941,0.011831,0.030503,63.872955,21.784058,-147.789993,,,
729608373.52698,1.240137,0.150651,53.887092,0.008682,0.019699,0.985138,-0.028941,0.011831,0.030503,63.872955,21.784058,-147.789993,,,
729608373.530324,1.232319,0.152979,53.896415,0.008682,0.019699,0.985138,-0.028941,0.011831,0.030503,63.872955,21.784058,-147.789993,,,
729608373.533642,1.221982,0.160401,53.905963,0.012268,0.017746,0.994171,-0.031441,0.022286,0.031668,63.872955,21.784058,-147.789993,,,
729608373.537025,1.221982,0.160401,53.905963,0.012268,0.017746,0.994171,-0.031441,0.022286,0.031668,63.872955,21.784058,-147.789993,,,
729608373.540311,1.212943,0.165546,53.915429,0.012268,0.017746,0.994171,-0.031441,0.022286,0.031668,63.872955,21.784058,-147.789993,,,
729608373.543645,1.202395,0.174685,53.923815,0.016037,0.017929,0.998718,-0.028822,0.02322,0.021249,63.872955,21.784058,-147.789993,,,
729608373.546991,1.202395,0.174685,53.923815,0.016037,0.017929,0.998718,-0.028822,0.02322,0.021249,63.872955,21.784058,-147.789993,,,
729608373.550371,1.193666,0.180014,53.930653,0.016037,0.017929,0.998718,-0.028822,0.02322,0.021249,63.872955,21.784058,-147.789993,,,
729608373.553633,1.182607,0.187498,53.936026,0.014725,0.023895,0.995926,-0.035846,0.020193,0.013628,63.872955,21.784058,-147.789993,,,
729608373.557048,1.182607,0.187498,53.936026,0.014725,0.023895,0.995926,-0.035846,0.020193,0.013628,63.872955,21.784058,-147.789993,,,
729608373.560321,1.172821,0.191608,53.940354,0.014725,0.023895,0.995926,-0.035846,0.020193,0.013628,63.872955,21.784058,-147.789993,,,
729608373.563646,1.160042,0.199627,53.943333,0.011993,0.021774,0.998932,-0.04101,0.020136,0.00614,64.041489,21.839508,-147.984451,,,
729608373.56698,1.160042,0.199627,53.943333,0.011993,0.021774,0.998932,-0.04101,0.020136,0.00614,64.041489,21.839508,-147.984451,,,
729608373.570334,1.148781,0.203592,53.945617,0.011993,0.021774,0.998932,-0.04101,0.020136,0.00614,64.041489,21.839508,-147.984451,,,
729608373.573644,1.136062,0.210824,53.947301,0.01088,0.018204,1.001526,-0.034435,0.01735,0.004338,64.041489,21.839508,-147.984451,,,
729608373.577033,1.136062,0.210824,53.947301,0.01088,0.018204,1.001526,-0.034435,0.01735,0.004338,64.041489,21.839508,-147.984451,,,
729608373.580331,1.126036,0.21433,53.948482,0.01088,0.018204,1.001526,-0.034435,0.01735,0.004338,64.041489,21.839508,-147.984451,,,
729608373.583639,1.116627,0.220023,53.948739,0.007614,0.015656,1.008286,-0.03062,0.02107,-0.003636,64.041489,21.839508,-147.984451,,,
729608373.586977,1.116627,0.220023,53.948739,0.007614,0.015656,1.008286,-0.03062,0.02107,-0.003636,64.041489,21.839508,-147.984451,,,
729608373.590379,1.108234,0.225635,53.947915,0.007614,0.015656,1.008286,-0.03062,0.02107,-0.003636,64.041489,21.839508,-147.984451,,,
729608373.59363,1.101187,0.231794,53.946387,0.003555,0.016098,1.01358,-0.024825,0.030895,-0.008192,64.041489,21.839508,-147.984451,,,
729608373.59701,1.101187,0.231794,53.946387,0.003555,0.016098,1.01358,-0.024825,0.030895,-0.008192,64.041489,21.839508,-147.984451,,,
729608373.600324,1.093506,0.24065,53.944067,0.003555,0.016098,1.01358,-0.024825,0.030895,-0.008192,64.041489,21.839508,-147.984451,,,
729608373.603635,1.086734,0.249455,53.94107,-0.001633,0.016113,1.012695,-0.023607,0.046528,-0.012332,64.024857,21.702515,-147.769669,,,
729608373.606969,1.086734,0.249455,53.94107,-0.001633,0.016113,1.012695,-0.023607,0.046528,-0.012332,64.024857,21.702515,-147.769669,,,
729608373.610413,1.078826,0.262608,53.93829,-0.001633,0.016113,1.012695,-0.023607,0.046528,-0.012332,64.024857,21.702515,-147.769669,,,
729608373.613659,1.078826,0.262608,53.93829,-0.010437,0.014267,1.009659,-0.030816,0.049671,-0.002116,64.024857,21.702515,-147.769669,,,
729608373.617051,1.070396,0.271653,53.936639,-0.010437,0.014267,1.009659,-0.030816,0.049671,-0.002116,64.024857,21.702515,-147.769669,,,
729608373.620322,1.061025,0.285113,53.936502,-0.010437,0.014267,1.009659,-0.030816,0.049671,-0.002116,64.024857,21.702515,-147.769669,,,
729608373.623646,1.061025,0.293149,53.938445,-0.019989,0.007751,1.001938,-0.035394,0.04062,0.007641,64.024857,21.702515,-147.769669,,,
729608373.626986,1.050527,0.293149,53.938445,-0.019989,0.007751,1.001938,-0.035394,0.04062,0.007641,64.024857,21.702515,-147.769669,,,
729608373.63037,1.040437,0.303958,53.941502,-0.019989,0.007751,1.001938,-0.035394,0.04062,0.007641,64.024857,21.702515,-147.769669,,,
729608373.63364,1.040437,0.306676,53.945464,-0.025574,0.005859,1.001266,-0.028751,0.025184,0.013478,64.024857,21.702515,-147.769669,,,
729608373.636978,1.032101,0.306676,53.945464,-0.025574,0.005859,1.001266,-0.028751,0.025184,0.013478,64.024857,21.702515,-147.769669,,,
729608373.640322,1.02481,0.311669,53.949929,-0.025574,0.005859,1.001266,-0.028751,0.025184,0.013478,64.024857,21.702515,-147.769669,,,
729608373.643647,1.020868,0.30811,53.954435,-0.019897,0.006577,1.005325,-0.012973,-0.002706,0.013975,64.024857,21.702515,-147.769669,,,
729608373.646976,1.020868,0.30811,53.954435,-0.019897,0.006577,1.005325,-0.012973,-0.002706,0.013975,64.15799,21.875793,-147.986755,,,
729608373.650316,1.017421,0.306142,53.958468,-0.019897,0.006577,1.005325,-0.012973,-0.002706,0.013975,64.15799,21.875793,-147.986755,,,
729608373.653636,1.017421,0.306142,53.958468,-0.019897,0.006577,1.005325,-0.012973,-0.002706,0.013975,64.15799,21.875793,-147.986755,,,
729608373.657028,1.01556,0.300106,53.962445,-0.012848,0.007523,1.005493,-0.006751,0.000594,0.012282,64.15799,21.875793,-147.986755,,,
729608373.660316,1.014,0.301131,53.966183,-0.012848,0.007523,1.005493,-0.006751,0.000594,0.012282,64.15799,21.875793,-147.986755,,,
729608373.663663,1.014,0.301131,53.969846,-0.003754,0.0103,1.016479,0.004781,0.029601,0.014237,64.15799,21.875793,-147.986755,,,
729608373.666986,1.013105,0.301843,53.969846,-0.003754,0.0103,1.016479,0.004781,0.029601,0.014237,64.15799,21.875793,-147.986755,,,
729608373.670321,1.014156,0.309833,53.974075,-0.003754,0.0103,1.016479,0.004781,0.029601,0.014237,64.15799,21.875793,-147.986755,,,
729608373.673637,1.014156,0.309833,53.974075,-0.003754,0.0103,1.016479,0.004781,0.029601,0.014237,64.15799,21.875793,-147.986755,,,
729608373.676988,1.016596,0.318655,53.979004,0.005417,0.01268,1.018524,0.013593,0.049545,0.017386,64.15799,21.875793,-147.986755,,,
729608373.6804,1.020231,0.332694,53.984239,0.005417,0.01268,1.018524,0.013593,0.049545,0.017386,64.15799,21.875793,-147.986755,,,
729608373.683635,1.020231,0.332694,53.984239,0.006393,0.015015,1.010132,0.014386,0.061868,0.011605,64.15799,21.875793,-147.986755,,,
729608373.686977,1.023397,0.346447,53.989222,0.006393,0.015015,1.010132,0.014386,0.061868,0.011605,64.380981,21.832275,-147.977081,,,
729608373.690322,1.027178,0.362628,53.992437,0.006393,0.015015,1.010132,0.014386,0.061868,0.011605,64.380981,21.832275,-147.977081,,,
729608373.693714,1.027178,0.362628,53.992437,0.005524,0.0224,1.002792,0.008434,0.04921,-0.004561,64.380981,21.832275,-147.977081,,,
729608373.697015,1.029911,0.378356,53.993196,0.005524,0.0224,1.002792,0.008434,0.04921,-0.004561,64.380981,21.832275,-147.977081,,,
729608373.700362,1.032317,0.390465,53.991965,0.005524,0.0224,1.002792,0.008434,0.04921,-0.004561,64.380981,21.832275,-147.977081,,,
729608373.703707,1.032317,0.390465,53.991965,0.005524,0.0224,1.002792,0.008434,0.04921,-0.004561,64.380981,21.832275,-147.977081,,,
729608373.707072,1.032049,0.40039,53.98963,0.000168,0.02861,0.989136,0.003064,0.018323,-0.010187,64.380981,21.832275,-147.977081,,,
729608373.710318,1.032997,0.403425,53.987033,0.000168,0.02861,0.989136,0.003064,0.018323,-0.010187,64.380981,21.832275,-147.977081,,,
729608373.713662,1.032997,0.403425,53.987033,0.000168,0.02861,0.989136,0.003064,0.018323,-0.010187,64.380981,21.832275,-147.977081,,,
729608373.716976,1.029365,0.405852,53.984234,-0.00882,0.023026,0.984848,-0.007698,-0.018011,-0.012125,64.380981,21.832275,-147.977081,,,
729608373.720405,1.026807,0.398703,53.98127,-0.00882,0.023026,0.984848,-0.007698,-0.018011,-0.012125,64.380981,21.832275,-147.977081,,,
729608373.723646,1.026807,0.398703,53.98127,-0.00882,0.023026,0.984848,-0.007698,-0.018011,-0.012125,64.380981,21.832275,-147.977081,,,
729608373.726984,1.020135,0.390851,53.977425,-0.008179,0.018845,0.984726,-0.013352,-0.045945,-0.017528,64.173492,21.80835,-147.829666,,,
729608373.730261,1.016034,0.376773,53.972492,-0.008179,0.018845,0.984726,-0.013352,-0.045945,-0.017528,64.173492,21.80835,-147.829666,,,
729608373.733731,1.016034,0.376773,53.972492,-0.008179,0.018845,0.984726,-0.013352,-0.045945,-0.017528,64.173492,21.80835,-147.829666,,,
729608373.736986,1.010178,0.363838,53.966766,-0.006027,0.020035,0.99118,-0.011479,-0.050677,-0.023594,64.173492,21.80835,-147.829666,,,
729608373.740315,1.007425,0.348703,53.960644,-0.006027,0.020035,0.99118,-0.011479,-0.050677,-0.023594,64.173492,21.80835,-147.829666,,,
729608373.743705,1.007425,0.348703,53.960644,-0.006027,0.020035,0.99118,-0.011479,-0.050677,-0.023594,64.173492,21.80835,-147.829666,,,
729608373.747031,1.004131,0.335617,53.954504,-0.005341,0.019806,1.001251,0.001599,-0.033701,-0.022938,64.173492,21.80835,-147.829666,,,
729608373.750336,1.005042,0.325249,53.948845,-0.005341,0.019806,1.001251,0.001599,-0.033701,-0.022938,64.173492,21.80835,-147.829666,,,
729608373.75374,1.005042,0.325249,53.948845,-0.005341,0.019806,1.001251,0.001599,-0.033701,-0.022938,64.173492,21.80835,-147.829666,,,
729608373.756981,1.007254,0.315741,53.944475,-0.003159,0.013016,1.009827,0.021701,-0.013979,-0.012628,64.173492,21.80835,-147.829666,,,
729608373.760389,1.012976,0.311502,53.941725,-0.003159,0.013016,1.009827,0.021701,-0.013979,-0.012628,64.173492,21.80835,-147.829666,,,
729608373.763668,1.012976,0.311502,53.941725,-0.003159,0.013016,1.009827,0.021701,-0.013979,-0.012628,64.173492,21.80835,-147.829666,,,
729608373.766973,1.019179,0.306978,53.940074,-0.004318,0.008209,1.008438,0.029357,0.009118,-0.002638,64.146698,21.75264,-147.969711,,,
729608373.770311,1.026822,0.309677,53.939496,-0.004318,0.008209,1.008438,0.029357,0.009118,-0.002638,64.146698,21.75264,-147.969711,,,
729608373.773726,1.026822,0.309677,53.939496,-0.004318,0.008209,1.008438,0.029357,0.009118,-0.002638,64.146698,21.75264,-147.969711,,,
729608373.776977,1.034155,0.313625,53.940244,-0.006485,0.011749,1.005554,0.020859,0.039009,0.00242,64.146698,21.75264,-147.969711,,,
729608373.780311,1.040889,0.323111,53.942153,-0.006485,0.011749,1.005554,0.020859,0.039009,0.00242,64.146698,21.75264,-147.969711,,,
729608373.783676,1.040889,0.323111,53.942153,-0.006485,0.011749,1.005554,0.020859,0.039009,0.00242,64.146698,21.75264,-147.969711,,,
729608373.787054,1.048838,0.331536,53.944422,-0.008453,0.01944,1.000763,0.01816,0.041165,0.007632,64.146698,21.75264,-147.969711,,,
729608373.790293,1.053439,0.341983,53.946564,-0.008453,0.01944,1.000763,0.01816,0.041165,0.007632,64.146698,21.75264,-147.969711,,,
729608373.793711,1.053439,0.341983,53.946564,-0.008453,0.01944,1.000763,0.01816,0.041165,0.007632,64.146698,21.75264,-147.969711,,,
729608373.796985,1.059623,0.350893,53.948876,-0.011887,0.022446,0.995239,0.015456,0.026712,0.003703,64.146698,21.75264,-147.969711,,,
729608373.800305,1.063389,0.35674,53.950527,-0.011887,0.022446,0.995239,0.015456,0.026712,0.003703,64.146698,21.75264,-147.969711,,,
729608373.803722,1.063389,0.35674,53.950527,-0.011887,0.022446,0.995239,0.015456,0.026712,0.003703,64.146698,21.75264,-147.969711,,,
729608373.807039,1.066934,0.359733,53.951437,-0.012329,0.021729,0.99086,0.010592,-0.001354,0.002608,64.146698,21.75264,-147.969711,,,
729608373.810307,1.069793,0.357953,53.952283,-0.012329,0.021729,0.99086,0.010592,-0.001354,0.002608,64.058456,21.619507,-148.118195,,,
729608373.813736,1.069793,0.357953,53.952283,-0.012329,0.021729,0.99086,0.010592,-0.001354,0.002608,64.058456,21.619507,-148.118195,,,
729608373.816985,1.071576,0.352963,53.952438,-0.011414,0.02446,0.987244,0.002659,-0.02354,0.00068,64.058456,21.619507,-148.118195,,,
729608373.820309,1.072262,0.344746,53.952187,-0.011414,0.02446,0.987244,0.002659,-0.02354,0.00068,64.058456,21.619507,-148.118195,,,
729608373.823724,1.072262,0.344746,53.952187,-0.011414,0.02446,0.987244,0.002659,-0.02354,0.00068,64.058456,21.619507,-148.118195,,,
729608373.826964,1.072199,0.334303,53.952271,-0.012711,0.026886,0.982697,-0.006923,-0.040191,-0.0001,64.058456,21.619507,-148.118195,,,
729608373.830314,1.069791,0.322073,53.95229,-0.012711,0.026886,0.982697,-0.006923,-0.040191,-0.0001,64.058456,21.619507,-148.118195,,,
729608373.833653,1.069791,0.322073,53.95229,-0.012711,0.026886,0.982697,-0.006923,-0.040191,-0.0001,64.058456,21.619507,-148.118195,,,
