Time (sec),Pitch (deg),Roll (deg),Yaw(deg),X-Acceleration (g),Y-Acceleration (g),Z-Acceleration (g),Pitch Rate (deg/sec),Roll Rate (deg/sec),Yaw Rate (deg/sec),Magnetic Field in X direction (uT),Magnetic Field in Y direction (uT),Magnetic Field in Z Direction (uT),Latitude (deg),Longitude (deg),Altitude (m)
729609100.458597,-3.704075,-2.046302,57.591832,0.029602,-0.062698,0.998306,0.037612,-0.011991,-0.015976,61.779922,27.38559,-144.878189,,,
729609100.460065,-3.704073,-2.046301,63.61752,0.029602,-0.062698,0.998306,0.037612,-0.011991,-0.015976,61.779922,27.38559,-144.878189,,,
729609100.462296,-3.693448,-2.047459,57.590735,0.026871,-0.065399,0.995453,0.038513,-0.000605,-0.007632,61.779922,27.38559,-144.878189,,,
729609100.463354,-3.693445,-2.047458,63.616423,0.026871,-0.065399,0.995453,0.038513,-0.000605,-0.007632,61.779922,27.38559,-144.878189,,,
729609100.464551,-3.693448,-2.047459,57.590735,0.026871,-0.065399,0.995453,0.038513,-0.000605,-0.007632,61.779922,27.38559,-144.878189,,,
729609100.466612,-3.683131,-2.046457,63.61783,0.026871,-0.065399,0.995453,0.038513,-0.000605,-0.007632,61.710388,27.2034,-144.716522,,,
729609100.468997,-3.683133,-2.046458,57.592142,0.026871,-0.065399,0.995453,0.038513,-0.000605,-0.007632,61.710388,27.2034,-144.716522,,,
729609100.47003,-3.683131,-2.046457,63.61783,0.026871,-0.065399,0.995453,0.038513,-0.000605,-0.007632,61.710388,27.2034,-144.716522,,,
729609100.475056,-3.675249,-2.043258,57.596204,0.021698,-0.070465,0.984161,0.026828,0.014542,0.011714,61.710388,27.2034,-144.716522,,,
729609100.475597,-3.675247,-2.043257,63.621892,0.021698,-0.070465,0.984161,0.026828,0.014542,0.011714,61.710388,27.2034,-144.716522,,,
729609100.476602,-3.670074,-2.036028,63.627186,0.021698,-0.070465,0.984161,0.026828,0.014542,0.011714,61.710388,27.2034,-144.716522,,,
729609100.478407,-3.670076,-2.036029,57.601498,0.021698,-0.070465,0.984161,0.026828,0.014542,0.011714,61.710388,27.2034,-144.716522,,,
729609100.480013,-3.670074,-2.036028,63.627186,0.021698,-0.070465,0.984161,0.026828,0.014542,0.011714,61.710388,27.2034,-144.716522,,,
729609100.481242,-3.670076,-2.036029,57.601498,0.021698,-0.070465,0.984161,0.026828,0.014542,0.011714,61.710388,27.2034,-144.716522,,,
729609100.483313,-3.667176,-2.026148,63.632316,0.027222,-0.068298,0.981628,0.010215,0.036105,0.016123,61.710388,27.2034,-144.716522,,,
729609100.485961,-3.667178,-2.026149,57.606628,0.027222,-0.068298,0.981628,0.010215,0.036105,0.016123,61.710388,27.2034,-144.716522,,,
729609100.486711,-3.666461,-2.012195,63.636758,0.027222,-0.068298,0.981628,0.010215,0.036105,0.016123,61.710388,27.2034,-144.716522,,,
729609100.48823,-3.666463,-2.012195,57.611069,0.027222,-0.068298,0.981628,0.010215,0.036105,0.016123,61.710388,27.2034,-144.716522,,,
729609100.490019,-3.666461,-2.012195,63.636758,0.027222,-0.068298,0.981628,0.010215,0.036105,0.016123,61.710388,27.2034,-144.716522,,,
729609100.491306,-3.666463,-2.012195,57.611069,0.027222,-0.068298,0.981628,0.010215,0.036105,0.016123,61.710388,27.2034,-144.716522,,,
729609100.493392,-3.668494,-1.996228,63.640111,0.036133,-0.059402,0.984344,-0.006745,0.058721,0.013524,61.710388,27.2034,-144.716522,,,
729609100.496966,-3.668496,-1.996229,57.614423,0.036133,-0.059402,0.984344,-0.006745,0.058721,0.013524,61.710388,27.2034,-144.716522,,,
729609100.497241,-3.672944,-1.979067,63.642745,0.036133,-0.059402,0.984344,-0.006745,0.058721,0.013524,61.710388,27.2034,-144.716522,,,
729609100.498394,-3.672946,-1.979068,57.617058,0.036133,-0.059402,0.984344,-0.006745,0.058721,0.013524,61.710388,27.2034,-144.716522,,,
729609100.499933,-3.672944,-1.979067,63.642745,0.036133,-0.059402,0.984344,-0.006745,0.058721,0.013524,61.710388,27.2034,-144.716522,,,
729609100.501897,-3.672946,-1.979068,57.617058,0.036133,-0.059402,0.984344,-0.021497,0.058435,0.004278,61.710388,27.2034,-144.716522,,,
729609100.503368,-3.679372,-1.963505,63.644561,0.036224,-0.054718,0.980911,-0.021497,0.058435,0.004278,61.710388,27.2034,-144.716522,,,
729609100.505534,-3.679374,-1.963506,57.618872,0.036224,-0.054718,0.980911,-0.021497,0.058435,0.004278,61.710388,27.2034,-144.716522,,,
729609100.506792,-3.687758,-1.949351,63.645481,0.036224,-0.054718,0.980911,-0.021497,0.058435,0.004278,61.684677,27.311539,-145.016296,,,
729609100.509168,-3.68776,-1.949352,57.619792,0.036224,-0.054718,0.980911,-0.021497,0.058435,0.004278,61.684677,27.311539,-145.016296,,,
729609100.510129,-3.687758,-1.949351,63.645481,0.036224,-0.054718,0.980911,-0.021497,0.058435,0.004278,61.684677,27.311539,-145.016296,,,
729609100.511317,-3.68776,-1.949352,57.619792,0.036224,-0.054718,0.980911,-0.021497,0.058435,0.004278,61.684677,27.311539,-145.016296,,,
729609100.513438,-3.696382,-1.938578,63.645738,0.037903,-0.052536,0.975281,-0.031566,0.041118,-0.000321,61.684677,27.311539,-145.016296,,,
729609100.516923,-3.696384,-1.938579,57.62005,0.037903,-0.052536,0.975281,-0.031566,0.041118,-0.000321,61.684677,27.311539,-145.016296,,,
729609100.517193,-3.705691,-1.930864,63.645601,0.037903,-0.052536,0.975281,-0.031566,0.041118,-0.000321,61.684677,27.311539,-145.016296,,,
729609100.518505,-3.705693,-1.930865,57.619913,0.037903,-0.052536,0.975281,-0.031566,0.041118,-0.000321,61.684677,27.311539,-145.016296,,,
729609100.520049,-3.705691,-1.930864,63.645601,0.037903,-0.052536,0.975281,-0.031566,0.041118,-0.000321,61.684677,27.311539,-145.016296,,,
729609100.52125,-3.705693,-1.930865,57.619913,0.037903,-0.052536,0.975281,-0.031566,0.041118,-0.000321,61.684677,27.311539,-145.016296,,,
729609100.523355,-3.716175,-1.928297,63.64535,0.041519,-0.056564,0.978897,-0.03681,0.011443,-0.004565,61.684677,27.311539,-145.016296,,,
729609100.525558,-3.716177,-1.928298,57.619662,0.041519,-0.056564,0.978897,-0.03681,0.011443,-0.004565,61.684677,27.311539,-145.016296,,,
729609100.526775,-3.727817,-1.930793,63.644711,0.041519,-0.056564,0.978897,-0.03681,0.011443,-0.004565,61.684677,27.311539,-145.016296,,,
729609100.528214,-3.727819,-1.930794,57.619022,0.041519,-0.056564,0.978897,-0.03681,0.011443,-0.004565,61.684677,27.311539,-145.016296,,,
729609100.530024,-3.727817,-1.930793,63.644711,0.041519,-0.056564,0.978897,-0.03681,0.011443,-0.004565,61.684677,27.311539,-145.016296,,,
729609100.531233,-3.727819,-1.930794,57.619022,0.041519,-0.056564,0.978897,-0.03681,0.011443,-0.004565,61.684677,27.311539,-145.016296,,,
729609100.533275,-3.740336,-1.939311,63.643314,0.043198,-0.059265,0.978027,-0.044091,-0.026885,-0.004863,61.684677,27.311539,-145.016296,,,
729609100.536568,-3.740338,-1.939312,57.617626,0.043198,-0.059265,0.978027,-0.044091,-0.026885,-0.004863,61.684677,27.311539,-145.016296,,,
729609100.536836,-3.753562,-1.9527,63.641635,0.043198,-0.059265,0.978027,-0.044091,-0.026885,-0.004863,61.684677,27.311539,-145.016296,,,
729609100.538642,-3.753564,-1.952701,57.615947,0.043198,-0.059265,0.978027,-0.044091,-0.026885,-0.004863,61.684677,27.311539,-145.016296,,,
729609100.540044,-3.753562,-1.9527,63.641635,0.043198,-0.059265,0.978027,-0.044091,-0.026885,-0.004863,61.684677,27.311539,-145.016296,,,
729609100.541222,-3.753564,-1.952701,57.615947,0.043198,-0.059265,0.978027,-0.044091,-0.026885,-0.004863,61.684677,27.311539,-145.016296,,,
729609100.543487,-3.766501,-1.970195,63.639709,0.041168,-0.059799,0.979355,-0.045694,-0.059533,-0.005889,61.684677,27.311539,-145.016296,,,
729609100.546166,-3.766504,-1.970195,57.614021,0.041168,-0.059799,0.979355,-0.045694,-0.059533,-0.005889,61.684677,27.311539,-145.016296,,,
729609100.546723,-3.777722,-1.98956,63.637913,0.041168,-0.059799,0.979355,-0.045694,-0.059533,-0.005889,61.684677,27.311539,-145.016296,,,
729609100.549105,-3.777724,-1.98956,57.612224,0.041168,-0.059799,0.979355,-0.045694,-0.059533,-0.005889,61.741257,27.384613,-144.843079,,,
729609100.549955,-3.777722,-1.98956,63.637913,0.041168,-0.059799,0.979355,-0.045694,-0.059533,-0.005889,61.741257,27.384613,-144.843079,,,
729609100.551352,-3.777724,-1.98956,57.612224,0.041168,-0.059799,0.979355,-0.045694,-0.059533,-0.005889,61.741257,27.384613,-144.843079,,,
729609100.553344,-3.785794,-2.009145,63.636643,0.041794,-0.064209,0.994736,-0.028361,-0.065454,-0.005734,61.741257,27.384613,-144.843079,,,
729609100.556035,-3.785796,-2.009145,57.610955,0.041794,-0.064209,0.994736,-0.028361,-0.065454,-0.005734,61.741257,27.384613,-144.843079,,,
729609100.556692,-3.791398,-2.025082,63.63642,0.041794,-0.064209,0.994736,-0.028361,-0.065454,-0.005734,61.741257,27.384613,-144.843079,,,
729609100.558216,-3.791401,-2.025083,57.610732,0.041794,-0.064209,0.994736,-0.028361,-0.065454,-0.005734,61.741257,27.384613,-144.843079,,,
729609100.560094,-3.791398,-2.025082,63.63642,0.041794,-0.064209,0.994736,-0.028361,-0.065454,-0.005734,61.741257,27.384613,-144.843079,,,
729609100.561279,-3.791401,-2.025083,57.610732,0.041794,-0.064209,0.994736,-0.028361,-0.065454,-0.005734,61.741257,27.384613,-144.843079,,,
729609100.563448,-3.795799,-2.036607,63.636801,0.038818,-0.069016,1.017654,-0.014792,-0.038418,0.000697,61.741257,27.384613,-144.843079,,,
729609100.567359,-3.795801,-2.036608,57.611113,0.038818,-0.069016,1.017654,-0.014792,-0.038418,0.000697,61.741257,27.384613,-144.843079,,,
729609100.567849,-3.800032,-2.041001,63.636637,0.038818,-0.069016,1.017654,-0.014792,-0.038418,0.000697,61.741257,27.384613,-144.843079,,,
729609100.568108,-3.800034,-2.041002,57.610949,0.038818,-0.069016,1.017654,-0.014792,-0.038418,0.000697,61.741257,27.384613,-144.843079,,,
729609100.56996,-3.800032,-2.041001,63.636637,0.038818,-0.069016,1.017654,-0.014792,-0.038418,0.000697,61.741257,27.384613,-144.843079,,,
729609100.57128,-3.800034,-2.041002,57.610949,0.038818,-0.069016,1.017654,-0.014792,-0.038418,0.000697,61.741257,27.384613,-144.843079,,,
729609100.573399,-3.804518,-2.037564,63.635555,0.041107,-0.072571,1.022568,-0.01965,0.014493,-0.005531,61.741257,27.384613,-144.843079,,,
729609100.57734,-3.80452,-2.037565,57.609867,0.041107,-0.072571,1.022568,-0.01965,0.014493,-0.005531,61.741257,27.384613,-144.843079,,,
729609100.577621,-3.809565,-2.027083,63.634106,0.041107,-0.072571,1.022568,-0.01965,0.014493,-0.005531,61.741257,27.384613,-144.843079,,,
729609100.578591,-3.809567,-2.027084,57.608419,0.041107,-0.072571,1.022568,-0.01965,0.014493,-0.005531,61.741257,27.384613,-144.843079,,,
729609100.580056,-3.809565,-2.027083,63.634106,0.041107,-0.072571,1.022568,-0.01965,0.014493,-0.005531,61.741257,27.384613,-144.843079,,,
729609100.581275,-3.809567,-2.027084,57.608419,0.041107,-0.072571,1.022568,-0.01965,0.014493,-0.005531,61.741257,27.384613,-144.843079,,,
729609100.583291,-3.816684,-2.010353,63.632205,0.044327,-0.068253,1.015152,-0.02609,0.061341,-0.010011,61.741257,27.384613,-144.843079,,,
729609100.58563,-3.816686,-2.010354,57.606517,0.044327,-0.068253,1.015152,-0.02609,0.061341,-0.010011,61.741257,27.384613,-144.843079,,,
729609100.586684,-3.824847,-1.988926,63.629851,0.044327,-0.068253,1.015152,-0.02609,0.061341,-0.010011,61.741257,27.384613,-144.843079,,,
729609100.589126,-3.824849,-1.988927,57.604162,0.044327,-0.068253,1.015152,-0.02609,0.061341,-0.010011,61.606613,27.589767,-144.890854,,,
729609100.59003,-3.824847,-1.988926,63.629851,0.044327,-0.068253,1.015152,-0.02609,0.061341,-0.010011,61.606613,27.589767,-144.890854,,,
729609100.591279,-3.824849,-1.988927,57.604162,0.044327,-0.068253,1.015152,-0.02609,0.061341,-0.010011,61.606613,27.589767,-144.890854,,,
729609100.593407,-3.83481,-1.964626,63.627335,0.043182,-0.06572,1.01149,-0.037411,0.090591,-0.01068,61.606613,27.589767,-144.890854,,,
729609100.595792,-3.834813,-1.964627,57.601647,0.043182,-0.06572,1.01149,-0.037411,0.090591,-0.01068,61.606613,27.589767,-144.890854,,,
729609100.596722,-3.844319,-1.940037,63.623817,0.043182,-0.06572,1.01149,-0.037411,0.090591,-0.01068,61.606613,27.589767,-144.890854,,,
729609100.598511,-3.844321,-1.940038,57.598129,0.043182,-0.06572,1.01149,-0.037411,0.090591,-0.01068,61.606613,27.589767,-144.890854,,,
729609100.599949,-3.844319,-1.940037,63.623817,0.043182,-0.06572,1.01149,-0.037411,0.090591,-0.01068,61.606613,27.589767,-144.890854,,,
729609100.601318,-3.844321,-1.940038,57.598129,0.043182,-0.06572,1.01149,-0.037411,0.090591,-0.01068,61.606613,27.589767,-144.890854,,,
729609100.603369,-3.854962,-1.915453,63.618547,0.041199,-0.063202,1.009094,-0.034547,0.09235,-0.018765,61.606613,27.589767,-144.890854,,,
729609100.606238,-3.854964,-1.915453,57.592859,0.041199,-0.063202,1.009094,-0.034547,0.09235,-0.018765,61.606613,27.589767,-144.890854,,,
729609100.606708,-3.864243,-1.893498,63.611517,0.041199,-0.063202,1.009094,-0.034547,0.09235,-0.018765,61.606613,27.589767,-144.890854,,,
729609100.608636,-3.864245,-1.893499,57.585829,0.041199,-0.063202,1.009094,-0.034547,0.09235,-0.018765,61.606613,27.589767,-144.890854,,,
729609100.610143,-3.864243,-1.893498,63.611517,0.041199,-0.063202,1.009094,-0.034547,0.09235,-0.018765,61.606613,27.589767,-144.890854,,,
729609100.611274,-3.864245,-1.893499,57.585829,0.041199,-0.063202,1.009094,-0.034547,0.09235,-0.018765,61.606613,27.589767,-144.890854,,,
729609100.613451,-3.874568,-1.873801,63.602652,0.041,-0.061142,1.00499,-0.038807,0.072976,-0.033246,61.606613,27.589767,-144.890854,,,
729609100.61629,-3.87457,-1.873802,57.576964,0.041,-0.061142,1.00499,-0.038807,0.072976,-0.033246,61.606613,27.589767,-144.890854,,,
729609100.616642,-3.885191,-1.859082,63.592199,0.041,-0.061142,1.00499,-0.038807,0.072976,-0.033246,61.606613,27.589767,-144.890854,,,
729609100.618743,-3.885193,-1.859083,57.566511,0.041,-0.061142,1.00499,-0.038807,0.072976,-0.033246,61.606613,27.589767,-144.890854,,,
729609100.620013,-3.885191,-1.859082,63.592199,0.041,-0.061142,1.00499,-0.038807,0.072976,-0.033246,61.606613,27.589767,-144.890854,,,
729609100.621272,-3.885193,-1.859083,57.566511,0.041,-0.061142,1.00499,-0.038807,0.072976,-0.033246,61.606613,27.589767,-144.890854,,,
729609100.623373,-3.896106,-1.848976,63.581627,0.035934,-0.061722,0.997131,-0.04078,0.040314,-0.036409,61.606613,27.589767,-144.890854,,,
729609100.626003,-3.896108,-1.848977,57.555939,0.035934,-0.061722,0.997131,-0.04078,0.040314,-0.036409,61.606613,27.589767,-144.890854,,,
729609100.626789,-3.905017,-1.845189,63.571443,0.035934,-0.061722,0.997131,-0.04078,0.040314,-0.036409,61.606613,27.589767,-144.890854,,,
729609100.628433,-3.905019,-1.845189,57.545755,0.035934,-0.061722,0.997131,-0.04078,0.040314,-0.036409,61.606613,27.589767,-144.890854,,,
729609100.630026,-3.905017,-1.845189,63.571443,0.035934,-0.061722,0.997131,-0.04078,0.040314,-0.036409,61.998978,27.472672,-145.108032,,,
729609100.632025,-3.905019,-1.845189,57.545755,0.035934,-0.061722,0.997131,-0.04078,0.040314,-0.036409,61.998978,27.472672,-145.108032,,,
729609100.633285,-3.91165,-1.84709,63.562245,0.02681,-0.066391,0.995148,-0.022242,-0.002102,-0.032109,61.998978,27.472672,-145.108032,,,
729609100.637218,-3.911652,-1.847091,57.536557,0.02681,-0.066391,0.995148,-0.022242,-0.002102,-0.032109,61.998978,27.472672,-145.108032,,,
729609100.637519,-3.91575,-1.855647,63.554185,0.02681,-0.066391,0.995148,-0.022242,-0.002102,-0.032109,61.998978,27.472672,-145.108032,,,
729609100.638778,-3.915752,-1.855648,57.528497,0.02681,-0.066391,0.995148,-0.022242,-0.002102,-0.032109,61.998978,27.472672,-145.108032,,,
729609100.640118,-3.91575,-1.855647,63.554185,0.02681,-0.066391,0.995148,-0.022242,-0.002102,-0.032109,61.998978,27.472672,-145.108032,,,
729609100.641385,-3.915752,-1.855648,57.528497,0.02681,-0.066391,0.995148,-0.022242,-0.002102,-0.032109,61.998978,27.472672,-145.108032,,,
729609100.643444,-3.918183,-1.868201,63.547502,0.020126,-0.074387,1.001831,-0.006452,-0.041113,-0.023344,61.998978,27.472672,-145.108032,,,
729609100.64597,-3.918185,-1.868202,57.521814,0.020126,-0.074387,1.001831,-0.006452,-0.041113,-0.023344,61.998978,27.472672,-145.108032,,,
729609100.646714,-3.918682,-1.884976,63.542849,0.020126,-0.074387,1.001831,-0.006452,-0.041113,-0.023344,61.998978,27.472672,-145.108032,,,
729609100.648232,-3.918684,-1.884977,57.517161,0.020126,-0.074387,1.001831,-0.006452,-0.041113,-0.023344,61.998978,27.472672,-145.108032,,,
729609100.649965,-3.918682,-1.884976,63.542849,0.020126,-0.074387,1.001831,-0.006452,-0.041113,-0.023344,61.998978,27.472672,-145.108032,,,
729609100.651363,-3.918684,-1.884977,57.517161,0.020126,-0.074387,1.001831,-0.006452,-0.041113,-0.023344,61.998978,27.472672,-145.108032,,,
729609100.653335,-3.918005,-1.903735,63.540238,0.016418,-0.077606,1.001923,0.003354,-0.063757,-0.013433,61.998978,27.472672,-145.108032,,,
729609100.657174,-3.918007,-1.903735,57.51455,0.016418,-0.077606,1.001923,0.003354,-0.063757,-0.013433,61.998978,27.472672,-145.108032,,,
729609100.657656,-3.916368,-1.923965,63.539126,0.016418,-0.077606,1.001923,0.003354,-0.063757,-0.013433,61.998978,27.472672,-145.108032,,,
729609100.658317,-3.91637,-1.923965,57.513438,0.016418,-0.077606,1.001923,0.003354,-0.063757,-0.013433,61.998978,27.472672,-145.108032,,,
729609100.660092,-3.916368,-1.923965,63.539126,0.016418,-0.077606,1.001923,0.003354,-0.063757,-0.013433,61.998978,27.472672,-145.108032,,,
729609100.661232,-3.91637,-1.923965,57.513438,0.016418,-0.077606,1.001923,0.003354,-0.063757,-0.013433,61.998978,27.472672,-145.108032,,,
729609100.663432,-3.913054,-1.943073,63.539431,0.014969,-0.077469,0.997772,0.012744,-0.067127,-0.002207,61.998978,27.472672,-145.108032,,,
729609100.665967,-3.913056,-1.943074,57.513743,0.014969,-0.077469,0.997772,0.012744,-0.067127,-0.002207,61.998978,27.472672,-145.108032,,,
729609100.666621,-3.907767,-1.96056,63.540902,0.014969,-0.077469,0.997772,0.012744,-0.067127,-0.002207,61.998978,27.472672,-145.108032,,,
729609100.668691,-3.90777,-1.960561,57.515214,0.014969,-0.077469,0.997772,0.012744,-0.067127,-0.002207,61.998978,27.472672,-145.108032,,,
729609100.670042,-3.907767,-1.96056,63.540902,0.014969,-0.077469,0.997772,0.012744,-0.067127,-0.002207,61.803192,27.418015,-145.004471,,,
729609100.671976,-3.90777,-1.960561,57.515214,0.014969,-0.077469,0.997772,0.012744,-0.067127,-0.002207,61.803192,27.418015,-145.004471,,,
729609100.673367,-3.90054,-1.973299,63.542972,0.017914,-0.070877,1.006989,0.028154,-0.042746,0.005098,61.803192,27.418015,-145.004471,,,
729609100.677518,-3.900543,-1.9733,57.517284,0.017914,-0.070877,1.006989,0.028154,-0.042746,0.005098,61.803192,27.418015,-145.004471,,,
729609100.677812,-3.890723,-1.981062,63.544692,0.017914,-0.070877,1.006989,0.028154,-0.042746,0.005098,61.803192,27.418015,-145.004471,,,
729609100.680018,-3.890723,-1.981062,63.544692,0.017914,-0.070877,1.006989,0.028154,-0.042746,0.005098,61.803192,27.418015,-145.004471,,,
729609100.683802,-3.890725,-1.981062,57.519003,0.027161,-0.067459,1.017975,0.041263,-0.002031,-0.00235,61.803192,27.418015,-145.004471,,,
729609100.684091,-3.879372,-1.98266,63.545728,0.027161,-0.067459,1.017975,0.041263,-0.002031,-0.00235,61.803192,27.418015,-145.004471,,,
729609100.684798,-3.879374,-1.98266,57.52004,0.027161,-0.067459,1.017975,0.041263,-0.002031,-0.00235,61.803192,27.418015,-145.004471,,,
729609100.686723,-3.866311,-1.980188,63.54554,0.027161,-0.067459,1.017975,0.041263,-0.002031,-0.00235,61.803192,27.418015,-145.004471,,,
729609100.688227,-3.866313,-1.980188,57.519852,0.027161,-0.067459,1.017975,0.041263,-0.002031,-0.00235,61.803192,27.418015,-145.004471,,,
729609100.690028,-3.866311,-1.980188,63.54554,0.027161,-0.067459,1.017975,0.041263,-0.002031,-0.00235,61.803192,27.418015,-145.004471,,,
729609100.691233,-3.866313,-1.980188,57.519852,0.027161,-0.067459,1.017975,0.041263,-0.002031,-0.00235,61.803192,27.418015,-145.004471,,,
729609100.6934,-3.854963,-1.974005,63.544743,0.034073,-0.059677,1.014282,0.037548,0.024207,-0.005012,61.803192,27.418015,-145.004471,,,
729609100.696839,-3.854966,-1.974006,57.519056,0.034073,-0.059677,1.014282,0.037548,0.024207,-0.005012,61.803192,27.418015,-145.004471,,,
729609100.697098,-3.846476,-1.966491,63.543637,0.034073,-0.059677,1.014282,0.037548,0.024207,-0.005012,61.803192,27.418015,-145.004471,,,
729609100.697848,-3.846478,-1.966492,57.51795,0.034073,-0.059677,1.014282,0.037548,0.024207,-0.005012,61.803192,27.418015,-145.004471,,,
729609100.699982,-3.846476,-1.966491,63.543637,0.034073,-0.059677,1.014282,0.037548,0.024207,-0.005012,61.803192,27.418015,-145.004471,,,
729609100.701263,-3.846478,-1.966492,57.51795,0.034073,-0.059677,1.014282,0.037548,0.024207,-0.005012,61.803192,27.418015,-145.004471,,,
729609100.703352,-3.84261,-1.95727,63.541767,0.034744,-0.055481,0.99057,0.011879,0.033411,-0.01036,61.803192,27.418015,-145.004471,,,
729609100.706008,-3.842612,-1.957271,57.51608,0.034744,-0.055481,0.99057,0.011879,0.033411,-0.01036,61.803192,27.418015,-145.004471,,,
729609100.706727,-3.843355,-1.947183,63.538953,0.034744,-0.055481,0.99057,0.011879,0.033411,-0.01036,61.803192,27.418015,-145.004471,,,
729609100.708479,-3.843357,-1.947183,57.513266,0.034744,-0.055481,0.99057,0.011879,0.033411,-0.01036,61.803192,27.418015,-145.004471,,,
729609100.710166,-3.843355,-1.947183,63.538953,0.034744,-0.055481,0.99057,0.011879,0.033411,-0.01036,61.803192,27.418015,-145.004471,,,
729609100.711816,-3.843357,-1.947183,57.513266,0.034744,-0.055481,0.99057,0.011879,0.033411,-0.01036,61.797958,27.456451,-144.965317,,,
729609100.713362,-3.848264,-1.93839,63.535146,0.037369,-0.047867,0.973389,-0.018361,0.033587,-0.012806,61.797958,27.456451,-144.965317,,,
729609100.717254,-3.848266,-1.93839,57.509459,0.037369,-0.047867,0.973389,-0.018361,0.033587,-0.012806,61.797958,27.456451,-144.965317,,,
729609100.717536,-3.856677,-1.930259,63.530835,0.037369,-0.047867,0.973389,-0.018361,0.033587,-0.012806,61.797958,27.456451,-144.965317,,,
729609100.718477,-3.856679,-1.93026,57.505147,0.037369,-0.047867,0.973389,-0.018361,0.033587,-0.012806,61.797958,27.456451,-144.965317,,,
729609100.72005,-3.856677,-1.930259,63.530835,0.037369,-0.047867,0.973389,-0.018361,0.033587,-0.012806,61.797958,27.456451,-144.965317,,,
729609100.721223,-3.856679,-1.93026,57.505147,0.037369,-0.047867,0.973389,-0.018361,0.033587,-0.012806,61.797958,27.456451,-144.965317,,,
729609100.723372,-3.868127,-1.924871,63.525963,0.033661,-0.044601,0.970032,-0.040065,0.020451,-0.017231,61.797958,27.456451,-144.965317,,,
729609100.726464,-3.86813,-1.924872,57.500276,0.033661,-0.044601,0.970032,-0.040065,0.020451,-0.017231,61.797958,27.456451,-144.965317,,,
729609100.726741,-3.882521,-1.920676,63.52124,0.033661,-0.044601,0.970032,-0.040065,0.020451,-0.017231,61.797958,27.456451,-144.965317,,,
729609100.728229,-3.882523,-1.920677,57.495552,0.033661,-0.044601,0.970032,-0.040065,0.020451,-0.017231,61.797958,27.456451,-144.965317,,,
729609100.730054,-3.882521,-1.920676,63.52124,0.033661,-0.044601,0.970032,-0.040065,0.020451,-0.017231,61.797958,27.456451,-144.965317,,,
729609100.731213,-3.882523,-1.920677,57.495552,0.033661,-0.044601,0.970032,-0.040065,0.020451,-0.017231,61.797958,27.456451,-144.965317,,,
729609100.733291,-3.896764,-1.919238,63.517382,0.026733,-0.049057,0.972412,-0.055491,0.007124,-0.01291,61.797958,27.456451,-144.965317,,,
729609100.736098,-3.896766,-1.919239,57.491694,0.026733,-0.049057,0.972412,-0.055491,0.007124,-0.01291,61.797958,27.456451,-144.965317,,,
729609100.736783,-3.896764,-1.919238,63.517382,0.026733,-0.049057,0.972412,-0.055491,0.007124,-0.01291,61.797958,27.456451,-144.965317,,,
729609100.738276,-3.91061,-1.917397,57.488706,0.026733,-0.049057,0.972412,-0.055491,0.007124,-0.01291,61.797958,27.456451,-144.965317,,,
729609100.740033,-3.910608,-1.917396,63.514394,0.026733,-0.049057,0.972412,-0.055491,0.007124,-0.01291,61.797958,27.456451,-144.965317,,,
729609100.741229,-3.91061,-1.917397,57.488706,0.026733,-0.049057,0.972412,-0.055491,0.007124,-0.01291,61.797958,27.456451,-144.965317,,,
729609100.743448,-3.922166,-1.917803,63.512002,0.020645,-0.059174,0.985153,-0.039015,0.001244,-0.007509,61.797958,27.456451,-144.965317,,,
729609100.745965,-3.922168,-1.917804,57.486314,0.020645,-0.059174,0.985153,-0.039015,0.001244,-0.007509,61.797958,27.456451,-144.965317,,,
729609100.746698,-3.922166,-1.917803,63.512002,0.020645,-0.059174,0.985153,-0.039015,0.001244,-0.007509,61.797958,27.456451,-144.965317,,,
729609100.748282,-3.93246,-1.918183,57.485079,0.020645,-0.059174,0.985153,-0.039015,0.001244,-0.007509,61.797958,27.456451,-144.965317,,,
729609100.750024,-3.932458,-1.918182,63.510767,0.020645,-0.059174,0.985153,-0.039015,0.001244,-0.007509,61.797958,27.456451,-144.965317,,,
729609100.751287,-3.93246,-1.918183,57.485079,0.020645,-0.059174,0.985153,-0.039015,0.001244,-0.007509,61.797958,27.456451,-144.965317,,,
729609100.753351,-3.940151,-1.921156,63.510305,0.016785,-0.069595,0.998749,-0.024914,-0.006138,-0.003969,61.812119,27.484695,-144.457169,,,
729609100.757959,-3.940153,-1.921156,57.484617,0.016785,-0.069595,0.998749,-0.024914,-0.006138,-0.003969,61.812119,27.484695,-144.457169,,,
729609100.758436,-3.945005,-1.925368,63.510686,0.016785,-0.069595,0.998749,-0.024914,-0.006138,-0.003969,61.812119,27.484695,-144.457169,,,
729609100.759997,-3.945005,-1.925368,63.510686,0.016785,-0.069595,0.998749,-0.024914,-0.006138,-0.003969,61.812119,27.484695,-144.457169,,,
729609100.763863,-3.945007,-1.925369,57.484998,0.018372,-0.076981,0.999573,-0.005985,-0.021199,0.000713,61.812119,27.484695,-144.457169,,,
729609100.76415,-3.946701,-1.932083,63.511888,0.018372,-0.076981,0.999573,-0.005985,-0.021199,0.000713,61.812119,27.484695,-144.457169,,,
729609100.764714,-3.946703,-1.932084,57.4862,0.018372,-0.076981,0.999573,-0.005985,-0.021199,0.000713,61.812119,27.484695,-144.457169,,,
729609100.766648,-3.946701,-1.932083,63.511888,0.018372,-0.076981,0.999573,-0.005985,-0.021199,0.000713,61.812119,27.484695,-144.457169,,,
729609100.768635,-3.944891,-1.938933,57.487693,0.018372,-0.076981,0.999573,-0.005985,-0.021199,0.000713,61.812119,27.484695,-144.457169,,,
729609100.770029,-3.944889,-1.938932,63.513381,0.018372,-0.076981,0.999573,-0.005985,-0.021199,0.000713,61.812119,27.484695,-144.457169,,,
729609100.771222,-3.944891,-1.938933,57.487693,0.018372,-0.076981,0.999573,-0.005985,-0.021199,0.000713,61.812119,27.484695,-144.457169,,,
729609100.773428,-3.940832,-1.946239,63.514537,0.023193,-0.078445,1.005432,0.014651,-0.024711,0.001448,61.812119,27.484695,-144.457169,,,
729609100.776593,-3.940834,-1.946239,57.488849,0.023193,-0.078445,1.005432,0.014651,-0.024711,0.001448,61.812119,27.484695,-144.457169,,,
729609100.776869,-3.940832,-1.946239,63.514537,0.023193,-0.078445,1.005432,0.014651,-0.024711,0.001448,61.812119,27.484695,-144.457169,,,
729609100.77826,-3.934239,-1.95327,57.489569,0.023193,-0.078445,1.005432,0.014651,-0.024711,0.001448,61.812119,27.484695,-144.457169,,,
729609100.780049,-3.934237,-1.953269,63.515257,0.023193,-0.078445,1.005432,0.014651,-0.024711,0.001448,61.812119,27.484695,-144.457169,,,
729609100.781217,-3.934239,-1.95327,57.489569,0.023193,-0.078445,1.005432,0.014651,-0.024711,0.001448,61.812119,27.484695,-144.457169,,,
729609100.783287,-3.92805,-1.959166,63.515852,0.029022,-0.07637,1.007446,0.022698,-0.019366,-0.00096,61.812119,27.484695,-144.457169,,,
729609100.786693,-3.928052,-1.959167,57.490163,0.029022,-0.07637,1.007446,0.022698,-0.019366,-0.00096,61.812119,27.484695,-144.457169,,,
729609100.786964,-3.921513,-1.964595,63.516462,0.029022,-0.07637,1.007446,0.022698,-0.019366,-0.00096,61.812119,27.484695,-144.457169,,,
729609100.78824,-3.921515,-1.964596,57.490774,0.029022,-0.07637,1.007446,0.022698,-0.019366,-0.00096,61.812119,27.484695,-144.457169,,,
729609100.790029,-3.921513,-1.964595,63.516462,0.029022,-0.07637,1.007446,0.022698,-0.019366,-0.00096,61.812119,27.484695,-144.457169,,,
729609100.791228,-3.921515,-1.964596,57.490774,0.029022,-0.07637,1.007446,0.022698,-0.019366,-0.00096,61.812119,27.484695,-144.457169,,,
729609100.793448,-3.917954,-1.968899,63.516939,0.030197,-0.072937,0.999268,0.014975,-0.010264,0.000273,61.760391,27.402832,-144.377304,,,
729609100.797486,-3.917956,-1.9689,57.49125,0.030197,-0.072937,0.999268,0.014975,-0.010264,0.000273,61.760391,27.402832,-144.377304,,,
729609100.797769,-3.914834,-1.971376,63.517132,0.030197,-0.072937,0.999268,0.014975,-0.010264,0.000273,61.760391,27.402832,-144.377304,,,
729609100.799988,-3.914834,-1.971376,63.517132,0.030197,-0.072937,0.999268,0.014975,-0.010264,0.000273,61.760391,27.402832,-144.377304,,,
729609100.801836,-3.914836,-1.971377,57.491444,0.030197,-0.072937,0.999268,0.014975,-0.010264,0.000273,61.760391,27.402832,-144.377304,,,
729609100.803388,-3.915042,-1.969764,63.517001,0.032257,-0.06839,0.99202,0.001916,0.007513,-0.00163,61.760391,27.402832,-144.377304,,,
729609100.807818,-3.915044,-1.969764,57.491313,0.032257,-0.06839,0.99202,0.001916,0.007513,-0.00163,61.760391,27.402832,-144.377304,,,
729609100.80835,-3.915818,-1.963193,63.516675,0.032257,-0.06839,0.99202,0.001916,0.007513,-0.00163,61.760391,27.402832,-144.377304,,,
729609100.810095,-3.915818,-1.963193,63.516675,0.032257,-0.06839,0.99202,0.001916,0.007513,-0.00163,61.760391,27.402832,-144.377304,,,
729609100.811754,-3.91582,-1.963194,57.490987,0.032257,-0.06839,0.99202,0.001916,0.007513,-0.00163,61.760391,27.402832,-144.377304,,,
729609100.813367,-3.920736,-1.952717,63.516056,0.034988,-0.067841,0.992004,-0.017605,0.039202,-0.002927,61.760391,27.402832,-144.377304,,,
729609100.816395,-3.920738,-1.952718,57.490368,0.034988,-0.067841,0.992004,-0.017605,0.039202,-0.002927,61.760391,27.402832,-144.377304,,,
729609100.816653,-3.920736,-1.952717,63.516056,0.034988,-0.067841,0.992004,-0.017605,0.039202,-0.002927,61.760391,27.402832,-144.377304,,,
729609100.81856,-3.927731,-1.938923,57.489007,0.034988,-0.067841,0.992004,-0.017605,0.039202,-0.002927,61.760391,27.402832,-144.377304,,,
729609100.820035,-3.927729,-1.938922,63.514694,0.034988,-0.067841,0.992004,-0.017605,0.039202,-0.002927,61.760391,27.402832,-144.377304,,,
729609100.82122,-3.927731,-1.938923,57.489007,0.034988,-0.067841,0.992004,-0.017605,0.039202,-0.002927,61.760391,27.402832,-144.377304,,,
729609100.823396,-3.937823,-1.924956,63.512473,0.0354,-0.065613,0.986023,-0.034349,0.051396,-0.006507,61.760391,27.402832,-144.377304,,,
729609100.826035,-3.937825,-1.924957,57.486785,0.0354,-0.065613,0.986023,-0.034349,0.051396,-0.006507,61.760391,27.402832,-144.377304,,,
729609100.826753,-3.937823,-1.924956,63.512473,0.0354,-0.065613,0.986023,-0.034349,0.051396,-0.006507,61.760391,27.402832,-144.377304,,,
729609100.82868,-3.948963,-1.910832,57.483695,0.0354,-0.065613,0.986023,-0.034349,0.051396,-0.006507,61.760391,27.402832,-144.377304,,,
729609100.830019,-3.948961,-1.910831,63.509383,0.0354,-0.065613,0.986023,-0.034349,0.051396,-0.006507,61.760391,27.402832,-144.377304,,,
729609100.831233,-3.948963,-1.910832,57.483695,0.0354,-0.065613,0.986023,-0.034349,0.051396,-0.006507,61.760391,27.402832,-144.377304,,,
729609100.833315,-3.961138,-1.901308,63.505557,0.038574,-0.066055,0.982315,-0.041289,0.038021,-0.012041,61.760391,27.402832,-144.377304,,,
729609100.83674,-3.96114,-1.901309,57.479869,0.038574,-0.066055,0.982315,-0.041289,0.038021,-0.012041,61.813644,27.710144,-144.45015,,,
729609100.837043,-3.961138,-1.896967,63.501932,0.038574,-0.066055,0.982315,-0.041289,0.038021,-0.012041,61.813644,27.710144,-144.45015,,,
729609100.838229,-3.974207,-1.896967,57.476244,0.038574,-0.066055,0.982315,-0.041289,0.038021,-0.012041,61.813644,27.710144,-144.45015,,,
729609100.840058,-3.974205,-1.896967,63.501932,0.038574,-0.066055,0.982315,-0.041289,0.038021,-0.012041,61.813644,27.710144,-144.45015,,,
729609100.841256,-3.974207,-1.896967,57.476244,0.038574,-0.066055,0.982315,-0.041289,0.038021,-0.012041,61.813644,27.710144,-144.45015,,,
729609100.843458,-3.987018,-1.90154,63.498345,0.035614,-0.069977,0.974762,-0.044817,-0.010941,-0.012812,61.813644,27.710144,-144.45015,,,
729609100.846635,-3.98702,-1.901541,57.472657,0.035614,-0.069977,0.974762,-0.044817,-0.010941,-0.012812,61.813644,27.710144,-144.45015,,,
729609100.846908,-3.987018,-1.90154,63.498345,0.035614,-0.069977,0.974762,-0.044817,-0.010941,-0.012812,61.813644,27.710144,-144.45015,,,
729609100.848547,-3.999283,-1.913148,57.469393,0.035614,-0.069977,0.974762,-0.044817,-0.010941,-0.012812,61.813644,27.710144,-144.45015,,,
729609100.850054,-3.999281,-1.913148,63.495081,0.035614,-0.069977,0.974762,-0.044817,-0.010941,-0.012812,61.813644,27.710144,-144.45015,,,
729609100.851244,-3.999283,-1.913148,57.469393,0.035614,-0.069977,0.974762,-0.044817,-0.010941,-0.012812,61.813644,27.710144,-144.45015,,,
729609100.853345,-4.008894,-1.934129,63.492473,0.029495,-0.072556,0.972275,-0.031716,-0.070268,-0.005624,61.813644,27.710144,-144.45015,,,
729609100.855922,-4.008896,-1.934129,57.466785,0.029495,-0.072556,0.972275,-0.031716,-0.070268,-0.005624,61.813644,27.710144,-144.45015,,,
729609100.856691,-4.008894,-1.934129,63.492473,0.029495,-0.072556,0.972275,-0.031716,-0.070268,-0.005624,61.813644,27.710144,-144.45015,,,
729609100.858513,-4.017149,-1.963389,57.465122,0.029495,-0.072556,0.972275,-0.031716,-0.070268,-0.005624,61.813644,27.710144,-144.45015,,,
729609100.86009,-4.017147,-1.963388,63.490811,0.029495,-0.072556,0.972275,-0.031716,-0.070268,-0.005624,61.813644,27.710144,-144.45015,,,
729609100.861218,-4.017149,-1.963389,57.465122,0.029495,-0.072556,0.972275,-0.031716,-0.070268,-0.005624,61.813644,27.710144,-144.45015,,,
729609100.863356,-4.022719,-2.000577,63.490039,0.028534,-0.079147,0.976425,-0.01709,-0.12857,-0.000634,61.813644,27.710144,-144.45015,,,
729609100.866042,-4.022721,-2.000577,57.464351,0.028534,-0.079147,0.976425,-0.01709,-0.12857,-0.000634,61.813644,27.710144,-144.45015,,,
729609100.866616,-4.022719,-2.000577,63.490039,0.028534,-0.079147,0.976425,-0.01709,-0.12857,-0.000634,61.813644,27.710144,-144.45015,,,
729609100.868646,-4.025443,-2.041924,57.464183,0.028534,-0.079147,0.976425,-0.01709,-0.12857,-0.000634,61.813644,27.710144,-144.45015,,,
729609100.870036,-4.025441,-2.041923,63.489871,0.028534,-0.079147,0.976425,-0.01709,-0.12857,-0.000634,61.813644,27.710144,-144.45015,,,
729609100.871225,-4.025443,-2.041924,57.464183,0.028534,-0.079147,0.976425,-0.01709,-0.12857,-0.000634,61.813644,27.710144,-144.45015,,,
729609100.873379,-4.025422,-2.085464,63.489675,0.034103,-0.080627,0.982269,0.000862,-0.149671,0.001113,61.813644,27.710144,-144.45015,,,
729609100.878261,-4.025424,-2.085464,57.463987,0.034103,-0.080627,0.982269,0.000862,-0.149671,0.001113,61.70816,27.553207,-144.581665,,,
729609100.878572,-4.024467,-2.12896,63.48992,0.034103,-0.080627,0.982269,0.000862,-0.149671,0.001113,61.70816,27.553207,-144.581665,,,
729609100.879954,-4.024467,-2.12896,63.48992,0.034103,-0.080627,0.982269,0.000862,-0.149671,0.001113,61.70816,27.553207,-144.581665,,,
729609100.882137,-4.024469,-2.12896,57.464232,0.034103,-0.080627,0.982269,0.003954,-0.146204,0.001735,61.70816,27.553207,-144.581665,,,
729609100.883347,-4.023594,-2.171347,63.491117,0.038406,-0.077637,0.991562,0.003954,-0.146204,0.001735,61.70816,27.553207,-144.581665,,,
729609100.88568,-4.023596,-2.171347,57.465429,0.038406,-0.077637,0.991562,0.003954,-0.146204,0.001735,61.70816,27.553207,-144.581665,,,
729609100.886723,-4.023594,-2.171347,63.491117,0.038406,-0.077637,0.991562,0.003954,-0.146204,0.001735,61.70816,27.553207,-144.581665,,,
729609100.888219,-4.02359,-2.21032,57.467279,0.038406,-0.077637,0.991562,0.003954,-0.146204,0.001735,61.70816,27.553207,-144.581665,,,
729609100.890019,-4.023588,-2.21032,63.492968,0.038406,-0.077637,0.991562,0.003954,-0.146204,0.001735,61.70816,27.553207,-144.581665,,,
729609100.891216,-4.02359,-2.21032,57.467279,0.038406,-0.077637,0.991562,0.003954,-0.146204,0.001735,61.70816,27.553207,-144.581665,,,
729609100.893401,-4.025305,-2.245049,63.495282,0.036057,-0.073364,0.990936,-0.004386,-0.119617,0.005879,61.70816,27.553207,-144.581665,,,
729609100.896942,-4.025307,-2.24505,57.469594,0.036057,-0.073364,0.990936,-0.004386,-0.119617,0.005879,61.70816,27.553207,-144.581665,,,
729609100.897216,-4.028328,-2.274359,63.497569,0.036057,-0.073364,0.990936,-0.004386,-0.119617,0.005879,61.70816,27.553207,-144.581665,,,
729609100.898215,-4.028331,-2.27436,57.471881,0.036057,-0.073364,0.990936,-0.004386,-0.119617,0.005879,61.70816,27.553207,-144.581665,,,
729609100.89999,-4.028328,-2.274359,63.497569,0.036057,-0.073364,0.990936,-0.004386,-0.119617,0.005879,61.70816,27.553207,-144.581665,,,
729609100.901262,-4.028331,-2.27436,57.471881,0.036057,-0.073364,0.990936,-0.004386,-0.119617,0.005879,61.70816,27.553207,-144.581665,,,
729609100.90336,-4.032429,-2.297957,63.499083,0.044006,-0.067276,0.987732,-0.012664,-0.080957,0.005429,61.70816,27.553207,-144.581665,,,
729609100.905499,-4.032431,-2.297958,57.473394,0.044006,-0.067276,0.987732,-0.012664,-0.080957,0.005429,61.70816,27.553207,-144.581665,,,
729609100.906729,-4.032429,-2.297957,63.499083,0.044006,-0.067276,0.987732,-0.012664,-0.080957,0.005429,61.70816,27.553207,-144.581665,,,
729609100.90858,-4.036367,-2.31429,57.473972,0.044006,-0.067276,0.987732,-0.012664,-0.080957,0.005429,61.70816,27.553207,-144.581665,,,
729609100.910126,-4.036365,-2.314289,63.49966,0.044006,-0.067276,0.987732,-0.012664,-0.080957,0.005429,61.70816,27.553207,-144.581665,,,
729609100.911208,-4.036367,-2.31429,57.473972,0.044006,-0.067276,0.987732,-0.012664,-0.080957,0.005429,61.70816,27.553207,-144.581665,,,
729609100.913353,-4.040309,-2.323626,63.499184,0.05574,-0.06131,0.996887,-0.014167,-0.030844,-0.004949,61.70816,27.553207,-144.581665,,,
729609100.917666,-4.040311,-2.323627,57.473496,0.05574,-0.06131,0.996887,-0.014167,-0.030844,-0.004949,61.5392,27.397507,-144.705597,,,
729609100.917964,-4.043451,-2.325561,63.497878,0.05574,-0.06131,0.996887,-0.014167,-0.030844,-0.004949,61.5392,27.397507,-144.705597,,,
729609100.920004,-4.043451,-2.325561,63.497878,0.05574,-0.06131,0.996887,-0.014167,-0.030844,-0.004949,61.5392,27.397507,-144.705597,,,
729609100.921578,-4.043453,-2.325562,57.472189,0.05574,-0.06131,0.996887,-0.014167,-0.030844,-0.004949,61.5392,27.397507,-144.705597,,,
729609100.923417,-4.046208,-2.320808,63.496676,0.054932,-0.060944,1.010208,-0.008008,0.017485,-0.004005,61.5392,27.397507,-144.705597,,,
729609100.927086,-4.04621,-2.320809,57.470987,0.054932,-0.060944,1.010208,-0.008008,0.017485,-0.004005,61.5392,27.397507,-144.705597,,,
729609100.92737,-4.049867,-2.310303,63.49635,0.054932,-0.060944,1.010208,-0.008008,0.017485,-0.004005,61.5392,27.397507,-144.705597,,,
729609100.928208,-4.049869,-2.310304,57.470662,0.054932,-0.060944,1.010208,-0.008008,0.017485,-0.004005,61.5392,27.397507,-144.705597,,,
729609100.930048,-4.049867,-2.310303,63.49635,0.054932,-0.060944,1.010208,-0.008008,0.017485,-0.004005,61.5392,27.397507,-144.705597,,,
729609100.931245,-4.049869,-2.310304,57.470662,0.054932,-0.060944,1.010208,-0.008008,0.017485,-0.004005,61.5392,27.397507,-144.705597,,,
729609100.933298,-4.053955,-2.296492,63.496226,0.043839,-0.064545,1.006714,-0.010918,0.049675,-0.00411,61.5392,27.397507,-144.705597,,,
729609100.93562,-4.053957,-2.296492,57.470538,0.043839,-0.064545,1.006714,-0.010918,0.049675,-0.00411,61.5392,27.397507,-144.705597,,,
729609100.936793,-4.053955,-2.296492,63.496226,0.043839,-0.064545,1.006714,-0.010918,0.049675,-0.00411,61.5392,27.397507,-144.705597,,,
729609100.938638,-4.059455,-2.278927,57.469894,0.043839,-0.064545,1.006714,-0.010918,0.049675,-0.00411,61.5392,27.397507,-144.705597,,,
729609100.940031,-4.059453,-2.278927,63.495582,0.043839,-0.064545,1.006714,-0.010918,0.049675,-0.00411,61.5392,27.397507,-144.705597,,,
729609100.941256,-4.059455,-2.278927,57.469894,0.043839,-0.064545,1.006714,-0.010918,0.049675,-0.00411,61.5392,27.397507,-144.705597,,,
729609100.943447,-4.065727,-2.261189,63.494231,0.044159,-0.064514,0.999252,-0.01766,0.067514,-0.00615,61.5392,27.397507,-144.705597,,,
729609100.94602,-4.065729,-2.261189,57.468542,0.044159,-0.064514,0.999252,-0.01766,0.067514,-0.00615,61.5392,27.397507,-144.705597,,,
729609100.946705,-4.065727,-2.261189,63.494231,0.044159,-0.064514,0.999252,-0.01766,0.067514,-0.00615,61.5392,27.397507,-144.705597,,,
729609100.948213,-4.074773,-2.245156,57.466645,0.044159,-0.064514,0.999252,-0.01766,0.067514,-0.00615,61.5392,27.397507,-144.705597,,,
729609100.950008,-4.074771,-2.245156,63.492333,0.044159,-0.064514,0.999252,-0.01766,0.067514,-0.00615,61.5392,27.397507,-144.705597,,,
729609100.951243,-4.074773,-2.245156,57.466645,0.044159,-0.064514,0.999252,-0.01766,0.067514,-0.00615,61.5392,27.397507,-144.705597,,,
729609100.953359,-4.086579,-2.233169,63.48911,0.044937,-0.060211,0.979935,-0.040811,0.04646,-0.011727,61.5392,27.397507,-144.705597,,,
729609100.956741,-4.086582,-2.233169,57.463422,0.044937,-0.060211,0.979935,-0.040811,0.04646,-0.011727,61.591553,27.478485,-144.729279,,,
729609100.957134,-4.086579,-2.233169,63.48911,0.044937,-0.060211,0.979935,-0.040811,0.04646,-0.011727,61.591553,27.478485,-144.729279,,,
729609100.958468,-4.10263,-2.224087,57.458401,0.044937,-0.060211,0.979935,-0.040811,0.04646,-0.011727,61.591553,27.478485,-144.729279,,,
729609100.9601,-4.102627,-2.224086,63.48409,0.044937,-0.060211,0.979935,-0.040811,0.04646,-0.011727,61.591553,27.478485,-144.729279,,,
729609100.961216,-4.10263,-2.224087,57.458401,0.044937,-0.060211,0.979935,-0.040811,0.04646,-0.011727,61.591553,27.478485,-144.729279,,,
729609100.963355,-4.119611,-2.217588,63.477464,0.043549,-0.053055,0.965973,-0.058227,0.028609,-0.020354,61.591553,27.478485,-144.729279,,,
729609100.966074,-4.119613,-2.217588,57.451776,0.043549,-0.053055,0.965973,-0.058227,0.028609,-0.020354,61.591553,27.478485,-144.729279,,,
729609100.966621,-4.119611,-2.217588,63.477464,0.043549,-0.053055,0.965973,-0.058227,0.028609,-0.020354,61.591553,27.478485,-144.729279,,,
729609100.968923,-4.135398,-2.212601,57.444078,0.043549,-0.053055,0.965973,-0.058227,0.028609,-0.020354,61.591553,27.478485,-144.729279,,,
729609100.970036,-4.135395,-2.2126,63.469766,0.043549,-0.053055,0.965973,-0.058227,0.028609,-0.020354,61.591553,27.478485,-144.729279,,,
729609100.971228,-4.135398,-2.212601,57.444078,0.043549,-0.053055,0.965973,-0.058227,0.028609,-0.020354,61.591553,27.478485,-144.729279,,,
729609100.973429,-4.147932,-2.208146,63.461676,0.045105,-0.052826,0.988876,-0.044342,0.019923,-0.026445,61.591553,27.478485,-144.729279,,,
729609100.976035,-4.147934,-2.208147,57.435988,0.045105,-0.052826,0.988876,-0.044342,0.019923,-0.026445,61.591553,27.478485,-144.729279,,,
729609100.976754,-4.147932,-2.208146,63.461676,0.045105,-0.052826,0.988876,-0.044342,0.019923,-0.026445,61.591553,27.478485,-144.729279,,,
729609100.978736,-4.15725,-2.201825,57.427879,0.045105,-0.052826,0.988876,-0.044342,0.019923,-0.026445,61.591553,27.478485,-144.729279,,,
729609100.980008,-4.157248,-2.201824,63.453568,0.045105,-0.052826,0.988876,-0.044342,0.019923,-0.026445,61.591553,27.478485,-144.729279,,,
729609100.981222,-4.15725,-2.201825,57.427879,0.045105,-0.052826,0.988876,-0.044342,0.019923,-0.026445,61.591553,27.478485,-144.729279,,,
729609100.983299,-4.16291,-2.192268,63.445827,0.041306,-0.0569,1.009735,-0.020652,0.038632,-0.029392,61.591553,27.478485,-144.729279,,,
729609100.98602,-4.162912,-2.192269,57.420139,0.041306,-0.0569,1.009735,-0.020652,0.038632,-0.029392,61.591553,27.478485,-144.729279,,,
729609100.986785,-4.16291,-2.192268,63.445827,0.041306,-0.0569,1.009735,-0.020652,0.038632,-0.029392,61.591553,27.478485,-144.729279,,,
729609100.988539,-4.163244,-2.18019,57.413514,0.041306,-0.0569,1.009735,-0.020652,0.038632,-0.029392,61.591553,27.478485,-144.729279,,,
729609100.990032,-4.163242,-2.180189,63.439203,0.041306,-0.0569,1.009735,-0.020652,0.038632,-0.029392,61.591553,27.478485,-144.729279,,,
729609100.991249,-4.163244,-2.18019,57.413514,0.041306,-0.0569,1.009735,-0.020652,0.038632,-0.029392,61.591553,27.478485,-144.729279,,,
729609100.993396,-4.160117,-2.163633,63.434414,0.033508,-0.067032,1.024078,0.011926,0.062014,-0.020125,61.591553,27.478485,-144.729279,,,
729609100.997885,-4.160119,-2.163633,57.408726,0.033508,-0.067032,1.024078,0.011926,0.062014,-0.020125,61.550735,27.554871,-144.581818,,,
729609100.998193,-4.152772,-2.146437,63.431878,0.033508,-0.067032,1.024078,0.011926,0.062014,-0.020125,61.550735,27.554871,-144.581818,,,
729609101.000017,-4.152772,-2.146437,63.431878,0.033508,-0.067032,1.024078,0.011926,0.062014,-0.020125,61.550735,27.554871,-144.581818,,,
729609101.001968,-4.152774,-2.146438,57.406189,0.033508,-0.067032,1.024078,0.011926,0.062014,-0.020125,61.550735,27.554871,-144.581818,,,
729609101.003374,-4.143144,-2.127653,63.43234,0.023438,-0.076752,1.023956,0.035278,0.067185,-0.001189,61.550735,27.554871,-144.581818,,,
729609101.006302,-4.143146,-2.127654,57.406652,0.023438,-0.076752,1.023956,0.035278,0.067185,-0.001189,61.550735,27.554871,-144.581818,,,
729609101.006803,-4.143144,-2.127653,63.43234,0.023438,-0.076752,1.023956,0.035278,0.067185,-0.001189,61.550735,27.554871,-144.581818,,,
729609101.008607,-4.131014,-2.110981,57.410012,0.023438,-0.076752,1.023956,0.035278,0.067185,-0.001189,61.550735,27.554871,-144.581818,,,
729609101.010136,-4.131012,-2.11098,63.4357,0.023438,-0.076752,1.023956,0.035278,0.067185,-0.001189,61.550735,27.554871,-144.581818,,,
729609101.011212,-4.131014,-2.110981,57.410012,0.023438,-0.076752,1.023956,0.035278,0.067185,-0.001189,61.550735,27.554871,-144.581818,,,
729609101.013346,-4.119502,-2.096261,63.440755,0.015915,-0.077393,1.010941,0.041691,0.054062,0.015137,61.550735,27.554871,-144.581818,,,
729609101.017039,-4.119504,-2.096262,57.415067,0.015915,-0.077393,1.010941,0.041691,0.054062,0.015137,61.550735,27.554871,-144.581818,,,
729609101.017317,-4.119502,-2.096261,63.440755,0.015915,-0.077393,1.010941,0.041691,0.054062,0.015137,61.550735,27.554871,-144.581818,,,
729609101.018489,-4.108333,-2.085413,57.419648,0.015915,-0.077393,1.010941,0.041691,0.054062,0.015137,61.550735,27.554871,-144.581818,,,
729609101.020056,-4.108331,-2.085413,63.445336,0.015915,-0.077393,1.010941,0.041691,0.054062,0.015137,61.550735,27.554871,-144.581818,,,
729609101.021218,-4.108333,-2.085413,57.419648,0.015915,-0.077393,1.010941,0.041691,0.054062,0.015137,61.550735,27.554871,-144.581818,,,
729609101.023393,-4.098417,-2.078403,63.449022,0.024094,-0.070816,0.994339,0.034695,0.024886,0.010627,61.550735,27.554871,-144.581818,,,
729609101.026369,-4.098419,-2.078404,57.423334,0.024094,-0.070816,0.994339,0.034695,0.024886,0.010627,61.550735,27.554871,-144.581818,,,
729609101.026746,-4.098417,-2.078403,63.449022,0.024094,-0.070816,0.994339,0.034695,0.024886,0.010627,61.550735,27.554871,-144.581818,,,
729609101.028539,-4.088852,-2.077039,57.425746,0.024094,-0.070816,0.994339,0.034695,0.024886,0.010627,61.550735,27.554871,-144.581818,,,
729609101.030051,-4.08885,-2.077039,63.451434,0.024094,-0.070816,0.994339,0.034695,0.024886,0.010627,61.550735,27.554871,-144.581818,,,
729609101.031265,-4.088852,-2.077039,57.425746,0.024094,-0.070816,0.994339,0.034695,0.024886,0.010627,61.550735,27.554871,-144.581818,,,
729609101.033292,-4.081919,-2.079534,63.451961,0.027969,-0.062347,0.988861,0.02526,-0.007923,-0.001033,61.550735,27.554871,-144.581818,,,
729609101.037757,-4.081921,-2.079535,57.426272,0.027969,-0.062347,0.988861,0.02526,-0.007923,-0.001033,61.550735,27.554871,-144.581818,,,
729609101.038059,-4.075836,-2.08623,63.450832,0.027969,-0.062347,0.988861,0.02526,-0.007923,-0.001033,61.617874,27.815613,-144.589355,,,
729609101.039978,-4.075836,-2.08623,63.450832,0.027969,-0.062347,0.988861,0.02526,-0.007923,-0.001033,61.617874,27.815613,-144.589355,,,
729609101.042697,-4.075838,-2.086231,57.425144,0.027969,-0.062347,0.988861,0.02526,-0.007923,-0.001033,61.617874,27.815613,-144.589355,,,
729609101.043521,-4.072801,-2.094703,63.449721,0.027008,-0.056,0.984344,0.009329,-0.029614,-0.006129,61.617874,27.815613,-144.589355,,,
729609101.04599,-4.072803,-2.094703,57.424033,0.027008,-0.056,0.984344,0.009329,-0.029614,-0.006129,61.617874,27.815613,-144.589355,,,
729609101.046723,-4.072801,-2.094703,63.449721,0.027008,-0.056,0.984344,0.009329,-0.029614,-0.006129,61.617874,27.815613,-144.589355,,,
729609101.048316,-4.070902,-2.105356,57.424139,0.027008,-0.056,0.984344,0.009329,-0.029614,-0.006129,61.617874,27.815613,-144.589355,,,
729609101.049942,-4.070899,-2.105355,63.449827,0.027008,-0.056,0.984344,0.009329,-0.029614,-0.006129,61.617874,27.815613,-144.589355,,,
729609101.051398,-4.070902,-2.105356,57.424139,0.027008,-0.056,0.984344,0.009329,-0.029614,-0.006129,61.617874,27.815613,-144.589355,,,
729609101.053433,-4.071441,-2.116653,63.451551,0.014832,-0.06012,0.988678,-0.001948,-0.036985,0.003408,61.617874,27.815613,-144.589355,,,
729609101.058237,-4.071443,-2.116654,57.425862,0.014832,-0.06012,0.988678,-0.001948,-0.036985,0.003408,61.617874,27.815613,-144.589355,,,
729609101.05878,-4.070955,-2.129764,63.454813,0.014832,-0.06012,0.988678,-0.001948,-0.036985,0.003408,61.617874,27.815613,-144.589355,,,
729609101.059981,-4.070955,-2.129764,63.454813,0.014832,-0.06012,0.988678,-0.001948,-0.036985,0.003408,61.617874,27.815613,-144.589355,,,
729609101.061796,-4.070957,-2.129764,57.429124,0.014832,-0.06012,0.988678,-0.001948,-0.036985,0.003408,61.617874,27.815613,-144.589355,,,
729609101.063417,-4.070735,-2.143475,63.46,0.01329,-0.065369,0.994492,0.002984,-0.046636,0.015061,61.617874,27.815613,-144.589355,,,
729609101.067107,-4.070737,-2.143476,57.434312,0.01329,-0.065369,0.994492,0.002984,-0.046636,0.015061,61.617874,27.815613,-144.589355,,,
729609101.067409,-4.070735,-2.143475,63.46,0.01329,-0.065369,0.994492,0.002984,-0.046636,0.015061,61.617874,27.815613,-144.589355,,,
729609101.068676,-4.068481,-2.157765,57.440619,0.01329,-0.065369,0.994492,0.002984,-0.046636,0.015061,61.617874,27.815613,-144.589355,,,
729609101.070074,-4.068479,-2.157764,63.466308,0.01329,-0.065369,0.994492,0.002984,-0.046636,0.015061,61.617874,27.815613,-144.589355,,,
729609101.071237,-4.068481,-2.157765,57.440619,0.01329,-0.065369,0.994492,0.002984,-0.046636,0.015061,61.617874,27.815613,-144.589355,,,
729609101.073459,-4.066635,-2.17293,63.472877,0.025467,-0.069733,0.996582,0.006701,-0.053998,0.022381,61.617874,27.815613,-144.589355,,,
729609101.075943,-4.066637,-2.172931,57.447189,0.025467,-0.069733,0.996582,0.006701,-0.053998,0.022381,61.617874,27.815613,-144.589355,,,
729609101.076721,-4.066635,-2.17293,63.472877,0.025467,-0.069733,0.996582,0.006701,-0.053998,0.022381,61.617874,27.815613,-144.589355,,,
729609101.078345,-4.063741,-2.187539,57.454096,0.025467,-0.069733,0.996582,0.006701,-0.053998,0.022381,61.617874,27.815613,-144.589355,,,
729609101.079985,-4.063739,-2.187539,63.479784,0.025467,-0.069733,0.996582,0.006701,-0.053998,0.022381,61.51265,27.313019,-144.527847,,,
729609101.081665,-4.063741,-2.187539,57.454096,0.025467,-0.069733,0.996582,0.006701,-0.053998,0.022381,61.51265,27.313019,-144.527847,,,
729609101.083247,-4.058998,-2.20261,63.486569,0.033951,-0.071152,0.995697,0.018533,-0.053282,0.018952,61.51265,27.313019,-144.527847,,,
729609101.084845,-4.059,-2.202611,57.460881,0.033951,-0.071152,0.995697,0.018533,-0.053282,0.018952,61.51265,27.313019,-144.527847,,,
729609101.086614,-4.058998,-2.20261,63.486569,0.033951,-0.071152,0.995697,0.018533,-0.053282,0.018952,61.51265,27.313019,-144.527847,,,
729609101.088111,-4.052228,-2.216456,57.467275,0.033951,-0.071152,0.995697,0.018533,-0.053282,0.018952,61.51265,27.313019,-144.527847,,,
729609101.089934,-4.052226,-2.216455,63.492963,0.033951,-0.071152,0.995697,0.018533,-0.053282,0.018952,61.51265,27.313019,-144.527847,,,
729609101.09124,-4.052228,-2.216456,57.467275,0.033951,-0.071152,0.995697,0.018533,-0.053282,0.018952,61.51265,27.313019,-144.527847,,,
729609101.093406,-4.041271,-2.231907,63.498781,0.042786,-0.069351,1.001801,0.040242,-0.05369,0.017327,61.51265,27.313019,-144.527847,,,
729609101.09558,-4.041273,-2.231908,57.473093,0.042786,-0.069351,1.001801,0.040242,-0.05369,0.017327,61.51265,27.313019,-144.527847,,,
729609101.096705,-4.041271,-2.231907,63.498781,0.042786,-0.069351,1.001801,0.040242,-0.05369,0.017327,61.51265,27.313019,-144.527847,,,
729609101.098709,-4.027318,-2.246526,57.479237,0.042786,-0.069351,1.001801,0.040242,-0.05369,0.017327,61.51265,27.313019,-144.527847,,,
729609101.099991,-4.027316,-2.246526,63.504925,0.042786,-0.069351,1.001801,0.040242,-0.05369,0.017327,61.51265,27.313019,-144.527847,,,
729609101.101277,-4.027318,-2.246526,57.479237,0.042786,-0.069351,1.001801,0.040242,-0.05369,0.017327,61.51265,27.313019,-144.527847,,,
729609101.103409,-4.011085,-2.263021,63.512021,0.045517,-0.069061,1.008652,0.057771,-0.058566,0.022074,61.51265,27.313019,-144.527847,,,
729609101.106523,-4.011087,-2.263022,57.486332,0.045517,-0.069061,1.008652,0.057771,-0.058566,0.022074,61.51265,27.313019,-144.527847,,,
729609101.106972,-4.011085,-2.263021,63.512021,0.045517,-0.069061,1.008652,0.057771,-0.058566,0.022074,61.51265,27.313019,-144.527847,,,
729609101.108538,-3.994537,-2.27883,57.494299,0.045517,-0.069061,1.008652,0.057771,-0.058566,0.022074,61.51265,27.313019,-144.527847,,,
729609101.110098,-3.994534,-2.278829,63.519987,0.045517,-0.069061,1.008652,0.057771,-0.058566,0.022074,61.51265,27.313019,-144.527847,,,
729609101.11122,-3.994537,-2.27883,57.494299,0.045517,-0.069061,1.008652,0.057771,-0.058566,0.022074,61.51265,27.313019,-144.527847,,,
729609101.113346,-3.979288,-2.294697,63.527677,0.041412,-0.070312,1.002365,0.058348,-0.056433,0.026551,61.51265,27.313019,-144.527847,,,
729609101.115578,-3.97929,-2.294697,57.501989,0.041412,-0.070312,1.002365,0.058348,-0.056433,0.026551,61.51265,27.313019,-144.527847,,,
729609101.116628,-3.979288,-2.294697,63.527677,0.041412,-0.070312,1.002365,0.058348,-0.056433,0.026551,61.51265,27.313019,-144.527847,,,
729609101.118548,-3.964007,-2.308169,57.50882,0.041412,-0.070312,1.002365,0.058348,-0.056433,0.026551,61.51265,27.313019,-144.527847,,,
729609101.119992,-3.964005,-2.308168,63.534508,0.041412,-0.070312,1.002365,0.058348,-0.056433,0.026551,61.294861,27.535263,-144.791824,,,
729609101.121665,-3.964007,-2.308169,57.50882,0.041412,-0.070312,1.002365,0.058348,-0.056433,0.026551,61.294861,27.535263,-144.791824,,,
729609101.123326,-3.95079,-2.320101,63.540458,0.044678,-0.067276,0.995255,0.046971,-0.040963,0.017552,61.294861,27.535263,-144.791824,,,
729609101.125121,-3.950792,-2.320101,57.51477,0.044678,-0.067276,0.995255,0.046971,-0.040963,0.017552,61.294861,27.535263,-144.791824,,,
729609101.12666,-3.95079,-2.320101,63.540458,0.044678,-0.067276,0.995255,0.046971,-0.040963,0.017552,61.294861,27.535263,-144.791824,,,
729609101.12875,-3.939354,-2.327933,57.519675,0.044678,-0.067276,0.995255,0.046971,-0.040963,0.017552,61.294861,27.535263,-144.791824,,,
729609101.129959,-3.939352,-2.327932,63.545364,0.044678,-0.067276,0.995255,0.046971,-0.040963,0.017552,61.294861,27.535263,-144.791824,,,
729609101.131164,-3.939354,-2.327933,57.519675,0.044678,-0.067276,0.995255,0.046971,-0.040963,0.017552,61.294861,27.535263,-144.791824,,,
729609101.133286,-3.932104,-2.333487,63.548674,0.045074,-0.061752,0.992783,0.02463,-0.015468,0.007886,61.294861,27.535263,-144.791824,,,
729609101.136496,-3.932106,-2.333488,57.522985,0.045074,-0.061752,0.992783,0.02463,-0.015468,0.007886,61.294861,27.535263,-144.791824,,,
729609101.13679,-3.932104,-2.333487,63.548674,0.045074,-0.061752,0.992783,0.02463,-0.015468,0.007886,61.294861,27.535263,-144.791824,,,
729609101.138148,-3.929187,-2.334184,57.525162,0.045074,-0.061752,0.992783,0.02463,-0.015468,0.007886,61.294861,27.535263,-144.791824,,,
729609101.139998,-3.929185,-2.334183,63.550851,0.045074,-0.061752,0.992783,0.02463,-0.015468,0.007886,61.294861,27.535263,-144.791824,,,
729609101.141127,-3.929187,-2.334184,57.525162,0.045074,-0.061752,0.992783,0.02463,-0.015468,0.007886,61.294861,27.535263,-144.791824,,,
729609101.143471,-3.931325,-2.334861,63.551497,0.044571,-0.058548,0.98439,-0.008785,0.000738,-0.000387,61.294861,27.535263,-144.791824,,,
729609101.147553,-3.931327,-2.334862,57.525809,0.044571,-0.058548,0.98439,-0.008785,0.000738,-0.000387,61.294861,27.535263,-144.791824,,,
729609101.147864,-3.937439,-2.331978,63.550653,0.044571,-0.058548,0.98439,-0.008785,0.000738,-0.000387,61.294861,27.535263,-144.791824,,,
729609101.150022,-3.937439,-2.331978,63.550653,0.044571,-0.058548,0.98439,-0.008785,0.000738,-0.000387,61.294861,27.535263,-144.791824,,,
729609101.151865,-3.937441,-2.331979,57.524965,0.044571,-0.058548,0.98439,-0.008785,0.000738,-0.000387,61.294861,27.535263,-144.791824,,,
729609101.153361,-3.946339,-2.329489,63.548417,0.045227,-0.057083,0.977539,-0.03421,0.012749,-0.007588,61.294861,27.535263,-144.791824,,,
729609101.155699,-3.946341,-2.32949,57.522729,0.045227,-0.057083,0.977539,-0.03421,0.012749,-0.007588,61.294861,27.535263,-144.791824,,,
729609101.156708,-3.946339,-2.329489,63.548417,0.045227,-0.057083,0.977539,-0.03421,0.012749,-0.007588,61.294861,27.535263,-144.791824,,,
729609101.15825,-3.957191,-2.3251,57.519094,0.045227,-0.057083,0.977539,-0.03421,0.012749,-0.007588,61.294861,27.535263,-144.791824,,,
729609101.160078,-3.957188,-2.3251,63.544782,0.045227,-0.057083,0.977539,-0.03421,0.012749,-0.007588,61.294861,27.535263,-144.791824,,,
729609101.161857,-3.957191,-2.3251,57.519094,0.045227,-0.057083,0.977539,-0.03421,0.012749,-0.007588,61.632721,27.339935,-144.899323,,,
729609101.163356,-3.967757,-2.320138,63.540023,0.047012,-0.057983,0.986221,-0.034396,0.017954,-0.015807,61.632721,27.339935,-144.899323,,,
729609101.16594,-3.967759,-2.320139,57.514335,0.047012,-0.057983,0.986221,-0.034396,0.017954,-0.015807,61.632721,27.339935,-144.899323,,,
729609101.166627,-3.967757,-2.320138,63.540023,0.047012,-0.057983,0.986221,-0.034396,0.017954,-0.015807,61.632721,27.339935,-144.899323,,,
729609101.168654,-3.977167,-2.314525,57.509052,0.047012,-0.057983,0.986221,-0.034396,0.017954,-0.015807,61.632721,27.339935,-144.899323,,,
729609101.170042,-3.977165,-2.314524,63.53474,0.047012,-0.057983,0.986221,-0.034396,0.017954,-0.015807,61.632721,27.339935,-144.899323,,,
729609101.171224,-3.977167,-2.314525,57.509052,0.047012,-0.057983,0.986221,-0.034396,0.017954,-0.015807,61.632721,27.339935,-144.899323,,,
729609101.173411,-3.984976,-2.308691,63.528795,0.045151,-0.062592,0.999329,-0.025805,0.023094,-0.020712,61.632721,27.339935,-144.899323,,,
729609101.175154,-3.984978,-2.308692,57.503107,0.045151,-0.062592,0.999329,-0.025805,0.023094,-0.020712,61.632721,27.339935,-144.899323,,,
729609101.176701,-3.984976,-2.308691,63.528795,0.045151,-0.062592,0.999329,-0.025805,0.023094,-0.020712,61.632721,27.339935,-144.899323,,,
729609101.178663,-3.990305,-2.303215,57.496946,0.045151,-0.062592,0.999329,-0.025805,0.023094,-0.020712,61.632721,27.339935,-144.899323,,,
729609101.180029,-3.990303,-2.303214,63.522634,0.045151,-0.062592,0.999329,-0.025805,0.023094,-0.020712,61.632721,27.339935,-144.899323,,,
729609101.181227,-3.990305,-2.303215,57.496946,0.045151,-0.062592,0.999329,-0.025805,0.023094,-0.020712,61.632721,27.339935,-144.899323,,,
729609101.1833,-3.992918,-2.297271,63.516992,0.033737,-0.069595,1.006714,-0.00764,0.024525,-0.01944,61.632721,27.339935,-144.899323,,,
729609101.185677,-3.99292,-2.297272,57.491304,0.033737,-0.069595,1.006714,-0.00764,0.024525,-0.01944,61.632721,27.339935,-144.899323,,,
729609101.186758,-3.992918,-2.297271,63.516992,0.033737,-0.069595,1.006714,-0.00764,0.024525,-0.01944,61.632721,27.339935,-144.899323,,,
729609101.188228,-3.992377,-2.291757,57.487236,0.033737,-0.069595,1.006714,-0.00764,0.024525,-0.01944,61.632721,27.339935,-144.899323,,,
729609101.190021,-3.992375,-2.291756,63.512924,0.033737,-0.069595,1.006714,-0.00764,0.024525,-0.01944,61.632721,27.339935,-144.899323,,,
729609101.191235,-3.992377,-2.291757,57.487236,0.033737,-0.069595,1.006714,-0.00764,0.024525,-0.01944,61.632721,27.339935,-144.899323,,,
729609101.193399,-3.989003,-2.287351,63.510972,0.025665,-0.074829,1.00766,0.012411,0.019671,-0.010334,61.632721,27.339935,-144.899323,,,
729609101.196121,-3.989005,-2.287352,57.485284,0.025665,-0.074829,1.00766,0.012411,0.019671,-0.010334,61.632721,27.339935,-144.899323,,,
729609101.196728,-3.989003,-2.287351,63.510972,0.025665,-0.074829,1.00766,0.012411,0.019671,-0.010334,61.632721,27.339935,-144.899323,,,
729609101.197893,-3.989005,-2.287352,57.485284,0.025665,-0.074829,1.00766,0.012411,0.019671,-0.010334,61.632721,27.339935,-144.899323,,,
