Time (sec),Pitch (deg),Roll (deg),Yaw(deg),X-Acceleration (g),Y-Acceleration (g),Z-Acceleration (g),Pitch Rate (deg/sec),Roll Rate (deg/sec),Yaw Rate (deg/sec),Magnetic Field in X direction (uT),Magnetic Field in Y direction (uT),Magnetic Field in Z Direction (uT),Latitude (deg),Longitude (deg),Altitude (m)
729605996.609733,-1.090877,-1.880602,51.01226,0.025055,-0.020065,1.001022,0.026454,0.025795,-0.014816,59.857864,22.748489,-147.314682,,,
729605996.613067,-1.090877,-1.880602,51.01226,0.025055,-0.020065,1.001022,0.026454,0.025795,-0.014816,59.647232,22.692902,-147.120743,,,
729605996.616428,-1.083375,-1.875539,51.008264,0.028,-0.017014,0.996704,0.026454,0.025795,-0.014816,59.647232,22.692902,-147.120743,,,
729605996.619772,-1.075986,-1.87635,51.003761,0.028,-0.017014,0.996704,0.019995,0.013256,-0.018957,59.647232,22.692902,-147.120743,,,
729605996.623074,-1.075986,-1.87635,51.003761,0.028,-0.017014,0.996704,0.019995,0.013256,-0.018957,59.647232,22.692902,-147.120743,,,
729605996.626415,-1.072252,-1.873817,50.998672,0.026443,-0.012619,0.983185,0.019995,0.013256,-0.018957,59.647232,22.692902,-147.120743,,,
729605996.629735,-1.07019,-1.875283,50.992831,0.026443,-0.012619,0.983185,-0.001097,0.007444,-0.023551,59.647232,22.692902,-147.120743,,,
729605996.633145,-1.07019,-1.875283,50.992831,0.026443,-0.012619,0.983185,-0.001097,0.007444,-0.023551,59.647232,22.692902,-147.120743,,,
729605996.636452,-1.071514,-1.875672,50.98607,0.029236,-0.009293,0.978256,-0.001097,0.007444,-0.023551,59.647232,22.692902,-147.120743,,,
729605996.63973,-1.074695,-1.878753,50.97854,0.029236,-0.009293,0.978256,-0.018818,-0.007934,-0.028693,59.647232,22.692902,-147.120743,,,
729605996.643076,-1.074695,-1.878753,50.97854,0.029236,-0.009293,0.978256,-0.018818,-0.007934,-0.028693,59.647232,22.692902,-147.120743,,,
729605996.646451,-1.080754,-1.883683,50.970938,0.030853,-0.009766,0.978409,-0.018818,-0.007934,-0.028693,59.647232,22.692902,-147.120743,,,
729605996.649739,-1.089496,-1.889212,50.964101,0.030853,-0.009766,0.978409,-0.030369,-0.025347,-0.024315,59.647232,22.692902,-147.120743,,,
729605996.65312,-1.089496,-1.889212,50.964101,0.030853,-0.009766,0.978409,-0.030369,-0.025347,-0.024315,59.59462,22.721481,-147.496353,,,
729605996.656399,-1.100464,-1.897233,50.957544,0.02565,-0.01387,0.978897,-0.030369,-0.025347,-0.024315,59.59462,22.721481,-147.496353,,,
729605996.659726,-1.114387,-1.902069,50.951691,0.02565,-0.01387,0.978897,-0.048658,-0.024625,-0.020383,59.59462,22.721481,-147.496353,,,
729605996.663067,-1.114387,-1.902069,50.951691,0.02565,-0.01387,0.978897,-0.048658,-0.024625,-0.020383,59.59462,22.721481,-147.496353,,,
729605996.666411,-1.130164,-1.909191,50.946488,0.030869,-0.014297,0.981766,-0.048658,-0.024625,-0.020383,59.59462,22.721481,-147.496353,,,
729605996.669773,-1.149147,-1.908206,50.94115,0.030869,-0.014297,0.981766,-0.062633,-0.011573,-0.017829,59.59462,22.721481,-147.496353,,,
729605996.67314,-1.149147,-1.908206,50.94115,0.030869,-0.014297,0.981766,-0.062633,-0.011573,-0.017829,59.59462,22.721481,-147.496353,,,
729605996.676406,-1.166879,-1.910239,50.936488,0.035049,-0.011475,0.986694,-0.062633,-0.011573,-0.017829,59.59462,22.721481,-147.496353,,,
729605996.679735,-1.1842,-1.906649,50.933449,0.035049,-0.011475,0.986694,-0.060818,0.006509,-0.008217,59.59462,22.721481,-147.496353,,,
729605996.683076,-1.1842,-1.906649,50.933449,0.035049,-0.011475,0.986694,-0.060818,0.006509,-0.008217,59.59462,22.721481,-147.496353,,,
729605996.686471,-1.198929,-1.906178,50.931543,0.035309,-0.01796,0.998367,-0.060818,0.006509,-0.008217,59.59462,22.721481,-147.496353,,,
729605996.689778,-1.210809,-1.904097,50.9307,0.035309,-0.01796,0.998367,-0.037214,0.005314,-0.00223,59.59462,22.721481,-147.496353,,,
729605996.693074,-1.210809,-1.904097,50.9307,0.035309,-0.01796,0.998367,-0.037214,0.005314,-0.00223,59.59462,22.721481,-147.496353,,,
729605996.696408,-1.220286,-1.902656,50.931207,0.030197,-0.025879,1.007797,-0.037214,0.005314,-0.00223,59.985062,22.845337,-147.597763,,,
729605996.699724,-1.22574,-1.89726,50.933733,0.030197,-0.025879,1.007797,-0.018594,0.015005,0.012402,59.985062,22.845337,-147.597763,,,
729605996.703115,-1.22574,-1.89726,50.933733,0.030197,-0.025879,1.007797,-0.018594,0.015005,0.012402,59.985062,22.845337,-147.597763,,,
729605996.706404,-1.229983,-1.893009,50.937626,0.020844,-0.031006,1.014603,-0.018594,0.015005,0.012402,59.985062,22.845337,-147.597763,,,
729605996.709727,-1.232122,-1.888864,50.94241,0.020844,-0.031006,1.014603,-0.010685,0.010577,0.017639,59.985062,22.845337,-147.597763,,,
729605996.713124,-1.232122,-1.888864,50.94241,0.020844,-0.031006,1.014603,-0.010685,0.010577,0.017639,59.985062,22.845337,-147.597763,,,
729605996.716399,-1.236572,-1.888523,50.9473,0.023788,-0.028824,1.002808,-0.010685,0.010577,0.017639,59.985062,22.845337,-147.597763,,,
729605996.719768,-1.240465,-1.889442,50.95062,0.023788,-0.028824,1.002808,-0.019957,-0.006034,0.010129,59.985062,22.845337,-147.597763,,,
729605996.723061,-1.240465,-1.889442,50.95062,0.023788,-0.028824,1.002808,-0.019957,-0.006034,0.010129,59.985062,22.845337,-147.597763,,,
729605996.726447,-1.248849,-1.892409,50.951226,0.033264,-0.018982,0.994019,-0.019957,-0.006034,0.010129,59.985062,22.845337,-147.597763,,,
729605996.72972,-1.258428,-1.895791,50.948672,0.033264,-0.018982,0.994019,-0.039899,-0.012545,-0.011914,59.985062,22.845337,-147.597763,,,
729605996.733065,-1.258428,-1.895791,50.948672,0.033264,-0.018982,0.994019,-0.039899,-0.012545,-0.011914,59.985062,22.845337,-147.597763,,,
729605996.73646,-1.272673,-1.901125,50.942995,0.041489,-0.013092,0.991959,-0.039899,-0.012545,-0.011914,59.464127,23.26442,-147.48259,,,
729605996.739721,-1.272673,-1.901125,50.942995,0.041489,-0.013092,0.991959,-0.064288,-0.014489,-0.022685,59.464127,23.26442,-147.48259,,,
729605996.743072,-1.288838,-1.904445,50.93606,0.041489,-0.013092,0.991959,-0.064288,-0.014489,-0.022685,59.464127,23.26442,-147.48259,,,
729605996.746407,-1.308779,-1.909005,50.92858,0.03862,-0.015045,0.988754,-0.064288,-0.014489,-0.022685,59.464127,23.26442,-147.48259,,,
729605996.749724,-1.308779,-1.913249,50.9211,0.03862,-0.015045,0.988754,-0.072758,-0.00825,-0.025915,59.464127,23.26442,-147.48259,,,
729605996.753147,-1.327877,-1.913249,50.9211,0.03862,-0.015045,0.988754,-0.072758,-0.00825,-0.025915,59.464127,23.26442,-147.48259,,,
729605996.756406,-1.34854,-1.917289,50.914448,0.039139,-0.021484,0.997025,-0.072758,-0.00825,-0.025915,59.464127,23.26442,-147.48259,,,
729605996.759727,-1.34854,-1.917289,50.914448,0.039139,-0.021484,0.997025,-0.068106,-0.011742,-0.01891,59.464127,23.26442,-147.48259,,,
729605996.763072,-1.366479,-1.921832,50.9083,0.039139,-0.021484,0.997025,-0.068106,-0.011742,-0.01891,59.464127,23.26442,-147.48259,,,
729605996.7664,-1.384836,-1.925324,50.903319,0.039276,-0.024704,1.004425,-0.068106,-0.011742,-0.01891,59.464127,23.26442,-147.48259,,,
729605996.769808,-1.400548,-1.928153,50.899766,0.039276,-0.024704,1.004425,-0.056717,-0.001702,-0.010555,59.464127,23.26442,-147.48259,,,
729605996.773073,-1.400548,-1.928153,50.899766,0.039276,-0.024704,1.004425,-0.056717,-0.001702,-0.010555,59.464127,23.26442,-147.48259,,,
729605996.776402,-1.413625,-1.928809,50.897796,0.032211,-0.029678,1.009918,-0.056717,-0.001702,-0.010555,59.761749,23.274948,-147.357483,,,
729605996.77972,-1.413625,-1.928809,50.897796,0.032211,-0.029678,1.009918,-0.033056,0.007302,0.000113,59.761749,23.274948,-147.357483,,,
729605996.783081,-1.424225,-1.925719,50.897854,0.032211,-0.029678,1.009918,-0.033056,0.007302,0.000113,59.761749,23.274948,-147.357483,,,
729605996.78645,-1.432088,-1.923833,50.899512,0.030228,-0.030624,1.012787,-0.033056,0.007302,0.000113,59.761749,23.274948,-147.357483,,,
729605996.78972,-1.432088,-1.923833,50.899512,0.030228,-0.030624,1.012787,-0.020358,0.009899,0.008747,59.761749,23.274948,-147.357483,,,
729605996.79317,-1.439499,-1.917667,50.902038,0.030228,-0.030624,1.012787,-0.020358,0.009899,0.008747,59.761749,23.274948,-147.357483,,,
729605996.796418,-1.444163,-1.915483,50.904957,0.031845,-0.027802,1.010513,-0.020358,0.009899,0.008747,59.761749,23.274948,-147.357483,,,
729605996.799776,-1.444163,-1.915483,50.904957,0.031845,-0.027802,1.010513,-0.00942,0.011238,0.011709,59.761749,23.274948,-147.357483,,,
729605996.803162,-1.447094,-1.911412,50.908387,0.031845,-0.027802,1.010513,-0.00942,0.011238,0.011709,59.761749,23.274948,-147.357483,,,
729605996.80647,-1.449069,-1.909187,50.91141,0.03537,-0.027115,1.007477,-0.00942,0.011238,0.011709,59.761749,23.274948,-147.357483,,,
729605996.809743,-1.449069,-1.909187,50.91141,0.03537,-0.027115,1.007477,-0.000818,0.007467,0.006487,59.761749,23.274948,-147.357483,,,
729605996.813079,-1.448514,-1.908534,50.913596,0.03537,-0.027115,1.007477,-0.000818,0.007467,0.006487,59.761749,23.274948,-147.357483,,,
729605996.816443,-1.449047,-1.908191,50.91524,0.037003,-0.021484,1.002792,-0.000818,0.007467,0.006487,59.761749,23.274948,-147.357483,,,
729605996.819813,-1.449047,-1.908191,50.91524,0.037003,-0.021484,1.002792,0.002459,-0.0013,0.005608,59.785049,23.220993,-147.378922,,,
729605996.823071,-1.446644,-1.911745,50.916893,0.037003,-0.021484,1.002792,0.002459,-0.0013,0.005608,59.785049,23.220993,-147.378922,,,
729605996.826401,-1.446077,-1.914123,50.918927,0.034317,-0.021057,1.001801,0.002459,-0.0013,0.005608,59.785049,23.220993,-147.378922,,,
729605996.829773,-1.446077,-1.914123,50.918927,0.034317,-0.021057,1.001801,-0.002656,-0.009352,0.006342,59.785049,23.220993,-147.378922,,,
729605996.833124,-1.445279,-1.918635,50.920868,0.034317,-0.021057,1.001801,-0.002656,-0.009352,0.006342,59.785049,23.220993,-147.378922,,,
729605996.83644,-1.447189,-1.922397,50.922292,0.03273,-0.020889,1.001801,-0.002656,-0.009352,0.006342,59.785049,23.220993,-147.378922,,,
729605996.839771,-1.447189,-1.922397,50.922292,0.03273,-0.020889,1.001801,-0.002656,-0.009352,0.006342,59.785049,23.220993,-147.378922,,,
729605996.843076,-1.449752,-1.929136,50.923121,0.03273,-0.020889,1.001801,-0.009912,-0.014226,0.000499,59.785049,23.220993,-147.378922,,,
729605996.846462,-1.453356,-1.933453,50.923149,0.037033,-0.019119,0.996567,-0.009912,-0.014226,0.000499,59.785049,23.220993,-147.378922,,,
729605996.849834,-1.453356,-1.933453,50.923149,0.037033,-0.019119,0.996567,-0.009912,-0.014226,0.000499,59.785049,23.220993,-147.378922,,,
729605996.85315,-1.457818,-1.937389,50.922759,0.037033,-0.019119,0.996567,-0.015578,-0.005922,-0.0013,59.785049,23.220993,-147.378922,,,
729605996.856399,-1.462515,-1.939469,50.92239,0.035553,-0.018494,0.998886,-0.015578,-0.005922,-0.0013,59.785049,23.220993,-147.378922,,,
729605996.859739,-1.462515,-1.939469,50.92239,0.035553,-0.018494,0.998886,-0.015578,-0.005922,-0.0013,59.727463,23.21553,-147.306702,,,
729605996.863113,-1.467583,-1.940344,50.92168,0.035553,-0.018494,0.998886,-0.012968,-0.004586,-0.001796,59.727463,23.21553,-147.306702,,,
729605996.866402,-1.470173,-1.943488,50.920914,0.032181,-0.017639,1.004211,-0.012968,-0.004586,-0.001796,59.727463,23.21553,-147.306702,,,
729605996.869828,-1.470173,-1.943488,50.920914,0.032181,-0.017639,1.004211,-0.012968,-0.004586,-0.001796,59.727463,23.21553,-147.306702,,,
729605996.873071,-1.470566,-1.947292,50.920739,0.032181,-0.017639,1.004211,0.002916,-0.017318,-0.002517,59.727463,23.21553,-147.306702,,,
729605996.876398,-1.467886,-1.952514,50.921456,0.031754,-0.022308,1.009598,0.002916,-0.017318,-0.002517,59.727463,23.21553,-147.306702,,,
729605996.879731,-1.467886,-1.952514,50.921456,0.031754,-0.022308,1.009598,0.002916,-0.017318,-0.002517,59.727463,23.21553,-147.306702,,,
729605996.883146,-1.463294,-1.957213,50.922953,0.031754,-0.022308,1.009598,0.021022,-0.013615,0.002364,59.727463,23.21553,-147.306702,,,
729605996.886473,-1.456234,-1.961781,50.925134,0.027679,-0.028946,1.014069,0.021022,-0.013615,0.002364,59.727463,23.21553,-147.306702,,,
729605996.889784,-1.456234,-1.961781,50.925134,0.027679,-0.028946,1.014069,0.021022,-0.013615,0.002364,59.727463,23.21553,-147.306702,,,
729605996.893074,-1.447181,-1.965969,50.92794,0.027679,-0.028946,1.014069,0.032138,-0.009169,0.007704,59.727463,23.21553,-147.306702,,,
729605996.896406,-1.436678,-1.968735,50.930996,0.027679,-0.027298,1.008713,0.032138,-0.009169,0.007704,59.727463,23.21553,-147.306702,,,
729605996.899813,-1.436678,-1.968735,50.930996,0.027679,-0.027298,1.008713,0.032138,-0.009169,0.007704,59.543335,23.305267,-147.270996,,,
729605996.903108,-1.42405,-1.970701,50.934093,0.027679,-0.027298,1.008713,0.043056,-0.000301,0.00915,59.543335,23.305267,-147.270996,,,
729605996.906397,-1.412018,-1.971293,50.93764,0.029846,-0.024261,1.006485,0.043056,-0.000301,0.00915,59.543335,23.305267,-147.270996,,,
729605996.909817,-1.412018,-1.971293,50.93764,0.029846,-0.024261,1.006485,0.043056,-0.000301,0.00915,59.543335,23.305267,-147.270996,,,
729605996.913066,-1.400296,-1.971598,50.942074,0.029846,-0.024261,1.006485,0.04124,-6.3e-05,0.012614,59.543335,23.305267,-147.270996,,,
729605996.916405,-1.391088,-1.972395,50.947039,0.023804,-0.023453,0.995102,0.04124,-6.3e-05,0.012614,59.543335,23.305267,-147.270996,,,
729605996.919789,-1.391088,-1.972395,50.947039,0.023804,-0.023453,0.995102,0.04124,-6.3e-05,0.012614,59.543335,23.305267,-147.270996,,,
729605996.923144,-1.383131,-1.97335,50.951816,0.023804,-0.023453,0.995102,0.025792,0.000232,0.01535,59.543335,23.305267,-147.270996,,,
729605996.926448,-1.376794,-1.975241,50.956105,0.026703,-0.0215,0.988403,0.025792,0.000232,0.01535,59.543335,23.305267,-147.270996,,,
729605996.929872,-1.376794,-1.975241,50.956105,0.026703,-0.0215,0.988403,0.025792,0.000232,0.01535,59.543335,23.305267,-147.270996,,,
729605996.933092,-1.370237,-1.98002,50.960269,0.026703,-0.0215,0.988403,0.021088,-0.013445,0.011896,59.543335,23.305267,-147.270996,,,
729605996.936467,-1.365704,-1.986426,50.964297,0.02832,-0.019394,0.987167,0.021088,-0.013445,0.011896,59.543335,23.305267,-147.270996,,,
729605996.939729,-1.365704,-1.986426,50.964297,0.02832,-0.019394,0.987167,0.021088,-0.013445,0.011896,59.646042,23.246826,-147.322113,,,
729605996.943061,-1.36131,-1.994728,50.968066,0.02832,-0.019394,0.987167,0.013076,-0.029681,0.011049,59.646042,23.246826,-147.322113,,,
729605996.946422,-1.35892,-2.003895,50.971934,0.025772,-0.020218,0.986221,0.013076,-0.029681,0.011049,59.646042,23.246826,-147.322113,,,
729605996.949884,-1.35892,-2.003895,50.971934,0.025772,-0.020218,0.986221,0.013076,-0.029681,0.011049,59.646042,23.246826,-147.322113,,,
729605996.953129,-1.35704,-2.011532,50.976514,0.025772,-0.020218,0.986221,0.005131,-0.027843,0.018088,59.646042,23.246826,-147.322113,,,
729605996.956412,-1.356524,-2.019454,50.982201,0.027161,-0.024307,0.990417,0.005131,-0.027843,0.018088,59.646042,23.246826,-147.322113,,,
729605996.95973,-1.356524,-2.019454,50.982201,0.027161,-0.024307,0.990417,0.005131,-0.027843,0.018088,59.646042,23.246826,-147.322113,,,
729605996.963155,-1.355873,-2.025672,50.988603,0.027161,-0.024307,0.990417,0.007787,-0.022078,0.02049,59.646042,23.246826,-147.322113,,,
729605996.966396,-1.355311,-2.033792,50.995535,0.033401,-0.024887,0.992874,0.007787,-0.022078,0.02049,59.646042,23.246826,-147.322113,,,
729605996.969827,-1.355311,-2.033792,50.995535,0.033401,-0.024887,0.992874,0.007787,-0.022078,0.02049,59.646042,23.246826,-147.322113,,,
729605996.973081,-1.355404,-2.039185,51.002563,0.033401,-0.024887,0.992874,0.006862,-0.027443,0.024169,59.646042,23.246826,-147.322113,,,
729605996.976401,-1.35309,-2.047333,51.008942,0.040283,-0.025452,0.993469,0.006862,-0.027443,0.024169,59.646042,23.246826,-147.322113,,,
729605996.979736,-1.35309,-2.047333,51.008942,0.040283,-0.025452,0.993469,0.006862,-0.027443,0.024169,59.646042,23.246826,-147.322113,,,
729605996.983078,-1.350403,-2.05328,51.014453,0.040283,-0.025452,0.993469,0.01183,-0.022704,0.016266,59.505295,23.201508,-147.176544,,,
729605996.986445,-1.347268,-2.059942,51.019385,0.044266,-0.025345,0.99733,0.01183,-0.022704,0.016266,59.505295,23.201508,-147.176544,,,
729605996.989793,-1.347268,-2.059942,51.019385,0.044266,-0.025345,0.99733,0.01183,-0.022704,0.016266,59.505295,23.201508,-147.176544,,,
729605996.993073,-1.344763,-2.062874,51.024179,0.044266,-0.025345,0.99733,0.00898,-0.013538,0.014321,59.505295,23.201508,-147.176544,,,
729605996.996399,-1.34403,-2.066411,51.02905,0.03717,-0.025467,0.993835,0.00898,-0.013538,0.014321,59.505295,23.201508,-147.176544,,,
729605996.999629,-1.34403,-2.066411,51.02905,0.03717,-0.025467,0.993835,0.00898,-0.013538,0.014321,59.505295,23.201508,-147.176544,,,
729605997.003185,-1.344523,-2.065356,51.034634,0.03717,-0.025467,0.993835,0.000366,-0.005347,0.018117,59.505295,23.201508,-147.176544,,,
729605997.006384,-1.346072,-2.068315,51.040297,0.037277,-0.028763,0.990417,0.000366,-0.005347,0.018117,59.505295,23.201508,-147.176544,,,
729605997.009731,-1.346072,-2.068315,51.040297,0.037277,-0.028763,0.990417,0.000366,-0.005347,0.018117,59.505295,23.201508,-147.176544,,,
729605997.01311,-1.34916,-2.069637,51.045587,0.037277,-0.028763,0.990417,-0.011504,-0.008931,0.018272,59.505295,23.201508,-147.176544,,,
729605997.016385,-1.354722,-2.073466,51.050251,0.039734,-0.029388,0.992569,-0.011504,-0.008931,0.018272,59.505295,23.201508,-147.176544,,,
729605997.019774,-1.354722,-2.073466,51.050251,0.039734,-0.029388,0.992569,-0.011504,-0.008931,0.018272,59.505295,23.201508,-147.176544,,,
729605997.023088,-1.361531,-2.074481,51.054347,0.039734,-0.029388,0.992569,-0.028273,-0.010058,0.012072,59.65155,23.06871,-147.452652,,,
729605997.026392,-1.371081,-2.077287,51.057255,0.041779,-0.027985,0.99205,-0.028273,-0.010058,0.012072,59.65155,23.06871,-147.452652,,,
729605997.029757,-1.371081,-2.077287,51.057255,0.041779,-0.027985,0.99205,-0.028273,-0.010058,0.012072,59.65155,23.06871,-147.452652,,,
729605997.033072,-1.382619,-2.075898,51.058703,0.041779,-0.027985,0.99205,-0.044259,-0.001135,0.003402,59.65155,23.06871,-147.452652,,,
729605997.036438,-1.395432,-2.076119,51.058731,0.043976,-0.024643,0.999542,-0.044259,-0.001135,0.003402,59.65155,23.06871,-147.452652,,,
729605997.039725,-1.395432,-2.076119,51.058731,0.043976,-0.024643,0.999542,-0.044259,-0.001135,0.003402,59.65155,23.06871,-147.452652,,,
729605997.043076,-1.407246,-2.073229,51.058242,0.043976,-0.024643,0.999542,-0.039878,0.009101,-0.002691,59.65155,23.06871,-147.452652,,,
729605997.046402,-1.416801,-2.071396,51.057598,0.04715,-0.02771,1.008041,-0.039878,0.009101,-0.002691,59.65155,23.06871,-147.452652,,,
729605997.049744,-1.416801,-2.071396,51.057598,0.04715,-0.02771,1.008041,-0.039878,0.009101,-0.002691,59.65155,23.06871,-147.452652,,,
729605997.053154,-1.423898,-2.069707,51.057003,0.04715,-0.02771,1.008041,-0.021417,0.006752,-0.003316,59.65155,23.06871,-147.452652,,,
729605997.056389,-1.428327,-2.069216,51.057115,0.045685,-0.031342,1.011932,-0.021417,0.006752,-0.003316,59.65155,23.06871,-147.452652,,,
729605997.059747,-1.428327,-2.069216,51.057115,0.045685,-0.031342,1.011932,-0.021417,0.006752,-0.003316,59.65155,23.06871,-147.452652,,,
729605997.063068,-1.430969,-2.071668,51.057865,0.045685,-0.031342,1.011932,-0.007395,0.000808,0.002866,59.430267,23.289886,-147.57074,,,
729605997.066405,-1.431946,-2.072879,51.058992,0.040512,-0.034332,1.007263,-0.007395,0.000808,0.002866,59.430267,23.289886,-147.57074,,,
729605997.069772,-1.431946,-2.072879,51.058992,0.040512,-0.034332,1.007263,-0.007395,0.000808,0.002866,59.430267,23.289886,-147.57074,,,
729605997.073086,-1.431575,-2.076384,51.059825,0.040512,-0.034332,1.007263,0.003188,-0.005838,0.001128,59.430267,23.289886,-147.57074,,,
729605997.076399,-1.430026,-2.079891,51.060103,0.041824,-0.031418,1.00502,0.003188,-0.005838,0.001128,59.430267,23.289886,-147.57074,,,
729605997.079803,-1.430026,-2.079891,51.060103,0.041824,-0.031418,1.00502,0.003188,-0.005838,0.001128,59.430267,23.289886,-147.57074,,,
729605997.083071,-1.427579,-2.085491,51.059858,0.041824,-0.031418,1.00502,0.00975,-0.016449,-0.005591,59.430267,23.289886,-147.57074,,,
729605997.086445,-1.424027,-2.092225,51.058175,0.046158,-0.027649,1.002991,0.00975,-0.016449,-0.005591,59.430267,23.289886,-147.57074,,,
729605997.089741,-1.424027,-2.092225,51.058175,0.046158,-0.027649,1.002991,0.00975,-0.016449,-0.005591,59.430267,23.289886,-147.57074,,,
729605997.093125,-1.421086,-2.10078,51.054467,0.046158,-0.027649,1.002991,0.012076,-0.026316,-0.016475,59.430267,23.289886,-147.57074,,,
729605997.096388,-1.417389,-2.108822,51.048933,0.050308,-0.023956,1.003601,0.012076,-0.026316,-0.016475,59.430267,23.289886,-147.57074,,,
729605997.099745,-1.417389,-2.108822,51.048933,0.050308,-0.023956,1.003601,0.012076,-0.026316,-0.016475,59.430267,23.289886,-147.57074,,,
729605997.103097,-1.414814,-2.116297,51.042262,0.050308,-0.023956,1.003601,0.01412,-0.014567,-0.024473,59.358963,23.405563,-147.26828,,,
729605997.106451,-1.411878,-2.120502,51.034609,0.047791,-0.021713,1.008881,0.01412,-0.014567,-0.024473,59.358963,23.405563,-147.26828,,,
729605997.109739,-1.411878,-2.120502,51.034609,0.047791,-0.021713,1.008881,0.01412,-0.014567,-0.024473,59.358963,23.405563,-147.26828,,,
729605997.113067,-1.409668,-2.125052,51.026064,0.047791,-0.021713,1.008881,0.010165,-0.008686,-0.030624,59.358963,23.405563,-147.26828,,,
729605997.116393,-1.407018,-2.127827,51.018117,0.045563,-0.024414,1.002792,0.010165,-0.008686,-0.030624,59.358963,23.405563,-147.26828,,,
729605997.119829,-1.407018,-2.127827,51.018117,0.045563,-0.024414,1.002792,0.010165,-0.008686,-0.030624,59.358963,23.405563,-147.26828,,,
729605997.123066,-1.404766,-2.133754,51.010994,0.045563,-0.024414,1.002792,0.005212,-0.013346,-0.02709,59.358963,23.405563,-147.26828,,,
729605997.126401,-1.404397,-2.137591,51.00467,0.039078,-0.025009,0.997574,0.005212,-0.013346,-0.02709,59.358963,23.405563,-147.26828,,,
729605997.129749,-1.404397,-2.137591,51.00467,0.039078,-0.025009,0.997574,0.005212,-0.013346,-0.02709,59.358963,23.405563,-147.26828,,,
729605997.133112,-1.406728,-2.143368,50.999058,0.039078,-0.025009,0.997574,-0.007819,-0.004942,-0.020657,59.358963,23.405563,-147.26828,,,
729605997.136448,-1.41088,-2.146184,50.993875,0.033981,-0.024185,0.998016,-0.007819,-0.004942,-0.020657,59.358963,23.405563,-147.26828,,,
729605997.139741,-1.41088,-2.146184,50.993875,0.033981,-0.024185,0.998016,-0.007819,-0.004942,-0.020657,59.358963,23.405563,-147.26828,,,
729605997.143074,-1.418535,-2.151236,50.987994,0.033981,-0.024185,0.998016,-0.022946,-0.010366,-0.020309,59.358963,23.405563,-147.26828,,,
729605997.146391,-1.426753,-2.155653,50.981252,0.038483,-0.020233,0.994385,-0.022946,-0.010366,-0.020309,59.366791,23.359161,-147.460846,,,
729605997.149736,-1.426753,-2.155653,50.981252,0.038483,-0.020233,0.994385,-0.022946,-0.010366,-0.020309,59.366791,23.359161,-147.460846,,,
729605997.153118,-1.437477,-2.161283,50.973376,0.038483,-0.020233,0.994385,-0.031659,-0.014703,-0.028783,59.366791,23.359161,-147.460846,,,
729605997.156386,-1.446418,-2.166523,50.964439,0.040955,-0.019974,0.998993,-0.031659,-0.014703,-0.028783,59.366791,23.359161,-147.460846,,,
729605997.159793,-1.446418,-2.166523,50.964439,0.040955,-0.019974,0.998993,-0.031659,-0.014703,-0.028783,59.366791,23.359161,-147.460846,,,
729605997.163102,-1.45436,-2.172764,50.955803,0.040955,-0.019974,0.998993,-0.025922,-0.014122,-0.030671,59.366791,23.359161,-147.460846,,,
729605997.166532,-1.45884,-2.17741,50.947482,0.034653,-0.025177,1.006226,-0.025922,-0.014122,-0.030671,59.366791,23.359161,-147.460846,,,
729605997.169819,-1.45884,-2.17741,50.947482,0.034653,-0.025177,1.006226,-0.025922,-0.014122,-0.030671,59.366791,23.359161,-147.460846,,,
729605997.173059,-1.459604,-2.185401,50.939029,0.034653,-0.025177,1.006226,0.001862,-0.01443,-0.029265,59.366791,23.359161,-147.460846,,,
729605997.176398,-1.454766,-2.190681,50.931381,0.035995,-0.024246,1.013504,0.001862,-0.01443,-0.029265,59.366791,23.359161,-147.460846,,,
729605997.179755,-1.454766,-2.190681,50.931381,0.035995,-0.024246,1.013504,0.001862,-0.01443,-0.029265,59.366791,23.359161,-147.460846,,,
729605997.183074,-1.443478,-2.199423,50.924804,0.035995,-0.024246,1.013504,0.043379,-0.016905,-0.022753,59.366791,23.359161,-147.460846,,,
729605997.186446,-1.427915,-2.204795,50.919682,0.034607,-0.026657,1.019821,0.043379,-0.016905,-0.022753,59.59108,23.181015,-147.364578,,,
729605997.189741,-1.427915,-2.204795,50.919682,0.034607,-0.026657,1.019821,0.043379,-0.016905,-0.022753,59.59108,23.181015,-147.364578,,,
729605997.193084,-1.409606,-2.212035,50.916477,0.034607,-0.026657,1.019821,0.064926,-0.012428,-0.013965,59.59108,23.181015,-147.364578,,,
729605997.196388,-1.391762,-2.216971,50.915133,0.026642,-0.027176,1.007263,0.064926,-0.012428,-0.013965,59.59108,23.181015,-147.364578,,,
729605997.199838,-1.391762,-2.216971,50.915133,0.026642,-0.027176,1.007263,0.064926,-0.012428,-0.013965,59.59108,23.181015,-147.364578,,,
729605997.203129,-1.37503,-2.223234,50.913936,0.026642,-0.027176,1.007263,0.055829,-0.012302,-0.007854,59.59108,23.181015,-147.364578,,,
729605997.206394,-1.36059,-2.227686,50.912306,0.0289,-0.020767,0.992981,0.055829,-0.012302,-0.007854,59.59108,23.181015,-147.364578,,,
729605997.209735,-1.36059,-2.227686,50.912306,0.0289,-0.020767,0.992981,0.055829,-0.012302,-0.007854,59.59108,23.181015,-147.364578,,,
729605997.213131,-1.349029,-2.23121,50.909799,0.0289,-0.020767,0.992981,0.036331,-0.010942,-0.013208,59.59108,23.181015,-147.364578,,,
729605997.216389,-1.340308,-2.235631,50.906209,0.033524,-0.016022,0.985046,0.036331,-0.010942,-0.013208,59.59108,23.181015,-147.364578,,,
729605997.219789,-1.340308,-2.235631,50.906209,0.033524,-0.016022,0.985046,0.036331,-0.010942,-0.013208,59.59108,23.181015,-147.364578,,,
729605997.223071,-1.334128,-2.23951,50.901687,0.033524,-0.016022,0.985046,0.019089,-0.013628,-0.018639,59.59108,23.181015,-147.364578,,,
729605997.226403,-1.33003,-2.244878,50.89638,0.030869,-0.017654,0.985901,0.019089,-0.013628,-0.018639,59.375504,23.079285,-147.500961,,,
729605997.229738,-1.33003,-2.244878,50.89638,0.030869,-0.017654,0.985901,0.019089,-0.013628,-0.018639,59.375504,23.079285,-147.500961,,,
729605997.233078,-1.32683,-2.250928,50.889966,0.030869,-0.017654,0.985901,0.007358,-0.015139,-0.025115,59.375504,23.079285,-147.500961,,,
729605997.23644,-1.324974,-2.256454,50.882703,0.031357,-0.014801,0.988739,0.007358,-0.015139,-0.025115,59.375504,23.079285,-147.500961,,,
729605997.239797,-1.324974,-2.256454,50.882703,0.031357,-0.014801,0.988739,0.007358,-0.015139,-0.025115,59.375504,23.079285,-147.500961,,,
729605997.24307,-1.323574,-2.261865,50.875748,0.031357,-0.014801,0.988739,0.001094,-0.014483,-0.027559,59.375504,23.079285,-147.500961,,,
729605997.246402,-1.323212,-2.267531,50.86859,0.034164,-0.013474,0.98851,0.001094,-0.014483,-0.027559,59.375504,23.079285,-147.500961,,,
729605997.249638,-1.323212,-2.267531,50.86859,0.034164,-0.013474,0.98851,0.001094,-0.014483,-0.027559,59.375504,23.079285,-147.500961,,,
729605997.253186,-1.324518,-2.271853,50.861296,0.034164,-0.013474,0.98851,-0.002198,-0.016515,-0.02862,59.375504,23.079285,-147.500961,,,
729605997.256387,-1.326374,-2.278434,50.854485,0.036179,-0.015335,0.984482,-0.002198,-0.016515,-0.02862,59.375504,23.079285,-147.500961,,,
729605997.259749,-1.326374,-2.278434,50.854485,0.036179,-0.015335,0.984482,-0.002198,-0.016515,-0.02862,59.375504,23.079285,-147.500961,,,
729605997.263076,-1.328016,-2.284767,50.848352,0.036179,-0.015335,0.984482,-0.003423,-0.0224,-0.023505,59.375504,23.079285,-147.500961,,,
729605997.266433,-1.328289,-2.292472,50.842345,0.037354,-0.015793,0.983185,-0.003423,-0.0224,-0.023505,59.387619,23.384262,-147.350159,,,
729605997.269771,-1.328289,-2.292472,50.842345,0.037354,-0.015793,0.983185,-0.003423,-0.0224,-0.023505,59.387619,23.384262,-147.350159,,,
729605997.273084,-1.326756,-2.297765,50.836889,0.037354,-0.015793,0.983185,0.008299,-0.024512,-0.019004,59.387619,23.384262,-147.350159,,,
729605997.276401,-1.322656,-2.305544,50.832738,0.037659,-0.016708,0.993958,0.008299,-0.024512,-0.019004,59.387619,23.384262,-147.350159,,,
729605997.279806,-1.322656,-2.305544,50.832738,0.037659,-0.016708,0.993958,0.008299,-0.024512,-0.019004,59.387619,23.384262,-147.350159,,,
729605997.283062,-1.317963,-2.307475,50.830922,0.037659,-0.016708,0.993958,0.020489,-0.014566,-0.007784,59.387619,23.384262,-147.350159,,,
729605997.286447,-1.312786,-2.311308,50.831582,0.029404,-0.026321,0.993561,0.020489,-0.014566,-0.007784,59.387619,23.384262,-147.350159,,,
729605997.28972,-1.312786,-2.311308,50.831582,0.029404,-0.026321,0.993561,0.020489,-0.014566,-0.007784,59.387619,23.384262,-147.350159,,,
729605997.293125,-1.308024,-2.31096,50.834351,0.029404,-0.026321,0.993561,0.011838,-0.003226,0.008818,59.387619,23.384262,-147.350159,,,
729605997.296403,-1.306382,-2.311913,50.838478,0.027573,-0.032196,0.987732,0.011838,-0.003226,0.008818,59.387619,23.384262,-147.350159,,,
729605997.299748,-1.306382,-2.311913,50.838478,0.027573,-0.032196,0.987732,0.011838,-0.003226,0.008818,59.387619,23.384262,-147.350159,,,
729605997.303125,-1.306326,-2.310749,50.843035,0.027573,-0.032196,0.987732,-0.006488,0.000834,0.013697,59.387619,23.384262,-147.350159,,,
729605997.306393,-1.310347,-2.310779,50.846926,0.032791,-0.029282,0.980469,-0.006488,0.000834,0.013697,59.387619,23.384262,-147.350159,,,
729605997.309744,-1.310347,-2.310779,50.846926,0.032791,-0.029282,0.980469,-0.006488,0.000834,0.013697,59.362366,23.352188,-147.315765,,,
729605997.31307,-1.316842,-2.307532,50.849665,0.032791,-0.029282,0.980469,-0.028484,0.004344,0.005986,59.362366,23.352188,-147.315765,,,
729605997.316401,-1.327189,-2.307476,50.8512,0.035492,-0.027908,0.978699,-0.028484,0.004344,0.005986,59.362366,23.352188,-147.315765,,,
729605997.319802,-1.327189,-2.307476,50.8512,0.035492,-0.027908,0.978699,-0.028484,0.004344,0.005986,59.362366,23.352188,-147.315765,,,
729605997.323072,-1.338418,-2.306103,50.851697,0.035492,-0.027908,0.978699,-0.044036,4.6e-05,0.001484,59.362366,23.352188,-147.315765,,,
729605997.326398,-1.352501,-2.306944,50.851106,0.031403,-0.028534,0.978073,-0.044036,4.6e-05,0.001484,59.362366,23.352188,-147.315765,,,
729605997.329744,-1.352501,-2.306944,50.851106,0.031403,-0.028534,0.978073,-0.044036,4.6e-05,0.001484,59.362366,23.352188,-147.315765,,,
729605997.33314,-1.365627,-2.307253,50.850148,0.031403,-0.028534,0.978073,-0.051984,-0.004619,-0.002596,59.362366,23.352188,-147.315765,,,
729605997.33646,-1.379271,-2.310559,50.849605,0.03334,-0.032104,0.980042,-0.051984,-0.004619,-0.002596,59.362366,23.352188,-147.315765,,,
729605997.339732,-1.379271,-2.310559,50.849605,0.03334,-0.032104,0.980042,-0.051984,-0.004619,-0.002596,59.362366,23.352188,-147.315765,,,
729605997.343075,-1.390218,-2.314619,50.849846,0.03334,-0.032104,0.980042,-0.039974,-0.012091,0.002527,59.362366,23.352188,-147.315765,,,
729605997.34639,-1.400191,-2.320536,50.851138,0.034317,-0.036911,0.98436,-0.039974,-0.012091,0.002527,59.362366,23.352188,-147.315765,,,
729605997.349721,-1.400191,-2.320536,50.851138,0.034317,-0.036911,0.98436,-0.039974,-0.012091,0.002527,59.260757,23.406235,-147.475525,,,
729605997.353127,-1.406008,-2.326671,50.853325,0.034317,-0.036911,0.98436,-0.022009,-0.021247,0.008819,59.260757,23.406235,-147.475525,,,
729605997.356394,-1.411053,-2.333023,50.856013,0.039902,-0.035767,0.991272,-0.022009,-0.021247,0.008819,59.260757,23.406235,-147.475525,,,
729605997.359791,-1.411053,-2.333023,50.856013,0.039902,-0.035767,0.991272,-0.022009,-0.021247,0.008819,59.260757,23.406235,-147.475525,,,
729605997.363096,-1.415055,-2.33637,50.859308,0.039902,-0.035767,0.991272,-0.014918,-0.010833,0.012586,59.260757,23.406235,-147.475525,,,
729605997.366399,-1.420497,-2.337967,50.863293,0.0401,-0.033295,0.990997,-0.014918,-0.010833,0.012586,59.260757,23.406235,-147.475525,,,
729605997.369786,-1.420497,-2.337967,50.863293,0.0401,-0.033295,0.990997,-0.014918,-0.010833,0.012586,59.260757,23.406235,-147.475525,,,
729605997.373118,-1.428452,-2.334123,50.867282,0.0401,-0.033295,0.990997,-0.026329,0.007718,0.014388,59.260757,23.406235,-147.475525,,,
729605997.376396,-1.437554,-2.330432,50.870159,0.042984,-0.029465,0.988068,-0.026329,0.007718,0.014388,59.260757,23.406235,-147.475525,,,
729605997.379732,-1.437554,-2.330432,50.870159,0.042984,-0.029465,0.988068,-0.026329,0.007718,0.014388,59.260757,23.406235,-147.475525,,,
729605997.383076,-1.449558,-2.322114,50.872211,0.042984,-0.029465,0.988068,-0.040863,0.024423,0.003882,59.260757,23.406235,-147.475525,,,
729605997.386446,-1.462469,-2.314951,50.872849,0.050247,-0.025574,0.981552,-0.040863,0.024423,0.003882,59.260757,23.406235,-147.475525,,,
729605997.389719,-1.462469,-2.314951,50.872849,0.050247,-0.025574,0.981552,-0.040863,0.024423,0.003882,59.245956,23.551331,-147.202576,,,
729605997.393074,-1.477257,-2.30614,50.872582,0.050247,-0.025574,0.981552,-0.050436,0.031102,-0.001274,59.245956,23.551331,-147.202576,,,
729605997.396396,-1.492886,-2.298351,50.872634,0.043777,-0.031296,0.987,-0.050436,0.031102,-0.001274,59.245956,23.551331,-147.202576,,,
729605997.399827,-1.492886,-2.298351,50.872634,0.043777,-0.031296,0.987,-0.050436,0.031102,-0.001274,59.245956,23.551331,-147.202576,,,
729605997.403122,-1.509072,-2.290443,50.872858,0.043777,-0.031296,0.987,-0.054416,0.024138,0.00246,59.245956,23.551331,-147.202576,,,
729605997.40639,-1.524569,-2.286474,50.872517,0.036987,-0.036362,0.991745,-0.054416,0.024138,0.00246,59.245956,23.551331,-147.202576,,,
729605997.40978,-1.524569,-2.286474,50.872517,0.036987,-0.036362,0.991745,-0.054416,0.024138,0.00246,59.245956,23.551331,-147.202576,,,
729605997.413129,-1.539314,-2.284542,50.870987,0.036987,-0.036362,0.991745,-0.050243,0.004411,-0.007021,59.245956,23.551331,-147.202576,,,
729605997.416387,-1.551662,-2.286921,50.867908,0.042892,-0.033264,0.9935,-0.050243,0.004411,-0.007021,59.245956,23.551331,-147.202576,,,
729605997.41981,-1.551662,-2.286921,50.867908,0.042892,-0.033264,0.9935,-0.050243,0.004411,-0.007021,59.245956,23.551331,-147.202576,,,
729605997.423078,-1.562214,-2.289516,50.863971,0.042892,-0.033264,0.9935,-0.028952,-0.010528,-0.013891,59.245956,23.551331,-147.202576,,,
729605997.426394,-1.567525,-2.294414,50.859837,0.040451,-0.0354,1.009369,-0.028952,-0.010528,-0.013891,59.245956,23.551331,-147.202576,,,
729605997.429778,-1.567525,-2.294414,50.859837,0.040451,-0.0354,1.009369,-0.028952,-0.010528,-0.013891,59.245956,23.551331,-147.202576,,,
729605997.433087,-1.570747,-2.299238,50.855978,0.040451,-0.0354,1.009369,-0.001244,-0.017839,-0.015549,59.316467,23.523117,-147.187027,,,
729605997.436437,-1.570128,-2.304923,50.852824,0.042572,-0.036255,1.012192,-0.001244,-0.017839,-0.015549,59.316467,23.523117,-147.187027,,,
729605997.439806,-1.570128,-2.304923,50.852824,0.042572,-0.036255,1.012192,-0.001244,-0.017839,-0.015549,59.316467,23.523117,-147.187027,,,
729605997.44307,-1.570464,-2.309001,50.850418,0.042572,-0.036255,1.012192,0.004234,-0.007738,-0.008644,59.316467,23.523117,-147.187027,,,
729605997.446383,-1.570695,-2.309775,50.849142,0.044266,-0.032425,1.003479,0.004234,-0.007738,-0.008644,59.316467,23.523117,-147.187027,,,
729605997.449743,-1.570695,-2.309775,50.849142,0.044266,-0.032425,1.003479,0.004234,-0.007738,-0.008644,59.316467,23.523117,-147.187027,,,
729605997.45313,-1.573738,-2.306743,50.849199,0.044266,-0.032425,1.003479,-0.010061,0.014787,-0.000476,59.316467,23.523117,-147.187027,,,
729605997.456389,-1.577883,-2.301948,50.850267,0.045029,-0.025696,0.999176,-0.010061,0.014787,-0.000476,59.316467,23.523117,-147.187027,,,
729605997.459742,-1.577883,-2.301948,50.850267,0.045029,-0.025696,0.999176,-0.010061,0.014787,-0.000476,59.316467,23.523117,-147.187027,,,
729605997.46306,-1.583359,-2.2987,50.85149,0.045029,-0.025696,0.999176,-0.017265,0.02225,0.001735,59.316467,23.523117,-147.187027,,,
729605997.466417,-1.589643,-2.292624,50.851711,0.051254,-0.025742,0.999863,-0.017265,0.02225,0.001735,59.316467,23.523117,-147.187027,,,
729605997.469784,-1.589643,-2.292624,50.851711,0.051254,-0.025742,0.999863,-0.017265,0.02225,0.001735,59.316467,23.523117,-147.187027,,,
729605997.473069,-1.596375,-2.289405,50.850288,0.051254,-0.025742,0.999863,-0.023627,0.025924,-0.005324,59.538193,23.322083,-147.282578,,,
729605997.476446,-1.603297,-2.28292,50.847329,0.052261,-0.025513,0.998444,-0.023627,0.025924,-0.005324,59.538193,23.322083,-147.282578,,,
729605997.479821,-1.603297,-2.28292,50.847329,0.052261,-0.025513,0.998444,-0.023627,0.025924,-0.005324,59.538193,23.322083,-147.282578,,,
729605997.48308,-1.612022,-2.276989,50.842503,0.052261,-0.025513,0.998444,-0.02362,0.023384,-0.017425,59.538193,23.322083,-147.282578,,,
729605997.48645,-1.619963,-2.272519,50.835788,0.049973,-0.022781,0.999817,-0.02362,0.023384,-0.017425,59.538193,23.322083,-147.282578,,,
729605997.489736,-1.619963,-2.272519,50.835788,0.049973,-0.022781,0.999817,-0.02362,0.023384,-0.017425,59.538193,23.322083,-147.282578,,,
729605997.493123,-1.62915,-2.269411,50.82739,0.049973,-0.022781,0.999817,-0.028653,0.01503,-0.031729,59.538193,23.322083,-147.282578,,,
729605997.496463,-1.63764,-2.26863,50.818342,0.046555,-0.024933,0.996841,-0.028653,0.01503,-0.031729,59.538193,23.322083,-147.282578,,,
729605997.49976,-1.63764,-2.26863,50.818342,0.046555,-0.024933,0.996841,-0.028653,0.01503,-0.031729,59.538193,23.322083,-147.282578,,,
729605997.503127,-1.647544,-2.270771,50.81,0.046555,-0.024933,0.996841,-0.033258,-0.003089,-0.027605,59.538193,23.322083,-147.282578,,,
729605997.506463,-1.657825,-2.27375,50.80278,0.042953,-0.030975,0.991714,-0.033258,-0.003089,-0.027605,59.538193,23.322083,-147.282578,,,
729605997.509737,-1.657825,-2.27375,50.80278,0.042953,-0.030975,0.991714,-0.033258,-0.003089,-0.027605,59.538193,23.322083,-147.282578,,,
729605997.513122,-1.669465,-2.277926,50.796665,0.042953,-0.030975,0.991714,-0.039371,-0.010137,-0.020555,59.379105,23.233994,-147.371857,,,
729605997.516395,-1.678594,-2.282908,50.790381,0.046616,-0.031982,0.999039,-0.039371,-0.010137,-0.020555,59.379105,23.233994,-147.371857,,,
729605997.519775,-1.678594,-2.282908,50.790381,0.046616,-0.031982,0.999039,-0.039371,-0.010137,-0.020555,59.379105,23.233994,-147.371857,,,
729605997.523082,-1.68756,-2.289764,50.783201,0.046616,-0.031982,0.999039,-0.026757,-0.019848,-0.025583,59.379105,23.233994,-147.371857,,,
729605997.52647,-1.694321,-2.295494,50.775718,0.054825,-0.024368,1.006027,-0.026757,-0.019848,-0.025583,59.379105,23.233994,-147.371857,,,
729605997.529736,-1.694321,-2.295494,50.775718,0.054825,-0.024368,1.006027,-0.026757,-0.019848,-0.025583,59.379105,23.233994,-147.371857,,,
729605997.533126,-1.699696,-2.300479,50.766873,0.054825,-0.024368,1.006027,-0.020408,-0.006645,-0.033484,59.379105,23.233994,-147.371857,,,
729605997.53641,-1.703634,-2.300875,50.756501,0.056503,-0.023239,1.009537,-0.020408,-0.006645,-0.033484,59.379105,23.233994,-147.371857,,,
729605997.539729,-1.703634,-2.300875,50.756501,0.056503,-0.023239,1.009537,-0.020408,-0.006645,-0.033484,59.379105,23.233994,-147.371857,,,
729605997.543069,-1.70426,-2.300426,50.745086,0.056503,-0.023239,1.009537,-0.002893,0.0154,-0.042934,59.379105,23.233994,-147.371857,,,
729605997.546426,-1.703408,-2.296003,50.733243,0.059555,-0.023636,1.016449,-0.002893,0.0154,-0.042934,59.379105,23.233994,-147.371857,,,
729605997.549744,-1.703408,-2.296003,50.733243,0.059555,-0.023636,1.016449,-0.002893,0.0154,-0.042934,59.379105,23.233994,-147.371857,,,
729605997.553107,-1.700273,-2.294145,50.721832,0.059555,-0.023636,1.016449,0.00847,0.024585,-0.04272,59.272964,23.652481,-146.95079,,,
729605997.556393,-1.69631,-2.287594,50.711631,0.051804,-0.028336,1.012451,0.00847,0.024585,-0.04272,59.272964,23.652481,-146.95079,,,
729605997.559784,-1.69631,-2.287594,50.711631,0.051804,-0.028336,1.012451,0.00847,0.024585,-0.04272,59.272964,23.652481,-146.95079,,,
729605997.563069,-1.691823,-2.283632,50.702016,0.051804,-0.028336,1.012451,0.012683,0.027799,-0.033459,59.272964,23.652481,-146.95079,,,
729605997.566516,-1.68932,-2.277198,50.693116,0.041473,-0.029541,1.003357,0.012683,0.027799,-0.033459,59.272964,23.652481,-146.95079,,,
729605997.569772,-1.68932,-2.277198,50.693116,0.041473,-0.029541,1.003357,0.012683,0.027799,-0.033459,59.272964,23.652481,-146.95079,,,
729605997.573066,-1.687427,-2.275135,50.684385,0.041473,-0.029541,1.003357,-0.000357,0.019355,-0.033577,59.272964,23.652481,-146.95079,,,
729605997.576438,-1.6892,-2.272702,50.674714,0.041473,-0.029541,1.003357,-0.000357,0.019355,-0.033577,59.272964,23.652481,-146.95079,,,
729605997.579779,-1.6892,-2.272702,50.674714,0.042969,-0.025131,0.996918,-0.000357,0.019355,-0.033577,59.272964,23.652481,-146.95079,,,
729605997.583165,-1.693203,-2.273939,50.663042,0.042969,-0.025131,0.996918,-0.018796,0.002785,-0.043489,59.272964,23.652481,-146.95079,,,
729605997.586369,-1.693203,-2.27557,50.64919,0.042969,-0.025131,0.996918,-0.018796,0.002785,-0.043489,59.272964,23.652481,-146.95079,,,
729605997.589761,-1.69988,-2.27557,50.64919,0.044495,-0.020981,0.989151,-0.018796,0.002785,-0.043489,59.272964,23.652481,-146.95079,,,
729605997.593077,-1.708855,-2.27974,50.633842,0.044495,-0.020981,0.989151,-0.030503,-0.008104,-0.05682,59.272964,23.652481,-146.95079,,,
729605997.596437,-1.718838,-2.283305,50.6173,0.043259,-0.020752,0.990753,-0.030503,-0.008104,-0.05682,59.374313,23.397964,-147.236282,,,
729605997.599745,-1.718838,-2.283305,50.6173,0.043259,-0.020752,0.990753,-0.030503,-0.008104,-0.05682,59.374313,23.397964,-147.236282,,,
729605997.603121,-1.728819,-2.287816,50.599941,0.043259,-0.020752,0.990753,-0.039828,0.001803,-0.061349,59.374313,23.397964,-147.236282,,,
729605997.606455,-1.728819,-2.286347,50.58271,0.043259,-0.01973,1.000778,-0.039828,0.001803,-0.061349,59.374313,23.397964,-147.236282,,,
729605997.6098,-1.737256,-2.286347,50.58271,0.037033,-0.01973,1.000778,-0.039828,0.001803,-0.061349,59.374313,23.397964,-147.236282,,,
729605997.613076,-1.74142,-2.286746,50.566292,0.037033,-0.01973,1.000778,-0.017422,0.021448,-0.055244,59.374313,23.397964,-147.236282,,,
729605997.616465,-1.74142,-2.280912,50.55205,0.037033,-0.01973,1.000778,-0.017422,0.021448,-0.055244,59.374313,23.397964,-147.236282,,,
729605997.619845,-1.743297,-2.280912,50.55205,0.035248,-0.023438,1.013168,-0.017422,0.021448,-0.055244,59.374313,23.397964,-147.236282,,,
729605997.623125,-1.740701,-2.278454,50.540174,0.035248,-0.023438,1.013168,0.007606,0.029029,-0.040178,59.374313,23.397964,-147.236282,,,
729605997.626415,-1.740701,-2.278454,50.540174,0.035248,-0.023438,1.013168,0.007606,0.029029,-0.040178,59.374313,23.397964,-147.236282,,,
729605997.629733,-1.736528,-2.269509,50.531524,0.025528,-0.027191,1.013397,0.007606,0.029029,-0.040178,59.374313,23.397964,-147.236282,,,
729605997.633069,-1.729237,-2.263914,50.525555,0.025528,-0.027191,1.013397,0.023898,0.044499,-0.019884,59.374313,23.397964,-147.236282,,,
729605997.63651,-1.729237,-2.251936,50.521535,0.025528,-0.027191,1.008987,0.023898,0.044499,-0.019884,59.394791,23.380539,-147.375595,,,
729605997.639737,-1.721293,-2.251936,50.521535,0.02005,-0.026337,1.008987,0.023898,0.044499,-0.019884,59.394791,23.380539,-147.375595,,,
729605997.643061,-1.713559,-2.241738,50.517894,0.02005,-0.026337,1.008987,0.024027,0.045215,-0.013305,59.394791,23.380539,-147.375595,,,
729605997.646419,-1.713559,-2.241738,50.517894,0.02005,-0.026337,1.008987,0.024027,0.045215,-0.013305,59.394791,23.380539,-147.375595,,,
729605997.649789,-1.707364,-2.230102,50.514162,0.026474,-0.018341,0.995865,0.024027,0.045215,-0.013305,59.394791,23.380539,-147.375595,,,
729605997.653114,-1.701996,-2.219925,50.510105,0.026474,-0.018341,0.995865,0.013748,0.040976,-0.015875,59.394791,23.380539,-147.375595,,,
729605997.65654,-1.701996,-2.210959,50.505313,0.02829,-0.015671,0.986481,0.013748,0.040976,-0.015875,59.394791,23.380539,-147.375595,,,
729605997.65973,-1.698544,-2.210959,50.505313,0.02829,-0.015671,0.986481,0.013748,0.040976,-0.015875,59.394791,23.380539,-147.375595,,,
729605997.663074,-1.695794,-2.205673,50.499434,0.02829,-0.015671,0.986481,0.003368,0.026563,-0.023033,59.394791,23.380539,-147.375595,,,
729605997.666434,-1.695794,-2.205673,50.499434,0.02829,-0.015671,0.986481,0.003368,0.026563,-0.023033,59.394791,23.380539,-147.375595,,,
729605997.669789,-1.696167,-2.200559,50.493403,0.024231,-0.016647,0.983963,0.003368,0.026563,-0.023033,59.394791,23.380539,-147.375595,,,
729605997.673118,-1.696834,-2.199503,50.488216,0.024231,-0.016647,0.983963,-0.006105,0.01104,-0.020405,59.394791,23.380539,-147.375595,,,
729605997.676419,-1.696834,-2.199503,50.488216,0.024231,-0.016647,0.983963,-0.006105,0.01104,-0.020405,59.459045,23.504745,-147.257538,,,
729605997.679748,-1.700124,-2.198012,50.484205,0.021423,-0.019058,0.982056,-0.006105,0.01104,-0.020405,59.459045,23.504745,-147.257538,,,
729605997.683063,-1.701604,-2.198116,50.481986,0.021423,-0.019058,0.982056,-0.012642,0.004856,-0.007018,59.459045,23.504745,-147.257538,,,
729605997.686554,-1.701604,-2.198116,50.481986,0.021423,-0.019058,0.982056,-0.012642,0.004856,-0.007018,59.459045,23.504745,-147.257538,,,
729605997.689715,-1.705044,-2.19822,50.481115,0.022751,-0.021591,0.98732,-0.012642,0.004856,-0.007018,59.459045,23.504745,-147.257538,,,
729605997.693084,-1.707616,-2.197165,50.481613,0.022751,-0.021591,0.98732,-0.014043,0.006413,0.00327,59.459045,23.504745,-147.257538,,,
729605997.696436,-1.707616,-2.197165,50.481613,0.022751,-0.021591,0.98732,-0.014043,0.006413,0.00327,59.459045,23.504745,-147.257538,,,
729605997.699834,-1.711555,-2.194526,50.484537,0.026062,-0.025208,0.994537,-0.014043,0.006413,0.00327,59.459045,23.504745,-147.257538,,,
729605997.703091,-1.714474,-2.188077,50.489538,0.026062,-0.025208,0.994537,-0.013059,0.020907,0.017005,59.459045,23.504745,-147.257538,,,
729605997.706445,-1.714474,-2.188077,50.489538,0.026062,-0.025208,0.994537,-0.013059,0.020907,0.017005,59.459045,23.504745,-147.257538,,,
729605997.709754,-1.718027,-2.182187,50.495474,0.029846,-0.027954,0.99971,-0.013059,0.020907,0.017005,59.459045,23.504745,-147.257538,,,
729605997.713069,-1.719943,-2.171427,50.502224,0.029846,-0.027954,0.99971,-0.005482,0.023971,0.025136,59.459045,23.504745,-147.257538,,,
729605997.716396,-1.719943,-2.171427,50.502224,0.029846,-0.027954,0.99971,-0.005482,0.023971,0.025136,59.487839,23.352188,-147.088852,,,
729605997.719775,-1.71961,-2.16499,50.509181,0.03714,-0.026367,0.99884,-0.005482,0.023971,0.025136,59.487839,23.352188,-147.088852,,,
729605997.72306,-1.714481,-2.153973,50.51626,0.03714,-0.026367,0.99884,0.018946,0.026078,0.022135,59.487839,23.352188,-147.088852,,,
729605997.726398,-1.714481,-2.153973,50.51626,0.03714,-0.026367,0.99884,0.018946,0.026078,0.022135,59.487839,23.352188,-147.088852,,,
729605997.729745,-1.705993,-2.148913,50.523821,0.030014,-0.030075,1.013016,0.018946,0.026078,0.022135,59.487839,23.352188,-147.088852,,,
729605997.733063,-1.690762,-2.145302,50.533035,0.030014,-0.030075,1.013016,0.04997,-0.000392,0.029115,59.487839,23.352188,-147.088852,,,
729605997.736487,-1.690762,-2.145302,50.533035,0.030014,-0.030075,1.013016,0.04997,-0.000392,0.029115,59.487839,23.352188,-147.088852,,,
729605997.739725,-1.6755,-2.148541,50.543857,0.019226,-0.03624,1.009903,0.04997,-0.000392,0.029115,59.487839,23.352188,-147.088852,,,
729605997.743065,-1.657921,-2.151732,50.555844,0.019226,-0.03624,1.009903,0.057593,-0.021639,0.039929,59.487839,23.352188,-147.088852,,,
729605997.746406,-1.657921,-2.151732,50.555844,0.019226,-0.03624,1.009903,0.057593,-0.021639,0.039929,59.487839,23.352188,-147.088852,,,
729605997.749803,-1.643935,-2.159327,50.568577,0.017532,-0.034592,0.997513,0.057593,-0.021639,0.039929,59.487839,23.352188,-147.088852,,,
729605997.753124,-1.631051,-2.163724,50.581982,0.017532,-0.034592,0.997513,0.038979,-0.02574,0.040318,59.487839,23.352188,-147.088852,,,
729605997.756401,-1.631051,-2.163724,50.581982,0.017532,-0.034592,0.997513,0.038979,-0.02574,0.040318,59.487839,23.352188,-147.088852,,,
729605997.759744,-1.623827,-2.17175,50.595027,0.023651,-0.027481,0.994232,0.038979,-0.02574,0.040318,59.348755,23.377258,-147.344574,,,
729605997.763063,-1.61883,-2.173982,50.608085,0.023651,-0.027481,0.994232,0.011979,-0.021613,0.043485,59.348755,23.377258,-147.344574,,,
729605997.766402,-1.61883,-2.173982,50.608085,0.023651,-0.027481,0.994232,0.011979,-0.021613,0.043485,59.348755,23.377258,-147.344574,,,
729605997.76979,-1.617463,-2.179456,50.62053,0.030655,-0.023743,0.990463,0.011979,-0.021613,0.043485,59.348755,23.377258,-147.344574,,,
729605997.773058,-1.615904,-2.179282,50.631495,0.030655,-0.023743,0.990463,0.001097,-0.008445,0.035298,59.348755,23.377258,-147.344574,,,
729605997.77646,-1.615904,-2.179282,50.631495,0.030655,-0.023743,0.990463,0.001097,-0.008445,0.035298,59.348755,23.377258,-147.344574,,,
729605997.779734,-1.616042,-2.181594,50.640906,0.040939,-0.020218,0.999268,0.001097,-0.008445,0.035298,59.348755,23.377258,-147.344574,,,
729605997.783065,-1.616085,-2.179582,50.649133,0.040939,-0.020218,0.999268,0.000945,0.000423,0.025761,59.348755,23.377258,-147.344574,,,
729605997.786469,-1.616085,-2.179582,50.649133,0.040939,-0.020218,0.999268,0.000945,0.000423,0.025761,59.348755,23.377258,-147.344574,,,
729605997.789724,-1.616202,-2.179938,50.655678,0.044266,-0.017212,0.998672,0.000945,0.000423,0.025761,59.348755,23.377258,-147.344574,,,
729605997.793067,-1.616506,-2.178122,50.661143,0.044266,-0.017212,0.998672,0.00304,0.003996,0.017638,59.348755,23.377258,-147.344574,,,
729605997.796409,-1.616506,-2.178122,50.661143,0.044266,-0.017212,0.998672,0.00304,0.003996,0.017638,59.348755,23.377258,-147.344574,,,
729605997.799742,-1.616833,-2.17782,50.666123,0.044022,-0.019409,0.995544,0.00304,0.003996,0.017638,59.519379,23.603729,-147.36496,,,
729605997.803104,-1.616423,-2.178012,50.671196,0.044022,-0.019409,0.995544,0.003177,-0.000195,0.01637,59.519379,23.603729,-147.36496,,,
729605997.806479,-1.616423,-2.178012,50.671196,0.044022,-0.019409,0.995544,0.003177,-0.000195,0.01637,59.519379,23.603729,-147.36496,,,
729605997.809773,-1.615351,-2.178871,50.676774,0.042267,-0.025162,0.991669,0.003177,-0.000195,0.01637,59.519379,23.603729,-147.36496,,,
729605997.813073,-1.613639,-2.175794,50.683168,0.042267,-0.025162,0.991669,0.009401,0.001195,0.019792,59.519379,23.603729,-147.36496,,,
729605997.816505,-1.613639,-2.175794,50.683168,0.042267,-0.025162,0.991669,0.009401,0.001195,0.019792,59.519379,23.603729,-147.36496,,,
729605997.819822,-1.610797,-2.176077,50.690092,0.038849,-0.030273,0.995728,0.009401,0.001195,0.019792,59.519379,23.603729,-147.36496,,,
729605997.82306,-1.608489,-2.170644,50.697947,0.038849,-0.030273,0.995728,0.016575,0.000482,0.024392,59.519379,23.603729,-147.36496,,,
729605997.826403,-1.608489,-2.170644,50.697947,0.038849,-0.030273,0.995728,0.016575,0.000482,0.024392,59.519379,23.603729,-147.36496,,,
729605997.829813,-1.603668,-2.170636,50.70614,0.038574,-0.03035,0.993683,0.016575,0.000482,0.024392,59.519379,23.603729,-147.36496,,,
729605997.833052,-1.598973,-2.16377,50.714049,0.038574,-0.03035,0.993683,0.018827,0.0104,0.023364,59.519379,23.603729,-147.36496,,,
729605997.836408,-1.598973,-2.16377,50.714049,0.038574,-0.03035,0.993683,0.018827,0.0104,0.023364,59.519379,23.603729,-147.36496,,,
729605997.839728,-1.59368,-2.160322,50.720976,0.042267,-0.025467,0.996704,0.018827,0.0104,0.023364,59.36293,23.461914,-147.16272,,,
729605997.843059,-1.589138,-2.153137,50.727333,0.042267,-0.025467,0.996704,0.013711,0.013658,0.020001,59.36293,23.461914,-147.16272,,,
729605997.846414,-1.589138,-2.153137,50.727333,0.042267,-0.025467,0.996704,0.013711,0.013658,0.020001,59.36293,23.461914,-147.16272,,,
729605997.849739,-1.587395,-2.148904,50.733328,0.044662,-0.0242,0.988525,0.013711,0.013658,0.020001,59.36293,23.461914,-147.16272,,,
729605997.853066,-1.588645,-2.143351,50.738624,0.044662,-0.0242,0.988525,-0.009227,0.018903,0.016512,59.36293,23.461914,-147.16272,,,
729605997.856515,-1.588645,-2.143351,50.738624,0.044662,-0.0242,0.988525,-0.009227,0.018903,0.016512,59.36293,23.461914,-147.16272,,,
729605997.859789,-1.594446,-2.137282,50.743446,0.042526,-0.026764,0.978653,-0.009227,0.018903,0.016512,59.36293,23.461914,-147.16272,,,
729605997.863064,-1.601697,-2.131077,50.748428,0.042526,-0.026764,0.978653,-0.033374,0.030471,0.019385,59.36293,23.461914,-147.16272,,,
729605997.866453,-1.601697,-2.131077,50.748428,0.042526,-0.026764,0.978653,-0.033374,0.030471,0.019385,59.36293,23.461914,-147.16272,,,
729605997.869723,-1.613447,-2.1224,50.753491,0.041183,-0.029327,0.979797,-0.033374,0.030471,0.019385,59.36293,23.461914,-147.16272,,,
729605997.873063,-1.625137,-2.116385,50.757996,0.041183,-0.029327,0.979797,-0.045921,0.031601,0.016394,59.36293,23.461914,-147.16272,,,
729605997.876409,-1.625137,-2.116385,50.757996,0.041183,-0.029327,0.979797,-0.045921,0.031601,0.016394,59.36293,23.461914,-147.16272,,,
729605997.879716,-1.63861,-2.108647,50.7614,0.043594,-0.029434,0.983826,-0.045921,0.031601,0.016394,59.425644,23.55603,-147.079163,,,
729605997.88306,-1.64926,-2.103299,50.763661,0.043594,-0.029434,0.983826,-0.039096,0.027401,0.006669,59.425644,23.55603,-147.079163,,,
729605997.886392,-1.64926,-2.103299,50.763661,0.043594,-0.029434,0.983826,-0.039096,0.027401,0.006669,59.425644,23.55603,-147.079163,,,
729605997.889743,-1.658215,-2.096299,50.765443,0.045959,-0.031174,0.998734,-0.039096,0.027401,0.006669,59.425644,23.55603,-147.079163,,,
729605997.893105,-1.663594,-2.091049,50.766874,0.045959,-0.031174,0.998734,-0.016224,0.023398,0.006333,59.425644,23.55603,-147.079163,,,
729605997.896419,-1.663594,-2.091049,50.766874,0.045959,-0.031174,0.998734,-0.016224,0.023398,0.006333,59.425644,23.55603,-147.079163,,,
729605997.899739,-1.666317,-2.0858,50.768751,0.038818,-0.035904,1.004745,-0.016224,0.023398,0.006333,59.425644,23.55603,-147.079163,,,
729605997.903058,-1.667452,-2.082978,50.771171,0.038818,-0.035904,1.004745,-0.001286,0.011359,0.006399,59.425644,23.55603,-147.079163,,,
729605997.906501,-1.667452,-2.082978,50.771171,0.038818,-0.035904,1.004745,-0.001286,0.011359,0.006399,59.425644,23.55603,-147.079163,,,
729605997.909751,-1.66753,-2.082456,50.773834,0.033249,-0.037628,0.997177,-0.001286,0.011359,0.006399,59.425644,23.55603,-147.079163,,,
729605997.913066,-1.668007,-2.08543,50.777204,0.033249,-0.037628,0.997177,-0.003134,-0.003931,0.010853,59.425644,23.55603,-147.079163,,,
729605997.91639,-1.668007,-2.08543,50.777204,0.033249,-0.037628,0.997177,-0.003134,-0.003931,0.010853,59.425644,23.55603,-147.079163,,,
729605997.919741,-1.670872,-2.088899,50.781192,0.038574,-0.033737,0.988174,-0.003134,-0.003931,0.010853,59.425644,23.55603,-147.079163,,,
729605997.923069,-1.675586,-2.09529,50.785051,0.038574,-0.033737,0.988174,-0.019803,-0.013568,0.012807,59.648407,23.497971,-146.970123,,,
729605997.926391,-1.675586,-2.09529,50.785051,0.038574,-0.033737,0.988174,-0.019803,-0.013568,0.012807,59.648407,23.497971,-146.970123,,,
729605997.92973,-1.683788,-2.099992,50.788154,0.041321,-0.031906,0.989136,-0.019803,-0.013568,0.012807,59.648407,23.497971,-146.970123,,,
729605997.933059,-1.69396,-2.106309,50.7904,0.041321,-0.031906,0.989136,-0.040893,-0.00893,0.005325,59.648407,23.497971,-146.970123,,,
729605997.936396,-1.69396,-2.106309,50.7904,0.041321,-0.031906,0.989136,-0.040893,-0.00893,0.005325,59.648407,23.497971,-146.970123,,,
729605997.939757,-1.705857,-2.10823,50.791966,0.044601,-0.033249,0.998672,-0.040893,-0.00893,0.005325,59.648407,23.497971,-146.970123,,,
729605997.943061,-1.717251,-2.108936,50.792511,0.044601,-0.033249,0.998672,-0.038816,0.008502,0.00066,59.648407,23.497971,-146.970123,,,
729605997.946457,-1.717251,-2.108936,50.792511,0.044601,-0.033249,0.998672,-0.038816,0.008502,0.00066,59.648407,23.497971,-146.970123,,,
729605997.949741,-1.729042,-2.104431,50.792776,0.046692,-0.028549,1.013733,-0.038816,0.008502,0.00066,59.648407,23.497971,-146.970123,,,
729605997.953062,-1.740251,-2.0973,50.792982,0.046692,-0.028549,1.013733,-0.037276,0.039137,-0.000582,59.648407,23.497971,-146.970123,,,
729605997.956392,-1.740251,-2.0973,50.792982,0.046692,-0.028549,1.013733,-0.037276,0.039137,-0.000582,59.648407,23.497971,-146.970123,,,
729605997.959791,-1.750087,-2.084431,50.792939,0.044708,-0.027237,1.021408,-0.037276,0.039137,-0.000582,59.648407,23.497971,-146.970123,,,
729605997.963055,-1.757713,-2.070682,50.792506,0.044708,-0.027237,1.021408,-0.024425,0.062595,-0.001302,59.691605,23.387589,-147.062424,,,
729605997.966416,-1.757713,-2.070682,50.792506,0.044708,-0.027237,1.021408,-0.024425,0.062595,-0.001302,59.691605,23.387589,-147.062424,,,
729605997.969732,-1.762289,-2.051801,50.792269,0.039398,-0.027954,1.026764,-0.024425,0.062595,-0.001302,59.691605,23.387589,-147.062424,,,
729605997.973087,-1.763698,-2.03271,50.79213,0.039398,-0.027954,1.026764,0.001222,0.076626,-9e-05,59.691605,23.387589,-147.062424,,,
729605997.976414,-1.763698,-2.03271,50.79213,0.039398,-0.027954,1.026764,0.001222,0.076626,-9e-05,59.691605,23.387589,-147.062424,,,
729605997.979743,-1.761205,-2.009868,50.792576,0.032486,-0.030258,1.029099,0.001222,0.076626,-9e-05,59.691605,23.387589,-147.062424,,,
729605997.983061,-1.75464,-1.986948,50.794578,0.032486,-0.030258,1.029099,0.032545,0.083995,0.006213,59.691605,23.387589,-147.062424,,,
729605997.986401,-1.75464,-1.986948,50.794578,0.032486,-0.030258,1.029099,0.032545,0.083995,0.006213,59.691605,23.387589,-147.062424,,,
729605997.989762,-1.74223,-1.962796,50.79844,0.025345,-0.034073,1.027115,0.032545,0.083995,0.006213,59.691605,23.387589,-147.062424,,,
729605997.99311,-1.727097,-1.938077,50.803688,0.025345,-0.034073,1.027115,0.060954,0.087346,0.017751,59.691605,23.387589,-147.062424,,,
729605997.996393,-1.727097,-1.938077,50.803688,0.025345,-0.034073,1.027115,0.060954,0.087346,0.017751,59.691605,23.387589,-147.062424,,,
729605997.999733,-1.707418,-1.914061,50.810878,0.018143,-0.038757,1.023849,0.060954,0.087346,0.017751,59.691605,23.387589,-147.062424,,,
729605998.003068,-1.685215,-1.893621,50.820164,0.018143,-0.038757,1.023849,0.087243,0.076143,0.031399,59.616043,23.386566,-147.237228,,,
729605998.00639,-1.685215,-1.893621,50.820164,0.018143,-0.038757,1.023849,0.087243,0.076143,0.031399,59.616043,23.386566,-147.237228,,,
729605998.009761,-1.660877,-1.874946,50.831867,0.014999,-0.037598,1.009354,0.087243,0.076143,0.031399,59.616043,23.386566,-147.237228,,,
729605998.013063,-1.637525,-1.863907,50.84566,0.014999,-0.037598,1.009354,0.083748,0.046722,0.047201,59.616043,23.386566,-147.237228,,,
729605998.01639,-1.637525,-1.863907,50.84566,0.014999,-0.037598,1.009354,0.083748,0.046722,0.047201,59.616043,23.386566,-147.237228,,,
729605998.019732,-1.61553,-1.854446,50.860219,0.013474,-0.030746,0.991272,0.083748,0.046722,0.047201,59.616043,23.386566,-147.237228,,,
729605998.023056,-1.596684,-1.852994,50.874338,0.013474,-0.030746,0.991272,0.068341,0.017211,0.046987,59.616043,23.386566,-147.237228,,,
729605998.026396,-1.596684,-1.852994,50.874338,0.013474,-0.030746,0.991272,0.068341,0.017211,0.046987,59.616043,23.386566,-147.237228,,,
729605998.029755,-1.579416,-1.851787,50.887649,0.016907,-0.025024,0.982208,0.068341,0.017211,0.046987,59.616043,23.386566,-147.237228,,,
729605998.033061,-1.564381,-1.858612,50.899115,0.016907,-0.025024,0.982208,0.05194,-0.012345,0.03644,59.616043,23.386566,-147.237228,,,
729605998.03639,-1.564381,-1.858612,50.899115,0.016907,-0.025024,0.982208,0.05194,-0.012345,0.03644,59.616043,23.386566,-147.237228,,,
729605998.03973,-1.551712,-1.866412,50.909216,0.025192,-0.023514,0.979614,0.05194,-0.012345,0.03644,59.616043,23.386566,-147.237228,,,
729605998.0431,-1.540924,-1.881106,50.918221,0.025192,-0.023514,0.979614,0.037455,-0.042332,0.030699,59.616043,23.386566,-147.237228,,,
729605998.046402,-1.540924,-1.881106,50.918221,0.025192,-0.023514,0.979614,0.037455,-0.042332,0.030699,59.667023,23.292023,-147.372971,,,
729605998.0498,-1.532802,-1.896052,50.926511,0.030304,-0.019043,0.975525,0.037455,-0.042332,0.030699,59.667023,23.292023,-147.372971,,,
729605998.053063,-1.527194,-1.913474,50.934295,0.030304,-0.019043,0.975525,0.018902,-0.054763,0.022719,59.667023,23.292023,-147.372971,,,
729605998.056399,-1.527194,-1.913474,50.934295,0.030304,-0.019043,0.975525,0.018902,-0.054763,0.022719,59.667023,23.292023,-147.372971,,,
