Time (sec),Pitch (deg),Roll (deg),Yaw(deg),X-Acceleration (g),Y-Acceleration (g),Z-Acceleration (g),Pitch Rate (deg/sec),Roll Rate (deg/sec),Yaw Rate (deg/sec),Magnetic Field in X direction (uT),Magnetic Field in Y direction (uT),Magnetic Field in Z Direction (uT),Latitude (deg),Longitude (deg),Altitude (m)
729601295.317238,1.659905,-0.39307,-21.923068,0.01889,0.031876,1.00444,-0.038925,0.118693,0.014689,70.052124,8.014221,-145.771286,,,
729601295.320641,1.659905,-0.39307,-21.923068,0.01889,0.031876,1.00444,-0.038925,0.118693,0.014689,70.052124,8.014221,-145.771286,,,
729601295.32395,1.645842,-0.358526,-21.919358,0.009338,0.027191,1.001678,-0.038925,0.118693,0.014689,70.052124,8.014221,-145.771286,,,
729601295.327248,1.638544,-0.332804,-21.917369,0.009338,0.027191,1.001678,-0.020335,0.078519,0.001968,70.052124,8.014221,-145.771286,,,
729601295.330574,1.638544,-0.332804,-21.917369,0.009338,0.027191,1.001678,-0.020335,0.078519,0.001968,70.052124,8.014221,-145.771286,,,
729601295.333921,1.629098,-0.314674,-21.917851,0.00528,0.026535,1.000244,-0.020335,0.078519,0.001968,70.475891,8.03186,-145.353134,,,
729601295.33728,1.627034,-0.309981,-21.920874,0.00528,0.026535,1.000244,-0.004251,-0.00057,-0.016242,70.475891,8.03186,-145.353134,,,
729601295.340574,1.627034,-0.309981,-21.920874,0.00528,0.026535,1.000244,-0.004251,-0.00057,-0.016242,70.475891,8.03186,-145.353134,,,
729601295.344009,1.622888,-0.315298,-21.926375,0.00351,0.026764,0.987183,-0.004251,-0.00057,-0.016242,70.475891,8.03186,-145.353134,,,
729601295.347242,1.621547,-0.327193,-21.93476,0.00351,0.026764,0.987183,-0.006052,-0.05028,-0.03625,70.475891,8.03186,-145.353134,,,
729601295.350598,1.621547,-0.327193,-21.93476,0.00351,0.026764,0.987183,-0.006052,-0.05028,-0.03625,70.475891,8.03186,-145.353134,,,
729601295.353982,1.619777,-0.346065,-21.94566,-0.00174,0.023361,0.987503,-0.006052,-0.05028,-0.03625,70.475891,8.03186,-145.353134,,,
729601295.357283,1.618885,-0.367446,-21.958784,-0.00174,0.023361,0.987503,-0.001273,-0.078388,-0.051501,70.475891,8.03186,-145.353134,,,
729601295.36065,1.618885,-0.367446,-21.958784,-0.00174,0.023361,0.987503,-0.001273,-0.078388,-0.051501,70.475891,8.03186,-145.353134,,,
729601295.363909,1.619618,-0.392818,-21.973872,0.004578,0.024063,0.994492,-0.001273,-0.078388,-0.051501,70.475891,8.03186,-145.353134,,,
729601295.367234,1.621024,-0.416446,-21.990599,0.004578,0.024063,0.994492,0.007785,-0.079031,-0.062626,70.475891,8.03186,-145.353134,,,
729601295.370674,1.621024,-0.416446,-21.990599,0.004578,0.024063,0.994492,0.007785,-0.079031,-0.062626,70.475891,8.03186,-145.353134,,,
729601295.3739,1.623795,-0.439689,-22.008033,0.011795,0.025604,1.007324,0.007785,-0.079031,-0.062626,70.256561,7.959381,-146.056183,,,
729601295.377245,1.626705,-0.453128,-22.024731,0.011795,0.025604,1.007324,0.011239,-0.032707,-0.056856,70.256561,7.959381,-146.056183,,,
729601295.380581,1.626705,-0.453128,-22.024731,0.011795,0.025604,1.007324,0.011239,-0.032707,-0.056856,70.256561,7.959381,-146.056183,,,
729601295.383997,1.631374,-0.463675,-22.039509,0.00914,0.020615,1.014603,0.011239,-0.032707,-0.056856,70.256561,7.959381,-146.056183,,,
729601295.387268,1.634795,-0.462074,-22.052717,0.00914,0.020615,1.014603,0.012603,0.019511,-0.044975,70.256561,7.959381,-146.056183,,,
729601295.390568,1.634795,-0.462074,-22.052717,0.00914,0.020615,1.014603,0.012603,0.019511,-0.044975,70.256561,7.959381,-146.056183,,,
729601295.393926,1.639331,-0.456123,-22.064362,0.009964,0.0186,1.016327,0.012603,0.019511,-0.044975,70.256561,7.959381,-146.056183,,,
729601295.397234,1.644477,-0.441729,-22.075318,0.009964,0.0186,1.016327,0.019821,0.063235,-0.039803,70.256561,7.959381,-146.056183,,,
729601295.400585,1.644477,-0.441729,-22.075318,0.009964,0.0186,1.016327,0.019821,0.063235,-0.039803,70.256561,7.959381,-146.056183,,,
729601295.404001,1.650689,-0.42163,-22.086333,0.012833,0.024048,1.010315,0.019821,0.063235,-0.039803,70.256561,7.959381,-146.056183,,,
729601295.407229,1.659846,-0.397666,-22.097912,0.012833,0.024048,1.010315,0.036007,0.090673,-0.043836,70.256561,7.959381,-146.056183,,,
729601295.410567,1.659846,-0.397666,-22.097912,0.012833,0.024048,1.010315,0.036007,0.090673,-0.043836,70.256561,7.959381,-146.056183,,,
729601295.413909,1.670244,-0.369137,-22.109774,0.011337,0.029877,1.006851,0.036007,0.090673,-0.043836,70.548386,7.937622,-145.683411,,,
729601295.417232,1.681865,-0.335735,-22.120711,0.011337,0.029877,1.006851,0.041263,0.128737,-0.037507,70.548386,7.937622,-145.683411,,,
729601295.420697,1.681865,-0.335735,-22.120711,0.011337,0.029877,1.006851,0.041263,0.128737,-0.037507,70.548386,7.937622,-145.683411,,,
729601295.423919,1.691908,-0.294162,-22.130884,0.002518,0.027771,0.998077,0.041263,0.128737,-0.037507,70.548386,7.937622,-145.683411,,,
729601295.42725,1.702272,-0.248102,-22.140613,0.002518,0.027771,0.998077,0.035988,0.170073,-0.034587,70.548386,7.937622,-145.683411,,,
729601295.430569,1.702272,-0.248102,-22.140613,0.002518,0.027771,0.998077,0.035988,0.170073,-0.034587,70.548386,7.937622,-145.683411,,,
729601295.433982,1.710332,-0.196013,-22.149577,0.000168,0.026535,0.989761,0.035988,0.170073,-0.034587,70.548386,7.937622,-145.683411,,,
729601295.437283,1.71915,-0.140598,-22.1566,0.000168,0.026535,0.989761,0.028649,0.204199,-0.021337,70.548386,7.937622,-145.683411,,,
729601295.440567,1.71915,-0.140598,-22.1566,0.000168,0.026535,0.989761,0.028649,0.204199,-0.021337,70.548386,7.937622,-145.683411,,,
729601295.443914,1.724981,-0.081112,-22.160751,-0.000839,0.02951,0.982101,0.028649,0.204199,-0.021337,70.548386,7.937622,-145.683411,,,
729601295.447233,1.730735,-0.014845,-22.162704,-0.000839,0.02951,0.982101,0.019167,0.23943,-0.005523,70.548386,7.937622,-145.683411,,,
729601295.450578,1.730735,-0.014845,-22.162704,-0.000839,0.02951,0.982101,0.019167,0.23943,-0.005523,70.548386,7.937622,-145.683411,,,
729601295.454001,1.732092,0.049343,-22.162939,-0.010712,0.03595,0.984695,0.019167,0.23943,-0.005523,70.942368,7.81543,-145.861847,,,
729601295.457244,1.730978,0.112872,-22.161331,-0.010712,0.03595,0.984695,-0.0091,0.213453,0.007988,70.942368,7.81543,-145.861847,,,
729601295.460684,1.730978,0.112872,-22.161331,-0.010712,0.03595,0.984695,-0.0091,0.213453,0.007988,70.942368,7.81543,-145.861847,,,
729601295.463918,1.723015,0.166839,-22.158422,-0.011658,0.044968,0.960785,-0.0091,0.213453,0.007988,70.942368,7.81543,-145.861847,,,
729601295.467246,1.713571,0.217313,-22.155543,-0.011658,0.044968,0.960785,-0.04094,0.167482,0.00825,70.942368,7.81543,-145.861847,,,
729601295.470636,1.713571,0.217313,-22.155543,-0.011658,0.044968,0.960785,-0.04094,0.167482,0.00825,70.942368,7.81543,-145.861847,,,
729601295.473979,1.698138,0.255224,-22.153228,-0.018875,0.055176,0.948914,-0.04094,0.167482,0.00825,70.942368,7.81543,-145.861847,,,
729601295.477237,1.684011,0.2869,-22.15192,-0.018875,0.055176,0.948914,-0.050879,0.090703,0.00211,70.942368,7.81543,-145.861847,,,
729601295.48058,1.684011,0.2869,-22.15192,-0.018875,0.055176,0.948914,-0.050879,0.090703,0.00211,70.942368,7.81543,-145.861847,,,
729601295.483919,1.66876,0.301088,-22.151848,-0.020767,0.060562,0.95546,-0.050879,0.090703,0.00211,70.942368,7.81543,-145.861847,,,
729601295.487286,1.65489,0.309862,-22.154564,-0.020767,0.060562,0.95546,-0.046511,0.016473,-0.016206,70.942368,7.81543,-145.861847,,,
729601295.490567,1.65489,0.309862,-22.154564,-0.020767,0.060562,0.95546,-0.046511,0.016473,-0.016206,70.942368,7.81543,-145.861847,,,
729601295.493929,1.642576,0.305294,-22.160273,-0.013489,0.058655,0.967545,-0.046511,0.016473,-0.016206,70.942368,7.81543,-145.861847,,,
729601295.497242,1.631105,0.296086,-22.168746,-0.013489,0.058655,0.967545,-0.037954,-0.044941,-0.034576,71.111603,7.936447,-145.946442,,,
729601295.500655,1.631105,0.296086,-22.168746,-0.013489,0.058655,0.967545,-0.037954,-0.044941,-0.034576,71.111603,7.936447,-145.946442,,,
729601295.503957,1.619949,0.278475,-22.179464,-0.00351,0.053391,0.979141,-0.037954,-0.044941,-0.034576,71.111603,7.936447,-145.946442,,,
729601295.507234,1.609962,0.256402,-22.192499,-0.00351,0.053391,0.979141,-0.031781,-0.084212,-0.050544,71.111603,7.936447,-145.946442,,,
729601295.510442,1.609962,0.256402,-22.192499,-0.00351,0.053391,0.979141,-0.031781,-0.084212,-0.050544,71.111603,7.936447,-145.946442,,,
729601295.514013,1.60125,0.229259,-22.206346,-0.001938,0.045685,0.983475,-0.031781,-0.084212,-0.050544,71.111603,7.936447,-145.946442,,,
729601295.517233,1.594132,0.204851,-22.219791,-0.001938,0.045685,0.983475,-0.021428,-0.077174,-0.047318,71.111603,7.936447,-145.946442,,,
729601295.520636,1.594132,0.204851,-22.219791,-0.001938,0.045685,0.983475,-0.021428,-0.077174,-0.047318,71.111603,7.936447,-145.946442,,,
729601295.523912,1.58958,0.184008,-22.232043,-0.002838,0.04155,0.998474,-0.021428,-0.077174,-0.047318,71.111603,7.936447,-145.946442,,,
729601295.527233,1.585043,0.165041,-22.24313,-0.002838,0.04155,0.998474,-0.013791,-0.060115,-0.039238,71.111603,7.936447,-145.946442,,,
729601295.53059,1.585043,0.165041,-22.24313,-0.002838,0.04155,0.998474,-0.013791,-0.060115,-0.039238,71.111603,7.936447,-145.946442,,,
729601295.533917,1.584395,0.151336,-22.252951,0.000595,0.040436,1.003937,-0.013791,-0.060115,-0.039238,71.111603,7.936447,-145.946442,,,
729601295.537277,1.581369,0.140084,-22.260647,0.000595,0.040436,1.003937,-0.010798,-0.027192,-0.024864,70.829727,8.193985,-145.783203,,,
729601295.540568,1.581369,0.140084,-22.260647,0.000595,0.040436,1.003937,-0.010798,-0.027192,-0.024864,70.829727,8.193985,-145.783203,,,
729601295.543918,1.583068,0.137703,-22.266469,-0.004654,0.033859,1.006119,-0.010798,-0.027192,-0.024864,70.829727,8.193985,-145.783203,,,
729601295.547233,1.578733,0.137496,-22.270288,-0.004654,0.033859,1.006119,-0.015405,0.008749,-0.011496,70.829727,8.193985,-145.783203,,,
729601295.550637,1.578733,0.137496,-22.270288,-0.004654,0.033859,1.006119,-0.015405,0.008749,-0.011496,70.829727,8.193985,-145.783203,,,
729601295.553981,1.581222,0.146337,-22.272561,-0.013596,0.026703,1.010361,-0.015405,0.008749,-0.011496,70.829727,8.193985,-145.783203,,,
729601295.557229,1.575934,0.154455,-22.273183,-0.013596,0.026703,1.010361,-0.018377,0.03804,-0.000957,70.829727,8.193985,-145.783203,,,
729601295.560569,1.575934,0.154455,-22.273183,-0.013596,0.026703,1.010361,-0.018377,0.03804,-0.000957,70.829727,8.193985,-145.783203,,,
729601295.563992,1.579481,0.16894,-22.272449,-0.02063,0.023529,1.013336,-0.018377,0.03804,-0.000957,70.829727,8.193985,-145.783203,,,
729601295.567232,1.576417,0.178408,-22.270806,-0.02063,0.023529,1.013336,-0.009779,0.033367,0.004609,70.829727,8.193985,-145.783203,,,
729601295.57061,1.576417,0.178408,-22.270806,-0.02063,0.023529,1.013336,-0.009779,0.033367,0.004609,70.829727,8.193985,-145.783203,,,
729601295.573914,1.581224,0.188066,-22.268389,-0.025986,0.021042,1.011826,-0.009779,0.033367,0.004609,70.829727,8.193985,-145.783203,,,
729601295.577236,1.579706,0.194623,-22.265099,-0.025986,0.021042,1.011826,-0.003649,0.023549,0.010351,70.912247,8.033463,-146.012894,,,
729601295.580588,1.579706,0.194623,-22.265099,-0.025986,0.021042,1.011826,-0.003649,0.023549,0.010351,70.912247,8.033463,-146.012894,,,
729601295.583921,1.585276,0.198324,-22.262126,-0.028183,0.024643,1.010498,-0.003649,0.023549,0.010351,70.912247,8.033463,-146.012894,,,
729601295.587282,1.586492,0.19877,-22.260201,-0.028183,0.024643,1.010498,0.009032,-0.003126,0.003212,70.912247,8.033463,-146.012894,,,
729601295.590567,1.586492,0.19877,-22.260201,-0.028183,0.024643,1.010498,0.009032,-0.003126,0.003212,70.912247,8.033463,-146.012894,,,
729601295.593921,1.593569,0.195162,-22.260166,-0.020767,0.028168,1.01059,0.009032,-0.003126,0.003212,70.912247,8.033463,-146.012894,,,
729601295.597243,1.597332,0.188045,-22.262584,-0.020767,0.028168,1.01059,0.014358,-0.029184,-0.013843,70.912247,8.033463,-146.012894,,,
729601295.60057,1.597332,0.188045,-22.262584,-0.020767,0.028168,1.01059,0.014358,-0.029184,-0.013843,70.912247,8.033463,-146.012894,,,
729601295.603952,1.604566,0.176607,-22.266447,-0.00769,0.032089,1.006119,0.014358,-0.029184,-0.013843,70.912247,8.033463,-146.012894,,,
729601295.607237,1.608163,0.164772,-22.270241,-0.00769,0.032089,1.006119,0.011436,-0.03823,-0.013196,70.912247,8.033463,-146.012894,,,
729601295.610588,1.608163,0.164772,-22.270241,-0.00769,0.032089,1.006119,0.011436,-0.03823,-0.013196,70.912247,8.033463,-146.012894,,,
729601295.613987,1.613305,0.152882,-22.2731,-0.007263,0.0298,1.001251,0.011436,-0.03823,-0.013196,70.912247,8.033463,-146.012894,,,
729601295.61727,1.615549,0.142993,-22.275221,-0.007263,0.0298,1.001251,0.009051,-0.028476,-0.00792,70.912247,8.033463,-146.012894,,,
729601295.620617,1.615549,0.142993,-22.275221,-0.007263,0.0298,1.001251,0.009051,-0.028476,-0.00792,70.657455,7.982956,-145.769333,,,
729601295.623913,1.618097,0.136845,-22.276636,-0.001663,0.028,1.001343,0.009051,-0.028476,-0.00792,70.657455,7.982956,-145.769333,,,
729601295.627321,1.619079,0.131172,-22.276637,-0.001663,0.028,1.001343,0.001676,-0.012957,0.00156,70.657455,7.982956,-145.769333,,,
729601295.630274,1.619079,0.131172,-22.276637,-0.001663,0.028,1.001343,0.001676,-0.012957,0.00156,70.657455,7.982956,-145.769333,,,
729601295.633952,1.619291,0.131725,-22.276459,0.010208,0.031723,1.000031,0.001676,-0.012957,0.00156,70.657455,7.982956,-145.769333,,,
729601295.637279,1.620205,0.130123,-22.277029,0.010208,0.031723,1.000031,0.001879,0.002151,-0.00449,70.657455,7.982956,-145.769333,,,
729601295.640574,1.620205,0.130123,-22.277029,0.010208,0.031723,1.000031,0.001879,0.002151,-0.00449,70.657455,7.982956,-145.769333,,,
729601295.643925,1.618983,0.137445,-22.278732,0.012177,0.031036,0.998535,0.001879,0.002151,-0.00449,70.657455,7.982956,-145.769333,,,
729601295.647233,1.619519,0.141886,-22.281272,0.012177,0.031036,0.998535,0.003337,0.024571,-0.01153,70.657455,7.982956,-145.769333,,,
729601295.650666,1.619519,0.141886,-22.281272,0.012177,0.031036,0.998535,0.003337,0.024571,-0.01153,70.657455,7.982956,-145.769333,,,
729601295.653996,1.618991,0.1578,-22.285059,0.009903,0.028549,0.999161,0.003337,0.024571,-0.01153,70.657455,7.982956,-145.769333,,,
729601295.65726,1.62013,0.170555,-22.289509,0.009903,0.028549,0.999161,0.004067,0.054095,-0.017604,70.657455,7.982956,-145.769333,,,
729601295.660572,1.62013,0.170555,-22.289509,0.009903,0.028549,0.999161,0.004067,0.054095,-0.017604,71.008133,7.974426,-146.031403,,,
729601295.663997,1.620533,0.1927,-22.294417,0.006119,0.026108,1.001373,0.004067,0.054095,-0.017604,71.008133,7.974426,-146.031403,,,
729601295.667236,1.621127,0.208146,-22.298573,0.006119,0.026108,1.001373,0.000907,0.05655,-0.013767,71.008133,7.974426,-146.031403,,,
729601295.670626,1.621127,0.208146,-22.298573,0.006119,0.026108,1.001373,0.000907,0.05655,-0.013767,71.008133,7.974426,-146.031403,,,
729601295.673921,1.620648,0.227592,-22.302345,-0.000458,0.024368,0.99057,0.000907,0.05655,-0.013767,71.008133,7.974426,-146.031403,,,
729601295.677236,1.618307,0.244151,-22.30598,-0.000458,0.024368,0.99057,-0.009137,0.060782,-0.013518,71.008133,7.974426,-146.031403,,,
729601295.68057,1.618307,0.244151,-22.30598,-0.000458,0.024368,0.99057,-0.009137,0.060782,-0.013518,71.008133,7.974426,-146.031403,,,
729601295.683917,1.615691,0.260678,-22.309491,-0.012695,0.025497,0.980148,-0.009137,0.060782,-0.013518,71.008133,7.974426,-146.031403,,,
729601295.687284,1.610907,0.274452,-22.312657,-0.012695,0.025497,0.980148,-0.01728,0.04421,-0.011253,71.008133,7.974426,-146.031403,,,
729601295.690568,1.610907,0.274452,-22.312657,-0.012695,0.025497,0.980148,-0.01728,0.04421,-0.011253,71.008133,7.974426,-146.031403,,,
729601295.693902,1.60549,0.285354,-22.315518,-0.016678,0.032288,0.979019,-0.01728,0.04421,-0.011253,71.008133,7.974426,-146.031403,,,
729601295.697233,1.599216,0.291789,-22.318231,-0.016678,0.032288,0.979019,-0.022506,0.019197,-0.010427,71.008133,7.974426,-146.031403,,,
729601295.700568,1.599216,0.291789,-22.318231,-0.016678,0.032288,0.979019,-0.022506,0.019197,-0.010427,71.076401,7.943115,-145.718903,,,
729601295.70396,1.591909,0.292253,-22.320466,-0.018158,0.029648,0.976639,-0.022506,0.019197,-0.010427,71.076401,7.943115,-145.718903,,,
729601295.707231,1.581719,0.291882,-22.321994,-0.018158,0.029648,0.976639,-0.039102,-0.004231,-0.005119,71.076401,7.943115,-145.718903,,,
729601295.710586,1.581719,0.291882,-22.321994,-0.018158,0.029648,0.976639,-0.039102,-0.004231,-0.005119,71.076401,7.943115,-145.718903,,,
729601295.713992,1.570669,0.283215,-22.323219,-0.021072,0.029205,0.977371,-0.039102,-0.004231,-0.005119,71.076401,7.943115,-145.718903,,,
729601295.71723,1.556753,0.276715,-22.325124,-0.021072,0.029205,0.977371,-0.050888,-0.025528,-0.008883,71.076401,7.943115,-145.718903,,,
729601295.720642,1.556753,0.276715,-22.325124,-0.021072,0.029205,0.977371,-0.050888,-0.025528,-0.008883,71.076401,7.943115,-145.718903,,,
729601295.723916,1.542889,0.263567,-22.327052,-0.020233,0.029724,0.983597,-0.050888,-0.025528,-0.008883,71.076401,7.943115,-145.718903,,,
729601295.727244,1.528148,0.255677,-22.328841,-0.020233,0.029724,0.983597,-0.051451,-0.023806,-0.006952,71.076401,7.943115,-145.718903,,,
729601295.730575,1.528148,0.255677,-22.328841,-0.020233,0.029724,0.983597,-0.051451,-0.023806,-0.006952,71.076401,7.943115,-145.718903,,,
729601295.733925,1.513027,0.24467,-22.330248,-0.018799,0.025833,0.996857,-0.051451,-0.023806,-0.006952,71.076401,7.943115,-145.718903,,,
729601295.737324,1.497515,0.239268,-22.332014,-0.018799,0.025833,0.996857,-0.053282,-0.013707,-0.008627,71.076401,7.943115,-145.718903,,,
729601295.740559,1.497515,0.239268,-22.332014,-0.018799,0.025833,0.996857,-0.053282,-0.013707,-0.008627,70.905441,8.219864,-145.909012,,,
729601295.743905,1.48243,0.232947,-22.333586,-0.013046,0.021393,1.006271,-0.053282,-0.013707,-0.008627,70.905441,8.219864,-145.909012,,,
729601295.747237,1.468613,0.231439,-22.335056,-0.013046,0.021393,1.006271,-0.045796,0.001028,-0.007396,70.905441,8.219864,-145.909012,,,
729601295.750635,1.468613,0.231439,-22.335056,-0.013046,0.021393,1.006271,-0.045796,0.001028,-0.007396,70.905441,8.219864,-145.909012,,,
729601295.753969,1.455981,0.232761,-22.336251,-0.008301,0.019363,1.016129,-0.045796,0.001028,-0.007396,70.905441,8.219864,-145.909012,,,
729601295.757257,1.445759,0.235933,-22.336578,-0.008301,0.019363,1.016129,-0.030745,0.015941,-0.001289,70.905441,8.219864,-145.909012,,,
729601295.76059,1.445759,0.235933,-22.336578,-0.008301,0.019363,1.016129,-0.030745,0.015941,-0.001289,70.905441,8.219864,-145.909012,,,
729601295.763909,1.439,0.243534,-22.335888,-0.010773,0.012573,1.017731,-0.030745,0.015941,-0.001289,70.905441,8.219864,-145.909012,,,
729601295.767236,1.434354,0.248588,-22.33421,-0.010773,0.012573,1.017731,-0.010513,0.023511,0.004999,70.905441,8.219864,-145.909012,,,
729601295.770653,1.434354,0.248588,-22.33421,-0.010773,0.012573,1.017731,-0.010513,0.023511,0.004999,70.905441,8.219864,-145.909012,,,
729601295.773967,1.435498,0.259368,-22.332116,-0.009995,0.006546,1.023331,-0.010513,0.023511,0.004999,70.905441,8.219864,-145.909012,,,
729601295.777298,1.438106,0.267457,-22.329282,-0.009995,0.006546,1.023331,0.012745,0.032383,0.009558,70.905441,8.219864,-145.909012,,,
729601295.78059,1.438106,0.267457,-22.329282,-0.009995,0.006546,1.023331,0.012745,0.032383,0.009558,70.905441,8.219864,-145.909012,,,
729601295.783906,1.44404,0.280738,-22.325825,-0.003418,0.005356,1.027725,0.012745,0.032383,0.009558,71.055267,8.204376,-145.882721,,,
729601295.787304,1.450865,0.290007,-22.321739,-0.003418,0.005356,1.027725,0.026534,0.037001,0.013211,71.055267,8.204376,-145.882721,,,
729601295.79057,1.450865,0.290007,-22.321739,-0.003418,0.005356,1.027725,0.026534,0.037001,0.013211,71.055267,8.204376,-145.882721,,,
729601295.793908,1.458937,0.305375,-22.317543,0.002365,0.008713,1.01355,0.026534,0.037001,0.013211,71.055267,8.204376,-145.882721,,,
729601295.797298,1.463932,0.316681,-22.313402,0.002365,0.008713,1.01355,0.014089,0.043816,0.011793,71.055267,8.204376,-145.882721,,,
729601295.800626,1.463932,0.316681,-22.313402,0.002365,0.008713,1.01355,0.014089,0.043816,0.011793,71.055267,8.204376,-145.882721,,,
729601295.804001,1.468045,0.332214,-22.310445,0.009094,0.020035,1.001328,0.014089,0.043816,0.011793,71.055267,8.204376,-145.882721,,,
729601295.807226,1.468805,0.34216,-22.308808,0.009094,0.020035,1.001328,-0.002347,0.034617,0.0017,71.055267,8.204376,-145.882721,,,
729601295.810586,1.468805,0.34216,-22.308808,0.009094,0.020035,1.001328,-0.002347,0.034617,0.0017,71.055267,8.204376,-145.882721,,,
729601295.81397,1.466341,0.353884,-22.308357,0.010757,0.030533,0.98761,-0.002347,0.034617,0.0017,71.055267,8.204376,-145.882721,,,
729601295.817288,1.462888,0.360542,-22.308478,0.010757,0.030533,0.98761,-0.014586,0.021948,-0.002899,71.055267,8.204376,-145.882721,,,
729601295.82064,1.462888,0.360542,-22.308478,0.010757,0.030533,0.98761,-0.014586,0.021948,-0.002899,71.055267,8.204376,-145.882721,,,
729601295.82391,1.456287,0.365835,-22.309566,0.006882,0.033798,0.982361,-0.014586,0.021948,-0.002899,71.222641,8.193481,-146.007355,,,
729601295.827305,1.4499,0.367255,-22.311746,0.006882,0.033798,0.982361,-0.02254,0.002784,-0.010777,71.222641,8.193481,-146.007355,,,
729601295.830578,1.4499,0.367255,-22.311746,0.006882,0.033798,0.982361,-0.02254,0.002784,-0.010777,71.222641,8.193481,-146.007355,,,
729601295.833921,1.440299,0.366419,-22.314604,0.002106,0.035904,0.976944,-0.02254,0.002784,-0.010777,71.222641,8.193481,-146.007355,,,
729601295.837317,1.432008,0.362028,-22.318065,0.002106,0.035904,0.976944,-0.03074,-0.018413,-0.015077,71.222641,8.193481,-146.007355,,,
729601295.84064,1.432008,0.362028,-22.318065,0.002106,0.035904,0.976944,-0.03074,-0.018413,-0.015077,71.222641,8.193481,-146.007355,,,
729601295.843911,1.418429,0.356735,-22.321894,0.002762,0.034637,0.974762,-0.03074,-0.018413,-0.015077,71.222641,8.193481,-146.007355,,,
729601295.847244,1.408115,0.347799,-22.325577,0.002762,0.034637,0.974762,-0.036127,-0.031408,-0.014369,71.222641,8.193481,-146.007355,,,
729601295.850579,1.408115,0.347799,-22.325577,0.002762,0.034637,0.974762,-0.036127,-0.031408,-0.014369,71.222641,8.193481,-146.007355,,,
729601295.853944,1.392974,0.337497,-22.328921,-0.000916,0.032669,0.974365,-0.036127,-0.031408,-0.014369,71.222641,8.193481,-146.007355,,,
729601295.857271,1.384054,0.327447,-22.331564,-0.000916,0.032669,0.974365,-0.02861,-0.027584,-0.009454,71.222641,8.193481,-146.007355,,,
729601295.860567,1.384054,0.327447,-22.331564,-0.000916,0.032669,0.974365,-0.02861,-0.027584,-0.009454,71.222641,8.193481,-146.007355,,,
729601295.863902,1.371994,0.319209,-22.332935,-0.008041,0.032211,0.988831,-0.02861,-0.027584,-0.009454,70.901733,8.330444,-145.851212,,,
729601295.86727,1.366488,0.315338,-22.332596,-0.008041,0.032211,0.988831,-0.01683,-0.004836,0.002744,70.901733,8.330444,-145.851212,,,
729601295.870635,1.366488,0.315338,-22.332596,-0.008041,0.032211,0.988831,-0.01683,-0.004836,0.002744,70.901733,8.330444,-145.851212,,,
729601295.873911,1.357784,0.311588,-22.329592,-0.01152,0.024796,1.005844,-0.01683,-0.004836,0.002744,70.901733,8.330444,-145.851212,,,
729601295.877276,1.350796,0.31418,-22.324089,-0.01152,0.024796,1.005844,-0.027222,0.017202,0.020695,70.901733,8.330444,-145.851212,,,
729601295.880632,1.350796,0.31418,-22.324089,-0.01152,0.024796,1.005844,-0.027222,0.017202,0.020695,70.901733,8.330444,-145.851212,,,
729601295.88392,1.342968,0.314896,-22.316798,-0.013687,0.019806,1.000168,-0.027222,0.017202,0.020695,70.901733,8.330444,-145.851212,,,
729601295.887319,1.334093,0.323702,-22.308451,-0.013687,0.019806,1.000168,-0.032311,0.039683,0.028859,70.901733,8.330444,-145.851212,,,
729601295.890564,1.334093,0.323702,-22.308451,-0.013687,0.019806,1.000168,-0.032311,0.039683,0.028859,70.901733,8.330444,-145.851212,,,
729601295.893908,1.326748,0.329113,-22.299626,-0.015564,0.021439,1.001999,-0.032311,0.039683,0.028859,70.901733,8.330444,-145.851212,,,
729601295.897333,1.315866,0.338272,-22.291561,-0.015564,0.021439,1.001999,-0.040334,0.03161,0.024212,70.901733,8.330444,-145.851212,,,
729601295.900578,1.315866,0.338272,-22.291561,-0.015564,0.021439,1.001999,-0.040334,0.03161,0.024212,70.901733,8.330444,-145.851212,,,
729601295.90395,1.30632,0.341885,-22.285124,-0.012741,0.028275,0.998566,-0.040334,0.03161,0.024212,71.221634,8.501953,-145.704361,,,
729601295.907231,1.30632,0.341885,-22.285124,-0.012741,0.028275,0.998566,-0.049614,0.016839,0.012585,71.221634,8.501953,-145.704361,,,
729601295.910585,1.292189,0.346652,-22.280417,-0.012741,0.028275,0.998566,-0.049614,0.016839,0.012585,71.221634,8.501953,-145.704361,,,
729601295.913913,1.281368,0.346053,-22.276142,-0.014481,0.031616,0.993607,-0.049614,0.016839,0.012585,71.221634,8.501953,-145.704361,,,
729601295.917287,1.281368,0.346053,-22.272094,-0.014481,0.031616,0.993607,-0.049777,-0.0132,0.011439,71.221634,8.501953,-145.704361,,,
729601295.920534,1.266751,0.343694,-22.272094,-0.014481,0.031616,0.993607,-0.049777,-0.0132,0.011439,71.221634,8.501953,-145.704361,,,
729601295.923923,1.256785,0.334028,-22.26848,-0.017288,0.02594,0.997345,-0.049777,-0.0132,0.011439,71.221634,8.501953,-145.704361,,,
729601295.927256,1.256785,0.334028,-22.26848,-0.017288,0.02594,0.997345,-0.034155,-0.044935,0.011981,71.221634,8.501953,-145.704361,,,
729601295.930624,1.245641,0.32246,-22.264866,-0.017288,0.02594,0.997345,-0.034155,-0.044935,0.011981,71.221634,8.501953,-145.704361,,,
729601295.933911,1.24142,0.307487,-22.260783,-0.014755,0.019333,1.002701,-0.034155,-0.044935,0.011981,71.221634,8.501953,-145.704361,,,
729601295.937243,1.24142,0.307487,-22.256242,-0.014755,0.019333,1.002701,-0.005558,-0.049299,0.015399,71.221634,8.501953,-145.704361,,,
729601295.940585,1.238116,0.292375,-22.256242,-0.014755,0.019333,1.002701,-0.005558,-0.049299,0.015399,71.221634,8.501953,-145.704361,,,
729601295.943899,1.240246,0.279206,-22.251469,-0.011734,0.012939,1.015137,-0.005558,-0.049299,0.015399,71.221634,8.501953,-145.704361,,,
729601295.947255,1.240246,0.279206,-22.251469,-0.011734,0.012939,1.015137,-0.005558,-0.049299,0.015399,71.23671,8.468079,-145.950623,,,
729601295.950584,1.242766,0.266373,-22.246403,-0.011734,0.012939,1.015137,0.012171,-0.03666,0.017276,71.23671,8.468079,-145.950623,,,
729601295.953953,1.246456,0.258896,-22.241189,-0.00351,0.011032,1.022293,0.012171,-0.03666,0.017276,71.23671,8.468079,-145.950623,,,
729601295.957285,1.246456,0.258896,-22.241189,-0.00351,0.011032,1.022293,0.014304,-0.008134,0.017544,71.23671,8.468079,-145.950623,,,
729601295.960578,1.250445,0.25327,-22.235894,-0.00351,0.011032,1.022293,0.014304,-0.008134,0.017544,71.23671,8.468079,-145.950623,,,
729601295.9639,1.253381,0.254925,-22.230477,-0.000626,0.012894,1.021393,0.014304,-0.008134,0.017544,71.23671,8.468079,-145.950623,,,
729601295.967245,1.253381,0.254925,-22.230477,-0.000626,0.012894,1.021393,0.014304,-0.008134,0.017544,71.23671,8.468079,-145.950623,,,
729601295.970625,1.257257,0.256984,-22.225131,-0.000626,0.012894,1.021393,0.016264,0.016113,0.016567,71.23671,8.468079,-145.950623,,,
729601295.9739,1.262968,0.264612,-22.21996,0.001099,0.013275,1.017899,0.016264,0.016113,0.016567,71.23671,8.468079,-145.950623,,,
729601295.977244,1.262968,0.264612,-22.21996,0.001099,0.013275,1.017899,0.016264,0.016113,0.016567,71.23671,8.468079,-145.950623,,,
729601295.980578,1.269235,0.271137,-22.215113,0.001099,0.013275,1.017899,0.024255,0.029514,0.013873,71.23671,8.468079,-145.950623,,,
729601295.983962,1.279042,0.282477,-22.211347,0.003204,0.013367,1.013565,0.024255,0.029514,0.013873,71.23671,8.468079,-145.950623,,,
729601295.98731,1.279042,0.282477,-22.211347,0.003204,0.013367,1.013565,0.024255,0.029514,0.013873,71.018753,8.343933,-145.662445,,,
729601295.9906,1.287378,0.292278,-22.208788,0.003204,0.013367,1.013565,0.029978,0.037098,0.005086,71.018753,8.343933,-145.662445,,,
729601295.993904,1.299087,0.304698,-22.207551,0.003708,0.018402,1.010117,0.029978,0.037098,0.005086,71.018753,8.343933,-145.662445,,,
729601295.9973,1.299087,0.304698,-22.207551,0.003708,0.018402,1.010117,0.029978,0.037098,0.005086,71.018753,8.343933,-145.662445,,,
729601296.000582,1.30982,0.311904,-22.207211,0.003708,0.018402,1.010117,0.038624,0.025517,-0.001651,71.018753,8.343933,-145.662445,,,
729601296.00395,1.320702,0.320695,-22.208087,0.002502,0.021057,0.998459,0.038624,0.025517,-0.001651,71.018753,8.343933,-145.662445,,,
729601296.007345,1.320702,0.320695,-22.208087,0.002502,0.021057,0.998459,0.038624,0.025517,-0.001651,71.018753,8.343933,-145.662445,,,
729601296.010562,1.330823,0.323815,-22.21067,0.002502,0.021057,0.998459,0.035339,0.008467,-0.014065,71.018753,8.343933,-145.662445,,,
729601296.01391,1.338768,0.326154,-22.215227,0.001266,0.024445,0.989243,0.035339,0.008467,-0.014065,71.018753,8.343933,-145.662445,,,
729601296.01729,1.338768,0.326154,-22.215227,0.001266,0.024445,0.989243,0.035339,0.008467,-0.014065,71.018753,8.343933,-145.662445,,,
729601296.020651,1.347892,0.321623,-22.221554,0.001266,0.024445,0.989243,0.031453,-0.02114,-0.026893,71.018753,8.343933,-145.662445,,,
729601296.023973,1.352809,0.31397,-22.230142,0.003464,0.027527,0.97937,0.031453,-0.02114,-0.026893,71.018753,8.343933,-145.662445,,,
729601296.027265,1.352809,0.31397,-22.230142,0.003464,0.027527,0.97937,0.031453,-0.02114,-0.026893,70.919388,8.394928,-145.944336,,,
729601296.030574,1.360532,0.302775,-22.240129,0.003464,0.027527,0.97937,0.026385,-0.039181,-0.036857,70.919388,8.394928,-145.944336,,,
729601296.033905,1.364304,0.289839,-22.250639,-0.000732,0.031281,0.977966,0.026385,-0.039181,-0.036857,70.919388,8.394928,-145.944336,,,
729601296.037365,1.364304,0.289839,-22.250639,-0.000732,0.031281,0.977966,0.026385,-0.039181,-0.036857,70.919388,8.394928,-145.944336,,,
729601296.040576,1.369457,0.277805,-22.260862,-0.000732,0.031281,0.977966,0.014512,-0.040093,-0.034771,70.919388,8.394928,-145.944336,,,
729601296.0439,1.36965,0.264444,-22.270139,-0.004379,0.030014,0.982788,0.014512,-0.040093,-0.034771,70.919388,8.394928,-145.944336,,,
729601296.047245,1.36965,0.264444,-22.270139,-0.004379,0.030014,0.982788,0.014512,-0.040093,-0.034771,70.919388,8.394928,-145.944336,,,
729601296.050646,1.370694,0.254516,-22.278324,-0.004379,0.030014,0.982788,5e-05,-0.026305,-0.026982,70.919388,8.394928,-145.944336,,,
729601296.05394,1.366734,0.24634,-22.285743,-0.003296,0.02739,0.984726,5e-05,-0.026305,-0.026982,70.919388,8.394928,-145.944336,,,
729601296.057231,1.366734,0.24634,-22.285743,-0.003296,0.02739,0.984726,5e-05,-0.026305,-0.026982,70.919388,8.394928,-145.944336,,,
729601296.060591,1.363585,0.243992,-22.293326,-0.003296,0.02739,0.984726,-0.013647,0.001666,-0.027895,70.919388,8.394928,-145.944336,,,
729601296.063902,1.356632,0.243124,-22.30041,-0.002808,0.027115,0.992691,-0.013647,0.001666,-0.027895,70.919388,8.394928,-145.944336,,,
729601296.067335,1.356632,0.243124,-22.30041,-0.002808,0.027115,0.992691,-0.013647,0.001666,-0.027895,71.087845,8.113281,-145.751907,,,
729601296.07061,1.351969,0.247057,-22.30675,-0.002808,0.027115,0.992691,-0.014652,0.019776,-0.022359,71.087845,8.113281,-145.751907,,,
729601296.073907,1.347858,0.250537,-22.312517,-0.006561,0.022903,1.000824,-0.014652,0.019776,-0.022359,71.087845,8.113281,-145.751907,,,
729601296.077327,1.347858,0.250537,-22.312517,-0.006561,0.022903,1.000824,-0.014652,0.019776,-0.022359,71.087845,8.113281,-145.751907,,,
729601296.080559,1.347352,0.258242,-22.317798,-0.006561,0.022903,1.000824,0.003316,0.031384,-0.018417,71.087845,8.113281,-145.751907,,,
729601296.083902,1.349715,0.264589,-22.322605,-0.010788,0.016525,1.009308,0.003316,0.031384,-0.018417,71.087845,8.113281,-145.751907,,,
729601296.08729,1.349715,0.264589,-22.322605,-0.010788,0.016525,1.009308,0.003316,0.031384,-0.018417,71.087845,8.113281,-145.751907,,,
729601296.090562,1.354644,0.270573,-22.327311,-0.010788,0.016525,1.009308,0.019406,0.017446,-0.017346,71.087845,8.113281,-145.751907,,,
729601296.093906,1.36034,0.270917,-22.331672,-0.017731,0.01384,1.005646,0.019406,0.017446,-0.017346,71.087845,8.113281,-145.751907,,,
729601296.097243,1.36034,0.270917,-22.331672,-0.017731,0.01384,1.005646,0.019406,0.017446,-0.017346,71.087845,8.113281,-145.751907,,,
729601296.100589,1.365497,0.269594,-22.335496,-0.017731,0.01384,1.005646,0.01768,-0.008464,-0.013251,71.087845,8.113281,-145.751907,,,
729601296.103938,1.370695,0.262018,-22.338268,-0.022095,0.017288,0.98912,0.01768,-0.008464,-0.013251,71.087845,8.113281,-145.751907,,,
729601296.107233,1.370695,0.262018,-22.338268,-0.022095,0.017288,0.98912,0.01768,-0.008464,-0.013251,71.087845,8.113281,-145.751907,,,
729601296.110575,1.371973,0.253458,-22.340647,-0.022095,0.017288,0.98912,0.001735,-0.030294,-0.010251,71.125458,8.197998,-146.097702,,,
729601296.113902,1.37367,0.241756,-22.342666,-0.019699,0.024979,0.982483,0.001735,-0.030294,-0.010251,71.125458,8.197998,-146.097702,,,
729601296.117277,1.37367,0.241756,-22.342666,-0.019699,0.024979,0.982483,0.001735,-0.030294,-0.010251,71.125458,8.197998,-146.097702,,,
729601296.120624,1.370898,0.229569,-22.344631,-0.019699,0.024979,0.982483,-0.01476,-0.039491,-0.009811,71.125458,8.197998,-146.097702,,,
729601296.123895,1.367168,0.218161,-22.347204,-0.00856,0.034409,0.985565,-0.01476,-0.039491,-0.009811,71.125458,8.197998,-146.097702,,,
729601296.127259,1.367168,0.218161,-22.347204,-0.00856,0.034409,0.985565,-0.01476,-0.039491,-0.009811,71.125458,8.197998,-146.097702,,,
729601296.130577,1.360516,0.207205,-22.349759,-0.00856,0.034409,0.985565,-0.025525,-0.035262,-0.009704,71.125458,8.197998,-146.097702,,,
729601296.133902,1.353414,0.197998,-22.352152,-0.002625,0.034668,0.994232,-0.025525,-0.035262,-0.009704,71.125458,8.197998,-146.097702,,,
729601296.137304,1.353414,0.197998,-22.352152,-0.002625,0.034668,0.994232,-0.025525,-0.035262,-0.009704,71.125458,8.197998,-146.097702,,,
729601296.140581,1.344097,0.192345,-22.354441,-0.002625,0.034668,0.994232,-0.033464,-0.011888,-0.008938,71.125458,8.197998,-146.097702,,,
729601296.143913,1.33481,0.190224,-22.356381,-0.000702,0.031586,1.003265,-0.033464,-0.011888,-0.008938,71.125458,8.197998,-146.097702,,,
729601296.14723,1.33481,0.190224,-22.356381,-0.000702,0.031586,1.003265,-0.033464,-0.011888,-0.008938,71.125458,8.197998,-146.097702,,,
729601296.150577,1.32518,0.190278,-22.357748,-0.000702,0.031586,1.003265,-0.030231,0.005503,-0.004958,70.884689,8.438812,-145.806396,,,
729601296.153938,1.316436,0.19304,-22.35844,0.000824,0.027328,1.00827,-0.030231,0.005503,-0.004958,70.884689,8.438812,-145.806396,,,
729601296.157228,1.316436,0.19304,-22.35844,0.000824,0.027328,1.00827,-0.030231,0.005503,-0.004958,70.884689,8.438812,-145.806396,,,
729601296.160586,1.31072,0.194442,-22.358656,0.000824,0.027328,1.00827,-0.014734,0.009097,-0.001926,70.884689,8.438812,-145.806396,,,
729601296.163895,1.304932,0.198669,-22.359276,-0.001328,0.022995,1.013153,-0.014734,0.009097,-0.001926,70.884689,8.438812,-145.806396,,,
729601296.167296,1.304932,0.198669,-22.359276,-0.001328,0.022995,1.013153,-0.014734,0.009097,-0.001926,70.884689,8.438812,-145.806396,,,
729601296.170601,1.302549,0.198692,-22.360143,-0.001328,0.022995,1.013153,-0.00585,-0.00095,-0.003984,70.884689,8.438812,-145.806396,,,
729601296.173896,1.299057,0.200526,-22.360832,-0.001358,0.0224,1.00827,-0.00585,-0.00095,-0.003984,70.884689,8.438812,-145.806396,,,
729601296.17725,1.299057,0.200526,-22.360832,-0.001358,0.0224,1.00827,-0.00585,-0.00095,-0.003984,70.884689,8.438812,-145.806396,,,
729601296.180667,1.299283,0.194599,-22.36224,-0.001358,0.0224,1.00827,0.003951,-0.020556,-0.009678,70.884689,8.438812,-145.806396,,,
729601296.183897,1.299683,0.192961,-22.365044,-0.005081,0.02298,1.003265,0.003951,-0.020556,-0.009678,70.884689,8.438812,-145.806396,,,
729601296.187308,1.299683,0.192961,-22.365044,-0.005081,0.02298,1.003265,0.003951,-0.020556,-0.009678,70.884689,8.438812,-145.806396,,,
729601296.190576,1.300884,0.184617,-22.368107,-0.005081,0.02298,1.003265,0.00441,-0.027933,-0.012342,70.850922,8.329132,-145.600342,,,
729601296.193907,1.304435,0.179355,-22.371348,-0.002808,0.024384,1.008942,0.00441,-0.027933,-0.012342,70.850922,8.329132,-145.600342,,,
729601296.197289,1.304435,0.179355,-22.371348,-0.002808,0.024384,1.008942,0.00441,-0.027933,-0.012342,70.850922,8.329132,-145.600342,,,
729601296.200602,1.306038,0.169861,-22.374361,-0.002808,0.024384,1.008942,0.003966,-0.029926,-0.011444,70.850922,8.329132,-145.600342,,,
729601296.203962,1.310571,0.161812,-22.377096,-0.00386,0.024506,1.010895,0.003966,-0.029926,-0.011444,70.850922,8.329132,-145.600342,,,
729601296.207238,1.310571,0.161812,-22.377096,-0.00386,0.024506,1.010895,0.003966,-0.029926,-0.011444,70.850922,8.329132,-145.600342,,,
729601296.210584,1.311865,0.153637,-22.37974,-0.00386,0.024506,1.010895,0.004514,-0.025118,-0.010936,70.850922,8.329132,-145.600342,,,
729601296.213895,1.31623,0.145671,-22.382416,-0.004517,0.023239,1.011276,0.004514,-0.025118,-0.010936,70.850922,8.329132,-145.600342,,,
729601296.217296,1.31623,0.145671,-22.382416,-0.004517,0.023239,1.011276,0.004514,-0.025118,-0.010936,70.850922,8.329132,-145.600342,,,
729601296.220612,1.318309,0.139258,-22.384696,-0.004517,0.023239,1.011276,0.008236,-0.016317,-0.008118,70.850922,8.329132,-145.600342,,,
729601296.223897,1.323258,0.134342,-22.385984,-0.00563,0.021652,1.012024,0.008236,-0.016317,-0.008118,70.850922,8.329132,-145.600342,,,
729601296.227249,1.323258,0.134342,-22.385984,-0.00563,0.021652,1.012024,0.008236,-0.016317,-0.008118,70.850922,8.329132,-145.600342,,,
729601296.230658,1.327575,0.132389,-22.386255,-0.00563,0.021652,1.012024,0.016831,-0.000777,-0.00081,70.850922,8.329132,-145.600342,,,
729601296.233896,1.333115,0.131319,-22.385353,-0.005096,0.018158,1.0159,0.016831,-0.000777,-0.00081,70.836639,8.441727,-145.928589,,,
729601296.237294,1.333115,0.131319,-22.385353,-0.005096,0.018158,1.0159,0.016831,-0.000777,-0.00081,70.836639,8.441727,-145.928589,,,
729601296.240581,1.338414,0.130972,-22.382998,-0.005096,0.018158,1.0159,0.019046,0.001416,0.009344,70.836639,8.441727,-145.928589,,,
729601296.243944,1.342806,0.130786,-22.380051,-0.000595,0.022507,1.005066,0.019046,0.001416,0.009344,70.836639,8.441727,-145.928589,,,
729601296.247245,1.342806,0.130786,-22.380051,-0.000595,0.022507,1.005066,0.019046,0.001416,0.009344,70.836639,8.441727,-145.928589,,,
729601296.250591,1.345865,0.130994,-22.377761,-0.000595,0.022507,1.005066,0.007678,0.00273,0.004778,70.836639,8.441727,-145.928589,,,
729601296.253997,1.346506,0.130571,-22.376978,0.006042,0.030441,0.989182,0.007678,0.00273,0.004778,70.836639,8.441727,-145.928589,,,
729601296.257253,1.346506,0.130571,-22.376978,0.006042,0.030441,0.989182,0.007678,0.00273,0.004778,70.836639,8.441727,-145.928589,,,
729601296.260594,1.345467,0.127586,-22.378669,0.006042,0.030441,0.989182,-0.006242,-0.013904,-0.012468,70.836639,8.441727,-145.928589,,,
729601296.2639,1.343165,0.122563,-22.381822,0.011566,0.037613,0.981873,-0.006242,-0.013904,-0.012468,70.836639,8.441727,-145.928589,,,
729601296.267274,1.343165,0.122563,-22.381822,0.011566,0.037613,0.981873,-0.006242,-0.013904,-0.012468,70.836639,8.441727,-145.928589,,,
729601296.270615,1.339413,0.115432,-22.385814,0.011566,0.037613,0.981873,-0.016462,-0.023349,-0.018479,70.836639,8.441727,-145.928589,,,
729601296.273898,1.334844,0.107655,-22.390802,0.01181,0.037994,0.98259,-0.016462,-0.023349,-0.018479,71.032883,8.346954,-146.23027,,,
729601296.27723,1.334844,0.107655,-22.390802,0.01181,0.037994,0.98259,-0.016462,-0.023349,-0.018479,71.032883,8.346954,-146.23027,,,
729601296.280574,1.329583,0.098507,-22.395967,0.01181,0.037994,0.98259,-0.017684,-0.030856,-0.01974,71.032883,8.346954,-146.23027,,,
729601296.2839,1.325488,0.089673,-22.400586,0.008224,0.031998,0.990479,-0.017684,-0.030856,-0.01974,71.032883,8.346954,-146.23027,,,
729601296.287276,1.325488,0.089673,-22.400586,0.008224,0.031998,0.990479,-0.017684,-0.030856,-0.01974,71.032883,8.346954,-146.23027,,,
729601296.290573,1.323757,0.080682,-22.404563,0.008224,0.031998,0.990479,-0.000959,-0.027076,-0.015346,71.032883,8.346954,-146.23027,,,
729601296.293897,1.323796,0.074153,-22.408079,0.00499,0.026291,1.000687,-0.000959,-0.027076,-0.015346,71.032883,8.346954,-146.23027,,,
729601296.297245,1.323796,0.074153,-22.408079,0.00499,0.026291,1.000687,-0.000959,-0.027076,-0.015346,71.032883,8.346954,-146.23027,,,
729601296.300579,1.32521,0.067958,-22.410417,0.00499,0.026291,1.000687,0.008312,-0.016901,-0.00731,71.032883,8.346954,-146.23027,,,
729601296.303937,1.327169,0.064764,-22.411713,0.001282,0.019943,1.002029,0.008312,-0.016901,-0.00731,71.032883,8.346954,-146.23027,,,
729601296.307233,1.327169,0.064764,-22.411713,0.001282,0.019943,1.002029,0.008312,-0.016901,-0.00731,71.032883,8.346954,-146.23027,,,
729601296.310583,1.331714,0.062197,-22.412263,0.001282,0.019943,1.002029,0.01829,-0.003642,-0.002317,71.032883,8.346954,-146.23027,,,
729601296.313905,1.335924,0.061022,-22.412551,-0.003296,0.017303,1.002747,0.01829,-0.003642,-0.002317,70.920609,8.138931,-145.911789,,,
729601296.317232,1.335924,0.061022,-22.412551,-0.003296,0.017303,1.002747,0.01829,-0.003642,-0.002317,70.920609,8.138931,-145.911789,,,
729601296.320614,1.340745,0.057348,-22.412917,-0.003296,0.017303,1.002747,0.015821,-0.013631,-0.003088,70.920609,8.138931,-145.911789,,,
729601296.323895,1.34481,0.051293,-22.413265,-0.003403,0.020691,0.993973,0.015821,-0.013631,-0.003088,70.920609,8.138931,-145.911789,,,
729601296.327251,1.34481,0.051293,-22.413265,-0.003403,0.020691,0.993973,0.015821,-0.013631,-0.003088,70.920609,8.138931,-145.911789,,,
729601296.330646,1.345368,0.04677,-22.413443,-0.003403,0.020691,0.993973,-0.00452,-0.00954,-0.001729,70.920609,8.138931,-145.911789,,,
729601296.33389,1.344938,0.040115,-22.413707,-0.010864,0.01651,0.983627,-0.00452,-0.00954,-0.001729,70.920609,8.138931,-145.911789,,,
729601296.337274,1.344938,0.040115,-22.413707,-0.010864,0.01651,0.983627,-0.00452,-0.00954,-0.001729,70.920609,8.138931,-145.911789,,,
729601296.340579,1.338767,0.034784,-22.413645,-0.010864,0.01651,0.983627,-0.025368,-0.018676,0.000911,70.920609,8.138931,-145.911789,,,
729601296.343899,1.335172,0.023081,-22.412166,-0.013535,0.014893,0.986801,-0.025368,-0.018676,0.000911,70.920609,8.138931,-145.911789,,,
729601296.347233,1.335172,0.023081,-22.412166,-0.013535,0.014893,0.986801,-0.025368,-0.018676,0.000911,70.920609,8.138931,-145.911789,,,
729601296.350616,1.326666,0.012562,-22.410017,-0.013535,0.014893,0.986801,-0.030152,-0.03706,0.006179,70.920609,8.138931,-145.911789,,,
729601296.353946,1.321515,-0.002723,-22.4076,-0.006454,0.014893,0.986481,-0.030152,-0.03706,0.006179,70.944702,8.411179,-146.090652,,,
729601296.357234,1.321515,-0.002723,-22.4076,-0.006454,0.014893,0.986481,-0.030152,-0.03706,0.006179,70.944702,8.411179,-146.090652,,,
729601296.360583,1.313215,-0.015455,-22.405459,-0.006454,0.014893,0.986481,-0.02823,-0.042881,0.004823,70.944702,8.411179,-146.090652,,,
729601296.363895,1.307271,-0.031061,-22.404187,0.000793,0.019455,0.996109,-0.02823,-0.042881,0.004823,70.944702,8.411179,-146.090652,,,
729601296.367294,1.307271,-0.031061,-22.404187,0.000793,0.019455,0.996109,-0.02823,-0.042881,0.004823,70.944702,8.411179,-146.090652,,,
729601296.370675,1.299729,-0.04515,-22.404349,0.000793,0.019455,0.996109,-0.026515,-0.046313,-0.004799,70.944702,8.411179,-146.090652,,,
729601296.373909,1.292218,-0.059742,-22.405694,0.008301,0.021881,0.993439,-0.026515,-0.046313,-0.004799,70.944702,8.411179,-146.090652,,,
729601296.377251,1.292218,-0.059742,-22.405694,0.008301,0.021881,0.993439,-0.026515,-0.046313,-0.004799,70.944702,8.411179,-146.090652,,,
729601296.380632,1.284539,-0.070865,-22.407733,0.008301,0.021881,0.993439,-0.026185,-0.031288,-0.009491,70.944702,8.411179,-146.090652,,,
729601296.38389,1.276092,-0.07869,-22.409612,0.008255,0.02301,0.992889,-0.026185,-0.031288,-0.009491,70.944702,8.411179,-146.090652,,,
729601296.387297,1.276092,-0.07869,-22.409612,0.008255,0.02301,0.992889,-0.026185,-0.031288,-0.009491,70.944702,8.411179,-146.090652,,,
729601296.390566,1.269901,-0.085146,-22.410367,0.008255,0.02301,0.992889,-0.019116,-0.016954,-0.001832,70.944702,8.411179,-146.090652,,,
729601296.393902,1.264474,-0.087848,-22.409543,0.010086,0.019028,0.995895,-0.019116,-0.016954,-0.001832,70.944702,8.411179,-146.090652,,,
729601296.397246,1.264474,-0.087848,-22.409543,0.010086,0.019028,0.995895,-0.019116,-0.016954,-0.001832,70.999161,8.275101,-146.253372,,,
729601296.400569,1.262251,-0.088448,-22.406888,0.010086,0.019028,0.995895,-0.003449,0.008962,0.010659,70.999161,8.275101,-146.253372,,,
729601296.40394,1.261629,-0.082536,-22.402136,0.005447,0.012207,0.999008,-0.003449,0.008962,0.010659,70.999161,8.275101,-146.253372,,,
729601296.40723,1.261629,-0.082536,-22.402136,0.005447,0.012207,0.999008,-0.003449,0.008962,0.010659,70.999161,8.275101,-146.253372,,,
729601296.410562,1.263478,-0.07389,-22.395314,0.005447,0.012207,0.999008,0.010491,0.042998,0.024804,70.999161,8.275101,-146.253372,,,
729601296.413895,1.265575,-0.057147,-22.388138,0.002167,0.012192,1.013306,0.010491,0.042998,0.024804,70.999161,8.275101,-146.253372,,,
729601296.417338,1.265575,-0.057147,-22.388138,0.002167,0.012192,1.013306,0.010491,0.042998,0.024804,70.999161,8.275101,-146.253372,,,
729601296.420627,1.269496,-0.043614,-22.381461,0.002167,0.012192,1.013306,0.012446,0.051997,0.020697,70.999161,8.275101,-146.253372,,,
729601296.423907,1.270413,-0.024039,-22.375221,0.000778,0.017715,1.003754,0.012446,0.051997,0.020697,70.999161,8.275101,-146.253372,,,
729601296.427256,1.270413,-0.024039,-22.375221,0.000778,0.017715,1.003754,0.012446,0.051997,0.020697,70.999161,8.275101,-146.253372,,,
729601296.430635,1.272285,-0.004162,-22.369667,0.000778,0.017715,1.003754,0.005145,0.079104,0.015317,70.999161,8.275101,-146.253372,,,
729601296.433896,1.271782,0.018806,-22.365831,-0.00766,0.023727,1.010559,0.005145,0.079104,0.015317,70.999161,8.275101,-146.253372,,,
729601296.437299,1.271782,0.018806,-22.365831,-0.00766,0.023727,1.010559,0.005145,0.079104,0.015317,70.922989,8.415771,-146.029572,,,
729601296.440583,1.271414,0.038352,-22.363811,-0.00766,0.023727,1.010559,-0.004196,0.062734,0.002447,70.922989,8.415771,-146.029572,,,
729601296.443906,1.268914,0.05154,-22.362791,-0.009369,0.028549,0.99913,-0.004196,0.062734,0.002447,70.922989,8.415771,-146.029572,,,
729601296.44718,1.268914,0.05154,-22.362791,-0.009369,0.028549,0.99913,-0.004196,0.062734,0.002447,70.922989,8.415771,-146.029572,,,
729601296.450588,1.265479,0.063146,-22.361888,-0.009369,0.028549,0.99913,-0.01359,0.040515,0.001876,70.922989,8.415771,-146.029572,,,
729601296.453945,1.261885,0.068479,-22.360685,-0.019684,0.025146,0.990845,-0.01359,0.040515,0.001876,70.922989,8.415771,-146.029572,,,
729601296.457244,1.261885,0.068479,-22.360685,-0.019684,0.025146,0.990845,-0.01359,0.040515,0.001876,70.922989,8.415771,-146.029572,,,
729601296.460583,1.25893,0.070731,-22.360192,-0.019684,0.025146,0.990845,-0.006428,-0.001181,-0.002642,70.922989,8.415771,-146.029572,,,
729601296.463897,1.256698,0.061992,-22.361462,-0.020721,0.02774,0.994751,-0.006428,-0.001181,-0.002642,70.922989,8.415771,-146.029572,,,
729601296.467273,1.256698,0.061992,-22.361462,-0.020721,0.02774,0.994751,-0.006428,-0.001181,-0.002642,70.922989,8.415771,-146.029572,,,
729601296.470618,1.254108,0.048764,-22.364489,-0.020721,0.02774,0.994751,-0.007969,-0.05487,-0.01444,70.922989,8.415771,-146.029572,,,
729601296.474009,1.250285,0.027732,-22.369328,-0.011765,0.033081,0.985214,-0.007969,-0.05487,-0.01444,70.922989,8.415771,-146.029572,,,
729601296.477231,1.250285,0.027732,-22.369328,-0.011765,0.033081,0.985214,-0.007969,-0.05487,-0.01444,71.004257,8.471298,-146.078217,,,
729601296.480591,1.247634,0.007103,-22.376081,-0.011765,0.033081,0.985214,-0.009675,-0.073275,-0.027377,71.004257,8.471298,-146.078217,,,
729601296.4839,1.240982,-0.016567,-22.383573,-0.00972,0.031097,0.985229,-0.009675,-0.073275,-0.027377,71.004257,8.471298,-146.078217,,,
729601296.487291,1.240982,-0.016567,-22.383573,-0.00972,0.031097,0.985229,-0.009675,-0.073275,-0.027377,71.004257,8.471298,-146.078217,,,
729601296.490641,1.235995,-0.039802,-22.391676,-0.00972,0.031097,0.985229,-0.017948,-0.078908,-0.031378,71.004257,8.471298,-146.078217,,,
729601296.493894,1.22864,-0.063654,-22.399581,-0.004669,0.032639,0.989548,-0.017948,-0.078908,-0.031378,71.004257,8.471298,-146.078217,,,
729601296.497246,1.22864,-0.063654,-22.399581,-0.004669,0.032639,0.989548,-0.017948,-0.078908,-0.031378,71.004257,8.471298,-146.078217,,,
729601296.500585,1.223266,-0.085752,-22.406702,-0.004669,0.032639,0.989548,-0.018128,-0.069661,-0.025898,71.004257,8.471298,-146.078217,,,
729601296.503942,1.217966,-0.103308,-22.413537,0.001801,0.031708,0.993118,-0.018128,-0.069661,-0.025898,71.004257,8.471298,-146.078217,,,
729601296.507243,1.217966,-0.103308,-22.413537,0.001801,0.031708,0.993118,-0.018128,-0.069661,-0.025898,71.004257,8.471298,-146.078217,,,
729601296.51059,1.214409,-0.119258,-22.419514,0.001801,0.031708,0.993118,-0.009109,-0.049019,-0.020048,71.004257,8.471298,-146.078217,,,
729601296.513898,1.213609,-0.130738,-22.424068,0.001358,0.028168,1.003616,-0.009109,-0.049019,-0.020048,71.004257,8.471298,-146.078217,,,
729601296.517239,1.213609,-0.130738,-22.424068,0.001358,0.028168,1.003616,-0.009109,-0.049019,-0.020048,70.837708,8.418915,-145.832657,,,
729601296.520616,1.213258,-0.144098,-22.427493,0.001358,0.028168,1.003616,0.002912,-0.04142,-0.01262,70.837708,8.418915,-145.832657,,,
729601296.523899,1.216326,-0.151119,-22.430411,0.001984,0.025101,1.004669,0.002912,-0.04142,-0.01262,70.837708,8.418915,-145.832657,,,
729601296.527246,1.216326,-0.151119,-22.430411,0.001984,0.025101,1.004669,0.002912,-0.04142,-0.01262,70.837708,8.418915,-145.832657,,,
729601296.530607,1.219014,-0.159435,-22.432506,0.001984,0.025101,1.004669,0.011069,-0.020269,-0.007604,70.837708,8.418915,-145.832657,,,
729601296.533907,1.223164,-0.156713,-22.434031,0.000977,0.019531,1.010864,0.011069,-0.020269,-0.007604,70.837708,8.418915,-145.832657,,,
729601296.537302,1.223164,-0.156713,-22.434031,0.000977,0.019531,1.010864,0.011069,-0.020269,-0.007604,70.837708,8.418915,-145.832657,,,
729601296.54063,1.227172,-0.159306,-22.435736,0.000977,0.019531,1.010864,0.016683,-0.003444,-0.010002,70.837708,8.418915,-145.832657,,,
729601296.543894,1.233783,-0.154549,-22.438225,0.005142,0.017288,1.009872,0.016683,-0.003444,-0.010002,70.837708,8.418915,-145.832657,,,
729601296.54727,1.233783,-0.154549,-22.438225,0.005142,0.017288,1.009872,0.016683,-0.003444,-0.010002,70.837708,8.418915,-145.832657,,,
729601296.550579,1.237161,-0.155311,-22.43998,0.005142,0.017288,1.009872,0.010398,-0.000484,-0.005667,70.837708,8.418915,-145.832657,,,
729601296.553937,1.241889,-0.152655,-22.440902,0.003937,0.019608,1.001465,0.010398,-0.000484,-0.005667,70.837708,8.418915,-145.832657,,,
729601296.557231,1.241889,-0.152655,-22.440902,0.003937,0.019608,1.001465,0.010398,-0.000484,-0.005667,70.837708,8.418915,-145.832657,,,
729601296.560563,1.242295,-0.155199,-22.441052,0.003937,0.019608,1.001465,0.000577,-0.009873,-0.00084,70.707123,8.41217,-146.271713,,,
729601296.563897,1.243798,-0.156819,-22.440623,-0.00499,0.021225,0.992828,0.000577,-0.009873,-0.00084,70.707123,8.41217,-146.271713,,,
729601296.56729,1.243798,-0.156819,-22.440623,-0.00499,0.021225,0.992828,0.000577,-0.009873,-0.00084,70.707123,8.41217,-146.271713,,,
729601296.570615,1.241645,-0.164445,-22.440002,-0.00499,0.021225,0.992828,-0.008006,-0.027663,1.8e-05,70.707123,8.41217,-146.271713,,,
729601296.573905,1.241626,-0.173278,-22.43994,-0.003098,0.024139,0.984344,-0.008006,-0.027663,1.8e-05,70.707123,8.41217,-146.271713,,,
729601296.577233,1.241626,-0.173278,-22.43994,-0.003098,0.024139,0.984344,-0.008006,-0.027663,1.8e-05,70.707123,8.41217,-146.271713,,,
729601296.580572,1.238095,-0.184769,-22.440112,-0.003098,0.024139,0.984344,-0.011659,-0.038826,-0.001794,70.707123,8.41217,-146.271713,,,
729601296.583903,1.236473,-0.195757,-22.441018,0.005157,0.026718,0.989639,-0.011659,-0.038826,-0.001794,70.707123,8.41217,-146.271713,,,
729601296.587269,1.236473,-0.195757,-22.441018,0.005157,0.026718,0.989639,-0.011659,-0.038826,-0.001794,70.707123,8.41217,-146.271713,,,
729601296.590561,1.233081,-0.206113,-22.442624,0.005157,0.026718,0.989639,-0.008178,-0.030255,-0.006725,70.707123,8.41217,-146.271713,,,
729601296.593898,1.233081,-0.206113,-22.443967,0.008072,0.022522,1.003098,-0.008178,-0.030255,-0.006725,70.707123,8.41217,-146.271713,,,
729601296.59725,1.232829,-0.214721,-22.443967,0.008072,0.022522,1.003098,-0.008178,-0.030255,-0.006725,70.707123,8.41217,-146.271713,,,
729601296.600568,1.23316,-0.222607,-22.444702,0.008072,0.022522,1.003098,0.005187,-0.022091,-0.002664,70.513962,8.525681,-146.033356,,,
729601296.603982,1.235523,-0.227842,-22.444864,0.00737,0.018143,1.005875,0.005187,-0.022091,-0.002664,70.513962,8.525681,-146.033356,,,
729601296.607301,1.235523,-0.227842,-22.444864,0.00737,0.018143,1.005875,0.005187,-0.022091,-0.002664,70.513962,8.525681,-146.033356,,,
729601296.610595,1.23909,-0.231812,-22.444493,0.00737,0.018143,1.005875,0.014983,-0.007395,0.000843,70.513962,8.525681,-146.033356,,,
729601296.613894,1.23909,-0.231812,-22.444493,0.007889,0.019226,1.006699,0.014983,-0.007395,0.000843,70.513962,8.525681,-146.033356,,,
729601296.617263,1.242254,-0.233706,-22.443803,0.007889,0.019226,1.006699,0.014983,-0.007395,0.000843,70.513962,8.525681,-146.033356,,,
729601296.620641,1.246384,-0.235383,-22.443098,0.007889,0.019226,1.006699,0.014493,-0.001601,0.000858,70.513962,8.525681,-146.033356,,,
729601296.623901,1.246384,-0.235383,-22.442032,0.006638,0.021149,0.997589,0.014493,-0.001601,0.000858,70.513962,8.525681,-146.033356,,,
729601296.62724,1.249017,-0.23675,-22.442032,0.006638,0.021149,0.997589,0.014493,-0.001601,0.000858,70.513962,8.525681,-146.033356,,,
729601296.630572,1.252289,-0.236761,-22.440762,0.006638,0.021149,0.997589,0.011543,0.004759,0.00241,70.513962,8.525681,-146.033356,,,
729601296.633892,1.252289,-0.236761,-22.440762,0.002472,0.022202,0.995407,0.011543,0.004759,0.00241,70.513962,8.525681,-146.033356,,,
729601296.637296,1.254597,-0.235141,-22.439543,0.002472,0.022202,0.995407,0.011543,0.004759,0.00241,70.513962,8.525681,-146.033356,,,
729601296.640566,1.25692,-0.234233,-22.438234,0.002472,0.022202,0.995407,0.008044,0.007401,0.002922,70.424332,8.219376,-145.850677,,,
729601296.643897,1.25692,-0.234233,-22.438234,0.006775,0.024612,0.990891,0.008044,0.007401,0.002922,70.424332,8.219376,-145.850677,,,
729601296.647284,1.258859,-0.230267,-22.437487,0.006775,0.024612,0.990891,0.008044,0.007401,0.002922,70.424332,8.219376,-145.850677,,,
729601296.650571,1.259885,-0.229964,-22.437504,0.006775,0.024612,0.990891,0.003399,0.00191,-0.00285,70.424332,8.219376,-145.850677,,,
729601296.653993,1.259885,-0.229964,-22.438513,0.008667,0.026337,0.988419,0.003399,0.00191,-0.00285,70.424332,8.219376,-145.850677,,,
729601296.657251,1.261157,-0.230304,-22.438513,0.008667,0.026337,0.988419,0.003399,0.00191,-0.00285,70.424332,8.219376,-145.850677,,,
729601296.660584,1.261003,-0.233842,-22.440705,0.008667,0.026337,0.988419,-0.000443,-0.013696,-0.011241,70.424332,8.219376,-145.850677,,,
729601296.663969,1.261003,-0.233842,-22.443887,0.005325,0.025055,0.983719,-0.000443,-0.013696,-0.011241,70.424332,8.219376,-145.850677,,,
729601296.667238,1.261144,-0.240204,-22.443887,0.005325,0.025055,0.983719,-0.000443,-0.013696,-0.011241,70.424332,8.219376,-145.850677,,,
729601296.670643,1.258723,-0.24745,-22.44768,0.005325,0.025055,0.983719,-0.009686,-0.025359,-0.015403,70.424332,8.219376,-145.850677,,,
729601296.673952,1.258723,-0.24745,-22.44768,0.000305,0.025223,0.985336,-0.009686,-0.025359,-0.015403,70.424332,8.219376,-145.850677,,,
729601296.677243,1.254732,-0.257326,-22.451791,0.000305,0.025223,0.985336,-0.009686,-0.025359,-0.015403,70.424332,8.219376,-145.850677,,,
729601296.680595,1.249861,-0.267801,-22.456028,0.000305,0.025223,0.985336,-0.019409,-0.035372,-0.01601,70.624512,8.534744,-146.042847,,,
729601296.683962,1.249861,-0.267801,-22.456028,0.00061,0.02356,0.986343,-0.019409,-0.035372,-0.01601,70.624512,8.534744,-146.042847,,,
729601296.687324,1.242176,-0.278999,-22.459967,0.00061,0.02356,0.986343,-0.019409,-0.035372,-0.01601,70.624512,8.534744,-146.042847,,,
729601296.690572,1.234545,-0.287803,-22.463959,0.00061,0.02356,0.986343,-0.027418,-0.025533,-0.016127,70.624512,8.534744,-146.042847,,,
729601296.6939,1.234545,-0.287803,-22.463959,0.00325,0.021179,0.99321,-0.027418,-0.025533,-0.016127,70.624512,8.534744,-146.042847,,,
729601296.697252,1.226186,-0.295427,-22.467816,0.00325,0.021179,0.99321,-0.027418,-0.025533,-0.016127,70.624512,8.534744,-146.042847,,,
729601296.70062,1.217822,-0.300305,-22.470605,0.00325,0.021179,0.99321,-0.029199,-0.012612,-0.008556,70.624512,8.534744,-146.042847,,,
729601296.703916,1.217822,-0.300305,-22.470605,0.00325,0.021179,0.99321,-0.029199,-0.012612,-0.008556,70.624512,8.534744,-146.042847,,,
729601296.707282,1.21011,-0.303753,-22.471434,0.004608,0.021484,0.997772,-0.029199,-0.012612,-0.008556,70.624512,8.534744,-146.042847,,,
729601296.710584,1.203284,-0.305605,-22.470097,0.004608,0.021484,0.997772,-0.023191,-0.000274,0.006467,70.624512,8.534744,-146.042847,,,
729601296.713967,1.203284,-0.305605,-22.470097,0.004608,0.018723,1.004074,-0.023191,-0.000274,0.006467,70.624512,8.534744,-146.042847,,,
729601296.717239,1.198417,-0.305353,-22.467232,0.000504,0.018723,1.004074,-0.023191,-0.000274,0.006467,70.624512,8.534744,-146.042847,,,
729601296.720607,1.194863,-0.305198,-22.463271,0.000504,0.018723,1.004074,-0.009436,0.001721,0.013971,70.624512,8.534744,-146.042847,,,
729601296.723895,1.194863,-0.305198,-22.463271,0.000504,0.018723,1.004074,-0.009436,0.001721,0.013971,70.554184,8.268478,-146.25032,,,
729601296.727287,1.193931,-0.307153,-22.458377,0.00087,0.017838,1.007584,-0.009436,0.001721,0.013971,70.554184,8.268478,-146.25032,,,
729601296.730559,1.191727,-0.308974,-22.452832,0.00087,0.017838,1.007584,-0.008811,-0.004822,0.018588,70.554184,8.268478,-146.25032,,,
729601296.734016,1.191727,-0.308974,-22.452832,0.00087,0.017838,1.007584,-0.008811,-0.004822,0.018588,70.554184,8.268478,-146.25032,,,
729601296.737199,1.190944,-0.312637,-22.447258,0.000702,0.016647,1.002106,-0.008811,-0.004822,0.018588,70.554184,8.268478,-146.25032,,,
729601296.740581,1.188941,-0.316345,-22.442405,0.000702,0.016647,1.002106,-0.006942,-0.010813,0.013678,70.554184,8.268478,-146.25032,,,
729601296.743916,1.188941,-0.316345,-22.442405,0.000702,0.016647,1.002106,-0.006942,-0.010813,0.013678,70.554184,8.268478,-146.25032,,,
729601296.747248,1.187607,-0.320574,-22.437979,0.003647,0.017151,1.002014,-0.006942,-0.010813,0.013678,70.554184,8.268478,-146.25032,,,
729601296.750567,1.183928,-0.328091,-22.433792,0.003647,0.017151,1.002014,-0.014633,-0.027516,0.011897,70.554184,8.268478,-146.25032,,,
729601296.753993,1.183928,-0.328091,-22.433792,0.003647,0.017151,1.002014,-0.014633,-0.027516,0.011897,70.554184,8.268478,-146.25032,,,
729601296.757248,1.180209,-0.336158,-22.42988,0.007217,0.022156,0.995407,-0.014633,-0.027516,0.011897,70.554184,8.268478,-146.25032,,,
729601296.760569,1.173937,-0.34738,-22.426089,0.007217,0.022156,0.995407,-0.023249,-0.037624,0.01087,70.554184,8.268478,-146.25032,,,
729601296.763936,1.173937,-0.34738,-22.426089,0.007217,0.022156,0.995407,-0.023249,-0.037624,0.01087,70.457306,8.226868,-146.218735,,,
729601296.767281,1.167319,-0.357831,-22.422521,0.004776,0.023483,0.995728,-0.023249,-0.037624,0.01087,70.457306,8.226868,-146.218735,,,
729601296.770601,1.159608,-0.36992,-22.418957,0.004776,0.023483,0.995728,-0.026897,-0.040361,0.010695,70.457306,8.226868,-146.218735,,,
729601296.773932,1.159608,-0.36992,-22.418957,0.004776,0.023483,0.995728,-0.026897,-0.040361,0.010695,70.457306,8.226868,-146.218735,,,
729601296.77724,1.15199,-0.382028,-22.416216,0.010025,0.022659,1.003342,-0.026897,-0.040361,0.010695,70.457306,8.226868,-146.218735,,,
729601296.780562,1.144097,-0.394477,-22.414387,0.010025,0.022659,1.003342,-0.026158,-0.039377,0.004273,70.457306,8.226868,-146.218735,,,
729601296.783922,1.144097,-0.394477,-22.414387,0.010025,0.022659,1.003342,-0.026158,-0.039377,0.004273,70.457306,8.226868,-146.218735,,,
