Time (sec),Pitch (deg),Roll (deg),Yaw(deg),X-Acceleration (g),Y-Acceleration (g),Z-Acceleration (g),Pitch Rate (deg/sec),Roll Rate (deg/sec),Yaw Rate (deg/sec),Magnetic Field in X direction (uT),Magnetic Field in Y direction (uT),Magnetic Field in Z Direction (uT),Latitude (deg),Longitude (deg),Altitude (m)
729605752.960789,-1.334299,1.496671,53.813559,-0.031815,-0.013916,0.986282,-0.027502,0.016802,-0.020006,62.708542,23.585449,-147.910309,,,
729605752.964193,-1.342248,1.498391,53.80843,-0.029877,-0.014603,0.992416,-0.027502,0.016802,-0.020006,62.708542,23.585449,-147.910309,,,
729605752.967457,-1.349464,1.498824,53.80416,-0.029877,-0.014603,0.992416,-0.024666,-0.000288,-0.018253,62.708542,23.585449,-147.910309,,,
729605752.970776,-1.349464,1.498824,53.80416,-0.029877,-0.014603,0.992416,-0.024666,-0.000288,-0.018253,62.708542,23.585449,-147.910309,,,
729605752.974128,-1.355873,1.495425,53.800639,-0.03653,-0.015579,0.991623,-0.024666,-0.000288,-0.018253,62.708542,23.585449,-147.910309,,,
729605752.977449,-1.358535,1.491079,53.797572,-0.03653,-0.015579,0.991623,-0.009101,-0.019416,-0.010056,62.708542,23.585449,-147.910309,,,
729605752.98078,-1.358535,1.491079,53.797572,-0.03653,-0.015579,0.991623,-0.009101,-0.019416,-0.010056,62.708542,23.585449,-147.910309,,,
729605752.984122,-1.357842,1.482824,53.794844,-0.036224,-0.022415,1.008804,-0.009101,-0.019416,-0.010056,62.708542,23.585449,-147.910309,,,
729605752.987451,-1.352631,1.473747,53.792961,-0.036224,-0.022415,1.008804,0.022278,-0.038456,-0.006568,62.708542,23.585449,-147.910309,,,
729605752.990775,-1.352631,1.473747,53.792961,-0.036224,-0.022415,1.008804,0.022278,-0.038456,-0.006568,62.708542,23.585449,-147.910309,,,
729605752.994198,-1.345814,1.461325,53.791643,-0.032684,-0.021286,1.012436,0.022278,-0.038456,-0.006568,62.708542,23.585449,-147.910309,,,
729605752.997443,-1.337588,1.450692,53.790915,-0.032684,-0.021286,1.012436,0.027261,-0.036947,-0.005107,62.708542,23.585449,-147.910309,,,
729605753.000817,-1.337588,1.450692,53.790915,-0.032684,-0.021286,1.012436,0.027261,-0.036947,-0.005107,62.665009,23.483948,-147.855042,,,
729605753.004199,-1.331451,1.440675,53.790537,-0.029022,-0.019379,1.005753,0.027261,-0.036947,-0.005107,62.665009,23.483948,-147.855042,,,
729605753.00744,-1.325763,1.43466,53.790047,-0.029022,-0.019379,1.005753,0.012481,-0.016904,-0.003527,62.665009,23.483948,-147.855042,,,
729605753.010779,-1.325763,1.43466,53.790047,-0.029022,-0.019379,1.005753,0.012481,-0.016904,-0.003527,62.665009,23.483948,-147.855042,,,
729605753.014228,-1.324913,1.431456,53.789545,-0.022064,-0.018524,1.002731,0.012481,-0.016904,-0.003527,62.665009,23.483948,-147.855042,,,
729605753.01745,-1.323804,1.43174,53.78931,-0.022064,-0.018524,1.002731,-0.006984,0.007726,-0.000464,62.665009,23.483948,-147.855042,,,
729605753.020784,-1.323804,1.43174,53.78931,-0.022064,-0.018524,1.002731,-0.006984,0.007726,-0.000464,62.665009,23.483948,-147.855042,,,
729605753.024207,-1.327881,1.433789,53.789416,-0.02034,-0.019577,0.998337,-0.006984,0.007726,-0.000464,62.665009,23.483948,-147.855042,,,
729605753.027448,-1.330377,1.436314,53.789421,-0.02034,-0.019577,0.998337,-0.015786,0.007082,-0.003609,62.665009,23.483948,-147.855042,,,
729605753.030782,-1.330377,1.436314,53.789421,-0.02034,-0.019577,0.998337,-0.015786,0.007082,-0.003609,62.665009,23.483948,-147.855042,,,
729605753.034197,-1.335394,1.436047,53.788114,-0.016861,-0.02272,0.999435,-0.015786,0.007082,-0.003609,62.665009,23.483948,-147.855042,,,
729605753.037443,-1.338555,1.435553,53.784861,-0.016861,-0.02272,0.999435,-0.013838,-0.00662,-0.013826,62.665009,23.483948,-147.855042,,,
729605753.040783,-1.338555,1.435553,53.784861,-0.016861,-0.02272,0.999435,-0.013838,-0.00662,-0.013826,62.665009,23.483948,-147.855042,,,
729605753.044204,-1.342903,1.431815,53.779616,-0.016251,-0.021088,0.99971,-0.013838,-0.00662,-0.013826,62.79158,23.467041,-148.116348,,,
729605753.047445,-1.345107,1.427078,53.772851,-0.016251,-0.021088,0.99971,-0.013072,-0.020942,-0.02719,62.79158,23.467041,-148.116348,,,
729605753.05078,-1.345107,1.427078,53.772851,-0.016251,-0.021088,0.99971,-0.013072,-0.020942,-0.02719,62.79158,23.467041,-148.116348,,,
729605753.054211,-1.34904,1.417507,53.76489,-0.019547,-0.025299,0.994797,-0.013072,-0.020942,-0.02719,62.79158,23.467041,-148.116348,,,
729605753.057444,-1.350923,1.408578,53.756343,-0.019547,-0.025299,0.994797,-0.009073,-0.039166,-0.032895,62.79158,23.467041,-148.116348,,,
729605753.06078,-1.350923,1.408578,53.756343,-0.019547,-0.025299,0.994797,-0.009073,-0.039166,-0.032895,62.79158,23.467041,-148.116348,,,
729605753.064223,-1.353266,1.395623,53.747589,-0.015823,-0.028275,0.996765,-0.009073,-0.039166,-0.032895,62.79158,23.467041,-148.116348,,,
729605753.067545,-1.355396,1.385939,53.73888,-0.015823,-0.028275,0.996765,-0.007225,-0.03664,-0.032581,62.79158,23.467041,-148.116348,,,
729605753.070776,-1.355396,1.385939,53.73888,-0.015823,-0.028275,0.996765,-0.007225,-0.03664,-0.032581,62.79158,23.467041,-148.116348,,,
729605753.074165,-1.357878,1.376629,53.730274,-0.01712,-0.02681,1.000763,-0.007225,-0.03664,-0.032581,62.79158,23.467041,-148.116348,,,
729605753.077485,-1.359077,1.372522,53.722367,-0.01712,-0.02681,1.000763,-0.008005,-0.012647,-0.029895,62.79158,23.467041,-148.116348,,,
729605753.080789,-1.359077,1.372522,53.722367,-0.01712,-0.02681,1.000763,-0.008005,-0.012647,-0.029895,62.79158,23.467041,-148.116348,,,
729605753.084149,-1.360726,1.369808,53.715381,-0.020416,-0.025818,1.004684,-0.008005,-0.012647,-0.029895,62.629608,23.572098,-147.999573,,,
729605753.087482,-1.360405,1.369933,53.709934,-0.020416,-0.025818,1.004684,0.001119,0.003072,-0.017761,62.629608,23.572098,-147.999573,,,
729605753.090861,-1.360405,1.369933,53.709934,-0.020416,-0.025818,1.004684,0.001119,0.003072,-0.017761,62.629608,23.572098,-147.999573,,,
729605753.094199,-1.359701,1.371518,53.705605,-0.020981,-0.027191,1.001938,0.001119,0.003072,-0.017761,62.629608,23.572098,-147.999573,,,
729605753.097441,-1.355695,1.373999,53.701772,-0.020981,-0.027191,1.001938,0.014177,0.013519,-0.012892,62.629608,23.572098,-147.999573,,,
729605753.100787,-1.355695,1.373999,53.701772,-0.020981,-0.027191,1.001938,0.014177,0.013519,-0.012892,62.629608,23.572098,-147.999573,,,
729605753.10423,-1.350633,1.377927,53.698216,-0.018738,-0.026123,1.004074,0.014177,0.013519,-0.012892,62.629608,23.572098,-147.999573,,,
729605753.107476,-1.343282,1.381286,53.694233,-0.018738,-0.026123,1.004074,0.025701,0.020059,-0.01502,62.629608,23.572098,-147.999573,,,
729605753.110904,-1.343282,1.381286,53.694233,-0.018738,-0.026123,1.004074,0.025701,0.020059,-0.01502,62.629608,23.572098,-147.999573,,,
729605753.114122,-1.335869,1.386873,53.689152,-0.017792,-0.021255,1.000244,0.025701,0.020059,-0.01502,62.629608,23.572098,-147.999573,,,
729605753.11746,-1.329162,1.391504,53.683375,-0.017792,-0.021255,1.000244,0.020543,0.027386,-0.021981,62.629608,23.572098,-147.999573,,,
729605753.120872,-1.329162,1.391504,53.683375,-0.017792,-0.021255,1.000244,0.020543,0.027386,-0.021981,62.629608,23.572098,-147.999573,,,
729605753.124171,-1.325113,1.398475,53.677967,-0.021637,-0.020554,0.992279,0.020543,0.027386,-0.021981,62.511047,23.650024,-147.76355,,,
729605753.127203,-1.325113,1.398475,53.677967,-0.021637,-0.020554,0.992279,0.0027,0.030012,-0.020685,62.511047,23.650024,-147.76355,,,
729605753.130922,-1.324395,1.404327,53.672482,-0.021637,-0.020554,0.992279,0.0027,0.030012,-0.020685,62.511047,23.650024,-147.76355,,,
729605753.134118,-1.327263,1.411608,53.666804,-0.02475,-0.023041,0.981583,0.0027,0.030012,-0.020685,62.511047,23.650024,-147.76355,,,
729605753.137471,-1.333761,1.416496,53.660543,-0.02475,-0.023041,0.981583,-0.021895,0.02447,-0.025408,62.511047,23.650024,-147.76355,,,
729605753.140896,-1.333761,1.416496,53.660543,-0.02475,-0.023041,0.981583,-0.021895,0.02447,-0.025408,62.511047,23.650024,-147.76355,,,
729605753.144199,-1.342023,1.421629,53.652946,-0.023315,-0.020935,0.980148,-0.021895,0.02447,-0.025408,62.511047,23.650024,-147.76355,,,
729605753.147495,-1.352326,1.422761,53.644772,-0.023315,-0.020935,0.980148,-0.030173,0.013287,-0.030133,62.511047,23.650024,-147.76355,,,
729605753.150838,-1.352326,1.422761,53.644772,-0.023315,-0.020935,0.980148,-0.030173,0.013287,-0.030133,62.511047,23.650024,-147.76355,,,
729605753.154121,-1.36068,1.423476,53.636726,-0.029251,-0.021347,0.986984,-0.030173,0.013287,-0.030133,62.511047,23.650024,-147.76355,,,
729605753.157452,-1.368527,1.419693,53.627983,-0.029251,-0.021347,0.986984,-0.026114,-0.003526,-0.032002,62.511047,23.650024,-147.76355,,,
729605753.16078,-1.368527,1.419693,53.627983,-0.029251,-0.021347,0.986984,-0.026114,-0.003526,-0.032002,62.511047,23.650024,-147.76355,,,
729605753.16423,-1.375023,1.41477,53.618747,-0.03215,-0.023331,0.991058,-0.026114,-0.003526,-0.032002,62.511047,23.604095,-147.831177,,,
729605753.167445,-1.380988,1.406557,53.60981,-0.03215,-0.023331,0.991058,-0.019183,-0.023682,-0.033453,62.643982,23.604095,-147.831177,,,
729605753.170801,-1.380988,1.406557,53.60981,-0.03215,-0.023331,0.991058,-0.019183,-0.023682,-0.033453,62.643982,23.604095,-147.831177,,,
729605753.174124,-1.387544,1.398319,53.601427,-0.031693,-0.026489,0.993088,-0.019183,-0.023682,-0.033453,62.643982,23.604095,-147.831177,,,
729605753.177448,-1.396074,1.389548,53.593239,-0.031693,-0.026489,0.993088,-0.0272,-0.023472,-0.028475,62.643982,23.604095,-147.831177,,,
729605753.180779,-1.396074,1.389548,53.593239,-0.031693,-0.026489,0.993088,-0.0272,-0.023472,-0.028475,62.643982,23.604095,-147.831177,,,
729605753.184139,-1.405916,1.383838,53.585654,-0.03096,-0.023941,0.98912,-0.0272,-0.023472,-0.028475,62.643982,23.604095,-147.831177,,,
729605753.18744,-1.417146,1.379747,53.579441,-0.03096,-0.023941,0.98912,-0.037216,-0.00447,-0.021094,62.643982,23.604095,-147.831177,,,
729605753.190844,-1.417146,1.379747,53.579441,-0.03096,-0.023941,0.98912,-0.037216,-0.00447,-0.021094,62.643982,23.604095,-147.831177,,,
729605753.194103,-1.429522,1.380234,53.575015,-0.03125,-0.025757,0.994141,-0.037216,-0.00447,-0.021094,62.643982,23.604095,-147.831177,,,
729605753.197446,-1.441641,1.381487,53.572514,-0.03125,-0.025757,0.994141,-0.046298,0.012569,-0.009044,62.643982,23.604095,-147.831177,,,
729605753.200782,-1.441641,1.381487,53.572514,-0.03125,-0.025757,0.994141,-0.046298,0.012569,-0.009044,62.643982,23.604095,-147.831177,,,
729605753.204183,-1.454592,1.38462,53.571746,-0.031097,-0.0271,0.993164,-0.046298,0.012569,-0.009044,62.643982,23.604095,-147.831177,,,
729605753.207433,-1.454592,1.387209,53.571639,-0.031097,-0.0271,0.993164,-0.038138,0.010596,-0.000386,62.538315,23.821167,-147.895432,,,
729605753.210779,-1.46504,1.387209,53.571639,-0.031097,-0.0271,0.993164,-0.038138,0.010596,-0.000386,62.538315,23.821167,-147.895432,,,
729605753.214107,-1.473528,1.388138,53.571277,-0.026749,-0.02298,0.995239,-0.038138,0.010596,-0.000386,62.538315,23.821167,-147.895432,,,
729605753.217444,-1.479465,1.387707,53.570231,-0.026749,-0.02298,0.995239,-0.023421,0.00114,-0.005267,62.538315,23.821167,-147.895432,,,
729605753.220803,-1.479465,1.387707,53.570231,-0.026749,-0.02298,0.995239,-0.023421,0.00114,-0.005267,62.538315,23.821167,-147.895432,,,
729605753.224129,-1.485278,1.38753,53.568723,-0.020493,-0.020248,1.000854,-0.023421,0.00114,-0.005267,62.538315,23.821167,-147.895432,,,
729605753.227443,-1.485278,1.38753,53.568723,-0.020493,-0.020248,1.000854,-0.016458,0.005079,-0.011026,62.538315,23.821167,-147.895432,,,
729605753.230871,-1.489613,1.388478,53.566026,-0.020493,-0.020248,1.000854,-0.016458,0.005079,-0.011026,62.538315,23.821167,-147.895432,,,
729605753.234235,-1.494706,1.389225,53.562339,-0.023346,-0.021469,1.001511,-0.016458,0.005079,-0.011026,62.538315,23.821167,-147.895432,,,
729605753.237434,-1.494706,1.389225,53.562339,-0.023346,-0.021469,1.001511,-0.015552,0.002604,-0.012614,62.538315,23.821167,-147.895432,,,
729605753.240802,-1.497611,1.391049,53.558929,-0.023346,-0.021469,1.001511,-0.015552,0.002604,-0.012614,62.538315,23.821167,-147.895432,,,
729605753.244114,-1.501331,1.391415,53.55652,-0.023941,-0.024185,1.001801,-0.015552,0.002604,-0.012614,62.538315,23.821167,-147.895432,,,
729605753.247444,-1.501331,1.391415,53.55652,-0.023941,-0.024185,1.001801,-0.014798,0.011327,-0.004102,62.383362,24.003464,-148.113678,,,
729605753.250791,-1.5055,1.395249,53.555648,-0.023941,-0.024185,1.001801,-0.014798,0.011327,-0.004102,62.383362,24.003464,-148.113678,,,
729605753.254114,-1.510296,1.398752,53.555845,-0.029221,-0.028244,1.001068,-0.014798,0.011327,-0.004102,62.383362,24.003464,-148.113678,,,
729605753.257436,-1.510296,1.398752,53.555845,-0.029221,-0.028244,1.001068,-0.023035,0.017084,0.003242,62.383362,24.003464,-148.113678,,,
729605753.260789,-1.516253,1.404544,53.557184,-0.029221,-0.028244,1.001068,-0.023035,0.017084,0.003242,62.383362,24.003464,-148.113678,,,
729605753.26411,-1.524355,1.408944,53.559217,-0.032349,-0.028412,0.995316,-0.023035,0.017084,0.003242,62.383362,24.003464,-148.113678,,,
729605753.267437,-1.524355,1.408944,53.559217,-0.032349,-0.028412,0.995316,-0.035204,0.016582,0.00453,62.383362,24.003464,-148.113678,,,
729605753.27087,-1.534192,1.414632,53.56156,-0.032349,-0.028412,0.995316,-0.035204,0.016582,0.00453,62.383362,24.003464,-148.113678,,,
729605753.27412,-1.546374,1.417237,53.563841,-0.03389,-0.03064,0.995453,-0.035204,0.016582,0.00453,62.383362,24.003464,-148.113678,,,
729605753.277482,-1.546374,1.417237,53.563841,-0.03389,-0.03064,0.995453,-0.043042,-0.001815,0.00567,62.383362,24.003464,-148.113678,,,
729605753.280803,-1.559472,1.418461,53.56568,-0.03389,-0.03064,0.995453,-0.043042,-0.001815,0.00567,62.383362,24.003464,-148.113678,,,
729605753.284115,-1.572688,1.414142,53.567371,-0.032196,-0.031036,0.993637,-0.043042,-0.001815,0.00567,62.383362,24.003464,-148.113678,,,
729605753.287474,-1.572688,1.414142,53.567371,-0.032196,-0.031036,0.993637,-0.043368,-0.02784,0.001982,62.472321,23.985611,-147.938889,,,
729605753.290785,-1.585522,1.407698,53.568781,-0.032196,-0.031036,0.993637,-0.043368,-0.02784,0.001982,62.472321,23.985611,-147.938889,,,
729605753.294121,-1.59831,1.39745,53.569723,-0.031357,-0.029205,0.99646,-0.043368,-0.02784,0.001982,62.472321,23.985611,-147.938889,,,
729605753.297461,-1.59831,1.39745,53.569723,-0.031357,-0.029205,0.99646,-0.040443,-0.038733,0.001406,62.472321,23.985611,-147.938889,,,
729605753.300812,-1.609522,1.385215,53.570724,-0.031357,-0.029205,0.99646,-0.040443,-0.038733,0.001406,62.472321,23.985611,-147.938889,,,
729605753.304137,-1.621584,1.37117,53.57192,-0.033203,-0.033768,0.999557,-0.040443,-0.038733,0.001406,62.472321,23.985611,-147.938889,,,
729605753.307472,-1.621584,1.37117,53.57192,-0.033203,-0.033768,0.999557,-0.033782,-0.057661,0.006503,62.472321,23.985611,-147.938889,,,
729605753.310786,-1.630679,1.35394,53.573453,-0.033203,-0.033768,0.999557,-0.033782,-0.057661,0.006503,62.472321,23.985611,-147.938889,,,
729605753.314114,-1.639818,1.335724,53.575443,-0.029358,-0.036545,0.99617,-0.033782,-0.057661,0.006503,62.472321,23.985611,-147.938889,,,
729605753.317448,-1.639818,1.335724,53.575443,-0.029358,-0.036545,0.99617,-0.028915,-0.059125,0.003357,62.472321,23.985611,-147.938889,,,
729605753.320809,-1.646686,1.317675,53.577757,-0.029358,-0.036545,0.99617,-0.028915,-0.059125,0.003357,62.472321,23.985611,-147.938889,,,
729605753.324173,-1.654802,1.300579,53.579782,-0.020111,-0.03392,1.001907,-0.028915,-0.059125,0.003357,62.472321,23.985611,-147.938889,,,
729605753.327594,-1.654802,1.300579,53.579782,-0.020111,-0.03392,1.001907,-0.026553,-0.056612,0.002514,62.472321,23.985611,-147.938889,,,
729605753.330774,-1.662233,1.284315,53.580988,-0.020111,-0.03392,1.001907,-0.026553,-0.056612,0.002514,62.455078,23.770767,-147.951431,,,
729605753.33411,-1.671308,1.267271,53.58129,-0.015121,-0.032211,0.997635,-0.026553,-0.056612,0.002514,62.455078,23.770767,-147.951431,,,
729605753.33752,-1.671308,1.267271,53.58129,-0.015121,-0.032211,0.997635,-0.026553,-0.056612,0.002514,62.455078,23.770767,-147.951431,,,
729605753.340765,-1.681761,1.252242,53.581173,-0.015121,-0.032211,0.997635,-0.034515,-0.058181,-0.003294,62.455078,23.770767,-147.951431,,,
729605753.344117,-1.693018,1.235731,53.580584,-0.013672,-0.03418,0.992447,-0.034515,-0.058181,-0.003294,62.455078,23.770767,-147.951431,,,
729605753.34745,-1.693018,1.235731,53.580584,-0.013672,-0.03418,0.992447,-0.034515,-0.058181,-0.003294,62.455078,23.770767,-147.951431,,,
729605753.350851,-1.704065,1.223447,53.57951,-0.013672,-0.03418,0.992447,-0.039809,-0.050267,-0.006115,62.455078,23.770767,-147.951431,,,
729605753.354108,-1.713791,1.209633,53.578071,-0.010117,-0.036636,1.00116,-0.039809,-0.050267,-0.006115,62.455078,23.770767,-147.951431,,,
729605753.357527,-1.713791,1.209633,53.578071,-0.010117,-0.036636,1.00116,-0.039809,-0.050267,-0.006115,62.455078,23.770767,-147.951431,,,
729605753.360773,-1.722106,1.200851,53.577545,-0.010117,-0.036636,1.00116,-0.026785,-0.035727,-0.002993,62.455078,23.770767,-147.951431,,,
729605753.36411,-1.727383,1.192107,53.579066,-0.01297,-0.041214,1.008591,-0.026785,-0.035727,-0.002993,62.455078,23.770767,-147.951431,,,
729605753.36753,-1.727383,1.192107,53.579066,-0.01297,-0.041214,1.008591,-0.026785,-0.035727,-0.002993,62.455078,23.770767,-147.951431,,,
729605753.370775,-1.729933,1.191557,53.583038,-0.01297,-0.041214,1.008591,-0.00541,-0.003445,0.01372,62.496918,23.898941,-147.884033,,,
729605753.374119,-1.730027,1.196339,53.588633,-0.017258,-0.044312,1.018997,-0.00541,-0.003445,0.01372,62.496918,23.898941,-147.884033,,,
729605753.377459,-1.730027,1.196339,53.588633,-0.017258,-0.044312,1.018997,-0.00541,-0.003445,0.01372,62.496918,23.898941,-147.884033,,,
729605753.380792,-1.727596,1.209005,53.594043,-0.017258,-0.044312,1.018997,0.012604,0.040781,0.015414,62.496918,23.898941,-147.884033,,,
729605753.384117,-1.721673,1.219996,53.597532,-0.010666,-0.035675,1.015228,0.012604,0.040781,0.015414,62.496918,23.898941,-147.884033,,,
729605753.387474,-1.721673,1.219996,53.597532,-0.010666,-0.035675,1.015228,0.012604,0.040781,0.015414,62.496918,23.898941,-147.884033,,,
729605753.390863,-1.714186,1.232888,53.598468,-0.010666,-0.035675,1.015228,0.03464,0.036451,-0.000537,62.496918,23.898941,-147.884033,,,
729605753.394108,-1.70406,1.242671,53.596767,-0.00676,-0.026825,1.002304,0.03464,0.036451,-0.000537,62.496918,23.898941,-147.884033,,,
729605753.397491,-1.70406,1.242671,53.596767,-0.00676,-0.026825,1.002304,0.03464,0.036451,-0.000537,62.496918,23.898941,-147.884033,,,
729605753.40078,-1.694515,1.251797,53.594102,-0.00676,-0.026825,1.002304,0.039682,0.027109,-0.010027,62.496918,23.898941,-147.884033,,,
729605753.404113,-1.683147,1.25675,53.591774,-0.019653,-0.033844,0.991348,0.039682,0.027109,-0.010027,62.496918,23.898941,-147.884033,,,
729605753.407503,-1.683147,1.25675,53.591774,-0.019653,-0.033844,0.991348,0.039682,0.027109,-0.010027,62.496918,23.898941,-147.884033,,,
729605753.410783,-1.673406,1.257133,53.590409,-0.019653,-0.033844,0.991348,0.038732,0.005799,-0.004422,62.384277,23.718414,-147.948914,,,
729605753.414116,-1.66384,1.254524,53.58994,-0.023865,-0.04071,0.980469,0.038732,0.005799,-0.004422,62.384277,23.718414,-147.948914,,,
729605753.417493,-1.66384,1.254524,53.58994,-0.023865,-0.04071,0.980469,0.038732,0.005799,-0.004422,62.384277,23.718414,-147.948914,,,
729605753.420781,-1.656423,1.247473,53.589514,-0.023865,-0.04071,0.980469,0.026544,-0.019839,-0.001862,62.384277,23.718414,-147.948914,,,
729605753.424114,-1.650896,1.241354,53.588102,-0.015289,-0.035309,0.979141,0.026544,-0.019839,-0.001862,62.384277,23.718414,-147.948914,,,
729605753.427479,-1.650896,1.241354,53.588102,-0.015289,-0.035309,0.979141,0.026544,-0.019839,-0.001862,62.384277,23.718414,-147.948914,,,
729605753.430809,-1.649409,1.233424,53.584529,-0.015289,-0.035309,0.979141,0.005456,-0.016211,-0.01628,62.384277,23.718414,-147.948914,,,
729605753.434112,-1.649104,1.228522,53.578661,-0.008636,-0.026978,0.978485,0.005456,-0.016211,-0.01628,62.384277,23.718414,-147.948914,,,
729605753.437513,-1.649104,1.228522,53.578661,-0.008636,-0.026978,0.978485,0.005456,-0.016211,-0.01628,62.384277,23.718414,-147.948914,,,
729605753.440839,-1.653013,1.222003,53.570883,-0.008636,-0.026978,0.978485,-0.009748,-0.008057,-0.030158,62.384277,23.718414,-147.948914,,,
729605753.444105,-1.657605,1.219839,53.561596,-0.010345,-0.019684,0.977432,-0.009748,-0.008057,-0.030158,62.384277,23.718414,-147.948914,,,
729605753.447462,-1.657605,1.219839,53.561596,-0.010345,-0.019684,0.977432,-0.009748,-0.008057,-0.030158,62.384277,23.718414,-147.948914,,,
729605753.45077,-1.666806,1.217423,53.551066,-0.010345,-0.019684,0.977432,-0.021191,0.001025,-0.039533,62.583847,24.026688,-147.876923,,,
729605753.45411,-1.67412,1.216696,53.539934,-0.009613,-0.018585,0.981293,-0.021191,0.001025,-0.039533,62.583847,24.026688,-147.876923,,,
729605753.458608,-1.684789,1.214699,53.52858,-0.009613,-0.018585,0.981293,-0.023793,0.00104,-0.04143,62.583847,24.026688,-147.876923,,,
729605753.460639,-1.684789,1.214699,53.52858,-0.009613,-0.018585,0.981293,-0.023793,0.00104,-0.04143,62.583847,24.026688,-147.876923,,,
729605753.464127,-1.692327,1.213608,53.517924,-0.013,-0.019653,0.983612,-0.023793,0.00104,-0.04143,62.583847,24.026688,-147.876923,,,
729605753.467438,-1.692327,1.213608,53.517924,-0.013,-0.019653,0.983612,-0.023793,0.00104,-0.04143,62.583847,24.026688,-147.876923,,,
729605753.470791,-1.698683,1.209805,53.507772,-0.013,-0.019653,0.983612,-0.016439,0.004246,-0.03884,62.583847,24.026688,-147.876923,,,
729605753.474142,-1.704101,1.210384,53.497986,-0.016632,-0.018814,0.987564,-0.016439,0.004246,-0.03884,62.583847,24.026688,-147.876923,,,
729605753.477468,-1.704101,1.210384,53.497986,-0.016632,-0.018814,0.987564,-0.016439,0.004246,-0.03884,62.583847,24.026688,-147.876923,,,
729605753.480807,-1.7089,1.21009,53.488527,-0.016632,-0.018814,0.987564,-0.016417,0.013244,-0.03619,62.583847,24.026688,-147.876923,,,
729605753.484108,-1.713481,1.213125,53.479346,-0.015808,-0.022171,0.993271,-0.016417,0.013244,-0.03619,62.583847,24.026688,-147.876923,,,
729605753.487472,-1.713481,1.213125,53.479346,-0.015808,-0.022171,0.993271,-0.016417,0.013244,-0.03619,62.583847,24.026688,-147.876923,,,
729605753.490845,-1.71854,1.217242,53.470765,-0.015808,-0.022171,0.993271,-0.011301,0.018131,-0.030788,62.583847,24.026688,-147.876923,,,
729605753.494119,-1.720364,1.22191,53.46298,-0.018143,-0.025177,0.995407,-0.011301,0.018131,-0.030788,62.508682,23.911591,-147.868759,,,
729605753.497439,-1.720364,1.22191,53.46298,-0.018143,-0.025177,0.995407,-0.011301,0.018131,-0.030788,62.508682,23.911591,-147.868759,,,
729605753.500795,-1.723851,1.228148,53.456348,-0.018143,-0.025177,0.995407,-0.003351,0.026469,-0.022167,62.508682,23.911591,-147.868759,,,
729605753.504106,-1.725119,1.235994,53.451534,-0.023499,-0.025177,0.995804,-0.003351,0.026469,-0.022167,62.508682,23.911591,-147.868759,,,
729605753.507452,-1.725119,1.235994,53.451534,-0.023499,-0.025177,0.995804,-0.003351,0.026469,-0.022167,62.508682,23.911591,-147.868759,,,
729605753.510774,-1.727629,1.243596,53.448274,-0.023499,-0.025177,0.995804,-0.006374,0.040785,-0.011523,62.508682,23.911591,-147.868759,,,
729605753.514109,-1.730509,1.254288,53.446255,-0.030396,-0.022873,1.000519,-0.006374,0.040785,-0.011523,62.508682,23.911591,-147.868759,,,
729605753.517553,-1.730509,1.254288,53.446255,-0.030396,-0.022873,1.000519,-0.006374,0.040785,-0.011523,62.508682,23.911591,-147.868759,,,
729605753.520796,-1.732537,1.261151,53.444897,-0.030396,-0.022873,1.000519,-0.012215,0.036359,-0.009274,62.508682,23.911591,-147.868759,,,
729605753.524121,-1.736466,1.269859,53.443676,-0.029922,-0.020279,0.995407,-0.012215,0.036359,-0.009274,62.508682,23.911591,-147.868759,,,
729605753.527453,-1.736466,1.269859,53.443676,-0.029922,-0.020279,0.995407,-0.012215,0.036359,-0.009274,62.508682,23.911591,-147.868759,,,
729605753.530878,-1.740063,1.274681,53.442469,-0.029922,-0.020279,0.995407,-0.023803,0.030279,-0.007656,62.508682,23.911591,-147.868759,,,
729605753.534108,-1.749161,1.28042,53.440714,-0.030991,-0.019623,0.995071,-0.023803,0.030279,-0.007656,62.692459,24.081268,-147.975113,,,
729605753.537461,-1.749161,1.28042,53.440714,-0.030991,-0.019623,0.995071,-0.023803,0.030279,-0.007656,62.692459,24.081268,-147.975113,,,
729605753.540786,-1.758834,1.280063,53.438149,-0.030991,-0.019623,0.995071,-0.041284,0.01024,-0.010954,62.692459,24.081268,-147.975113,,,
729605753.544111,-1.773216,1.277731,53.435261,-0.0298,-0.018097,0.990631,-0.041284,0.01024,-0.010954,62.692459,24.081268,-147.975113,,,
729605753.547462,-1.773216,1.277731,53.435261,-0.0298,-0.018097,0.990631,-0.041284,0.01024,-0.010954,62.692459,24.081268,-147.975113,,,
729605753.550786,-1.786979,1.26853,53.431183,-0.0298,-0.018097,0.990631,-0.057926,-0.025855,-0.017214,62.692459,24.081268,-147.975113,,,
729605753.554117,-1.804113,1.256948,53.426279,-0.030502,-0.018936,0.993317,-0.057926,-0.025855,-0.017214,62.692459,24.081268,-147.975113,,,
729605753.557527,-1.804113,1.256948,53.426279,-0.030502,-0.018936,0.993317,-0.057926,-0.025855,-0.017214,62.692459,24.081268,-147.975113,,,
729605753.56077,-1.81952,1.242879,53.420995,-0.030502,-0.018936,0.993317,-0.06267,-0.042543,-0.020088,62.692459,24.081268,-147.975113,,,
729605753.564112,-1.836352,1.229808,53.415588,-0.02919,-0.025375,1.009613,-0.06267,-0.042543,-0.020088,62.692459,24.081268,-147.975113,,,
729605753.567461,-1.836352,1.229808,53.415588,-0.02919,-0.025375,1.009613,-0.06267,-0.042543,-0.020088,62.692459,24.081268,-147.975113,,,
729605753.570811,-1.84965,1.215267,53.410877,-0.02919,-0.025375,1.009613,-0.048654,-0.044749,-0.018027,62.692459,24.081268,-147.975113,,,
729605753.574119,-1.861265,1.201808,53.408858,-0.029587,-0.034302,1.022202,-0.048654,-0.044749,-0.018027,62.597412,23.999466,-147.851532,,,
729605753.577447,-1.861265,1.201808,53.408858,-0.029587,-0.034302,1.022202,-0.048654,-0.044749,-0.018027,62.597412,23.999466,-147.851532,,,
729605753.580799,-1.865403,1.188809,53.409652,-0.029587,-0.034302,1.022202,-0.013322,-0.041416,0.001065,62.597412,23.999466,-147.851532,,,
729605753.584107,-1.863777,1.177748,53.412854,-0.029114,-0.044968,1.038864,-0.013322,-0.041416,0.001065,62.597412,23.999466,-147.851532,,,
729605753.587508,-1.863777,1.177748,53.412854,-0.029114,-0.044968,1.038864,-0.013322,-0.041416,0.001065,62.597412,23.999466,-147.851532,,,
729605753.590795,-1.85323,1.170266,53.418201,-0.029114,-0.044968,1.038864,0.037551,-0.025992,0.020826,62.597412,23.999466,-147.851532,,,
729605753.594159,-1.838135,1.163338,53.424134,-0.022003,-0.042908,1.051193,0.037551,-0.025992,0.020826,62.597412,23.999466,-147.851532,,,
729605753.597512,-1.838135,1.163338,53.424134,-0.022003,-0.042908,1.051193,0.037551,-0.025992,0.020826,62.597412,23.999466,-147.851532,,,
729605753.600804,-1.817341,1.161019,53.43038,-0.022003,-0.042908,1.051193,0.066653,-0.011451,0.018659,62.597412,23.999466,-147.851532,,,
729605753.604115,-1.798091,1.159228,53.435756,-0.01683,-0.032272,1.032089,0.066653,-0.011451,0.018659,62.597412,23.999466,-147.851532,,,
729605753.607461,-1.798091,1.159228,53.435756,-0.01683,-0.032272,1.032089,0.066653,-0.011451,0.018659,62.597412,23.999466,-147.851532,,,
729605753.610783,-1.778352,1.163483,53.439579,-0.01683,-0.032272,1.032089,0.060746,0.011391,0.013415,62.597412,23.999466,-147.851532,,,
729605753.614117,-1.764758,1.168287,53.44181,-0.011215,-0.027008,1.013382,0.060746,0.011391,0.013415,62.429474,23.90947,-147.751953,,,
729605753.617467,-1.764758,1.168287,53.44181,-0.011215,-0.027008,1.013382,0.060746,0.011391,0.013415,62.429474,23.90947,-147.751953,,,
729605753.620803,-1.753941,1.176548,53.442471,-0.011215,-0.027008,1.013382,0.025037,0.023986,-0.001835,62.429474,23.90947,-147.751953,,,
729605753.62412,-1.750301,1.181657,53.441127,-0.006424,-0.023895,0.992889,0.025037,0.023986,-0.001835,62.429474,23.90947,-147.751953,,,
729605753.627443,-1.750301,1.181657,53.441127,-0.006424,-0.023895,0.992889,0.025037,0.023986,-0.001835,62.429474,23.90947,-147.751953,,,
729605753.630795,-1.747985,1.186991,53.437639,-0.006424,-0.023895,0.992889,-0.001578,0.009608,-0.013287,62.429474,23.90947,-147.751953,,,
729605753.634113,-1.749868,1.187252,53.432414,-0.011566,-0.0215,0.988235,-0.001578,0.009608,-0.013287,62.429474,23.90947,-147.751953,,,
729605753.637441,-1.749868,1.187252,53.432414,-0.011566,-0.0215,0.988235,-0.001578,0.009608,-0.013287,62.429474,23.90947,-147.751953,,,
729605753.640785,-1.749821,1.1868,53.425409,-0.011566,-0.0215,0.988235,-0.008336,-0.007033,-0.027799,62.429474,23.90947,-147.751953,,,
729605753.644137,-1.751035,1.181457,53.416823,-0.016159,-0.023102,0.996307,-0.008336,-0.007033,-0.027799,62.429474,23.90947,-147.751953,,,
729605753.647449,-1.751035,1.181457,53.416823,-0.016159,-0.023102,0.996307,-0.008336,-0.007033,-0.027799,62.429474,23.90947,-147.751953,,,
729605753.650776,-1.75015,1.175726,53.407947,-0.016159,-0.023102,0.996307,0.00304,-0.025932,-0.032573,62.429474,23.90947,-147.751953,,,
729605753.65411,-1.747967,1.165898,53.399893,-0.020233,-0.026169,1.001114,0.00304,-0.025932,-0.032573,62.429474,23.90947,-147.751953,,,
729605753.657446,-1.747967,1.165898,53.399893,-0.020233,-0.026169,1.001114,0.00304,-0.025932,-0.032573,62.432465,23.761734,-147.752136,,,
729605753.660778,-1.745475,1.156186,53.393431,-0.020233,-0.026169,1.001114,0.017933,-0.040593,-0.024207,62.432465,23.761734,-147.752136,,,
729605753.664105,-1.740483,1.14329,53.388189,-0.021408,-0.032867,0.99675,0.017933,-0.040593,-0.024207,62.432465,23.761734,-147.752136,,,
729605753.667495,-1.740483,1.14329,53.388189,-0.021408,-0.032867,0.99675,0.017933,-0.040593,-0.024207,62.432465,23.761734,-147.752136,,,
729605753.670779,-1.73731,1.133017,53.384349,-0.021408,-0.032867,0.99675,0.024479,-0.037381,-0.013644,62.432465,23.761734,-147.752136,,,
729605753.674118,-1.72966,1.124599,53.381343,-0.016113,-0.033356,1.001663,0.024479,-0.037381,-0.013644,62.432465,23.761734,-147.752136,,,
729605753.677566,-1.72966,1.124599,53.381343,-0.016113,-0.033356,1.001663,0.024479,-0.037381,-0.013644,62.432465,23.761734,-147.752136,,,
729605753.680785,-1.722084,1.119106,53.378636,-0.016113,-0.033356,1.001663,0.036125,-0.016942,-0.007799,62.432465,23.761734,-147.752136,,,
729605753.684124,-1.711833,1.115449,53.376701,-0.010803,-0.02919,1.006897,0.036125,-0.016942,-0.007799,62.432465,23.761734,-147.752136,,,
729605753.687455,-1.711833,1.115449,53.376701,-0.010803,-0.02919,1.006897,0.036125,-0.016942,-0.007799,62.432465,23.761734,-147.752136,,,
729605753.690833,-1.699997,1.111944,53.374845,-0.010803,-0.02919,1.006897,0.042133,-0.006742,-0.007173,62.432465,23.761734,-147.752136,,,
729605753.694122,-1.68822,1.110896,53.372289,-0.011322,-0.029419,0.998459,0.042133,-0.006742,-0.007173,62.432465,23.761734,-147.752136,,,
729605753.697455,-1.68822,1.110896,53.372289,-0.011322,-0.029419,0.998459,0.042133,-0.006742,-0.007173,62.526276,23.954407,-148.188156,,,
729605753.700789,-1.676263,1.108475,53.36887,-0.011322,-0.029419,0.998459,0.039527,0.003943,-0.012162,62.526276,23.954407,-148.188156,,,
729605753.704113,-1.667107,1.109542,53.365426,-0.014099,-0.030762,0.995483,0.039527,0.003943,-0.012162,62.526276,23.954407,-148.188156,,,
729605753.707444,-1.667107,1.109542,53.365426,-0.014099,-0.030762,0.995483,0.039527,0.003943,-0.012162,62.526276,23.954407,-148.188156,,,
729605753.710785,-1.660013,1.10868,53.362827,-0.014099,-0.030762,0.995483,0.015425,0.012497,-0.010702,62.526276,23.954407,-148.188156,,,
729605753.714118,-1.659145,1.11135,53.361153,-0.020996,-0.032593,0.981369,0.015425,0.012497,-0.010702,62.526276,23.954407,-148.188156,,,
729605753.717482,-1.659145,1.11135,53.361153,-0.020996,-0.032593,0.981369,0.015425,0.012497,-0.010702,62.526276,23.954407,-148.188156,,,
729605753.720799,-1.661758,1.11194,53.359974,-0.020996,-0.032593,0.981369,-0.015273,0.008558,-0.005673,62.526276,23.954407,-148.188156,,,
729605753.724113,-1.669158,1.112312,53.358315,-0.022293,-0.035217,0.973511,-0.015273,0.008558,-0.005673,62.526276,23.954407,-148.188156,,,
729605753.727454,-1.669158,1.112312,53.358315,-0.022293,-0.035217,0.973511,-0.015273,0.008558,-0.005673,62.526276,23.954407,-148.188156,,,
729605753.730719,-1.677528,1.111253,53.355315,-0.022293,-0.035217,0.973511,-0.032951,0.001526,-0.014737,62.526276,23.954407,-148.188156,,,
729605753.734134,-1.68782,1.109948,53.35079,-0.015335,-0.029968,0.981705,-0.032951,0.001526,-0.014737,62.526276,23.954407,-148.188156,,,
729605753.737447,-1.68782,1.109948,53.35079,-0.015335,-0.029968,0.981705,-0.032951,0.001526,-0.014737,62.389145,23.794968,-147.749069,,,
729605753.740796,-1.69712,1.107904,53.344559,-0.015335,-0.029968,0.981705,-0.0303,-0.006702,-0.02677,62.389145,23.794968,-147.749069,,,
729605753.74411,-1.704376,1.104166,53.33745,-0.013916,-0.029449,0.993134,-0.0303,-0.006702,-0.02677,62.389145,23.794968,-147.749069,,,
729605753.747459,-1.704376,1.104166,53.33745,-0.013916,-0.029449,0.993134,-0.0303,-0.006702,-0.02677,62.389145,23.794968,-147.749069,,,
729605753.750796,-1.711062,1.101224,53.330407,-0.013916,-0.029449,0.993134,-0.018205,-0.007636,-0.024791,62.389145,23.794968,-147.749069,,,
729605753.754119,-1.715886,1.099684,53.324203,-0.020248,-0.0345,0.995941,-0.018205,-0.007636,-0.024791,62.389145,23.794968,-147.749069,,,
729605753.75753,-1.715886,1.099684,53.324203,-0.020248,-0.0345,0.995941,-0.018205,-0.007636,-0.024791,62.389145,23.794968,-147.749069,,,
729605753.760772,-1.719386,1.098489,53.319208,-0.020248,-0.0345,0.995941,-0.007306,0.006413,-0.019514,62.389145,23.794968,-147.749069,,,
729605753.764117,-1.720491,1.099145,53.315419,-0.019958,-0.040695,0.998795,-0.007306,0.006413,-0.019514,62.389145,23.794968,-147.749069,,,
729605753.767459,-1.720491,1.099145,53.315419,-0.019958,-0.040695,0.998795,-0.007306,0.006413,-0.019514,62.389145,23.794968,-147.749069,,,
729605753.770793,-1.719793,1.097185,53.312536,-0.019958,-0.040695,0.998795,0.004005,0.000497,-0.012941,62.389145,23.794968,-147.749069,,,
729605753.774242,-1.718352,1.096529,53.310655,-0.021271,-0.037811,0.993378,0.004005,0.000497,-0.012941,62.389145,23.794968,-147.749069,,,
729605753.777528,-1.718352,1.096529,53.310655,-0.021271,-0.037811,0.993378,0.004005,0.000497,-0.012941,62.389145,23.794968,-147.749069,,,
729605753.780776,-1.716661,1.09436,53.309984,-0.021271,-0.037811,0.993378,0.005576,0.003434,-0.001997,62.552109,23.865311,-147.7901,,,
729605753.784113,-1.714856,1.093625,53.309828,-0.025253,-0.038422,0.990585,0.005576,0.003434,-0.001997,62.552109,23.865311,-147.7901,,,
729605753.787459,-1.714856,1.093625,53.309828,-0.025253,-0.038422,0.990585,0.005576,0.003434,-0.001997,62.552109,23.865311,-147.7901,,,
729605753.790823,-1.713499,1.09091,53.309243,-0.025253,-0.038422,0.990585,0.007212,-0.005619,-0.002436,62.552109,23.865311,-147.7901,,,
729605753.794114,-1.71278,1.086949,53.308294,-0.019989,-0.033295,0.987732,0.007212,-0.005619,-0.002436,62.552109,23.865311,-147.7901,,,
729605753.79754,-1.71278,1.086949,53.308294,-0.019989,-0.033295,0.987732,0.007212,-0.005619,-0.002436,62.552109,23.865311,-147.7901,,,
729605753.800785,-1.714889,1.083581,53.30675,-0.019989,-0.033295,0.987732,-0.00705,-0.01052,-0.00807,62.552109,23.865311,-147.7901,,,
729605753.804113,-1.718767,1.079176,53.304078,-0.015762,-0.031174,0.982605,-0.00705,-0.01052,-0.00807,62.552109,23.865311,-147.7901,,,
729605753.807459,-1.718767,1.079176,53.304078,-0.015762,-0.031174,0.982605,-0.00705,-0.01052,-0.00807,62.552109,23.865311,-147.7901,,,
729605753.810818,-1.726747,1.07538,53.30075,-0.015762,-0.031174,0.982605,-0.026629,-0.011656,-0.014164,62.552109,23.865311,-147.7901,,,
729605753.814112,-1.737416,1.071262,53.297033,-0.013947,-0.031998,0.98027,-0.026629,-0.011656,-0.014164,62.552109,23.865311,-147.7901,,,
729605753.817459,-1.737416,1.071262,53.297033,-0.013947,-0.031998,0.98027,-0.026629,-0.011656,-0.014164,62.552109,23.865311,-147.7901,,,
729605753.820809,-1.750023,1.065794,53.292691,-0.013947,-0.031998,0.98027,-0.046043,-0.010114,-0.017181,62.429489,23.930267,-148.007141,,,
729605753.824198,-1.763375,1.061847,53.287599,-0.018784,-0.032684,0.986389,-0.046043,-0.010114,-0.017181,62.429489,23.930267,-148.007141,,,
729605753.827442,-1.763375,1.061847,53.287599,-0.018784,-0.032684,0.986389,-0.046043,-0.010114,-0.017181,62.429489,23.930267,-148.007141,,,
729605753.830804,-1.776744,1.057597,53.281709,-0.018784,-0.032684,0.986389,-0.046596,-0.009899,-0.023817,62.429489,23.930267,-148.007141,,,
729605753.834113,-1.789565,1.053317,53.274884,-0.018463,-0.034256,0.995499,-0.046596,-0.009899,-0.023817,62.429489,23.930267,-148.007141,,,
729605753.837513,-1.789565,1.053317,53.274884,-0.018463,-0.034256,0.995499,-0.046596,-0.009899,-0.023817,62.429489,23.930267,-148.007141,,,
729605753.8408,-1.802608,1.048117,53.267667,-0.018463,-0.034256,0.995499,-0.037051,-0.0169,-0.026959,62.429489,23.930267,-148.007141,,,
729605753.844109,-1.812043,1.041671,53.260603,-0.020111,-0.037018,0.996262,-0.037051,-0.0169,-0.026959,62.429489,23.930267,-148.007141,,,
729605753.84746,-1.812043,1.041671,53.260603,-0.020111,-0.037018,0.996262,-0.037051,-0.0169,-0.026959,62.429489,23.930267,-148.007141,,,
729605753.850862,-1.820753,1.035823,53.253717,-0.020111,-0.037018,0.996262,-0.023276,-0.016906,-0.02593,62.429489,23.930267,-148.007141,,,
729605753.854109,-1.824433,1.029167,53.247331,-0.017639,-0.036316,1.002853,-0.023276,-0.016906,-0.02593,62.429489,23.930267,-148.007141,,,
729605753.857464,-1.824433,1.029167,53.247331,-0.017639,-0.036316,1.002853,-0.023276,-0.016906,-0.02593,62.429489,23.930267,-148.007141,,,
729605753.860773,-1.826185,1.023033,53.241424,-0.017639,-0.036316,1.002853,-0.002506,-0.022045,-0.021222,62.355682,23.7164,-147.729279,,,
729605753.864116,-1.825048,1.016169,53.236607,-0.018951,-0.040253,1.002762,-0.002506,-0.022045,-0.021222,62.355682,23.7164,-147.729279,,,
729605753.867458,-1.825048,1.016169,53.236607,-0.018951,-0.040253,1.002762,-0.002506,-0.022045,-0.021222,62.355682,23.7164,-147.729279,,,
729605753.870772,-1.823667,1.013278,53.233412,-0.018951,-0.040253,1.002762,0.013303,-0.012264,-0.012592,62.355682,23.7164,-147.729279,,,
729605753.874127,-1.820379,1.011563,53.230579,-0.021042,-0.041595,1.003143,0.013303,-0.012264,-0.012592,62.355682,23.7164,-147.729279,,,
729605753.877458,-1.820379,1.011563,53.230579,-0.021042,-0.041595,1.003143,0.013303,-0.012264,-0.012592,62.355682,23.7164,-147.729279,,,
729605753.880784,-1.817693,1.012482,53.227758,-0.021042,-0.041595,1.003143,0.010635,0.008525,-0.01084,62.355682,23.7164,-147.729279,,,
729605753.884107,-1.815286,1.015889,53.225188,-0.011887,-0.037628,0.998199,0.010635,0.008525,-0.01084,62.355682,23.7164,-147.729279,,,
729605753.88753,-1.815286,1.015889,53.225188,-0.011887,-0.037628,0.998199,0.010635,0.008525,-0.01084,62.355682,23.7164,-147.729279,,,
729605753.890839,-1.813717,1.020649,53.221674,-0.011887,-0.037628,0.998199,0.005249,0.025454,-0.014485,62.355682,23.7164,-147.729279,,,
729605753.894115,-1.813239,1.027313,53.216828,-0.008255,-0.031021,0.990479,0.005249,0.025454,-0.014485,62.355682,23.7164,-147.729279,,,
729605753.897467,-1.813239,1.027313,53.216828,-0.008255,-0.031021,0.990479,0.005249,0.025454,-0.014485,62.355682,23.7164,-147.729279,,,
729605753.900788,-1.814997,1.0344,53.2116,-0.008255,-0.031021,0.990479,-0.005931,0.030543,-0.02101,62.560928,23.907959,-147.728607,,,
729605753.904109,-1.818912,1.041903,53.206021,-0.01178,-0.027237,0.982208,-0.005931,0.030543,-0.02101,62.560928,23.907959,-147.728607,,,
729605753.907458,-1.818912,1.041903,53.206021,-0.01178,-0.027237,0.982208,-0.005931,0.030543,-0.02101,62.560928,23.907959,-147.728607,,,
729605753.910781,-1.826193,1.048877,53.199806,-0.01178,-0.027237,0.982208,-0.030556,0.027672,-0.022295,62.560928,23.907959,-147.728607,,,
729605753.914118,-1.837021,1.054358,53.193038,-0.014481,-0.023514,0.974838,-0.030556,0.027672,-0.022295,62.560928,23.907959,-147.728607,,,
729605753.917528,-1.837021,1.054358,53.193038,-0.014481,-0.023514,0.974838,-0.030556,0.027672,-0.022295,62.560928,23.907959,-147.728607,,,
729605753.920781,-1.851658,1.058545,53.185783,-0.014481,-0.023514,0.974838,-0.047902,0.013117,-0.028725,62.560928,23.907959,-147.728607,,,
729605753.924115,-1.867791,1.059952,53.17772,-0.014893,-0.025833,0.970749,-0.047902,0.013117,-0.028725,62.560928,23.907959,-147.728607,,,
729605753.927469,-1.867791,1.059952,53.17772,-0.014893,-0.025833,0.970749,-0.047902,0.013117,-0.028725,62.560928,23.907959,-147.728607,,,
729605753.93079,-1.885464,1.058551,53.168557,-0.014893,-0.025833,0.970749,-0.05788,0.000315,-0.032884,62.560928,23.907959,-147.728607,,,
729605753.934113,-1.902123,1.054614,53.158638,-0.016205,-0.026398,0.976562,-0.05788,0.000315,-0.032884,62.560928,23.907959,-147.728607,,,
729605753.93747,-1.902123,1.054614,53.158638,-0.016205,-0.026398,0.976562,-0.05788,0.000315,-0.032884,62.560928,23.907959,-147.728607,,,
729605753.940819,-1.9191,1.048787,53.148271,-0.016205,-0.026398,0.976562,-0.055319,-0.015587,-0.039442,62.560928,23.907959,-147.728607,,,
729605753.9441,-1.934707,1.043822,53.137759,-0.012863,-0.024246,0.986145,-0.055319,-0.015587,-0.039442,62.553024,23.955902,-147.953033,,,
729605753.947462,-1.934707,1.043822,53.137759,-0.012863,-0.024246,0.986145,-0.055319,-0.015587,-0.039442,62.553024,23.955902,-147.953033,,,
729605753.950776,-1.950894,1.041565,53.127542,-0.012863,-0.024246,0.986145,-0.049472,-0.000616,-0.03885,62.553024,23.955902,-147.953033,,,
729605753.954101,-1.96525,1.041789,53.11808,-0.014374,-0.030609,0.997086,-0.049472,-0.000616,-0.03885,62.553024,23.955902,-147.953033,,,
729605753.957506,-1.96525,1.041789,53.11808,-0.014374,-0.030609,0.997086,-0.049472,-0.000616,-0.03885,62.553024,23.955902,-147.953033,,,
729605753.960768,-1.98032,1.044894,53.11018,-0.014374,-0.030609,0.997086,-0.043967,0.01218,-0.028698,62.553024,23.955902,-147.953033,,,
729605753.964109,-1.992464,1.050741,53.104437,-0.020477,-0.036789,1.001434,-0.043967,0.01218,-0.028698,62.553024,23.955902,-147.953033,,,
729605753.967444,-1.992464,1.050741,53.104437,-0.020477,-0.036789,1.001434,-0.043967,0.01218,-0.028698,62.553024,23.955902,-147.953033,,,
729605753.970845,-2.003298,1.057259,53.10125,-0.020477,-0.036789,1.001434,-0.036707,0.036947,-0.011698,62.553024,23.955902,-147.953033,,,
729605753.974099,-2.013024,1.067055,53.100545,-0.027115,-0.040649,1.004364,-0.036707,0.036947,-0.011698,62.553024,23.955902,-147.953033,,,
729605753.97744,-2.013024,1.067055,53.100545,-0.027115,-0.040649,1.004364,-0.036707,0.036947,-0.011698,62.553024,23.955902,-147.953033,,,
729605753.980775,-2.021328,1.074441,53.101632,-0.027115,-0.040649,1.004364,-0.030963,0.036172,0.003892,62.553024,23.955902,-147.953033,,,
729605753.984175,-2.030384,1.082019,53.103843,-0.029236,-0.039444,0.999771,-0.030963,0.036172,0.003892,62.334763,24.111435,-147.628281,,,
729605753.987452,-2.030384,1.082019,53.103843,-0.029236,-0.039444,0.999771,-0.030963,0.036172,0.003892,62.334763,24.111435,-147.628281,,,
729605753.990793,-2.036525,1.085291,53.105114,-0.029236,-0.039444,0.999771,-0.026472,0.016604,0.002506,62.334763,24.111435,-147.628281,,,
729605753.994109,-2.044437,1.086256,53.104666,-0.02713,-0.033524,1.000549,-0.026472,0.016604,0.002506,62.334763,24.111435,-147.628281,,,
729605753.997506,-2.044437,1.086256,53.104666,-0.02713,-0.033524,1.000549,-0.026472,0.016604,0.002506,62.334763,24.111435,-147.628281,,,
729605754.00078,-2.050348,1.082871,53.102689,-0.02713,-0.033524,1.000549,-0.027081,-0.007485,-0.010442,62.334763,24.111435,-147.628281,,,
729605754.004106,-2.059043,1.077656,53.099479,-0.020111,-0.03125,0.999207,-0.027081,-0.007485,-0.010442,62.334763,24.111435,-147.628281,,,
729605754.007451,-2.059043,1.077656,53.099479,-0.020111,-0.03125,0.999207,-0.027081,-0.007485,-0.010442,62.334763,24.111435,-147.628281,,,
729605754.010774,-2.067067,1.070459,53.095501,-0.020111,-0.03125,0.999207,-0.033109,-0.019279,-0.017844,62.334763,24.111435,-147.628281,,,
729605754.014104,-2.078294,1.062721,53.090869,-0.013489,-0.030975,0.997513,-0.033109,-0.019279,-0.017844,62.334763,24.111435,-147.628281,,,
729605754.017447,-2.078294,1.062721,53.090869,-0.013489,-0.030975,0.997513,-0.033109,-0.019279,-0.017844,62.334763,24.111435,-147.628281,,,
729605754.020795,-2.08749,1.052438,53.085167,-0.013489,-0.030975,0.997513,-0.037813,-0.031443,-0.02587,62.334763,24.111435,-147.628281,,,
729605754.024105,-2.097289,1.041231,53.077855,-0.011353,-0.031464,1.003098,-0.037813,-0.031443,-0.02587,62.327896,24.226501,-147.849945,,,
729605754.027442,-2.097289,1.041231,53.077855,-0.011353,-0.031464,1.003098,-0.037813,-0.031443,-0.02587,62.327896,24.226501,-147.849945,,,
729605754.030773,-2.103388,1.028996,53.069395,-0.011353,-0.031464,1.003098,-0.026691,-0.032485,-0.031111,62.327896,24.226501,-147.849945,,,
729605754.034147,-2.110591,1.019887,53.060721,-0.013382,-0.035843,1.015701,-0.026691,-0.032485,-0.031111,62.327896,24.226501,-147.849945,,,
729605754.037515,-2.110591,1.019887,53.060721,-0.013382,-0.035843,1.015701,-0.026691,-0.032485,-0.031111,62.327896,24.226501,-147.849945,,,
729605754.04077,-2.116281,1.01263,53.052269,-0.013382,-0.035843,1.015701,-0.020607,-0.016499,-0.031714,62.327896,24.226501,-147.849945,,,
729605754.04418,-2.122521,1.007911,53.04464,-0.016647,-0.035538,1.012054,-0.020607,-0.016499,-0.031714,62.327896,24.226501,-147.849945,,,
729605754.047447,-2.122521,1.007911,53.04464,-0.016647,-0.035538,1.012054,-0.020607,-0.016499,-0.031714,62.327896,24.226501,-147.849945,,,
729605754.050853,-2.128298,1.007872,53.037804,-0.016647,-0.035538,1.012054,-0.015969,0.002026,-0.023177,62.327896,24.226501,-147.849945,,,
729605754.054126,-2.13086,1.009922,53.032176,-0.018494,-0.037231,1.019363,-0.015969,0.002026,-0.023177,62.327896,24.226501,-147.849945,,,
729605754.057449,-2.13086,1.009922,53.032176,-0.018494,-0.037231,1.019363,-0.015969,0.002026,-0.023177,62.327896,24.226501,-147.849945,,,
729605754.060773,-2.130682,1.016655,53.02817,-0.018494,-0.037231,1.019363,0.007671,0.019187,-0.011762,62.327896,24.226501,-147.849945,,,
729605754.06413,-2.126178,1.020403,53.025794,-0.020706,-0.040436,1.029526,0.007671,0.019187,-0.011762,62.347641,24.12706,-147.786911,,,
729605754.067382,-2.126178,1.020403,53.025794,-0.020706,-0.040436,1.029526,0.007671,0.019187,-0.011762,62.347641,24.12706,-147.786911,,,
729605754.070801,-2.119009,1.025422,53.025172,-0.020706,-0.040436,1.029526,0.028709,0.010833,-0.002981,62.347641,24.12706,-147.786911,,,
729605754.074108,-2.11006,1.027172,53.024837,-0.026443,-0.041794,1.014664,0.028709,0.010833,-0.002981,62.347641,24.12706,-147.786911,,,
729605754.077532,-2.11006,1.027172,53.024837,-0.026443,-0.041794,1.014664,0.028709,0.010833,-0.002981,62.347641,24.12706,-147.786911,,,
729605754.080771,-2.098395,1.031099,53.02413,-0.026443,-0.041794,1.014664,0.038095,0.012186,-0.003307,62.347641,24.12706,-147.786911,,,
729605754.084185,-2.098395,1.033228,53.022067,-0.023239,-0.035904,1.013962,0.038095,0.012186,-0.003307,62.347641,24.12706,-147.786911,,,
729605754.087451,-2.087546,1.033228,53.022067,-0.023239,-0.035904,1.013962,0.038095,0.012186,-0.003307,62.347641,24.12706,-147.786911,,,
729605754.090785,-2.075732,1.033175,53.018818,-0.023239,-0.035904,1.013962,0.038646,0.002252,-0.011635,62.347641,24.12706,-147.786911,,,
729605754.094217,-2.075732,1.030146,53.015061,-0.023239,-0.035904,1.013962,0.038646,0.002252,-0.011635,62.347641,24.12706,-147.786911,,,
729605754.097495,-2.064774,1.030146,53.015061,-0.020233,-0.03096,1.003677,0.038646,0.002252,-0.011635,62.347641,24.12706,-147.786911,,,
729605754.10081,-2.053297,1.024179,53.010823,-0.020233,-0.03096,1.003677,0.032536,-0.014413,-0.01597,62.347641,24.12706,-147.786911,,,
729605754.104106,-2.044233,1.019282,53.006559,-0.020233,-0.03096,1.003677,0.032536,-0.014413,-0.01597,62.347641,24.12706,-147.786911,,,
729605754.107478,-2.044233,1.019282,53.006559,-0.027512,-0.031097,0.999252,0.032536,-0.014413,-0.01597,62.264313,24.277802,-147.670853,,,
729605754.110835,-2.036349,1.012444,53.001808,-0.027512,-0.031097,0.999252,0.021113,-0.013026,-0.015361,62.264313,24.277802,-147.670853,,,
729605754.114168,-2.036349,1.012444,52.996441,-0.027512,-0.031097,0.999252,0.021113,-0.013026,-0.015361,62.264313,24.277802,-147.670853,,,
729605754.117539,-2.031274,1.006057,52.996441,-0.026016,-0.031799,0.994461,0.021113,-0.013026,-0.015361,62.264313,24.277802,-147.670853,,,
729605754.120778,-2.028046,0.996988,52.990894,-0.026016,-0.031799,0.994461,0.011378,-0.027386,-0.019723,62.264313,24.277802,-147.670853,,,
729605754.124192,-2.028046,0.987017,52.985495,-0.026016,-0.031799,0.994461,0.011378,-0.027386,-0.019723,62.264313,24.277802,-147.670853,,,
729605754.127444,-2.026145,0.987017,52.985495,-0.019577,-0.029221,0.987473,0.011378,-0.027386,-0.019723,62.264313,24.277802,-147.670853,,,
729605754.130792,-2.024759,0.977535,52.980267,-0.019577,-0.029221,0.987473,0.004019,-0.026821,-0.020724,62.264313,24.277802,-147.670853,,,
729605754.134176,-2.024759,0.977535,52.980267,-0.019577,-0.029221,0.987473,0.004019,-0.026821,-0.020724,62.264313,24.277802,-147.670853,,,
729605754.137456,-2.02327,0.970061,52.975796,-0.017883,-0.03157,0.993729,0.004019,-0.026821,-0.020724,62.264313,24.277802,-147.670853,,,
729605754.140782,-2.021156,0.966009,52.972629,-0.017883,-0.03157,0.993729,0.011014,-0.009797,-0.012451,62.264313,24.277802,-147.670853,,,
729605754.144133,-2.021156,0.966009,52.972629,-0.017883,-0.03157,0.993729,0.011014,-0.009797,-0.012451,62.264313,24.277802,-147.670853,,,
729605754.147447,-2.01818,0.963958,52.97038,-0.019241,-0.032013,0.995636,0.011014,-0.009797,-0.012451,62.258896,24.160706,-147.958206,,,
729605754.150777,-2.016653,0.965776,52.968337,-0.019241,-0.032013,0.995636,0.009194,0.007458,-0.00982,62.258896,24.160706,-147.958206,,,
729605754.154138,-2.016653,0.965776,52.968337,-0.019241,-0.032013,0.995636,0.009194,0.007458,-0.00982,62.258896,24.160706,-147.958206,,,
729605754.157514,-2.013339,0.970172,52.965938,-0.013458,-0.031723,0.99115,0.009194,0.007458,-0.00982,62.258896,24.160706,-147.958206,,,
729605754.160769,-2.010244,0.979763,52.963144,-0.013458,-0.031723,0.99115,0.015582,0.029061,-0.01271,62.258896,24.160706,-147.958206,,,
729605754.164126,-2.010244,0.979763,52.963144,-0.013458,-0.031723,0.99115,0.015582,0.029061,-0.01271,62.258896,24.160706,-147.958206,,,
729605754.167459,-2.005603,0.98862,52.959938,-0.013138,-0.032776,0.997589,0.015582,0.029061,-0.01271,62.258896,24.160706,-147.958206,,,
729605754.170825,-2.000581,0.998947,52.957927,-0.013138,-0.032776,0.997589,0.014537,0.03723,-0.006514,62.258896,24.160706,-147.958206,,,
729605754.174142,-2.000581,0.998947,52.957927,-0.013138,-0.032776,0.997589,0.014537,0.03723,-0.006514,62.258896,24.160706,-147.958206,,,
729605754.177484,-1.996976,1.009231,52.957585,-0.02916,-0.039352,0.989044,0.014537,0.03723,-0.006514,62.258896,24.160706,-147.958206,,,
729605754.180769,-1.994735,1.021276,52.95796,-0.02916,-0.039352,0.989044,0.000258,0.041951,-0.000982,62.258896,24.160706,-147.958206,,,
729605754.184299,-1.994735,1.021276,52.958424,-0.02916,-0.039352,0.989044,0.000258,0.041951,-0.000982,62.258896,24.160706,-147.958206,,,
729605754.187425,-1.995111,1.029793,52.958424,-0.034927,-0.043961,0.981415,0.000258,0.041951,-0.000982,61.983597,24.18454,-148.008835,,,
729605754.190783,-1.995178,1.036171,52.959075,-0.034927,-0.043961,0.981415,-0.003506,0.010459,0.002893,61.983597,24.18454,-148.008835,,,
729605754.194134,-1.995178,1.036171,52.959075,-0.034927,-0.043961,0.981415,-0.003506,0.010459,0.002893,61.983597,24.18454,-148.008835,,,
729605754.197508,-1.995816,1.035444,52.959645,-0.03421,-0.044327,0.98114,-0.003506,0.010459,0.002893,61.983597,24.18454,-148.008835,,,
729605754.200782,-1.996348,1.032584,52.959843,-0.03421,-0.044327,0.98114,-0.005358,-0.01332,-0.000283,61.983597,24.18454,-148.008835,,,
729605754.204155,-1.996348,1.032584,52.959843,-0.03421,-0.044327,0.98114,-0.005358,-0.01332,-0.000283,61.983597,24.18454,-148.008835,,,
729605754.207452,-1.998223,1.026023,52.959868,-0.03154,-0.043869,0.988358,-0.005358,-0.01332,-0.000283,61.983597,24.18454,-148.008835,,,
729605754.210779,-1.999507,1.01799,52.959885,-0.03154,-0.043869,0.988358,-0.007025,-0.02704,-0.003158,61.983597,24.18454,-148.008835,,,
729605754.21412,-1.999507,1.01799,52.959885,-0.03154,-0.043869,0.988358,-0.007025,-0.02704,-0.003158,61.983597,24.18454,-148.008835,,,
729605754.217454,-2.002364,1.008988,52.959565,-0.026245,-0.043442,0.99147,-0.007025,-0.02704,-0.003158,61.983597,24.18454,-148.008835,,,
729605754.220793,-2.005677,1.000255,52.959182,-0.026245,-0.043442,0.99147,-0.012626,-0.028596,-0.003808,61.983597,24.18454,-148.008835,,,
729605754.224207,-2.005677,1.000255,52.959182,-0.026245,-0.043442,0.99147,-0.012626,-0.028596,-0.003808,61.983597,24.18454,-148.008835,,,
729605754.227441,-2.010541,0.992676,52.958787,-0.020844,-0.044388,0.988434,-0.012626,-0.028596,-0.003808,61.895142,24.300125,-147.972031,,,
729605754.230777,-2.015747,0.988202,52.958598,-0.020844,-0.044388,0.988434,-0.020644,-0.00837,-0.001557,61.895142,24.300125,-147.972031,,,
729605754.234128,-2.015747,0.988202,52.958598,-0.020844,-0.044388,0.988434,-0.020644,-0.00837,-0.001557,61.895142,24.300125,-147.972031,,,
729605754.237488,-2.021789,0.987722,52.959317,-0.014404,-0.045868,0.995712,-0.020644,-0.00837,-0.001557,61.895142,24.300125,-147.972031,,,
729605754.240769,-2.026225,0.988966,52.960573,-0.014404,-0.045868,0.995712,-0.014733,0.01343,0.002947,61.895142,24.300125,-147.972031,,,
729605754.244105,-2.026225,0.988966,52.960573,-0.014404,-0.045868,0.995712,-0.014733,0.01343,0.002947,61.895142,24.300125,-147.972031,,,
729605754.247453,-2.028045,0.992598,52.961889,-0.011505,-0.051193,1.005493,-0.014733,0.01343,0.002947,61.895142,24.300125,-147.972031,,,
729605754.250771,-2.025075,0.99617,52.963254,-0.011505,-0.051193,1.005493,0.01528,0.015586,0.00557,61.895142,24.300125,-147.972031,,,
729605754.254119,-2.025075,0.99617,52.963254,-0.011505,-0.051193,1.005493,0.01528,0.015586,0.00557,61.895142,24.300125,-147.972031,,,
729605754.257455,-2.017372,0.998692,52.96453,-0.008698,-0.049469,1.009491,0.01528,0.015586,0.00557,61.895142,24.300125,-147.972031,,,
729605754.260774,-2.007126,1.00457,52.965266,-0.008698,-0.049469,1.009491,0.045055,0.009211,0.00225,61.895142,24.300125,-147.972031,,,
729605754.264189,-2.007126,1.00457,52.965266,-0.008698,-0.049469,1.009491,0.045055,0.009211,0.00225,61.895142,24.300125,-147.972031,,,
729605754.267438,-1.993183,1.006995,52.965555,-0.00798,-0.048874,1.0065,0.045055,0.009211,0.00225,61.895142,24.300125,-147.972031,,,
729605754.270924,-1.981428,1.013647,52.965624,-0.00798,-0.048874,1.0065,0.050908,0.012682,-0.004594,62.179291,24.212753,-147.776581,,,
729605754.274207,-1.981428,1.013647,52.965624,-0.00798,-0.048874,1.0065,0.050908,0.012682,-0.004594,62.179291,24.212753,-147.776581,,,
729605754.277421,-1.969283,1.016282,52.964287,-0.003006,-0.043289,0.99321,0.050908,0.012682,-0.004594,62.179291,24.212753,-147.776581,,,
729605754.280668,-1.962185,1.022859,52.961959,-0.003006,-0.043289,0.99321,0.031042,0.013046,-0.010972,62.179291,24.212753,-147.776581,,,
729605754.284127,-1.962185,1.022859,52.961959,-0.003006,-0.043289,0.99321,0.031042,0.013046,-0.010972,62.179291,24.212753,-147.776581,,,
729605754.287415,-1.956475,1.025005,52.958204,0.00267,-0.03392,0.978531,0.031042,0.013046,-0.010972,62.179291,24.212753,-147.776581,,,
729605754.290754,-1.95746,1.029244,52.953063,0.00267,-0.03392,0.978531,-0.000364,0.008826,-0.020279,62.179291,24.212753,-147.776581,,,
729605754.29412,-1.95746,1.029244,52.953063,0.00267,-0.03392,0.978531,-0.000364,0.008826,-0.020279,62.179291,24.212753,-147.776581,,,
729605754.297449,-1.960966,1.030146,52.946534,0.005219,-0.028244,0.970825,-0.000364,0.008826,-0.020279,62.179291,24.212753,-147.776581,,,
729605754.300773,-1.971466,1.031304,52.938016,0.005219,-0.028244,0.970825,-0.030057,0.001749,-0.031205,62.179291,24.212753,-147.776581,,,
729605754.304153,-1.971466,1.031304,52.938016,0.005219,-0.028244,0.970825,-0.030057,0.001749,-0.031205,62.179291,24.212753,-147.776581,,,
729605754.307438,-1.985726,1.029572,52.927626,0.006393,-0.024338,0.964386,-0.030057,0.001749,-0.031205,62.179291,24.212753,-147.776581,,,
729605754.310775,-2.006513,1.027128,52.91604,0.006393,-0.024338,0.964386,-0.066603,-0.004051,-0.044842,61.959839,24.142395,-148.027191,,,
729605754.314101,-2.006513,1.027128,52.91604,0.006393,-0.024338,0.964386,-0.066603,-0.004051,-0.044842,61.959839,24.142395,-148.027191,,,
729605754.317484,-2.028432,1.02385,52.902374,0.006561,-0.021439,0.965622,-0.066603,-0.004051,-0.044842,61.959839,24.142395,-148.027191,,,
729605754.320769,-2.054599,1.019018,52.886836,0.006561,-0.021439,0.965622,-0.081924,-0.010631,-0.056668,61.959839,24.142395,-148.027191,,,
729605754.324109,-2.054599,1.019018,52.886836,0.006561,-0.021439,0.965622,-0.081924,-0.010631,-0.056668,61.959839,24.142395,-148.027191,,,
729605754.327443,-2.07729,1.013902,52.870812,0.005417,-0.02417,0.979385,-0.081924,-0.010631,-0.056668,61.959839,24.142395,-148.027191,,,
729605754.330772,-2.099706,1.007674,52.855072,0.005417,-0.02417,0.979385,-0.067133,-0.012341,-0.056964,61.959839,24.142395,-148.027191,,,
729605754.334107,-2.099706,1.007674,52.855072,0.005417,-0.02417,0.979385,-0.067133,-0.012341,-0.056964,61.959839,24.142395,-148.027191,,,
729605754.337439,-2.116283,1.0054,52.840314,-0.004181,-0.034531,0.998795,-0.067133,-0.012341,-0.056964,61.959839,24.142395,-148.027191,,,
729605754.340772,-2.130412,1.004303,52.827249,-0.004181,-0.034531,0.998795,-0.039193,0.010002,-0.044452,61.959839,24.142395,-148.027191,,,
729605754.344146,-2.130412,1.004303,52.827249,-0.004181,-0.034531,0.998795,-0.039193,0.010002,-0.044452,61.959839,24.142395,-148.027191,,,
729605754.347468,-2.137447,1.007153,52.815951,-0.010818,-0.044647,1.017029,-0.039193,0.010002,-0.044452,61.959839,24.142395,-148.027191,,,
729605754.350768,-2.142266,1.009397,52.806,-0.010818,-0.044647,1.017029,-0.004923,0.023059,-0.0339,62.236252,24.337219,-148.198196,,,
729605754.354118,-2.142266,1.009397,52.806,-0.010818,-0.044647,1.017029,-0.004923,0.023059,-0.0339,62.236252,24.337219,-148.198196,,,
729605754.357504,-2.142121,1.017211,52.797812,-0.016403,-0.042984,1.019562,-0.004923,0.023059,-0.0339,62.236252,24.337219,-148.198196,,,
729605754.360766,-2.141555,1.024675,52.79041,-0.016403,-0.042984,1.019562,0.007284,0.044257,-0.024073,62.236252,24.337219,-148.198196,,,
729605754.364122,-2.141555,1.024675,52.79041,-0.016403,-0.042984,1.019562,0.007284,0.044257,-0.024073,62.236252,24.337219,-148.198196,,,
729605754.367459,-2.140463,1.038262,52.783738,-0.021072,-0.038406,1.014389,0.007284,0.044257,-0.024073,62.236252,24.337219,-148.198196,,,
729605754.370822,-2.138964,1.046586,52.776992,-0.021072,-0.038406,1.014389,0.001734,0.051984,-0.02533,62.236252,24.337219,-148.198196,,,
729605754.374107,-2.138964,1.046586,52.776992,-0.021072,-0.038406,1.014389,0.001734,0.051984,-0.02533,62.236252,24.337219,-148.198196,,,
729605754.377445,-2.140101,1.058668,52.769779,-0.021286,-0.032013,1.001022,0.001734,0.051984,-0.02533,62.236252,24.337219,-148.198196,,,
729605754.380772,-2.141429,1.063947,52.761404,-0.021286,-0.032013,1.001022,-0.011281,0.040938,-0.031055,62.236252,24.337219,-148.198196,,,
729605754.384211,-2.141429,1.063947,52.761404,-0.021286,-0.032013,1.001022,-0.011281,0.040938,-0.031055,62.236252,24.337219,-148.198196,,,
729605754.38746,-2.147218,1.072976,52.751507,-0.022842,-0.029953,0.995224,-0.011281,0.040938,-0.031055,62.236252,24.337219,-148.198196,,,
729605754.390522,-2.151646,1.072354,52.741023,-0.022842,-0.029953,0.995224,-0.025004,0.020245,-0.038604,62.236252,24.337219,-148.198196,,,
729605754.394154,-2.151646,1.072354,52.741023,-0.022842,-0.029953,0.995224,-0.025004,0.020245,-0.038604,62.218094,24.286331,-147.855835,,,
729605754.397512,-2.160121,1.073521,52.733145,-0.029282,-0.037262,0.995026,-0.025004,0.020245,-0.038604,62.218094,24.286331,-147.855835,,,
729605754.400761,-2.166084,1.065806,52.72821,-0.029282,-0.037262,0.995026,-0.031839,-0.008523,-0.013276,62.218094,24.286331,-147.855835,,,
729605754.404128,-2.166084,1.065806,52.72821,-0.029282,-0.037262,0.995026,-0.031839,-0.008523,-0.013276,62.218094,24.286331,-147.855835,,,
