Time (sec),Pitch (deg),Roll (deg),Yaw(deg),X-Acceleration (g),Y-Acceleration (g),Z-Acceleration (g),Pitch Rate (deg/sec),Roll Rate (deg/sec),Yaw Rate (deg/sec),Magnetic Field in X direction (uT),Magnetic Field in Y direction (uT),Magnetic Field in Z Direction (uT),Latitude (deg),Longitude (deg),Altitude (m)
729606332.165004,2.081947,-0.548489,49.115855,0.010681,0.040192,1.00354,-0.029873,0.022859,0.000763,62.295746,19.474823,-150.472534,,,
729606332.168281,2.076631,-0.543072,49.117173,0.010681,0.040192,1.00354,-0.022441,0.023395,0.006632,62.295746,19.474823,-150.472534,,,
729606332.17161,2.076631,-0.543072,49.117173,0.010681,0.040192,1.00354,-0.022441,0.023395,0.006632,62.295746,19.474823,-150.472534,,,
729606332.17499,2.071665,-0.539419,49.118402,0.014755,0.040543,1.005356,-0.022441,0.023395,0.006632,62.295746,19.474823,-150.472534,,,
729606332.178439,2.068796,-0.534729,49.118946,0.014755,0.040543,1.005356,-0.01502,0.009497,-0.000345,62.295746,19.474823,-150.472534,,,
729606332.181584,2.068796,-0.534729,49.118946,0.014755,0.040543,1.005356,-0.01502,0.009497,-0.000345,62.295746,19.474823,-150.472534,,,
729606332.184971,2.065098,-0.53194,49.11882,0.013351,0.037857,1.004654,-0.01502,0.009497,-0.000345,62.295746,19.474823,-150.472534,,,
729606332.188266,2.062123,-0.525214,49.117901,0.013351,0.037857,1.004654,-0.010601,0.0165,-0.002535,62.295746,19.474823,-150.472534,,,
729606332.191688,2.062123,-0.525214,49.117901,0.013351,0.037857,1.004654,-0.010601,0.0165,-0.002535,62.295746,19.474823,-150.472534,,,
729606332.194926,2.058051,-0.519116,49.116896,0.009644,0.036285,1.008514,-0.010601,0.0165,-0.002535,62.295746,19.474823,-150.472534,,,
729606332.198323,2.054754,-0.508867,49.115723,0.009644,0.036285,1.008514,-0.010631,0.024731,-0.005242,62.305954,19.378403,-150.403305,,,
729606332.201614,2.054754,-0.508867,49.115723,0.009644,0.036285,1.008514,-0.010631,0.024731,-0.005242,62.305954,19.378403,-150.403305,,,
729606332.204967,2.05251,-0.502393,49.114721,0.011368,0.033798,1.008911,-0.010631,0.024731,-0.005242,62.305954,19.378403,-150.403305,,,
729606332.208307,2.052441,-0.493732,49.114826,0.011368,0.033798,1.008911,-0.00182,0.020592,-0.002373,62.305954,19.378403,-150.403305,,,
729606332.211638,2.052441,-0.493732,49.114826,0.011368,0.033798,1.008911,-0.00182,0.020592,-0.002373,62.305954,19.378403,-150.403305,,,
729606332.214973,2.053782,-0.48954,49.116341,0.003906,0.029007,1.009003,-0.00182,0.020592,-0.002373,62.305954,19.378403,-150.403305,,,
729606332.218268,2.059509,-0.485676,49.118668,0.003906,0.029007,1.009003,0.015097,0.015996,0.00888,62.305954,19.378403,-150.403305,,,
729606332.221618,2.059509,-0.485676,49.118668,0.003906,0.029007,1.009003,0.015097,0.015996,0.00888,62.305954,19.378403,-150.403305,,,
729606332.224993,2.066408,-0.482762,49.121465,0.00087,0.028549,1.019653,0.015097,0.015996,0.00888,62.305954,19.378403,-150.403305,,,
729606332.228265,2.076724,-0.482221,49.124258,0.00087,0.028549,1.019653,0.030141,0.011907,0.007519,62.305954,19.378403,-150.403305,,,
729606332.23161,2.076724,-0.482221,49.124258,0.00087,0.028549,1.019653,0.030141,0.011907,0.007519,62.305954,19.378403,-150.403305,,,
729606332.234954,2.086665,-0.482,49.126453,0.007339,0.033096,1.021942,0.030141,0.011907,0.007519,62.305954,19.378403,-150.403305,,,
729606332.238271,2.098779,-0.483067,49.127982,0.007339,0.033096,1.021942,0.039279,0.000108,0.004238,62.262482,19.368835,-150.233627,,,
729606332.241686,2.098779,-0.483067,49.127982,0.007339,0.033096,1.021942,0.039279,0.000108,0.004238,62.262482,19.368835,-150.233627,,,
729606332.244959,2.109431,-0.484071,49.12856,0.010788,0.037567,1.019012,0.039279,0.000108,0.004238,62.262482,19.368835,-150.233627,,,
729606332.248269,2.119708,-0.485936,49.128262,0.010788,0.037567,1.019012,0.034556,0.000825,-0.00095,62.262482,19.368835,-150.233627,,,
729606332.251617,2.119708,-0.485936,49.128262,0.010788,0.037567,1.019012,0.034556,0.000825,-0.00095,62.262482,19.368835,-150.233627,,,
729606332.255026,2.12823,-0.48558,49.127639,0.010071,0.035233,1.016968,0.034556,0.000825,-0.00095,62.262482,19.368835,-150.233627,,,
729606332.258279,2.136486,-0.486811,49.126639,0.010071,0.035233,1.016968,0.027137,0.003284,-0.006512,62.262482,19.368835,-150.233627,,,
729606332.26162,2.136486,-0.486811,49.126639,0.010071,0.035233,1.016968,0.027137,0.003284,-0.006512,62.262482,19.368835,-150.233627,,,
729606332.264989,2.143892,-0.485719,49.12531,0.008667,0.032669,1.014954,0.027137,0.003284,-0.006512,62.262482,19.368835,-150.233627,,,
729606332.268269,2.151277,-0.48488,49.124449,0.008667,0.032669,1.014954,0.027568,0.010262,-0.004964,62.262482,19.368835,-150.233627,,,
729606332.271602,2.151277,-0.48488,49.124449,0.008667,0.032669,1.014954,0.027568,0.010262,-0.004964,62.262482,19.368835,-150.233627,,,
729606332.274991,2.158878,-0.481725,49.124238,0.007248,0.029419,1.015381,0.027568,0.010262,-0.004964,62.262482,19.368835,-150.233627,,,
729606332.278285,2.166351,-0.478945,49.125697,0.007248,0.029419,1.015381,0.027712,0.014818,0.003906,62.220215,19.482529,-150.399063,,,
729606332.281695,2.166351,-0.478945,49.125697,0.007248,0.029419,1.015381,0.027712,0.014818,0.003906,62.220215,19.482529,-150.399063,,,
729606332.284973,2.175514,-0.475915,49.129401,0.004181,0.02533,1.014053,0.027712,0.014818,0.003906,62.220215,19.482529,-150.399063,,,
729606332.288187,2.175514,-0.475915,49.129401,0.004181,0.02533,1.014053,0.03689,0.010388,0.016361,62.220215,19.482529,-150.399063,,,
729606332.291685,2.184721,-0.473934,49.134406,0.004181,0.02533,1.014053,0.03689,0.010388,0.016361,62.220215,19.482529,-150.399063,,,
729606332.294941,2.197716,-0.472123,49.140588,0.00267,0.025116,1.01564,0.03689,0.010388,0.016361,62.220215,19.482529,-150.399063,,,
729606332.298334,2.210319,-0.468334,49.147853,0.00267,0.025116,1.01564,0.052227,0.010159,0.022381,62.220215,19.482529,-150.399063,,,
729606332.301615,2.210319,-0.468334,49.147853,0.00267,0.025116,1.01564,0.052227,0.010159,0.022381,62.220215,19.482529,-150.399063,,,
729606332.304944,2.225826,-0.46488,49.154923,0.006058,0.02887,1.015366,0.052227,0.010159,0.022381,62.220215,19.482529,-150.399063,,,
729606332.308312,2.23948,-0.45846,49.161333,0.006058,0.02887,1.015366,0.053911,0.021715,0.01963,62.220215,19.482529,-150.399063,,,
729606332.311696,2.23948,-0.45846,49.161333,0.006058,0.02887,1.015366,0.053911,0.021715,0.01963,62.220215,19.482529,-150.399063,,,
729606332.314941,2.255111,-0.452865,49.167534,0.010025,0.035614,1.009537,0.053911,0.021715,0.01963,62.220215,19.482529,-150.399063,,,
729606332.31827,2.270197,-0.447652,49.173559,0.010025,0.035614,1.009537,0.057144,0.025795,0.019366,62.220215,19.482529,-150.399063,,,
729606332.321705,2.270197,-0.447652,49.173559,0.010025,0.035614,1.009537,0.057144,0.025795,0.019366,62.384293,19.374771,-150.566605,,,
729606332.324987,2.286307,-0.443034,49.180174,0.006042,0.036346,1.003601,0.057144,0.025795,0.019366,62.384293,19.374771,-150.566605,,,
729606332.32829,2.286307,-0.443034,49.188134,0.006042,0.036346,1.003601,0.058145,0.013021,0.027056,62.384293,19.374771,-150.566605,,,
729606332.331656,2.301725,-0.441024,49.188134,0.006042,0.036346,1.003601,0.058145,0.013021,0.027056,62.384293,19.374771,-150.566605,,,
729606332.335005,2.316888,-0.441263,49.196551,0.003006,0.034454,0.99556,0.058145,0.013021,0.027056,62.384293,19.374771,-150.566605,,,
729606332.338287,2.316888,-0.441263,49.196551,0.003006,0.034454,0.99556,0.058145,0.013021,0.027056,62.384293,19.374771,-150.566605,,,
729606332.341673,2.329385,-0.44438,49.204841,0.003006,0.034454,0.99556,0.049449,-0.007563,0.02706,62.384293,19.374771,-150.566605,,,
729606332.344946,2.341227,-0.449402,49.212403,0.007889,0.04184,0.984192,0.049449,-0.007563,0.02706,62.384293,19.374771,-150.566605,,,
729606332.348291,2.349152,-0.457191,49.218375,0.007889,0.04184,0.984192,0.035781,-0.021837,0.019078,62.384293,19.374771,-150.566605,,,
729606332.351625,2.349152,-0.457191,49.218375,0.007889,0.04184,0.984192,0.035781,-0.021837,0.019078,62.384293,19.374771,-150.566605,,,
729606332.35474,2.356479,-0.467311,49.222755,0.014771,0.047928,0.975052,0.035781,-0.021837,0.019078,62.384293,19.374771,-150.566605,,,
729606332.358344,2.358537,-0.477148,49.225482,0.014771,0.047928,0.975052,0.020336,-0.035848,0.008126,62.384293,19.374771,-150.566605,,,
729606332.361654,2.358537,-0.477148,49.225482,0.014771,0.047928,0.975052,0.020336,-0.035848,0.008126,62.211853,19.120758,-150.238815,,,
729606332.364978,2.362207,-0.486536,49.226842,0.018234,0.050186,0.973816,0.020336,-0.035848,0.008126,62.211853,19.120758,-150.238815,,,
729606332.368264,2.362207,-0.486536,49.226842,0.018234,0.050186,0.973816,0.007895,-0.020258,0.000148,62.211853,19.120758,-150.238815,,,
729606332.371693,2.360352,-0.491994,49.227076,0.018234,0.050186,0.973816,0.007895,-0.020258,0.000148,62.211853,19.120758,-150.238815,,,
729606332.374982,2.361502,-0.496836,49.226476,0.02092,0.049683,0.982986,0.007895,-0.020258,0.000148,62.211853,19.120758,-150.238815,,,
729606332.378262,2.361502,-0.496836,49.226476,0.02092,0.049683,0.982986,0.007992,-0.008578,-0.004727,62.211853,19.120758,-150.238815,,,
729606332.381626,2.359185,-0.498606,49.225671,0.02092,0.049683,0.982986,0.007992,-0.008578,-0.004727,62.211853,19.120758,-150.238815,,,
729606332.38503,2.361899,-0.501179,49.2254,0.015396,0.044983,0.983582,0.007992,-0.008578,-0.004727,62.211853,19.120758,-150.238815,,,
729606332.388263,2.361899,-0.501179,49.2254,0.015396,0.044983,0.983582,0.013757,0.00081,0.001734,62.211853,19.120758,-150.238815,,,
729606332.391661,2.364074,-0.501529,49.226001,0.015396,0.044983,0.983582,0.013757,0.00081,0.001734,62.211853,19.120758,-150.238815,,,
729606332.394943,2.368704,-0.50005,49.228183,0.005386,0.038803,0.986877,0.013757,0.00081,0.001734,62.211853,19.120758,-150.238815,,,
729606332.39835,2.368704,-0.50005,49.231695,0.005386,0.038803,0.986877,0.021489,0.008979,0.012183,62.211853,19.120758,-150.238815,,,
729606332.401614,2.372184,-0.498007,49.231695,0.005386,0.038803,0.986877,0.021489,0.008979,0.012183,62.225418,19.072433,-150.395309,,,
729606332.404945,2.376748,-0.49614,49.23639,0.002121,0.036804,0.984024,0.021489,0.008979,0.012183,62.225418,19.072433,-150.395309,,,
729606332.408355,2.376748,-0.49614,49.23639,0.002121,0.036804,0.984024,0.015042,0.007138,0.014954,62.225418,19.072433,-150.395309,,,
729606332.411604,2.379751,-0.494017,49.242086,0.002121,0.036804,0.984024,0.015042,0.007138,0.014954,62.225418,19.072433,-150.395309,,,
729606332.41494,2.383636,-0.493935,49.248072,0.000214,0.042068,0.978439,0.015042,0.007138,0.014954,62.225418,19.072433,-150.395309,,,
729606332.418272,2.383636,-0.493935,49.248072,0.000214,0.042068,0.978439,0.008765,0.002529,0.017005,62.225418,19.072433,-150.395309,,,
729606332.421672,2.384703,-0.492799,49.253649,0.000214,0.042068,0.978439,0.008765,0.002529,0.017005,62.225418,19.072433,-150.395309,,,
729606332.42502,2.38503,-0.494378,49.258542,-0.000336,0.046585,0.97522,0.008765,0.002529,0.017005,62.225418,19.072433,-150.395309,,,
729606332.428261,2.38503,-0.494378,49.258542,-0.000336,0.046585,0.97522,0.008765,0.002529,0.017005,62.225418,19.072433,-150.395309,,,
729606332.43166,2.383964,-0.498833,49.262253,-0.000336,0.046585,0.97522,-0.005007,-0.011814,0.010859,62.225418,19.072433,-150.395309,,,
729606332.434943,2.379613,-0.505271,49.264776,0.005127,0.047302,0.969376,-0.005007,-0.011814,0.010859,62.225418,19.072433,-150.395309,,,
729606332.438351,2.379613,-0.505271,49.264776,0.005127,0.047302,0.969376,-0.005007,-0.011814,0.010859,62.225418,19.072433,-150.395309,,,
729606332.441627,2.375052,-0.515599,49.266612,0.005127,0.047302,0.969376,-0.025275,-0.025473,0.003892,62.245087,19.155838,-150.284531,,,
729606332.444936,2.366344,-0.523228,49.26728,0.010239,0.048157,0.974442,-0.025275,-0.025473,0.003892,62.245087,19.155838,-150.284531,,,
729606332.448293,2.366344,-0.523228,49.26728,0.010239,0.048157,0.974442,-0.025275,-0.025473,0.003892,62.245087,19.155838,-150.284531,,,
729606332.451663,2.358047,-0.532992,49.266876,0.010239,0.048157,0.974442,-0.033147,-0.019996,-0.005597,62.245087,19.155838,-150.284531,,,
729606332.454927,2.347253,-0.539039,49.265474,0.011185,0.05043,0.981689,-0.033147,-0.019996,-0.005597,62.245087,19.155838,-150.284531,,,
729606332.45829,2.347253,-0.539039,49.265474,0.011185,0.05043,0.981689,-0.033147,-0.019996,-0.005597,62.245087,19.155838,-150.284531,,,
729606332.461611,2.337576,-0.54793,49.263573,0.011185,0.05043,0.981689,-0.039215,-0.018269,-0.008179,62.245087,19.155838,-150.284531,,,
729606332.465044,2.327237,-0.554795,49.261558,0.011154,0.045807,0.98671,-0.039215,-0.018269,-0.008179,62.245087,19.155838,-150.284531,,,
729606332.468338,2.327237,-0.554795,49.261558,0.011154,0.045807,0.98671,-0.039215,-0.018269,-0.008179,62.245087,19.155838,-150.284531,,,
729606332.47161,2.318935,-0.563148,49.259843,0.011154,0.045807,0.98671,-0.030303,-0.021766,-0.008455,62.245087,19.155838,-150.284531,,,
729606332.474952,2.312616,-0.57097,49.258249,0.008072,0.042526,0.994934,-0.030303,-0.021766,-0.008455,62.245087,19.155838,-150.284531,,,
729606332.47832,2.312616,-0.57097,49.258249,0.008072,0.042526,0.994934,-0.030303,-0.021766,-0.008455,62.245087,19.155838,-150.284531,,,
729606332.481608,2.308004,-0.576519,49.25716,0.008072,0.042526,0.994934,-0.012627,-0.022065,-0.005179,62.245087,19.155838,-150.284531,,,
729606332.484931,2.305291,-0.582989,49.25783,0.001907,0.034714,1.00351,-0.012627,-0.022065,-0.005179,62.091522,19.15477,-150.434799,,,
729606332.488279,2.305291,-0.582989,49.25783,0.001907,0.034714,1.00351,-0.012627,-0.022065,-0.005179,62.091522,19.15477,-150.434799,,,
729606332.491672,2.303981,-0.587895,49.260075,0.001907,0.034714,1.00351,-0.000708,-0.020433,0.007904,62.091522,19.15477,-150.434799,,,
729606332.494933,2.304109,-0.594889,49.263322,-0.001175,0.031494,1.007828,-0.000708,-0.020433,0.007904,62.091522,19.15477,-150.434799,,,
729606332.498376,2.304109,-0.594889,49.263322,-0.001175,0.031494,1.007828,-0.000708,-0.020433,0.007904,62.091522,19.15477,-150.434799,,,
729606332.501603,2.305087,-0.599625,49.267131,-0.001175,0.031494,1.007828,0.001794,-0.022103,0.012597,62.091522,19.15477,-150.434799,,,
729606332.504933,2.305135,-0.606016,49.271005,0.005249,0.03421,1.003464,0.001794,-0.022103,0.012597,62.091522,19.15477,-150.434799,,,
729606332.508278,2.305135,-0.606016,49.271005,0.005249,0.03421,1.003464,0.001794,-0.022103,0.012597,62.091522,19.15477,-150.434799,,,
729606332.511618,2.30616,-0.607314,49.273378,0.005249,0.03421,1.003464,-0.000505,-0.01034,0.006927,62.091522,19.15477,-150.434799,,,
729606332.514927,2.304937,-0.608907,49.274157,0.012787,0.037918,1.010437,-0.000505,-0.01034,0.006927,62.091522,19.15477,-150.434799,,,
729606332.518412,2.304937,-0.608907,49.274157,0.012787,0.037918,1.010437,-0.000505,-0.01034,0.006927,62.091522,19.15477,-150.434799,,,
729606332.521638,2.305398,-0.608686,49.273925,0.012787,0.037918,1.010437,-0.002721,0.002989,-0.002193,62.091522,19.15477,-150.434799,,,
729606332.524995,2.304021,-0.609328,49.273626,0.012421,0.036865,1.012238,-0.002721,0.002989,-0.002193,62.040268,19.256104,-150.163208,,,
729606332.52832,2.304021,-0.609328,49.273626,0.012421,0.036865,1.012238,-0.002721,0.002989,-0.002193,62.040268,19.256104,-150.163208,,,
729606332.531654,2.305965,-0.610213,49.274012,0.012421,0.036865,1.012238,-0.002343,0.002236,0.001542,62.040268,19.256104,-150.163208,,,
729606332.534924,2.306693,-0.611016,49.274557,0.009857,0.032578,1.015274,-0.002343,0.002236,0.001542,62.040268,19.256104,-150.163208,,,
729606332.538306,2.306693,-0.611016,49.274557,0.009857,0.032578,1.015274,-0.002343,0.002236,0.001542,62.040268,19.256104,-150.163208,,,
729606332.541648,2.310853,-0.613325,49.275033,0.009857,0.032578,1.015274,0.007587,-0.002839,0.000149,62.040268,19.256104,-150.163208,,,
729606332.544927,2.31463,-0.617129,49.275838,0.007889,0.032852,1.011841,0.007587,-0.002839,0.000149,62.040268,19.256104,-150.163208,,,
729606332.54828,2.31463,-0.617129,49.275838,0.007889,0.032852,1.011841,0.007587,-0.002839,0.000149,62.040268,19.256104,-150.163208,,,
729606332.551607,2.321185,-0.621842,49.277158,0.007889,0.032852,1.011841,0.016947,-0.012855,0.001295,62.040268,19.256104,-150.163208,,,
729606332.554932,2.327591,-0.627977,49.278094,0.012817,0.035583,1.01265,0.016947,-0.012855,0.001295,62.040268,19.256104,-150.163208,,,
729606332.558374,2.327591,-0.627977,49.278094,0.012817,0.035583,1.01265,0.016947,-0.012855,0.001295,62.040268,19.256104,-150.163208,,,
729606332.561604,2.334394,-0.633931,49.2782,0.012817,0.035583,1.01265,0.024209,-0.025131,-0.001845,62.040268,19.256104,-150.163208,,,
729606332.564982,2.341177,-0.642795,49.277593,0.015762,0.038849,1.006958,0.024209,-0.025131,-0.001845,62.177155,19.244095,-150.192383,,,
729606332.568288,2.341177,-0.642795,49.277593,0.015762,0.038849,1.006958,0.024209,-0.025131,-0.001845,62.177155,19.244095,-150.192383,,,
729606332.571714,2.345328,-0.647754,49.276166,0.015762,0.038849,1.006958,0.022506,-0.02878,-0.005047,62.177155,19.244095,-150.192383,,,
729606332.574948,2.351021,-0.655244,49.274305,0.019836,0.038879,1.005081,0.022506,-0.02878,-0.005047,62.177155,19.244095,-150.192383,,,
729606332.578279,2.351021,-0.655244,49.274305,0.019836,0.038879,1.005081,0.022506,-0.02878,-0.005047,62.177155,19.244095,-150.192383,,,
729606332.581624,2.353604,-0.657592,49.271533,0.019836,0.038879,1.005081,0.016959,-0.017162,-0.011733,62.177155,19.244095,-150.192383,,,
729606332.584931,2.358153,-0.662808,49.268038,0.023392,0.040863,1.004959,0.016959,-0.017162,-0.011733,62.177155,19.244095,-150.192383,,,
729606332.588283,2.358153,-0.662808,49.268038,0.023392,0.040863,1.004959,0.016959,-0.017162,-0.011733,62.177155,19.244095,-150.192383,,,
729606332.591662,2.361645,-0.666335,49.26383,0.023392,0.040863,1.004959,0.017425,-0.015383,-0.015079,62.177155,19.244095,-150.192383,,,
729606332.594937,2.366392,-0.669953,49.26006,0.019028,0.038284,1.004349,0.017425,-0.015383,-0.015079,62.177155,19.244095,-150.192383,,,
729606332.598326,2.366392,-0.669953,49.26006,0.019028,0.038284,1.004349,0.017425,-0.015383,-0.015079,62.177155,19.244095,-150.192383,,,
729606332.601624,2.370654,-0.672479,49.256758,0.019028,0.038284,1.004349,0.019204,-0.005923,-0.01464,62.177155,19.244095,-150.192383,,,
729606332.60494,2.376582,-0.672824,49.254046,0.014252,0.036819,1.007935,0.019204,-0.005923,-0.01464,62.087326,19.331039,-150.407349,,,
729606332.60833,2.376582,-0.672824,49.254046,0.014252,0.036819,1.007935,0.019204,-0.005923,-0.01464,62.087326,19.331039,-150.407349,,,
729606332.611608,2.381588,-0.671833,49.251955,0.014252,0.036819,1.007935,0.022375,0.00553,-0.009693,62.087326,19.331039,-150.407349,,,
729606332.614935,2.388445,-0.670566,49.250104,0.011948,0.038269,1.003204,0.022375,0.00553,-0.009693,62.087326,19.331039,-150.407349,,,
729606332.618276,2.388445,-0.670566,49.250104,0.011948,0.038269,1.003204,0.022375,0.00553,-0.009693,62.087326,19.331039,-150.407349,,,
729606332.621596,2.393896,-0.668681,49.248323,0.011948,0.038269,1.003204,0.02945,0.005591,-0.00754,62.087326,19.331039,-150.407349,,,
729606332.624975,2.40197,-0.669289,49.247033,0.010391,0.043503,0.99501,0.02945,0.005591,-0.00754,62.087326,19.331039,-150.407349,,,
729606332.628279,2.40197,-0.669289,49.247033,0.010391,0.043503,0.99501,0.02945,0.005591,-0.00754,62.087326,19.331039,-150.407349,,,
729606332.631702,2.40802,-0.670714,49.246248,0.010391,0.043503,0.99501,0.027677,-0.004208,-0.006274,62.087326,19.331039,-150.407349,,,
729606332.63492,2.416147,-0.674463,49.244941,0.010025,0.045792,0.990952,0.027677,-0.004208,-0.006274,62.087326,19.331039,-150.407349,,,
729606332.638282,2.416147,-0.674463,49.244941,0.010025,0.045792,0.990952,0.027677,-0.004208,-0.006274,62.087326,19.331039,-150.407349,,,
729606332.641646,2.422657,-0.679958,49.242708,0.010025,0.045792,0.990952,0.026187,-0.015187,-0.012186,62.087326,19.331039,-150.407349,,,
729606332.644926,2.429598,-0.686183,49.239671,0.011444,0.045151,0.986908,0.026187,-0.015187,-0.012186,62.087326,19.331039,-150.407349,,,
729606332.64826,2.429598,-0.686183,49.239671,0.011444,0.045151,0.986908,0.026187,-0.015187,-0.012186,61.951584,18.942291,-150.834747,,,
729606332.651617,2.434172,-0.696094,49.235947,0.011444,0.045151,0.986908,0.020017,-0.026995,-0.013165,61.951584,18.942291,-150.834747,,,
729606332.654974,2.438533,-0.706061,49.232378,0.006775,0.046127,0.981018,0.020017,-0.026995,-0.013165,61.951584,18.942291,-150.834747,,,
729606332.658334,2.438533,-0.706061,49.232378,0.006775,0.046127,0.981018,0.020017,-0.026995,-0.013165,61.951584,18.942291,-150.834747,,,
729606332.661615,2.441426,-0.720742,49.230355,0.006775,0.046127,0.981018,0.016369,-0.037187,-0.010576,61.951584,18.942291,-150.834747,,,
729606332.664985,2.444647,-0.732449,49.228772,0.002823,0.046555,0.985626,0.016369,-0.037187,-0.010576,61.951584,18.942291,-150.834747,,,
729606332.668274,2.444647,-0.732449,49.228772,0.002823,0.046555,0.985626,0.016369,-0.037187,-0.010576,61.951584,18.942291,-150.834747,,,
729606332.671658,2.446896,-0.746816,49.227272,0.002823,0.046555,0.985626,0.007195,-0.035604,-0.007038,61.951584,18.942291,-150.834747,,,
729606332.674977,2.449262,-0.757764,49.225734,0.005463,0.048065,0.989761,0.007195,-0.035604,-0.007038,61.951584,18.942291,-150.834747,,,
729606332.678274,2.449262,-0.757764,49.225734,0.005463,0.048065,0.989761,0.007195,-0.035604,-0.007038,61.951584,18.942291,-150.834747,,,
729606332.681643,2.449684,-0.768623,49.223906,0.005463,0.048065,0.989761,0.006471,-0.030571,-0.006828,61.951584,18.942291,-150.834747,,,
729606332.684929,2.45108,-0.77622,49.222435,0.01326,0.049072,0.990707,0.006471,-0.030571,-0.006828,61.951584,18.942291,-150.834747,,,
729606332.688267,2.45108,-0.77622,49.222435,0.01326,0.049072,0.990707,0.006471,-0.030571,-0.006828,62.060089,19.089844,-150.276642,,,
729606332.69164,2.451641,-0.7816,49.221879,0.01326,0.049072,0.990707,0.005815,-0.017099,-0.00532,62.060089,19.089844,-150.276642,,,
729606332.694924,2.453304,-0.784739,49.221851,0.013763,0.04686,0.992661,0.005815,-0.017099,-0.00532,62.060089,19.089844,-150.276642,,,
729606332.698368,2.453304,-0.784739,49.221851,0.013763,0.04686,0.992661,0.005815,-0.017099,-0.00532,62.060089,19.089844,-150.276642,,,
729606332.701617,2.454177,-0.785837,49.22186,0.013763,0.04686,0.992661,0.005055,-0.003594,-0.000132,62.060089,19.089844,-150.276642,,,
729606332.704942,2.45573,-0.786426,49.222033,0.017746,0.046265,0.992432,0.005055,-0.003594,-0.000132,62.060089,19.089844,-150.276642,,,
729606332.708346,2.45573,-0.786426,49.222033,0.017746,0.046265,0.992432,0.005055,-0.003594,-0.000132,62.060089,19.089844,-150.276642,,,
729606332.711661,2.457982,-0.784823,49.222071,0.017746,0.046265,0.992432,0.005484,0.005114,-0.00249,62.060089,19.089844,-150.276642,,,
729606332.714923,2.459315,-0.785155,49.221861,0.021866,0.047165,0.986206,0.005484,0.005114,-0.00249,62.060089,19.089844,-150.276642,,,
729606332.718265,2.459315,-0.785155,49.221861,0.021866,0.047165,0.986206,0.005484,0.005114,-0.00249,62.060089,19.089844,-150.276642,,,
729606332.721625,2.460174,-0.785656,49.221222,0.021866,0.047165,0.986206,0.002634,-0.002767,-0.004667,62.060089,19.089844,-150.276642,,,
729606332.724974,2.459904,-0.788447,49.22046,0.020386,0.049057,0.980408,0.002634,-0.002767,-0.004667,62.060089,19.089844,-150.276642,,,
729606332.728265,2.459904,-0.788447,49.22046,0.020386,0.049057,0.980408,0.002634,-0.002767,-0.004667,61.892075,19.022537,-150.199646,,,
729606332.731649,2.459548,-0.79062,49.219428,0.020386,0.049057,0.980408,-0.001213,-0.008452,-0.005177,61.892075,19.022537,-150.199646,,,
729606332.734926,2.45852,-0.794259,49.217782,0.02063,0.045761,0.982422,-0.001213,-0.008452,-0.005177,61.892075,19.022537,-150.199646,,,
729606332.738351,2.45852,-0.794259,49.217782,0.02063,0.045761,0.982422,-0.001213,-0.008452,-0.005177,61.892075,19.022537,-150.199646,,,
729606332.741653,2.459137,-0.795601,49.21516,0.02063,0.045761,0.982422,-6e-05,-0.01365,-0.010104,61.892075,19.022537,-150.199646,,,
729606332.744926,2.459405,-0.801005,49.211994,0.021866,0.042267,0.987274,-6e-05,-0.01365,-0.010104,61.892075,19.022537,-150.199646,,,
729606332.748272,2.459405,-0.801005,49.211994,0.021866,0.042267,0.987274,-6e-05,-0.01365,-0.010104,61.892075,19.022537,-150.199646,,,
729606332.751656,2.460404,-0.80222,49.208515,0.021866,0.042267,0.987274,-0.000635,-0.015786,-0.012229,61.892075,19.022537,-150.199646,,,
729606332.754925,2.460401,-0.80614,49.205924,0.017609,0.039764,0.987122,-0.000635,-0.015786,-0.012229,61.892075,19.022537,-150.199646,,,
729606332.758318,2.460401,-0.80614,49.205924,0.017609,0.039764,0.987122,-0.000635,-0.015786,-0.012229,61.892075,19.022537,-150.199646,,,
729606332.761602,2.461577,-0.806598,49.204347,0.017609,0.039764,0.987122,-0.001845,-0.004784,-0.006212,61.892075,19.022537,-150.199646,,,
729606332.764979,2.461081,-0.80682,49.203359,0.016312,0.039017,0.992447,-0.001845,-0.004784,-0.006212,61.892075,19.022537,-150.199646,,,
729606332.768265,2.461081,-0.80682,49.203359,0.016312,0.039017,0.992447,-0.001845,-0.004784,-0.006212,61.892075,19.022537,-150.199646,,,
729606332.771613,2.462809,-0.806362,49.202401,0.016312,0.039017,0.992447,0.003533,0.00333,-0.003569,61.806671,19.140854,-150.405334,,,
729606332.774977,2.464523,-0.805059,49.200797,0.020996,0.04213,0.991196,0.003533,0.00333,-0.003569,61.806671,19.140854,-150.405334,,,
729606332.778254,2.464523,-0.805059,49.200797,0.020996,0.04213,0.991196,0.003533,0.00333,-0.003569,61.806671,19.140854,-150.405334,,,
729606332.781626,2.468121,-0.802514,49.198753,0.020996,0.04213,0.991196,0.00918,0.013261,-0.007904,61.806671,19.140854,-150.405334,,,
729606332.784936,2.471926,-0.798012,49.196499,0.02565,0.044083,0.994049,0.00918,0.013261,-0.007904,61.806671,19.140854,-150.405334,,,
729606332.78827,2.471926,-0.798012,49.196499,0.02565,0.044083,0.994049,0.00918,0.013261,-0.007904,61.806671,19.140854,-150.405334,,,
729606332.791662,2.477236,-0.7936,49.194195,0.02565,0.044083,0.994049,0.01843,0.027157,-0.008734,61.806671,19.140854,-150.405334,,,
729606332.794922,2.48308,-0.785401,49.191778,0.021713,0.041367,0.998856,0.01843,0.027157,-0.008734,61.806671,19.140854,-150.405334,,,
729606332.798318,2.48308,-0.785401,49.191778,0.021713,0.041367,0.998856,0.01843,0.027157,-0.008734,61.806671,19.140854,-150.405334,,,
729606332.801666,2.491489,-0.778846,49.189705,0.021713,0.041367,0.998856,0.023883,0.035279,-0.010183,61.806671,19.140854,-150.405334,,,
729606332.804933,2.498932,-0.768873,49.188614,0.013748,0.0383,0.992661,0.023883,0.035279,-0.010183,61.806671,19.140854,-150.405334,,,
729606332.808326,2.498932,-0.768873,49.188614,0.013748,0.0383,0.992661,0.023883,0.035279,-0.010183,61.806671,19.140854,-150.405334,,,
729606332.811593,2.507446,-0.760852,49.18879,0.013748,0.0383,0.992661,0.025982,0.040337,-0.003189,61.742004,19.170319,-150.524841,,,
729606332.814926,2.513617,-0.749288,49.189783,0.007828,0.041412,0.989059,0.025982,0.040337,-0.003189,61.742004,19.170319,-150.524841,,,
729606332.818279,2.513617,-0.749288,49.189783,0.007828,0.041412,0.989059,0.025982,0.040337,-0.003189,61.742004,19.170319,-150.524841,,,
729606332.821609,2.518396,-0.739929,49.191173,0.007828,0.041412,0.989059,0.018127,0.045007,0.002221,61.742004,19.170319,-150.524841,,,
729606332.824975,2.520675,-0.727988,49.191541,0.010727,0.050339,0.986069,0.018127,0.045007,0.002221,61.742004,19.170319,-150.524841,,,
729606332.828341,2.520675,-0.727988,49.191541,0.010727,0.050339,0.986069,0.018127,0.045007,0.002221,61.742004,19.170319,-150.524841,,,
729606332.831642,2.519824,-0.719944,49.190724,0.010727,0.050339,0.986069,-0.000906,0.042735,-0.004097,61.742004,19.170319,-150.524841,,,
729606332.834924,2.517176,-0.709746,49.189118,0.011459,0.053009,0.98172,-0.000906,0.042735,-0.004097,61.742004,19.170319,-150.524841,,,
729606332.83828,2.517176,-0.709746,49.189118,0.011459,0.053009,0.98172,-0.000906,0.042735,-0.004097,61.742004,19.170319,-150.524841,,,
729606332.841671,2.511568,-0.701909,49.186857,0.011459,0.053009,0.98172,-0.013714,0.034506,-0.009739,61.742004,19.170319,-150.524841,,,
729606332.844923,2.505413,-0.693336,49.183316,0.008789,0.049149,0.988434,-0.013714,0.034506,-0.009739,61.742004,19.170319,-150.524841,,,
729606332.848269,2.505413,-0.693336,49.183316,0.008789,0.049149,0.988434,-0.013714,0.034506,-0.009739,61.742004,19.170319,-150.524841,,,
729606332.851615,2.498526,-0.687321,49.179757,0.008789,0.049149,0.988434,-0.02076,0.029693,-0.012868,62.083466,19.265762,-150.654846,,,
729606332.854922,2.493488,-0.680275,49.176085,0.00592,0.041214,1.000778,-0.02076,0.029693,-0.012868,62.083466,19.265762,-150.654846,,,
729606332.858278,2.493488,-0.680275,49.176085,0.00592,0.041214,1.000778,-0.02076,0.029693,-0.012868,62.083466,19.265762,-150.654846,,,
729606332.861603,2.490195,-0.678182,49.173205,0.00592,0.041214,1.000778,-0.011572,0.024327,-0.009653,62.083466,19.265762,-150.654846,,,
729606332.864985,2.489232,-0.672058,49.17201,0.000824,0.036911,1.009781,-0.011572,0.024327,-0.009653,62.083466,19.265762,-150.654846,,,
729606332.868327,2.489232,-0.672058,49.17201,0.000824,0.036911,1.009781,-0.011572,0.024327,-0.009653,62.083466,19.265762,-150.654846,,,
729606332.871608,2.490982,-0.669709,49.173103,0.000824,0.036911,1.009781,0.007918,0.025131,0.002883,62.083466,19.265762,-150.654846,,,
729606332.87495,2.496532,-0.661881,49.175744,0.001495,0.030594,1.018997,0.007918,0.025131,0.002883,62.083466,19.265762,-150.654846,,,
729606332.878279,2.496532,-0.661881,49.175744,0.001495,0.030594,1.018997,0.007918,0.025131,0.002883,62.083466,19.265762,-150.654846,,,
729606332.881669,2.505357,-0.655658,49.17979,0.001495,0.030594,1.018997,0.033001,0.033962,0.011553,62.083466,19.265762,-150.654846,,,
729606332.884928,2.517612,-0.646534,49.184373,0.006821,0.0336,1.021515,0.033001,0.033962,0.011553,62.083466,19.265762,-150.654846,,,
729606332.888279,2.517612,-0.646534,49.184373,0.006821,0.0336,1.021515,0.033001,0.033962,0.011553,62.083466,19.265762,-150.654846,,,
729606332.891612,2.529386,-0.637126,49.189129,0.006821,0.0336,1.021515,0.047927,0.038262,0.01684,61.976715,19.115219,-150.837799,,,
729606332.894931,2.542635,-0.627094,49.194291,0.007309,0.039597,1.015091,0.047927,0.038262,0.01684,61.976715,19.115219,-150.837799,,,
729606332.898303,2.542635,-0.627094,49.194291,0.007309,0.039597,1.015091,0.047927,0.038262,0.01684,61.976715,19.115219,-150.837799,,,
729606332.901613,2.555923,-0.616505,49.199221,0.007309,0.039597,1.015091,0.04657,0.038981,0.014386,61.976715,19.115219,-150.837799,,,
729606332.904967,2.567779,-0.607784,49.203652,0.008118,0.047012,1.00206,0.04657,0.038981,0.014386,61.976715,19.115219,-150.837799,,,
729606332.90835,2.567779,-0.607784,49.203652,0.008118,0.047012,1.00206,0.04657,0.038981,0.014386,61.976715,19.115219,-150.837799,,,
729606332.911614,2.579999,-0.60071,49.207269,0.008118,0.047012,1.00206,0.039383,0.02917,0.009368,61.976715,19.115219,-150.837799,,,
729606332.914943,2.58898,-0.595832,49.209318,0.01297,0.051147,0.99733,0.039383,0.02917,0.009368,61.976715,19.115219,-150.837799,,,
729606332.918283,2.58898,-0.595832,49.209318,0.01297,0.051147,0.99733,0.039383,0.02917,0.009368,61.976715,19.115219,-150.837799,,,
729606332.921669,2.598622,-0.594331,49.210095,0.01297,0.051147,0.99733,0.028346,0.006375,0.000353,61.976715,19.115219,-150.837799,,,
729606332.924972,2.606104,-0.595121,49.20971,0.018967,0.054047,0.994492,0.028346,0.006375,0.000353,61.976715,19.115219,-150.837799,,,
729606332.928273,2.606104,-0.595121,49.20971,0.018967,0.054047,0.994492,0.028346,0.006375,0.000353,61.976715,19.115219,-150.837799,,,
729606332.931658,2.613666,-0.596478,49.207774,0.018967,0.054047,0.994492,0.022854,-0.008089,-0.006346,61.976715,19.115219,-150.837799,,,
729606332.93492,2.620714,-0.60024,49.205179,0.017792,0.05159,0.99559,0.022854,-0.008089,-0.006346,62.054611,18.87912,-150.51973,,,
729606332.938271,2.620714,-0.60024,49.205179,0.017792,0.05159,0.99559,0.022854,-0.008089,-0.006346,62.054611,18.87912,-150.51973,,,
729606332.941654,2.626323,-0.602487,49.202032,0.017792,0.05159,0.99559,0.025848,-0.012884,-0.013749,62.054611,18.87912,-150.51973,,,
729606332.944921,2.63388,-0.607322,49.19836,0.021606,0.047363,0.997711,0.025848,-0.012884,-0.013749,62.054611,18.87912,-150.51973,,,
729606332.948321,2.63388,-0.607322,49.19836,0.021606,0.047363,0.997711,0.025848,-0.012884,-0.013749,62.054611,18.87912,-150.51973,,,
729606332.951598,2.639991,-0.608844,49.19451,0.021606,0.047363,0.997711,0.030712,-0.015473,-0.014703,62.054611,18.87912,-150.51973,,,
729606332.954935,2.650776,-0.614141,49.191312,0.023682,0.046265,0.997467,0.030712,-0.015473,-0.014703,62.054611,18.87912,-150.51973,,,
729606332.958323,2.650776,-0.614141,49.191312,0.023682,0.046265,0.997467,0.030712,-0.015473,-0.014703,62.054611,18.87912,-150.51973,,,
729606332.961687,2.658927,-0.615645,49.188418,0.023682,0.046265,0.997467,0.037926,-0.012287,-0.011118,62.054611,18.87912,-150.51973,,,
729606332.964963,2.671372,-0.617749,49.185414,0.023605,0.048203,0.998108,0.037926,-0.012287,-0.011118,62.054611,18.87912,-150.51973,,,
729606332.968275,2.671372,-0.617749,49.185414,0.023605,0.048203,0.998108,0.037926,-0.012287,-0.011118,62.054611,18.87912,-150.51973,,,
729606332.97165,2.681119,-0.61671,49.181924,0.023605,0.048203,0.998108,0.043762,0.002713,-0.013399,62.054611,18.87912,-150.51973,,,
729606332.974983,2.693925,-0.615416,49.177936,0.022095,0.049469,0.99794,0.043762,0.002713,-0.013399,62.057281,18.777634,-150.314209,,,
729606332.978272,2.693925,-0.615416,49.177936,0.022095,0.049469,0.99794,0.043762,0.002713,-0.013399,62.057281,18.777634,-150.314209,,,
729606332.981625,2.705795,-0.612378,49.173124,0.022095,0.049469,0.99794,0.045428,0.008587,-0.018505,62.057281,18.777634,-150.314209,,,
729606332.984941,2.717853,-0.609931,49.167804,0.0168,0.050095,0.994583,0.045428,0.008587,-0.018505,62.057281,18.777634,-150.314209,,,
729606332.988349,2.717853,-0.609931,49.167804,0.0168,0.050095,0.994583,0.045428,0.008587,-0.018505,62.057281,18.777634,-150.314209,,,
729606332.991612,2.728741,-0.606012,49.16279,0.0168,0.050095,0.994583,0.036552,0.012608,-0.019738,62.057281,18.777634,-150.314209,,,
729606332.994941,2.737651,-0.602492,49.158739,0.009216,0.048004,0.99086,0.036552,0.012608,-0.019738,62.057281,18.777634,-150.314209,,,
729606332.998303,2.737651,-0.602492,49.158739,0.009216,0.048004,0.99086,0.036552,0.012608,-0.019738,62.057281,18.777634,-150.314209,,,
729606333.001656,2.747027,-0.600692,49.155873,0.009216,0.048004,0.99086,0.031612,0.016474,-0.011009,62.057281,18.777634,-150.314209,,,
729606333.00493,2.754665,-0.597219,49.154376,9.2e-05,0.044785,0.994781,0.031612,0.016474,-0.011009,62.057281,18.777634,-150.314209,,,
729606333.008329,2.754665,-0.597219,49.154376,9.2e-05,0.044785,0.994781,0.031612,0.016474,-0.011009,62.057281,18.777634,-150.314209,,,
729606333.011611,2.763279,-0.597823,49.153852,9.2e-05,0.044785,0.994781,0.027163,0.012327,-0.004148,62.057281,18.777634,-150.314209,,,
729606333.014936,2.769632,-0.597429,49.153078,0.00177,0.042892,0.993454,0.027163,0.012327,-0.004148,62.056396,18.82692,-150.647217,,,
729606333.018293,2.769632,-0.597429,49.153078,0.00177,0.042892,0.993454,0.027163,0.012327,-0.004148,62.056396,18.82692,-150.647217,,,
729606333.021619,2.775091,-0.602051,49.152006,0.00177,0.042892,0.993454,0.017246,-0.003055,-0.006154,62.056396,18.82692,-150.647217,,,
729606333.025051,2.77844,-0.606306,49.150268,0.003128,0.04541,0.987747,0.017246,-0.003055,-0.006154,62.056396,18.82692,-150.647217,,,
729606333.028321,2.77844,-0.606306,49.150268,0.003128,0.04541,0.987747,0.017246,-0.003055,-0.006154,62.056396,18.82692,-150.647217,,,
729606333.031634,2.7785,-0.618389,49.147892,0.003128,0.04541,0.987747,0.003664,-0.02278,-0.010458,62.056396,18.82692,-150.647217,,,
729606333.034922,2.776865,-0.626772,49.1447,0.00296,0.046661,0.976669,0.003664,-0.02278,-0.010458,62.056396,18.82692,-150.647217,,,
729606333.038271,2.776865,-0.626772,49.1447,0.00296,0.046661,0.976669,0.003664,-0.02278,-0.010458,62.056396,18.82692,-150.647217,,,
729606333.041647,2.774238,-0.635325,49.141222,0.00296,0.046661,0.976669,-0.006364,-0.011502,-0.012183,62.056396,18.82692,-150.647217,,,
729606333.044927,2.771514,-0.636649,49.137408,0.00676,0.049744,1.001862,-0.006364,-0.011502,-0.012183,62.056396,18.82692,-150.647217,,,
729606333.048269,2.771514,-0.636649,49.137408,0.00676,0.049744,1.001862,-0.006364,-0.011502,-0.012183,62.056396,18.82692,-150.647217,,,
729606333.051594,2.767487,-0.644192,49.135202,0.00676,0.049744,1.001862,-0.013498,-0.008019,-0.010658,62.056396,18.82692,-150.647217,,,
729606333.055015,2.761201,-0.651109,49.135135,0.00795,0.04744,0.979355,-0.013498,-0.008019,-0.010658,62.119217,18.970108,-150.741364,,,
729606333.058275,2.761201,-0.651109,49.135135,0.00795,0.04744,0.979355,-0.013498,-0.008019,-0.010658,62.119217,18.970108,-150.741364,,,
729606333.061618,2.753348,-0.660942,49.136937,0.00795,0.04744,0.979355,-0.025727,-0.023462,0.006474,62.119217,18.970108,-150.741364,,,
729606333.064974,2.744251,-0.664069,49.139273,0.004547,0.045944,0.981522,-0.025727,-0.023462,0.006474,62.119217,18.970108,-150.741364,,,
729606333.068324,2.744251,-0.664069,49.139273,0.004547,0.045944,0.981522,-0.025727,-0.023462,0.006474,62.119217,18.970108,-150.741364,,,
729606333.0716,2.734946,-0.665135,49.14126,0.004547,0.045944,0.981522,-0.035307,0.004926,0.005297,62.119217,18.970108,-150.741364,,,
729606333.074941,2.724704,-0.666394,49.14262,0.011139,0.050568,0.991119,-0.035307,0.004926,0.005297,62.119217,18.970108,-150.741364,,,
729606333.078279,2.724704,-0.666394,49.14262,0.011139,0.050568,0.991119,-0.035307,0.004926,0.005297,62.119217,18.970108,-150.741364,,,
729606333.081683,2.713697,-0.669243,49.14336,0.011139,0.050568,0.991119,-0.035885,-0.015015,0.000557,62.119217,18.970108,-150.741364,,,
729606333.084995,2.703827,-0.676388,49.144023,0.011673,0.047424,0.982178,-0.035885,-0.015015,0.000557,62.119217,18.970108,-150.741364,,,
729606333.088275,2.703827,-0.676388,49.144023,0.011673,0.047424,0.982178,-0.035885,-0.015015,0.000557,62.119217,18.970108,-150.741364,,,
729606333.091657,2.694026,-0.677725,49.144672,0.011673,0.047424,0.982178,-0.031387,-0.017041,0.003585,62.119217,18.970108,-150.741364,,,
729606333.094996,2.68401,-0.680915,49.145478,0.007278,0.044952,0.99791,-0.031387,-0.017041,0.003585,62.119217,18.970108,-150.741364,,,
729606333.09828,2.68401,-0.680915,49.145478,0.007278,0.044952,0.99791,-0.031387,-0.017041,0.003585,61.789154,18.982971,-150.506073,,,
729606333.101621,2.67215,-0.680204,49.145115,0.007278,0.044952,0.99791,-0.036302,-0.006008,0.001091,61.789154,18.982971,-150.506073,,,
729606333.104999,2.661122,-0.683663,49.143858,0.012024,0.046387,0.991867,-0.036302,-0.006008,0.001091,61.789154,18.982971,-150.506073,,,
729606333.108304,2.661122,-0.683663,49.143858,0.012024,0.046387,0.991867,-0.036302,-0.006008,0.001091,61.789154,18.982971,-150.506073,,,
729606333.111601,2.650934,-0.684714,49.142884,0.012024,0.046387,0.991867,-0.038757,-0.010295,-0.001468,61.789154,18.982971,-150.506073,,,
729606333.114937,2.640422,-0.688397,49.142816,0.00769,0.040894,0.994766,-0.038757,-0.010295,-0.001468,61.789154,18.982971,-150.506073,,,
729606333.118283,2.640422,-0.688397,49.142816,0.00769,0.040894,0.994766,-0.038757,-0.010295,-0.001468,61.789154,18.982971,-150.506073,,,
729606333.121677,2.630121,-0.689355,49.143193,0.00769,0.040894,0.994766,-0.034944,-0.007809,0.001771,61.789154,18.982971,-150.506073,,,
729606333.124969,2.618777,-0.693215,49.143988,0.005325,0.037643,0.995575,-0.034944,-0.007809,0.001771,61.789154,18.982971,-150.506073,,,
729606333.128281,2.618777,-0.693215,49.143988,0.005325,0.037643,0.995575,-0.034944,-0.007809,0.001771,61.789154,18.982971,-150.506073,,,
729606333.131595,2.608418,-0.695594,49.144707,0.005325,0.037643,0.995575,-0.038412,-0.008067,0.002356,61.789154,18.982971,-150.506073,,,
729606333.13493,2.59799,-0.69843,49.145369,0.006683,0.037537,0.996719,-0.038412,-0.008067,0.002356,61.789154,18.982971,-150.506073,,,
729606333.138281,2.59799,-0.69843,49.145369,0.006683,0.037537,0.996719,-0.038412,-0.008067,0.002356,61.891632,19.171692,-150.801437,,,
729606333.141642,2.588751,-0.698659,49.145703,0.006683,0.037537,0.996719,-0.032582,-0.004628,0.001035,61.891632,19.171692,-150.801437,,,
729606333.144964,2.578819,-0.700262,49.146023,0.009766,0.039444,0.999573,-0.032582,-0.004628,0.001035,61.891632,19.171692,-150.801437,,,
729606333.148333,2.578819,-0.700262,49.146023,0.009766,0.039444,0.999573,-0.032582,-0.004628,0.001035,61.891632,19.171692,-150.801437,,,
729606333.151619,2.56936,-0.699023,49.145788,0.009766,0.039444,0.999573,-0.032102,-0.002064,-0.002749,61.891632,19.171692,-150.801437,,,
729606333.15496,2.55866,-0.700159,49.145092,0.011383,0.041,0.995209,-0.032102,-0.002064,-0.002749,61.891632,19.171692,-150.801437,,,
729606333.158334,2.55866,-0.700159,49.145092,0.011383,0.041,0.995209,-0.032102,-0.002064,-0.002749,61.891632,19.171692,-150.801437,,,
729606333.16159,2.54901,-0.701982,49.144172,0.011383,0.041,0.995209,-0.037633,-0.001184,-0.003659,61.891632,19.171692,-150.801437,,,
729606333.164981,2.537775,-0.703555,49.142845,0.013138,0.04158,0.99501,-0.037633,-0.001184,-0.003659,61.891632,19.171692,-150.801437,,,
729606333.168283,2.537775,-0.703555,49.142845,0.013138,0.04158,0.99501,-0.037633,-0.001184,-0.003659,61.891632,19.171692,-150.801437,,,
729606333.171667,2.526429,-0.704444,49.140744,0.013138,0.04158,0.99501,-0.041274,-0.002972,-0.008145,61.891632,19.171692,-150.801437,,,
729606333.174968,2.514961,-0.706959,49.137734,0.014206,0.040878,0.9944,-0.041274,-0.002972,-0.008145,61.891632,19.171692,-150.801437,,,
729606333.178261,2.514961,-0.706959,49.137734,0.014206,0.040878,0.9944,-0.041274,-0.002972,-0.008145,62.175674,18.912033,-150.553101,,,
729606333.181598,2.504929,-0.709242,49.133762,0.014206,0.040878,0.9944,-0.035818,-0.010524,-0.014165,62.175674,18.912033,-150.553101,,,
729606333.18498,2.495955,-0.713813,49.129397,0.014542,0.039612,0.99704,-0.035818,-0.010524,-0.014165,62.175674,18.912033,-150.553101,,,
729606333.188268,2.495955,-0.713813,49.129397,0.014542,0.039612,0.99704,-0.035818,-0.010524,-0.014165,62.175674,18.912033,-150.553101,,,
729606333.191657,2.488815,-0.718061,49.125603,0.014542,0.039612,0.99704,-0.022594,-0.016443,-0.014417,62.175674,18.912033,-150.553101,,,
729606333.194963,2.488815,-0.72161,49.122994,0.011719,0.036606,1.001221,-0.022594,-0.016443,-0.014417,62.175674,18.912033,-150.553101,,,
729606333.198343,2.482725,-0.72161,49.122994,0.011719,0.036606,1.001221,-0.022594,-0.016443,-0.014417,62.175674,18.912033,-150.553101,,,
729606333.201609,2.477441,-0.722001,49.121009,0.011719,0.036606,1.001221,-0.014931,-0.004706,-0.008594,62.175674,18.912033,-150.553101,,,
729606333.204955,2.477441,-0.723446,49.119647,0.011719,0.036606,1.001221,-0.014931,-0.004706,-0.008594,62.175674,18.912033,-150.553101,,,
729606333.208278,2.474876,-0.723446,49.119647,0.01181,0.035065,1.007019,-0.014931,-0.004706,-0.008594,62.175674,18.912033,-150.553101,,,
729606333.211652,2.471666,-0.721386,49.118752,0.01181,0.035065,1.007019,-0.008711,0.000543,-0.003544,62.175674,18.912033,-150.553101,,,
729606333.214983,2.471666,-0.721386,49.117807,0.01181,0.035065,1.007019,-0.008711,0.000543,-0.003544,62.175674,18.912033,-150.553101,,,
729606333.218257,2.469207,-0.719806,49.117807,0.019119,0.039536,1.001114,-0.008711,0.000543,-0.003544,62.038895,19.240723,-150.47847,,,
729606333.221607,2.465,-0.714596,49.115997,0.019119,0.039536,1.001114,-0.012138,0.014759,-0.009194,62.038895,19.240723,-150.47847,,,
729606333.225042,2.461228,-0.709641,49.112875,0.019699,0.044479,0.99588,-0.012138,0.014759,-0.009194,62.038895,19.240723,-150.47847,,,
729606333.22828,2.461228,-0.709641,49.112875,0.019699,0.044479,0.99588,-0.012138,0.014759,-0.009194,62.038895,19.240723,-150.47847,,,
729606333.231632,2.455468,-0.703358,49.1085,0.019699,0.044479,0.99588,-0.017526,0.022191,-0.013978,62.038895,19.240723,-150.47847,,,
729606333.235017,2.449245,-0.697527,49.103587,0.01973,0.047256,0.990417,-0.017526,0.022191,-0.013978,62.038895,19.240723,-150.47847,,,
729606333.238301,2.449245,-0.697527,49.103587,0.01973,0.047256,0.990417,-0.017526,0.022191,-0.013978,62.038895,19.240723,-150.47847,,,
729606333.241646,2.442874,-0.692058,49.098237,0.01973,0.047256,0.990417,-0.018388,0.019806,-0.017894,62.038895,19.240723,-150.47847,,,
729606333.24494,2.442874,-0.692058,49.098237,0.01973,0.047256,0.990417,-0.018388,0.019806,-0.017894,62.038895,19.240723,-150.47847,,,
729606333.248292,2.437163,-0.688804,49.092621,0.01947,0.046616,0.989777,-0.018388,0.019806,-0.017894,62.038895,19.240723,-150.47847,,,
729606333.251671,2.430709,-0.688947,49.087169,0.01947,0.046616,0.989777,-0.021159,0.002091,-0.018884,62.038895,19.240723,-150.47847,,,
729606333.254948,2.430709,-0.688947,49.087169,0.01947,0.046616,0.989777,-0.021159,0.002091,-0.018884,62.038895,19.240723,-150.47847,,,
729606333.258329,2.423333,-0.691692,49.081467,0.018158,0.046646,0.987015,-0.021159,0.002091,-0.018884,62.038895,19.240723,-150.47847,,,
729606333.26159,2.414991,-0.697878,49.075627,0.018158,0.046646,0.987015,-0.024737,-0.014744,-0.022711,62.019165,19.102554,-150.406021,,,
729606333.265069,2.414991,-0.697878,49.075627,0.018158,0.046646,0.987015,-0.024737,-0.014744,-0.022711,62.019165,19.102554,-150.406021,,,
729606333.268271,2.406585,-0.704257,49.069564,0.014725,0.04628,0.986221,-0.024737,-0.014744,-0.022711,62.019165,19.102554,-150.406021,,,
729606333.27162,2.396432,-0.710967,49.062562,0.014725,0.04628,0.986221,-0.032187,-0.015954,-0.025638,62.019165,19.102554,-150.406021,,,
729606333.274791,2.396432,-0.710967,49.062562,0.014725,0.04628,0.986221,-0.032187,-0.015954,-0.025638,62.019165,19.102554,-150.406021,,,
729606333.278354,2.386433,-0.715572,49.05463,0.01622,0.04538,0.995605,-0.032187,-0.015954,-0.025638,62.019165,19.102554,-150.406021,,,
729606333.281617,2.374911,-0.717118,49.046139,0.01622,0.04538,0.995605,-0.034321,-0.007171,-0.031144,62.019165,19.102554,-150.406021,,,
729606333.284985,2.374911,-0.717118,49.046139,0.01622,0.04538,0.995605,-0.034321,-0.007171,-0.031144,62.019165,19.102554,-150.406021,,,
729606333.28826,2.364783,-0.717421,49.037975,0.016113,0.043533,0.99968,-0.034321,-0.007171,-0.031144,62.019165,19.102554,-150.406021,,,
729606333.291621,2.353892,-0.717045,49.030986,0.016113,0.043533,0.99968,-0.033936,0.004226,-0.0258,62.019165,19.102554,-150.406021,,,
729606333.295,2.353892,-0.717045,49.030986,0.016113,0.043533,0.99968,-0.033936,0.004226,-0.0258,62.019165,19.102554,-150.406021,,,
729606333.298285,2.344688,-0.715537,49.025253,0.012115,0.041489,1.002045,-0.033936,0.004226,-0.0258,62.019165,19.102554,-150.406021,,,
729606333.301599,2.336177,-0.717045,49.021153,0.012115,0.041489,1.002045,-0.030663,0.004588,-0.013527,62.085403,19.305038,-150.503021,,,
729606333.30503,2.336177,-0.717045,49.021153,0.012115,0.041489,1.002045,-0.030663,0.004588,-0.013527,62.085403,19.305038,-150.503021,,,
729606333.30833,2.328796,-0.716126,49.01835,0.007095,0.039932,1.000854,-0.030663,0.004588,-0.013527,62.085403,19.305038,-150.503021,,,
729606333.311612,2.324515,-0.717318,49.016192,0.007095,0.039932,1.000854,-0.01612,0.005012,-0.007837,62.085403,19.305038,-150.503021,,,
729606333.314927,2.324515,-0.717318,49.016192,0.007095,0.039932,1.000854,-0.01612,0.005012,-0.007837,62.085403,19.305038,-150.503021,,,
729606333.318343,2.321395,-0.716097,49.014208,0.004303,0.037888,1.0056,-0.01612,0.005012,-0.007837,62.085403,19.305038,-150.503021,,,
729606333.321593,2.32163,-0.718589,49.012859,0.004303,0.037888,1.0056,-0.00327,0.003855,-0.00587,62.085403,19.305038,-150.503021,,,
729606333.325033,2.32163,-0.718589,49.012859,0.004303,0.037888,1.0056,-0.00327,0.003855,-0.00587,62.085403,19.305038,-150.503021,,,
729606333.328262,2.321109,-0.720445,49.011889,0.005676,0.039856,1.005646,-0.00327,0.003855,-0.00587,62.085403,19.305038,-150.503021,,,
729606333.3316,2.322157,-0.726661,49.01078,0.005676,0.039856,1.005646,-0.002438,-0.008122,-0.00434,62.085403,19.305038,-150.503021,,,
729606333.334944,2.322157,-0.726661,49.01078,0.005676,0.039856,1.005646,-0.002438,-0.008122,-0.00434,62.085403,19.305038,-150.503021,,,
729606333.338285,2.320675,-0.731561,49.009242,0.007339,0.046143,0.99855,-0.002438,-0.008122,-0.00434,62.085403,19.305038,-150.503021,,,
729606333.34164,2.319847,-0.73791,49.0078,0.007339,0.046143,0.99855,-0.007507,-0.013821,-0.007003,62.221161,19.271729,-150.291748,,,
729606333.344927,2.319847,-0.73791,49.0078,0.007339,0.046143,0.99855,-0.007507,-0.013821,-0.007003,62.221161,19.271729,-150.291748,,,
729606333.34828,2.31678,-0.741897,49.006103,0.007919,0.048203,0.998245,-0.007507,-0.013821,-0.007003,62.221161,19.271729,-150.291748,,,
729606333.351597,2.314347,-0.745437,49.00457,0.007919,0.048203,0.998245,-0.012532,-0.008027,-0.00655,62.221161,19.271729,-150.291748,,,
729606333.355018,2.314347,-0.745437,49.00457,0.007919,0.048203,0.998245,-0.012532,-0.008027,-0.00655,62.221161,19.271729,-150.291748,,,
729606333.35828,2.310793,-0.746675,49.003273,0.014755,0.047195,1.003204,-0.012532,-0.008027,-0.00655,62.221161,19.271729,-150.291748,,,
729606333.361602,2.308799,-0.747093,49.001805,0.014755,0.047195,1.003204,-0.010319,0.005514,-0.006593,62.221161,19.271729,-150.291748,,,
729606333.364946,2.308799,-0.747093,49.001805,0.014755,0.047195,1.003204,-0.010319,0.005514,-0.006593,62.221161,19.271729,-150.291748,,,
729606333.368369,2.306677,-0.744588,49.000419,0.016861,0.044586,1.003387,-0.010319,0.005514,-0.006593,62.221161,19.271729,-150.291748,,,
729606333.371593,2.30637,-0.741456,48.999803,0.016861,0.044586,1.003387,-0.001797,0.015245,-0.00383,62.221161,19.271729,-150.291748,,,
729606333.374954,2.30637,-0.741456,48.999803,0.016861,0.044586,1.003387,-0.001797,0.015245,-0.00383,62.221161,19.271729,-150.291748,,,
729606333.378278,2.30613,-0.736767,49.000021,0.012314,0.040527,0.999878,-0.001797,0.015245,-0.00383,62.221161,19.271729,-150.291748,,,
729606333.381628,2.307276,-0.730202,49.001032,0.012314,0.040527,0.999878,0.003153,0.0251,-0.000296,62.312729,19.184525,-150.272751,,,
729606333.384953,2.307276,-0.730202,49.001032,0.012314,0.040527,0.999878,0.003153,0.0251,-0.000296,62.312729,19.184525,-150.272751,,,
729606333.388288,2.309661,-0.723745,49.002739,0.009583,0.039459,0.996582,0.003153,0.0251,-0.000296,62.312729,19.184525,-150.272751,,,
729606333.39161,2.312184,-0.715929,49.004208,0.009583,0.039459,0.996582,0.011634,0.02412,0.00308,62.312729,19.184525,-150.272751,,,
729606333.394994,2.312184,-0.715929,49.004208,0.009583,0.039459,0.996582,0.011634,0.02412,0.00308,62.312729,19.184525,-150.272751,,,
729606333.398275,2.314743,-0.711966,49.005562,0.012833,0.04335,0.993805,0.011634,0.02412,0.00308,62.312729,19.184525,-150.272751,,,
729606333.401593,2.316546,-0.706551,49.006923,0.012833,0.04335,0.993805,0.011052,0.012035,0.001921,62.312729,19.184525,-150.272751,,,
729606333.404933,2.316546,-0.706551,49.006923,0.012833,0.04335,0.993805,0.011052,0.012035,0.001921,62.312729,19.184525,-150.272751,,,
729606333.408348,2.318982,-0.705077,49.0086,0.00856,0.043961,0.987122,0.011052,0.012035,0.001921,62.312729,19.184525,-150.272751,,,
729606333.411596,2.320743,-0.702794,49.010333,0.00856,0.043961,0.987122,0.006718,0.003307,0.004797,62.312729,19.184525,-150.272751,,,
729606333.415025,2.320743,-0.702794,49.010333,0.00856,0.043961,0.987122,0.006718,0.003307,0.004797,62.312729,19.184525,-150.272751,,,
729606333.4183,2.321497,-0.703833,49.012092,0.007202,0.043762,0.985794,0.006718,0.003307,0.004797,62.312729,19.184525,-150.272751,,,
729606333.421639,2.323024,-0.704407,49.013442,0.007202,0.043762,0.985794,-0.000782,-0.005877,0.003917,62.312729,19.184525,-150.272751,,,
729606333.425024,2.323024,-0.704407,49.013442,0.007202,0.043762,0.985794,-0.000782,-0.005877,0.003917,62.081955,19.153976,-150.35466,,,
729606333.428297,2.322036,-0.708193,49.014284,0.011841,0.043854,0.987534,-0.000782,-0.005877,0.003917,62.081955,19.153976,-150.35466,,,
729606333.431608,2.32245,-0.711813,49.014598,0.011841,0.043854,0.987534,-0.005464,-0.014769,0.001676,62.081955,19.153976,-150.35466,,,
729606333.435029,2.32245,-0.711813,49.014598,0.011841,0.043854,0.987534,-0.005464,-0.014769,0.001676,62.081955,19.153976,-150.35466,,,
729606333.438277,2.320192,-0.715639,49.014537,0.013885,0.043289,0.99147,-0.005464,-0.014769,0.001676,62.081955,19.153976,-150.35466,,,
729606333.44162,2.318352,-0.719844,49.014203,0.013885,0.043289,0.99147,-0.011596,-0.008223,-0.001953,62.081955,19.153976,-150.35466,,,
729606333.44498,2.318352,-0.719844,49.014203,0.013885,0.043289,0.99147,-0.011596,-0.008223,-0.001953,62.081955,19.153976,-150.35466,,,
729606333.448322,2.314741,-0.721448,49.01386,0.014481,0.034225,0.99411,-0.011596,-0.008223,-0.001953,62.081955,19.153976,-150.35466,,,
729606333.451594,2.311816,-0.722418,49.013737,0.014481,0.034225,0.99411,-0.008355,0.002455,-0.000746,62.081955,19.153976,-150.35466,,,
729606333.454951,2.311816,-0.722418,49.013737,0.014481,0.034225,0.99411,-0.008355,0.002455,-0.000746,62.081955,19.153976,-150.35466,,,
729606333.458394,2.308803,-0.721102,49.013287,0.014618,0.031097,1.000748,-0.008355,0.002455,-0.000746,62.081955,19.153976,-150.35466,,,
729606333.461595,2.306072,-0.718296,49.012834,0.014618,0.031097,1.000748,-0.005084,0.01184,-0.003967,62.081955,19.153976,-150.35466,,,
729606333.464938,2.306072,-0.718296,49.012834,0.014618,0.031097,1.000748,-0.005084,0.01184,-0.003967,62.085358,19.386475,-150.554153,,,
729606333.468292,2.304587,-0.716374,49.013018,0.013504,0.028992,0.999542,-0.005084,0.01184,-0.003967,62.085358,19.386475,-150.554153,,,
729606333.471596,2.30464,-0.714135,49.014052,0.013504,0.028992,0.999542,-0.002175,0.008548,0.001856,62.085358,19.386475,-150.554153,,,
729606333.474982,2.30464,-0.714135,49.014052,0.013504,0.028992,0.999542,-0.002175,0.008548,0.001856,62.085358,19.386475,-150.554153,,,
729606333.478285,2.305376,-0.711868,49.015816,0.011688,0.027023,0.996979,-0.002175,0.008548,0.001856,62.085358,19.386475,-150.554153,,,
729606333.481603,2.308141,-0.708559,49.017965,0.011688,0.027023,0.996979,0.007448,0.015119,0.005343,62.085358,19.386475,-150.554153,,,
729606333.484943,2.308141,-0.708559,49.017965,0.011688,0.027023,0.996979,0.007448,0.015119,0.005343,62.085358,19.386475,-150.554153,,,
729606333.488338,2.312581,-0.704259,49.020196,0.014496,0.026062,1.001373,0.007448,0.015119,0.005343,62.085358,19.386475,-150.554153,,,
729606333.491622,2.319974,-0.697286,49.021932,0.014496,0.026062,1.001373,0.022482,0.02223,0.004545,62.085358,19.386475,-150.554153,,,
729606333.494941,2.319974,-0.697286,49.021932,0.014496,0.026062,1.001373,0.022482,0.02223,0.004545,62.085358,19.386475,-150.554153,,,
729606333.498281,2.32801,-0.691099,49.023279,0.018951,0.027878,1.003067,0.022482,0.02223,0.004545,62.085358,19.386475,-150.554153,,,
729606333.501597,2.337228,-0.682196,49.02371,0.018951,0.027878,1.003067,0.028651,0.0302,5.9e-05,62.085358,19.386475,-150.554153,,,
729606333.504934,2.337228,-0.682196,49.02371,0.018951,0.027878,1.003067,0.028651,0.0302,5.9e-05,62.160004,19.206528,-150.348923,,,
729606333.508276,2.345308,-0.67306,49.023632,0.020355,0.033493,0.997574,0.028651,0.0302,5.9e-05,62.160004,19.206528,-150.348923,,,
729606333.511595,2.353422,-0.662936,49.023946,0.020355,0.033493,0.997574,0.025212,0.039964,-0.001921,62.160004,19.206528,-150.348923,,,
729606333.515015,2.353422,-0.662936,49.023946,0.020355,0.033493,0.997574,0.025212,0.039964,-0.001921,62.160004,19.206528,-150.348923,,,
729606333.518281,2.358784,-0.651381,49.024059,0.016251,0.03746,0.985687,0.025212,0.039964,-0.001921,62.160004,19.206528,-150.348923,,,
729606333.521603,2.36139,-0.640414,49.024268,0.016251,0.03746,0.985687,0.009645,0.044009,-0.001307,62.160004,19.206528,-150.348923,,,
729606333.525011,2.36139,-0.640414,49.024268,0.016251,0.03746,0.985687,0.009645,0.044009,-0.001307,62.160004,19.206528,-150.348923,,,
729606333.528323,2.361179,-0.629554,49.024679,0.013992,0.03894,0.978806,0.009645,0.044009,-0.001307,62.160004,19.206528,-150.348923,,,
729606333.531593,2.357055,-0.62217,49.024729,0.013992,0.03894,0.978806,-0.011179,0.034683,-0.003212,62.160004,19.206528,-150.348923,,,
729606333.534963,2.357055,-0.62217,49.024729,0.013992,0.03894,0.978806,-0.011179,0.034683,-0.003212,62.160004,19.206528,-150.348923,,,
729606333.538265,2.352509,-0.615083,49.023384,0.017258,0.041718,0.972626,-0.011179,0.034683,-0.003212,62.160004,19.206528,-150.348923,,,
729606333.541605,2.34342,-0.610433,49.020387,0.017258,0.041718,0.972626,-0.02123,0.020774,-0.010441,62.160004,19.206528,-150.348923,,,
729606333.544948,2.34342,-0.610433,49.020387,0.017258,0.041718,0.972626,-0.02123,0.020774,-0.010441,62.160004,19.206528,-150.348923,,,
729606333.548269,2.335246,-0.606072,49.016431,0.014328,0.041473,0.976379,-0.02123,0.020774,-0.010441,62.26326,19.297485,-150.469971,,,
729606333.551596,2.323148,-0.60298,49.011812,0.014328,0.041473,0.976379,-0.031182,0.015726,-0.018053,62.26326,19.297485,-150.469971,,,
729606333.555013,2.323148,-0.60298,49.011812,0.014328,0.041473,0.976379,-0.031182,0.015726,-0.018053,62.26326,19.297485,-150.469971,,,
729606333.558311,2.31308,-0.599078,49.007072,0.012466,0.041641,0.980728,-0.031182,0.015726,-0.018053,62.26326,19.297485,-150.469971,,,
729606333.561588,2.29841,-0.595599,49.002485,0.012466,0.041641,0.980728,-0.037703,0.015419,-0.016714,62.26326,19.297485,-150.469971,,,
729606333.564941,2.29841,-0.595599,49.002485,0.012466,0.041641,0.980728,-0.037703,0.015419,-0.016714,62.26326,19.297485,-150.469971,,,
729606333.568333,2.286399,-0.591119,48.998154,0.014664,0.040817,0.98436,-0.037703,0.015419,-0.016714,62.26326,19.297485,-150.469971,,,
729606333.571586,2.271382,-0.587431,48.994558,0.014664,0.040817,0.98436,-0.040422,0.021996,-0.015413,62.26326,19.297485,-150.469971,,,
729606333.574941,2.271382,-0.587431,48.994558,0.014664,0.040817,0.98436,-0.040422,0.021996,-0.015413,62.26326,19.297485,-150.469971,,,
729606333.578289,2.259591,-0.580507,48.991443,0.016159,0.042801,0.98822,-0.040422,0.021996,-0.015413,62.26326,19.297485,-150.469971,,,
729606333.581592,2.245019,-0.575689,48.988577,0.016159,0.042801,0.98822,-0.038558,0.031305,-0.011415,62.26326,19.297485,-150.469971,,,
729606333.584948,2.245019,-0.575689,48.988577,0.016159,0.042801,0.98822,-0.038558,0.031305,-0.011415,62.26326,19.297485,-150.469971,,,
729606333.588267,2.232037,-0.566926,48.985494,0.017715,0.044098,0.993973,-0.038558,0.031305,-0.011415,62.027878,19.320908,-150.797592,,,
729606333.59166,2.217841,-0.561383,48.982365,0.017715,0.044098,0.993973,-0.047217,0.034274,-0.010754,62.027878,19.320908,-150.797592,,,
729606333.594934,2.217841,-0.561383,48.982365,0.017715,0.044098,0.993973,-0.047217,0.034274,-0.010754,62.027878,19.320908,-150.797592,,,
729606333.598287,2.204471,-0.552651,48.979066,0.012848,0.043228,0.992477,-0.047217,0.034274,-0.010754,62.027878,19.320908,-150.797592,,,
729606333.601617,2.191191,-0.545579,48.97629,0.012848,0.043228,0.992477,-0.048494,0.032451,-0.007559,62.027878,19.320908,-150.797592,,,
729606333.605012,2.191191,-0.545579,48.97629,0.012848,0.043228,0.992477,-0.048494,0.032451,-0.007559,62.027878,19.320908,-150.797592,,,
729606333.608302,2.177593,-0.538265,48.974749,0.006104,0.041016,0.999786,-0.048494,0.032451,-0.007559,62.027878,19.320908,-150.797592,,,
729606333.611675,2.163921,-0.535012,48.974727,0.006104,0.041016,0.999786,-0.050172,0.021934,-0.003481,62.027878,19.320908,-150.797592,,,
729606333.614952,2.163921,-0.535012,48.974727,0.006104,0.041016,0.999786,-0.050172,0.021934,-0.003481,62.027878,19.320908,-150.797592,,,
729606333.618287,2.147759,-0.531357,48.975307,0.00415,0.036804,0.996765,-0.050172,0.021934,-0.003481,62.027878,19.320908,-150.797592,,,
729606333.621615,2.131286,-0.530945,48.976042,0.00415,0.036804,0.996765,-0.062072,0.011625,0.001239,62.027878,19.320908,-150.797592,,,
729606333.624958,2.131286,-0.530945,48.976042,0.00415,0.036804,0.996765,-0.062072,0.011625,0.001239,62.027878,19.320908,-150.797592,,,
729606333.628274,2.111458,-0.527403,48.975708,0.006317,0.039536,0.998306,-0.062072,0.011625,0.001239,62.151154,19.392303,-150.440308,,,
729606333.631647,2.090851,-0.523746,48.974237,0.006317,0.039536,0.998306,-0.074941,0.02165,-0.003383,62.151154,19.392303,-150.440308,,,
