Time (sec),Pitch (deg),Roll (deg),Yaw(deg),X-Acceleration (g),Y-Acceleration (g),Z-Acceleration (g),Pitch Rate (deg/sec),Roll Rate (deg/sec),Yaw Rate (deg/sec),Magnetic Field in X direction (uT),Magnetic Field in Y direction (uT),Magnetic Field in Z Direction (uT),Latitude (deg),Longitude (deg),Altitude (m)
729600985.08885,1.96542,-0.376673,-6.102224,0.001373,0.011185,0.993011,0.002815,0.056928,-0.041576,66.524811,7.617828,-147.863678,,,
729600985.092188,1.960712,-0.359255,-6.11286,0.008087,0.017181,0.982956,-0.021357,0.067739,-0.037997,66.524811,7.617828,-147.863678,,,
729600985.095534,1.960712,-0.359255,-6.11286,0.008087,0.017181,0.982956,-0.021357,0.067739,-0.037997,66.524811,7.617828,-147.863678,,,
729600985.098851,1.952388,-0.340113,-6.123379,0.008087,0.017181,0.982956,-0.021357,0.067739,-0.037997,66.524811,7.617828,-147.863678,,,
729600985.102187,1.93997,-0.323977,-6.133766,0.011383,0.026016,0.971909,-0.045833,0.062995,-0.037565,66.524811,7.617828,-147.863678,,,
729600985.105528,1.93997,-0.323977,-6.133766,0.011383,0.026016,0.971909,-0.045833,0.062995,-0.037565,66.524811,7.617828,-147.863678,,,
729600985.108853,1.924847,-0.307901,-6.14434,0.011383,0.026016,0.971909,-0.045833,0.062995,-0.037565,66.609253,7.511642,-148.113129,,,
729600985.112192,1.906999,-0.297548,-6.155249,0.010925,0.033249,0.964661,-0.064712,0.04222,-0.040484,66.609253,7.511642,-148.113129,,,
729600985.115525,1.906999,-0.297548,-6.155249,0.010925,0.033249,0.964661,-0.064712,0.04222,-0.040484,66.609253,7.511642,-148.113129,,,
729600985.118864,1.887941,-0.287059,-6.167132,0.010925,0.033249,0.964661,-0.064712,0.04222,-0.040484,66.609253,7.511642,-148.113129,,,
729600985.122178,1.867685,-0.282671,-6.180302,0.014099,0.035172,0.971191,-0.07271,0.015334,-0.049953,66.609253,7.511642,-148.113129,,,
729600985.125513,1.867685,-0.282671,-6.180302,0.014099,0.035172,0.971191,-0.07271,0.015334,-0.049953,66.609253,7.511642,-148.113129,,,
729600985.128848,1.8468,-0.281327,-6.195891,0.014099,0.035172,0.971191,-0.07271,0.015334,-0.049953,66.609253,7.511642,-148.113129,,,
729600985.132178,1.8468,-0.281327,-6.195891,0.022064,0.035416,0.978806,-0.072228,-0.016991,-0.067712,66.609253,7.511642,-148.113129,,,
729600985.135513,1.82518,-0.286025,-6.213986,0.022064,0.035416,0.978806,-0.072228,-0.016991,-0.067712,66.609253,7.511642,-148.113129,,,
729600985.138853,1.803865,-0.292004,-6.234018,0.022064,0.035416,0.978806,-0.072228,-0.016991,-0.067712,66.609253,7.511642,-148.113129,,,
729600985.142178,1.779164,-0.299083,-6.255672,0.026749,0.035248,0.98317,-0.078901,-0.024007,-0.079021,66.609253,7.511642,-148.113129,,,
729600985.14551,1.779164,-0.299083,-6.255672,0.026749,0.035248,0.98317,-0.078901,-0.024007,-0.079021,66.609253,7.511642,-148.113129,,,
729600985.148843,1.755868,-0.30616,-6.278124,0.026749,0.035248,0.98317,-0.078901,-0.024007,-0.079021,66.597534,7.643646,-147.771988,,,
729600985.152178,1.727691,-0.311646,-6.300294,0.028259,0.03685,0.992691,-0.085889,-0.020635,-0.0768,66.597534,7.643646,-147.771988,,,
729600985.155524,1.727691,-0.311646,-6.300294,0.028259,0.03685,0.992691,-0.085889,-0.020635,-0.0768,66.597534,7.643646,-147.771988,,,
729600985.158907,1.701342,-0.316998,-6.32189,0.028259,0.03685,0.992691,-0.085889,-0.020635,-0.0768,66.597534,7.643646,-147.771988,,,
729600985.162169,1.669928,-0.319633,-6.343482,0.030472,0.045578,0.993652,-0.097279,-0.00455,-0.076663,66.597534,7.643646,-147.771988,,,
729600985.165525,1.669928,-0.319633,-6.343482,0.030472,0.045578,0.993652,-0.097279,-0.00455,-0.076663,66.597534,7.643646,-147.771988,,,
729600985.168858,1.641142,-0.319469,-6.365182,0.030472,0.045578,0.993652,-0.097279,-0.00455,-0.076663,66.597534,7.643646,-147.771988,,,
729600985.172178,1.641142,-0.316739,-6.386973,0.034683,0.055557,1.002594,-0.105855,0.019872,-0.077504,66.597534,7.643646,-147.771988,,,
729600985.175519,1.609422,-0.316739,-6.386973,0.034683,0.055557,1.002594,-0.105855,0.019872,-0.077504,66.597534,7.643646,-147.771988,,,
729600985.17885,1.578546,-0.310807,-6.410385,0.034683,0.055557,1.002594,-0.105855,0.019872,-0.077504,66.597534,7.643646,-147.771988,,,
729600985.182174,1.548129,-0.306579,-6.435563,0.038361,0.061066,1.007492,-0.107961,0.019552,-0.090031,66.597534,7.643646,-147.771988,,,
729600985.1856,1.548129,-0.306579,-6.435563,0.038361,0.061066,1.007492,-0.107961,0.019552,-0.090031,66.597534,7.643646,-147.771988,,,
729600985.188858,1.516201,-0.301482,-6.461401,0.038361,0.061066,1.007492,-0.107961,0.019552,-0.090031,66.597534,7.643646,-147.771988,,,
729600985.192176,1.516201,-0.301482,-6.488149,0.03183,0.054565,1.000931,-0.112286,0.021549,-0.096617,66.690445,7.978394,-147.95488,,,
729600985.19551,1.486059,-0.297624,-6.488149,0.03183,0.054565,1.000931,-0.112286,0.021549,-0.096617,66.690445,7.978394,-147.95488,,,
729600985.198843,1.453669,-0.291287,-6.51556,0.03183,0.054565,1.000931,-0.112286,0.021549,-0.096617,66.690445,7.978394,-147.95488,,,
729600985.202177,1.423635,-0.287866,-6.54255,0.018646,0.046127,1.005814,-0.115215,0.023979,-0.094332,66.690445,7.978394,-147.95488,,,
729600985.205533,1.423635,-0.287866,-6.54255,0.018646,0.046127,1.005814,-0.115215,0.023979,-0.094332,66.690445,7.978394,-147.95488,,,
729600985.208941,1.390556,-0.28219,-6.569412,0.018646,0.046127,1.005814,-0.115215,0.023979,-0.094332,66.690445,7.978394,-147.95488,,,
729600985.212216,1.390556,-0.28219,-6.569412,0.008728,0.038498,1.008926,-0.1143,0.006261,-0.092308,66.690445,7.978394,-147.95488,,,
729600985.215519,1.360827,-0.284368,-6.595844,0.008728,0.038498,1.008926,-0.1143,0.006261,-0.092308,66.690445,7.978394,-147.95488,,,
729600985.218844,1.328994,-0.2855,-6.622274,0.008728,0.038498,1.008926,-0.1143,0.006261,-0.092308,66.690445,7.978394,-147.95488,,,
729600985.222177,1.328994,-0.2855,-6.648493,0.000763,0.038528,1.008972,-0.101142,-0.022981,-0.091908,66.690445,7.978394,-147.95488,,,
729600985.225507,1.302497,-0.297045,-6.648493,0.000763,0.038528,1.008972,-0.101142,-0.022981,-0.091908,66.690445,7.978394,-147.95488,,,
729600985.228845,1.274322,-0.305209,-6.67446,0.000763,0.038528,1.008972,-0.101142,-0.022981,-0.091908,66.690445,7.978394,-147.95488,,,
729600985.232175,1.274322,-0.305209,-6.67446,-0.01059,0.035492,1.016479,-0.083883,-0.038575,-0.093718,66.652206,8.0056,-148.267944,,,
729600985.235569,1.253297,-0.321926,-6.700535,-0.01059,0.035492,1.016479,-0.083883,-0.038575,-0.093718,66.652206,8.0056,-148.267944,,,
729600985.23885,1.230899,-0.335337,-6.726678,-0.01059,0.035492,1.016479,-0.083883,-0.038575,-0.093718,66.652206,8.0056,-148.267944,,,
729600985.242219,1.230899,-0.359754,-6.751904,-0.017029,0.025497,1.029068,-0.057625,-0.066805,-0.088402,66.652206,8.0056,-148.267944,,,
729600985.245584,1.219519,-0.359754,-6.751904,-0.017029,0.025497,1.029068,-0.057625,-0.066805,-0.088402,66.652206,8.0056,-148.267944,,,
729600985.248905,1.2056,-0.380728,-6.77666,-0.017029,0.025497,1.029068,-0.057625,-0.066805,-0.088402,66.652206,8.0056,-148.267944,,,
729600985.252219,1.2056,-0.380728,-6.77666,-0.021881,0.015381,1.032669,-0.023728,-0.083358,-0.079896,66.652206,8.0056,-148.267944,,,
729600985.255529,1.206366,-0.412149,-6.800007,-0.021881,0.015381,1.032669,-0.023728,-0.083358,-0.079896,66.652206,8.0056,-148.267944,,,
729600985.258858,1.20176,-0.436679,-6.821587,-0.021881,0.015381,1.032669,-0.023728,-0.083358,-0.079896,66.652206,8.0056,-148.267944,,,
729600985.262168,1.20176,-0.436679,-6.821587,-0.023102,0.001633,1.040787,0.008657,-0.084495,-0.062538,66.652206,8.0056,-148.267944,,,
729600985.265515,1.211695,-0.468953,-6.840485,-0.023102,0.001633,1.040787,0.008657,-0.084495,-0.062538,66.652206,8.0056,-148.267944,,,
729600985.268844,1.215702,-0.493492,-6.856509,-0.023102,0.001633,1.040787,0.008657,-0.084495,-0.062538,66.652206,8.0056,-148.267944,,,
729600985.272191,1.215702,-0.493492,-6.856509,-0.022171,-0.002304,1.038986,0.023546,-0.077948,-0.039349,66.5578,8.000458,-148.00148,,,
729600985.275509,1.228705,-0.521428,-6.869091,-0.022171,-0.002304,1.038986,0.023546,-0.077948,-0.039349,66.5578,8.000458,-148.00148,,,
729600985.27886,1.236409,-0.543225,-6.878407,-0.022171,-0.002304,1.038986,0.023546,-0.077948,-0.039349,66.5578,8.000458,-148.00148,,,
729600985.282303,1.236409,-0.543225,-6.878407,-0.015732,0.004395,1.031342,0.033172,-0.053317,-0.022188,66.5578,8.000458,-148.00148,,,
729600985.285577,1.249945,-0.562598,-6.885215,-0.015732,0.004395,1.031342,0.033172,-0.053317,-0.022188,66.5578,8.000458,-148.00148,,,
729600985.288849,1.2602,-0.57666,-6.890631,-0.015732,0.004395,1.031342,0.033172,-0.053317,-0.022188,66.5578,8.000458,-148.00148,,,
729600985.29219,1.2602,-0.57666,-6.890631,-0.015732,0.004395,1.031342,0.033172,-0.053317,-0.022188,66.5578,8.000458,-148.00148,,,
729600985.295529,1.274715,-0.58747,-6.893868,-0.007507,0.016785,1.031372,0.045962,-0.034104,-0.00708,66.5578,8.000458,-148.00148,,,
729600985.298856,1.288346,-0.597173,-6.894257,-0.007507,0.016785,1.031372,0.045962,-0.034104,-0.00708,66.5578,8.000458,-148.00148,,,
729600985.302173,1.288346,-0.597173,-6.894257,-0.005646,0.021606,1.024521,0.056947,-0.025413,0.008234,66.5578,8.000458,-148.00148,,,
729600985.305526,1.30562,-0.60386,-6.892465,-0.005646,0.021606,1.024521,0.056947,-0.025413,0.008234,66.5578,8.000458,-148.00148,,,
729600985.308865,1.32325,-0.611524,-6.888189,-0.005646,0.021606,1.024521,0.056947,-0.025413,0.008234,66.5578,8.000458,-148.00148,,,
729600985.312043,1.32325,-0.611524,-6.888189,-0.005646,0.021606,1.024521,0.056947,-0.025413,0.008234,66.5578,8.000458,-148.00148,,,
729600985.315548,1.345369,-0.614899,-6.881728,-0.006454,0.022842,1.020065,0.080676,-0.015602,0.023669,66.562683,7.914383,-148.122192,,,
729600985.31892,1.369349,-0.620681,-6.874094,-0.006454,0.022842,1.020065,0.080676,-0.015602,0.023669,66.562683,7.914383,-148.122192,,,
729600985.322216,1.369349,-0.620681,-6.874094,-0.006454,0.022842,1.020065,0.080676,-0.015602,0.023669,66.562683,7.914383,-148.122192,,,
729600985.32525,1.394955,-0.623798,-6.867302,-0.000702,0.024582,1.017212,0.094278,-0.020649,0.018257,66.562683,7.914383,-148.122192,,,
729600985.328948,1.423103,-0.631867,-6.862297,-0.000702,0.024582,1.017212,0.094278,-0.020649,0.018257,66.562683,7.914383,-148.122192,,,
729600985.332213,1.423103,-0.631867,-6.862297,-0.000702,0.024582,1.017212,0.107628,-0.034601,-0.003873,66.562683,7.914383,-148.122192,,,
729600985.335507,1.451494,-0.638194,-6.860531,0.012024,0.03215,1.008102,0.107628,-0.034601,-0.003873,66.562683,7.914383,-148.122192,,,
729600985.338846,1.482106,-0.649768,-6.862706,0.012024,0.03215,1.008102,0.107628,-0.034601,-0.003873,66.562683,7.914383,-148.122192,,,
729600985.342219,1.482106,-0.649768,-6.862706,0.012024,0.03215,1.008102,0.107628,-0.034601,-0.003873,66.562683,7.914383,-148.122192,,,
729600985.345523,1.509201,-0.65885,-6.868489,0.021057,0.035019,1.003708,0.105463,-0.045334,-0.028317,66.562683,7.914383,-148.122192,,,
729600985.348849,1.539905,-0.673017,-6.876558,0.021057,0.035019,1.003708,0.105463,-0.045334,-0.028317,66.562683,7.914383,-148.122192,,,
729600985.35218,1.539905,-0.673017,-6.876558,0.021057,0.035019,1.003708,0.105463,-0.045334,-0.028317,66.562683,7.914383,-148.122192,,,
729600985.355534,1.567791,-0.684524,-6.885478,0.020645,0.030136,0.989883,0.110105,-0.053502,-0.033654,66.521713,7.84494,-147.879364,,,
729600985.358847,1.599129,-0.700001,-6.893242,0.020645,0.030136,0.989883,0.110105,-0.053502,-0.033654,66.521713,7.84494,-147.879364,,,
729600985.362198,1.599129,-0.700001,-6.893242,0.020645,0.030136,0.989883,0.110105,-0.053502,-0.033654,66.521713,7.84494,-147.879364,,,
729600985.365508,1.627547,-0.711161,-6.89875,0.011322,0.017838,0.990845,0.107862,-0.045544,-0.017331,66.521713,7.84494,-147.879364,,,
729600985.368921,1.65819,-0.723328,-6.901432,0.011322,0.017838,0.990845,0.107862,-0.045544,-0.017331,66.521713,7.84494,-147.879364,,,
729600985.372296,1.65819,-0.723328,-6.901432,0.011322,0.017838,0.990845,0.107862,-0.045544,-0.017331,66.521713,7.84494,-147.879364,,,
729600985.375561,1.687233,-0.729309,-6.902434,0.012543,0.014374,0.992432,0.105981,-0.020916,-0.005061,66.521713,7.84494,-147.879364,,,
729600985.378836,1.717185,-0.733691,-6.903625,0.012543,0.014374,0.992432,0.105981,-0.020916,-0.005061,66.521713,7.84494,-147.879364,,,
729600985.382278,1.717185,-0.733691,-6.903625,0.012543,0.014374,0.992432,0.105981,-0.020916,-0.005061,66.521713,7.84494,-147.879364,,,
729600985.385519,1.745387,-0.73049,-6.906069,0.022385,0.021042,0.992371,0.103483,0.011814,-0.013148,66.521713,7.84494,-147.879364,,,
729600985.388845,1.774453,-0.726413,-6.910359,0.022385,0.021042,0.992371,0.103483,0.011814,-0.013148,66.521713,7.84494,-147.879364,,,
729600985.392238,1.774453,-0.726413,-6.910359,0.022385,0.021042,0.992371,0.103483,0.011814,-0.013148,66.521713,7.84494,-147.879364,,,
729600985.395517,1.800628,-0.715796,-6.918318,0.034836,0.033203,0.989273,0.094688,0.032171,-0.037752,66.60762,7.542252,-147.681946,,,
729600985.398844,1.826905,-0.705386,-6.930097,0.034836,0.033203,0.989273,0.094688,0.032171,-0.037752,66.60762,7.542252,-147.681946,,,
729600985.402248,1.826905,-0.705386,-6.930097,0.034836,0.033203,0.989273,0.094688,0.032171,-0.037752,66.60762,7.542252,-147.681946,,,
729600985.405518,1.850079,-0.690208,-6.944975,0.037933,0.038834,0.981064,0.081705,0.047638,-0.05854,66.60762,7.542252,-147.681946,,,
729600985.408841,1.873171,-0.677509,-6.962468,0.037933,0.038834,0.981064,0.081705,0.047638,-0.05854,66.60762,7.542252,-147.681946,,,
729600985.412222,1.873171,-0.677509,-6.962468,0.037933,0.038834,0.981064,0.081705,0.047638,-0.05854,66.60762,7.542252,-147.681946,,,
729600985.415507,1.895234,-0.667731,-6.982154,0.031281,0.043274,0.967758,0.072407,0.03403,-0.073939,66.60762,7.542252,-147.681946,,,
729600985.418845,1.915638,-0.65996,-7.003666,0.031281,0.043274,0.967758,0.072407,0.03403,-0.073939,66.60762,7.542252,-147.681946,,,
729600985.422222,1.915638,-0.65996,-7.003666,0.031281,0.043274,0.967758,0.072407,0.03403,-0.073939,66.60762,7.542252,-147.681946,,,
729600985.425569,1.935191,-0.658727,-7.026371,0.029694,0.047272,0.958862,0.064756,0.004779,-0.082776,66.60762,7.542252,-147.681946,,,
729600985.428833,1.953194,-0.660152,-7.050074,0.029694,0.047272,0.958862,0.064756,0.004779,-0.082776,66.60762,7.542252,-147.681946,,,
729600985.432236,1.953194,-0.660152,-7.050074,0.029694,0.047272,0.958862,0.064756,0.004779,-0.082776,66.60762,7.542252,-147.681946,,,
729600985.435502,1.969041,-0.667438,-7.07438,0.02832,0.04924,0.954468,0.061362,-0.028722,-0.087206,66.525909,7.372589,-147.894073,,,
729600985.438844,1.986453,-0.677435,-7.099297,0.02832,0.04924,0.954468,0.061362,-0.028722,-0.087206,66.525909,7.372589,-147.894073,,,
729600985.442203,1.986453,-0.677435,-7.099297,0.02832,0.04924,0.954468,0.061362,-0.028722,-0.087206,66.525909,7.372589,-147.894073,,,
729600985.445508,1.998934,-0.690833,-7.12444,0.03006,0.049835,0.959259,0.055461,-0.054096,-0.088673,66.525909,7.372589,-147.894073,,,
729600985.448841,2.014639,-0.708139,-7.149708,0.03006,0.049835,0.959259,0.055461,-0.054096,-0.088673,66.525909,7.372589,-147.894073,,,
729600985.452316,2.014639,-0.708139,-7.149708,0.03006,0.049835,0.959259,0.055461,-0.054096,-0.088673,66.525909,7.372589,-147.894073,,,
729600985.455521,2.02474,-0.727857,-7.175455,0.028641,0.044617,0.963959,0.045408,-0.066276,-0.092082,66.525909,7.372589,-147.894073,,,
729600985.458849,2.036423,-0.745852,-7.201844,0.028641,0.044617,0.963959,0.045408,-0.066276,-0.092082,66.525909,7.372589,-147.894073,,,
729600985.462201,2.036423,-0.745852,-7.201844,0.028641,0.044617,0.963959,0.045408,-0.066276,-0.092082,66.525909,7.372589,-147.894073,,,
729600985.465548,2.043933,-0.763882,-7.229577,0.038879,0.04332,0.969818,0.028231,-0.050328,-0.101905,66.525909,7.372589,-147.894073,,,
729600985.468846,2.05151,-0.776242,-7.25985,0.038879,0.04332,0.969818,0.028231,-0.050328,-0.101905,66.525909,7.372589,-147.894073,,,
729600985.4722,2.05151,-0.776242,-7.25985,0.038879,0.04332,0.969818,0.028231,-0.050328,-0.101905,66.525909,7.372589,-147.894073,,,
729600985.475606,2.058426,-0.788592,-7.29353,0.056305,0.048126,0.975342,0.022598,-0.027325,-0.126455,66.351791,7.597794,-147.540024,,,
729600985.478837,2.06537,-0.793264,-7.330791,0.056305,0.048126,0.975342,0.022598,-0.027325,-0.126455,66.351791,7.597794,-147.540024,,,
729600985.482189,2.06537,-0.793264,-7.330791,0.056305,0.048126,0.975342,0.022598,-0.027325,-0.126455,66.351791,7.597794,-147.540024,,,
729600985.48551,2.072841,-0.794434,-7.370321,0.060944,0.049149,0.981216,0.02162,0.016175,-0.142988,66.351791,7.597794,-147.540024,,,
729600985.488844,2.079749,-0.785404,-7.411115,0.060944,0.049149,0.981216,0.02162,0.016175,-0.142988,66.351791,7.597794,-147.540024,,,
729600985.492261,2.079749,-0.785404,-7.411115,0.060944,0.049149,0.981216,0.02162,0.016175,-0.142988,66.351791,7.597794,-147.540024,,,
729600985.495543,2.087629,-0.771329,-7.451643,0.048645,0.043762,0.981613,0.020939,0.064822,-0.14159,66.351791,7.597794,-147.540024,,,
729600985.498844,2.094131,-0.749569,-7.491082,0.048645,0.043762,0.981613,0.020939,0.064822,-0.14159,66.351791,7.597794,-147.540024,,,
729600985.502173,2.094131,-0.749569,-7.491082,0.048645,0.043762,0.981613,0.020939,0.064822,-0.14159,66.351791,7.597794,-147.540024,,,
729600985.505577,2.101804,-0.724224,-7.529161,0.032257,0.039246,0.977859,0.019885,0.102048,-0.132465,66.351791,7.597794,-147.540024,,,
729600985.508839,2.108132,-0.692449,-7.56634,0.032257,0.039246,0.977859,0.019885,0.102048,-0.132465,66.351791,7.597794,-147.540024,,,
729600985.512194,2.108132,-0.692449,-7.56634,0.032257,0.039246,0.977859,0.019885,0.102048,-0.132465,66.351791,7.597794,-147.540024,,,
729600985.515522,2.116195,-0.658896,-7.603467,0.026428,0.039978,0.97345,0.022003,0.127142,-0.13264,66.351791,7.597794,-147.540024,,,
729600985.518839,2.122492,-0.621521,-7.641903,0.026428,0.039978,0.97345,0.022003,0.127142,-0.13264,66.634888,7.411911,-147.732086,,,
729600985.52217,2.122492,-0.621521,-7.641903,0.026428,0.039978,0.97345,0.022003,0.127142,-0.13264,66.634888,7.411911,-147.732086,,,
729600985.525509,2.129089,-0.585444,-7.681725,0.023682,0.046112,0.969635,0.015867,0.129699,-0.142758,66.634888,7.411911,-147.732086,,,
729600985.528849,2.133136,-0.547947,-7.722986,0.023682,0.046112,0.969635,0.015867,0.129699,-0.142758,66.634888,7.411911,-147.732086,,,
729600985.53223,2.133136,-0.547947,-7.722986,0.023682,0.046112,0.969635,0.015867,0.129699,-0.142758,66.634888,7.411911,-147.732086,,,
729600985.535513,2.135495,-0.512254,-7.765114,0.012878,0.044586,0.964462,0.000303,0.129854,-0.149124,66.634888,7.411911,-147.732086,,,
729600985.538857,2.134963,-0.47502,-7.806334,0.012878,0.044586,0.964462,0.000303,0.129854,-0.149124,66.634888,7.411911,-147.732086,,,
729600985.542177,2.134963,-0.47502,-7.806334,0.012878,0.044586,0.964462,0.000303,0.129854,-0.149124,66.634888,7.411911,-147.732086,,,
729600985.545575,2.1337,-0.442172,-7.845261,-0.006119,0.034348,0.965897,-0.008974,0.119837,-0.133809,66.634888,7.411911,-147.732086,,,
729600985.548836,2.130707,-0.409048,-7.881603,-0.006119,0.034348,0.965897,-0.008974,0.119837,-0.133809,66.634888,7.411911,-147.732086,,,
729600985.552187,2.130707,-0.409048,-7.881603,-0.006119,0.034348,0.965897,-0.008974,0.119837,-0.133809,66.634888,7.411911,-147.732086,,,
729600985.555519,2.128021,-0.38321,-7.915531,-0.019516,0.022629,0.970825,-0.013445,0.096553,-0.117972,66.634888,7.411911,-147.732086,,,
729600985.558842,2.123946,-0.357357,-7.94877,-0.019516,0.022629,0.970825,-0.013445,0.096553,-0.117972,67.022507,7.264343,-147.712128,,,
729600985.562192,2.123946,-0.357357,-7.94877,-0.019516,0.022629,0.970825,-0.013445,0.096553,-0.117972,67.022507,7.264343,-147.712128,,,
729600985.565512,2.119451,-0.339677,-7.982203,-0.021866,0.023102,0.976959,-0.021726,0.066044,-0.120323,67.022507,7.264343,-147.712128,,,
729600985.568842,2.111999,-0.322153,-8.017682,-0.021866,0.023102,0.976959,-0.021726,0.066044,-0.120323,67.022507,7.264343,-147.712128,,,
729600985.572174,2.111999,-0.322153,-8.017682,-0.021866,0.023102,0.976959,-0.021726,0.066044,-0.120323,67.022507,7.264343,-147.712128,,,
729600985.575528,2.102985,-0.310754,-8.055169,-0.018036,0.028122,0.977936,-0.035657,0.042037,-0.134978,67.022507,7.264343,-147.712128,,,
729600985.578849,2.092421,-0.300322,-8.094681,-0.018036,0.028122,0.977936,-0.035657,0.042037,-0.134978,67.022507,7.264343,-147.712128,,,
729600985.582174,2.092421,-0.300322,-8.094681,-0.018036,0.028122,0.977936,-0.035657,0.042037,-0.134978,67.022507,7.264343,-147.712128,,,
729600985.585528,2.08123,-0.296084,-8.135632,-0.013565,0.029373,0.98053,-0.041187,0.01241,-0.145504,67.022507,7.264343,-147.712128,,,
729600985.588854,2.068756,-0.292681,-8.177272,-0.013565,0.029373,0.98053,-0.041187,0.01241,-0.145504,67.022507,7.264343,-147.712128,,,
729600985.592171,2.068756,-0.292681,-8.177272,-0.013565,0.029373,0.98053,-0.041187,0.01241,-0.145504,67.022507,7.264343,-147.712128,,,
729600985.595613,2.056507,-0.292265,-8.218824,-0.011703,0.029251,0.986526,-0.044177,0.005222,-0.145367,67.022507,7.264343,-147.712128,,,
729600985.598844,2.0435,-0.289597,-8.259422,-0.011703,0.029251,0.986526,-0.044177,0.005222,-0.145367,67.307037,7.402817,-147.602768,,,
729600985.602194,2.0435,-0.289597,-8.259422,-0.011703,0.029251,0.986526,-0.044177,0.005222,-0.145367,67.307037,7.402817,-147.602768,,,
729600985.605534,2.031263,-0.287533,-8.297889,-0.011093,0.029373,0.991287,-0.047508,0.013376,-0.130829,67.307037,7.402817,-147.602768,,,
729600985.608846,2.016886,-0.281276,-8.333798,-0.011093,0.029373,0.991287,-0.047508,0.013376,-0.130829,67.307037,7.402817,-147.602768,,,
729600985.612193,2.016886,-0.281276,-8.333798,-0.011093,0.029373,0.991287,-0.047508,0.013376,-0.130829,67.307037,7.402817,-147.602768,,,
729600985.615528,2.002584,-0.271051,-8.36728,-0.004028,0.033051,0.993439,-0.052705,0.043166,-0.114014,67.307037,7.402817,-147.602768,,,
729600985.618847,1.986091,-0.255488,-8.398731,-0.004028,0.033051,0.993439,-0.052705,0.043166,-0.114014,67.307037,7.402817,-147.602768,,,
729600985.622179,1.986091,-0.255488,-8.398731,-0.004028,0.033051,0.993439,-0.052705,0.043166,-0.114014,67.307037,7.402817,-147.602768,,,
729600985.625532,1.966733,-0.232657,-8.428391,-1.5e-05,0.036026,0.997375,-0.068441,0.07923,-0.101012,67.307037,7.402817,-147.602768,,,
729600985.628847,1.945626,-0.208539,-8.456244,-1.5e-05,0.036026,0.997375,-0.068441,0.07923,-0.101012,67.307037,7.402817,-147.602768,,,
729600985.632236,1.945626,-0.208539,-8.456244,-1.5e-05,0.036026,0.997375,-0.068441,0.07923,-0.101012,67.307037,7.402817,-147.602768,,,
729600985.635526,1.920056,-0.178819,-8.483552,0.000916,0.039352,0.993454,-0.088628,0.095349,-0.09645,67.307037,7.402817,-147.602768,,,
729600985.638848,1.893362,-0.15167,-8.510776,0.000916,0.039352,0.993454,-0.088628,0.095349,-0.09645,67.307037,7.402817,-147.602768,,,
729600985.642185,1.893362,-0.15167,-8.510776,0.000916,0.039352,0.993454,-0.088628,0.095349,-0.09645,67.487503,7.716522,-147.878159,,,
729600985.645524,1.862881,-0.122386,-8.538011,-0.00058,0.040924,0.987823,-0.108247,0.087739,-0.09585,67.487503,7.716522,-147.878159,,,
729600985.648849,1.831072,-0.098567,-8.564485,-0.00058,0.040924,0.987823,-0.108247,0.087739,-0.09585,67.487503,7.716522,-147.878159,,,
729600985.652189,1.831072,-0.098567,-8.564485,-0.00058,0.040924,0.987823,-0.108247,0.087739,-0.09585,67.487503,7.716522,-147.878159,,,
729600985.655534,1.797967,-0.076422,-8.589755,-0.010284,0.035767,0.990936,-0.115165,0.059053,-0.086964,67.487503,7.716522,-147.878159,,,
729600985.658845,1.765305,-0.062818,-8.614016,-0.010284,0.035767,0.990936,-0.115165,0.059053,-0.086964,67.487503,7.716522,-147.878159,,,
729600985.662195,1.765305,-0.062818,-8.614016,-0.010284,0.035767,0.990936,-0.115165,0.059053,-0.086964,67.487503,7.716522,-147.878159,,,
729600985.665535,1.734062,-0.054106,-8.637703,-0.02063,0.027832,0.993866,-0.104384,0.011128,-0.082572,67.487503,7.716522,-147.878159,,,
729600985.668843,1.704598,-0.054086,-8.6612,-0.02063,0.027832,0.993866,-0.104384,0.011128,-0.082572,67.487503,7.716522,-147.878159,,,
729600985.672254,1.704598,-0.054086,-8.6612,-0.02063,0.027832,0.993866,-0.104384,0.011128,-0.082572,67.487503,7.716522,-147.878159,,,
729600985.675509,1.676611,-0.056845,-8.684903,-0.020905,0.022797,1.001816,-0.092903,-0.02462,-0.083576,67.487503,7.716522,-147.878159,,,
729600985.678839,1.650491,-0.065215,-8.70919,-0.020905,0.022797,1.001816,-0.092903,-0.02462,-0.083576,67.487503,7.716522,-147.878159,,,
729600985.682183,1.650491,-0.065215,-8.70919,-0.020905,0.022797,1.001816,-0.092903,-0.02462,-0.083576,67.447571,7.775345,-147.997238,,,
729600985.685593,1.626197,-0.07396,-8.734686,-0.011826,0.02417,1.012283,-0.082618,-0.043632,-0.091513,67.447571,7.775345,-147.997238,,,
729600985.688835,1.602045,-0.087019,-8.760758,-0.011826,0.02417,1.012283,-0.082618,-0.043632,-0.091513,67.447571,7.775345,-147.997238,,,
729600985.692183,1.602045,-0.087019,-8.760758,-0.011826,0.02417,1.012283,-0.082618,-0.043632,-0.091513,67.447571,7.775345,-147.997238,,,
729600985.695531,1.5795,-0.099524,-8.787222,-0.00058,0.028214,1.010696,-0.083163,-0.046157,-0.093949,67.447571,7.775345,-147.997238,,,
729600985.698847,1.555026,-0.111453,-8.813269,-0.00058,0.028214,1.010696,-0.083163,-0.046157,-0.093949,67.447571,7.775345,-147.997238,,,
729600985.70218,1.555026,-0.111453,-8.813269,-0.00058,0.028214,1.010696,-0.083163,-0.046157,-0.093949,67.447571,7.775345,-147.997238,,,
729600985.705533,1.532914,-0.120075,-8.837884,0.007004,0.030457,1.014572,-0.085287,-0.025571,-0.083836,67.447571,7.775345,-147.997238,,,
729600985.708846,1.50905,-0.12571,-8.860261,0.007004,0.030457,1.014572,-0.085287,-0.025571,-0.083836,67.447571,7.775345,-147.997238,,,
729600985.712249,1.50905,-0.12571,-8.860261,0.007004,0.030457,1.014572,-0.085287,-0.025571,-0.083836,67.447571,7.775345,-147.997238,,,
729600985.715522,1.49009,-0.127029,-8.880139,0.008606,0.030457,1.022186,-0.078466,0.004108,-0.066363,67.447571,7.775345,-147.997238,,,
729600985.718846,1.468071,-0.124262,-8.897567,0.008606,0.030457,1.022186,-0.078466,0.004108,-0.066363,67.447571,7.775345,-147.997238,,,
729600985.722182,1.468071,-0.124262,-8.897567,0.008606,0.030457,1.022186,-0.078466,0.004108,-0.066363,67.444733,7.870163,-148.202362,,,
729600985.725578,1.451818,-0.115206,-8.913806,0.009262,0.027451,1.028488,-0.066542,0.035784,-0.057803,67.444733,7.870163,-148.202362,,,
729600985.728838,1.43295,-0.104072,-8.929969,0.009262,0.027451,1.028488,-0.066542,0.035784,-0.057803,67.444733,7.870163,-148.202362,,,
729600985.732207,1.43295,-0.104072,-8.929969,0.009262,0.027451,1.028488,-0.066542,0.035784,-0.057803,67.444733,7.870163,-148.202362,,,
729600985.735523,1.416967,-0.08725,-8.946621,0.013977,0.025009,1.02684,-0.061977,0.041961,-0.060447,67.444733,7.870163,-148.202362,,,
729600985.738843,1.39956,-0.07702,-8.964281,0.013977,0.025009,1.02684,-0.061977,0.041961,-0.060447,67.444733,7.870163,-148.202362,,,
729600985.742197,1.39956,-0.07702,-8.964281,0.013977,0.025009,1.02684,-0.061977,0.041961,-0.060447,67.444733,7.870163,-148.202362,,,
729600985.745513,1.382902,-0.064055,-8.983364,0.012024,0.024231,1.013687,-0.058698,0.015428,-0.069284,67.444733,7.870163,-148.202362,,,
729600985.748845,1.366225,-0.062248,-9.003636,0.012024,0.024231,1.013687,-0.058698,0.015428,-0.069284,67.444733,7.870163,-148.202362,,,
729600985.752245,1.366225,-0.062248,-9.003636,0.012024,0.024231,1.013687,-0.058698,0.015428,-0.069284,67.444733,7.870163,-148.202362,,,
729600985.755525,1.349915,-0.061023,-9.025661,0.002182,0.024612,1.00032,-0.053998,-0.026427,-0.080605,67.444733,7.870163,-148.202362,,,
729600985.758836,1.334667,-0.072055,-9.049348,0.002182,0.024612,1.00032,-0.053998,-0.026427,-0.080605,67.444733,7.870163,-148.202362,,,
729600985.762173,1.334667,-0.072055,-9.049348,0.002182,0.024612,1.00032,-0.053998,-0.026427,-0.080605,67.649612,8.15538,-148.033188,,,
729600985.76557,1.321026,-0.087472,-9.074889,-0.003204,0.027481,0.996384,-0.046313,-0.074596,-0.09305,67.649612,8.15538,-148.033188,,,
729600985.768834,1.308246,-0.112181,-9.102109,-0.003204,0.027481,0.996384,-0.046313,-0.074596,-0.09305,67.649612,8.15538,-148.033188,,,
729600985.772189,1.308246,-0.112181,-9.102109,-0.003204,0.027481,0.996384,-0.046313,-0.074596,-0.09305,67.649612,8.15538,-148.033188,,,
729600985.77562,1.299006,-0.142261,-9.131153,-0.000961,0.02742,0.996933,-0.033847,-0.109997,-0.105813,67.649612,8.15538,-148.033188,,,
729600985.778836,1.290261,-0.175933,-9.161939,-0.000961,0.02742,0.996933,-0.033847,-0.109997,-0.105813,67.649612,8.15538,-148.033188,,,
729600985.782186,1.290261,-0.175933,-9.161939,-0.000961,0.02742,0.996933,-0.033847,-0.109997,-0.105813,67.649612,8.15538,-148.033188,,,
729600985.785653,1.28551,-0.212565,-9.193413,0.005203,0.023422,1.002151,-0.020963,-0.122262,-0.110876,67.649612,8.15538,-148.033188,,,
729600985.788874,1.280315,-0.246048,-9.224945,0.005203,0.023422,1.002151,-0.020963,-0.122262,-0.110876,67.649612,8.15538,-148.033188,,,
729600985.792305,1.280315,-0.246048,-9.224945,0.005203,0.023422,1.002151,-0.020963,-0.122262,-0.110876,67.649612,8.15538,-148.033188,,,
729600985.795518,1.278173,-0.275635,-9.255717,0.007996,0.015686,1.013809,-0.011663,-0.086849,-0.105794,67.649612,8.15538,-148.033188,,,
729600985.79884,1.274982,-0.297189,-9.285788,0.007996,0.015686,1.013809,-0.011663,-0.086849,-0.105794,67.649612,8.15538,-148.033188,,,
729600985.802192,1.274982,-0.297189,-9.285788,0.007996,0.015686,1.013809,-0.011663,-0.086849,-0.105794,67.649612,8.15538,-148.033188,,,
729600985.805587,1.273294,-0.312793,-9.315003,0.009338,0.01123,1.022995,-0.006887,-0.036651,-0.099991,67.441605,8.072067,-148.198593,,,
729600985.808828,1.271623,-0.319237,-9.342926,0.009338,0.01123,1.022995,-0.006887,-0.036651,-0.099991,67.441605,8.072067,-148.198593,,,
729600985.812196,1.271623,-0.319237,-9.342926,0.009338,0.01123,1.022995,-0.006887,-0.036651,-0.099991,67.441605,8.072067,-148.198593,,,
729600985.815516,1.271306,-0.319262,-9.370061,0.011215,0.013107,1.020554,-1e-05,0.021579,-0.094877,67.441605,8.072067,-148.198593,,,
729600985.818837,1.271494,-0.310357,-9.396746,0.011215,0.013107,1.020554,-1e-05,0.021579,-0.094877,67.441605,8.072067,-148.198593,,,
729600985.822178,1.271494,-0.310357,-9.396746,0.011215,0.013107,1.020554,-1e-05,0.021579,-0.094877,67.441605,8.072067,-148.198593,,,
729600985.825508,1.273019,-0.297659,-9.422643,0.009476,0.016846,1.0224,0.006758,0.051974,-0.089521,67.441605,8.072067,-148.198593,,,
729600985.828838,1.27554,-0.282282,-9.447281,0.009476,0.016846,1.0224,0.006758,0.051974,-0.089521,67.441605,8.072067,-148.198593,,,
729600985.832281,1.27554,-0.282282,-9.447281,0.009476,0.016846,1.0224,0.006758,0.051974,-0.089521,67.441605,8.072067,-148.198593,,,
729600985.835521,1.279505,-0.264863,-9.471269,0.001465,0.016602,1.014603,0.013017,0.059873,-0.08489,67.441605,8.072067,-148.198593,,,
729600985.838854,1.283434,-0.248247,-9.494987,0.001465,0.016602,1.014603,0.013017,0.059873,-0.08489,67.441605,8.072067,-148.198593,,,
729600985.842209,1.283434,-0.248247,-9.494987,0.001465,0.016602,1.014603,0.013017,0.059873,-0.08489,67.441605,8.072067,-148.198593,,,
729600985.845516,1.2886,-0.231861,-9.518582,-0.005646,0.015167,1.007385,0.014599,0.047899,-0.08376,67.622696,8.099365,-148.015945,,,
729600985.84885,1.292783,-0.220162,-9.542559,-0.005646,0.015167,1.007385,0.014599,0.047899,-0.08376,67.622696,8.099365,-148.015945,,,
729600985.852173,1.292783,-0.220162,-9.542559,-0.005646,0.015167,1.007385,0.014599,0.047899,-0.08376,67.622696,8.099365,-148.015945,,,
729600985.855529,1.297915,-0.211087,-9.567368,-0.006699,0.014893,0.998779,0.016637,0.02631,-0.089437,67.622696,8.099365,-148.015945,,,
729600985.858846,1.301824,-0.205205,-9.593232,-0.006699,0.014893,0.998779,0.016637,0.02631,-0.089437,67.622696,8.099365,-148.015945,,,
729600985.862184,1.301824,-0.205205,-9.593232,-0.006699,0.014893,0.998779,0.016637,0.02631,-0.089437,67.622696,8.099365,-148.015945,,,
729600985.865525,1.30391,-0.202176,-9.619874,-0.003876,0.019882,0.992325,0.007464,0.012342,-0.094932,67.622696,8.099365,-148.015945,,,
729600985.868845,1.305912,-0.199515,-9.647814,-0.003876,0.019882,0.992325,0.007464,0.012342,-0.094932,67.622696,8.099365,-148.015945,,,
729600985.872252,1.305912,-0.199515,-9.647814,-0.003876,0.019882,0.992325,0.007464,0.012342,-0.094932,67.622696,8.099365,-148.015945,,,
729600985.875524,1.30528,-0.198703,-9.676282,-0.003281,0.023666,0.992584,0.007759,0.008273,-0.098916,67.622696,8.099365,-148.015945,,,
729600985.878844,1.306753,-0.197298,-9.70407,-0.003281,0.023666,0.992584,0.007759,0.008273,-0.098916,67.622696,8.099365,-148.015945,,,
729600985.882193,1.306753,-0.197298,-9.70407,-0.003281,0.023666,0.992584,0.007759,0.008273,-0.098916,67.622696,8.099365,-148.015945,,,
729600985.885511,1.304294,-0.198922,-9.730415,-0.008469,0.027008,0.996628,0.002537,-0.000108,-0.089141,67.479767,7.938721,-147.964157,,,
729600985.888845,1.30415,-0.199661,-9.754494,-0.008469,0.027008,0.996628,0.002537,-0.000108,-0.089141,67.479767,7.938721,-147.964157,,,
729600985.892206,1.30415,-0.199661,-9.754494,-0.008469,0.027008,0.996628,0.002537,-0.000108,-0.089141,67.479767,7.938721,-147.964157,,,
729600985.895613,1.300397,-0.202223,-9.775971,-0.014526,0.025009,0.995972,-0.007907,0.001201,-0.071328,67.479767,7.938721,-147.964157,,,
729600985.898847,1.298341,-0.201764,-9.794574,-0.014526,0.025009,0.995972,-0.007907,0.001201,-0.071328,67.479767,7.938721,-147.964157,,,
729600985.902196,1.298341,-0.201764,-9.794574,-0.014526,0.025009,0.995972,-0.007907,0.001201,-0.071328,67.479767,7.938721,-147.964157,,,
729600985.90553,1.295784,-0.201692,-9.810516,-0.018036,0.022247,1.001465,-0.000787,0.006253,-0.052969,67.479767,7.938721,-147.964157,,,
729600985.908845,1.296635,-0.200785,-9.824626,-0.018036,0.022247,1.001465,-0.000787,0.006253,-0.052969,67.479767,7.938721,-147.964157,,,
729600985.912258,1.296635,-0.200785,-9.824626,-0.018036,0.022247,1.001465,-0.000787,0.006253,-0.052969,67.479767,7.938721,-147.964157,,,
729600985.915512,1.298352,-0.1989,-9.837583,-0.015518,0.023514,1.010239,0.018073,0.00406,-0.044805,67.479767,7.938721,-147.964157,,,
729600985.918844,1.304464,-0.198827,-9.850207,-0.015518,0.023514,1.010239,0.018073,0.00406,-0.044805,67.479767,7.938721,-147.964157,,,
729600985.92219,1.304464,-0.198827,-9.850207,-0.015518,0.023514,1.010239,0.018073,0.00406,-0.044805,67.479767,7.938721,-147.964157,,,
729600985.925507,1.310363,-0.196781,-9.863265,-0.007446,0.026321,1.011871,0.033561,-0.001213,-0.047473,67.684464,7.853058,-148.120285,,,
729600985.928839,1.319746,-0.197679,-9.87692,-0.007446,0.026321,1.011871,0.033561,-0.001213,-0.047473,67.684464,7.853058,-148.120285,,,
729600985.932191,1.319746,-0.197679,-9.87692,-0.007446,0.026321,1.011871,0.033561,-0.001213,-0.047473,67.684464,7.853058,-148.120285,,,
729600985.935524,1.326986,-0.196543,-9.891589,-0.001358,0.030014,1.008987,0.031507,-0.004722,-0.054134,67.684464,7.853058,-148.120285,,,
729600985.938837,1.334712,-0.19855,-9.907149,-0.001358,0.030014,1.008987,0.031507,-0.004722,-0.054134,67.684464,7.853058,-148.120285,,,
729600985.942185,1.334712,-0.19855,-9.907149,-0.001358,0.030014,1.008987,0.031507,-0.004722,-0.054134,67.684464,7.853058,-148.120285,,,
729600985.945511,1.340063,-0.199348,-9.922115,-0.005493,0.029694,1.005142,0.019063,-0.00784,-0.049676,67.684464,7.853058,-148.120285,,,
729600985.948843,1.344194,-0.201964,-9.9352,-0.005493,0.029694,1.005142,0.019063,-0.00784,-0.049676,67.684464,7.853058,-148.120285,,,
729600985.952263,1.344194,-0.201964,-9.9352,-0.005493,0.029694,1.005142,0.019063,-0.00784,-0.049676,67.684464,7.853058,-148.120285,,,
729600985.955523,1.346351,-0.20177,-9.94634,-0.012772,0.029617,1.000534,0.001079,-0.004029,-0.035748,67.684464,7.853058,-148.120285,,,
729600985.958839,1.34582,-0.204207,-9.954727,-0.012772,0.029617,1.000534,0.001079,-0.004029,-0.035748,67.684464,7.853058,-148.120285,,,
729600985.962195,1.34582,-0.204207,-9.954727,-0.012772,0.029617,1.000534,0.001079,-0.004029,-0.035748,67.684464,7.853058,-148.120285,,,
729600985.965515,1.34457,-0.204518,-9.961248,-0.013992,0.031113,0.997345,-0.009245,-0.015243,-0.022124,67.684464,7.853058,-148.120285,,,
729600985.968842,1.342306,-0.210902,-9.967196,-0.013992,0.031113,0.997345,-0.009245,-0.015243,-0.022124,67.524734,7.858215,-148.156754,,,
729600985.972196,1.342306,-0.210902,-9.967196,-0.013992,0.031113,0.997345,-0.009245,-0.015243,-0.022124,67.524734,7.858215,-148.156754,,,
729600985.975515,1.340915,-0.213797,-9.97375,-0.008835,0.038116,0.99968,-0.003464,-0.030505,-0.025439,67.524734,7.858215,-148.156754,,,
729600985.97888,1.339816,-0.224074,-9.981037,-0.008835,0.038116,0.99968,-0.003464,-0.030505,-0.025439,67.524734,7.858215,-148.156754,,,
729600985.982173,1.339816,-0.224074,-9.981037,-0.008835,0.038116,0.99968,-0.003464,-0.030505,-0.025439,67.524734,7.858215,-148.156754,,,
729600985.985516,1.33906,-0.229953,-9.989017,-0.003586,0.038574,0.999802,0.001458,-0.04137,-0.02933,67.524734,7.858215,-148.156754,,,
729600985.988852,1.339968,-0.242728,-9.997288,-0.003586,0.038574,0.999802,0.001458,-0.04137,-0.02933,67.524734,7.858215,-148.156754,,,
729600985.9922,1.339968,-0.242728,-9.997288,-0.003586,0.038574,0.999802,0.001458,-0.04137,-0.02933,67.524734,7.858215,-148.156754,,,
729600985.995517,1.342634,-0.251566,-10.005515,-0.002777,0.033173,1.007141,0.009731,-0.045326,-0.028313,67.524734,7.858215,-148.156754,,,
729600985.998901,1.345541,-0.265,-10.012808,-0.002777,0.033173,1.007141,0.009731,-0.045326,-0.028313,67.524734,7.858215,-148.156754,,,
729600986.00225,1.345541,-0.265,-10.012808,-0.002777,0.033173,1.007141,0.009731,-0.045326,-0.028313,67.524734,7.858215,-148.156754,,,
729600986.005603,1.350057,-0.274996,-10.019261,-0.00296,0.02742,1.008102,0.014191,-0.038652,-0.022065,67.524734,7.858215,-148.156754,,,
729600986.008934,1.354799,-0.285195,-10.024917,-0.00296,0.02742,1.008102,0.014191,-0.038652,-0.022065,67.408447,7.780624,-147.884674,,,
729600986.01218,1.354799,-0.285195,-10.024917,-0.00296,0.02742,1.008102,0.014191,-0.038652,-0.022065,67.408447,7.780624,-147.884674,,,
729600986.015559,1.362729,-0.291485,-10.029843,-0.003723,0.031021,1.007645,0.023477,-0.022401,-0.016749,67.408447,7.780624,-147.884674,,,
729600986.018839,1.369867,-0.298353,-10.034888,-0.003723,0.031021,1.007645,0.023477,-0.022401,-0.016749,67.408447,7.780624,-147.884674,,,
729600986.022187,1.369867,-0.298353,-10.034888,-0.003723,0.031021,1.007645,0.023477,-0.022401,-0.016749,67.408447,7.780624,-147.884674,,,
729600986.025516,1.378916,-0.301299,-10.040223,-0.003693,0.034393,1.00824,0.027101,-0.021876,-0.018156,67.408447,7.780624,-147.884674,,,
729600986.028904,1.38691,-0.308969,-10.044617,-0.003693,0.034393,1.00824,0.027101,-0.021876,-0.018156,67.408447,7.780624,-147.884674,,,
729600986.032201,1.38691,-0.308969,-10.044617,-0.003693,0.034393,1.00824,0.027101,-0.021876,-0.018156,67.408447,7.780624,-147.884674,,,
729600986.03551,1.397038,-0.310882,-10.048538,-0.003342,0.03479,0.99852,0.031262,-0.018726,-0.013973,67.408447,7.780624,-147.884674,,,
729600986.038843,1.406109,-0.316244,-10.052356,-0.003342,0.03479,0.99852,0.031262,-0.018726,-0.013973,67.408447,7.780624,-147.884674,,,
729600986.042177,1.406109,-0.316244,-10.052356,-0.003342,0.03479,0.99852,0.031262,-0.018726,-0.013973,67.408447,7.780624,-147.884674,,,
729600986.045516,1.418015,-0.315448,-10.056619,-0.002258,0.033722,1.005722,0.034737,-0.01099,-0.016234,67.408447,7.780624,-147.884674,,,
729600986.048891,1.427667,-0.319923,-10.060852,-0.002258,0.033722,1.005722,0.034737,-0.01099,-0.016234,67.514679,7.597015,-147.83989,,,
729600986.052173,1.427667,-0.319923,-10.060852,-0.002258,0.033722,1.005722,0.034737,-0.01099,-0.016234,67.514679,7.597015,-147.83989,,,
729600986.055508,1.440977,-0.322575,-10.065991,0.001755,0.033844,1.002411,0.032261,-0.021218,-0.021942,67.514679,7.597015,-147.83989,,,
729600986.058898,1.450555,-0.329639,-10.072257,0.001755,0.033844,1.002411,0.032261,-0.021218,-0.021942,67.514679,7.597015,-147.83989,,,
729600986.062173,1.450555,-0.329639,-10.072257,0.001755,0.033844,1.002411,0.032261,-0.021218,-0.021942,67.514679,7.597015,-147.83989,,,
729600986.065556,1.46374,-0.334484,-10.079824,0.002197,0.034805,0.998337,0.034766,-0.02307,-0.030592,67.514679,7.597015,-147.83989,,,
729600986.068832,1.473097,-0.342178,-10.088234,0.002197,0.034805,0.998337,0.034766,-0.02307,-0.030592,67.514679,7.597015,-147.83989,,,
729600986.072191,1.473097,-0.342178,-10.088234,0.002197,0.034805,0.998337,0.034766,-0.02307,-0.030592,67.514679,7.597015,-147.83989,,,
729600986.075504,1.483184,-0.347957,-10.097024,9.2e-05,0.034668,0.998978,0.031851,-0.024285,-0.032886,67.514679,7.597015,-147.83989,,,
729600986.07887,1.491769,-0.355564,-10.104878,9.2e-05,0.034668,0.998978,0.031851,-0.024285,-0.032886,67.514679,7.597015,-147.83989,,,
729600986.082168,1.491769,-0.355564,-10.104878,9.2e-05,0.034668,0.998978,0.031851,-0.024285,-0.032886,67.514679,7.597015,-147.83989,,,
729600986.085503,1.501158,-0.361312,-10.110595,-0.005356,0.027863,0.996124,0.032784,-0.029238,-0.017548,67.514679,7.597015,-147.83989,,,
729600986.088887,1.501158,-0.370277,-10.114428,-0.005356,0.027863,0.996124,0.032784,-0.029238,-0.017548,67.514679,7.597015,-147.83989,,,
729600986.092276,1.509237,-0.370277,-10.114428,-0.005356,0.027863,0.996124,0.032784,-0.029238,-0.017548,67.54393,7.43335,-147.863739,,,
729600986.09553,1.516825,-0.37693,-10.117005,-0.004166,0.024612,0.993286,0.019723,-0.03163,-0.008229,67.54393,7.43335,-147.863739,,,
729600986.098965,1.522263,-0.386371,-10.118794,-0.004166,0.024612,0.993286,0.019723,-0.03163,-0.008229,67.54393,7.43335,-147.863739,,,
729600986.102197,1.522263,-0.386371,-10.118794,-0.004166,0.024612,0.993286,0.019723,-0.03163,-0.008229,67.54393,7.43335,-147.863739,,,
729600986.105513,1.528876,-0.392491,-10.120957,0.001892,0.027039,0.98851,0.011094,-0.026671,-0.010294,67.54393,7.43335,-147.863739,,,
729600986.108904,1.531516,-0.401584,-10.123671,0.001892,0.027039,0.98851,0.011094,-0.026671,-0.010294,67.54393,7.43335,-147.863739,,,
729600986.112187,1.531516,-0.401584,-10.123671,0.001892,0.027039,0.98851,0.011094,-0.026671,-0.010294,67.54393,7.43335,-147.863739,,,
729600986.115522,1.535923,-0.409649,-10.127498,0.004425,0.031479,0.991623,0.009523,-0.037981,-0.017565,67.54393,7.43335,-147.863739,,,
729600986.118954,1.538015,-0.421626,-10.132513,0.004425,0.031479,0.991623,0.009523,-0.037981,-0.017565,67.54393,7.43335,-147.863739,,,
729600986.122191,1.538015,-0.421626,-10.132513,0.004425,0.031479,0.991623,0.009523,-0.037981,-0.017565,67.54393,7.43335,-147.863739,,,
729600986.125534,1.54148,-0.431759,-10.138007,0.003983,0.034195,0.990631,0.006548,-0.041243,-0.020425,67.54393,7.43335,-147.863739,,,
729600986.128899,1.542614,-0.444172,-10.143445,0.003983,0.034195,0.990631,0.006548,-0.041243,-0.020425,67.54393,7.43335,-147.863739,,,
729600986.132237,1.542614,-0.444172,-10.143445,0.003983,0.034195,0.990631,0.006548,-0.041243,-0.020425,67.471832,7.461166,-147.943344,,,
729600986.135527,1.544753,-0.455281,-10.14741,0.002899,0.027237,0.995209,-0.000333,-0.042428,-0.009852,67.471832,7.461166,-147.943344,,,
729600986.138853,1.544753,-0.455281,-10.14741,0.002899,0.027237,0.995209,-0.000333,-0.042428,-0.009852,67.471832,7.461166,-147.943344,,,
729600986.142188,1.54436,-0.4681,-10.14957,0.002899,0.027237,0.995209,-0.000333,-0.042428,-0.009852,67.471832,7.461166,-147.943344,,,
729600986.145625,1.546174,-0.478943,-10.150239,0.001251,0.024567,0.990768,-5.5e-05,-0.039363,0.000831,67.471832,7.461166,-147.943344,,,
729600986.14884,1.546174,-0.478943,-10.150239,0.001251,0.024567,0.990768,-5.5e-05,-0.039363,0.000831,67.471832,7.461166,-147.943344,,,
729600986.15219,1.546445,-0.490553,-10.149024,0.001251,0.024567,0.990768,-5.5e-05,-0.039363,0.000831,67.471832,7.461166,-147.943344,,,
729600986.155522,1.548388,-0.498338,-10.147235,0.002686,0.024734,0.994934,0.00099,-0.031226,0.005338,67.471832,7.461166,-147.943344,,,
729600986.158925,1.548388,-0.498338,-10.144696,0.002686,0.024734,0.994934,0.00099,-0.031226,0.005338,67.471832,7.461166,-147.943344,,,
729600986.162183,1.548043,-0.507729,-10.144696,0.002686,0.024734,0.994934,0.00099,-0.031226,0.005338,67.471832,7.461166,-147.943344,,,
729600986.165521,1.546811,-0.512565,-10.14165,0.006744,0.028885,0.993683,-0.003088,-0.026389,0.009657,67.471832,7.461166,-147.943344,,,
729600986.168848,1.546811,-0.512565,-10.14165,0.006744,0.028885,0.993683,-0.003088,-0.026389,0.009657,67.471832,7.461166,-147.943344,,,
729600986.172252,1.545524,-0.520911,-10.138074,0.006744,0.028885,0.993683,-0.003088,-0.026389,0.009657,67.488388,7.366791,-147.696915,,,
729600986.17552,1.54339,-0.5258,-10.133741,0.009262,0.028732,0.992432,-0.005435,-0.022885,0.015573,67.488388,7.366791,-147.696915,,,
729600986.178854,1.54339,-0.5258,-10.133741,0.009262,0.028732,0.992432,-0.005435,-0.022885,0.015573,67.488388,7.366791,-147.696915,,,
729600986.18219,1.541251,-0.533472,-10.128595,0.009262,0.028732,0.992432,-0.005435,-0.022885,0.015573,67.488388,7.366791,-147.696915,,,
729600986.185577,1.539907,-0.540058,-10.122885,0.00563,0.029083,0.99556,-0.00352,-0.024781,0.019758,67.488388,7.366791,-147.696915,,,
729600986.188843,1.539907,-0.540058,-10.122885,0.00563,0.029083,0.99556,-0.00352,-0.024781,0.019758,67.488388,7.366791,-147.696915,,,
729600986.192192,1.538638,-0.549195,-10.117364,0.00563,0.029083,0.99556,-0.00352,-0.024781,0.019758,67.488388,7.366791,-147.696915,,,
729600986.195502,1.539874,-0.558303,-10.112578,0.006622,0.027878,0.995392,0.001382,-0.034303,0.01485,67.488388,7.366791,-147.696915,,,
729600986.198838,1.539874,-0.558303,-10.112578,0.006622,0.027878,0.995392,0.001382,-0.034303,0.01485,67.488388,7.366791,-147.696915,,,
729600986.202189,1.540494,-0.569604,-10.108841,0.006622,0.027878,0.995392,0.001382,-0.034303,0.01485,67.488388,7.366791,-147.696915,,,
729600986.205502,1.543192,-0.580208,-10.106571,0.013474,0.028519,1.000931,0.005215,-0.041301,0.004929,67.488388,7.366791,-147.696915,,,
729600986.208927,1.543192,-0.580208,-10.106571,0.013474,0.028519,1.000931,0.005215,-0.041301,0.004929,67.488388,7.366791,-147.696915,,,
729600986.212171,1.544538,-0.593,-10.105502,0.013474,0.028519,1.000931,0.005215,-0.041301,0.004929,67.38826,7.48967,-147.709518,,,
729600986.215594,1.545013,-0.603674,-10.10595,0.017654,0.029648,0.995544,0.001189,-0.041155,-0.005223,67.38826,7.48967,-147.709518,,,
729600986.218853,1.545013,-0.603674,-10.10595,0.017654,0.029648,0.995544,0.001189,-0.041155,-0.005223,67.38826,7.48967,-147.709518,,,
729600986.222256,1.544954,-0.616094,-10.107181,0.017654,0.029648,0.995544,0.001189,-0.041155,-0.005223,67.38826,7.48967,-147.709518,,,
729600986.225503,1.543289,-0.625041,-10.108625,0.018082,0.028107,0.991928,-0.00556,-0.033114,-0.006171,67.38826,7.48967,-147.709518,,,
729600986.228857,1.543289,-0.625041,-10.108625,0.018082,0.028107,0.991928,-0.00556,-0.033114,-0.006171,67.38826,7.48967,-147.709518,,,
729600986.232195,1.540787,-0.635098,-10.109892,0.018082,0.028107,0.991928,-0.00556,-0.033114,-0.006171,67.38826,7.48967,-147.709518,,,
729600986.235517,1.536836,-0.642338,-10.110963,0.018646,0.02951,0.989716,-0.012871,-0.026151,-0.00435,67.38826,7.48967,-147.709518,,,
729600986.238836,1.536836,-0.642338,-10.110963,0.018646,0.02951,0.989716,-0.012871,-0.026151,-0.00435,67.38826,7.48967,-147.709518,,,
729600986.242196,1.532826,-0.649866,-10.111576,0.018646,0.02951,0.989716,-0.012871,-0.026151,-0.00435,67.38826,7.48967,-147.709518,,,
729600986.245509,1.530168,-0.655549,-10.111874,0.018097,0.030472,0.988022,-0.008676,-0.017154,-0.002052,67.38826,7.48967,-147.709518,,,
729600986.248901,1.530168,-0.655549,-10.111874,0.018097,0.030472,0.988022,-0.008676,-0.017154,-0.002052,67.38826,7.48967,-147.709518,,,
729600986.25222,1.528167,-0.660789,-10.111671,0.018097,0.030472,0.988022,-0.008676,-0.017154,-0.002052,67.38826,7.48967,-147.709518,,,
729600986.255503,1.528546,-0.664399,-10.11062,0.015915,0.027695,0.996536,0.003969,-0.011988,0.003855,67.315552,7.474503,-147.558304,,,
729600986.258847,1.528546,-0.664399,-10.11062,0.015915,0.027695,0.996536,0.003969,-0.011988,0.003855,67.315552,7.474503,-147.558304,,,
729600986.262245,1.529837,-0.668667,-10.108951,0.015915,0.027695,0.996536,0.003969,-0.011988,0.003855,67.315552,7.474503,-147.558304,,,
729600986.265503,1.532105,-0.671057,-10.106146,0.012024,0.021057,0.993683,0.00682,-0.01063,0.012077,67.315552,7.474503,-147.558304,,,
729600986.268839,1.532105,-0.671057,-10.106146,0.012024,0.021057,0.993683,0.00682,-0.01063,0.012077,67.315552,7.474503,-147.558304,,,
729600986.272193,1.53368,-0.675974,-10.102406,0.012024,0.021057,0.993683,0.00682,-0.01063,0.012077,67.315552,7.474503,-147.558304,,,
729600986.27551,1.534943,-0.680767,-10.099317,0.011078,0.016968,0.990799,0.003251,-0.014992,0.007677,67.315552,7.474503,-147.558304,,,
729600986.278848,1.534943,-0.680767,-10.099317,0.011078,0.016968,0.990799,0.003251,-0.014992,0.007677,67.315552,7.474503,-147.558304,,,
729600986.282192,1.535091,-0.686384,-10.096605,0.011078,0.016968,0.990799,0.003251,-0.014992,0.007677,67.315552,7.474503,-147.558304,,,
729600986.285508,1.535158,-0.693119,-10.093856,0.009705,0.019119,0.991821,-0.002907,-0.0169,0.007865,67.315552,7.474503,-147.558304,,,
729600986.288909,1.535158,-0.693119,-10.093856,0.009705,0.019119,0.991821,-0.002907,-0.0169,0.007865,67.315552,7.474503,-147.558304,,,
729600986.292206,1.53359,-0.699416,-10.091521,0.009705,0.019119,0.991821,-0.002907,-0.0169,0.007865,67.315552,7.474503,-147.558304,,,
729600986.295511,1.532038,-0.708461,-10.089737,0.011368,0.024155,0.991974,-0.00697,-0.024554,0.003797,67.221054,7.430099,-147.867325,,,
729600986.298855,1.532038,-0.708461,-10.089737,0.011368,0.024155,0.991974,-0.00697,-0.024554,0.003797,67.221054,7.430099,-147.867325,,,
729600986.302246,1.53022,-0.715641,-10.088376,0.011368,0.024155,0.991974,-0.00697,-0.024554,0.003797,67.221054,7.430099,-147.867325,,,
729600986.305495,1.529603,-0.723544,-10.087232,0.010437,0.026169,0.996826,-0.001242,-0.019021,0.001984,67.221054,7.430099,-147.867325,,,
729600986.308851,1.529603,-0.723544,-10.087232,0.010437,0.026169,0.996826,-0.001242,-0.019021,0.001984,67.221054,7.430099,-147.867325,,,
729600986.312185,1.529723,-0.729396,-10.086076,0.010437,0.026169,0.996826,-0.001242,-0.019021,0.001984,67.221054,7.430099,-147.867325,,,
729600986.315506,1.531148,-0.736363,-10.084356,0.015518,0.025055,1.001175,0.000336,-0.014639,0.00558,67.221054,7.430099,-147.867325,,,
729600986.318855,1.531148,-0.736363,-10.084356,0.015518,0.025055,1.001175,0.000336,-0.014639,0.00558,67.221054,7.430099,-147.867325,,,
729600986.322208,1.530546,-0.741937,-10.082613,0.015518,0.025055,1.001175,0.000336,-0.014639,0.00558,67.221054,7.430099,-147.867325,,,
729600986.325509,1.529895,-0.749433,-10.081164,0.01973,0.024719,0.98941,-0.005943,-0.018624,0.003419,67.221054,7.430099,-147.867325,,,
729600986.328861,1.529895,-0.749433,-10.081164,0.01973,0.024719,0.98941,-0.005943,-0.018624,0.003419,67.221054,7.430099,-147.867325,,,
729600986.332189,1.528333,-0.756138,-10.079925,0.01973,0.024719,0.98941,-0.005943,-0.018624,0.003419,67.221054,7.430099,-147.867325,,,
729600986.335504,1.52674,-0.764199,-10.079148,0.022049,0.027786,0.988205,-0.00293,-0.026658,0.000125,67.158005,7.398941,-147.745682,,,
729600986.338864,1.52674,-0.764199,-10.079148,0.022049,0.027786,0.988205,-0.00293,-0.026658,0.000125,67.158005,7.398941,-147.745682,,,
729600986.342191,1.52591,-0.773157,-10.078975,0.022049,0.027786,0.988205,-0.00293,-0.026658,0.000125,67.158005,7.398941,-147.745682,,,
729600986.345502,1.523117,-0.782234,-10.079029,0.020782,0.030228,0.99115,-0.002802,-0.030812,-0.001398,67.158005,7.398941,-147.745682,,,
729600986.348843,1.523117,-0.782234,-10.079029,0.020782,0.030228,0.99115,-0.002802,-0.030812,-0.001398,67.158005,7.398941,-147.745682,,,
729600986.352233,1.522308,-0.792034,-10.078531,0.020782,0.030228,0.99115,-0.002802,-0.030812,-0.001398,67.158005,7.398941,-147.745682,,,
729600986.355499,1.519852,-0.800374,-10.077107,0.015488,0.027084,0.989532,0.001977,-0.026959,0.005118,67.158005,7.398941,-147.745682,,,
729600986.358856,1.519852,-0.800374,-10.077107,0.015488,0.027084,0.989532,0.001977,-0.026959,0.005118,67.158005,7.398941,-147.745682,,,
729600986.362169,1.520279,-0.808156,-10.074449,0.015488,0.027084,0.989532,0.001977,-0.026959,0.005118,67.158005,7.398941,-147.745682,,,
729600986.365505,1.519541,-0.813261,-10.070449,0.01123,0.020599,0.993652,0.003494,-0.014851,0.014608,67.158005,7.398941,-147.745682,,,
729600986.368891,1.519541,-0.813261,-10.070449,0.01123,0.020599,0.993652,0.003494,-0.014851,0.014608,67.158005,7.398941,-147.745682,,,
729600986.372167,1.519655,-0.818171,-10.065754,0.01123,0.020599,0.993652,0.003494,-0.014851,0.014608,67.158005,7.398941,-147.745682,,,
729600986.375509,1.518957,-0.821144,-10.06199,0.017029,0.021866,0.993484,-0.001503,-0.00694,0.008351,67.342422,7.553726,-148.096573,,,
729600986.378954,1.518957,-0.821144,-10.06199,0.017029,0.021866,0.993484,-0.001503,-0.00694,0.008351,67.342422,7.553726,-148.096573,,,
729600986.382159,1.517926,-0.823367,-10.060409,0.017029,0.021866,0.993484,-0.001503,-0.00694,0.008351,67.342422,7.553726,-148.096573,,,
729600986.385502,1.51532,-0.822998,-10.060987,0.02565,0.029144,0.991714,-0.009676,0.00599,-0.006393,67.342422,7.553726,-148.096573,,,
729600986.388848,1.51532,-0.822998,-10.060987,0.02565,0.029144,0.991714,-0.009676,0.00599,-0.006393,67.342422,7.553726,-148.096573,,,
729600986.392234,1.51223,-0.821652,-10.063158,0.02565,0.029144,0.991714,-0.009676,0.00599,-0.006393,67.342422,7.553726,-148.096573,,,
729600986.395495,1.50795,-0.820103,-10.065861,0.025009,0.032791,0.990982,-0.016065,0.013287,-0.010146,67.342422,7.553726,-148.096573,,,
729600986.398846,1.50795,-0.820103,-10.065861,0.025009,0.032791,0.990982,-0.016065,0.013287,-0.010146,67.342422,7.553726,-148.096573,,,
729600986.402171,1.503209,-0.817146,-10.068266,0.025009,0.032791,0.990982,-0.016065,0.013287,-0.010146,67.342422,7.553726,-148.096573,,,
729600986.405505,1.498175,-0.816067,-10.069502,0.01619,0.029327,0.986847,-0.016653,0.012599,-0.002359,67.342422,7.553726,-148.096573,,,
729600986.408857,1.498175,-0.816067,-10.069502,0.01619,0.029327,0.986847,-0.016653,0.012599,-0.002359,67.342422,7.553726,-148.096573,,,
729600986.412189,1.494489,-0.81304,-10.069046,0.01619,0.029327,0.986847,-0.016653,0.012599,-0.002359,67.342422,7.553726,-148.096573,,,
729600986.415511,1.493988,-0.811303,-10.067522,0.008728,0.025085,0.996628,0.000251,0.016183,0.004513,67.342422,7.553726,-148.096573,,,
729600986.418899,1.493988,-0.811303,-10.067522,0.008728,0.025085,0.996628,0.000251,0.016183,0.004513,67.101593,7.539246,-147.707901,,,
729600986.422222,1.494593,-0.808625,-10.065839,0.008728,0.025085,0.996628,0.000251,0.016183,0.004513,67.101593,7.539246,-147.707901,,,
729600986.425513,1.497521,-0.81009,-10.064389,0.011749,0.02652,0.999207,0.008288,-0.001769,0.002517,67.101593,7.539246,-147.707901,,,
729600986.428965,1.497521,-0.81009,-10.064389,0.011749,0.02652,0.999207,0.008288,-0.001769,0.002517,67.101593,7.539246,-147.707901,,,
729600986.432198,1.499808,-0.812118,-10.062926,0.011749,0.02652,0.999207,0.008288,-0.001769,0.002517,67.101593,7.539246,-147.707901,,,
729600986.435515,1.501416,-0.814099,-10.061749,0.014404,0.027328,0.989944,0.007625,-0.002727,0.000566,67.101593,7.539246,-147.707901,,,
729600986.438855,1.501416,-0.814099,-10.061749,0.014404,0.027328,0.989944,0.007625,-0.002727,0.000566,67.101593,7.539246,-147.707901,,,
729600986.442251,1.503082,-0.816144,-10.061301,0.014404,0.027328,0.989944,0.007625,-0.002727,0.000566,67.101593,7.539246,-147.707901,,,
729600986.445504,1.501547,-0.819369,-10.060563,0.011154,0.028397,0.995117,-0.003651,-0.012065,0.002758,67.101593,7.539246,-147.707901,,,
729600986.448867,1.501547,-0.819369,-10.060563,0.011154,0.028397,0.995117,-0.003651,-0.012065,0.002758,67.101593,7.539246,-147.707901,,,
729600986.452194,1.499195,-0.824852,-10.05927,0.011154,0.028397,0.995117,-0.003651,-0.012065,0.002758,67.101593,7.539246,-147.707901,,,
729600986.455502,1.493722,-0.833014,-10.057779,0.00943,0.032211,0.985245,-0.022573,-0.018434,0.00411,67.101593,7.539246,-147.707901,,,
729600986.458828,1.493722,-0.833014,-10.057779,0.00943,0.032211,0.985245,-0.022573,-0.018434,0.00411,67.176239,7.361969,-147.598831,,,
729600986.462196,1.48573,-0.838343,-10.056346,0.00943,0.032211,0.985245,-0.022573,-0.018434,0.00411,67.176239,7.361969,-147.598831,,,
729600986.465504,1.476667,-0.845647,-10.055094,0.010391,0.034958,0.991013,-0.039838,-0.00933,0.002572,67.176239,7.361969,-147.598831,,,
729600986.468892,1.476667,-0.845647,-10.055094,0.010391,0.034958,0.991013,-0.039838,-0.00933,0.002572,67.176239,7.361969,-147.598831,,,
729600986.47218,1.464809,-0.848746,-10.053731,0.010391,0.034958,0.991013,-0.039838,-0.00933,0.002572,67.176239,7.361969,-147.598831,,,
729600986.475511,1.455343,-0.853961,-10.05206,0.010681,0.029907,0.998718,-0.035808,-0.010922,0.004302,67.176239,7.361969,-147.598831,,,
729600986.478846,1.455343,-0.853961,-10.05206,0.010681,0.029907,0.998718,-0.035808,-0.010922,0.004302,67.176239,7.361969,-147.598831,,,
729600986.48221,1.445665,-0.858817,-10.050343,0.010681,0.029907,0.998718,-0.035808,-0.010922,0.004302,67.176239,7.361969,-147.598831,,,
729600986.485504,1.438521,-0.864523,-10.048381,0.006943,0.022629,1.008835,-0.022464,-0.019706,0.005938,67.176239,7.361969,-147.598831,,,
729600986.488867,1.438521,-0.864523,-10.048381,0.006943,0.022629,1.008835,-0.022464,-0.019706,0.005938,67.176239,7.361969,-147.598831,,,
729600986.492178,1.432663,-0.871427,-10.046562,0.006943,0.022629,1.008835,-0.022464,-0.019706,0.005938,67.176239,7.361969,-147.598831,,,
729600986.495503,1.428488,-0.8766,-10.045231,0.007812,0.017044,1.016174,-0.012003,-0.020553,0.002723,67.176239,7.361969,-147.598831,,,
729600986.498835,1.428488,-0.8766,-10.045231,0.007812,0.017044,1.016174,-0.012003,-0.020553,0.002723,67.026596,7.550323,-147.885788,,,
729600986.502195,1.425753,-0.883089,-10.044374,0.007812,0.017044,1.016174,-0.012003,-0.020553,0.002723,67.026596,7.550323,-147.885788,,,
729600986.505506,1.426035,-0.88886,-10.043946,0.008102,0.01532,1.013397,0.005134,-0.01914,-0.000429,67.026596,7.550323,-147.885788,,,
729600986.508927,1.426035,-0.88886,-10.043946,0.008102,0.01532,1.013397,0.005134,-0.01914,-0.000429,67.026596,7.550323,-147.885788,,,
729600986.512187,1.428279,-0.895142,-10.043182,0.008102,0.01532,1.013397,0.005134,-0.01914,-0.000429,67.026596,7.550323,-147.885788,,,
729600986.51551,1.433207,-0.900529,-10.041891,0.010376,0.013107,1.010193,0.018522,-0.016663,0.003125,67.026596,7.550323,-147.885788,,,
729600986.518857,1.433207,-0.900529,-10.041891,0.010376,0.013107,1.010193,0.018522,-0.016663,0.003125,67.026596,7.550323,-147.885788,,,
729600986.522241,1.439086,-0.905698,-10.039701,0.010376,0.013107,1.010193,0.018522,-0.016663,0.003125,67.026596,7.550323,-147.885788,,,
729600986.525495,1.447968,-0.908596,-10.036152,0.011169,0.01358,1.009399,0.030668,-0.011902,0.012704,67.026596,7.550323,-147.885788,,,
729600986.528832,1.447968,-0.908596,-10.036152,0.011169,0.01358,1.009399,0.030668,-0.011902,0.012704,67.026596,7.550323,-147.885788,,,
729600986.532189,1.456262,-0.912586,-10.031848,0.011169,0.01358,1.009399,0.030668,-0.011902,0.012704,67.026596,7.550323,-147.885788,,,
729600986.535502,1.46697,-0.914416,-10.027292,0.014633,0.017227,1.006302,0.030451,-0.0074,0.01476,67.026596,7.550323,-147.885788,,,
729600986.538849,1.46697,-0.914416,-10.027292,0.014633,0.017227,1.006302,0.030451,-0.0074,0.01476,67.026596,7.550323,-147.885788,,,
729600986.542187,1.474733,-0.916915,-10.022584,0.014633,0.017227,1.006302,0.030451,-0.0074,0.01476,67.061539,7.52803,-148.024292,,,
729600986.545502,1.483348,-0.916807,-10.018336,0.022339,0.023407,1.000336,0.021538,0.000613,0.011904,67.061539,7.52803,-148.024292,,,
729600986.548904,1.483348,-0.916807,-10.018336,0.022339,0.023407,1.000336,0.021538,0.000613,0.011904,67.061539,7.52803,-148.024292,,,
729600986.55217,1.488843,-0.91726,-10.015068,0.022339,0.023407,1.000336,0.021538,0.000613,0.011904,67.061539,7.52803,-148.024292,,,
729600986.555506,1.493716,-0.916054,-10.013277,0.02684,0.025299,0.997742,0.014953,-0.000162,0.002086,67.061539,7.52803,-148.024292,,,
