Time (sec),Pitch (deg),Roll (deg),Yaw(deg),X-Acceleration (g),Y-Acceleration (g),Z-Acceleration (g),Pitch Rate (deg/sec),Roll Rate (deg/sec),Yaw Rate (deg/sec),Magnetic Field in X direction (uT),Magnetic Field in Y direction (uT),Magnetic Field in Z Direction (uT),Latitude (deg),Longitude (deg),Altitude (m)
729608609.16004,-2.015917,-2.473069,52.900342,0.045395,-0.047043,0.991119,0.025159,-0.012781,0.030153,60.84819,24.988251,-146.318665,,,
729608609.163387,-2.015917,-2.473069,52.900342,0.045395,-0.047043,0.991119,0.025159,-0.012781,0.030153,60.84819,24.988251,-146.318665,,,
729608609.166633,-2.00832,-2.47802,52.911387,0.044266,-0.047638,0.991272,0.029077,-0.015305,0.035183,60.84819,24.988251,-146.318665,,,
729608609.169817,-2.00832,-2.47802,52.911387,0.044266,-0.047638,0.991272,0.029077,-0.015305,0.035183,60.84819,24.988251,-146.318665,,,
729608609.173347,-2.00184,-2.484467,52.921342,0.044266,-0.047638,0.991272,0.029077,-0.015305,0.035183,60.84819,24.988251,-146.318665,,,
729608609.176636,-1.997447,-2.489369,52.929505,0.05687,-0.035294,0.988647,0.020512,-0.02087,0.025102,60.84819,24.988251,-146.318665,,,
729608609.180002,-1.99372,-2.496331,52.934761,0.05687,-0.035294,0.988647,0.020512,-0.02087,0.025102,60.84819,24.988251,-146.318665,,,
729608609.183297,-1.99372,-2.496331,52.934761,0.05687,-0.035294,0.988647,0.020512,-0.02087,0.025102,60.84819,24.988251,-146.318665,,,
729608609.186661,-1.992824,-2.500941,52.937521,0.063675,-0.026382,0.985748,0.008667,-0.02257,0.005881,60.84819,24.988251,-146.318665,,,
729608609.189961,-1.992824,-2.500941,52.937521,0.063675,-0.026382,0.985748,0.008667,-0.02257,0.005881,60.84819,24.988251,-146.318665,,,
729608609.193301,-1.992519,-2.507776,52.937693,0.063675,-0.026382,0.985748,0.008667,-0.02257,0.005881,60.84819,24.988251,-146.318665,,,
729608609.19663,-1.994323,-2.512557,52.936942,0.06366,-0.027954,0.987106,-0.00453,-0.019708,-0.006628,60.932678,24.912109,-146.247711,,,
729608609.200048,-1.996095,-2.518142,52.936464,0.06366,-0.027954,0.987106,-0.00453,-0.019708,-0.006628,60.932678,24.912109,-146.247711,,,
729608609.203336,-1.996095,-2.518142,52.936464,0.06366,-0.027954,0.987106,-0.00453,-0.019708,-0.006628,60.932678,24.912109,-146.247711,,,
729608609.20665,-1.99877,-2.522589,52.936117,0.060059,-0.034409,0.990555,-0.00733,-0.012974,-0.002327,60.932678,24.912109,-146.247711,,,
729608609.210014,-1.99877,-2.522589,52.936117,0.060059,-0.034409,0.990555,-0.00733,-0.012974,-0.002327,60.932678,24.912109,-146.247711,,,
729608609.2134,-2.000807,-2.526314,52.935905,0.060059,-0.034409,0.990555,-0.00733,-0.012974,-0.002327,60.932678,24.912109,-146.247711,,,
729608609.216632,-2.003262,-2.52968,52.93627,0.058517,-0.037949,0.991257,-0.002873,-0.00735,-0.001182,60.932678,24.912109,-146.247711,,,
729608609.220027,-2.003262,-2.52968,52.93627,0.058517,-0.037949,0.991257,-0.002873,-0.00735,-0.001182,60.932678,24.912109,-146.247711,,,
729608609.223351,-2.003861,-2.532724,52.936871,0.058517,-0.037949,0.991257,-0.002873,-0.00735,-0.001182,60.932678,24.912109,-146.247711,,,
729608609.228755,-2.006922,-2.536005,52.936952,0.055725,-0.037262,0.990402,-0.003429,-0.004038,-0.004274,60.932678,24.912109,-146.247711,,,
729608609.229723,-2.006922,-2.536005,52.936952,0.055725,-0.037262,0.990402,-0.003429,-0.004038,-0.004274,60.932678,24.912109,-146.247711,,,
729608609.233369,-2.00781,-2.538385,52.93723,0.055725,-0.037262,0.990402,-0.003429,-0.004038,-0.004274,60.932678,24.912109,-146.247711,,,
729608609.236669,-2.011312,-2.540776,52.938389,0.051086,-0.035416,0.991714,0.00082,-0.002318,0.002347,60.932678,24.912109,-146.247711,,,
729608609.239999,-2.011312,-2.540776,52.938389,0.051086,-0.035416,0.991714,0.00082,-0.002318,0.002347,60.919815,24.857681,-146.288635,,,
729608609.243317,-2.011268,-2.542671,52.940585,0.051086,-0.035416,0.991714,0.00082,-0.002318,0.002347,60.919815,24.857681,-146.288635,,,
729608609.246516,-2.014774,-2.544989,52.943538,0.047119,-0.038025,0.993408,0.001113,-0.007401,0.008946,60.919815,24.857681,-146.288635,,,
729608609.249994,-2.014774,-2.544989,52.943538,0.047119,-0.038025,0.993408,0.001113,-0.007401,0.008946,60.919815,24.857681,-146.288635,,,
729608609.253441,-2.015022,-2.548601,52.946426,0.047119,-0.038025,0.993408,0.001113,-0.007401,0.008946,60.919815,24.857681,-146.288635,,,
729608609.256645,-2.01805,-2.555489,52.948032,0.04776,-0.03685,0.992706,-0.002828,-0.013329,0.004899,60.919815,24.857681,-146.288635,,,
729608609.259992,-2.01805,-2.555489,52.948032,0.04776,-0.03685,0.992706,-0.002828,-0.013329,0.004899,60.919815,24.857681,-146.288635,,,
729608609.263381,-2.020332,-2.560192,52.947813,0.04776,-0.03685,0.992706,-0.002828,-0.013329,0.004899,60.919815,24.857681,-146.288635,,,
729608609.266629,-2.021261,-2.570939,52.946038,0.051865,-0.030594,0.993652,-0.009272,-0.013449,-0.006338,60.919815,24.857681,-146.288635,,,
729608609.269961,-2.021261,-2.570939,52.946038,0.051865,-0.030594,0.993652,-0.009272,-0.013449,-0.006338,60.919815,24.857681,-146.288635,,,
729608609.2733,-2.024541,-2.576895,52.943686,0.051865,-0.030594,0.993652,-0.009272,-0.013449,-0.006338,60.919815,24.857681,-146.288635,,,
729608609.276631,-2.025759,-2.590173,52.939559,0.053375,-0.029678,0.997925,-0.009259,-0.020419,-0.012161,60.919815,24.857681,-146.288635,,,
729608609.279988,-2.025759,-2.590173,52.939559,0.053375,-0.029678,0.997925,-0.009259,-0.020419,-0.012161,60.771545,24.81163,-145.93692,,,
729608609.283312,-2.028945,-2.598601,52.934224,0.053375,-0.029678,0.997925,-0.009259,-0.020419,-0.012161,60.771545,24.81163,-145.93692,,,
729608609.286633,-2.030954,-2.612179,52.928303,0.048203,-0.034897,0.997391,-0.008676,-0.026865,-0.02039,60.771545,24.81163,-145.93692,,,
729608609.290012,-2.030954,-2.612179,52.928303,0.048203,-0.034897,0.997391,-0.008676,-0.026865,-0.02039,60.771545,24.81163,-145.93692,,,
729608609.293354,-2.031949,-2.619638,52.922443,0.048203,-0.034897,0.997391,-0.008676,-0.026865,-0.02039,60.771545,24.81163,-145.93692,,,
729608609.296641,-2.030505,-2.629479,52.916552,0.043457,-0.040787,1.008118,0.005536,-0.015015,-0.021931,60.771545,24.81163,-145.93692,,,
729608609.300051,-2.030505,-2.629479,52.916552,0.043457,-0.040787,1.008118,0.005536,-0.015015,-0.021931,60.771545,24.81163,-145.93692,,,
729608609.303342,-2.02609,-2.632063,52.910726,0.043457,-0.040787,1.008118,0.005536,-0.015015,-0.021931,60.771545,24.81163,-145.93692,,,
729608609.306645,-2.019941,-2.634103,52.904495,0.046036,-0.041031,1.013245,0.026038,0.007871,-0.023909,60.771545,24.81163,-145.93692,,,
729608609.309985,-2.019941,-2.634103,52.904495,0.046036,-0.041031,1.013245,0.026038,0.007871,-0.023909,60.771545,24.81163,-145.93692,,,
729608609.313359,-2.009513,-2.627856,52.898952,0.046036,-0.041031,1.013245,0.026038,0.007871,-0.023909,60.771545,24.81163,-145.93692,,,
729608609.316637,-1.996744,-2.619453,52.893762,0.043503,-0.040527,1.017532,0.049253,0.040809,-0.022411,60.771545,24.81163,-145.93692,,,
729608609.319966,-1.996744,-2.619453,52.893762,0.043503,-0.040527,1.017532,0.049253,0.040809,-0.022411,61.0793,24.682755,-146.369949,,,
729608609.323304,-1.981473,-2.604811,52.888613,0.043503,-0.040527,1.017532,0.049253,0.040809,-0.022411,61.0793,24.682755,-146.369949,,,
729608609.326631,-1.964381,-2.588611,52.883489,0.040741,-0.038406,1.014038,0.06048,0.066343,-0.020735,61.0793,24.682755,-146.369949,,,
729608609.329991,-1.964381,-2.588611,52.883489,0.040741,-0.038406,1.014038,0.06048,0.066343,-0.020735,61.0793,24.682755,-146.369949,,,
729608609.333315,-1.94509,-2.569681,52.878791,0.040741,-0.038406,1.014038,0.06048,0.066343,-0.020735,61.0793,24.682755,-146.369949,,,
729608609.336632,-1.925419,-2.550544,52.875176,0.035217,-0.04071,1.00621,0.073977,0.072768,-0.019135,61.0793,24.682755,-146.369949,,,
729608609.339968,-1.925419,-2.550544,52.875176,0.035217,-0.04071,1.00621,0.073977,0.072768,-0.019135,61.0793,24.682755,-146.369949,,,
729608609.343306,-1.902064,-2.531431,52.872683,0.035217,-0.04071,1.00621,0.073977,0.072768,-0.019135,61.0793,24.682755,-146.369949,,,
729608609.346631,-1.877735,-2.515838,52.870741,0.030411,-0.042099,0.998413,0.084529,0.066701,-0.014243,61.0793,24.682755,-146.369949,,,
729608609.349989,-1.877735,-2.515838,52.870741,0.030411,-0.042099,0.998413,0.084529,0.066701,-0.014243,61.0793,24.682755,-146.369949,,,
729608609.353388,-1.853547,-2.499894,52.869074,0.030411,-0.042099,0.998413,0.084529,0.066701,-0.014243,61.0793,24.682755,-146.369949,,,
729608609.356657,-1.828688,-2.488216,52.867841,0.026062,-0.040573,0.991135,0.089171,0.055022,-0.009266,61.0793,24.682755,-146.369949,,,
729608609.359975,-1.828688,-2.488216,52.867841,0.026062,-0.040573,0.991135,0.089171,0.055022,-0.009266,61.137161,24.470398,-146.265457,,,
729608609.363337,-1.804428,-2.474872,52.866946,0.026062,-0.040573,0.991135,0.089171,0.055022,-0.009266,61.137161,24.470398,-146.265457,,,
729608609.366638,-1.78025,-2.465369,52.865481,0.031265,-0.039825,0.991562,0.085464,0.043742,-0.008536,61.137161,24.470398,-146.265457,,,
729608609.36997,-1.78025,-2.465369,52.865481,0.031265,-0.039825,0.991562,0.085464,0.043742,-0.008536,61.137161,24.470398,-146.265457,,,
729608609.37332,-1.756137,-2.455365,52.863887,0.031265,-0.039825,0.991562,0.085464,0.043742,-0.008536,61.137161,24.470398,-146.265457,,,
729608609.376638,-1.73518,-2.446717,52.862182,0.032883,-0.035385,0.987,0.079979,0.033967,-0.01227,61.137161,24.470398,-146.265457,,,
729608609.379958,-1.73518,-2.446717,52.862182,0.032883,-0.035385,0.987,0.079979,0.033967,-0.01227,61.137161,24.470398,-146.265457,,,
729608609.383315,-1.713485,-2.438149,52.860945,0.032883,-0.035385,0.987,0.079979,0.033967,-0.01227,61.137161,24.470398,-146.265457,,,
729608609.386639,-1.695713,-2.43045,52.860437,0.032028,-0.03598,0.985382,0.073767,0.033954,-0.006067,61.137161,24.470398,-146.265457,,,
729608609.390083,-1.695713,-2.43045,52.860437,0.032028,-0.03598,0.985382,0.073767,0.033954,-0.006067,61.137161,24.470398,-146.265457,,,
729608609.393395,-1.676563,-2.422037,52.860841,0.032028,-0.03598,0.985382,0.073767,0.033954,-0.006067,61.137161,24.470398,-146.265457,,,
729608609.396641,-1.662458,-2.41459,52.862341,0.038086,-0.035828,0.979675,0.062297,0.029798,0.001719,61.137161,24.470398,-146.265457,,,
729608609.399991,-1.662458,-2.41459,52.862341,0.038086,-0.035828,0.979675,0.062297,0.029798,0.001719,61.137161,24.470398,-146.265457,,,
729608609.403327,-1.646443,-2.4066,52.864671,0.038086,-0.035828,0.979675,0.062297,0.029798,0.001719,61.325424,24.194275,-146.470398,,,
729608609.406635,-1.634311,-2.398553,52.867259,0.03981,-0.029922,0.977859,0.049361,0.031479,0.004947,61.325424,24.194275,-146.470398,,,
729608609.409984,-1.634311,-2.398553,52.867259,0.03981,-0.029922,0.977859,0.049361,0.031479,0.004947,61.325424,24.194275,-146.470398,,,
729608609.413327,-1.621393,-2.391164,52.86975,0.03981,-0.029922,0.977859,0.049361,0.031479,0.004947,61.325424,24.194275,-146.470398,,,
729608609.416637,-1.612968,-2.382774,52.871742,0.043457,-0.027832,0.977463,0.039511,0.027508,0.003022,61.325424,24.194275,-146.470398,,,
729608609.42006,-1.612968,-2.382774,52.871742,0.043457,-0.027832,0.977463,0.039511,0.027508,0.003022,61.325424,24.194275,-146.470398,,,
729608609.423332,-1.60415,-2.375633,52.873016,0.043457,-0.027832,0.977463,0.039511,0.027508,0.003022,61.325424,24.194275,-146.470398,,,
729608609.426645,-1.601464,-2.365273,52.874291,0.045349,-0.026733,0.973999,0.026642,0.026452,0.000644,61.325424,24.194275,-146.470398,,,
729608609.429992,-1.601464,-2.365273,52.874291,0.045349,-0.026733,0.973999,0.026642,0.026452,0.000644,61.325424,24.194275,-146.470398,,,
729608609.433303,-1.596798,-2.35783,52.875922,0.045349,-0.026733,0.973999,0.026642,0.026452,0.000644,61.325424,24.194275,-146.470398,,,
729608609.436675,-1.598093,-2.346292,52.878136,0.043839,-0.024033,0.977264,0.008852,0.029603,0.004712,61.325424,24.194275,-146.470398,,,
729608609.439964,-1.598093,-2.346292,52.878136,0.043839,-0.024033,0.977264,0.008852,0.029603,0.004712,61.325424,24.194275,-146.470398,,,
729608609.443297,-1.597568,-2.338911,52.88118,0.043839,-0.024033,0.977264,0.008852,0.029603,0.004712,61.405151,24.426315,-146.233948,,,
729608609.446641,-1.602553,-2.327718,52.885543,0.04213,-0.026398,0.976181,-0.00122,0.027373,0.013115,61.405151,24.426315,-146.233948,,,
729608609.449979,-1.602553,-2.327718,52.885543,0.04213,-0.026398,0.976181,-0.00122,0.027373,0.013115,61.405151,24.426315,-146.233948,,,
729608609.453306,-1.605883,-2.320076,52.890085,0.04213,-0.026398,0.976181,-0.00122,0.027373,0.013115,61.405151,24.426315,-146.233948,,,
729608609.456636,-1.613114,-2.310977,52.894572,0.041183,-0.02562,0.976654,-0.016514,0.028984,0.01731,61.405151,24.426315,-146.233948,,,
729608609.46004,-1.613114,-2.310977,52.894572,0.041183,-0.02562,0.976654,-0.016514,0.028984,0.01731,61.405151,24.426315,-146.233948,,,
729608609.46331,-1.619607,-2.305222,52.899346,0.041183,-0.02562,0.976654,-0.016514,0.028984,0.01731,61.405151,24.426315,-146.233948,,,
729608609.466625,-1.629851,-2.298312,52.904868,0.0401,-0.022644,0.972824,-0.030593,0.017003,0.018596,61.405151,24.426315,-146.233948,,,
729608609.469995,-1.629851,-2.298312,52.904868,0.0401,-0.022644,0.972824,-0.030593,0.017003,0.018596,61.405151,24.426315,-146.233948,,,
729608609.473296,-1.639971,-2.295132,52.910369,0.0401,-0.022644,0.972824,-0.030593,0.017003,0.018596,61.405151,24.426315,-146.233948,,,
729608609.47663,-1.653811,-2.29274,52.915735,0.041672,-0.02124,0.975143,-0.042025,0.007444,0.019249,61.405151,24.426315,-146.233948,,,
729608609.479962,-1.653811,-2.29274,52.915735,0.041672,-0.02124,0.975143,-0.042025,0.007444,0.019249,61.405151,24.426315,-146.233948,,,
729608609.483295,-1.667313,-2.293757,52.92095,0.041672,-0.02124,0.975143,-0.042025,0.007444,0.019249,61.182037,24.383377,-146.25795,,,
729608609.48663,-1.682596,-2.296725,52.925767,0.045639,-0.021835,0.979782,-0.049584,-0.007444,0.016696,61.182037,24.383377,-146.25795,,,
729608609.489994,-1.682596,-2.296725,52.925767,0.045639,-0.021835,0.979782,-0.049584,-0.007444,0.016696,61.182037,24.383377,-146.25795,,,
729608609.493302,-1.698392,-2.300247,52.930863,0.045639,-0.021835,0.979782,-0.049584,-0.007444,0.016696,61.182037,24.383377,-146.25795,,,
729608609.49663,-1.715422,-2.305206,52.935967,0.044861,-0.02359,0.982498,-0.059092,-0.013018,0.017252,61.182037,24.383377,-146.25795,,,
729608609.500067,-1.715422,-2.305206,52.935967,0.044861,-0.02359,0.982498,-0.059092,-0.013018,0.017252,61.182037,24.383377,-146.25795,,,
729608609.503335,-1.734506,-2.311456,52.940285,0.044861,-0.02359,0.982498,-0.059092,-0.013018,0.017252,61.182037,24.383377,-146.25795,,,
729608609.506628,-1.755681,-2.320104,52.943971,0.049271,-0.021851,0.983978,-0.07062,-0.023846,0.014657,61.182037,24.383377,-146.25795,,,
729608609.509992,-1.755681,-2.320104,52.943971,0.049271,-0.021851,0.983978,-0.07062,-0.023846,0.014657,61.182037,24.383377,-146.25795,,,
729608609.513387,-1.779332,-2.329876,52.946617,0.049271,-0.021851,0.983978,-0.07062,-0.023846,0.014657,61.182037,24.383377,-146.25795,,,
729608609.516633,-1.804268,-2.34287,52.947713,0.053146,-0.020966,0.987213,-0.087138,-0.040154,0.007927,61.182037,24.383377,-146.25795,,,
729608609.519992,-1.804268,-2.34287,52.947713,0.053146,-0.020966,0.987213,-0.087138,-0.040154,0.007927,61.182037,24.383377,-146.25795,,,
729608609.523374,-1.832156,-2.358481,52.947002,0.053146,-0.020966,0.987213,-0.087138,-0.040154,0.007927,61.191605,24.592819,-145.810837,,,
729608609.52663,-1.860694,-2.378062,52.943775,0.055893,-0.022797,0.994934,-0.098603,-0.064849,-0.011371,61.191605,24.592819,-145.810837,,,
729608609.529983,-1.860694,-2.378062,52.943775,0.055893,-0.022797,0.994934,-0.098603,-0.064849,-0.011371,61.191605,24.592819,-145.810837,,,
729608609.533312,-1.889843,-2.40031,52.938324,0.055893,-0.022797,0.994934,-0.098603,-0.064849,-0.011371,61.191605,24.592819,-145.810837,,,
729608609.536643,-1.917295,-2.425189,52.931256,0.057861,-0.028687,1.003647,-0.098783,-0.085528,-0.025014,61.191605,24.592819,-145.810837,,,
729608609.539974,-1.917295,-2.425189,52.931256,0.057861,-0.028687,1.003647,-0.098783,-0.085528,-0.025014,61.191605,24.592819,-145.810837,,,
729608609.54333,-1.943552,-2.452229,52.923266,0.057861,-0.028687,1.003647,-0.098783,-0.085528,-0.025014,61.191605,24.592819,-145.810837,,,
729608609.546632,-1.964486,-2.480498,52.914743,0.059174,-0.041077,1.020828,-0.079652,-0.093888,-0.028151,61.191605,24.592819,-145.810837,,,
729608609.550033,-1.964486,-2.480498,52.914743,0.059174,-0.041077,1.020828,-0.079652,-0.093888,-0.028151,61.191605,24.592819,-145.810837,,,
729608609.553313,-1.982409,-2.509429,52.906066,0.059174,-0.041077,1.020828,-0.079652,-0.093888,-0.028151,61.191605,24.592819,-145.810837,,,
729608609.556663,-1.992601,-2.537446,52.897963,0.059769,-0.048325,1.034927,-0.044748,-0.095335,-0.028049,61.191605,24.592819,-145.810837,,,
729608609.559988,-1.992601,-2.537446,52.897963,0.059769,-0.048325,1.034927,-0.044748,-0.095335,-0.028049,61.191605,24.592819,-145.810837,,,
729608609.563397,-1.999815,-2.565035,52.890033,0.059769,-0.048325,1.034927,-0.044748,-0.095335,-0.028049,61.191605,24.592819,-145.810837,,,
729608609.566627,-1.99871,-2.590827,52.881864,0.057159,-0.050018,1.041412,-0.008831,-0.083179,-0.031189,61.002518,24.780502,-146.007812,,,
729608609.56999,-1.99871,-2.590827,52.881864,0.057159,-0.050018,1.041412,-0.008831,-0.083179,-0.031189,61.002518,24.780502,-146.007812,,,
729608609.573319,-1.997422,-2.613066,52.872561,0.057159,-0.050018,1.041412,-0.008831,-0.083179,-0.031189,61.002518,24.780502,-146.007812,,,
729608609.576639,-1.991553,-2.632044,52.861693,0.061081,-0.044403,1.043365,0.013035,-0.057085,-0.038735,61.002518,24.780502,-146.007812,,,
729608609.57998,-1.991553,-2.632044,52.861693,0.061081,-0.044403,1.043365,0.013035,-0.057085,-0.038735,61.002518,24.780502,-146.007812,,,
729608609.583301,-1.987005,-2.646509,52.850057,0.061081,-0.044403,1.043365,0.013035,-0.057085,-0.038735,61.002518,24.780502,-146.007812,,,
729608609.586645,-1.979799,-2.656814,52.838591,0.058716,-0.036545,1.038116,0.015868,-0.028378,-0.042639,61.002518,24.780502,-146.007812,,,
729608609.589965,-1.979799,-2.656814,52.838591,0.058716,-0.036545,1.038116,0.015868,-0.028378,-0.042639,61.002518,24.780502,-146.007812,,,
729608609.593323,-1.974037,-2.662827,52.827501,0.058716,-0.036545,1.038116,0.015868,-0.028378,-0.042639,61.002518,24.780502,-146.007812,,,
729608609.596636,-1.965867,-2.666417,52.816304,0.05545,-0.033676,1.03392,0.023811,-0.003818,-0.040521,61.002518,24.780502,-146.007812,,,
729608609.600029,-1.965867,-2.666417,52.816304,0.05545,-0.033676,1.03392,0.023811,-0.003818,-0.040521,61.002518,24.780502,-146.007812,,,
729608609.603303,-1.95881,-2.666409,52.804762,0.05545,-0.033676,1.03392,0.023811,-0.003818,-0.040521,61.002518,24.780502,-146.007812,,,
729608609.606635,-1.947919,-2.666951,52.792811,0.052414,-0.034958,1.028885,0.028571,0.010187,-0.045463,61.058456,24.646423,-146.070404,,,
729608609.60998,-1.947919,-2.666951,52.792811,0.052414,-0.034958,1.028885,0.028571,0.010187,-0.045463,61.058456,24.646423,-146.070404,,,
729608609.613369,-1.936685,-2.665238,52.780894,0.052414,-0.034958,1.028885,0.028571,0.010187,-0.045463,61.058456,24.646423,-146.070404,,,
729608609.616626,-1.920614,-2.665735,52.769077,0.05014,-0.03598,1.024292,0.050874,0.009327,-0.044788,61.058456,24.646423,-146.070404,,,
729608609.619998,-1.920614,-2.665735,52.769077,0.05014,-0.03598,1.024292,0.050874,0.009327,-0.044788,61.058456,24.646423,-146.070404,,,
729608609.623426,-1.901976,-2.66516,52.757457,0.05014,-0.03598,1.024292,0.050874,0.009327,-0.044788,61.058456,24.646423,-146.070404,,,
729608609.626636,-1.881077,-2.667715,52.745049,0.04747,-0.032867,1.022522,0.069138,0.001191,-0.047781,61.058456,24.646423,-146.070404,,,
729608609.629978,-1.881077,-2.667715,52.745049,0.04747,-0.032867,1.022522,0.069138,0.001191,-0.047781,61.058456,24.646423,-146.070404,,,
729608609.633297,-1.857999,-2.669611,52.731799,0.04747,-0.032867,1.022522,0.069138,0.001191,-0.047781,61.058456,24.646423,-146.070404,,,
729608609.636666,-1.83678,-2.67517,52.717934,0.045563,-0.03093,1.009583,0.081945,-0.007262,-0.05279,61.058456,24.646423,-146.070404,,,
729608609.639963,-1.83678,-2.67517,52.717934,0.045563,-0.03093,1.009583,0.081945,-0.007262,-0.05279,61.058456,24.646423,-146.070404,,,
729608609.643314,-1.814437,-2.679561,52.703731,0.045563,-0.03093,1.009583,0.081945,-0.007262,-0.05279,61.058456,24.646423,-146.070404,,,
729608609.646627,-1.796177,-2.685601,52.689679,0.041229,-0.02739,0.997147,0.071897,-0.009957,-0.052841,60.930328,24.605331,-146.272171,,,
729608609.649989,-1.796177,-2.685601,52.689679,0.041229,-0.02739,0.997147,0.071897,-0.009957,-0.052841,60.930328,24.605331,-146.272171,,,
729608609.653313,-1.776497,-2.690023,52.676323,0.041229,-0.02739,0.997147,0.071897,-0.009957,-0.052841,60.930328,24.605331,-146.272171,,,
729608609.656641,-1.759803,-2.696627,52.664356,0.039871,-0.026779,0.994263,0.062347,-0.014331,-0.044108,60.930328,24.605331,-146.272171,,,
729608609.659958,-1.759803,-2.696627,52.664356,0.039871,-0.026779,0.994263,0.062347,-0.014331,-0.044108,60.930328,24.605331,-146.272171,,,
729608609.663317,-1.742986,-2.702216,52.653976,0.039871,-0.026779,0.994263,0.062347,-0.014331,-0.044108,60.930328,24.605331,-146.272171,,,
729608609.666629,-1.7293,-2.709486,52.644005,0.039688,-0.027298,0.99057,0.050182,-0.017454,-0.038565,60.930328,24.605331,-146.272171,,,
729608609.669983,-1.7293,-2.709486,52.644005,0.039688,-0.027298,0.99057,0.050182,-0.017454,-0.038565,60.930328,24.605331,-146.272171,,,
729608609.673324,-1.716419,-2.714466,52.633691,0.039688,-0.027298,0.99057,0.050182,-0.017454,-0.038565,60.930328,24.605331,-146.272171,,,
729608609.676631,-1.705012,-2.720035,52.623171,0.041565,-0.023773,0.987,0.039011,-0.013477,-0.040111,60.930328,24.605331,-146.272171,,,
729608609.680036,-1.705012,-2.720035,52.623171,0.041565,-0.023773,0.987,0.039011,-0.013477,-0.040111,60.930328,24.605331,-146.272171,,,
729608609.683287,-1.69375,-2.724437,52.612947,0.041565,-0.023773,0.987,0.039011,-0.013477,-0.040111,60.930328,24.605331,-146.272171,,,
729608609.686676,-1.683372,-2.729361,52.603846,0.044846,-0.026245,0.98793,0.035675,-0.009386,-0.036013,60.930328,24.605331,-146.272171,,,
729608609.690001,-1.683372,-2.729361,52.603846,0.044846,-0.026245,0.98793,0.035675,-0.009386,-0.036013,60.946609,24.427109,-146.166763,,,
729608609.693381,-1.673348,-2.733391,52.596665,0.044846,-0.026245,0.98793,0.035675,-0.009386,-0.036013,60.946609,24.427109,-146.166763,,,
729608609.696633,-1.664901,-2.73768,52.591595,0.042404,-0.030869,0.985168,0.033354,-0.008956,-0.021759,60.946609,24.427109,-146.166763,,,
729608609.699987,-1.664901,-2.73768,52.591595,0.042404,-0.030869,0.985168,0.033354,-0.008956,-0.021759,60.946609,24.427109,-146.166763,,,
729608609.703321,-1.656125,-2.741294,52.587635,0.042404,-0.030869,0.985168,0.033354,-0.008956,-0.021759,60.946609,24.427109,-146.166763,,,
729608609.706642,-1.648177,-2.744366,52.583732,0.043091,-0.029266,0.985001,0.029523,-0.008803,-0.016088,60.946609,24.427109,-146.166763,,,
729608609.709982,-1.648177,-2.744366,52.583732,0.043091,-0.029266,0.985001,0.029523,-0.008803,-0.016088,60.946609,24.427109,-146.166763,,,
729608609.71332,-1.639359,-2.747714,52.57982,0.043091,-0.029266,0.985001,0.029523,-0.008803,-0.016088,60.946609,24.427109,-146.166763,,,
729608609.716634,-1.631767,-2.750688,52.576202,0.046738,-0.027847,0.985718,0.029196,-0.009151,-0.013987,60.946609,24.427109,-146.166763,,,
729608609.719971,-1.631767,-2.750688,52.576202,0.046738,-0.027847,0.985718,0.029196,-0.009151,-0.013987,60.946609,24.427109,-146.166763,,,
729608609.723306,-1.624392,-2.754073,52.573395,0.046738,-0.027847,0.985718,0.029196,-0.009151,-0.013987,60.946609,24.427109,-146.166763,,,
729608609.726648,-1.618072,-2.755497,52.571097,0.043961,-0.025314,0.982529,0.020227,-0.006542,-0.010404,60.946609,24.427109,-146.166763,,,
729608609.729986,-1.618072,-2.755497,52.571097,0.043961,-0.025314,0.982529,0.020227,-0.006542,-0.010404,60.850037,24.233444,-145.994171,,,
729608609.733373,-1.613142,-2.757427,52.569198,0.043961,-0.025314,0.982529,0.020227,-0.006542,-0.010404,60.850037,24.233444,-145.994171,,,
729608609.736643,-1.609843,-2.756699,52.567781,0.045639,-0.024704,0.980423,0.01334,-0.004736,-0.006457,60.850037,24.233444,-145.994171,,,
729608609.739962,-1.609843,-2.756699,52.567781,0.045639,-0.024704,0.980423,0.01334,-0.004736,-0.006457,60.850037,24.233444,-145.994171,,,
729608609.743331,-1.60907,-2.758962,52.566619,0.045639,-0.024704,0.980423,0.01334,-0.004736,-0.006457,60.850037,24.233444,-145.994171,,,
729608609.746635,-1.610984,-2.758642,52.566007,0.045074,-0.021729,0.975784,-0.004871,-0.005683,-0.002085,60.850037,24.233444,-145.994171,,,
729608609.749982,-1.610984,-2.758642,52.566007,0.045074,-0.021729,0.975784,-0.004871,-0.005683,-0.002085,60.850037,24.233444,-145.994171,,,
729608609.75332,-1.616321,-2.760061,52.56564,0.045074,-0.021729,0.975784,-0.004871,-0.005683,-0.002085,60.850037,24.233444,-145.994171,,,
729608609.756659,-1.623396,-2.75911,52.565306,0.046356,-0.01796,0.970306,-0.027497,-0.005656,-0.002825,60.850037,24.233444,-145.994171,,,
729608609.760051,-1.623396,-2.75911,52.565306,0.046356,-0.01796,0.970306,-0.027497,-0.005656,-0.002825,60.850037,24.233444,-145.994171,,,
729608609.763321,-1.634057,-2.761998,52.565285,0.046356,-0.01796,0.970306,-0.027497,-0.005656,-0.002825,60.850037,24.233444,-145.994171,,,
729608609.766636,-1.645398,-2.765212,52.565582,0.047424,-0.014526,0.970825,-0.044171,-0.012257,0.002626,60.850037,24.233444,-145.994171,,,
729608609.769983,-1.645398,-2.765212,52.565582,0.047424,-0.014526,0.970825,-0.044171,-0.012257,0.002626,60.928009,24.274155,-146.271606,,,
729608609.773318,-1.659198,-2.771443,52.565174,0.047424,-0.014526,0.970825,-0.044171,-0.012257,0.002626,60.928009,24.274155,-146.271606,,,
729608609.776639,-1.673701,-2.778682,52.564818,0.048645,-0.017578,0.975296,-0.049716,-0.026425,-0.001357,60.928009,24.274155,-146.271606,,,
729608609.779981,-1.673701,-2.778682,52.564818,0.048645,-0.017578,0.975296,-0.049716,-0.026425,-0.001357,60.928009,24.274155,-146.271606,,,
729608609.783315,-1.687228,-2.789284,52.564585,0.048645,-0.017578,0.975296,-0.049716,-0.026425,-0.001357,60.928009,24.274155,-146.271606,,,
729608609.786641,-1.70043,-2.799415,52.564105,0.051529,-0.020294,0.982727,-0.045836,-0.037706,-0.005572,60.928009,24.274155,-146.271606,,,
729608609.789964,-1.70043,-2.799415,52.564105,0.051529,-0.020294,0.982727,-0.045836,-0.037706,-0.005572,60.928009,24.274155,-146.271606,,,
729608609.793339,-1.712526,-2.811762,52.562801,0.051529,-0.020294,0.982727,-0.045836,-0.037706,-0.005572,60.928009,24.274155,-146.271606,,,
729608609.796638,-1.724504,-2.823288,52.560356,0.056686,-0.020782,0.98848,-0.040645,-0.039266,-0.007253,60.928009,24.274155,-146.271606,,,
729608609.800027,-1.724504,-2.823288,52.560356,0.056686,-0.020782,0.98848,-0.040645,-0.039266,-0.007253,60.928009,24.274155,-146.271606,,,
729608609.803317,-1.737096,-2.833959,52.558109,0.056686,-0.020782,0.98848,-0.040645,-0.039266,-0.007253,60.928009,24.274155,-146.271606,,,
729608609.806628,-1.749641,-2.840983,52.556508,0.052216,-0.018311,0.990631,-0.047556,-0.022557,-0.005821,60.928009,24.274155,-146.271606,,,
729608609.809971,-1.749641,-2.840983,52.556508,0.052216,-0.018311,0.990631,-0.047556,-0.022557,-0.005821,60.699432,24.520874,-146.072876,,,
729608609.813304,-1.763335,-2.84476,52.555292,0.052216,-0.018311,0.990631,-0.047556,-0.022557,-0.005821,60.699432,24.520874,-146.072876,,,
729608609.816629,-1.763335,-2.844446,52.554978,0.051849,-0.02594,1.001022,-0.047789,0.00217,-1e-06,60.699432,24.520874,-146.072876,,,
729608609.819983,-1.776058,-2.844446,52.554978,0.051849,-0.02594,1.001022,-0.047789,0.00217,-1e-06,60.699432,24.520874,-146.072876,,,
729608609.823341,-1.789002,-2.844376,52.555718,0.051849,-0.02594,1.001022,-0.047789,0.00217,-1e-06,60.699432,24.520874,-146.072876,,,
729608609.826671,-1.789002,-2.844614,52.557515,0.046356,-0.031372,1.002045,-0.037356,-0.001075,0.008623,60.699432,24.520874,-146.072876,,,
729608609.83001,-1.799656,-2.844614,52.557515,0.046356,-0.031372,1.002045,-0.037356,-0.001075,0.008623,60.699432,24.520874,-146.072876,,,
729608609.833326,-1.811128,-2.847154,52.559846,0.046356,-0.031372,1.002045,-0.037356,-0.001075,0.008623,60.699432,24.520874,-146.072876,,,
729608609.836663,-1.820126,-2.851016,52.561744,0.039764,-0.032135,1.002747,-0.038971,-0.011997,0.007329,60.699432,24.520874,-146.072876,,,
729608609.839966,-1.820126,-2.851016,52.561744,0.039764,-0.032135,1.002747,-0.038971,-0.011997,0.007329,60.699432,24.520874,-146.072876,,,
729608609.843294,-1.830705,-2.858735,52.563003,0.039764,-0.032135,1.002747,-0.038971,-0.011997,0.007329,60.699432,24.520874,-146.072876,,,
729608609.846636,-1.830705,-2.858735,52.563003,0.039627,-0.030334,1.00798,-0.029127,-0.039202,0.003645,60.699432,24.520874,-146.072876,,,
729608609.849972,-1.836144,-2.870662,52.564329,0.039627,-0.030334,1.00798,-0.029127,-0.039202,0.003645,60.699432,24.520874,-146.072876,,,
729608609.853399,-1.844308,-2.887687,52.566012,0.039627,-0.030334,1.00798,-0.029127,-0.039202,0.003645,60.782166,24.482819,-146.348633,,,
729608609.856639,-1.844308,-2.887687,52.566012,0.040268,-0.034485,1.010452,-0.021282,-0.066731,0.005481,60.782166,24.482819,-146.348633,,,
729608609.859996,-1.846952,-2.907736,52.568109,0.040268,-0.034485,1.010452,-0.021282,-0.066731,0.005481,60.782166,24.482819,-146.348633,,,
729608609.86332,-1.851903,-2.92952,52.570153,0.040268,-0.034485,1.010452,-0.021282,-0.066731,0.005481,60.782166,24.482819,-146.348633,,,
729608609.866718,-1.851903,-2.92952,52.570153,0.049759,-0.037537,1.015045,-0.012532,-0.074102,0.002814,60.782166,24.482819,-146.348633,,,
729608609.869981,-1.852239,-2.951219,52.571449,0.049759,-0.037537,1.015045,-0.012532,-0.074102,0.002814,60.782166,24.482819,-146.348633,,,
729608609.873301,-1.85545,-2.97245,52.571891,0.049759,-0.037537,1.015045,-0.012532,-0.074102,0.002814,60.782166,24.482819,-146.348633,,,
729608609.876644,-1.85545,-2.97245,52.571891,0.060699,-0.030472,1.021774,-0.013153,-0.065062,-0.001205,60.782166,24.482819,-146.348633,,,
729608609.880041,-1.854903,-2.99312,52.571717,0.060699,-0.030472,1.021774,-0.013153,-0.065062,-0.001205,60.782166,24.482819,-146.348633,,,
729608609.883309,-1.856534,-3.009503,52.570294,0.060699,-0.030472,1.021774,-0.013153,-0.065062,-0.001205,60.782166,24.482819,-146.348633,,,
729608609.886713,-1.856534,-3.009503,52.570294,0.067123,-0.028427,1.027069,-0.002409,-0.041874,-0.009929,60.782166,24.482819,-146.348633,,,
729608609.889984,-1.852942,-3.023475,52.567494,0.067123,-0.028427,1.027069,-0.002409,-0.041874,-0.009929,60.782166,24.482819,-146.348633,,,
729608609.893305,-1.851064,-3.034431,52.564259,0.067123,-0.028427,1.027069,-0.002409,-0.041874,-0.009929,60.781006,24.473206,-146.349014,,,
729608609.89666,-1.851064,-3.034431,52.564259,0.067123,-0.028427,1.027069,0.017454,-0.029624,-0.015836,60.781006,24.473206,-146.349014,,,
729608609.899987,-1.843918,-3.043956,52.561235,0.069794,-0.030426,1.026962,0.017454,-0.029624,-0.015836,60.781006,24.473206,-146.349014,,,
729608609.903319,-1.836173,-3.053678,52.55867,0.069794,-0.030426,1.026962,0.017454,-0.029624,-0.015836,60.781006,24.473206,-146.349014,,,
729608609.906725,-1.836173,-3.053678,52.55867,0.069794,-0.030426,1.026962,0.040158,-0.03143,-0.013292,60.781006,24.473206,-146.349014,,,
729608609.909977,-1.824632,-3.062115,52.55625,0.064926,-0.035599,1.023148,0.040158,-0.03143,-0.013292,60.781006,24.473206,-146.349014,,,
729608609.913297,-1.810483,-3.071652,52.553548,0.064926,-0.035599,1.023148,0.040158,-0.03143,-0.013292,60.781006,24.473206,-146.349014,,,
729608609.916644,-1.810483,-3.071652,52.553548,0.064926,-0.035599,1.023148,0.0621,-0.029368,-0.017931,60.781006,24.473206,-146.349014,,,
729608609.920049,-1.793112,-3.076972,52.550422,0.064789,-0.032852,1.021057,0.0621,-0.029368,-0.017931,60.781006,24.473206,-146.349014,,,
729608609.923292,-1.772416,-3.08685,52.54663,0.064789,-0.032852,1.021057,0.0621,-0.029368,-0.017931,60.781006,24.473206,-146.349014,,,
729608609.926634,-1.772416,-3.08685,52.54663,0.064789,-0.032852,1.021057,0.082359,-0.036535,-0.019433,60.781006,24.473206,-146.349014,,,
729608609.929988,-1.749243,-3.093443,52.542655,0.060684,-0.027847,1.01889,0.082359,-0.036535,-0.019433,60.781006,24.473206,-146.349014,,,
729608609.933303,-1.725303,-3.105224,52.538124,0.060684,-0.027847,1.01889,0.082359,-0.036535,-0.019433,60.588409,24.40509,-146.17392,,,
729608609.936655,-1.725303,-3.105224,52.538124,0.060684,-0.027847,1.01889,0.082413,-0.035522,-0.024616,60.588409,24.40509,-146.17392,,,
729608609.939967,-1.702743,-3.111821,52.532749,0.057358,-0.027969,1.008133,0.082413,-0.035522,-0.024616,60.588409,24.40509,-146.17392,,,
729608609.943301,-1.681083,-3.12162,52.525848,0.057358,-0.027969,1.008133,0.082413,-0.035522,-0.024616,60.588409,24.40509,-146.17392,,,
729608609.946755,-1.681083,-3.12162,52.525848,0.057358,-0.027969,1.008133,0.069096,-0.026929,-0.032278,60.588409,24.40509,-146.17392,,,
729608609.949956,-1.662886,-3.127544,52.518269,0.055847,-0.024841,1.002762,0.069096,-0.026929,-0.032278,60.588409,24.40509,-146.17392,,,
729608609.953299,-1.644278,-3.136919,52.510338,0.055847,-0.024841,1.002762,0.069096,-0.026929,-0.032278,60.588409,24.40509,-146.17392,,,
729608609.956704,-1.644278,-3.136919,52.510338,0.055847,-0.024841,1.002762,0.058888,-0.033813,-0.029123,60.588409,24.40509,-146.17392,,,
729608609.960048,-1.627662,-3.147895,52.502863,0.045258,-0.026215,0.997299,0.058888,-0.033813,-0.029123,60.588409,24.40509,-146.17392,,,
729608609.96329,-1.611528,-3.158678,52.496737,0.045258,-0.026215,0.997299,0.058888,-0.033813,-0.029123,60.588409,24.40509,-146.17392,,,
729608609.966701,-1.611528,-3.158678,52.496737,0.045258,-0.026215,0.997299,0.058888,-0.033813,-0.029123,60.588409,24.40509,-146.17392,,,
729608609.969978,-1.596762,-3.170698,52.491193,0.040054,-0.027054,0.994781,0.050924,-0.032572,-0.024207,60.588409,24.40509,-146.17392,,,
729608609.973314,-1.583378,-3.179945,52.485847,0.040054,-0.027054,0.994781,0.050924,-0.032572,-0.024207,60.48288,24.142105,-146.365646,,,
729608609.976713,-1.583378,-3.179945,52.485847,0.040054,-0.027054,0.994781,0.050924,-0.032572,-0.024207,60.48288,24.142105,-146.365646,,,
729608609.979979,-1.570841,-3.191922,52.480737,0.041946,-0.029037,0.99646,0.044655,-0.028737,-0.022364,60.48288,24.142105,-146.365646,,,
729608609.983306,-1.557355,-3.200737,52.476193,0.041946,-0.029037,0.99646,0.044655,-0.028737,-0.022364,60.48288,24.142105,-146.365646,,,
729608609.986636,-1.557355,-3.200737,52.476193,0.041946,-0.029037,0.99646,0.044655,-0.028737,-0.022364,60.48288,24.142105,-146.365646,,,
729608609.989967,-1.544429,-3.211536,52.472718,0.044556,-0.03064,0.995789,0.050804,-0.029219,-0.014794,60.48288,24.142105,-146.365646,,,
729608609.993302,-1.52914,-3.219475,52.47104,0.044556,-0.03064,0.995789,0.050804,-0.029219,-0.014794,60.48288,24.142105,-146.365646,,,
729608609.996738,-1.52914,-3.219475,52.47104,0.044556,-0.03064,0.995789,0.050804,-0.029219,-0.014794,60.48288,24.142105,-146.365646,,,
729608609.999964,-1.513492,-3.228174,52.470563,0.045868,-0.034302,0.99585,0.059168,-0.022626,-0.00647,60.48288,24.142105,-146.365646,,,
729608610.003306,-1.495188,-3.234322,52.470798,0.045868,-0.034302,0.99585,0.059168,-0.022626,-0.00647,60.48288,24.142105,-146.365646,,,
729608610.006788,-1.495188,-3.234322,52.470798,0.045868,-0.034302,0.99585,0.059168,-0.022626,-0.00647,60.48288,24.142105,-146.365646,,,
729608610.010007,-1.476469,-3.24078,52.472132,0.047363,-0.034607,0.992004,0.069805,-0.017152,-0.001633,60.48288,24.142105,-146.365646,,,
729608610.013299,-1.455266,-3.244853,52.474705,0.047363,-0.034607,0.992004,0.069805,-0.017152,-0.001633,60.48288,24.142105,-146.365646,,,
729608610.016668,-1.455266,-3.244853,52.474705,0.047363,-0.034607,0.992004,0.069805,-0.017152,-0.001633,60.192276,24.193466,-146.466782,,,
729608610.019973,-1.434407,-3.248727,52.478205,0.050186,-0.032883,0.985886,0.073656,-0.011939,0.005581,60.192276,24.193466,-146.466782,,,
729608610.023326,-1.415116,-3.252698,52.482318,0.050186,-0.032883,0.985886,0.073656,-0.011939,0.005581,60.192276,24.193466,-146.466782,,,
729608610.026693,-1.415116,-3.252698,52.482318,0.050186,-0.032883,0.985886,0.073656,-0.011939,0.005581,60.192276,24.193466,-146.466782,,,
729608610.030003,-1.399138,-3.256329,52.485941,0.05246,-0.026352,0.971954,0.055836,-0.009711,0.006574,60.192276,24.193466,-146.466782,,,
729608610.033298,-1.386696,-3.259385,52.487916,0.05246,-0.026352,0.971954,0.055836,-0.009711,0.006574,60.192276,24.193466,-146.466782,,,
729608610.036699,-1.386696,-3.259385,52.487916,0.05246,-0.026352,0.971954,0.055836,-0.009711,0.006574,60.192276,24.193466,-146.466782,,,
729608610.039967,-1.378783,-3.260082,52.488423,0.058319,-0.015381,0.963608,0.028887,-0.006784,0.000189,60.192276,24.193466,-146.466782,,,
729608610.0433,-1.374572,-3.263746,52.48803,0.058319,-0.015381,0.963608,0.028887,-0.006784,0.000189,60.192276,24.193466,-146.466782,,,
729608610.046725,-1.374572,-3.263746,52.48803,0.058319,-0.015381,0.963608,0.028887,-0.006784,0.000189,60.192276,24.193466,-146.466782,,,
729608610.049974,-1.374236,-3.264387,52.487958,0.051483,-0.017014,0.960266,0.008466,-0.019141,-0.003848,60.192276,24.193466,-146.466782,,,
729608610.053314,-1.375173,-3.272119,52.488302,0.051483,-0.017014,0.960266,0.008466,-0.019141,-0.003848,60.192276,24.193466,-146.466782,,,
729608610.056728,-1.375173,-3.272119,52.488302,0.051483,-0.017014,0.960266,0.008466,-0.019141,-0.003848,60.306671,23.971725,-146.000183,,,
729608610.060025,-1.379071,-3.27644,52.489372,0.04866,-0.026077,0.96283,-0.008784,-0.031835,0.002223,60.306671,23.971725,-146.000183,,,
729608610.063295,-1.382521,-3.286873,52.491073,0.04866,-0.026077,0.96283,-0.008784,-0.031835,0.002223,60.306671,23.971725,-146.000183,,,
729608610.066628,-1.382521,-3.286873,52.491073,0.04866,-0.026077,0.96283,-0.008784,-0.031835,0.002223,60.306671,23.971725,-146.000183,,,
729608610.069979,-1.388549,-3.293964,52.493424,0.051331,-0.027206,0.966644,-0.016832,-0.036076,0.00757,60.306671,23.971725,-146.000183,,,
729608610.073314,-1.39296,-3.305753,52.495934,0.051331,-0.027206,0.966644,-0.016832,-0.036076,0.00757,60.306671,23.971725,-146.000183,,,
729608610.07664,-1.39296,-3.305753,52.495934,0.051331,-0.027206,0.966644,-0.016832,-0.036076,0.00757,60.306671,23.971725,-146.000183,,,
729608610.079992,-1.399615,-3.314205,52.498267,0.058563,-0.025085,0.970963,-0.013475,-0.040511,0.008188,60.306671,23.971725,-146.000183,,,
729608610.083291,-1.404287,-3.325598,52.50078,0.058563,-0.025085,0.970963,-0.013475,-0.040511,0.008188,60.306671,23.971725,-146.000183,,,
729608610.086749,-1.404287,-3.325598,52.50078,0.058563,-0.025085,0.970963,-0.013475,-0.040511,0.008188,60.306671,23.971725,-146.000183,,,
729608610.089993,-1.41117,-3.332762,52.503023,0.063568,-0.024521,0.973495,-0.018181,-0.02972,0.007786,60.306671,23.971725,-146.000183,,,
729608610.093306,-1.41562,-3.339386,52.504477,0.063568,-0.024521,0.973495,-0.018181,-0.02972,0.007786,60.306671,23.971725,-146.000183,,,
729608610.096635,-1.41562,-3.339386,52.504477,0.063568,-0.024521,0.973495,-0.018181,-0.02972,0.007786,60.240463,24.134216,-146.015808,,,
729608610.100047,-1.420437,-3.341569,52.506203,0.067474,-0.023132,0.978958,-0.010355,-0.011652,0.004236,60.240463,24.134216,-146.015808,,,
729608610.103315,-1.423253,-3.34317,52.508046,0.067474,-0.023132,0.978958,-0.010355,-0.011652,0.004236,60.240463,24.134216,-146.015808,,,
729608610.106638,-1.423253,-3.34317,52.508046,0.067474,-0.023132,0.978958,-0.010355,-0.011652,0.004236,60.240463,24.134216,-146.015808,,,
729608610.109999,-1.42661,-3.341705,52.510286,0.069473,-0.025055,0.982117,-0.005917,0.002806,0.007078,60.240463,24.134216,-146.015808,,,
729608610.113298,-1.42913,-3.339998,52.512705,0.069473,-0.025055,0.982117,-0.005917,0.002806,0.007078,60.240463,24.134216,-146.015808,,,
729608610.116644,-1.42913,-3.339998,52.512705,0.069473,-0.025055,0.982117,-0.005917,0.002806,0.007078,60.240463,24.134216,-146.015808,,,
729608610.119969,-1.431522,-3.337223,52.514884,0.067093,-0.023483,0.978867,-0.007376,0.015259,0.006012,60.240463,24.134216,-146.015808,,,
729608610.123333,-1.435686,-3.333588,52.516346,0.067093,-0.023483,0.978867,-0.007376,0.015259,0.006012,60.240463,24.134216,-146.015808,,,
729608610.126642,-1.435686,-3.333588,52.516346,0.067093,-0.023483,0.978867,-0.007376,0.015259,0.006012,60.240463,24.134216,-146.015808,,,
729608610.12998,-1.440245,-3.329982,52.516508,0.069778,-0.017746,0.974777,-0.018173,0.017001,0.000684,60.240463,24.134216,-146.015808,,,
729608610.133292,-1.447127,-3.326528,52.515337,0.069778,-0.017746,0.974777,-0.018173,0.017001,0.000684,60.240463,24.134216,-146.015808,,,
729608610.136623,-1.447127,-3.326528,52.515337,0.069778,-0.017746,0.974777,-0.018173,0.017001,0.000684,60.123199,24.197235,-146.403015,,,
729608610.139962,-1.455429,-3.322528,52.513134,0.069855,-0.01619,0.972107,-0.026129,0.010278,-0.006496,60.123199,24.197235,-146.403015,,,
729608610.143301,-1.465263,-3.320486,52.510186,0.069855,-0.01619,0.972107,-0.026129,0.010278,-0.006496,60.123199,24.197235,-146.403015,,,
729608610.146644,-1.465263,-3.320486,52.510186,0.069855,-0.01619,0.972107,-0.026129,0.010278,-0.006496,60.123199,24.197235,-146.403015,,,
729608610.150053,-1.476088,-3.318395,52.506671,0.067642,-0.017456,0.974152,-0.037545,0.007638,-0.013249,60.123199,24.197235,-146.403015,,,
729608610.153285,-1.487107,-3.317214,52.502265,0.067642,-0.017456,0.974152,-0.037545,0.007638,-0.013249,60.123199,24.197235,-146.403015,,,
729608610.15667,-1.487107,-3.317214,52.502265,0.067642,-0.017456,0.974152,-0.037545,0.007638,-0.013249,60.123199,24.197235,-146.403015,,,
729608610.160014,-1.49836,-3.315639,52.496866,0.066269,-0.019012,0.979568,-0.040138,0.007902,-0.018159,60.123199,24.197235,-146.403015,,,
729608610.163295,-1.509979,-3.314285,52.491022,0.066269,-0.019012,0.979568,-0.040138,0.007902,-0.018159,60.123199,24.197235,-146.403015,,,
729608610.166654,-1.509979,-3.314285,52.491022,0.066269,-0.019012,0.979568,-0.040138,0.007902,-0.018159,60.123199,24.197235,-146.403015,,,
729608610.169984,-1.520606,-3.314447,52.485147,0.067596,-0.019104,0.985901,-0.035555,0.006603,-0.020751,60.123199,24.197235,-146.403015,,,
729608610.173301,-1.528646,-3.31355,52.479576,0.067596,-0.019104,0.985901,-0.035555,0.006603,-0.020751,60.123199,24.197235,-146.403015,,,
729608610.176725,-1.528646,-3.31355,52.479576,0.067596,-0.019104,0.985901,-0.035555,0.006603,-0.020751,60.123199,24.197235,-146.403015,,,
729608610.179985,-1.534334,-3.312802,52.474157,0.063217,-0.024109,0.994202,-0.021609,0.009475,-0.018255,60.288361,24.350204,-146.323257,,,
729608610.183306,-1.538458,-3.310016,52.469294,0.063217,-0.024109,0.994202,-0.021609,0.009475,-0.018255,60.288361,24.350204,-146.323257,,,
729608610.186634,-1.538458,-3.310016,52.469294,0.063217,-0.024109,0.994202,-0.021609,0.009475,-0.018255,60.288361,24.350204,-146.323257,,,
729608610.189972,-1.540335,-3.306627,52.465197,0.059708,-0.029327,0.998505,-0.008018,0.020379,-0.012823,60.288361,24.350204,-146.323257,,,
729608610.193303,-1.540401,-3.298414,52.462038,0.059708,-0.029327,0.998505,-0.008018,0.020379,-0.012823,60.288361,24.350204,-146.323257,,,
729608610.196663,-1.540401,-3.298414,52.462038,0.059708,-0.029327,0.998505,-0.008018,0.020379,-0.012823,60.288361,24.350204,-146.323257,,,
729608610.199996,-1.538254,-3.289541,52.459874,0.053955,-0.029709,1.001038,0.008356,0.038735,-0.008634,60.288361,24.350204,-146.323257,,,
729608610.203302,-1.535574,-3.278368,52.458351,0.053955,-0.029709,1.001038,0.008356,0.038735,-0.008634,60.288361,24.350204,-146.323257,,,
729608610.206632,-1.535574,-3.278368,52.458351,0.053955,-0.029709,1.001038,0.008356,0.038735,-0.008634,60.288361,24.350204,-146.323257,,,
729608610.209991,-1.532352,-3.26867,52.456989,0.05394,-0.023117,0.992783,0.008694,0.042855,-0.008681,60.288361,24.350204,-146.323257,,,
729608610.213303,-1.532001,-3.255815,52.455895,0.05394,-0.023117,0.992783,0.008694,0.042855,-0.008681,60.288361,24.350204,-146.323257,,,
729608610.216644,-1.532001,-3.255815,52.455895,0.05394,-0.023117,0.992783,0.008694,0.042855,-0.008681,60.288361,24.350204,-146.323257,,,
729608610.220012,-1.532828,-3.24461,52.454802,0.049225,-0.019714,0.984756,-0.008821,0.052874,-0.006447,60.280121,24.246887,-146.217117,,,
729608610.223336,-1.537383,-3.230803,52.453757,0.049225,-0.019714,0.984756,-0.008821,0.052874,-0.006447,60.280121,24.246887,-146.217117,,,
729608610.226709,-1.537383,-3.230803,52.453757,0.049225,-0.019714,0.984756,-0.008821,0.052874,-0.006447,60.280121,24.246887,-146.217117,,,
729608610.22999,-1.542833,-3.221567,52.453035,0.046005,-0.021805,0.982193,-0.026437,0.048046,-0.004235,60.280121,24.246887,-146.217117,,,
729608610.233298,-1.552624,-3.212261,52.453069,0.046005,-0.021805,0.982193,-0.026437,0.048046,-0.004235,60.280121,24.246887,-146.217117,,,
729608610.236769,-1.552624,-3.212261,52.453069,0.046005,-0.021805,0.982193,-0.026437,0.048046,-0.004235,60.280121,24.246887,-146.217117,,,
729608610.239973,-1.562338,-3.208769,52.454118,0.041412,-0.024338,0.981369,-0.038797,0.02264,0.002996,60.280121,24.246887,-146.217117,,,
729608610.243303,-1.573762,-3.206295,52.456103,0.041412,-0.024338,0.981369,-0.038797,0.02264,0.002996,60.280121,24.246887,-146.217117,,,
729608610.246648,-1.573762,-3.206295,52.456103,0.041412,-0.024338,0.981369,-0.038797,0.02264,0.002996,60.280121,24.246887,-146.217117,,,
729608610.250052,-1.582917,-3.209334,52.459018,0.038589,-0.028488,0.988861,-0.035328,0.001443,0.011652,60.280121,24.246887,-146.217117,,,
729608610.253294,-1.592288,-3.211079,52.462942,0.038589,-0.028488,0.988861,-0.035328,0.001443,0.011652,60.280121,24.246887,-146.217117,,,
729608610.256631,-1.592288,-3.211079,52.462942,0.038589,-0.028488,0.988861,-0.035328,0.001443,0.011652,60.280121,24.246887,-146.217117,,,
729608610.259975,-1.598415,-3.216254,52.467069,0.04686,-0.031067,1.000473,-0.026645,-0.006361,0.013094,60.556885,24.325317,-146.055923,,,
729608610.263307,-1.604097,-3.219876,52.472182,0.04686,-0.031067,1.000473,-0.026645,-0.006361,0.013094,60.556885,24.325317,-146.055923,,,
729608610.266482,-1.604097,-3.219876,52.472182,0.04686,-0.031067,1.000473,-0.026645,-0.006361,0.013094,60.556885,24.325317,-146.055923,,,
729608610.270001,-1.608697,-3.224934,52.47819,0.051224,-0.032623,1.006516,-0.013995,-0.008999,0.016812,60.556885,24.325317,-146.055923,,,
729608610.273297,-1.611819,-3.227132,52.483834,0.051224,-0.032623,1.006516,-0.013995,-0.008999,0.016812,60.556885,24.325317,-146.055923,,,
729608610.276694,-1.611819,-3.227132,52.483834,0.051224,-0.032623,1.006516,-0.013995,-0.008999,0.016812,60.556885,24.325317,-146.055923,,,
729608610.27998,-1.615303,-3.226565,52.489034,0.058182,-0.027832,1.014587,-0.007919,0.001969,0.015305,60.556885,24.325317,-146.055923,,,
729608610.283297,-1.618672,-3.223949,52.494066,0.058182,-0.027832,1.014587,-0.007919,0.001969,0.015305,60.556885,24.325317,-146.055923,,,
729608610.286647,-1.618672,-3.223949,52.494066,0.058182,-0.027832,1.014587,-0.007919,0.001969,0.015305,60.556885,24.325317,-146.055923,,,
729608610.290027,-1.621751,-3.218096,52.499272,0.060364,-0.025421,1.012299,-0.009849,0.018684,0.01645,60.556885,24.325317,-146.055923,,,
729608610.293306,-1.625852,-3.210633,52.505213,0.060364,-0.025421,1.012299,-0.009849,0.018684,0.01645,60.556885,24.325317,-146.055923,,,
729608610.296655,-1.625852,-3.210633,52.505213,0.060364,-0.025421,1.012299,-0.009849,0.018684,0.01645,60.556885,24.325317,-146.055923,,,
729608610.300055,-1.629022,-3.199676,52.511384,0.057648,-0.025391,1.010956,-0.016533,0.034908,0.019582,60.556885,24.325317,-146.055923,,,
729608610.303313,-1.635285,-3.188177,52.517589,0.057648,-0.025391,1.010956,-0.016533,0.034908,0.019582,60.52066,24.266815,-146.20491,,,
729608610.30665,-1.635285,-3.188177,52.517589,0.057648,-0.025391,1.010956,-0.016533,0.034908,0.019582,60.52066,24.266815,-146.20491,,,
729608610.309985,-1.639053,-3.172201,52.524599,0.057236,-0.02507,1.012848,-0.016815,0.050385,0.024137,60.52066,24.266815,-146.20491,,,
729608610.313304,-1.644265,-3.158286,52.532013,0.057236,-0.02507,1.012848,-0.016815,0.050385,0.024137,60.52066,24.266815,-146.20491,,,
729608610.316654,-1.644265,-3.158286,52.532013,0.057236,-0.02507,1.012848,-0.016815,0.050385,0.024137,60.52066,24.266815,-146.20491,,,
729608610.319985,-1.647077,-3.141603,52.539792,0.055328,-0.027817,1.013397,-0.014699,0.049821,0.027212,60.52066,24.266815,-146.20491,,,
729608610.323303,-1.650154,-3.12979,52.547958,0.055328,-0.027817,1.013397,-0.014699,0.049821,0.027212,60.52066,24.266815,-146.20491,,,
729608610.326719,-1.650154,-3.12979,52.547958,0.055328,-0.027817,1.013397,-0.014699,0.049821,0.027212,60.52066,24.266815,-146.20491,,,
729608610.32998,-1.650872,-3.115233,52.556332,0.058029,-0.029068,1.011703,-0.000843,0.037066,0.027163,60.52066,24.266815,-146.20491,,,
729608610.333306,-1.650973,-3.108505,52.564137,0.058029,-0.029068,1.011703,-0.000843,0.037066,0.027163,60.52066,24.266815,-146.20491,,,
729608610.33665,-1.650973,-3.108505,52.564137,0.058029,-0.029068,1.011703,-0.000843,0.037066,0.027163,60.52066,24.266815,-146.20491,,,
729608610.339972,-1.65077,-3.102873,52.571033,0.057297,-0.027557,1.009079,0.002686,0.013205,0.022582,60.52066,24.266815,-146.20491,,,
729608610.343303,-1.649308,-3.105353,52.576558,0.057297,-0.027557,1.009079,0.002686,0.013205,0.022582,60.570053,24.538681,-145.934998,,,
729608610.346645,-1.649308,-3.105353,52.576558,0.057297,-0.027557,1.009079,0.002686,0.013205,0.022582,60.570053,24.538681,-145.934998,,,
729608610.350024,-1.648978,-3.111124,52.580264,0.063736,-0.025543,1.003769,0.005542,-0.022486,0.011722,60.570053,24.538681,-145.934998,,,
729608610.353357,-1.648191,-3.123389,52.581684,0.063736,-0.025543,1.003769,0.005542,-0.022486,0.011722,60.570053,24.538681,-145.934998,,,
729608610.356693,-1.648191,-3.123389,52.581684,0.063736,-0.025543,1.003769,0.005542,-0.022486,0.011722,60.570053,24.538681,-145.934998,,,
729608610.360035,-1.648078,-3.139713,52.580985,0.068787,-0.021011,1.005234,0.001475,-0.053801,-0.004879,60.570053,24.538681,-145.934998,,,
729608610.363298,-1.646761,-3.15799,52.579193,0.068787,-0.021011,1.005234,0.001475,-0.053801,-0.004879,60.570053,24.538681,-145.934998,,,
729608610.366677,-1.646761,-3.15799,52.579193,0.068787,-0.021011,1.005234,0.001475,-0.053801,-0.004879,60.570053,24.538681,-145.934998,,,
729608610.369986,-1.642856,-3.178194,52.577117,0.070114,-0.025192,1.011368,0.014514,-0.061379,-0.009799,60.570053,24.538681,-145.934998,,,
729608610.373309,-1.638385,-3.195536,52.575391,0.070114,-0.025192,1.011368,0.014514,-0.061379,-0.009799,60.570053,24.538681,-145.934998,,,
729608610.376735,-1.638385,-3.195536,52.575391,0.070114,-0.025192,1.011368,0.014514,-0.061379,-0.009799,60.570053,24.538681,-145.934998,,,
729608610.379974,-1.63185,-3.210436,52.574327,0.074799,-0.031876,1.018158,0.020133,-0.050229,-0.004842,60.570053,24.538681,-145.934998,,,
729608610.383296,-1.625302,-3.219161,52.573185,0.074799,-0.031876,1.018158,0.020133,-0.050229,-0.004842,60.555695,24.541855,-146.081497,,,
729608610.386652,-1.625302,-3.219161,52.573185,0.074799,-0.031876,1.018158,0.020133,-0.050229,-0.004842,60.555695,24.541855,-146.081497,,,
729608610.389962,-1.616013,-3.221576,52.571698,0.080093,-0.029388,1.023132,0.028381,-0.006309,-0.006949,60.555695,24.541855,-146.081497,,,
729608610.393293,-1.60612,-3.218943,52.569921,0.080093,-0.029388,1.023132,0.028381,-0.006309,-0.006949,60.555695,24.541855,-146.081497,,,
729608610.396643,-1.60612,-3.218943,52.569921,0.080093,-0.029388,1.023132,0.028381,-0.006309,-0.006949,60.555695,24.541855,-146.081497,,,
729608610.400027,-1.594036,-3.211237,52.567197,0.082626,-0.027328,1.027679,0.042197,0.029598,-0.012516,60.555695,24.541855,-146.081497,,,
729608610.403315,-1.581011,-3.199286,52.563552,0.082626,-0.027328,1.027679,0.042197,0.029598,-0.012516,60.555695,24.541855,-146.081497,,,
729608610.406626,-1.581011,-3.199286,52.563552,0.082626,-0.027328,1.027679,0.042197,0.029598,-0.012516,60.555695,24.541855,-146.081497,,,
729608610.40998,-1.567827,-3.184402,52.559176,0.077438,-0.029007,1.02121,0.047755,0.055103,-0.021884,60.555695,24.541855,-146.081497,,,
729608610.413292,-1.554009,-3.168409,52.554158,0.077438,-0.029007,1.02121,0.047755,0.055103,-0.021884,60.555695,24.541855,-146.081497,,,
729608610.416644,-1.554009,-3.168409,52.554158,0.077438,-0.029007,1.02121,0.047755,0.055103,-0.021884,60.555695,24.541855,-146.081497,,,
729608610.41998,-1.540867,-3.153806,52.54863,0.063919,-0.028946,1.005829,0.04562,0.056992,-0.022919,60.555695,24.541855,-146.081497,,,
729608610.423334,-1.528453,-3.14118,52.542852,0.063919,-0.028946,1.005829,0.04562,0.056992,-0.022919,60.492233,24.216827,-146.365768,,,
729608610.426731,-1.528453,-3.14118,52.542852,0.063919,-0.028946,1.005829,0.04562,0.056992,-0.022919,60.492233,24.216827,-146.365768,,,
729608610.429993,-1.516215,-3.13341,52.537467,0.05452,-0.031067,0.996506,0.042395,0.03109,-0.022615,60.492233,24.216827,-146.365768,,,
729608610.433301,-1.504311,-3.129198,52.532544,0.05452,-0.031067,0.996506,0.042395,0.03109,-0.022615,60.492233,24.216827,-146.365768,,,
729608610.436644,-1.504311,-3.129198,52.532544,0.05452,-0.031067,0.996506,0.042395,0.03109,-0.022615,60.492233,24.216827,-146.365768,,,
729608610.43997,-1.492311,-3.132935,52.527588,0.050186,-0.029861,0.985855,0.039256,-0.002467,-0.018907,60.492233,24.216827,-146.365768,,,
729608610.443297,-1.48242,-3.137755,52.52179,0.050186,-0.029861,0.985855,0.039256,-0.002467,-0.018907,60.492233,24.216827,-146.365768,,,
729608610.446638,-1.48242,-3.137755,52.52179,0.050186,-0.029861,0.985855,0.039256,-0.002467,-0.018907,60.492233,24.216827,-146.365768,,,
729608610.449982,-1.472424,-3.148715,52.514144,0.050568,-0.022263,0.984909,0.031502,-0.019762,-0.029395,60.492233,24.216827,-146.365768,,,
729608610.453306,-1.463325,-3.156997,52.505736,0.050568,-0.022263,0.984909,0.031502,-0.019762,-0.029395,60.492233,24.216827,-146.365768,,,
729608610.456631,-1.463325,-3.156997,52.505736,0.050568,-0.022263,0.984909,0.031502,-0.019762,-0.029395,60.492233,24.216827,-146.365768,,,
729608610.459981,-1.454808,-3.171358,52.49773,0.052109,-0.023987,0.99086,0.034278,-0.031509,-0.030664,60.492233,24.216827,-146.365768,,,
729608610.46329,-1.444544,-3.180898,52.490574,0.052109,-0.023987,0.99086,0.034278,-0.031509,-0.030664,60.492233,24.216827,-146.365768,,,
729608610.466651,-1.444544,-3.180898,52.490574,0.052109,-0.023987,0.99086,0.034278,-0.031509,-0.030664,60.584503,24.038559,-146.365387,,,
729608610.469995,-1.436151,-3.195678,52.483548,0.054184,-0.027802,0.994995,0.035963,-0.026829,-0.027033,60.584503,24.038559,-146.365387,,,
729608610.473304,-1.426505,-3.200955,52.476708,0.054184,-0.027802,0.994995,0.035963,-0.026829,-0.027033,60.584503,24.038559,-146.365387,,,
729608610.476648,-1.426505,-3.200955,52.476708,0.054184,-0.027802,0.994995,0.035963,-0.026829,-0.027033,60.584503,24.038559,-146.365387,,,
729608610.48006,-1.417056,-3.211784,52.469621,0.056625,-0.027176,0.994202,0.033347,-0.006133,-0.030338,60.584503,24.038559,-146.365387,,,
729608610.483294,-1.407176,-3.21309,52.462771,0.056625,-0.027176,0.994202,0.033347,-0.006133,-0.030338,60.584503,24.038559,-146.365387,,,
729608610.486672,-1.407176,-3.21309,52.462771,0.056625,-0.027176,0.994202,0.033347,-0.006133,-0.030338,60.584503,24.038559,-146.365387,,,
729608610.489983,-1.397841,-3.218816,52.455773,0.058807,-0.024612,0.991089,0.035463,0.007091,-0.026697,60.584503,24.038559,-146.365387,,,
729608610.49331,-1.386301,-3.215009,52.448821,0.058807,-0.024612,0.991089,0.035463,0.007091,-0.026697,60.584503,24.038559,-146.365387,,,
729608610.496665,-1.386301,-3.215009,52.448821,0.058807,-0.024612,0.991089,0.035463,0.007091,-0.026697,60.584503,24.038559,-146.365387,,,
729608610.499989,-1.374832,-3.213734,52.441673,0.056488,-0.02504,0.992905,0.043268,0.023116,-0.028459,60.584503,24.038559,-146.365387,,,
729608610.503314,-1.362415,-3.206179,52.434479,0.056488,-0.02504,0.992905,0.043268,0.023116,-0.028459,60.584503,24.038559,-146.365387,,,
729608610.506631,-1.362415,-3.206179,52.434479,0.056488,-0.02504,0.992905,0.043268,0.023116,-0.028459,60.699936,23.964935,-146.428589,,,
729608610.509974,-1.352228,-3.196182,52.427169,0.052231,-0.022675,0.986496,0.041095,0.041269,-0.029238,60.699936,23.964935,-146.428589,,,
729608610.5133,-1.341389,-3.182652,52.420048,0.052231,-0.022675,0.986496,0.041095,0.041269,-0.029238,60.699936,23.964935,-146.428589,,,
729608610.516695,-1.341389,-3.182652,52.420048,0.052231,-0.022675,0.986496,0.041095,0.041269,-0.029238,60.699936,23.964935,-146.428589,,,
729608610.519976,-1.334994,-3.164797,52.413511,0.047073,-0.021317,0.98259,0.02828,0.063536,-0.024787,60.699936,23.964935,-146.428589,,,
729608610.523294,-1.329509,-3.14528,52.407641,0.047073,-0.021317,0.98259,0.02828,0.063536,-0.024787,60.699936,23.964935,-146.428589,,,
729608610.526639,-1.329509,-3.14528,52.407641,0.047073,-0.021317,0.98259,0.02828,0.063536,-0.024787,60.699936,23.964935,-146.428589,,,
729608610.530032,-1.328307,-3.123985,52.402756,0.044907,-0.022842,0.974274,0.008221,0.073641,-0.021053,60.699936,23.964935,-146.428589,,,
729608610.533283,-1.328986,-3.104115,52.398625,0.044907,-0.022842,0.974274,0.008221,0.073641,-0.021053,60.699936,23.964935,-146.428589,,,
729608610.536646,-1.328986,-3.104115,52.398625,0.044907,-0.022842,0.974274,0.008221,0.073641,-0.021053,60.699936,23.964935,-146.428589,,,
729608610.539965,-1.331768,-3.085356,52.395194,0.037338,-0.02272,0.969177,-0.010898,0.067273,-0.012645,60.699936,23.964935,-146.428589,,,
729608610.543294,-1.338012,-3.070102,52.392111,0.037338,-0.02272,0.969177,-0.010898,0.067273,-0.012645,60.699936,23.964935,-146.428589,,,
729608610.546624,-1.338012,-3.070102,52.392111,0.037338,-0.02272,0.969177,-0.010898,0.067273,-0.012645,60.892639,23.862381,-146.304977,,,
729608610.549955,-1.347616,-3.05868,52.389004,0.031784,-0.026138,0.968277,-0.029469,0.043936,-0.010069,60.892639,23.862381,-146.304977,,,
729608610.553295,-1.35855,-3.052099,52.386259,0.031784,-0.026138,0.968277,-0.029469,0.043936,-0.010069,60.892639,23.862381,-146.304977,,,
729608610.556649,-1.35855,-3.052099,52.386259,0.031784,-0.026138,0.968277,-0.029469,0.043936,-0.010069,60.892639,23.862381,-146.304977,,,
729608610.55997,-1.372975,-3.051044,52.383926,0.031067,-0.028809,0.964737,-0.048877,0.008279,-0.006821,60.892639,23.862381,-146.304977,,,
729608610.563298,-1.387671,-3.053349,52.381313,0.031067,-0.028809,0.964737,-0.048877,0.008279,-0.006821,60.892639,23.862381,-146.304977,,,
729608610.566624,-1.387671,-3.053349,52.381313,0.031067,-0.028809,0.964737,-0.048877,0.008279,-0.006821,60.892639,23.862381,-146.304977,,,
729608610.57002,-1.402749,-3.059706,52.378237,0.035095,-0.028336,0.972885,-0.051589,-0.016643,-0.01184,60.892639,23.862381,-146.304977,,,
729608610.573291,-1.417673,-3.066522,52.374847,0.035095,-0.028336,0.972885,-0.051589,-0.016643,-0.01184,60.892639,23.862381,-146.304977,,,
729608610.576641,-1.417673,-3.066522,52.374847,0.035095,-0.028336,0.972885,-0.051589,-0.016643,-0.01184,60.892639,23.862381,-146.304977,,,
729608610.579998,-1.43279,-3.07497,52.37141,0.04306,-0.032913,0.983093,-0.05374,-0.024203,-0.009178,60.892639,23.862381,-146.304977,,,
729608610.583349,-1.446984,-3.082188,52.369057,0.04306,-0.032913,0.983093,-0.05374,-0.024203,-0.009178,60.892639,23.862381,-146.304977,,,
729608610.58665,-1.446984,-3.082188,52.369057,0.04306,-0.032913,0.983093,-0.05374,-0.024203,-0.009178,60.769943,23.979874,-146.315414,,,
729608610.589972,-1.460937,-3.087833,52.368261,0.047104,-0.038254,0.990616,-0.050852,-0.016688,-0.001516,60.769943,23.979874,-146.315414,,,
729608610.593298,-1.475429,-3.089735,52.368998,0.047104,-0.038254,0.990616,-0.050852,-0.016688,-0.001516,60.769943,23.979874,-146.315414,,,
729608610.596646,-1.475429,-3.089735,52.368998,0.047104,-0.038254,0.990616,-0.050852,-0.016688,-0.001516,60.769943,23.979874,-146.315414,,,
729608610.59997,-1.489009,-3.087446,52.371362,0.048691,-0.04158,0.994797,-0.048086,0.010892,0.011717,60.769943,23.979874,-146.315414,,,
729608610.6033,-1.503452,-3.083291,52.375463,0.048691,-0.04158,0.994797,-0.048086,0.010892,0.011717,60.769943,23.979874,-146.315414,,,
