Time (sec),Pitch (deg),Roll (deg),Yaw(deg),X-Acceleration (g),Y-Acceleration (g),Z-Acceleration (g),Pitch Rate (deg/sec),Roll Rate (deg/sec),Yaw Rate (deg/sec),Magnetic Field in X direction (uT),Magnetic Field in Y direction (uT),Magnetic Field in Z Direction (uT),Latitude (deg),Longitude (deg),Altitude (m)
729606654.440282,1.391463,0.175109,53.901452,0.012756,0.029739,1.001373,0.027881,0.026713,-0.022335,61.881897,21.301529,-147.047852,,,
729606654.443624,1.400436,0.189421,53.893053,0.012756,0.029739,1.001373,0.029633,0.046683,-0.032228,62.105423,21.278976,-146.824493,,,
729606654.446908,1.409218,0.206402,53.884396,0.012741,0.025101,0.996628,0.029633,0.046683,-0.032228,62.105423,21.278976,-146.824493,,,
729606654.450247,1.409218,0.206402,53.884396,0.012741,0.025101,0.996628,0.029633,0.046683,-0.032228,62.105423,21.278976,-146.824493,,,
729606654.453569,1.419548,0.225995,53.876326,0.012741,0.025101,0.996628,0.032242,0.074172,-0.029889,62.105423,21.278976,-146.824493,,,
729606654.456957,1.428653,0.24869,53.869507,0.009445,0.021362,0.99292,0.032242,0.074172,-0.029889,62.105423,21.278976,-146.824493,,,
729606654.46022,1.428653,0.24869,53.869507,0.009445,0.021362,0.99292,0.032242,0.074172,-0.029889,62.105423,21.278976,-146.824493,,,
729606654.463612,1.439781,0.268814,53.864464,0.009445,0.021362,0.99292,0.031109,0.085185,-0.01771,62.105423,21.278976,-146.824493,,,
729606654.466889,1.447564,0.291933,53.860492,0.004456,0.020523,0.98175,0.031109,0.085185,-0.01771,62.105423,21.278976,-146.824493,,,
729606654.470221,1.447564,0.291933,53.860492,0.004456,0.020523,0.98175,0.031109,0.085185,-0.01771,62.105423,21.278976,-146.824493,,,
729606654.473658,1.457584,0.309684,53.857593,0.004456,0.020523,0.98175,0.02451,0.079078,-0.009773,62.105423,21.278976,-146.824493,,,
729606654.476941,1.462098,0.330287,53.855037,-0.001602,0.021591,0.976944,0.02451,0.079078,-0.009773,62.105423,21.278976,-146.824493,,,
729606654.480238,1.462098,0.330287,53.855037,-0.001602,0.021591,0.976944,0.02451,0.079078,-0.009773,62.105423,21.278976,-146.824493,,,
729606654.483549,1.467093,0.343007,53.852029,-0.001602,0.021591,0.976944,0.00856,0.062802,-0.010396,62.105423,21.278976,-146.824493,,,
729606654.486886,1.466471,0.357104,53.847706,-0.006363,0.024994,0.972229,0.00856,0.062802,-0.010396,62.201004,21.32457,-146.719696,,,
729606654.490274,1.466471,0.357104,53.847706,-0.006363,0.024994,0.972229,0.00856,0.062802,-0.010396,62.201004,21.32457,-146.719696,,,
729606654.493565,1.463756,0.364591,53.841422,-0.006363,0.024994,0.972229,-0.010043,0.04202,-0.022212,62.201004,21.32457,-146.719696,,,
729606654.496997,1.457022,0.373218,53.833238,-0.006363,0.031784,0.971725,-0.010043,0.04202,-0.022212,62.201004,21.32457,-146.719696,,,
729606654.50026,1.457022,0.373218,53.833238,-0.005447,0.031784,0.971725,-0.010043,0.04202,-0.022212,62.201004,21.32457,-146.719696,,,
729606654.503574,1.448526,0.374884,53.823904,-0.005447,0.031784,0.971725,-0.03085,0.021334,-0.036618,62.201004,21.32457,-146.719696,,,
729606654.506938,1.437471,0.378188,53.813608,-0.003967,0.032425,0.975159,-0.03085,0.021334,-0.036618,62.201004,21.32457,-146.719696,,,
729606654.510247,1.437471,0.378188,53.813608,-0.003967,0.032425,0.975159,-0.03085,0.021334,-0.036618,62.201004,21.32457,-146.719696,,,
729606654.513544,1.425569,0.374108,53.80315,-0.003967,0.032425,0.975159,-0.045258,0.007413,-0.037149,62.201004,21.32457,-146.719696,,,
729606654.516888,1.410274,0.375235,53.792855,-0.003662,0.02803,0.980591,-0.045258,0.007413,-0.037149,62.201004,21.32457,-146.719696,,,
729606654.520232,1.410274,0.375235,53.792855,-0.003662,0.02803,0.980591,-0.045258,0.007413,-0.037149,62.201004,21.32457,-146.719696,,,
729606654.523645,1.393867,0.369236,53.78392,-0.003662,0.02803,0.980591,-0.058553,0.003505,-0.031189,62.201004,21.32457,-146.719696,,,
729606654.526896,1.375833,0.37068,53.776547,-0.00885,0.02269,0.987549,-0.058553,0.003505,-0.031189,62.332596,21.357986,-146.652954,,,
729606654.530235,1.375833,0.37068,53.776547,-0.00885,0.02269,0.987549,-0.058553,0.003505,-0.031189,62.332596,21.357986,-146.652954,,,
729606654.533548,1.356863,0.367558,53.770912,-0.00885,0.02269,0.987549,-0.064212,0.013604,-0.022683,62.332596,21.357986,-146.652954,,,
729606654.536881,1.336943,0.37291,53.766637,-0.00885,0.02269,0.987549,-0.064212,0.013604,-0.022683,62.332596,21.357986,-146.652954,,,
729606654.540268,1.336943,0.37291,53.766637,-0.016876,0.021118,0.992447,-0.064212,0.013604,-0.022683,62.332596,21.357986,-146.652954,,,
729606654.543536,1.316474,0.375019,53.763861,-0.016876,0.021118,0.992447,-0.070113,0.02723,-0.009773,62.332596,21.357986,-146.652954,,,
729606654.546935,1.316474,0.38289,53.762649,-0.016876,0.021118,0.992447,-0.070113,0.02723,-0.009773,62.332596,21.357986,-146.652954,,,
729606654.550286,1.296169,0.38289,53.762649,-0.015244,0.021759,0.998444,-0.070113,0.02723,-0.009773,62.332596,21.357986,-146.652954,,,
729606654.553566,1.275523,0.3882,53.762787,-0.015244,0.021759,0.998444,-0.068304,0.03354,-0.000282,62.332596,21.357986,-146.652954,,,
729606654.556953,1.255661,0.39751,53.763788,-0.015244,0.021759,0.998444,-0.068304,0.03354,-0.000282,62.332596,21.357986,-146.652954,,,
729606654.560238,1.255661,0.39751,53.763788,-0.016068,0.021271,1.00293,-0.068304,0.03354,-0.000282,62.332596,21.357986,-146.652954,,,
729606654.563578,1.236052,0.406143,53.766123,-0.016068,0.021271,1.00293,-0.070307,0.03871,0.004335,62.332596,21.357986,-146.652954,,,
729606654.566998,1.216216,0.416367,53.768888,-0.016068,0.021271,1.00293,-0.070307,0.03871,0.004335,62.347809,21.590546,-146.796234,,,
729606654.570232,1.216216,0.416367,53.768888,-0.016006,0.023132,1.005127,-0.070307,0.03871,0.004335,62.347809,21.590546,-146.796234,,,
729606654.573623,1.197909,0.42632,53.77159,-0.016006,0.023132,1.005127,-0.068767,0.038017,0.008209,62.347809,21.590546,-146.796234,,,
729606654.576896,1.197909,0.42632,53.77159,-0.016006,0.023132,1.005127,-0.068767,0.038017,0.008209,62.347809,21.590546,-146.796234,,,
729606654.580228,1.17808,0.43564,53.774783,-0.016464,0.028442,1.005951,-0.068767,0.038017,0.008209,62.347809,21.590546,-146.796234,,,
729606654.583546,1.15989,0.441969,53.778857,-0.016464,0.028442,1.005951,-0.072719,0.029528,0.014821,62.347809,21.590546,-146.796234,,,
729606654.587004,1.138903,0.447167,53.783945,-0.016464,0.028442,1.005951,-0.072719,0.029528,0.014821,62.347809,21.590546,-146.796234,,,
729606654.590244,1.138903,0.447167,53.783945,-0.022415,0.024567,1.004898,-0.072719,0.029528,0.014821,62.347809,21.590546,-146.796234,,,
729606654.593545,1.120345,0.448908,53.7903,-0.022415,0.024567,1.004898,-0.073336,0.016423,0.019234,62.347809,21.590546,-146.796234,,,
729606654.597002,1.120345,0.448908,53.7903,-0.022415,0.024567,1.004898,-0.073336,0.016423,0.019234,62.347809,21.590546,-146.796234,,,
729606654.600217,1.098916,0.451345,53.797651,-0.02504,0.019775,1.008087,-0.073336,0.016423,0.019234,62.347809,21.590546,-146.796234,,,
729606654.603561,1.078822,0.451475,53.806025,-0.02504,0.019775,1.008087,-0.074483,0.010512,0.027442,62.347809,21.590546,-146.796234,,,
729606654.606979,1.078822,0.451475,53.806025,-0.02504,0.019775,1.008087,-0.074483,0.010512,0.027442,62.347809,21.590546,-146.796234,,,
729606654.610277,1.057179,0.4514,53.814551,-0.020035,0.021576,1.009537,-0.074483,0.010512,0.027442,62.578918,21.532074,-146.504074,,,
729606654.613548,1.036043,0.451319,53.822548,-0.020035,0.021576,1.009537,-0.075794,-0.004832,0.026501,62.578918,21.532074,-146.504074,,,
729606654.616924,1.036043,0.451319,53.822548,-0.020035,0.021576,1.009537,-0.075794,-0.004832,0.026501,62.578918,21.532074,-146.504074,,,
729606654.620229,1.015182,0.448463,53.830228,-0.012405,0.02626,1.007492,-0.075794,-0.004832,0.026501,62.578918,21.532074,-146.504074,,,
729606654.623596,0.995074,0.448995,53.837109,-0.012405,0.02626,1.007492,-0.074559,-0.008609,0.023126,62.578918,21.532074,-146.504074,,,
729606654.626875,0.995074,0.448995,53.837109,-0.012405,0.02626,1.007492,-0.074559,-0.008609,0.023126,62.578918,21.532074,-146.504074,,,
729606654.630219,0.974597,0.44575,53.843525,-0.007202,0.026825,1.012924,-0.074559,-0.008609,0.023126,62.578918,21.532074,-146.504074,,,
729606654.633549,0.9564,0.445182,53.849597,-0.007202,0.026825,1.012924,-0.066183,-0.009804,0.017608,62.578918,21.532074,-146.504074,,,
729606654.636908,0.9564,0.445182,53.849597,-0.007202,0.026825,1.012924,-0.066183,-0.009804,0.017608,62.578918,21.532074,-146.504074,,,
729606654.640118,0.939854,0.441158,53.855733,-0.005753,0.02211,1.016785,-0.066183,-0.009804,0.017608,62.578918,21.532074,-146.504074,,,
729606654.643588,0.927173,0.44028,53.861957,-0.005753,0.02211,1.016785,-0.045449,-0.011055,0.017937,62.578918,21.532074,-146.504074,,,
729606654.646941,0.927173,0.44028,53.861957,-0.005753,0.02211,1.016785,-0.045449,-0.011055,0.017937,62.578918,21.532074,-146.504074,,,
729606654.650217,0.915835,0.437212,53.867836,-0.004379,0.016403,1.024094,-0.045449,-0.011055,0.017937,62.411652,21.858582,-146.9104,,,
729606654.653548,0.908378,0.438871,53.873124,-0.004379,0.016403,1.024094,-0.027823,-0.004345,0.018484,62.411652,21.858582,-146.9104,,,
729606654.657027,0.908378,0.438871,53.873124,-0.004379,0.016403,1.024094,-0.027823,-0.004345,0.018484,62.411652,21.858582,-146.9104,,,
729606654.660216,0.900917,0.438347,53.878139,-0.001282,0.019379,1.024719,-0.027823,-0.004345,0.018484,62.411652,21.858582,-146.9104,,,
729606654.663548,0.897057,0.443756,53.883647,-0.001282,0.019379,1.024719,-0.021472,0.007763,0.018464,62.411652,21.858582,-146.9104,,,
729606654.666894,0.897057,0.443756,53.883647,-0.001282,0.019379,1.024719,-0.021472,0.007763,0.018464,62.411652,21.858582,-146.9104,,,
729606654.67023,0.890887,0.447388,53.889987,-0.002075,0.019897,1.018341,-0.021472,0.007763,0.018464,62.411652,21.858582,-146.9104,,,
729606654.673586,0.884965,0.460159,53.896046,-0.002075,0.019897,1.018341,-0.0246,0.026559,0.020845,62.411652,21.858582,-146.9104,,,
729606654.67687,0.884965,0.460159,53.896046,-0.002075,0.019897,1.018341,-0.0246,0.026559,0.020845,62.411652,21.858582,-146.9104,,,
729606654.680304,0.877203,0.466623,53.901799,0.000504,0.020844,1.014297,-0.0246,0.026559,0.020845,62.411652,21.858582,-146.9104,,,
729606654.683534,0.870114,0.477123,53.90668,0.000504,0.020844,1.014297,-0.027643,0.018715,0.01772,62.411652,21.858582,-146.9104,,,
729606654.686991,0.870114,0.477123,53.90668,0.000504,0.020844,1.014297,-0.027643,0.018715,0.01772,62.411652,21.858582,-146.9104,,,
729606654.690253,0.862636,0.479091,53.910129,0.003708,0.023819,1.001328,-0.027643,0.018715,0.01772,62.532928,21.882217,-146.886749,,,
729606654.693631,0.857308,0.482583,53.91224,0.003708,0.023819,1.001328,-0.028431,0.001899,0.005018,62.532928,21.882217,-146.886749,,,
729606654.696885,0.857308,0.482583,53.91224,0.003708,0.023819,1.001328,-0.028431,0.001899,0.005018,62.532928,21.882217,-146.886749,,,
729606654.700291,0.850744,0.48209,53.913199,0.001312,0.020264,1.00502,-0.028431,0.001899,0.005018,62.532928,21.882217,-146.886749,,,
729606654.703543,0.847872,0.481324,53.912551,0.001312,0.020264,1.00502,-0.018318,-0.003069,-0.004487,62.532928,21.882217,-146.886749,,,
729606654.706939,0.847872,0.481324,53.912551,0.001312,0.020264,1.00502,-0.018318,-0.003069,-0.004487,62.532928,21.882217,-146.886749,,,
729606654.71024,0.844804,0.478242,53.91074,-0.002945,0.017151,1.009247,-0.018318,-0.003069,-0.004487,62.532928,21.882217,-146.886749,,,
729606654.713544,0.845642,0.472781,53.908773,-0.002945,0.017151,1.009247,-0.003278,-0.01185,-0.008417,62.532928,21.882217,-146.886749,,,
729606654.716878,0.845642,0.472781,53.908773,-0.002945,0.017151,1.009247,-0.003278,-0.01185,-0.008417,62.532928,21.882217,-146.886749,,,
729606654.720233,0.847494,0.468054,53.906315,-0.002304,0.014542,1.008865,-0.003278,-0.01185,-0.008417,62.532928,21.882217,-146.886749,,,
729606654.723593,0.852941,0.464275,53.903177,-0.002304,0.014542,1.008865,0.014929,-0.008051,-0.013163,62.532928,21.882217,-146.886749,,,
729606654.72687,0.852941,0.464275,53.903177,-0.002304,0.014542,1.008865,0.014929,-0.008051,-0.013163,62.532928,21.882217,-146.886749,,,
729606654.730219,0.859314,0.463905,53.899848,0.001541,0.014725,1.01268,0.014929,-0.008051,-0.013163,62.604675,21.838318,-147.043076,,,
729606654.733548,0.866932,0.46388,53.896513,0.001541,0.014725,1.01268,0.02513,0.007769,-0.012036,62.604675,21.838318,-147.043076,,,
729606654.736947,0.866932,0.46388,53.896513,0.001541,0.014725,1.01268,0.02513,0.007769,-0.012036,62.604675,21.838318,-147.043076,,,
729606654.74028,0.87404,0.465706,53.893428,0.002106,0.016876,1.005814,0.02513,0.007769,-0.012036,62.604675,21.838318,-147.043076,,,
729606654.743564,0.880783,0.464986,53.890122,0.002106,0.016876,1.005814,0.021459,0.009232,-0.013465,62.604675,21.838318,-147.043076,,,
729606654.746915,0.880783,0.464986,53.890122,0.002106,0.016876,1.005814,0.021459,0.009232,-0.013465,62.604675,21.838318,-147.043076,,,
729606654.750174,0.88572,0.46774,53.886395,-0.00293,0.01796,0.993469,0.021459,0.009232,-0.013465,62.604675,21.838318,-147.043076,,,
729606654.753553,0.89067,0.469978,53.882759,-0.00293,0.01796,0.993469,0.014066,0.018551,-0.016876,62.604675,21.838318,-147.043076,,,
729606654.756945,0.89067,0.469978,53.882759,-0.00293,0.01796,0.993469,0.014066,0.018551,-0.016876,62.604675,21.838318,-147.043076,,,
729606654.760276,0.894381,0.476119,53.879313,-0.004333,0.016113,0.996307,0.014066,0.018551,-0.016876,62.604675,21.838318,-147.043076,,,
729606654.763551,0.898912,0.479453,53.875896,-0.004333,0.016113,0.996307,0.010502,0.028264,-0.015422,62.604675,21.838318,-147.043076,,,
729606654.766597,0.898912,0.479453,53.875896,-0.004333,0.016113,0.996307,0.010502,0.028264,-0.015422,62.604675,21.838318,-147.043076,,,
729606654.770329,0.901429,0.488829,53.872572,-0.007767,0.013657,0.995865,0.010502,0.028264,-0.015422,62.604675,21.838318,-147.043076,,,
729606654.773591,0.905157,0.494057,53.870748,-0.007767,0.013657,0.995865,0.006886,0.039188,-0.008424,62.585571,21.902817,-146.689453,,,
729606654.77688,0.905157,0.494057,53.870748,-0.007767,0.013657,0.995865,0.006886,0.039188,-0.008424,62.585571,21.902817,-146.689453,,,
729606654.780235,0.907349,0.505325,53.870347,-0.014069,0.008682,0.994217,0.006886,0.039188,-0.008424,62.585571,21.902817,-146.689453,,,
729606654.783547,0.909858,0.514918,53.871181,-0.014069,0.008682,0.994217,0.009614,0.04892,0.003979,62.585571,21.902817,-146.689453,,,
729606654.786879,0.909858,0.514918,53.871181,-0.014069,0.008682,0.994217,0.009614,0.04892,0.003979,62.585571,21.902817,-146.689453,,,
729606654.790255,0.912181,0.528841,53.872987,-0.014252,0.008286,0.992126,0.009614,0.04892,0.003979,62.585571,21.902817,-146.689453,,,
729606654.793536,0.914404,0.540949,53.875092,-0.014252,0.008286,0.992126,0.008748,0.054534,0.005716,62.585571,21.902817,-146.689453,,,
729606654.796873,0.914404,0.540949,53.875092,-0.014252,0.008286,0.992126,0.008748,0.054534,0.005716,62.585571,21.902817,-146.689453,,,
729606654.800322,0.916608,0.556419,53.87672,-0.005081,0.011826,0.984863,0.008748,0.054534,0.005716,62.585571,21.902817,-146.689453,,,
729606654.803549,0.918314,0.570018,53.877081,-0.005081,0.011826,0.984863,0.008699,0.063363,-4.7e-05,62.585571,21.902817,-146.689453,,,
729606654.806946,0.918314,0.570018,53.877081,-0.005081,0.011826,0.984863,0.008699,0.063363,-4.7e-05,62.585571,21.902817,-146.689453,,,
729606654.810219,0.920133,0.588954,53.875633,0.000656,0.019318,0.985977,0.008699,0.063363,-4.7e-05,62.585571,21.902817,-146.689453,,,
729606654.813552,0.92167,0.603481,53.872958,0.000656,0.019318,0.985977,0.006427,0.071715,-0.011193,62.6772,21.824997,-146.758911,,,
729606654.816882,0.92167,0.603481,53.872958,0.000656,0.019318,0.985977,0.006427,0.071715,-0.011193,62.6772,21.824997,-146.758911,,,
729606654.82023,0.923514,0.623106,53.869054,-0.003387,0.020615,0.984085,0.006427,0.071715,-0.011193,62.6772,21.824997,-146.758911,,,
729606654.823597,0.92546,0.637116,53.864304,-0.003387,0.020615,0.984085,0.008153,0.067462,-0.017777,62.6772,21.824997,-146.758911,,,
729606654.826877,0.92546,0.637116,53.864304,-0.003387,0.020615,0.984085,0.008153,0.067462,-0.017777,62.6772,21.824997,-146.758911,,,
729606654.83022,0.927066,0.653135,53.858849,-0.012207,0.018082,0.979874,0.008153,0.067462,-0.017777,62.6772,21.824997,-146.758911,,,
729606654.833549,0.928726,0.662781,53.853236,-0.012207,0.018082,0.979874,0.00605,0.044227,-0.01694,62.6772,21.824997,-146.758911,,,
729606654.836878,0.928726,0.662781,53.853236,-0.012207,0.018082,0.979874,0.00605,0.044227,-0.01694,62.6772,21.824997,-146.758911,,,
729606654.840218,0.929083,0.671428,53.84809,-0.021317,0.014099,0.979584,0.00605,0.044227,-0.01694,62.6772,21.824997,-146.758911,,,
729606654.843551,0.928486,0.67366,53.843407,-0.021317,0.014099,0.979584,-0.00181,0.0204,-0.01997,62.6772,21.824997,-146.758911,,,
729606654.846878,0.928486,0.67366,53.843407,-0.021317,0.014099,0.979584,-0.00181,0.0204,-0.01997,62.6772,21.824997,-146.758911,,,
729606654.850304,0.926988,0.675729,53.83883,-0.028152,0.010025,0.979584,-0.00181,0.0204,-0.01997,62.6772,21.824997,-146.758911,,,
729606654.853535,0.924229,0.675334,53.834653,-0.028152,0.010025,0.979584,-0.002597,0.003739,-0.016254,62.688644,21.667252,-146.974136,,,
729606654.856971,0.924229,0.675334,53.834653,-0.028152,0.010025,0.979584,-0.002597,0.003739,-0.016254,62.688644,21.667252,-146.974136,,,
729606654.860251,0.922,0.67461,53.830641,-0.033875,0.010086,0.988113,-0.002597,0.003739,-0.016254,62.688644,21.667252,-146.974136,,,
729606654.863542,0.916986,0.675253,53.826743,-0.033875,0.010086,0.988113,-0.00996,0.001366,-0.014729,62.688644,21.667252,-146.974136,,,
729606654.86691,0.916986,0.675253,53.826743,-0.033875,0.010086,0.988113,-0.00996,0.001366,-0.014729,62.688644,21.667252,-146.974136,,,
729606654.870243,0.912964,0.675353,53.823395,-0.032166,0.012131,0.990723,-0.00996,0.001366,-0.014729,62.688644,21.667252,-146.974136,,,
729606654.87354,0.907155,0.676944,53.820504,-0.032166,0.012131,0.990723,-0.012633,0.012337,-0.00994,62.688644,21.667252,-146.974136,,,
729606654.876917,0.907155,0.676944,53.820504,-0.032166,0.012131,0.990723,-0.012633,0.012337,-0.00994,62.688644,21.667252,-146.974136,,,
729606654.88025,0.901228,0.681053,53.818019,-0.026184,0.009827,0.993347,-0.012633,0.012337,-0.00994,62.688644,21.667252,-146.974136,,,
729606654.883546,0.893041,0.683016,53.817083,-0.026184,0.009827,0.993347,-0.025758,0.024543,-0.005187,62.688644,21.667252,-146.974136,,,
729606654.886987,0.893041,0.683016,53.817083,-0.026184,0.009827,0.993347,-0.025758,0.024543,-0.005187,62.688644,21.667252,-146.974136,,,
729606654.890227,0.882867,0.689756,53.818163,-0.029297,0.003754,0.991272,-0.025758,0.024543,-0.005187,62.688644,21.667252,-146.974136,,,
729606654.893554,0.872882,0.693574,53.821308,-0.029297,0.003754,0.991272,-0.037659,0.031687,0.009,62.795074,21.690353,-147.282059,,,
729606654.896899,0.872882,0.693574,53.821308,-0.029297,0.003754,0.991272,-0.037659,0.031687,0.009,62.795074,21.690353,-147.282059,,,
729606654.900285,0.862824,0.701365,53.826222,-0.031677,-0.003479,0.996033,-0.037659,0.031687,0.009,62.795074,21.690353,-147.282059,,,
729606654.903549,0.854987,0.705599,53.832498,-0.031677,-0.003479,0.996033,-0.029936,0.029083,0.021229,62.795074,21.690353,-147.282059,,,
729606654.906887,0.854987,0.705599,53.832498,-0.031677,-0.003479,0.996033,-0.029936,0.029083,0.021229,62.795074,21.690353,-147.282059,,,
729606654.910216,0.84771,0.711319,53.840345,-0.030334,-0.007263,1.001419,-0.029936,0.029083,0.021229,62.795074,21.690353,-147.282059,,,
729606654.913546,0.842494,0.718246,53.849681,-0.030334,-0.007263,1.001419,-0.021306,0.022648,0.029202,62.795074,21.690353,-147.282059,,,
729606654.916892,0.842494,0.718246,53.849681,-0.030334,-0.007263,1.001419,-0.021306,0.022648,0.029202,62.795074,21.690353,-147.282059,,,
729606654.920213,0.838222,0.723075,53.85956,-0.026749,-0.005035,1.005508,-0.021306,0.022648,0.029202,62.795074,21.690353,-147.282059,,,
729606654.923552,0.834351,0.73117,53.869022,-0.026749,-0.005035,1.005508,-0.0123,0.01755,0.031802,62.795074,21.690353,-147.282059,,,
729606654.926943,0.834351,0.73117,53.869022,-0.026749,-0.005035,1.005508,-0.0123,0.01755,0.031802,62.795074,21.690353,-147.282059,,,
729606654.930208,0.831265,0.731884,53.87729,-0.011276,0.005173,1.001724,-0.0123,0.01755,0.031802,62.795074,21.690353,-147.282059,,,
729606654.933551,0.827055,0.737144,53.883433,-0.011276,0.005173,1.001724,-0.010714,-0.005267,0.019528,62.795074,21.690353,-147.282059,,,
729606654.93696,0.827055,0.737144,53.883433,-0.011276,0.005173,1.001724,-0.010714,-0.005267,0.019528,62.693512,21.705048,-146.738892,,,
729606654.94022,0.822658,0.732487,53.887397,-0.000702,0.012131,0.989792,-0.010714,-0.005267,0.019528,62.693512,21.705048,-146.738892,,,
729606654.943549,0.815056,0.734982,53.88944,-0.000702,0.012131,0.989792,-0.022091,-0.01934,0.005859,62.693512,21.705048,-146.738892,,,
729606654.94689,0.815056,0.734982,53.88944,-0.000702,0.012131,0.989792,-0.022091,-0.01934,0.005859,62.693512,21.705048,-146.738892,,,
729606654.950302,0.80542,0.726922,53.890185,0.00325,0.012863,0.986221,-0.022091,-0.01934,0.005859,62.693512,21.705048,-146.738892,,,
729606654.95354,0.792363,0.723518,53.889957,0.00325,0.012863,0.986221,-0.044876,-0.032401,-0.003506,62.693512,21.705048,-146.738892,,,
729606654.956901,0.792363,0.723518,53.889957,0.00325,0.012863,0.986221,-0.044876,-0.032401,-0.003506,62.693512,21.705048,-146.738892,,,
729606654.960218,0.776959,0.711211,53.890072,0.004074,0.013123,0.979446,-0.044876,-0.032401,-0.003506,62.693512,21.705048,-146.738892,,,
729606654.963558,0.758382,0.703043,53.890884,0.004074,0.013123,0.979446,-0.060383,-0.042902,0.000647,62.693512,21.705048,-146.738892,,,
729606654.966899,0.758382,0.703043,53.890884,0.004074,0.013123,0.979446,-0.060383,-0.042902,0.000647,62.693512,21.705048,-146.738892,,,
729606654.969924,0.739251,0.689837,53.892143,0.003784,0.008072,0.989349,-0.060383,-0.042902,0.000647,62.693512,21.705048,-146.738892,,,
729606654.973599,0.717,0.684515,53.89311,0.003784,0.008072,0.989349,-0.068013,-0.0414,0.001854,62.693512,21.705048,-146.738892,,,
729606654.976879,0.717,0.684515,53.89311,0.003784,0.008072,0.989349,-0.068013,-0.0414,0.001854,62.547852,21.819107,-147.102737,,,
729606654.980234,0.697111,0.672002,53.89371,0.004791,0.007324,0.998291,-0.068013,-0.0414,0.001854,62.547852,21.819107,-147.102737,,,
729606654.983243,0.67432,0.667916,53.892981,0.004791,0.007324,0.998291,-0.068012,-0.038725,-0.001643,62.547852,21.819107,-147.102737,,,
729606654.98692,0.67432,0.667916,53.892981,0.004791,0.007324,0.998291,-0.068012,-0.038725,-0.001643,62.547852,21.819107,-147.102737,,,
729606654.99026,0.655733,0.657465,53.890793,0.004639,0.008728,1.005219,-0.068012,-0.038725,-0.001643,62.547852,21.819107,-147.102737,,,
729606654.993562,0.634288,0.657307,53.888222,0.004639,0.008728,1.005219,-0.060705,-0.022127,-0.010196,62.547852,21.819107,-147.102737,,,
729606654.996899,0.634288,0.657307,53.888222,0.004639,0.008728,1.005219,-0.060705,-0.022127,-0.010196,62.547852,21.819107,-147.102737,,,
729606655.00025,0.617193,0.65347,53.885679,-0.003204,0.006409,1.016846,-0.060705,-0.022127,-0.010196,62.547852,21.819107,-147.102737,,,
729606655.003558,0.599203,0.65565,53.882722,-0.003204,0.006409,1.016846,-0.054803,-0.004493,-0.012643,62.547852,21.819107,-147.102737,,,
729606655.006944,0.599203,0.65565,53.882722,-0.003204,0.006409,1.016846,-0.054803,-0.004493,-0.012643,62.547852,21.819107,-147.102737,,,
729606655.01022,0.585636,0.654393,53.87975,-0.008759,0.00235,1.016586,-0.054803,-0.004493,-0.012643,62.547852,21.819107,-147.102737,,,
729606655.013556,0.573569,0.650473,53.876915,-0.008759,0.00235,1.016586,-0.041827,-0.001866,-0.012115,62.547852,21.819107,-147.102737,,,
729606655.016918,0.573569,0.650473,53.876915,-0.008759,0.00235,1.016586,-0.041827,-0.001866,-0.012115,62.65625,22.088913,-146.951874,,,
729606655.020234,0.562435,0.647125,53.874215,-0.01059,0.004501,1.012543,-0.041827,-0.001866,-0.012115,62.65625,22.088913,-146.951874,,,
729606655.023551,0.552225,0.636834,53.871761,-0.01059,0.004501,1.012543,-0.037824,-0.015556,-0.009361,62.65625,22.088913,-146.951874,,,
729606655.02689,0.552225,0.636834,53.871761,-0.01059,0.004501,1.012543,-0.037824,-0.015556,-0.009361,62.65625,22.088913,-146.951874,,,
729606655.030268,0.541761,0.63039,53.869914,-0.017349,0.004684,1.00528,-0.037824,-0.015556,-0.009361,62.65625,22.088913,-146.951874,,,
729606655.033547,0.532475,0.618745,53.86881,-0.017349,0.004684,1.00528,-0.031471,-0.018807,-0.006716,62.65625,22.088913,-146.951874,,,
729606655.036892,0.532475,0.618745,53.86881,-0.017349,0.004684,1.00528,-0.031471,-0.018807,-0.006716,62.65625,22.088913,-146.951874,,,
729606655.040232,0.523211,0.613858,53.867865,-0.020462,0.003967,1.011246,-0.031471,-0.018807,-0.006716,62.65625,22.088913,-146.951874,,,
729606655.043393,0.516074,0.602936,53.867063,-0.020462,0.003967,1.011246,-0.02798,-0.013984,-0.005882,62.65625,22.088913,-146.951874,,,
729606655.046994,0.516074,0.602936,53.867063,-0.020462,0.003967,1.011246,-0.02798,-0.013984,-0.005882,62.65625,22.088913,-146.951874,,,
729606655.050204,0.510405,0.596886,53.866488,-0.016891,0.003387,1.013992,-0.02798,-0.013984,-0.005882,62.65625,22.088913,-146.951874,,,
729606655.053547,0.506449,0.585359,53.866107,-0.016891,0.003387,1.013992,-0.010628,-0.018148,-0.003221,62.65625,22.088913,-146.951874,,,
729606655.05689,0.506449,0.585359,53.866107,-0.016891,0.003387,1.013992,-0.010628,-0.018148,-0.003221,62.8396,22.196259,-147.059418,,,
729606655.060293,0.504603,0.5819,53.865394,-0.01947,0.003433,1.016861,-0.010628,-0.018148,-0.003221,62.8396,22.196259,-147.059418,,,
729606655.063535,0.504851,0.573959,53.864735,-0.01947,0.003433,1.016861,-0.000526,-0.00307,-0.003804,62.8396,22.196259,-147.059418,,,
729606655.066892,0.504851,0.573959,53.864735,-0.01947,0.003433,1.016861,-0.000526,-0.00307,-0.003804,62.8396,22.196259,-147.059418,,,
729606655.070232,0.506064,0.573264,53.863909,-0.015732,0.010025,1.018738,-0.000526,-0.00307,-0.003804,62.8396,22.196259,-147.059418,,,
729606655.073547,0.506703,0.567542,53.862558,-0.015732,0.010025,1.018738,0.006344,-0.00014,-0.006887,62.8396,22.196259,-147.059418,,,
729606655.076876,0.506703,0.567542,53.862558,-0.015732,0.010025,1.018738,0.006344,-0.00014,-0.006887,62.8396,22.196259,-147.059418,,,
729606655.080239,0.506933,0.566552,53.860955,-0.015564,0.013046,1.001541,0.006344,-0.00014,-0.006887,62.8396,22.196259,-147.059418,,,
729606655.083613,0.505361,0.563966,53.859466,-0.015564,0.013046,1.001541,-0.002453,0.000252,-0.007058,62.8396,22.196259,-147.059418,,,
729606655.086929,0.505361,0.563966,53.859466,-0.015564,0.013046,1.001541,-0.002453,0.000252,-0.007058,62.8396,22.196259,-147.059418,,,
729606655.090209,0.503748,0.561942,53.857851,-0.016693,0.014084,0.99321,-0.002453,0.000252,-0.007058,62.8396,22.196259,-147.059418,,,
729606655.09355,0.500139,0.558154,53.856264,-0.016693,0.014084,0.99321,-0.012184,-0.008718,-0.008666,62.8396,22.196259,-147.059418,,,
729606655.096884,0.500139,0.558154,53.856264,-0.016693,0.014084,0.99321,-0.012184,-0.008718,-0.008666,62.8396,22.196259,-147.059418,,,
729606655.100298,0.497001,0.552772,53.855164,-0.013748,0.014267,0.9888,-0.012184,-0.008718,-0.008666,62.760345,22.115021,-147.163666,,,
729606655.103537,0.493133,0.546627,53.855154,-0.013748,0.014267,0.9888,-0.009379,-0.024352,-0.00191,62.760345,22.115021,-147.163666,,,
729606655.10691,0.493133,0.546627,53.855154,-0.013748,0.014267,0.9888,-0.009379,-0.024352,-0.00191,62.760345,22.115021,-147.163666,,,
729606655.1103,0.491208,0.537653,53.856299,-0.015823,0.011581,0.993652,-0.009379,-0.024352,-0.00191,62.760345,22.115021,-147.163666,,,
729606655.113545,0.491197,0.531314,53.857877,-0.015823,0.011581,0.993652,-0.001083,-0.035779,0.003787,62.760345,22.115021,-147.163666,,,
729606655.116895,0.491197,0.531314,53.857877,-0.015823,0.011581,0.993652,-0.001083,-0.035779,0.003787,62.760345,22.115021,-147.163666,,,
729606655.120232,0.494935,0.520127,53.859797,-0.012573,0.007431,1.003662,-0.001083,-0.035779,0.003787,62.760345,22.115021,-147.163666,,,
729606655.123546,0.500486,0.512334,53.860688,-0.012573,0.007431,1.003662,0.02352,-0.034924,0.001084,62.760345,22.115021,-147.163666,,,
729606655.126897,0.500486,0.512334,53.860688,-0.012573,0.007431,1.003662,0.02352,-0.034924,0.001084,62.760345,22.115021,-147.163666,,,
729606655.130215,0.508994,0.500642,53.859437,0.000595,0.014557,1.011368,0.02352,-0.034924,0.001084,62.760345,22.115021,-147.163666,,,
729606655.133546,0.517297,0.493483,53.856358,0.000595,0.014557,1.011368,0.035936,-0.033967,-0.014553,62.760345,22.115021,-147.163666,,,
729606655.13692,0.517297,0.493483,53.856358,0.000595,0.014557,1.011368,0.035936,-0.033967,-0.014553,62.760345,22.115021,-147.163666,,,
729606655.140213,0.527226,0.485711,53.851993,0.007202,0.021011,1.001389,0.035936,-0.033967,-0.014553,62.546738,22.057877,-147.388718,,,
729606655.143553,0.53705,0.485788,53.846977,0.007202,0.021011,1.001389,0.036351,-0.009488,-0.018082,62.546738,22.057877,-147.388718,,,
729606655.146902,0.53705,0.485788,53.846977,0.007202,0.021011,1.001389,0.036351,-0.009488,-0.018082,62.546738,22.057877,-147.388718,,,
729606655.150292,0.546924,0.485201,53.841564,0.004745,0.019516,1.000458,0.036351,-0.009488,-0.018082,62.546738,22.057877,-147.388718,,,
729606655.153532,0.555555,0.487657,53.835768,0.004745,0.019516,1.000458,0.02852,0.006307,-0.021843,62.546738,22.057877,-147.388718,,,
729606655.156902,0.555555,0.487657,53.835768,0.004745,0.019516,1.000458,0.02852,0.006307,-0.021843,62.546738,22.057877,-147.388718,,,
729606655.160212,0.562565,0.488221,53.830028,0.009171,0.016449,0.987808,0.02852,0.006307,-0.021843,62.546738,22.057877,-147.388718,,,
729606655.163537,0.569071,0.492008,53.824567,0.009171,0.016449,0.987808,0.023131,0.003417,-0.018682,62.546738,22.057877,-147.388718,,,
729606655.166945,0.569071,0.492008,53.824567,0.009171,0.016449,0.987808,0.023131,0.003417,-0.018682,62.546738,22.057877,-147.388718,,,
729606655.170216,0.572945,0.492899,53.81883,0.007584,0.018875,0.983398,0.023131,0.003417,-0.018682,62.546738,22.057877,-147.388718,,,
729606655.173545,0.575927,0.497261,53.81207,0.007584,0.018875,0.983398,0.006633,0.008209,-0.02374,62.546738,22.057877,-147.388718,,,
729606655.176875,0.575927,0.497261,53.81207,0.007584,0.018875,0.983398,0.006633,0.008209,-0.02374,62.546738,22.057877,-147.388718,,,
729606655.180214,0.577112,0.498948,53.804248,0.006943,0.021744,0.986221,0.006633,0.008209,-0.02374,62.768906,21.9767,-146.881393,,,
729606655.183545,0.578529,0.50339,53.794503,0.006943,0.021744,0.986221,0.005141,0.008857,-0.036841,62.768906,21.9767,-146.881393,,,
729606655.186935,0.578529,0.50339,53.794503,0.006943,0.021744,0.986221,0.005141,0.008857,-0.036841,62.768906,21.9767,-146.881393,,,
729606655.190205,0.578788,0.505282,53.782767,0.004425,0.022705,0.987915,0.005141,0.008857,-0.036841,62.768906,21.9767,-146.881393,,,
729606655.193572,0.579045,0.508309,53.769756,0.004425,0.022705,0.987915,0.002237,0.005449,-0.046087,62.768906,21.9767,-146.881393,,,
729606655.196893,0.579045,0.508309,53.769756,0.004425,0.022705,0.987915,0.002237,0.005449,-0.046087,62.768906,21.9767,-146.881393,,,
729606655.200284,0.579533,0.506951,53.756552,-0.003021,0.016449,0.990387,0.002237,0.005449,-0.046087,62.768906,21.9767,-146.881393,,,
729606655.203537,0.580262,0.503485,53.743154,-0.003021,0.016449,0.990387,0.003962,-0.009891,-0.048259,62.768906,21.9767,-146.881393,,,
729606655.2069,0.580262,0.503485,53.743154,-0.003021,0.016449,0.990387,0.003962,-0.009891,-0.048259,62.768906,21.9767,-146.881393,,,
729606655.210205,0.581914,0.498548,53.729563,-0.008911,0.013474,0.996552,0.003962,-0.009891,-0.048259,62.768906,21.9767,-146.881393,,,
729606655.21336,0.581914,0.498548,53.729563,-0.008911,0.013474,0.996552,0.007962,-0.019466,-0.047962,62.768906,21.9767,-146.881393,,,
729606655.216925,0.585571,0.487422,53.716093,-0.008911,0.013474,0.996552,0.007962,-0.019466,-0.047962,62.768906,21.9767,-146.881393,,,
729606655.220197,0.587006,0.481526,53.702259,-0.01059,0.009583,0.998016,0.007962,-0.019466,-0.047962,62.768906,21.9767,-146.881393,,,
729606655.223548,0.590133,0.470052,53.688276,-0.01059,0.009583,0.998016,0.006515,-0.019159,-0.046728,62.543335,22.089951,-147.164261,,,
729606655.226877,0.590133,0.470052,53.688276,-0.01059,0.009583,0.998016,0.006515,-0.019159,-0.046728,62.543335,22.089951,-147.164261,,,
729606655.230216,0.591268,0.464434,53.674772,-0.010635,0.005692,1.001358,0.006515,-0.019159,-0.046728,62.543335,22.089951,-147.164261,,,
729606655.233545,0.591268,0.464434,53.674772,-0.010635,0.005692,1.001358,0.002955,-0.012203,-0.045578,62.543335,22.089951,-147.164261,,,
729606655.236952,0.593544,0.454446,53.662527,-0.010635,0.005692,1.001358,0.002955,-0.012203,-0.045578,62.543335,22.089951,-147.164261,,,
729606655.240225,0.595305,0.452332,53.651537,-0.011948,0.005768,1.009659,0.002955,-0.012203,-0.045578,62.543335,22.089951,-147.164261,,,
729606655.243548,0.600197,0.446205,53.642306,-0.011948,0.005768,1.009659,0.013599,0.007505,-0.036456,62.543335,22.089951,-147.164261,,,
729606655.246894,0.600197,0.446205,53.642306,-0.011948,0.005768,1.009659,0.013599,0.007505,-0.036456,62.543335,22.089951,-147.164261,,,
729606655.250288,0.604545,0.449537,53.634853,-0.0168,0.001785,1.01944,0.013599,0.007505,-0.036456,62.543335,22.089951,-147.164261,,,
729606655.25353,0.604545,0.449537,53.634853,-0.0168,0.001785,1.01944,0.020394,0.018606,-0.01956,62.543335,22.089951,-147.164261,,,
729606655.256887,0.611577,0.448009,53.629331,-0.0168,0.001785,1.01944,0.020394,0.018606,-0.01956,62.543335,22.089951,-147.164261,,,
729606655.260206,0.618074,0.453872,53.624549,-0.014862,0.003845,1.016083,0.020394,0.018606,-0.01956,62.543335,22.089951,-147.164261,,,
729606655.263539,0.618074,0.455855,53.619479,-0.014862,0.003845,1.016083,0.020195,0.028594,-0.020442,62.390732,22.294205,-147.416245,,,
729606655.266877,0.627354,0.455855,53.619479,-0.014862,0.003845,1.016083,0.020195,0.028594,-0.020442,62.390732,22.294205,-147.416245,,,
729606655.27022,0.633411,0.464827,53.612961,-0.00618,0.010681,1.013184,0.020195,0.028594,-0.020442,62.390732,22.294205,-147.416245,,,
729606655.273533,0.633411,0.464827,53.612961,-0.00618,0.010681,1.013184,0.016735,0.034731,-0.032445,62.390732,22.294205,-147.416245,,,
729606655.276878,0.640249,0.470255,53.60442,-0.00618,0.010681,1.013184,0.016735,0.034731,-0.032445,62.390732,22.294205,-147.416245,,,
729606655.280203,0.643913,0.478646,53.593893,-0.000504,0.018524,1.008423,0.016735,0.034731,-0.032445,62.390732,22.294205,-147.416245,,,
729606655.283533,0.643913,0.478646,53.593893,-0.000504,0.018524,1.008423,0.012576,0.028686,-0.042326,62.390732,22.294205,-147.416245,,,
729606655.286879,0.648024,0.484823,53.582251,-0.000504,0.018524,1.008423,0.012576,0.028686,-0.042326,62.390732,22.294205,-147.416245,,,
729606655.290232,0.65144,0.490195,53.570789,-0.007431,0.015198,1.001297,0.012576,0.028686,-0.042326,62.390732,22.294205,-147.416245,,,
729606655.293558,0.65144,0.490195,53.570789,-0.007431,0.015198,1.001297,0.011504,0.010161,-0.04321,62.390732,22.294205,-147.416245,,,
729606655.296886,0.654543,0.493312,53.559749,-0.007431,0.015198,1.001297,0.011504,0.010161,-0.04321,62.390732,22.294205,-147.416245,,,
729606655.300218,0.657038,0.49161,53.549667,-0.012833,0.0103,0.999313,0.011504,0.010161,-0.04321,62.390732,22.294205,-147.416245,,,
729606655.303605,0.657038,0.49161,53.549667,-0.012833,0.0103,0.999313,0.009103,-0.018211,-0.032335,62.690704,22.138107,-147.094925,,,
729606655.306869,0.659153,0.486888,53.540756,-0.012833,0.0103,0.999313,0.009103,-0.018211,-0.032335,62.690704,22.138107,-147.094925,,,
729606655.310208,0.662158,0.479664,53.532172,-0.015121,0.009476,0.997253,0.009103,-0.018211,-0.032335,62.690704,22.138107,-147.094925,,,
729606655.313551,0.662158,0.479664,53.532172,-0.015121,0.009476,0.997253,0.010026,-0.021635,-0.029408,62.690704,22.138107,-147.094925,,,
729606655.316872,0.66405,0.473391,53.524031,-0.015121,0.009476,0.997253,0.010026,-0.021635,-0.029408,62.690704,22.138107,-147.094925,,,
729606655.320209,0.667638,0.467842,53.516605,-0.01387,0.01091,1.005295,0.010026,-0.021635,-0.029408,62.690704,22.138107,-147.094925,,,
729606655.323541,0.667638,0.467842,53.516605,-0.01387,0.01091,1.005295,0.012557,-0.009141,-0.026005,62.690704,22.138107,-147.094925,,,
729606655.326875,0.670233,0.46652,53.509832,-0.01387,0.01091,1.005295,0.012557,-0.009141,-0.026005,62.690704,22.138107,-147.094925,,,
729606655.330205,0.675191,0.466206,53.504507,-0.012741,0.011124,1.00972,0.012557,-0.009141,-0.026005,62.690704,22.138107,-147.094925,,,
729606655.33357,0.675191,0.466206,53.504507,-0.012741,0.011124,1.00972,0.026455,0.012543,-0.014362,62.690704,22.138107,-147.094925,,,
729606655.33693,0.680083,0.472785,53.501032,-0.012741,0.011124,1.00972,0.026455,0.012543,-0.014362,62.690704,22.138107,-147.094925,,,
729606655.340213,0.689345,0.480916,53.499436,-0.011871,0.010315,1.016571,0.026455,0.012543,-0.014362,62.690704,22.138107,-147.094925,,,
729606655.343609,0.689345,0.480916,53.499436,-0.011871,0.010315,1.016571,0.042292,0.044367,-7.4e-05,62.537643,21.916458,-146.797531,,,
729606655.346869,0.7006,0.493245,53.499696,-0.011871,0.010315,1.016571,0.042292,0.044367,-7.4e-05,62.537643,21.916458,-146.797531,,,
729606655.350238,0.71495,0.505223,53.502087,-0.010559,0.011398,1.01564,0.042292,0.044367,-7.4e-05,62.537643,21.916458,-146.797531,,,
729606655.353571,0.71495,0.505223,53.502087,-0.010559,0.011398,1.01564,0.051574,0.042201,0.009609,62.537643,21.916458,-146.797531,,,
729606655.356882,0.730592,0.51381,53.505905,-0.010559,0.011398,1.01564,0.051574,0.042201,0.009609,62.537643,21.916458,-146.797531,,,
729606655.360222,0.746373,0.523147,53.510401,-0.012741,0.015366,0.997055,0.051574,0.042201,0.009609,62.537643,21.916458,-146.797531,,,
729606655.363606,0.746373,0.523147,53.510401,-0.012741,0.015366,0.997055,0.05287,0.031139,0.015793,62.537643,21.916458,-146.797531,,,
729606655.366884,0.762249,0.52882,53.515288,-0.012741,0.015366,0.997055,0.05287,0.031139,0.015793,62.537643,21.916458,-146.797531,,,
729606655.370214,0.775099,0.534401,53.520238,-0.016693,0.016159,0.985977,0.05287,0.031139,0.015793,62.537643,21.916458,-146.797531,,,
729606655.37356,0.775099,0.534401,53.520238,-0.016693,0.016159,0.985977,0.05287,0.031139,0.015793,62.537643,21.916458,-146.797531,,,
729606655.376883,0.785045,0.536525,53.524932,-0.016693,0.016159,0.985977,0.032184,0.010658,0.014667,62.537643,21.916458,-146.797531,,,
729606655.380204,0.792217,0.534712,53.529098,-0.015472,0.020706,0.972382,0.032184,0.010658,0.014667,62.537643,21.916458,-146.797531,,,
729606655.383564,0.792217,0.534712,53.529098,-0.015472,0.020706,0.972382,0.032184,0.010658,0.014667,62.537643,21.916458,-146.797531,,,
729606655.386951,0.796093,0.530705,53.532284,-0.015472,0.020706,0.972382,0.016911,-0.017582,0.010617,62.508957,21.872147,-147.044785,,,
729606655.390207,0.799548,0.522022,53.533575,-0.00946,0.02475,0.975418,0.016911,-0.017582,0.010617,62.508957,21.872147,-147.044785,,,
729606655.39355,0.799548,0.522022,53.533575,-0.00946,0.02475,0.975418,0.016911,-0.017582,0.010617,62.508957,21.872147,-147.044785,,,
729606655.396889,0.80187,0.512948,53.532918,-0.00946,0.02475,0.975418,0.010927,-0.034071,-0.002813,62.508957,21.872147,-147.044785,,,
729606655.400213,0.804947,0.499507,53.531235,-0.005692,0.024612,0.980835,0.010927,-0.034071,-0.002813,62.508957,21.872147,-147.044785,,,
729606655.40356,0.804947,0.499507,53.531235,-0.005692,0.024612,0.980835,0.010927,-0.034071,-0.002813,62.508957,21.872147,-147.044785,,,
729606655.406904,0.807341,0.486154,53.52962,-0.005692,0.024612,0.980835,0.010156,-0.048629,-0.007458,62.508957,21.872147,-147.044785,,,
729606655.41021,0.810454,0.470471,53.52879,-0.007202,0.019867,0.983673,0.010156,-0.048629,-0.007458,62.508957,21.872147,-147.044785,,,
729606655.413574,0.810454,0.470471,53.52879,-0.007202,0.019867,0.983673,0.010156,-0.048629,-0.007458,62.508957,21.872147,-147.044785,,,
729606655.416882,0.812294,0.456606,53.529469,-0.007202,0.019867,0.983673,0.009044,-0.050574,0.00102,62.508957,21.872147,-147.044785,,,
729606655.420212,0.814692,0.4412,53.532174,-0.009277,0.013428,0.986893,0.009044,-0.050574,0.00102,62.508957,21.872147,-147.044785,,,
729606655.423636,0.814692,0.4412,53.532174,-0.009277,0.013428,0.986893,0.009044,-0.050574,0.00102,62.508957,21.872147,-147.044785,,,
729606655.426868,0.816934,0.428323,53.536848,-0.009277,0.013428,0.986893,0.00915,-0.048639,0.016322,62.638855,21.720901,-147.136108,,,
729606655.430213,0.820083,0.416024,53.543263,-0.007034,0.011887,0.989151,0.00915,-0.048639,0.016322,62.638855,21.720901,-147.136108,,,
729606655.433569,0.820083,0.416024,53.543263,-0.007034,0.011887,0.989151,0.00915,-0.048639,0.016322,62.638855,21.720901,-147.136108,,,
729606655.43692,0.823947,0.407391,53.550501,-0.007034,0.011887,0.989151,0.013925,-0.030201,0.023427,62.638855,21.720901,-147.136108,,,
729606655.440206,0.828673,0.401168,53.557673,0.001816,0.01503,0.997284,0.013925,-0.030201,0.023427,62.638855,21.720901,-147.136108,,,
729606655.443583,0.828673,0.401168,53.557673,0.001816,0.01503,0.997284,0.013925,-0.030201,0.023427,62.638855,21.720901,-147.136108,,,
729606655.446894,0.834641,0.401213,53.563488,0.001816,0.01503,0.997284,0.022127,-0.006451,0.019453,62.638855,21.720901,-147.136108,,,
729606655.450211,0.841199,0.401273,53.567505,0.007385,0.017502,0.997528,0.022127,-0.006451,0.019453,62.638855,21.720901,-147.136108,,,
729606655.453603,0.841199,0.401273,53.567505,0.007385,0.017502,0.997528,0.022127,-0.006451,0.019453,62.638855,21.720901,-147.136108,,,
729606655.456887,0.847913,0.408213,53.569579,0.007385,0.017502,0.997528,0.019542,0.014312,0.004967,62.638855,21.720901,-147.136108,,,
729606655.460211,0.853376,0.413282,53.570752,0.005783,0.016388,0.994598,0.019542,0.014312,0.004967,62.638855,21.720901,-147.136108,,,
729606655.463667,0.853376,0.413282,53.570752,0.005783,0.016388,0.994598,0.019542,0.014312,0.004967,62.638855,21.720901,-147.136108,,,
729606655.466863,0.859891,0.421596,53.571946,0.005783,0.016388,0.994598,0.017733,0.025616,0.002032,62.590393,21.81282,-147.303238,,,
729606655.470215,0.863807,0.427478,53.573285,-0.003723,0.012405,0.989655,0.017733,0.025616,0.002032,62.590393,21.81282,-147.303238,,,
729606655.473558,0.863807,0.427478,53.573285,-0.003723,0.012405,0.989655,0.017733,0.025616,0.002032,62.590393,21.81282,-147.303238,,,
729606655.476912,0.868997,0.431876,53.575326,-0.003723,0.012405,0.989655,0.01433,0.018365,0.004714,62.590393,21.81282,-147.303238,,,
729606655.4802,0.872597,0.434061,53.578229,-0.008026,0.010651,0.987427,0.01433,0.018365,0.004714,62.590393,21.81282,-147.303238,,,
729606655.48356,0.872597,0.434061,53.578229,-0.008026,0.010651,0.987427,0.01433,0.018365,0.004714,62.590393,21.81282,-147.303238,,,
729606655.486932,0.877532,0.432599,53.581064,-0.008026,0.010651,0.987427,0.012423,-0.000618,0.008111,62.590393,21.81282,-147.303238,,,
729606655.490195,0.879441,0.429426,53.582683,-0.011292,0.010422,0.983871,0.012423,-0.000618,0.008111,62.590393,21.81282,-147.303238,,,
729606655.493542,0.879441,0.429426,53.582683,-0.011292,0.010422,0.983871,0.012423,-0.000618,0.008111,62.590393,21.81282,-147.303238,,,
729606655.496909,0.880409,0.425631,53.582568,-0.011292,0.010422,0.983871,0.004701,-0.008183,-0.002912,62.590393,21.81282,-147.303238,,,
729606655.500203,0.879549,0.42076,53.579944,-0.008133,0.015488,0.986328,0.004701,-0.008183,-0.002912,62.590393,21.81282,-147.303238,,,
729606655.503594,0.879549,0.42076,53.579944,-0.008133,0.015488,0.986328,0.004701,-0.008183,-0.002912,62.590393,21.81282,-147.303238,,,
729606655.50687,0.877389,0.416121,53.574911,-0.008133,0.015488,0.986328,-0.006487,-0.017484,-0.017477,62.689529,21.712967,-147.243088,,,
729606655.51022,0.875396,0.411102,53.568754,-0.001999,0.017532,0.990158,-0.006487,-0.017484,-0.017477,62.689529,21.712967,-147.243088,,,
729606655.513594,0.875396,0.411102,53.568754,-0.001999,0.017532,0.990158,-0.006487,-0.017484,-0.017477,62.689529,21.712967,-147.243088,,,
729606655.516879,0.873528,0.406798,53.562735,-0.001999,0.017532,0.990158,-0.002871,-0.008778,-0.023813,62.689529,21.712967,-147.243088,,,
729606655.520207,0.873897,0.405507,53.557738,-0.007553,0.011658,1.00325,-0.002871,-0.008778,-0.023813,62.689529,21.712967,-147.243088,,,
729606655.52355,0.873897,0.405507,53.557738,-0.007553,0.011658,1.00325,-0.002871,-0.008778,-0.023813,62.689529,21.712967,-147.243088,,,
729606655.526874,0.875389,0.401512,53.554545,-0.007553,0.011658,1.00325,0.004046,0.00222,-0.014703,62.689529,21.712967,-147.243088,,,
729606655.530204,0.876831,0.40265,53.552639,-0.011047,0.004715,1.006638,0.004046,0.00222,-0.014703,62.689529,21.712967,-147.243088,,,
729606655.533553,0.876831,0.40265,53.552639,-0.011047,0.004715,1.006638,0.004046,0.00222,-0.014703,62.689529,21.712967,-147.243088,,,
729606655.536877,0.8796,0.399946,53.551324,-0.011047,0.004715,1.006638,0.006665,0.012203,-0.004202,62.689529,21.712967,-147.243088,,,
729606655.540205,0.881486,0.405114,53.550123,-0.00766,0.004105,1.006104,0.006665,0.012203,-0.004202,62.689529,21.712967,-147.243088,,,
729606655.543561,0.881486,0.405114,53.550123,-0.00766,0.004105,1.006104,0.006665,0.012203,-0.004202,62.689529,21.712967,-147.243088,,,
729606655.546876,0.882885,0.40803,53.549407,-0.00766,0.004105,1.006104,0.004893,0.029858,-0.004888,62.689529,21.712967,-147.243088,,,
729606655.550214,0.884011,0.416247,53.549165,-0.011719,0.006119,1.006317,0.004893,0.029858,-0.004888,62.596527,21.81427,-147.39798,,,
729606655.553598,0.884011,0.416247,53.549165,-0.011719,0.006119,1.006317,0.004893,0.029858,-0.004888,62.596527,21.81427,-147.39798,,,
729606655.556865,0.883692,0.424716,53.548462,-0.011719,0.006119,1.006317,0.004715,0.034132,-0.00226,62.596527,21.81427,-147.39798,,,
729606655.560228,0.883824,0.434279,53.547349,-0.011353,0.007126,1.003098,0.004715,0.034132,-0.00226,62.596527,21.81427,-147.39798,,,
729606655.563562,0.883824,0.434279,53.547349,-0.011353,0.007126,1.003098,0.004715,0.034132,-0.00226,62.596527,21.81427,-147.39798,,,
729606655.566965,0.882309,0.44505,53.545791,-0.011353,0.007126,1.003098,-0.000862,0.03653,-0.005713,62.596527,21.81427,-147.39798,,,
729606655.570206,0.880979,0.454996,53.543584,-0.009888,0.011139,1.001953,-0.000862,0.03653,-0.005713,62.596527,21.81427,-147.39798,,,
729606655.573559,0.880979,0.454996,53.543584,-0.009888,0.011139,1.001953,-0.000862,0.03653,-0.005713,62.596527,21.81427,-147.39798,,,
729606655.576883,0.878321,0.464789,53.540317,-0.009888,0.011139,1.001953,-0.006795,0.030026,-0.012075,62.596527,21.81427,-147.39798,,,
729606655.58021,0.875602,0.470148,53.536333,-0.013397,0.009781,0.994553,-0.006795,0.030026,-0.012075,62.596527,21.81427,-147.39798,,,
729606655.583556,0.875602,0.470148,53.536333,-0.013397,0.009781,0.994553,-0.006795,0.030026,-0.012075,62.596527,21.81427,-147.39798,,,
729606655.58694,0.872121,0.470685,53.532493,-0.013397,0.009781,0.994553,-0.014956,0.011308,-0.016538,62.596527,21.81427,-147.39798,,,
729606655.590207,0.868007,0.469518,53.528967,-0.019135,0.003616,0.995667,-0.014956,0.011308,-0.016538,62.438171,21.862686,-147.258591,,,
729606655.593567,0.868007,0.469518,53.528967,-0.019135,0.003616,0.995667,-0.014956,0.011308,-0.016538,62.438171,21.862686,-147.258591,,,
729606655.596894,0.86466,0.463867,53.526549,-0.019135,0.003616,0.995667,-0.011643,-0.010222,-0.010379,62.438171,21.862686,-147.258591,,,
729606655.600209,0.862171,0.457976,53.525753,-0.02446,0.00267,0.996826,-0.011643,-0.010222,-0.010379,62.438171,21.862686,-147.258591,,,
729606655.603616,0.862171,0.457976,53.525753,-0.02446,0.00267,0.996826,-0.011643,-0.010222,-0.010379,62.438171,21.862686,-147.258591,,,
729606655.606883,0.85981,0.450362,53.527131,-0.02446,0.00267,0.996826,-0.004703,-0.022168,0.002671,62.438171,21.862686,-147.258591,,,
729606655.61021,0.860269,0.440992,53.530621,-0.023041,0.003418,1.004532,-0.004703,-0.022168,0.002671,62.438171,21.862686,-147.258591,,,
729606655.613552,0.860269,0.440992,53.530621,-0.023041,0.003418,1.004532,-0.004703,-0.022168,0.002671,62.438171,21.862686,-147.258591,,,
729606655.616959,0.860224,0.431679,53.535845,-0.023041,0.003418,1.004532,0.009918,-0.032117,0.016917,62.438171,21.862686,-147.258591,,,
729606655.620205,0.864254,0.421548,53.543272,-0.014542,0.004211,1.006622,0.009918,-0.032117,0.016917,62.438171,21.862686,-147.258591,,,
729606655.623541,0.864254,0.421548,53.543272,-0.014542,0.004211,1.006622,0.009918,-0.032117,0.016917,62.438171,21.862686,-147.258591,,,
729606655.626881,0.868431,0.414129,53.552514,-0.014542,0.004211,1.006622,0.020181,-0.024622,0.031493,62.438171,21.862686,-147.258591,,,
729606655.630208,0.875468,0.410105,53.562452,-0.002029,0.006592,1.013596,0.020181,-0.024622,0.031493,62.407669,21.921814,-147.008728,,,
729606655.633558,0.875468,0.410105,53.562452,-0.002029,0.006592,1.013596,0.020181,-0.024622,0.031493,62.407669,21.921814,-147.008728,,,
729606655.63695,0.88092,0.411081,53.57214,-0.002029,0.006592,1.013596,0.025496,-0.00121,0.033948,62.407669,21.921814,-147.008728,,,
729606655.6402,0.88734,0.41179,53.580765,0.012024,0.018494,1.009567,0.025496,-0.00121,0.033948,62.407669,21.921814,-147.008728,,,
729606655.643541,0.88734,0.41179,53.580765,0.012024,0.018494,1.009567,0.025496,-0.00121,0.033948,62.407669,21.921814,-147.008728,,,
729606655.646893,0.890027,0.414938,53.587859,0.012024,0.018494,1.009567,0.017827,0.010123,0.022268,62.407669,21.921814,-147.008728,,,
729606655.650198,0.890749,0.41725,53.593057,0.023056,0.028595,0.99321,0.017827,0.010123,0.022268,62.407669,21.921814,-147.008728,,,
729606655.653568,0.890749,0.41725,53.593057,0.023056,0.028595,0.99321,0.017827,0.010123,0.022268,62.407669,21.921814,-147.008728,,,
729606655.656889,0.887804,0.420811,53.596435,0.023056,0.028595,0.99321,-0.006216,0.010521,0.011416,62.407669,21.921814,-147.008728,,,
729606655.660208,0.882739,0.422221,53.597971,0.019608,0.02774,0.988358,-0.006216,0.010521,0.011416,62.407669,21.921814,-147.008728,,,
729606655.66354,0.882739,0.422221,53.597971,0.019608,0.02774,0.988358,-0.006216,0.010521,0.011416,62.407669,21.921814,-147.008728,,,
729606655.666936,0.873083,0.424068,53.597357,0.019608,0.02774,0.988358,-0.028572,-0.000181,-0.003042,62.407669,21.921814,-147.008728,,,
729606655.6702,0.862987,0.419251,53.59545,0.012283,0.025696,0.983383,-0.028572,-0.000181,-0.003042,62.665176,21.893402,-147.144394,,,
729606655.673392,0.862987,0.419251,53.59545,0.012283,0.025696,0.983383,-0.028572,-0.000181,-0.003042,62.665176,21.893402,-147.144394,,,
729606655.676957,0.850267,0.417238,53.592753,0.012283,0.025696,0.983383,-0.036166,-0.024906,-0.009958,62.665176,21.893402,-147.144394,,,
729606655.680194,0.83989,0.407707,53.588558,0.011826,0.021439,0.987976,-0.036166,-0.024906,-0.009958,62.665176,21.893402,-147.144394,,,
729606655.683559,0.83989,0.407707,53.588558,0.011826,0.021439,0.987976,-0.036166,-0.024906,-0.009958,62.665176,21.893402,-147.144394,,,
729606655.686886,0.828145,0.40477,53.581111,0.011826,0.021439,0.987976,-0.029513,-0.031387,-0.027842,62.665176,21.893402,-147.144394,,,
729606655.690198,0.820012,0.395808,53.570743,0.014023,0.021912,1.001785,-0.029513,-0.031387,-0.027842,62.665176,21.893402,-147.144394,,,
729606655.693632,0.820012,0.395808,53.570743,0.014023,0.021912,1.001785,-0.029513,-0.031387,-0.027842,62.665176,21.893402,-147.144394,,,
729606655.696912,0.811755,0.392836,53.558373,0.014023,0.021912,1.001785,-0.020989,-0.026057,-0.044167,62.665176,21.893402,-147.144394,,,
729606655.700213,0.806946,0.386849,53.545607,0.010864,0.020569,1.007141,-0.020989,-0.026057,-0.044167,62.665176,21.893402,-147.144394,,,
729606655.703558,0.806946,0.386849,53.545607,0.010864,0.020569,1.007141,-0.020989,-0.026057,-0.044167,62.665176,21.893402,-147.144394,,,
729606655.706905,0.800793,0.385627,53.533524,0.010864,0.020569,1.007141,-0.014248,-0.005665,-0.045193,62.665176,21.893402,-147.144394,,,
729606655.710305,0.797165,0.386362,53.523002,-0.000107,0.013336,1.007095,-0.014248,-0.005665,-0.045193,62.665176,21.893402,-147.144394,,,
729606655.713538,0.797165,0.386362,53.523002,-0.000107,0.013336,1.007095,-0.014248,-0.005665,-0.045193,62.642319,21.843811,-146.9375,,,
729606655.716947,0.794263,0.385955,53.515069,-0.000107,0.013336,1.007095,-0.008924,0.01548,-0.029306,62.642319,21.843811,-146.9375,,,
729606655.720196,0.793325,0.390997,53.510831,-0.011215,0.004074,1.006866,-0.008924,0.01548,-0.029306,62.642319,21.843811,-146.9375,,,
729606655.723546,0.793325,0.390997,53.510831,-0.011215,0.004074,1.006866,-0.008924,0.01548,-0.029306,62.642319,21.843811,-146.9375,,,
729606655.726888,0.794841,0.388121,53.511409,-0.011215,0.004074,1.006866,-0.000672,0.026603,0.001588,62.642319,21.843811,-146.9375,,,
729606655.730202,0.794389,0.396108,53.515174,-0.022247,-0.001541,1.003845,-0.000672,0.026603,0.001588,62.642319,21.843811,-146.9375,,,
729606655.733552,0.794389,0.396108,53.515174,-0.022247,-0.001541,1.003845,-0.000672,0.026603,0.001588,62.642319,21.843811,-146.9375,,,
729606655.73688,0.796139,0.392883,53.519728,-0.022247,-0.001541,1.003845,-0.00151,0.032078,0.015246,62.642319,21.843811,-146.9375,,,
729606655.7402,0.79348,0.400068,53.523163,-0.017441,0.010071,1.000381,-0.00151,0.032078,0.015246,62.642319,21.843811,-146.9375,,,
729606655.743535,0.79348,0.400068,53.523163,-0.017441,0.010071,1.000381,-0.00151,0.032078,0.015246,62.642319,21.843811,-146.9375,,,
729606655.74689,0.791884,0.396131,53.52477,-0.017441,0.010071,1.000381,-0.014099,0.019714,0.004501,62.642319,21.843811,-146.9375,,,
729606655.750199,0.786511,0.399156,53.523734,-0.014603,0.021576,0.990692,-0.014099,0.019714,0.004501,62.642319,21.843811,-146.9375,,,
729606655.753543,0.786511,0.399156,53.523734,-0.014603,0.021576,0.990692,-0.014099,0.019714,0.004501,62.810928,21.5186,-147.286041,,,
729606655.75689,0.78214,0.393028,53.520686,-0.014603,0.021576,0.990692,-0.022519,0.008813,-0.013614,62.810928,21.5186,-147.286041,,,
729606655.760226,0.774416,0.391611,53.51629,-0.01915,0.021362,0.992813,-0.022519,0.008813,-0.013614,62.810928,21.5186,-147.286041,,,
729606655.763553,0.774416,0.391611,53.51629,-0.01915,0.021362,0.992813,-0.022519,0.008813,-0.013614,62.810928,21.5186,-147.286041,,,
729606655.76697,0.767012,0.378505,53.511586,-0.01915,0.021362,0.992813,-0.030658,-0.017186,-0.017776,62.810928,21.5186,-147.286041,,,
729606655.770245,0.757926,0.368847,53.50667,-0.022324,0.015533,0.989731,-0.030658,-0.017186,-0.017776,62.810928,21.5186,-147.286041,,,
729606655.773547,0.757926,0.368847,53.50667,-0.022324,0.015533,0.989731,-0.030658,-0.017186,-0.017776,62.810928,21.5186,-147.286041,,,
729606655.77688,0.75198,0.349105,53.502536,-0.022324,0.015533,0.989731,-0.026335,-0.038241,-0.016119,62.810928,21.5186,-147.286041,,,
729606655.780214,0.746161,0.337413,53.499431,-0.023132,0.011612,0.998001,-0.026335,-0.038241,-0.016119,62.810928,21.5186,-147.286041,,,
729606655.783557,0.746161,0.337413,53.499431,-0.023132,0.011612,0.998001,-0.026335,-0.038241,-0.016119,62.810928,21.5186,-147.286041,,,
729606655.786879,0.742425,0.322208,53.497687,-0.023132,0.011612,0.998001,-0.016374,-0.032242,-0.006791,62.810928,21.5186,-147.286041,,,
729606655.790213,0.738872,0.312162,53.497158,-0.01738,0.01004,1.011841,-0.016374,-0.032242,-0.006791,62.810928,21.5186,-147.286041,,,
729606655.793545,0.738872,0.312162,53.497158,-0.01738,0.01004,1.011841,-0.016374,-0.032242,-0.006791,62.442596,21.731064,-147.327881,,,
729606655.796875,0.736377,0.301919,53.497327,-0.01738,0.01004,1.011841,-0.002968,-0.029418,-0.001468,62.442596,21.731064,-147.327881,,,
729606655.80021,0.735205,0.294345,53.498147,-0.011658,0.011642,1.005997,-0.002968,-0.029418,-0.001468,62.442596,21.731064,-147.327881,,,
729606655.803541,0.735205,0.294345,53.498147,-0.011658,0.011642,1.005997,-0.002968,-0.029418,-0.001468,62.442596,21.731064,-147.327881,,,
729606655.806877,0.7313,0.294792,53.498923,-0.011658,0.011642,1.005997,-0.003891,-0.010703,-7e-06,62.442596,21.731064,-147.327881,,,
729606655.810212,0.728902,0.294519,53.499288,-0.008926,0.016693,1.004288,-0.003891,-0.010703,-7e-06,62.442596,21.731064,-147.327881,,,
729606655.813555,0.728902,0.294519,53.499288,-0.008926,0.016693,1.004288,-0.003891,-0.010703,-7e-06,62.442596,21.731064,-147.327881,,,
729606655.81695,0.723535,0.302268,53.499274,-0.008926,0.016693,1.004288,-0.013138,0.006799,-0.000412,62.442596,21.731064,-147.327881,,,
729606655.820205,0.719262,0.302795,53.49932,-0.008881,0.020233,0.995697,-0.013138,0.006799,-0.000412,62.442596,21.731064,-147.327881,,,
729606655.82355,0.719262,0.302795,53.49932,-0.008881,0.020233,0.995697,-0.013138,0.006799,-0.000412,62.442596,21.731064,-147.327881,,,
729606655.826893,0.714397,0.306242,53.499563,-0.008881,0.020233,0.995697,-0.019683,0.000167,-0.001843,62.442596,21.731064,-147.327881,,,
729606655.830208,0.708077,0.305361,53.499871,-0.01358,0.015701,0.992416,-0.019683,0.000167,-0.001843,62.442596,21.731064,-147.327881,,,
729606655.833601,0.708077,0.305361,53.499871,-0.01358,0.015701,0.992416,-0.019683,0.000167,-0.001843,62.442596,21.731064,-147.327881,,,
729606655.836882,0.703196,0.307916,53.500173,-0.01358,0.015701,0.992416,-0.02215,-0.002035,0.001533,62.687149,21.788696,-147.494766,,,
729606655.840233,0.696921,0.30427,53.500863,-0.013428,0.012436,0.994492,-0.02215,-0.002035,0.001533,62.687149,21.788696,-147.494766,,,
729606655.843578,0.696921,0.30427,53.500863,-0.013428,0.012436,0.994492,-0.02215,-0.002035,0.001533,62.687149,21.788696,-147.494766,,,
729606655.846957,0.693045,0.303802,53.501427,-0.013428,0.012436,0.994492,-0.015872,-0.020802,0.001384,62.687149,21.788696,-147.494766,,,
729606655.850218,0.689905,0.295141,53.50222,-0.009766,0.014114,0.995422,-0.015872,-0.020802,0.001384,62.687149,21.788696,-147.494766,,,
729606655.853646,0.689905,0.295141,53.50222,-0.009766,0.014114,0.995422,-0.015872,-0.020802,0.001384,62.687149,21.788696,-147.494766,,,
729606655.856898,0.689289,0.292538,53.50285,-0.009766,0.014114,0.995422,-0.001044,-0.036321,0.005092,62.687149,21.788696,-147.494766,,,
729606655.860218,0.690112,0.282621,53.503566,-0.006561,0.012558,1.001114,-0.001044,-0.036321,0.005092,62.687149,21.788696,-147.494766,,,
729606655.863552,0.690112,0.282621,53.503566,-0.006561,0.012558,1.001114,-0.001044,-0.036321,0.005092,62.687149,21.788696,-147.494766,,,
729606655.866952,0.692558,0.279827,53.505497,-0.006561,0.012558,1.001114,0.010921,-0.029855,0.005767,62.687149,21.788696,-147.494766,,,
729606655.8702,0.697078,0.271809,53.508397,-0.001205,0.011993,1.00174,0.010921,-0.029855,0.005767,62.687149,21.788696,-147.494766,,,
729606655.873549,0.697078,0.271809,53.508397,-0.001205,0.011993,1.00174,0.010921,-0.029855,0.005767,62.687149,21.788696,-147.494766,,,
729606655.876871,0.702375,0.269359,53.511686,-0.001205,0.011993,1.00174,0.018937,-0.021149,0.010979,62.763351,21.820847,-147.530609,,,
729606655.880203,0.708275,0.26564,53.515451,0.002838,0.010864,0.9991,0.018937,-0.021149,0.010979,62.763351,21.820847,-147.530609,,,
729606655.88355,0.708275,0.26564,53.515451,0.002838,0.010864,0.9991,0.018937,-0.021149,0.010979,62.763351,21.820847,-147.530609,,,
729606655.886889,0.713498,0.265768,53.519112,0.002838,0.010864,0.9991,0.019466,-0.003692,0.01149,62.763351,21.820847,-147.530609,,,
729606655.890208,0.717463,0.265634,53.522076,0.00766,0.014053,0.995087,0.019466,-0.003692,0.01149,62.763351,21.820847,-147.530609,,,
729606655.89354,0.717463,0.265634,53.522076,0.00766,0.014053,0.995087,0.019466,-0.003692,0.01149,62.763351,21.820847,-147.530609,,,
729606655.896894,0.721806,0.267204,53.524319,0.00766,0.014053,0.995087,0.011839,0.005042,0.008557,62.763351,21.820847,-147.530609,,,
729606655.900207,0.724583,0.267115,53.526169,0.007019,0.018524,0.991089,0.011839,0.005042,0.008557,62.763351,21.820847,-147.530609,,,
729606655.903606,0.724583,0.267115,53.526169,0.007019,0.018524,0.991089,0.011839,0.005042,0.008557,62.763351,21.820847,-147.530609,,,
729606655.906874,0.728652,0.269227,53.5274,0.007019,0.018524,0.991089,0.011157,0.004456,0.002085,62.763351,21.820847,-147.530609,,,
729606655.910206,0.731494,0.269709,53.527612,0.000427,0.021378,0.996506,0.011157,0.004456,0.002085,62.763351,21.820847,-147.530609,,,
729606655.913554,0.731494,0.269709,53.527612,0.000427,0.021378,0.996506,0.011157,0.004456,0.002085,62.763351,21.820847,-147.530609,,,
