Time (sec),Pitch (deg),Roll (deg),Yaw(deg),X-Acceleration (g),Y-Acceleration (g),Z-Acceleration (g),Pitch Rate (deg/sec),Roll Rate (deg/sec),Yaw Rate (deg/sec),Magnetic Field in X direction (uT),Magnetic Field in Y direction (uT),Magnetic Field in Z Direction (uT),Latitude (deg),Longitude (deg),Altitude (m)
729608414.940251,1.712018,-0.046801,54.523022,-0.010925,0.014389,1.006607,0.013786,0.022974,0.015677,63.828613,21.635529,-148.356079,,,
729608414.943682,1.712018,-0.046801,54.523022,-0.010925,0.014389,1.006607,0.013786,0.022974,0.015677,63.828613,21.635529,-148.356079,,,
729608414.946922,1.715755,-0.042166,54.528968,-0.010925,0.014389,1.006607,0.013786,0.022974,0.015677,63.828613,21.635529,-148.356079,,,
729608414.95025,1.721084,-0.035536,54.536351,-0.007767,0.015457,1.002365,0.012334,0.015532,0.027041,63.828613,21.635529,-148.356079,,,
729608414.953593,1.721084,-0.035536,54.536351,-0.007767,0.015457,1.002365,0.012334,0.015532,0.027041,63.828613,21.635529,-148.356079,,,
729608414.956906,1.724561,-0.03284,54.54439,-0.007767,0.015457,1.002365,0.012334,0.015532,0.027041,63.828613,21.635529,-148.356079,,,
729608414.960253,1.728616,-0.029593,54.552247,-0.003845,0.023544,1.00293,0.015664,0.004132,0.023509,63.828613,21.635529,-148.356079,,,
729608414.963574,1.728616,-0.029593,54.552247,-0.003845,0.023544,1.00293,0.015664,0.004132,0.023509,63.828613,21.635529,-148.356079,,,
729608414.966921,1.732494,-0.030321,54.558624,-0.003845,0.023544,1.00293,0.015664,0.004132,0.023509,63.828613,21.635529,-148.356079,,,
729608414.970242,1.735689,-0.034121,54.562783,0.007568,0.032379,0.999298,0.012018,-0.012965,0.008821,63.828613,21.635529,-148.356079,,,
729608414.97363,1.735689,-0.034121,54.562783,0.007568,0.032379,0.999298,0.012018,-0.012965,0.008821,64.110779,21.863174,-148.469086,,,
729608414.976925,1.738437,-0.038332,54.565331,0.007568,0.032379,0.999298,0.012018,-0.012965,0.008821,64.110779,21.863174,-148.469086,,,
729608414.980349,1.738698,-0.043928,54.566483,0.017105,0.036194,0.997879,0.001994,0.000421,-0.001201,64.110779,21.863174,-148.469086,,,
729608414.983569,1.738698,-0.043928,54.566483,0.017105,0.036194,0.997879,0.001994,0.000421,-0.001201,64.110779,21.863174,-148.469086,,,
729608414.986925,1.738612,-0.043967,54.566755,0.017105,0.036194,0.997879,0.001994,0.000421,-0.001201,64.110779,21.863174,-148.469086,,,
729608414.990256,1.736809,-0.043943,54.5661,0.021912,0.036713,1.004913,-0.007949,0.018277,-0.005809,64.110779,21.863174,-148.469086,,,
729608414.993687,1.736809,-0.043943,54.5661,0.021912,0.036713,1.004913,-0.007949,0.018277,-0.005809,64.110779,21.863174,-148.469086,,,
729608414.996935,1.734863,-0.038747,54.564276,0.021912,0.036713,1.004913,-0.007949,0.018277,-0.005809,64.110779,21.863174,-148.469086,,,
729608415.000267,1.733349,-0.031578,54.561845,0.024216,0.034988,1.007919,-0.000464,0.039747,-0.013009,64.110779,21.863174,-148.469086,,,
729608415.003606,1.733349,-0.031578,54.561845,0.024216,0.034988,1.007919,-0.000464,0.039747,-0.013009,64.110779,21.863174,-148.469086,,,
729608415.00664,1.733425,-0.02149,54.558756,0.024216,0.034988,1.007919,-0.000464,0.039747,-0.013009,64.110779,21.863174,-148.469086,,,
729608415.010201,1.73418,-0.009712,54.555309,0.016968,0.027328,1.01442,0.013561,0.035756,-0.015687,64.110779,21.863174,-148.469086,,,
729608415.013595,1.73418,-0.009712,54.555309,0.016968,0.027328,1.01442,0.013561,0.035756,-0.015687,63.895493,21.693375,-148.343826,,,
729608415.016936,1.73884,-0.000313,54.552135,0.016968,0.027328,1.01442,0.013561,0.035756,-0.015687,63.895493,21.693375,-148.343826,,,
729608415.020251,1.74178,0.008507,54.54991,0.005325,0.019958,1.006821,0.024959,0.013341,-0.006733,63.895493,21.693375,-148.343826,,,
729608415.023595,1.74178,0.008507,54.54991,0.005325,0.019958,1.006821,0.024959,0.013341,-0.006733,63.895493,21.693375,-148.343826,,,
729608415.026943,1.748514,0.010987,54.548298,0.005325,0.019958,1.006821,0.024959,0.013341,-0.006733,63.895493,21.693375,-148.343826,,,
729608415.03025,1.750068,0.013075,54.54547,0.000793,0.024246,1.002289,0.021796,-0.008122,-0.012172,63.895493,21.693375,-148.343826,,,
729608415.033687,1.750068,0.013075,54.54547,0.000793,0.024246,1.002289,0.021796,-0.008122,-0.012172,63.895493,21.693375,-148.343826,,,
729608415.036914,1.754971,0.009218,54.541642,0.000793,0.024246,1.002289,0.021796,-0.008122,-0.012172,63.895493,21.693375,-148.343826,,,
729608415.040258,1.756449,0.003304,54.537821,0.002502,0.03511,0.998886,0.014023,-0.030571,-0.016717,63.895493,21.693375,-148.343826,,,
729608415.043589,1.756449,0.003304,54.537821,0.002502,0.03511,0.998886,0.014023,-0.030571,-0.016717,63.895493,21.693375,-148.343826,,,
729608415.046997,1.759945,-0.006415,54.534235,0.002502,0.03511,0.998886,0.014023,-0.030571,-0.016717,63.895493,21.693375,-148.343826,,,
729608415.050244,1.762777,-0.017604,54.531176,-0.00325,0.036057,1.004974,0.011416,-0.036314,-0.008664,63.895493,21.693375,-148.343826,,,
729608415.05358,1.762777,-0.017604,54.531176,-0.00325,0.036057,1.004974,0.011416,-0.036314,-0.008664,63.895493,21.693375,-148.343826,,,
729608415.056983,1.765547,-0.028456,54.529179,-0.00325,0.036057,1.004974,0.011416,-0.036314,-0.008664,63.770935,21.71846,-148.444061,,,
729608415.060253,1.769023,-0.043167,54.528219,-0.001419,0.032944,1.007675,0.008183,-0.036252,-0.003592,63.770935,21.71846,-148.444061,,,
729608415.063656,1.769023,-0.043167,54.528219,-0.001419,0.032944,1.007675,0.008183,-0.036252,-0.003592,63.770935,21.71846,-148.444061,,,
729608415.066946,1.7718,-0.053143,54.526949,-0.001419,0.032944,1.007675,0.008183,-0.036252,-0.003592,63.770935,21.71846,-148.444061,,,
729608415.070261,1.776534,-0.067499,54.525403,0.004974,0.037552,1.010361,0.010468,-0.025835,-0.006848,63.770935,21.71846,-148.444061,,,
729608415.073584,1.776534,-0.067499,54.525403,0.004974,0.037552,1.010361,0.010468,-0.025835,-0.006848,63.770935,21.71846,-148.444061,,,
729608415.076945,1.78016,-0.076217,54.524098,0.004974,0.037552,1.010361,0.010468,-0.025835,-0.006848,63.770935,21.71846,-148.444061,,,
729608415.080259,1.785966,-0.092688,54.523564,0.004486,0.044586,1.012772,0.021869,-0.03537,-0.002697,63.770935,21.71846,-148.444061,,,
729608415.083577,1.785966,-0.092688,54.523564,0.004486,0.044586,1.012772,0.021869,-0.03537,-0.002697,63.770935,21.71846,-148.444061,,,
729608415.086933,1.792598,-0.104354,54.523827,0.004486,0.044586,1.012772,0.021869,-0.03537,-0.002697,63.770935,21.71846,-148.444061,,,
729608415.090245,1.800676,-0.122602,54.525317,-0.001404,0.041275,1.012421,0.035175,-0.044873,0.005194,63.770935,21.71846,-148.444061,,,
729608415.093592,1.800676,-0.122602,54.525317,-0.001404,0.041275,1.012421,0.035175,-0.044873,0.005194,63.770935,21.71846,-148.444061,,,
729608415.096912,1.81025,-0.135734,54.526851,-0.001404,0.041275,1.012421,0.035175,-0.044873,0.005194,63.876755,21.664017,-148.442062,,,
729608415.100246,1.818718,-0.150628,54.528763,-0.001129,0.036301,1.014816,0.041451,-0.042183,0.003488,63.876755,21.664017,-148.442062,,,
729608415.103587,1.818718,-0.150628,54.528763,-0.001129,0.036301,1.014816,0.041451,-0.042183,0.003488,63.876755,21.664017,-148.442062,,,
729608415.106908,1.830604,-0.1638,54.530383,-0.001129,0.036301,1.014816,0.041451,-0.042183,0.003488,63.876755,21.664017,-148.442062,,,
729608415.110255,1.840005,-0.176661,54.531889,0.004181,0.039795,1.010651,0.047537,-0.040849,0.006542,63.876755,21.664017,-148.442062,,,
729608415.113635,1.840005,-0.176661,54.531889,0.004181,0.039795,1.010651,0.047537,-0.040849,0.006542,63.876755,21.664017,-148.442062,,,
729608415.116917,1.852167,-0.188717,54.533931,0.004181,0.039795,1.010651,0.047537,-0.040849,0.006542,63.876755,21.664017,-148.442062,,,
729608415.120256,1.863551,-0.19786,54.536436,-0.001526,0.043808,1.00885,0.041211,-0.020887,0.011441,63.876755,21.664017,-148.442062,,,
729608415.123573,1.863551,-0.19786,54.536436,-0.001526,0.043808,1.00885,0.041211,-0.020887,0.011441,63.876755,21.664017,-148.442062,,,
729608415.126989,1.874806,-0.20519,54.539631,-0.001526,0.043808,1.00885,0.041211,-0.020887,0.011441,63.876755,21.664017,-148.442062,,,
729608415.130231,1.886477,-0.209758,54.543451,-0.005249,0.040527,1.006226,0.032592,-0.014541,0.011485,63.876755,21.664017,-148.442062,,,
729608415.133624,1.886477,-0.209758,54.543451,-0.005249,0.040527,1.006226,0.032592,-0.014541,0.011485,63.876755,21.664017,-148.442062,,,
729608415.136907,1.89579,-0.215212,54.547809,-0.005249,0.040527,1.006226,0.032592,-0.014541,0.011485,63.613815,21.363068,-148.356918,,,
729608415.140249,1.904181,-0.21988,54.5519,-0.004349,0.040665,0.998947,0.030834,-0.0253,0.010315,63.613815,21.363068,-148.356918,,,
729608415.143593,1.904181,-0.21988,54.5519,-0.004349,0.040665,0.998947,0.030834,-0.0253,0.010315,63.613815,21.363068,-148.356918,,,
729608415.14692,1.912361,-0.22823,54.555313,-0.004349,0.040665,0.998947,0.030834,-0.0253,0.010315,63.613815,21.363068,-148.356918,,,
729608415.150255,1.920731,-0.237232,54.558175,-0.005234,0.041687,0.992538,0.028132,-0.032027,0.008666,63.613815,21.363068,-148.356918,,,
729608415.153689,1.920731,-0.237232,54.558175,-0.005234,0.041687,0.992538,0.028132,-0.032027,0.008666,63.613815,21.363068,-148.356918,,,
729608415.156898,1.928456,-0.246908,54.561428,-0.005234,0.041687,0.992538,0.028132,-0.032027,0.008666,63.613815,21.363068,-148.356918,,,
729608415.160255,1.938463,-0.257654,54.566117,-0.009354,0.03981,0.99057,0.028036,-0.039483,0.021062,63.613815,21.363068,-148.356918,,,
729608415.163592,1.938463,-0.257654,54.566117,-0.009354,0.03981,0.99057,0.028036,-0.039483,0.021062,63.613815,21.363068,-148.356918,,,
729608415.167009,1.946054,-0.269192,54.572732,-0.009354,0.03981,0.99057,0.028036,-0.039483,0.021062,63.613815,21.363068,-148.356918,,,
729608415.170247,1.95536,-0.27992,54.581366,-0.014069,0.03125,0.985962,0.024971,-0.034668,0.033498,63.613815,21.363068,-148.356918,,,
729608415.173584,1.95536,-0.27992,54.581366,-0.014069,0.03125,0.985962,0.024971,-0.034668,0.033498,63.613815,21.363068,-148.356918,,,
729608415.176921,1.961935,-0.29147,54.591608,-0.014069,0.03125,0.985962,0.024971,-0.034668,0.033498,63.511932,21.577805,-148.37326,,,
729608415.180252,1.967967,-0.30068,54.602206,-0.006973,0.031921,0.983612,0.017545,-0.033371,0.03789,63.511932,21.577805,-148.37326,,,
729608415.183586,1.967967,-0.30068,54.602206,-0.006973,0.031921,0.983612,0.017545,-0.033371,0.03789,63.511932,21.577805,-148.37326,,,
729608415.186915,1.972912,-0.31137,54.612486,-0.006973,0.031921,0.983612,0.017545,-0.033371,0.03789,63.511932,21.577805,-148.37326,,,
729608415.190256,1.978254,-0.319133,54.62255,0.001877,0.035858,0.981583,0.014046,-0.01431,0.035072,63.511932,21.577805,-148.37326,,,
729608415.193642,1.978254,-0.319133,54.62255,0.001877,0.035858,0.981583,0.014046,-0.01431,0.035072,63.511932,21.577805,-148.37326,,,
729608415.196929,1.981821,-0.324367,54.632619,0.001877,0.035858,0.981583,0.014046,-0.01431,0.035072,63.511932,21.577805,-148.37326,,,
729608415.200297,1.987038,-0.325261,54.642159,0.005951,0.036774,0.98793,0.011665,0.003881,0.032193,63.511932,21.577805,-148.37326,,,
729608415.203592,1.987038,-0.325261,54.642159,0.005951,0.036774,0.98793,0.011665,0.003881,0.032193,63.511932,21.577805,-148.37326,,,
729608415.206918,1.989881,-0.323651,54.651724,0.005951,0.036774,0.98793,0.011665,0.003881,0.032193,63.511932,21.577805,-148.37326,,,
729608415.210247,1.994344,-0.317339,54.661611,0.006058,0.031906,0.98703,0.011467,0.020441,0.031418,63.511932,21.577805,-148.37326,,,
729608415.213593,1.994344,-0.317339,54.661611,0.006058,0.031906,0.98703,0.011467,0.020441,0.031418,63.511932,21.577805,-148.37326,,,
729608415.216916,1.997429,-0.312586,54.671634,0.006058,0.031906,0.98703,0.011467,0.020441,0.031418,63.511932,21.577805,-148.37326,,,
729608415.220287,2.002093,-0.305407,54.68135,0.006104,0.029373,0.985504,0.014135,0.016766,0.030376,63.462784,21.362503,-148.571182,,,
729608415.223572,2.002093,-0.305407,54.68135,0.006104,0.029373,0.985504,0.014135,0.016766,0.030376,63.462784,21.362503,-148.571182,,,
729608415.226921,2.005373,-0.302418,54.690876,0.006104,0.029373,0.985504,0.014135,0.016766,0.030376,63.462784,21.362503,-148.571182,,,
729608415.230252,2.009259,-0.298576,54.699858,0.001587,0.032043,0.977844,0.006558,0.003599,0.029486,63.462784,21.362503,-148.571182,,,
729608415.233588,2.009259,-0.298576,54.699858,0.001587,0.032043,0.977844,0.006558,0.003599,0.029486,63.462784,21.362503,-148.571182,,,
729608415.236933,2.010146,-0.30031,54.708608,0.001587,0.032043,0.977844,0.006558,0.003599,0.029486,63.462784,21.362503,-148.571182,,,
729608415.240265,2.010958,-0.301821,54.716521,0.001099,0.037445,0.970078,-0.010558,-0.017778,0.021481,63.462784,21.362503,-148.571182,,,
729608415.243652,2.010958,-0.301821,54.716521,0.001099,0.037445,0.970078,-0.010558,-0.017778,0.021481,63.462784,21.362503,-148.571182,,,
729608415.246933,2.007141,-0.309329,54.723288,0.001099,0.037445,0.970078,-0.010558,-0.017778,0.021481,63.462784,21.362503,-148.571182,,,
729608415.250248,2.000988,-0.314317,54.729267,0.005676,0.038757,0.963165,-0.02241,-0.038487,0.019892,63.462784,21.362503,-148.571182,,,
729608415.253593,2.000988,-0.314317,54.729267,0.005676,0.038757,0.963165,-0.02241,-0.038487,0.019892,63.462784,21.362503,-148.571182,,,
729608415.256647,1.993627,-0.326576,54.73477,0.005676,0.038757,0.963165,-0.02241,-0.038487,0.019892,63.462784,21.362503,-148.571182,,,
729608415.260299,1.98377,-0.335826,54.739744,0.010223,0.039795,0.966675,-0.033053,-0.048185,0.01715,63.372955,21.431046,-148.61734,,,
729608415.263593,1.98377,-0.335826,54.739744,0.010223,0.039795,0.966675,-0.033053,-0.048185,0.01715,63.372955,21.431046,-148.61734,,,
729608415.266996,1.974389,-0.350118,54.745309,0.010223,0.039795,0.966675,-0.033053,-0.048185,0.01715,63.372955,21.431046,-148.61734,,,
729608415.270261,1.964463,-0.362087,54.751466,0.01506,0.035172,0.973862,-0.035911,-0.034016,0.022043,63.372955,21.431046,-148.61734,,,
729608415.273614,1.964463,-0.362087,54.751466,0.01506,0.035172,0.973862,-0.035911,-0.034016,0.022043,63.372955,21.431046,-148.61734,,,
729608415.276925,1.954503,-0.37214,54.758416,0.01506,0.035172,0.973862,-0.035911,-0.034016,0.022043,63.372955,21.431046,-148.61734,,,
729608415.280244,1.946077,-0.377318,54.766798,0.015549,0.028946,0.986908,-0.026781,0.001309,0.034624,63.372955,21.431046,-148.61734,,,
729608415.283593,1.946077,-0.377318,54.766798,0.015549,0.028946,0.986908,-0.026781,0.001309,0.034624,63.372955,21.431046,-148.61734,,,
729608415.286926,1.938397,-0.377563,54.776654,0.015549,0.028946,0.986908,-0.026781,0.001309,0.034624,63.372955,21.431046,-148.61734,,,
729608415.290246,1.932334,-0.372418,54.787235,0.022537,0.027252,0.999573,-0.017221,0.032642,0.038309,63.372955,21.431046,-148.61734,,,
729608415.293679,1.932334,-0.372418,54.787235,0.022537,0.027252,0.999573,-0.017221,0.032642,0.038309,63.372955,21.431046,-148.61734,,,
729608415.296918,1.92663,-0.362105,54.797663,0.022537,0.027252,0.999573,-0.017221,0.032642,0.038309,63.372955,21.431046,-148.61734,,,
729608415.300256,1.920082,-0.346104,54.807015,0.028519,0.034378,1.003922,-0.014429,0.074447,0.027543,63.393433,21.602722,-148.562393,,,
729608415.30359,1.920082,-0.346104,54.807015,0.028519,0.034378,1.003922,-0.014429,0.074447,0.027543,63.393433,21.602722,-148.562393,,,
729608415.306649,1.914426,-0.325525,54.81418,0.028519,0.034378,1.003922,-0.014429,0.074447,0.027543,63.393433,21.602722,-148.562393,,,
729608415.31028,1.90892,-0.304133,54.818303,0.026077,0.042038,1.00415,-0.013722,0.071731,0.005409,63.393433,21.602722,-148.562393,,,
729608415.313585,1.90892,-0.304133,54.818303,0.026077,0.042038,1.00415,-0.013722,0.071731,0.005409,63.393433,21.602722,-148.562393,,,
729608415.31693,1.904012,-0.285917,54.820043,0.026077,0.042038,1.00415,-0.013722,0.071731,0.005409,63.393433,21.602722,-148.562393,,,
729608415.320241,1.899698,-0.272121,54.820186,0.018219,0.044739,0.992722,-0.013964,0.03282,-0.005007,63.393433,21.602722,-148.562393,,,
729608415.323574,1.899698,-0.272121,54.820186,0.018219,0.044739,0.992722,-0.013964,0.03282,-0.005007,63.393433,21.602722,-148.562393,,,
729608415.326909,1.894972,-0.264662,54.819529,0.018219,0.044739,0.992722,-0.013964,0.03282,-0.005007,63.393433,21.602722,-148.562393,,,
729608415.330241,1.890737,-0.2617,54.818201,0.001205,0.040237,0.986755,-0.019474,-0.002621,-0.003815,63.393433,21.602722,-148.562393,,,
729608415.333661,1.890737,-0.2617,54.818201,0.001205,0.040237,0.986755,-0.019474,-0.002621,-0.003815,63.393433,21.602722,-148.562393,,,
729608415.336926,1.884279,-0.264504,54.816219,0.001205,0.040237,0.986755,-0.019474,-0.002621,-0.003815,63.393433,21.602722,-148.562393,,,
729608415.340276,1.884279,-0.273482,54.814047,3.1e-05,0.037445,0.984344,-0.026549,-0.04055,-0.008312,63.372818,21.52684,-148.440201,,,
729608415.343609,1.878541,-0.273482,54.814047,3.1e-05,0.037445,0.984344,-0.026549,-0.04055,-0.008312,63.372818,21.52684,-148.440201,,,
729608415.346977,1.871113,-0.286091,54.811701,3.1e-05,0.037445,0.984344,-0.026549,-0.04055,-0.008312,63.372818,21.52684,-148.440201,,,
729608415.350252,1.864729,-0.302914,54.809039,0.003876,0.036713,0.990845,-0.023289,-0.051567,-0.010865,63.372818,21.52684,-148.440201,,,
729608415.353593,1.864729,-0.302914,54.809039,0.003876,0.036713,0.990845,-0.023289,-0.051567,-0.010865,63.372818,21.52684,-148.440201,,,
729608415.356906,1.857555,-0.31806,54.806353,0.003876,0.036713,0.990845,-0.023289,-0.051567,-0.010865,63.372818,21.52684,-148.440201,,,
729608415.360261,1.857555,-0.332876,54.804178,0.001755,0.036484,1.003159,-0.011979,-0.032197,-0.009871,63.372818,21.52684,-148.440201,,,
729608415.3636,1.851494,-0.332876,54.804178,0.001755,0.036484,1.003159,-0.011979,-0.032197,-0.009871,63.372818,21.52684,-148.440201,,,
729608415.366941,1.847839,-0.341529,54.802206,0.001755,0.036484,1.003159,-0.011979,-0.032197,-0.009871,63.372818,21.52684,-148.440201,,,
729608415.370246,1.84555,-0.34869,54.800323,0.006531,0.029724,1.018158,0.005603,0.000668,-0.00687,63.372818,21.52684,-148.440201,,,
729608415.373587,1.84555,-0.34869,54.800323,0.006531,0.029724,1.018158,0.005603,0.000668,-0.00687,63.372818,21.52684,-148.440201,,,
729608415.376919,1.846934,-0.347264,54.798374,0.006531,0.029724,1.018158,0.005603,0.000668,-0.00687,63.372818,21.52684,-148.440201,,,
729608415.380319,1.846934,-0.345123,54.796822,0.01001,0.026917,1.022736,0.015891,0.048556,-0.007107,63.372818,21.52684,-148.440201,,,
729608415.383597,1.849789,-0.345123,54.796822,0.01001,0.026917,1.022736,0.015891,0.048556,-0.007107,63.657501,21.454132,-148.453445,,,
729608415.386974,1.853947,-0.33109,54.795704,0.01001,0.026917,1.022736,0.015891,0.048556,-0.007107,63.657501,21.454132,-148.453445,,,
729608415.390301,1.853947,-0.318159,54.79575,0.003113,0.025757,1.020096,0.016345,0.079163,0.002682,63.657501,21.454132,-148.453445,,,
729608415.393576,1.860045,-0.318159,54.79575,0.003113,0.025757,1.020096,0.016345,0.079163,0.002682,63.657501,21.454132,-148.453445,,,
729608415.396967,1.864148,-0.29683,54.797252,0.003113,0.025757,1.020096,0.016345,0.079163,0.002682,63.657501,21.454132,-148.453445,,,
729608415.400235,1.864148,-0.29683,54.797252,0.003113,0.025757,1.020096,0.016345,0.079163,0.002682,63.657501,21.454132,-148.453445,,,
729608415.403589,1.871107,-0.280918,54.800662,-0.008179,0.026978,1.008896,0.011977,0.074284,0.014277,63.657501,21.454132,-148.453445,,,
729608415.40692,1.874742,-0.261461,54.804993,-0.008179,0.026978,1.008896,0.011977,0.074284,0.014277,63.657501,21.454132,-148.453445,,,
729608415.410304,1.874742,-0.245683,54.809995,-0.017914,0.024918,0.99791,0.013431,0.049427,0.019053,63.657501,21.454132,-148.453445,,,
729608415.413645,1.88009,-0.245683,54.809995,-0.017914,0.024918,0.99791,0.013431,0.049427,0.019053,63.657501,21.454132,-148.453445,,,
729608415.416929,1.8825,-0.233766,54.815626,-0.017914,0.024918,0.99791,0.013431,0.049427,0.019053,63.657501,21.454132,-148.453445,,,
729608415.420249,1.8825,-0.233766,54.815626,-0.017914,0.024918,0.99791,0.013431,0.049427,0.019053,63.657501,21.454132,-148.453445,,,
729608415.423605,1.886483,-0.224999,54.820988,-0.021149,0.025192,0.996353,0.01452,0.015545,0.018195,63.701981,21.544189,-148.452637,,,
729608415.426979,1.890247,-0.222014,54.825806,-0.021149,0.025192,0.996353,0.01452,0.015545,0.018195,63.701981,21.544189,-148.452637,,,
729608415.430235,1.890247,-0.222014,54.825806,-0.021149,0.025192,0.996353,0.01452,0.015545,0.018195,63.701981,21.544189,-148.452637,,,
729608415.433587,1.896214,-0.222011,54.831059,-0.014969,0.025818,1.000946,0.020184,-0.001101,0.01788,63.701981,21.544189,-148.452637,,,
729608415.436917,1.901381,-0.223895,54.836525,-0.014969,0.025818,1.000946,0.020184,-0.001101,0.01788,63.701981,21.544189,-148.452637,,,
729608415.44031,1.901381,-0.223895,54.836525,-0.014969,0.025818,1.000946,0.020184,-0.001101,0.01788,63.701981,21.544189,-148.452637,,,
729608415.443584,1.907024,-0.225682,54.842419,-0.007309,0.026871,1.002274,0.015499,-0.006058,0.022535,63.701981,21.544189,-148.452637,,,
729608415.446932,1.910969,-0.227695,54.848729,-0.007309,0.026871,1.002274,0.015499,-0.006058,0.022535,63.701981,21.544189,-148.452637,,,
729608415.450299,1.910969,-0.227695,54.848729,-0.007309,0.026871,1.002274,0.006326,0.004546,0.02373,63.701981,21.544189,-148.452637,,,
729608415.453652,1.913144,-0.22857,54.855048,-0.001205,0.029724,0.998367,0.006326,0.004546,0.02373,63.701981,21.544189,-148.452637,,,
729608415.456921,1.914721,-0.227445,54.861742,-0.001205,0.029724,0.998367,0.006326,0.004546,0.02373,63.701981,21.544189,-148.452637,,,
729608415.460317,1.914721,-0.227445,54.861742,-0.001205,0.029724,0.998367,0.006326,0.004546,0.02373,63.701981,21.544189,-148.452637,,,
729608415.46358,1.914851,-0.2266,54.868609,0.001923,0.031006,1.000351,0.008672,0.014191,0.023649,63.807739,21.592575,-148.358032,,,
729608415.466907,1.916977,-0.222791,54.875636,0.001923,0.031006,1.000351,0.008672,0.014191,0.023649,63.807739,21.592575,-148.358032,,,
729608415.47026,1.916977,-0.222791,54.875636,0.001923,0.031006,1.000351,0.008672,0.014191,0.023649,63.807739,21.592575,-148.358032,,,
729608415.473587,1.918032,-0.21748,54.882955,0.004364,0.028351,1.001694,0.012971,0.028231,0.02296,63.807739,21.592575,-148.358032,,,
729608415.476905,1.92255,-0.209874,54.890236,0.004364,0.028351,1.001694,0.012971,0.028231,0.02296,63.807739,21.592575,-148.358032,,,
729608415.480295,1.92255,-0.209874,54.890236,0.004364,0.028351,1.001694,0.012971,0.028231,0.02296,63.807739,21.592575,-148.358032,,,
729608415.483593,1.926319,-0.19894,54.897008,0.003235,0.025482,1.004944,0.025648,0.041311,0.021008,63.807739,21.592575,-148.358032,,,
729608415.4869,1.932992,-0.187263,54.903285,0.003235,0.025482,1.004944,0.025648,0.041311,0.021008,63.807739,21.592575,-148.358032,,,
729608415.49028,1.932992,-0.187263,54.903285,0.003235,0.025482,1.004944,0.025648,0.041311,0.021008,63.807739,21.592575,-148.358032,,,
729608415.493638,1.93807,-0.166833,54.909323,0.00473,0.025879,1.003067,0.028784,0.065498,0.017547,63.807739,21.592575,-148.358032,,,
729608415.496897,1.946186,-0.147549,54.915034,0.00473,0.025879,1.003067,0.028784,0.065498,0.017547,63.807739,21.592575,-148.358032,,,
729608415.500291,1.946186,-0.147549,54.915034,0.00473,0.025879,1.003067,0.028784,0.065498,0.017547,63.807739,21.592575,-148.358032,,,
729608415.503621,1.952772,-0.119908,54.91952,0.00351,0.028488,1.001831,0.032046,0.080189,0.014362,63.807739,21.592575,-148.358032,,,
729608415.506904,1.962284,-0.09764,54.924003,0.00351,0.028488,1.001831,0.032046,0.080189,0.014362,63.75943,21.709793,-148.568817,,,
729608415.510268,1.962284,-0.09764,54.924003,0.00351,0.028488,1.001831,0.032046,0.080189,0.014362,63.75943,21.709793,-148.568817,,,
729608415.513578,1.969726,-0.069708,54.928951,0.001343,0.029495,0.990402,0.032461,0.082725,0.01996,63.75943,21.709793,-148.568817,,,
729608415.516974,1.978928,-0.047914,54.934564,0.001343,0.029495,0.990402,0.032461,0.082725,0.01996,63.75943,21.709793,-148.568817,,,
729608415.520275,1.978928,-0.047914,54.934564,0.001343,0.029495,0.990402,0.032461,0.082725,0.01996,63.75943,21.709793,-148.568817,,,
729608415.523591,1.986152,-0.024237,54.940287,-0.005951,0.028198,0.98288,0.032854,0.070734,0.016459,63.75943,21.709793,-148.568817,,,
729608415.526904,1.994512,-0.005084,54.945501,-0.005951,0.028198,0.98288,0.032854,0.070734,0.016459,63.75943,21.709793,-148.568817,,,
729608415.530302,1.994512,-0.005084,54.945501,-0.005951,0.028198,0.98288,0.032854,0.070734,0.016459,63.75943,21.709793,-148.568817,,,
729608415.533575,1.999581,0.013129,54.949397,-0.00325,0.030106,0.979492,0.022418,0.06229,0.010527,63.75943,21.709793,-148.568817,,,
729608415.536905,2.005819,0.02854,54.952475,-0.00325,0.030106,0.979492,0.022418,0.06229,0.010527,63.75943,21.709793,-148.568817,,,
729608415.54027,2.005819,0.02854,54.952475,-0.00325,0.030106,0.979492,0.022418,0.06229,0.010527,63.75943,21.709793,-148.568817,,,
729608415.543617,2.011428,0.040737,54.955523,-0.000916,0.033447,0.978561,0.025646,0.035648,0.010109,63.75943,21.709793,-148.568817,,,
729608415.546901,2.018994,0.04892,54.958855,-0.000916,0.033447,0.978561,0.025646,0.035648,0.010109,64.16333,21.479416,-148.309265,,,
729608415.550266,2.018994,0.04892,54.958855,-0.000916,0.033447,0.978561,0.025646,0.035648,0.010109,64.16333,21.479416,-148.309265,,,
729608415.553581,2.025973,0.051007,54.962477,-0.002747,0.028671,0.976135,0.033218,0.004013,0.011935,64.16333,21.479416,-148.309265,,,
729608415.556905,2.03501,0.0508,54.966264,-0.002747,0.028671,0.976135,0.033218,0.004013,0.011935,64.16333,21.479416,-148.309265,,,
729608415.560243,2.03501,0.0508,54.966264,-0.002747,0.028671,0.976135,0.033218,0.004013,0.011935,64.16333,21.479416,-148.309265,,,
729608415.563589,2.04212,0.047817,54.969416,0.001556,0.026459,0.975784,0.034887,-0.004436,0.008811,64.16333,21.479416,-148.309265,,,
729608415.566909,2.051468,0.04617,54.971742,0.001556,0.026459,0.975784,0.034887,-0.004436,0.008811,64.16333,21.479416,-148.309265,,,
729608415.570362,2.051468,0.04617,54.971742,0.001556,0.026459,0.975784,0.034887,-0.004436,0.008811,64.16333,21.479416,-148.309265,,,
729608415.573571,2.057385,0.044358,54.973868,0.011154,0.032379,0.982559,0.029032,0.007489,0.007749,64.16333,21.479416,-148.309265,,,
729608415.576929,2.064328,0.046303,54.976076,0.011154,0.032379,0.982559,0.029032,0.007489,0.007749,64.16333,21.479416,-148.309265,,,
729608415.580253,2.064328,0.046303,54.976076,0.011154,0.032379,0.982559,0.029032,0.007489,0.007749,64.16333,21.479416,-148.309265,,,
729608415.583617,2.066977,0.049555,54.978593,0.01796,0.038879,0.977264,0.006157,0.029571,0.005115,64.16333,21.479416,-148.309265,,,
729608415.586909,2.06858,0.057282,54.980226,0.01796,0.038879,0.977264,0.006157,0.029571,0.005115,64.177109,21.552887,-148.731369,,,
729608415.590254,2.06858,0.057282,54.980226,0.01796,0.038879,0.977264,0.006157,0.029571,0.005115,64.177109,21.552887,-148.731369,,,
729608415.593602,2.065196,0.066722,54.980276,0.022385,0.042694,0.976028,-0.013647,0.045308,-0.003806,64.177109,21.552887,-148.731369,,,
729608415.596901,2.060416,0.078886,54.978804,0.022385,0.042694,0.976028,-0.013647,0.045308,-0.003806,64.177109,21.552887,-148.731369,,,
729608415.600266,2.060416,0.078886,54.978804,0.022385,0.042694,0.976028,-0.013647,0.045308,-0.003806,64.177109,21.552887,-148.731369,,,
729608415.6036,2.051881,0.091738,54.976713,0.019714,0.042877,0.975128,-0.028267,0.048974,-0.010142,64.177109,21.552887,-148.731369,,,
729608415.60691,2.043441,0.10409,54.974308,0.019714,0.042877,0.975128,-0.028267,0.048974,-0.010142,64.177109,21.552887,-148.731369,,,
729608415.610237,2.043441,0.10409,54.974308,0.019714,0.042877,0.975128,-0.028267,0.048974,-0.010142,64.177109,21.552887,-148.731369,,,
729608415.613612,2.032768,0.116685,54.971213,0.01207,0.03833,0.977539,-0.032576,0.039843,-0.013532,64.177109,21.552887,-148.731369,,,
729608415.61691,2.023082,0.127179,54.967706,0.01207,0.03833,0.977539,-0.032576,0.039843,-0.013532,64.177109,21.552887,-148.731369,,,
729608415.620336,2.023082,0.127179,54.967706,0.01207,0.03833,0.977539,-0.032576,0.039843,-0.013532,64.177109,21.552887,-148.731369,,,
729608415.623598,2.012539,0.135678,54.963865,0.008453,0.034454,0.978531,-0.03715,0.030911,-0.01601,64.177109,21.552887,-148.731369,,,
729608415.627,2.001328,0.144355,54.958754,0.008453,0.034454,0.978531,-0.03715,0.030911,-0.01601,64.092697,21.448883,-148.706955,,,
729608415.63035,2.001328,0.144355,54.958754,0.008453,0.034454,0.978531,-0.03715,0.030911,-0.01601,64.092697,21.448883,-148.706955,,,
729608415.633597,1.988643,0.154762,54.952295,0.008011,0.034775,0.985367,-0.043819,0.043893,-0.023264,64.092697,21.448883,-148.706955,,,
729608415.636918,1.975768,0.16654,54.945337,0.008011,0.034775,0.985367,-0.043819,0.043893,-0.023264,64.092697,21.448883,-148.706955,,,
729608415.640261,1.975768,0.16654,54.945337,0.008011,0.034775,0.985367,-0.043819,0.043893,-0.023264,64.092697,21.448883,-148.706955,,,
729608415.643663,1.960634,0.178852,54.938411,0.003143,0.03476,0.990067,-0.049986,0.047204,-0.023465,64.092697,21.448883,-148.706955,,,
729608415.646897,1.945181,0.192321,54.932022,0.003143,0.03476,0.990067,-0.049986,0.047204,-0.023465,64.092697,21.448883,-148.706955,,,
729608415.650261,1.945181,0.192321,54.932022,0.003143,0.03476,0.990067,-0.049986,0.047204,-0.023465,64.092697,21.448883,-148.706955,,,
729608415.653587,1.928523,0.204155,54.926671,-0.00679,0.029541,0.989395,-0.05961,0.048159,-0.019184,64.092697,21.448883,-148.706955,,,
729608415.656904,1.912158,0.216303,54.922693,-0.00679,0.029541,0.989395,-0.05961,0.048159,-0.019184,64.092697,21.448883,-148.706955,,,
729608415.66024,1.912158,0.216303,54.922693,-0.00679,0.029541,0.989395,-0.05961,0.048159,-0.019184,64.092697,21.448883,-148.706955,,,
729608415.663594,1.896426,0.223178,54.919925,-0.014496,0.026627,0.994598,-0.055476,0.029205,-0.013102,64.092697,21.448883,-148.706955,,,
729608415.666937,1.881073,0.229952,54.917288,-0.014496,0.026627,0.994598,-0.055476,0.029205,-0.013102,64.092697,21.448883,-148.706955,,,
729608415.670294,1.881073,0.229952,54.917288,-0.014496,0.026627,0.994598,-0.055476,0.029205,-0.013102,64.207489,21.673141,-148.727966,,,
729608415.673605,1.869313,0.230574,54.914805,-0.018326,0.026596,1.00386,-0.035651,0.009175,-0.007515,64.207489,21.673141,-148.727966,,,
729608415.676907,1.859253,0.232416,54.912762,-0.018326,0.026596,1.00386,-0.035651,0.009175,-0.007515,64.207489,21.673141,-148.727966,,,
729608415.680277,1.859253,0.232416,54.912762,-0.018326,0.026596,1.00386,-0.035651,0.009175,-0.007515,64.207489,21.673141,-148.727966,,,
729608415.683575,1.854295,0.227518,54.9111,-0.019699,0.026031,1.015457,-0.010602,-0.006852,-0.008759,64.207489,21.673141,-148.727966,,,
729608415.686908,1.850374,0.224903,54.909089,-0.019699,0.026031,1.015457,-0.010602,-0.006852,-0.008759,64.207489,21.673141,-148.727966,,,
729608415.690258,1.850374,0.224903,54.909089,-0.019699,0.026031,1.015457,-0.010602,-0.006852,-0.008759,64.207489,21.673141,-148.727966,,,
729608415.693666,1.850381,0.21699,54.907117,-0.011688,0.026016,1.021729,-0.001977,-0.0085,-0.011034,64.207489,21.673141,-148.727966,,,
729608415.696903,1.849123,0.214065,54.904907,-0.011688,0.026016,1.021729,-0.001977,-0.0085,-0.011034,64.207489,21.673141,-148.727966,,,
729608415.700249,1.849123,0.214065,54.904907,-0.011688,0.026016,1.021729,-0.001977,-0.0085,-0.011034,64.207489,21.673141,-148.727966,,,
729608415.703589,1.847304,0.210027,54.902332,-0.004303,0.030502,1.018784,-0.013927,0.01118,-0.012896,64.207489,21.673141,-148.727966,,,
729608415.706904,1.842302,0.21307,54.898978,-0.004303,0.030502,1.018784,-0.013927,0.01118,-0.012896,64.207489,21.673141,-148.727966,,,
729608415.710242,1.842302,0.21307,54.898978,-0.004303,0.030502,1.018784,-0.013927,0.01118,-0.012896,64.319809,21.597885,-148.463638,,,
729608415.713588,1.836027,0.216518,54.895297,0.001129,0.038483,1.017212,-0.026285,0.033517,-0.013235,64.319809,21.597885,-148.463638,,,
729608415.716916,1.827844,0.226272,54.891961,0.001129,0.038483,1.017212,-0.026285,0.033517,-0.013235,64.319809,21.597885,-148.463638,,,
729608415.720335,1.827844,0.226272,54.891961,0.001129,0.038483,1.017212,-0.026285,0.033517,-0.013235,64.319809,21.597885,-148.463638,,,
729608415.723594,1.819195,0.234828,54.889693,-0.001724,0.039795,1.014328,-0.034874,0.043362,-0.005885,64.319809,21.597885,-148.463638,,,
729608415.726976,1.809043,0.246548,54.888409,-0.001724,0.039795,1.014328,-0.034874,0.043362,-0.005885,64.319809,21.597885,-148.463638,,,
729608415.730246,1.809043,0.246548,54.888409,-0.001724,0.039795,1.014328,-0.034874,0.043362,-0.005885,64.319809,21.597885,-148.463638,,,
729608415.733646,1.799459,0.257172,54.888398,-0.007019,0.031418,1.01535,-0.031508,0.034539,-0.001223,64.319809,21.597885,-148.463638,,,
729608415.736899,1.791713,0.265001,54.888548,-0.007019,0.031418,1.01535,-0.031508,0.034539,-0.001223,64.319809,21.597885,-148.463638,,,
729608415.740243,1.791713,0.265001,54.888548,-0.007019,0.031418,1.01535,-0.031508,0.034539,-0.001223,64.319809,21.597885,-148.463638,,,
729608415.743598,1.786019,0.270717,54.887669,-0.007645,0.029144,1.016296,-0.008692,0.002886,-0.007424,64.319809,21.597885,-148.463638,,,
729608415.746905,1.784326,0.269706,54.885933,-0.007645,0.029144,1.016296,-0.008692,0.002886,-0.007424,64.319809,21.597885,-148.463638,,,
729608415.750243,1.784326,0.269706,54.885933,-0.007645,0.029144,1.016296,-0.008692,0.002886,-0.007424,64.235519,21.639359,-148.367859,,,
729608415.753604,1.783695,0.268121,54.883062,-0.000732,0.036011,1.016708,0.01096,-0.021255,-0.014873,64.235519,21.639359,-148.367859,,,
729608415.756911,1.786034,0.261148,54.879511,-0.000732,0.036011,1.016708,0.01096,-0.021255,-0.014873,64.235519,21.639359,-148.367859,,,
729608415.76024,1.786034,0.261148,54.879511,-0.000732,0.036011,1.016708,0.01096,-0.021255,-0.014873,64.235519,21.639359,-148.367859,,,
729608415.763596,1.788142,0.257894,54.876343,-0.00325,0.036392,1.016159,0.016171,-0.018645,-0.009794,64.235519,21.639359,-148.367859,,,
729608415.766908,1.793051,0.251707,54.874354,-0.00325,0.036392,1.016159,0.016171,-0.018645,-0.009794,64.235519,21.639359,-148.367859,,,
729608415.770326,1.793051,0.251707,54.874354,-0.00325,0.036392,1.016159,0.016171,-0.018645,-0.009794,64.235519,21.639359,-148.367859,,,
729608415.773587,1.797745,0.250884,54.873457,-0.001831,0.033264,1.019257,0.024706,-0.003637,-0.004285,64.235519,21.639359,-148.367859,,,
729608415.776923,1.805056,0.248695,54.873311,-0.001831,0.033264,1.019257,0.024706,-0.003637,-0.004285,64.235519,21.639359,-148.367859,,,
729608415.780279,1.805056,0.248695,54.873311,-0.001831,0.033264,1.019257,0.024706,-0.003637,-0.004285,64.235519,21.639359,-148.367859,,,
729608415.783647,1.811526,0.248651,54.872565,0.003235,0.033966,1.019562,0.023904,0.009253,-0.002866,64.235519,21.639359,-148.367859,,,
729608415.786908,1.818207,0.251052,54.870875,0.003235,0.033966,1.019562,0.023904,0.009253,-0.002866,64.235519,21.639359,-148.367859,,,
729608415.790252,1.818207,0.251052,54.870875,0.003235,0.033966,1.019562,0.023904,0.009253,-0.002866,64.288025,21.393387,-148.507141,,,
729608415.793598,1.824556,0.255502,54.868517,0.007843,0.041626,1.016342,0.018788,0.02832,-0.009918,64.288025,21.393387,-148.507141,,,
729608415.796915,1.829118,0.263562,54.866282,0.007843,0.041626,1.016342,0.018788,0.02832,-0.009918,64.288025,21.393387,-148.507141,,,
729608415.800262,1.829118,0.263562,54.866282,0.007843,0.041626,1.016342,0.018788,0.02832,-0.009918,64.288025,21.393387,-148.507141,,,
729608415.803595,1.834192,0.271939,54.86447,0.003281,0.044006,1.012589,0.009872,0.035547,-0.004646,64.288025,21.393387,-148.507141,,,
729608415.806938,1.83644,0.281998,54.863449,0.003281,0.044006,1.012589,0.009872,0.035547,-0.004646,64.288025,21.393387,-148.507141,,,
729608415.810239,1.83644,0.281998,54.863449,0.003281,0.044006,1.012589,0.009872,0.035547,-0.004646,64.288025,21.393387,-148.507141,,,
729608415.813597,1.838236,0.291603,54.863154,-0.000504,0.039642,1.004105,0.007539,0.030177,-0.001266,64.288025,21.393387,-148.507141,,,
729608415.816916,1.839788,0.29904,54.862711,-0.000504,0.039642,1.004105,0.007539,0.030177,-0.001266,64.288025,21.393387,-148.507141,,,
729608415.820291,1.839788,0.29904,54.862711,-0.000504,0.039642,1.004105,0.007539,0.030177,-0.001266,64.288025,21.393387,-148.507141,,,
729608415.82368,1.841336,0.304055,54.861498,-0.001419,0.039062,1.000122,0.00721,0.010127,-0.009595,64.288025,21.393387,-148.507141,,,
729608415.826915,1.843986,0.305209,54.858869,-0.001419,0.039062,1.000122,0.00721,0.010127,-0.009595,64.288025,21.393387,-148.507141,,,
729608415.830278,1.843986,0.305209,54.858869,-0.001419,0.039062,1.000122,0.00721,0.010127,-0.009595,64.288025,21.393387,-148.507141,,,
729608415.833657,1.847312,0.30274,54.855246,-0.000656,0.038986,0.995956,0.015129,-0.013035,-0.01464,64.369751,21.411484,-148.210556,,,
729608415.836903,1.8512,0.298371,54.851543,-0.000656,0.038986,0.995956,0.015129,-0.013035,-0.01464,64.369751,21.411484,-148.210556,,,
729608415.840283,1.8512,0.298371,54.851543,-0.000656,0.038986,0.995956,0.015129,-0.013035,-0.01464,64.369751,21.411484,-148.210556,,,
729608415.843586,1.856497,0.291228,54.84881,-0.007355,0.036987,0.996353,0.019818,-0.023136,-0.007099,64.369751,21.411484,-148.210556,,,
729608415.846909,1.861855,0.282949,54.847702,-0.007355,0.036987,0.996353,0.019818,-0.023136,-0.007099,64.369751,21.411484,-148.210556,,,
729608415.850242,1.861855,0.282949,54.847702,-0.007355,0.036987,0.996353,0.019818,-0.023136,-0.007099,64.369751,21.411484,-148.210556,,,
729608415.853604,1.867789,0.273372,54.847476,-0.011917,0.030182,0.998276,0.020727,-0.030407,0.000241,64.369751,21.411484,-148.210556,,,
729608415.856904,1.873052,0.26391,54.847595,-0.011917,0.030182,0.998276,0.020727,-0.030407,0.000241,64.369751,21.411484,-148.210556,,,
729608415.86025,1.873052,0.26391,54.847595,-0.011917,0.030182,0.998276,0.020727,-0.030407,0.000241,64.369751,21.411484,-148.210556,,,
729608415.863599,1.877153,0.252728,54.847936,-0.008347,0.030609,0.995453,0.012986,-0.028421,-0.000576,64.369751,21.411484,-148.210556,,,
729608415.866912,1.880532,0.24329,54.847889,-0.008347,0.030609,0.995453,0.012986,-0.028421,-0.000576,64.369751,21.411484,-148.210556,,,
729608415.87028,1.880532,0.24329,54.847889,-0.008347,0.030609,0.995453,0.012986,-0.028421,-0.000576,64.369751,21.411484,-148.210556,,,
729608415.873579,1.884982,0.231592,54.847506,-0.006668,0.0345,0.99942,0.01098,-0.024826,-0.001074,64.054352,21.621506,-148.269028,,,
729608415.876916,1.887776,0.223481,54.846685,-0.006668,0.0345,0.99942,0.01098,-0.024826,-0.001074,64.054352,21.621506,-148.269028,,,
729608415.880248,1.887776,0.223481,54.846685,-0.006668,0.0345,0.99942,0.01098,-0.024826,-0.001074,64.054352,21.621506,-148.269028,,,
729608415.883609,1.893258,0.213502,54.845974,-0.005356,0.033142,1.000702,0.013068,-0.018692,-0.006219,64.054352,21.621506,-148.269028,,,
729608415.886921,1.8969,0.207528,54.845227,-0.005356,0.033142,1.000702,0.013068,-0.018692,-0.006219,64.054352,21.621506,-148.269028,,,
729608415.890262,1.8969,0.207528,54.845227,-0.005356,0.033142,1.000702,0.013068,-0.018692,-0.006219,64.054352,21.621506,-148.269028,,,
729608415.893686,1.90346,0.202243,54.845057,-0.007492,0.026505,1.005249,0.016895,-0.004863,0.002095,64.054352,21.621506,-148.269028,,,
729608415.896894,1.909161,0.200737,54.845959,-0.007492,0.026505,1.005249,0.016895,-0.004863,0.002095,64.054352,21.621506,-148.269028,,,
729608415.900265,1.909161,0.200737,54.845959,-0.007492,0.026505,1.005249,0.016895,-0.004863,0.002095,64.054352,21.621506,-148.269028,,,
729608415.903598,1.917811,0.201187,54.847753,-0.00856,0.022034,1.008896,0.029385,0.013412,0.003815,64.054352,21.621506,-148.269028,,,
729608415.906903,1.925734,0.204388,54.849498,-0.00856,0.022034,1.008896,0.029385,0.013412,0.003815,64.054352,21.621506,-148.269028,,,
729608415.910273,1.925734,0.204388,54.849498,-0.00856,0.022034,1.008896,0.029385,0.013412,0.003815,64.054352,21.621506,-148.269028,,,
729608415.913612,1.935565,0.207945,54.850729,-0.002457,0.027191,1.001602,0.027975,0.021153,0.000854,63.88295,21.617798,-148.148682,,,
729608415.91692,1.943494,0.213124,54.85124,-0.002457,0.027191,1.001602,0.027975,0.021153,0.000854,63.88295,21.617798,-148.148682,,,
729608415.92035,1.943494,0.213124,54.85124,-0.002457,0.027191,1.001602,0.027975,0.021153,0.000854,63.88295,21.617798,-148.148682,,,
729608415.923597,1.951679,0.219282,54.850927,-0.000885,0.031479,0.991898,0.021443,0.023209,-0.005598,63.88295,21.617798,-148.148682,,,
729608415.926941,1.957571,0.225187,54.850245,-0.000885,0.031479,0.991898,0.021443,0.023209,-0.005598,63.88295,21.617798,-148.148682,,,
729608415.93026,1.957571,0.225187,54.850245,-0.000885,0.031479,0.991898,0.021443,0.023209,-0.005598,63.88295,21.617798,-148.148682,,,
729608415.933581,1.961569,0.232261,54.848935,-0.00383,0.034225,0.981033,0.015495,0.016225,-0.006271,63.88295,21.617798,-148.148682,,,
729608415.936911,1.965649,0.236024,54.847452,-0.00383,0.034225,0.981033,0.015495,0.016225,-0.006271,63.88295,21.617798,-148.148682,,,
729608415.940263,1.965649,0.236024,54.847452,-0.00383,0.034225,0.981033,0.015495,0.016225,-0.006271,63.88295,21.617798,-148.148682,,,
729608415.94366,1.968479,0.240472,54.846474,-0.004944,0.029953,0.974167,0.011694,0.011035,-0.003731,63.88295,21.617798,-148.148682,,,
729608415.946908,1.97221,0.242557,54.845729,-0.004944,0.029953,0.974167,0.011694,0.011035,-0.003731,63.88295,21.617798,-148.148682,,,
729608415.950267,1.97221,0.242557,54.845729,-0.004944,0.029953,0.974167,0.011694,0.011035,-0.003731,63.88295,21.617798,-148.148682,,,
729608415.953584,1.974919,0.245145,54.84482,-0.005035,0.028,0.969513,0.012448,0.010635,-0.002167,63.982147,21.491898,-148.357895,,,
729608415.956915,1.977112,0.24802,54.843779,-0.005035,0.028,0.969513,0.012448,0.010635,-0.002167,63.982147,21.491898,-148.357895,,,
729608415.960265,1.977112,0.24802,54.843779,-0.005035,0.028,0.969513,0.012448,0.010635,-0.002167,63.982147,21.491898,-148.357895,,,
729608415.963585,1.978142,0.252022,54.842872,-0.002106,0.030106,0.96814,0.000196,0.015807,-0.005922,63.982147,21.491898,-148.357895,,,
729608415.966917,1.977274,0.255983,54.841999,-0.002106,0.030106,0.96814,0.000196,0.015807,-0.005922,63.982147,21.491898,-148.357895,,,
729608415.970319,1.977274,0.255983,54.841999,-0.002106,0.030106,0.96814,0.000196,0.015807,-0.005922,63.982147,21.491898,-148.357895,,,
729608415.973598,1.973096,0.262365,54.840413,-0.000427,0.032593,0.964066,-0.012191,0.032154,-0.009393,63.982147,21.491898,-148.357895,,,
729608415.976908,1.968014,0.270442,54.837629,-0.000427,0.032593,0.964066,-0.012191,0.032154,-0.009393,63.982147,21.491898,-148.357895,,,
729608415.980265,1.968014,0.270442,54.837629,-0.000427,0.032593,0.964066,-0.012191,0.032154,-0.009393,63.982147,21.491898,-148.357895,,,
729608415.983658,1.957067,0.281681,54.83356,-0.001068,0.033737,0.959015,-0.033483,0.038944,-0.018517,63.982147,21.491898,-148.357895,,,
729608415.986909,1.946605,0.292636,54.828226,-0.001068,0.033737,0.959015,-0.033483,0.038944,-0.018517,63.982147,21.491898,-148.357895,,,
729608415.990246,1.946605,0.292636,54.828226,-0.001068,0.033737,0.959015,-0.033483,0.038944,-0.018517,63.982147,21.491898,-148.357895,,,
729608415.993609,1.933348,0.303353,54.821946,-0.006424,0.033066,0.958618,-0.039628,0.036853,-0.022424,63.982147,21.491898,-148.357895,,,
729608415.996915,1.922054,0.3135,54.815224,-0.006424,0.033066,0.958618,-0.039628,0.036853,-0.022424,64.0793,21.438858,-148.377579,,,
729608416.000267,1.922054,0.3135,54.815224,-0.006424,0.033066,0.958618,-0.039628,0.036853,-0.022424,64.0793,21.438858,-148.377579,,,
729608416.003592,1.911159,0.322784,54.807535,-0.013657,0.026688,0.966263,-0.03124,0.038616,-0.030063,64.0793,21.438858,-148.377579,,,
729608416.006913,1.902416,0.334038,54.799087,-0.013657,0.026688,0.966263,-0.03124,0.038616,-0.030063,64.0793,21.438858,-148.377579,,,
729608416.010319,1.902416,0.334038,54.799087,-0.013657,0.026688,0.966263,-0.03124,0.038616,-0.030063,64.0793,21.438858,-148.377579,,,
729608416.013593,1.895448,0.345831,54.79129,-0.018677,0.01976,0.975967,-0.021867,0.045108,-0.023456,64.0793,21.438858,-148.377579,,,
729608416.016916,1.88935,0.358909,54.785002,-0.018677,0.01976,0.975967,-0.021867,0.045108,-0.023456,64.0793,21.438858,-148.377579,,,
729608416.020252,1.88935,0.358909,54.785002,-0.018677,0.01976,0.975967,-0.021867,0.045108,-0.023456,64.0793,21.438858,-148.377579,,,
729608416.023651,1.88387,0.372876,54.780852,-0.027451,0.014664,0.980225,-0.015767,0.052415,-0.009889,64.0793,21.438858,-148.377579,,,
729608416.026906,1.878887,0.387752,54.779092,-0.027451,0.014664,0.980225,-0.015767,0.052415,-0.009889,64.0793,21.438858,-148.377579,,,
729608416.030345,1.878887,0.387752,54.779092,-0.027451,0.014664,0.980225,-0.015767,0.052415,-0.009889,64.0793,21.438858,-148.377579,,,
729608416.03361,1.873373,0.402594,54.778902,-0.030411,0.014236,0.980576,-0.021857,0.053118,-0.003042,64.0793,21.438858,-148.377579,,,
729608416.036916,1.86717,0.41683,54.779031,-0.030411,0.014236,0.980576,-0.021857,0.053118,-0.003042,64.211334,21.78833,-148.526855,,,
729608416.040263,1.86717,0.41683,54.779031,-0.030411,0.014236,0.980576,-0.021857,0.053118,-0.003042,64.211334,21.78833,-148.526855,,,
729608416.043611,1.858827,0.428396,54.779271,-0.021713,0.022354,0.974472,-0.028105,0.038883,-0.00103,64.211334,21.78833,-148.526855,,,
729608416.046914,1.848358,0.437854,54.779546,-0.021713,0.022354,0.974472,-0.028105,0.038883,-0.00103,64.211334,21.78833,-148.526855,,,
729608416.050307,1.848358,0.437854,54.779546,-0.021713,0.022354,0.974472,-0.028105,0.038883,-0.00103,64.211334,21.78833,-148.526855,,,
729608416.053589,1.835611,0.444288,54.779091,-0.01152,0.030777,0.972519,-0.04968,0.021433,-0.003822,64.211334,21.78833,-148.526855,,,
729608416.056967,1.821282,0.449355,54.778065,-0.01152,0.030777,0.972519,-0.04968,0.021433,-0.003822,64.211334,21.78833,-148.526855,,,
729608416.060259,1.821282,0.449355,54.778065,-0.01152,0.030777,0.972519,-0.04968,0.021433,-0.003822,64.211334,21.78833,-148.526855,,,
729608416.063651,1.807388,0.451194,54.776545,-0.004608,0.033554,0.979919,-0.046414,0.008361,-0.008964,64.211334,21.78833,-148.526855,,,
729608416.066907,1.793799,0.451939,54.774458,-0.004608,0.033554,0.979919,-0.046414,0.008361,-0.008964,64.211334,21.78833,-148.526855,,,
729608416.070263,1.793799,0.451939,54.774458,-0.004608,0.033554,0.979919,-0.046414,0.008361,-0.008964,64.211334,21.78833,-148.526855,,,
729608416.07361,1.781121,0.451991,54.771809,0.003052,0.029022,0.991699,-0.040774,0.003475,-0.012664,64.211334,21.78833,-148.526855,,,
729608416.076916,1.769332,0.452886,54.769011,0.003052,0.029022,0.991699,-0.040774,0.003475,-0.012664,64.163284,21.499634,-148.362076,,,
729608416.080239,1.769332,0.452886,54.769011,0.003052,0.029022,0.991699,-0.040774,0.003475,-0.012664,64.163284,21.499634,-148.362076,,,
729608416.083609,1.758,0.45673,54.766139,0.013412,0.028183,1.002045,-0.039602,0.02431,-0.013193,64.163284,21.499634,-148.362076,,,
729608416.086913,1.746454,0.46439,54.762737,0.013412,0.028183,1.002045,-0.039602,0.02431,-0.013193,64.163284,21.499634,-148.362076,,,
729608416.090306,1.746454,0.46439,54.762737,0.013412,0.028183,1.002045,-0.039602,0.02431,-0.013193,64.163284,21.499634,-148.362076,,,
729608416.093592,1.733788,0.477545,54.758802,0.020523,0.032547,1.005554,-0.043564,0.058844,-0.017726,64.163284,21.499634,-148.362076,,,
729608416.096907,1.720852,0.495009,54.754385,0.020523,0.032547,1.005554,-0.043564,0.058844,-0.017726,64.163284,21.499634,-148.362076,,,
729608416.100264,1.720852,0.495009,54.754385,0.020523,0.032547,1.005554,-0.043564,0.058844,-0.017726,64.163284,21.499634,-148.362076,,,
729608416.103649,1.705171,0.517717,54.749352,0.02002,0.03627,1.009628,-0.053552,0.080363,-0.02045,64.163284,21.499634,-148.362076,,,
729608416.106908,1.689569,0.539975,54.743493,0.02002,0.03627,1.009628,-0.053552,0.080363,-0.02045,64.163284,21.499634,-148.362076,,,
729608416.11027,1.689569,0.539975,54.743493,0.02002,0.03627,1.009628,-0.053552,0.080363,-0.02045,64.163284,21.499634,-148.362076,,,
729608416.113607,1.670759,0.565533,54.736957,0.012146,0.039459,1.005402,-0.05913,0.079296,-0.026143,64.163284,21.499634,-148.362076,,,
729608416.116911,1.65301,0.587421,54.729797,0.012146,0.039459,1.005402,-0.05913,0.079296,-0.026143,64.163284,21.499634,-148.362076,,,
729608416.120262,1.65301,0.587421,54.729797,0.012146,0.039459,1.005402,-0.05913,0.079296,-0.026143,64.390549,21.767548,-148.11795,,,
729608416.1236,1.633912,0.608914,54.72209,-0.001068,0.039124,1.00473,-0.060742,0.06065,-0.027882,64.390549,21.767548,-148.11795,,,
729608416.126912,1.616356,0.624498,54.714521,-0.001068,0.039124,1.00473,-0.060742,0.06065,-0.027882,64.390549,21.767548,-148.11795,,,
729608416.130323,1.616356,0.624498,54.714521,-0.001068,0.039124,1.00473,-0.060742,0.06065,-0.027882,64.390549,21.767548,-148.11795,,,
729608416.133595,1.600309,0.637583,54.706413,-0.004776,0.037704,1.011475,-0.048659,0.035043,-0.034949,64.390549,21.767548,-148.11795,,,
729608416.136905,1.586732,0.646192,54.697133,-0.004776,0.037704,1.011475,-0.048659,0.035043,-0.034949,64.390549,21.767548,-148.11795,,,
729608416.140266,1.586732,0.646192,54.697133,-0.004776,0.037704,1.011475,-0.048659,0.035043,-0.034949,64.390549,21.767548,-148.11795,,,
729608416.143655,1.577604,0.649749,54.686723,-0.011948,0.035019,1.020844,-0.029416,0.00891,-0.038984,64.390549,21.767548,-148.11795,,,
729608416.146943,1.570042,0.651773,54.675696,-0.011948,0.035019,1.020844,-0.029416,0.00891,-0.038984,64.390549,21.767548,-148.11795,,,
729608416.150257,1.570042,0.651773,54.675696,-0.011948,0.035019,1.020844,-0.029416,0.00891,-0.038984,64.390549,21.767548,-148.11795,,,
729608416.153592,1.56681,0.649597,54.664512,-0.015625,0.034805,1.028671,-0.00675,0.004587,-0.039571,64.390549,21.767548,-148.11795,,,
729608416.156915,1.565342,0.650914,54.653195,-0.015625,0.034805,1.028671,-0.00675,0.004587,-0.039571,64.390549,21.767548,-148.11795,,,
729608416.160288,1.565342,0.650914,54.653195,-0.015625,0.034805,1.028671,-0.00675,0.004587,-0.039571,64.483109,21.784409,-148.533813,,,
729608416.163604,1.565728,0.646695,54.642033,-0.017227,0.033646,1.03447,0.004157,0.008175,-0.036767,64.483109,21.784409,-148.533813,,,
729608416.166915,1.566827,0.648721,54.631259,-0.017227,0.033646,1.03447,0.004157,0.008175,-0.036767,64.483109,21.784409,-148.533813,,,
729608416.170254,1.566827,0.648721,54.631259,-0.017227,0.033646,1.03447,0.004157,0.008175,-0.036767,64.483109,21.784409,-148.533813,,,
729608416.173582,1.568817,0.643453,54.621918,-0.020111,0.033646,1.028259,0.003525,0.015536,-0.030442,64.483109,21.784409,-148.533813,,,
729608416.17699,1.569866,0.647952,54.613651,-0.020111,0.033646,1.028259,0.003525,0.015536,-0.030442,64.483109,21.784409,-148.533813,,,
729608416.180265,1.569866,0.647952,54.613651,-0.020111,0.033646,1.028259,0.003525,0.015536,-0.030442,64.483109,21.784409,-148.533813,,,
729608416.183675,1.572658,0.644898,54.606997,-0.023895,0.034164,1.025925,0.001818,0.025149,-0.021228,64.483109,21.784409,-148.533813,,,
729608416.186904,1.573617,0.65191,54.601944,-0.023895,0.034164,1.025925,0.001818,0.025149,-0.021228,64.483109,21.784409,-148.533813,,,
729608416.190255,1.573617,0.65191,54.601944,-0.023895,0.034164,1.025925,0.001818,0.025149,-0.021228,64.483109,21.784409,-148.533813,,,
729608416.193589,1.577851,0.65279,54.598968,-0.026077,0.035217,1.025131,0.007442,0.034874,-0.008736,64.483109,21.784409,-148.533813,,,
729608416.196934,1.580197,0.662389,54.597561,-0.026077,0.035217,1.025131,0.007442,0.034874,-0.008736,64.483109,21.784409,-148.533813,,,
729608416.200286,1.580197,0.662389,54.597561,-0.026077,0.035217,1.025131,0.007442,0.034874,-0.008736,64.622559,21.634506,-148.503311,,,
729608416.20358,1.587709,0.667511,54.598475,-0.030289,0.031158,1.030533,0.023138,0.029066,0.00804,64.622559,21.634506,-148.503311,,,
729608416.206908,1.594723,0.674809,54.600964,-0.030289,0.031158,1.030533,0.023138,0.029066,0.00804,64.622559,21.634506,-148.503311,,,
729608416.210293,1.594723,0.674809,54.600964,-0.030289,0.031158,1.030533,0.023138,0.029066,0.00804,64.622559,21.634506,-148.503311,,,
729608416.213582,1.606543,0.67944,54.604068,-0.027939,0.025894,1.029236,0.04308,0.02133,0.012022,64.622559,21.634506,-148.503311,,,
729608416.216995,1.619727,0.684884,54.607219,-0.027939,0.025894,1.029236,0.04308,0.02133,0.012022,64.622559,21.634506,-148.503311,,,
729608416.220247,1.619727,0.684884,54.607219,-0.027939,0.025894,1.029236,0.04308,0.02133,0.012022,64.622559,21.634506,-148.503311,,,
729608416.223591,1.636958,0.688337,54.610154,-0.02037,0.03006,1.030029,0.063445,0.012882,0.012049,64.622559,21.634506,-148.503311,,,
729608416.22698,1.65495,0.690021,54.613903,-0.02037,0.03006,1.030029,0.063445,0.012882,0.012049,64.622559,21.634506,-148.503311,,,
729608416.230235,1.65495,0.690021,54.613903,-0.02037,0.03006,1.030029,0.063445,0.012882,0.012049,64.622559,21.634506,-148.503311,,,
729608416.2336,1.673765,0.69045,54.619101,-0.013718,0.034149,1.016586,0.060268,0.006653,0.017698,64.622559,21.634506,-148.503311,,,
729608416.23697,1.69059,0.691083,54.625013,-0.013718,0.034149,1.016586,0.060268,0.006653,0.017698,64.622559,21.634506,-148.503311,,,
729608416.240236,1.69059,0.691083,54.625013,-0.013718,0.034149,1.016586,0.060268,0.006653,0.017698,64.716629,21.521011,-148.664108,,,
729608416.243582,1.705556,0.69353,54.630986,-0.01001,0.037399,1.006363,0.044742,0.013716,0.020532,64.716629,21.521011,-148.664108,,,
729608416.246911,1.718181,0.695518,54.636317,-0.01001,0.037399,1.006363,0.044742,0.013716,0.020532,64.716629,21.521011,-148.664108,,,
729608416.2503,1.718181,0.695518,54.636317,-0.01001,0.037399,1.006363,0.044742,0.013716,0.020532,64.716629,21.521011,-148.664108,,,
729608416.253583,1.72966,0.69677,54.64111,0.002045,0.041763,0.99556,0.034907,0.000606,0.012515,64.716629,21.521011,-148.664108,,,
729608416.257012,1.739458,0.694961,54.645027,0.002045,0.041763,0.99556,0.034907,0.000606,0.012515,64.716629,21.521011,-148.664108,,,
729608416.260254,1.739458,0.694961,54.645027,0.002045,0.041763,0.99556,0.034907,0.000606,0.012515,64.716629,21.521011,-148.664108,,,
729608416.263656,1.747884,0.692266,54.647843,0.004898,0.045792,0.986084,0.02661,-0.017129,0.006574,64.716629,21.521011,-148.664108,,,
729608416.267001,1.754714,0.686041,54.649962,0.004898,0.045792,0.986084,0.02661,-0.017129,0.006574,64.716629,21.521011,-148.664108,,,
729608416.270261,1.754714,0.686041,54.649962,0.004898,0.045792,0.986084,0.02661,-0.017129,0.006574,64.716629,21.521011,-148.664108,,,
729608416.273614,1.760094,0.679004,54.651586,-0.001556,0.041107,0.983429,0.01269,-0.030977,0.006037,64.716629,21.521011,-148.664108,,,
729608416.276995,1.762865,0.668687,54.653157,-0.001556,0.041107,0.983429,0.01269,-0.030977,0.006037,64.716629,21.521011,-148.664108,,,
729608416.280277,1.762865,0.668687,54.653157,-0.001556,0.041107,0.983429,0.01269,-0.030977,0.006037,64.716629,21.521011,-148.664108,,,
729608416.283602,1.764344,0.661842,54.654376,-0.001129,0.035385,0.987137,0.002037,-0.026884,0.002226,64.770264,21.484329,-148.443832,,,
729608416.286958,1.765024,0.65439,54.655384,-0.001129,0.035385,0.987137,0.002037,-0.026884,0.002226,64.770264,21.484329,-148.443832,,,
729608416.29032,1.765024,0.65439,54.655384,-0.001129,0.035385,0.987137,0.002037,-0.026884,0.002226,64.770264,21.484329,-148.443832,,,
729608416.293597,1.765346,0.65186,54.656644,-0.00174,0.029892,0.998322,0.007187,-0.013947,0.006965,64.770264,21.484329,-148.443832,,,
729608416.296944,1.767715,0.647103,54.658924,-0.00174,0.029892,0.998322,0.007187,-0.013947,0.006965,64.770264,21.484329,-148.443832,,,
729608416.30025,1.767715,0.647103,54.658924,-0.00174,0.029892,0.998322,0.007187,-0.013947,0.006965,64.770264,21.484329,-148.443832,,,
729608416.303631,1.770515,0.645738,54.661382,-0.007187,0.023056,1.003906,0.014839,-0.007122,0.007313,64.770264,21.484329,-148.443832,,,
729608416.306985,1.774243,0.643868,54.663606,-0.007187,0.023056,1.003906,0.014839,-0.007122,0.007313,64.770264,21.484329,-148.443832,,,
729608416.310253,1.774243,0.643868,54.663606,-0.007187,0.023056,1.003906,0.014839,-0.007122,0.007313,64.770264,21.484329,-148.443832,,,
729608416.313587,1.778041,0.644416,54.665137,-0.007492,0.023315,1.005051,0.014243,0.006486,-0.00055,64.770264,21.484329,-148.443832,,,
729608416.316993,1.781551,0.645508,54.666197,-0.007492,0.023315,1.005051,0.014243,0.006486,-0.00055,64.770264,21.484329,-148.443832,,,
729608416.320256,1.781551,0.645508,54.666197,-0.007492,0.023315,1.005051,0.014243,0.006486,-0.00055,64.770264,21.484329,-148.443832,,,
729608416.323588,1.786675,0.646664,54.666755,-0.006165,0.025131,1.004486,0.016029,0.003937,-0.001072,64.684097,21.616837,-148.679352,,,
729608416.326906,1.786675,0.646664,54.666755,-0.006165,0.025131,1.004486,0.016029,0.003937,-0.001072,64.684097,21.616837,-148.679352,,,
729608416.330309,1.792017,0.646132,54.666937,-0.006165,0.025131,1.004486,0.016029,0.003937,-0.001072,64.684097,21.616837,-148.679352,,,
729608416.333585,1.801167,0.641086,54.667748,-0.009857,0.024124,1.002731,0.029488,-0.010676,0.001793,64.684097,21.616837,-148.679352,,,
729608416.336969,1.801167,0.641086,54.667748,-0.009857,0.024124,1.002731,0.029488,-0.010676,0.001793,64.684097,21.616837,-148.679352,,,
729608416.340248,1.809518,0.636658,54.668122,-0.009857,0.024124,1.002731,0.029488,-0.010676,0.001793,64.684097,21.616837,-148.679352,,,
729608416.343613,1.822174,0.625527,54.667345,-0.01207,0.02063,1.000641,0.032147,-0.025656,-0.008118,64.684097,21.616837,-148.679352,,,
729608416.346923,1.822174,0.625527,54.667345,-0.01207,0.02063,1.000641,0.032147,-0.025656,-0.008118,64.684097,21.616837,-148.679352,,,
729608416.35026,1.831311,0.617313,54.665569,-0.01207,0.02063,1.000641,0.032147,-0.025656,-0.008118,64.684097,21.616837,-148.679352,,,
729608416.353583,1.843069,0.605237,54.662743,-0.007858,0.027008,0.995819,0.026963,-0.025439,-0.014091,64.684097,21.616837,-148.679352,,,
729608416.357007,1.843069,0.605237,54.658835,-0.007858,0.027008,0.995819,0.026963,-0.025439,-0.014091,64.684097,21.616837,-148.679352,,,
729608416.360245,1.849934,0.597382,54.658835,-0.007858,0.027008,0.995819,0.026963,-0.025439,-0.014091,64.684097,21.616837,-148.679352,,,
729608416.363584,1.856024,0.588131,54.654619,-0.006714,0.032928,0.992325,0.013926,-0.017733,-0.015115,64.595871,21.447327,-148.334351,,,
729608416.366903,1.856024,0.588131,54.654619,-0.006714,0.032928,0.992325,0.013926,-0.017733,-0.015115,64.595871,21.447327,-148.334351,,,
729608416.370242,1.859624,0.582867,54.649979,-0.006714,0.032928,0.992325,0.013926,-0.017733,-0.015115,64.595871,21.447327,-148.334351,,,
729608416.373582,1.862239,0.576375,54.645401,-0.008957,0.033478,0.990219,0.007909,-0.008997,-0.018495,64.595871,21.447327,-148.334351,,,
729608416.376935,1.862239,0.576375,54.645401,-0.008957,0.033478,0.990219,0.007909,-0.008997,-0.018495,64.595871,21.447327,-148.334351,,,
729608416.380335,1.863962,0.573392,54.640501,-0.008957,0.033478,0.990219,0.007909,-0.008997,-0.018495,64.595871,21.447327,-148.334351,,,
729608416.383588,1.863561,0.5696,54.635026,-0.010178,0.032501,0.991211,0.005498,-0.00107,-0.021583,64.595871,21.447327,-148.334351,,,
729608416.386928,1.863561,0.5696,54.635026,-0.010178,0.032501,0.991211,0.005498,-0.00107,-0.021583,64.595871,21.447327,-148.334351,,,
729608416.390264,1.865009,0.568526,54.629425,-0.010178,0.032501,0.991211,0.005498,-0.00107,-0.021583,64.595871,21.447327,-148.334351,,,
729608416.393585,1.864398,0.568462,54.624747,-0.008713,0.029114,0.994766,0.010743,0.005412,-0.015149,64.595871,21.447327,-148.334351,,,
729608416.396985,1.864398,0.568462,54.624747,-0.008713,0.029114,0.994766,0.010743,0.005412,-0.015149,64.595871,21.447327,-148.334351,,,
729608416.400251,1.867684,0.569456,54.621859,-0.008713,0.029114,0.994766,0.010743,0.005412,-0.015149,64.595871,21.447327,-148.334351,,,
729608416.40358,1.869647,0.569004,54.620416,-0.01033,0.025085,0.999374,0.015968,0.003177,-0.00516,64.53981,21.565475,-148.868851,,,
729608416.406927,1.869647,0.569004,54.620416,-0.01033,0.025085,0.999374,0.015968,0.003177,-0.00516,64.53981,21.565475,-148.868851,,,
729608416.410301,1.873866,0.56916,54.619332,-0.01033,0.025085,0.999374,0.015968,0.003177,-0.00516,64.53981,21.565475,-148.868851,,,
