Time (sec),Pitch (deg),Roll (deg),Yaw(deg),X-Acceleration (g),Y-Acceleration (g),Z-Acceleration (g),Pitch Rate (deg/sec),Roll Rate (deg/sec),Yaw Rate (deg/sec),Magnetic Field in X direction (uT),Magnetic Field in Y direction (uT),Magnetic Field in Z Direction (uT),Latitude (deg),Longitude (deg),Altitude (m)
729605648.640052,2.947485,-0.819597,49.577149,0.012741,0.050385,1.000595,0.028848,0.020101,-0.025505,60.830154,19.173828,-147.516479,,,
729605648.643426,2.947485,-0.819597,49.577149,0.012741,0.050385,1.000595,0.028848,0.020101,-0.025505,60.830154,19.173828,-147.516479,,,
729605648.646719,2.950361,-0.813978,49.570325,0.015472,0.055115,0.99353,0.007593,0.020016,-0.026154,60.830154,19.173828,-147.516479,,,
729605648.650036,2.951499,-0.809848,49.563559,0.015472,0.055115,0.99353,0.007593,0.020016,-0.026154,60.830154,19.173828,-147.516479,,,
729605648.653371,2.951499,-0.809848,49.563559,0.015472,0.055115,0.99353,0.007593,0.020016,-0.026154,60.830154,19.173828,-147.516479,,,
729605648.656777,2.948996,-0.803893,49.556557,0.013947,0.058701,0.989426,-0.01114,0.021977,-0.024591,60.830154,19.173828,-147.516479,,,
729605648.660022,2.945774,-0.797823,49.549577,0.013947,0.058701,0.989426,-0.01114,0.021977,-0.024591,60.830154,19.173828,-147.516479,,,
729605648.663163,2.945774,-0.797823,49.549577,0.013947,0.058701,0.989426,-0.01114,0.021977,-0.024591,60.830154,19.173828,-147.516479,,,
729605648.666715,2.939918,-0.792127,49.54236,0.011093,0.056549,0.994339,-0.021713,0.020695,-0.02572,60.830154,19.173828,-147.516479,,,
729605648.670097,2.932329,-0.787364,49.534816,0.011093,0.056549,0.994339,-0.021713,0.020695,-0.02572,60.830154,19.173828,-147.516479,,,
729605648.673365,2.932329,-0.787364,49.534816,0.011093,0.056549,0.994339,-0.021713,0.020695,-0.02572,60.830154,19.173828,-147.516479,,,
729605648.676734,2.925465,-0.782233,49.52706,0.011139,0.05661,0.990509,-0.02102,0.018965,-0.028121,60.830154,19.173828,-147.516479,,,
729605648.679977,2.919473,-0.777041,49.519888,0.011139,0.05661,0.990509,-0.02102,0.018965,-0.028121,60.815247,19.38028,-147.613068,,,
729605648.683409,2.919473,-0.777041,49.519888,0.011139,0.05661,0.990509,-0.02102,0.018965,-0.028121,60.815247,19.38028,-147.613068,,,
729605648.686736,2.91427,-0.771452,49.514656,0.001312,0.04985,0.996979,-0.018651,0.022194,-0.017201,60.815247,19.38028,-147.613068,,,
729605648.690056,2.910292,-0.767942,49.512212,0.001312,0.04985,0.996979,-0.018651,0.022194,-0.017201,60.815247,19.38028,-147.613068,,,
729605648.693455,2.910292,-0.767942,49.512212,0.001312,0.04985,0.996979,-0.018651,0.022194,-0.017201,60.815247,19.38028,-147.613068,,,
729605648.696584,2.905744,-0.764766,49.511996,-0.002335,0.04361,0.992371,-0.015745,0.013877,0.001464,60.815247,19.38028,-147.613068,,,
729605648.700033,2.900798,-0.765065,49.513936,-0.002335,0.04361,0.992371,-0.015745,0.013877,0.001464,60.815247,19.38028,-147.613068,,,
729605648.703389,2.900798,-0.765065,49.513936,-0.002335,0.04361,0.992371,-0.015745,0.013877,0.001464,60.815247,19.38028,-147.613068,,,
729605648.706731,2.895762,-0.764074,49.517556,0.002075,0.046097,0.97879,-0.016884,0.006002,0.013246,60.815247,19.38028,-147.613068,,,
729605648.710048,2.892298,-0.763183,49.520991,0.002075,0.046097,0.97879,-0.016884,0.006002,0.013246,60.815247,19.38028,-147.613068,,,
729605648.713245,2.892298,-0.763183,49.520991,0.002075,0.046097,0.97879,-0.016884,0.006002,0.013246,60.815247,19.38028,-147.613068,,,
729605648.716731,2.890997,-0.762188,49.522172,0.014328,0.052948,0.997025,-0.001941,0.005942,0.000413,60.815247,19.38028,-147.613068,,,
729605648.720032,2.892078,-0.764642,49.521238,0.014328,0.052948,0.997025,-0.001941,0.005942,0.000413,60.866241,19.48024,-147.332733,,,
729605648.723362,2.892078,-0.764642,49.521238,0.014328,0.052948,0.997025,-0.001941,0.005942,0.000413,60.866241,19.48024,-147.332733,,,
729605648.726713,2.893875,-0.769133,49.518912,0.020538,0.053696,0.993286,0.007394,-0.014302,-0.010505,60.866241,19.48024,-147.332733,,,
729605648.729901,2.896698,-0.773421,49.516331,0.020538,0.053696,0.993286,0.007394,-0.014302,-0.010505,60.866241,19.48024,-147.332733,,,
729605648.733471,2.896698,-0.773421,49.516331,0.020538,0.053696,0.993286,0.007394,-0.014302,-0.010505,60.866241,19.48024,-147.332733,,,
729605648.736719,2.897001,-0.774759,49.514566,0.013016,0.047501,0.990982,0.001369,0.001396,-0.010899,60.866241,19.48024,-147.332733,,,
729605648.740045,2.897264,-0.773872,49.513588,0.013016,0.047501,0.990982,0.001369,0.001396,-0.010899,60.866241,19.48024,-147.332733,,,
729605648.743363,2.897264,-0.773872,49.513588,0.013016,0.047501,0.990982,0.001369,0.001396,-0.010899,60.866241,19.48024,-147.332733,,,
729605648.746571,2.892959,-0.771726,49.513695,0.016113,0.046768,0.995773,-0.016042,0.010901,-3e-05,60.866241,19.48024,-147.332733,,,
729605648.75007,2.886224,-0.766498,49.514572,0.016113,0.046768,0.995773,-0.016042,0.010901,-3e-05,60.866241,19.48024,-147.332733,,,
729605648.753361,2.886224,-0.766498,49.514572,0.016113,0.046768,0.995773,-0.016042,0.010901,-3e-05,60.866241,19.48024,-147.332733,,,
729605648.756715,2.873616,-0.759705,49.515823,0.026047,0.051483,0.982681,-0.046609,0.029225,0.004395,60.866241,19.48024,-147.332733,,,
729605648.760096,2.858197,-0.751056,49.517167,0.026047,0.051483,0.982681,-0.046609,0.029225,0.004395,60.866241,19.48024,-147.332733,,,
729605648.763226,2.858197,-0.751056,49.517167,0.026047,0.051483,0.982681,-0.046609,0.029225,0.004395,61.083328,19.532013,-147.248154,,,
729605648.766739,2.838882,-0.743849,49.51769,0.029007,0.052567,0.97551,-0.071255,0.029305,0.000911,61.083328,19.532013,-147.248154,,,
729605648.770039,2.816235,-0.734393,49.516672,0.029007,0.052567,0.97551,-0.071255,0.029305,0.000911,61.083328,19.532013,-147.248154,,,
729605648.773418,2.816235,-0.734393,49.516672,0.029007,0.052567,0.97551,-0.071255,0.029305,0.000911,61.083328,19.532013,-147.248154,,,
729605648.776718,2.792088,-0.729826,49.514535,0.027802,0.05191,0.977631,-0.082144,0.019912,-0.00911,61.083328,19.532013,-147.248154,,,
729605648.779902,2.765998,-0.723005,49.510969,0.027802,0.05191,0.977631,-0.082144,0.019912,-0.00911,61.083328,19.532013,-147.248154,,,
729605648.783393,2.765998,-0.723005,49.510969,0.027802,0.05191,0.977631,-0.082144,0.019912,-0.00911,61.083328,19.532013,-147.248154,,,
729605648.786775,2.739901,-0.720292,49.506085,0.029373,0.049316,0.983536,-0.090987,0.009638,-0.019939,61.083328,19.532013,-147.248154,,,
729605648.790028,2.714578,-0.717058,49.500211,0.029373,0.049316,0.983536,-0.090987,0.009638,-0.019939,61.083328,19.532013,-147.248154,,,
729605648.793377,2.714578,-0.717058,49.500211,0.029373,0.049316,0.983536,-0.090987,0.009638,-0.019939,61.083328,19.532013,-147.248154,,,
729605648.796572,2.691562,-0.716038,49.494297,0.027222,0.043381,0.991669,-0.075469,0.007646,-0.019128,61.083328,19.532013,-147.248154,,,
729605648.800118,2.67414,-0.71773,49.489306,0.027222,0.043381,0.991669,-0.075469,0.007646,-0.019128,61.083328,19.532013,-147.248154,,,
729605648.803371,2.67414,-0.71773,49.489306,0.027222,0.043381,0.991669,-0.075469,0.007646,-0.019128,60.893845,19.640976,-147.23262,,,
729605648.806711,2.65883,-0.720447,49.485563,0.021576,0.03334,1.006927,-0.046627,-0.009484,-0.013408,60.893845,19.640976,-147.23262,,,
729605648.810048,2.647687,-0.726199,49.48313,0.021576,0.03334,1.006927,-0.046627,-0.009484,-0.013408,60.893845,19.640976,-147.23262,,,
729605648.813279,2.647687,-0.726199,49.48313,0.021576,0.03334,1.006927,-0.046627,-0.009484,-0.013408,60.893845,19.640976,-147.23262,,,
729605648.816608,2.637605,-0.730376,49.48163,0.016235,0.029617,1.006119,-0.033204,-0.010698,-0.005051,60.893845,19.640976,-147.23262,,,
729605648.820068,2.629214,-0.73194,49.480441,0.016235,0.029617,1.006119,-0.033204,-0.010698,-0.005051,60.893845,19.640976,-147.23262,,,
729605648.823383,2.629214,-0.73194,49.480441,0.016235,0.029617,1.006119,-0.033204,-0.010698,-0.005051,60.893845,19.640976,-147.23262,,,
729605648.826793,2.622173,-0.732314,49.478398,0.018448,0.033295,1.013824,-0.024489,0.002318,-0.009425,60.893845,19.640976,-147.23262,,,
729605648.829906,2.615113,-0.735467,49.473991,0.018448,0.033295,1.013824,-0.024489,0.002318,-0.009425,60.893845,19.640976,-147.23262,,,
729605648.833401,2.615113,-0.735467,49.473991,0.018448,0.033295,1.013824,-0.024489,0.002318,-0.009425,60.893845,19.640976,-147.23262,,,
729605648.836721,2.605107,-0.739456,49.466129,0.029236,0.044022,1.00148,-0.035322,-0.015278,-0.030746,60.893845,19.640976,-147.23262,,,
729605648.840091,2.593646,-0.747944,49.454818,0.029236,0.044022,1.00148,-0.035322,-0.015278,-0.030746,60.893845,19.640976,-147.23262,,,
729605648.843363,2.593646,-0.747944,49.454818,0.029236,0.044022,1.00148,-0.035322,-0.015278,-0.030746,60.82901,19.755127,-147.256317,,,
729605648.846702,2.577081,-0.751623,49.440264,0.031113,0.049789,0.987961,-0.06083,-0.010255,-0.053956,60.82901,19.755127,-147.256317,,,
729605648.85005,2.559622,-0.757936,49.423133,0.031113,0.049789,0.987961,-0.06083,-0.010255,-0.053956,60.82901,19.755127,-147.256317,,,
729605648.853358,2.559622,-0.757936,49.423133,0.031113,0.049789,0.987961,-0.06083,-0.010255,-0.053956,60.82901,19.755127,-147.256317,,,
729605648.856703,2.538207,-0.760983,49.403298,0.020889,0.048553,0.999069,-0.07886,-0.008585,-0.070328,60.82901,19.755127,-147.256317,,,
729605648.860038,2.516538,-0.768036,49.382281,0.020889,0.048553,0.999069,-0.07886,-0.008585,-0.070328,60.82901,19.755127,-147.256317,,,
729605648.863231,2.516538,-0.768036,49.382281,0.020889,0.048553,0.999069,-0.07886,-0.008585,-0.070328,60.82901,19.755127,-147.256317,,,
729605648.866805,2.49274,-0.771696,49.361185,0.013626,0.045181,0.99762,-0.086464,-0.010601,-0.074182,60.82901,19.755127,-147.256317,,,
729605648.870027,2.470712,-0.778394,49.341242,0.013626,0.045181,0.99762,-0.086464,-0.010601,-0.074182,60.82901,19.755127,-147.256317,,,
729605648.873364,2.470712,-0.778394,49.341242,0.013626,0.045181,0.99762,-0.086464,-0.010601,-0.074182,60.82901,19.755127,-147.256317,,,
729605648.876715,2.44955,-0.780376,49.322717,0.010345,0.037735,1.008377,-0.071643,-0.005328,-0.063672,60.82901,19.755127,-147.256317,,,
729605648.879884,2.430324,-0.783642,49.306063,0.010345,0.037735,1.008377,-0.071643,-0.005328,-0.063672,60.82901,19.755127,-147.256317,,,
729605648.883411,2.430324,-0.783642,49.306063,0.010345,0.037735,1.008377,-0.071643,-0.005328,-0.063672,61.003876,19.630188,-147.260239,,,
729605648.886714,2.415903,-0.781753,49.290651,0.007462,0.030685,1.020386,-0.045094,0.011908,-0.051432,61.003876,19.630188,-147.260239,,,
729605648.890044,2.405605,-0.779654,49.276261,0.007462,0.030685,1.020386,-0.045094,0.011908,-0.051432,61.003876,19.630188,-147.260239,,,
729605648.893443,2.405605,-0.779654,49.276261,0.007462,0.030685,1.020386,-0.045094,0.011908,-0.051432,61.003876,19.630188,-147.260239,,,
729605648.896522,2.403818,-0.777937,49.262498,0.00914,0.031219,1.033493,-0.000632,0.002878,-0.044708,61.003876,19.630188,-147.260239,,,
729605648.900077,2.404677,-0.779244,49.249211,0.00914,0.031219,1.033493,-0.000632,0.002878,-0.044708,61.003876,19.630188,-147.260239,,,
729605648.903371,2.404677,-0.779244,49.249211,0.00914,0.031219,1.033493,-0.000632,0.002878,-0.044708,61.003876,19.630188,-147.260239,,,
729605648.906783,2.412311,-0.780014,49.236212,0.000778,0.032867,1.021988,0.028866,0.004035,-0.0471,61.003876,19.630188,-147.260239,,,
729605648.91004,2.42132,-0.781204,49.223212,0.000778,0.032867,1.021988,0.028866,0.004035,-0.0471,61.003876,19.630188,-147.260239,,,
729605648.9132,2.42132,-0.781204,49.223212,0.000778,0.032867,1.021988,0.028866,0.004035,-0.0471,61.003876,19.630188,-147.260239,,,
729605648.916751,2.433316,-0.780789,49.210033,-0.002686,0.035248,1.017029,0.043766,0.002337,-0.047901,61.003876,19.630188,-147.260239,,,
729605648.920108,2.445858,-0.786747,49.196966,-0.002686,0.035248,1.017029,0.043766,0.002337,-0.047901,61.003876,19.630188,-147.260239,,,
729605648.923373,2.445858,-0.786747,49.196966,-0.002686,0.035248,1.017029,0.043766,0.002337,-0.047901,61.003876,19.630188,-147.260239,,,
729605648.926719,2.455608,-0.790717,49.184047,0.002502,0.042114,0.998795,0.031371,-0.013834,-0.046762,60.917419,19.836044,-147.286499,,,
729605648.929907,2.455608,-0.790717,49.184047,0.002502,0.042114,0.998795,0.031371,-0.013834,-0.046762,60.917419,19.836044,-147.286499,,,
729605648.933455,2.463498,-0.798752,49.171968,0.002502,0.042114,0.998795,0.031371,-0.013834,-0.046762,60.917419,19.836044,-147.286499,,,
729605648.936689,2.466262,-0.802225,49.160269,0.003342,0.045349,0.987762,0.00907,-0.007534,-0.044219,60.917419,19.836044,-147.286499,,,
729605648.940025,2.467757,-0.804345,49.148884,0.003342,0.045349,0.987762,0.00907,-0.007534,-0.044219,60.917419,19.836044,-147.286499,,,
729605648.943363,2.467757,-0.804345,49.148884,0.003342,0.045349,0.987762,0.00907,-0.007534,-0.044219,60.917419,19.836044,-147.286499,,,
729605648.946608,2.466421,-0.803721,49.137212,0.003815,0.046143,0.996094,-0.003943,0.005472,-0.042894,60.917419,19.836044,-147.286499,,,
729605648.950052,2.462589,-0.800752,49.124247,0.003815,0.046143,0.996094,-0.003943,0.005472,-0.042894,60.917419,19.836044,-147.286499,,,
729605648.953372,2.462589,-0.800752,49.124247,0.003815,0.046143,0.996094,-0.003943,0.005472,-0.042894,60.917419,19.836044,-147.286499,,,
729605648.956717,2.456465,-0.797217,49.109569,0.010834,0.052383,0.995865,-0.022629,0.0124,-0.052673,60.917419,19.836044,-147.286499,,,
729605648.960075,2.448233,-0.792543,49.093668,0.010834,0.052383,0.995865,-0.022629,0.0124,-0.052673,60.917419,19.836044,-147.286499,,,
729605648.963225,2.448233,-0.792543,49.093668,0.010834,0.052383,0.995865,-0.022629,0.0124,-0.052673,60.917419,19.836044,-147.286499,,,
729605648.966715,2.442815,-0.788662,49.077167,0.010559,0.050552,0.992416,-0.017544,0.013065,-0.059885,61.03978,19.635483,-147.247604,,,
729605648.970042,2.442815,-0.783281,49.060715,0.010559,0.050552,0.992416,-0.017544,0.013065,-0.059885,61.03978,19.635483,-147.247604,,,
729605648.97344,2.435967,-0.783281,49.060715,0.010559,0.050552,0.992416,-0.017544,0.013065,-0.059885,61.03978,19.635483,-147.247604,,,
729605648.976696,2.434643,-0.779537,49.044501,0.004272,0.044067,0.999619,-0.001735,0.014472,-0.055824,61.03978,19.635483,-147.247604,,,
729605648.979893,2.434643,-0.779537,49.044501,0.004272,0.044067,0.999619,-0.001735,0.014472,-0.055824,61.03978,19.635483,-147.247604,,,
729605648.983412,2.434442,-0.775185,49.029087,0.004272,0.044067,0.999619,-0.001735,0.014472,-0.055824,61.03978,19.635483,-147.247604,,,
729605648.986763,2.441218,-0.774532,49.015339,0.003952,0.040009,1.001572,0.030004,0.00362,-0.049368,61.03978,19.635483,-147.247604,,,
729605648.990041,2.441218,-0.774532,49.015339,0.003952,0.040009,1.001572,0.030004,0.00362,-0.049368,61.03978,19.635483,-147.247604,,,
729605648.993371,2.451551,-0.772309,49.00243,0.003952,0.040009,1.001572,0.030004,0.00362,-0.049368,61.03978,19.635483,-147.247604,,,
729605648.996565,2.468947,-0.77473,48.990274,0.000351,0.038788,1.008347,0.066032,-0.009152,-0.04334,61.03978,19.635483,-147.247604,,,
729605649.000126,2.489243,-0.775505,48.979051,0.000351,0.038788,1.008347,0.066032,-0.009152,-0.04334,61.03978,19.635483,-147.247604,,,
729605649.003394,2.489243,-0.775505,48.979051,0.000351,0.038788,1.008347,0.066032,-0.009152,-0.04334,61.03978,19.635483,-147.247604,,,
729605649.006556,2.513434,-0.780879,48.96947,-0.004242,0.036133,1.004303,0.088177,-0.016198,-0.03395,61.096649,19.650345,-147.350922,,,
729605649.010069,2.513434,-0.780879,48.96947,-0.004242,0.036133,1.004303,0.088177,-0.016198,-0.03395,61.096649,19.650345,-147.350922,,,
729605649.013228,2.539176,-0.785131,48.960468,-0.004242,0.036133,1.004303,0.088177,-0.016198,-0.03395,61.096649,19.650345,-147.350922,,,
729605649.01672,2.564673,-0.793463,48.951667,-0.004547,0.039734,0.998947,0.090083,-0.028192,-0.033985,61.096649,19.650345,-147.350922,,,
729605649.020026,2.564673,-0.793463,48.951667,-0.004547,0.039734,0.998947,0.090083,-0.028192,-0.033985,61.096649,19.650345,-147.350922,,,
729605649.023377,2.589481,-0.801853,48.943185,-0.004547,0.039734,0.998947,0.090083,-0.028192,-0.033985,61.096649,19.650345,-147.350922,,,
729605649.026687,2.611693,-0.813091,48.935042,-0.00322,0.043823,0.992554,0.076349,-0.035422,-0.02981,61.096649,19.650345,-147.350922,,,
729605649.029905,2.611693,-0.813091,48.935042,-0.00322,0.043823,0.992554,0.076349,-0.035422,-0.02981,61.096649,19.650345,-147.350922,,,
729605649.033396,2.631406,-0.821095,48.927415,-0.00322,0.043823,0.992554,0.076349,-0.035422,-0.02981,61.096649,19.650345,-147.350922,,,
729605649.036689,2.647408,-0.828589,48.921071,-0.004868,0.045959,0.990723,0.053086,-0.021206,-0.024235,61.096649,19.650345,-147.350922,,,
729605649.040027,2.647408,-0.828589,48.921071,-0.004868,0.045959,0.990723,0.053086,-0.021206,-0.024235,61.096649,19.650345,-147.350922,,,
729605649.043379,2.661737,-0.832954,48.915908,-0.004868,0.045959,0.990723,0.053086,-0.021206,-0.024235,61.096649,19.650345,-147.350922,,,
729605649.046493,2.671863,-0.834385,48.911629,-0.004028,0.049973,0.994553,0.034448,-0.000353,-0.014085,61.096649,19.650345,-147.350922,,,
729605649.050049,2.671863,-0.834385,48.911629,-0.004028,0.049973,0.994553,0.034448,-0.000353,-0.014085,61.093918,19.607742,-147.295959,,,
729605649.053427,2.67959,-0.831118,48.908218,-0.004028,0.049973,0.994553,0.034448,-0.000353,-0.014085,61.093918,19.607742,-147.295959,,,
729605649.056684,2.683734,-0.827876,48.906648,0.00087,0.052032,0.99678,0.012756,0.014065,-0.003715,61.093918,19.607742,-147.295959,,,
729605649.060036,2.683734,-0.827876,48.906648,0.00087,0.052032,0.99678,0.012756,0.014065,-0.003715,61.093918,19.607742,-147.295959,,,
729605649.063232,2.683142,-0.822422,48.907009,0.00087,0.052032,0.99678,0.012756,0.014065,-0.003715,61.093918,19.607742,-147.295959,,,
729605649.066675,2.679102,-0.819147,48.908632,0.004807,0.052597,0.973572,-0.019116,0.013355,0.006595,61.093918,19.607742,-147.295959,,,
729605649.070048,2.679102,-0.819147,48.908632,0.004807,0.052597,0.973572,-0.019116,0.013355,0.006595,61.093918,19.607742,-147.295959,,,
729605649.073377,2.668829,-0.812818,48.910343,0.004807,0.052597,0.973572,-0.019116,0.013355,0.006595,61.093918,19.607742,-147.295959,,,
729605649.076702,2.656646,-0.809562,48.912004,0.007965,0.05072,0.968903,-0.045031,0.011824,0.005123,61.093918,19.607742,-147.295959,,,
729605649.079953,2.656646,-0.809562,48.912004,0.007965,0.05072,0.968903,-0.045031,0.011824,0.005123,61.093918,19.607742,-147.295959,,,
729605649.083403,2.640918,-0.805331,48.912687,0.007965,0.05072,0.968903,-0.045031,0.011824,0.005123,61.093918,19.607742,-147.295959,,,
729605649.086696,2.626674,-0.808022,48.912304,0.012665,0.050751,0.972977,-0.048524,-0.007127,-0.002989,61.093918,19.607742,-147.295959,,,
729605649.090029,2.626674,-0.808022,48.912304,0.012665,0.050751,0.972977,-0.048524,-0.007127,-0.002989,61.14859,19.371017,-147.16922,,,
729605649.093448,2.611583,-0.808439,48.91057,0.012665,0.050751,0.972977,-0.048524,-0.007127,-0.002989,61.14859,19.371017,-147.16922,,,
729605649.096551,2.599655,-0.814803,48.907989,0.015747,0.048859,0.983673,-0.041258,-0.020922,-0.01082,61.14859,19.371017,-147.16922,,,
729605649.100043,2.599655,-0.814803,48.907989,0.015747,0.048859,0.983673,-0.041258,-0.020922,-0.01082,61.14859,19.371017,-147.16922,,,
729605649.103363,2.589022,-0.819023,48.904506,0.015747,0.048859,0.983673,-0.041258,-0.020922,-0.01082,61.14859,19.371017,-147.16922,,,
729605649.106702,2.583587,-0.82771,48.900579,0.014999,0.046387,0.994598,-0.015433,-0.030935,-0.014207,61.14859,19.371017,-147.16922,,,
729605649.110071,2.583587,-0.82771,48.900579,0.014999,0.046387,0.994598,-0.015433,-0.030935,-0.014207,61.14859,19.371017,-147.16922,,,
729605649.113292,2.583264,-0.83117,48.895782,0.014999,0.046387,0.994598,-0.015433,-0.030935,-0.014207,61.14859,19.371017,-147.16922,,,
729605649.116763,2.588296,-0.836055,48.891372,0.01976,0.045563,1.015045,0.024783,-0.010119,-0.01545,61.14859,19.371017,-147.16922,,,
729605649.120019,2.588296,-0.836055,48.891372,0.01976,0.045563,1.015045,0.024783,-0.010119,-0.01545,61.14859,19.371017,-147.16922,,,
729605649.123365,2.597866,-0.834505,48.887739,0.01976,0.045563,1.015045,0.024783,-0.010119,-0.01545,61.14859,19.371017,-147.16922,,,
729605649.126698,2.608002,-0.834745,48.88652,0.015732,0.043503,1.013931,0.035882,0.004543,-0.005302,61.14859,19.371017,-147.16922,,,
729605649.129887,2.608002,-0.834745,48.88652,0.015732,0.043503,1.013931,0.035882,0.004543,-0.005302,60.987122,19.680145,-147.387405,,,
729605649.133405,2.618803,-0.827111,48.887482,0.015732,0.043503,1.013931,0.035882,0.004543,-0.005302,60.987122,19.680145,-147.387405,,,
729605649.13669,2.628074,-0.820164,48.890404,0.008224,0.044922,0.996063,0.033429,0.032222,0.008796,60.987122,19.680145,-147.387405,,,
729605649.140053,2.628074,-0.820164,48.890404,0.008224,0.044922,0.996063,0.033429,0.032222,0.008796,60.987122,19.680145,-147.387405,,,
729605649.143359,2.638102,-0.809958,48.894155,0.008224,0.044922,0.996063,0.033429,0.032222,0.008796,60.987122,19.680145,-147.387405,,,
729605649.146548,2.643906,-0.801476,48.896993,0.0159,0.049911,0.993164,0.017838,0.036206,0.006143,60.987122,19.680145,-147.387405,,,
729605649.150066,2.643906,-0.801476,48.896993,0.0159,0.049911,0.993164,0.017838,0.036206,0.006143,60.987122,19.680145,-147.387405,,,
729605649.153446,2.647441,-0.790011,48.89806,0.0159,0.049911,0.993164,0.017838,0.036206,0.006143,60.987122,19.680145,-147.387405,,,
729605649.156693,2.644691,-0.78052,48.897199,0.021988,0.058594,0.978439,-0.014061,0.039583,-0.005402,60.987122,19.680145,-147.387405,,,
729605649.160044,2.644691,-0.78052,48.897199,0.021988,0.058594,0.978439,-0.014061,0.039583,-0.005402,60.987122,19.680145,-147.387405,,,
729605649.163234,2.638302,-0.770769,48.894068,0.021988,0.058594,0.978439,-0.014061,0.039583,-0.005402,60.987122,19.680145,-147.387405,,,
729605649.166718,2.62708,-0.762451,48.890219,0.013489,0.061417,0.972961,-0.04001,0.031023,-0.011198,60.987122,19.680145,-147.387405,,,
729605649.170036,2.62708,-0.762451,48.890219,0.013489,0.061417,0.972961,-0.04001,0.031023,-0.011198,61.129868,19.609833,-147.645813,,,
729605649.173389,2.614797,-0.754196,48.886961,0.013489,0.061417,0.972961,-0.04001,0.031023,-0.011198,61.129868,19.609833,-147.645813,,,
729605649.176689,2.599516,-0.745187,48.884353,0.006638,0.053421,0.983307,-0.051673,0.033425,-0.009334,61.129868,19.609833,-147.645813,,,
729605649.180057,2.599516,-0.745187,48.884353,0.006638,0.053421,0.983307,-0.051673,0.033425,-0.009334,61.129868,19.609833,-147.645813,,,
729605649.183344,2.585093,-0.737806,48.882815,0.006638,0.053421,0.983307,-0.051673,0.033425,-0.009334,61.129868,19.609833,-147.645813,,,
729605649.186656,2.572049,-0.732858,48.882851,0.007278,0.043274,0.991531,-0.043023,0.017019,-0.0006,61.129868,19.609833,-147.645813,,,
729605649.190051,2.572049,-0.732858,48.882851,0.007278,0.043274,0.991531,-0.043023,0.017019,-0.0006,61.129868,19.609833,-147.645813,,,
729605649.193396,2.561346,-0.731664,48.883941,0.007278,0.043274,0.991531,-0.043023,0.017019,-0.0006,61.129868,19.609833,-147.645813,,,
729605649.196639,2.55242,-0.731049,48.885367,0.008408,0.037781,0.99649,-0.028715,0.002964,0.00285,61.129868,19.609833,-147.645813,,,
729605649.199776,2.55242,-0.731049,48.885367,0.008408,0.037781,0.99649,-0.028715,0.002964,0.00285,61.129868,19.609833,-147.645813,,,
729605649.203502,2.545149,-0.733822,48.887119,0.008408,0.037781,0.99649,-0.028715,0.002964,0.00285,61.129868,19.609833,-147.645813,,,
729605649.206694,2.540193,-0.737116,48.888984,0.004761,0.039352,1.001755,-0.015112,-0.007906,0.006089,61.129868,19.609833,-147.645813,,,
729605649.210052,2.540193,-0.737116,48.888984,0.004761,0.039352,1.001755,-0.015112,-0.007906,0.006089,61.129868,19.609833,-147.645813,,,
729605649.213245,2.537091,-0.742011,48.891751,0.004761,0.039352,1.001755,-0.015112,-0.007906,0.006089,61.235336,19.526993,-147.242889,,,
729605649.216721,2.535818,-0.747847,48.89532,0.011108,0.040283,1.000107,-0.001019,-0.01716,0.009318,61.235336,19.526993,-147.242889,,,
729605649.220048,2.535818,-0.747847,48.89532,0.011108,0.040283,1.000107,-0.001019,-0.01716,0.009318,61.235336,19.526993,-147.242889,,,
729605649.223371,2.535953,-0.753082,48.898343,0.011108,0.040283,1.000107,-0.001019,-0.01716,0.009318,61.235336,19.526993,-147.242889,,,
729605649.226787,2.534509,-0.758806,48.900899,0.022888,0.045364,1.003922,-0.003979,-0.015779,0.007308,61.235336,19.526993,-147.242889,,,
729605649.229913,2.534509,-0.758806,48.900899,0.022888,0.045364,1.003922,-0.003979,-0.015779,0.007308,61.235336,19.526993,-147.242889,,,
729605649.233397,2.532499,-0.764385,48.902952,0.022888,0.045364,1.003922,-0.003979,-0.015779,0.007308,61.235336,19.526993,-147.242889,,,
729605649.236705,2.52575,-0.765982,48.904441,0.02478,0.048004,0.996841,-0.02477,0.001496,0.004444,61.235336,19.526993,-147.242889,,,
729605649.240036,2.52575,-0.765982,48.904441,0.02478,0.048004,0.996841,-0.02477,0.001496,0.004444,61.235336,19.526993,-147.242889,,,
729605649.243387,2.520311,-0.766365,48.905925,0.02478,0.048004,0.996841,-0.02477,0.001496,0.004444,61.235336,19.526993,-147.242889,,,
729605649.246589,2.509477,-0.7624,48.907437,0.019669,0.04866,1.005066,-0.041584,0.022734,0.003149,61.235336,19.526993,-147.242889,,,
729605649.250065,2.509477,-0.7624,48.907437,0.019669,0.04866,1.005066,-0.041584,0.022734,0.003149,61.235336,19.526993,-147.242889,,,
729605649.253374,2.500142,-0.755367,48.909815,0.019669,0.04866,1.005066,-0.041584,0.022734,0.003149,61.146057,19.521912,-147.385056,,,
729605649.256704,2.485123,-0.748168,48.912545,0.015427,0.048431,1.001022,-0.053656,0.028045,0.006603,61.146057,19.521912,-147.385056,,,
729605649.260025,2.485123,-0.748168,48.912545,0.015427,0.048431,1.001022,-0.053656,0.028045,0.006603,61.146057,19.521912,-147.385056,,,
729605649.263229,2.470188,-0.739205,48.91546,0.015427,0.048431,1.001022,-0.053656,0.028045,0.006603,61.146057,19.521912,-147.385056,,,
729605649.266714,2.453671,-0.731416,48.918648,0.015289,0.047241,0.998489,-0.058496,0.030747,0.006889,61.146057,19.521912,-147.385056,,,
729605649.270039,2.453671,-0.731416,48.918648,0.015289,0.047241,0.998489,-0.058496,0.030747,0.006889,61.146057,19.521912,-147.385056,,,
729605649.273384,2.43745,-0.723304,48.920835,0.015289,0.047241,0.998489,-0.058496,0.030747,0.006889,61.146057,19.521912,-147.385056,,,
729605649.276687,2.423747,-0.718001,48.922025,0.01442,0.043182,1.002441,-0.045707,0.019663,0.003882,61.146057,19.521912,-147.385056,,,
729605649.279879,2.423747,-0.718001,48.922025,0.01442,0.043182,1.002441,-0.045707,0.019663,0.003882,61.146057,19.521912,-147.385056,,,
729605649.283402,2.41279,-0.713592,48.922226,0.01442,0.043182,1.002441,-0.045707,0.019663,0.003882,61.146057,19.521912,-147.385056,,,
729605649.286688,2.406209,-0.712782,48.921319,0.016891,0.037109,1.004791,-0.018453,0.002723,-0.007299,61.146057,19.521912,-147.385056,,,
729605649.290025,2.406209,-0.712782,48.921319,0.016891,0.037109,1.004791,-0.018453,0.002723,-0.007299,61.146057,19.521912,-147.385056,,,
729605649.29336,2.402781,-0.714322,48.918862,0.016891,0.037109,1.004791,-0.018453,0.002723,-0.007299,61.104462,19.516006,-147.460632,,,
729605649.296566,2.403412,-0.72254,48.914717,0.016281,0.034012,1.002579,0.005059,-0.03025,-0.019018,61.104462,19.516006,-147.460632,,,
729605649.300065,2.403412,-0.72254,48.914717,0.016281,0.034012,1.002579,0.005059,-0.03025,-0.019018,61.104462,19.516006,-147.460632,,,
729605649.303358,2.406841,-0.735721,48.908962,0.016281,0.034012,1.002579,0.005059,-0.03025,-0.019018,61.104462,19.516006,-147.460632,,,
729605649.306691,2.413118,-0.749907,48.903102,0.011307,0.031143,0.992783,0.025465,-0.05024,-0.021481,61.104462,19.516006,-147.460632,,,
729605649.310062,2.413118,-0.749907,48.903102,0.011307,0.031143,0.992783,0.025465,-0.05024,-0.021481,61.104462,19.516006,-147.460632,,,
729605649.313237,2.424055,-0.765306,48.898306,0.011307,0.031143,0.992783,0.025465,-0.05024,-0.021481,61.104462,19.516006,-147.460632,,,
729605649.31672,2.437369,-0.775076,48.894409,0.012375,0.029388,1.010742,0.048855,-0.027221,-0.012896,61.104462,19.516006,-147.460632,,,
729605649.32013,2.437369,-0.775076,48.894409,0.012375,0.029388,1.010742,0.048855,-0.027221,-0.012896,61.104462,19.516006,-147.460632,,,
729605649.323368,2.452804,-0.782869,48.892166,0.012375,0.029388,1.010742,0.048855,-0.027221,-0.012896,61.104462,19.516006,-147.460632,,,
729605649.326707,2.46576,-0.784172,48.89133,0.018463,0.031403,1.004715,0.044644,0.00206,-0.003363,61.104462,19.516006,-147.460632,,,
729605649.329876,2.46576,-0.784172,48.89133,0.018463,0.031403,1.004715,0.044644,0.00206,-0.003363,61.104462,19.516006,-147.460632,,,
729605649.333395,2.4773,-0.782553,48.891997,0.018463,0.031403,1.004715,0.044644,0.00206,-0.003363,61.156281,19.459076,-147.298203,,,
729605649.336695,2.484585,-0.776799,48.893853,0.013535,0.034256,0.988953,0.023719,0.025415,0.006741,61.156281,19.459076,-147.298203,,,
729605649.340043,2.484585,-0.776799,48.893853,0.013535,0.034256,0.988953,0.023719,0.025415,0.006741,61.156281,19.459076,-147.298203,,,
729605649.343379,2.489603,-0.770054,48.896444,0.013535,0.034256,0.988953,0.023719,0.025415,0.006741,61.156281,19.459076,-147.298203,,,
729605649.346555,2.490967,-0.761613,48.898883,0.007797,0.039688,0.983536,0.00316,0.035822,0.007346,61.156281,19.459076,-147.298203,,,
729605649.350039,2.490967,-0.761613,48.898883,0.007797,0.039688,0.983536,0.00316,0.035822,0.007346,61.156281,19.459076,-147.298203,,,
729605649.353371,2.49153,-0.751172,48.900301,0.007797,0.039688,0.983536,0.00316,0.035822,0.007346,61.156281,19.459076,-147.298203,,,
729605649.356686,2.490215,-0.73779,48.90013,0.010468,0.042007,0.986206,-0.005146,0.051993,-0.004428,61.156281,19.459076,-147.298203,,,
729605649.360072,2.490215,-0.73779,48.90013,0.010468,0.042007,0.986206,-0.005146,0.051993,-0.004428,61.156281,19.459076,-147.298203,,,
729605649.363226,2.488858,-0.722721,48.898428,0.010468,0.042007,0.986206,-0.005146,0.051993,-0.004428,61.156281,19.459076,-147.298203,,,
729605649.366714,2.488966,-0.706343,48.895504,0.012665,0.04631,0.993668,0.003532,0.059898,-0.012915,61.156281,19.459076,-147.298203,,,
729605649.370046,2.488966,-0.706343,48.895504,0.012665,0.04631,0.993668,0.003532,0.059898,-0.012915,61.156281,19.459076,-147.298203,,,
729605649.373453,2.488339,-0.692374,48.891563,0.012665,0.04631,0.993668,0.003532,0.059898,-0.012915,61.156281,19.459076,-147.298203,,,
729605649.376692,2.49076,-0.679139,48.886645,0.010483,0.046921,0.986023,0.009709,0.044372,-0.019376,61.257935,19.370422,-147.450211,,,
729605649.379899,2.49076,-0.679139,48.886645,0.010483,0.046921,0.986023,0.009709,0.044372,-0.019376,61.257935,19.370422,-147.450211,,,
729605649.383393,2.491132,-0.668254,48.880858,0.010483,0.046921,0.986023,0.009709,0.044372,-0.019376,61.257935,19.370422,-147.450211,,,
729605649.386696,2.493958,-0.658758,48.874303,0.010452,0.04422,0.982498,0.008842,0.036256,-0.025433,61.257935,19.370422,-147.450211,,,
729605649.390039,2.493958,-0.658758,48.874303,0.010452,0.04422,0.982498,0.008842,0.036256,-0.025433,61.257935,19.370422,-147.450211,,,
729605649.393353,2.493632,-0.650995,48.868125,0.010452,0.04422,0.982498,0.008842,0.036256,-0.025433,61.257935,19.370422,-147.450211,,,
729605649.396599,2.495105,-0.645194,48.863858,0.001495,0.038742,0.983261,0.006393,0.020244,-0.012656,61.257935,19.370422,-147.450211,,,
729605649.400042,2.495105,-0.645194,48.863858,0.001495,0.038742,0.983261,0.006393,0.020244,-0.012656,61.257935,19.370422,-147.450211,,,
729605649.403358,2.493497,-0.642478,48.862538,0.001495,0.038742,0.983261,0.006393,0.020244,-0.012656,61.257935,19.370422,-147.450211,,,
729605649.406701,2.495932,-0.640459,48.863969,-0.005524,0.037552,0.975449,0.011055,0.008889,0.007653,61.257935,19.370422,-147.450211,,,
729605649.410088,2.495932,-0.640459,48.863969,-0.005524,0.037552,0.975449,0.011055,0.008889,0.007653,61.257935,19.370422,-147.450211,,,
729605649.413219,2.498032,-0.640476,48.867075,-0.005524,0.037552,0.975449,0.011055,0.008889,0.007653,61.257935,19.370422,-147.450211,,,
729605649.416719,2.504447,-0.638926,48.870521,0.007065,0.041397,0.994476,0.024203,0.011544,0.009587,61.411026,19.220398,-146.859406,,,
729605649.420037,2.504447,-0.638926,48.870521,0.007065,0.041397,0.994476,0.024203,0.011544,0.009587,61.411026,19.220398,-146.859406,,,
729605649.423439,2.509575,-0.635768,48.873788,0.007065,0.041397,0.994476,0.024203,0.011544,0.009587,61.411026,19.220398,-146.859406,,,
729605649.426685,2.513792,-0.62987,48.876375,0.01738,0.049057,0.993271,0.011686,0.027202,0.005206,61.411026,19.220398,-146.859406,,,
729605649.429841,2.513792,-0.62987,48.876375,0.01738,0.049057,0.993271,0.011686,0.027202,0.005206,61.411026,19.220398,-146.859406,,,
729605649.433426,2.513956,-0.62053,48.878359,0.01738,0.049057,0.993271,0.011686,0.027202,0.005206,61.411026,19.220398,-146.859406,,,
729605649.436696,2.510531,-0.610439,48.879941,0.012527,0.051178,0.981796,-0.014432,0.038117,0.002471,61.411026,19.220398,-146.859406,,,
729605649.440042,2.510531,-0.610439,48.879941,0.012527,0.051178,0.981796,-0.014432,0.038117,0.002471,61.411026,19.220398,-146.859406,,,
729605649.443373,2.503571,-0.600659,48.880917,0.012527,0.051178,0.981796,-0.014432,0.038117,0.002471,61.411026,19.220398,-146.859406,,,
729605649.446555,2.493159,-0.590639,48.881458,0.011673,0.051895,0.979034,-0.042478,0.037671,0.000194,61.411026,19.220398,-146.859406,,,
729605649.450122,2.493159,-0.590639,48.881458,0.011673,0.051895,0.979034,-0.042478,0.037671,0.000194,61.411026,19.220398,-146.859406,,,
729605649.453352,2.479972,-0.581536,48.882197,0.011673,0.051895,0.979034,-0.042478,0.037671,0.000194,61.411026,19.220398,-146.859406,,,
729605649.456701,2.463837,-0.572668,48.883581,0.013916,0.050369,0.980652,-0.057669,0.034085,0.006365,61.535172,19.333511,-147.453812,,,
729605649.460034,2.463837,-0.572668,48.883581,0.013916,0.050369,0.980652,-0.057669,0.034085,0.006365,61.535172,19.333511,-147.453812,,,
729605649.463278,2.4482,-0.564541,48.885159,0.013916,0.050369,0.980652,-0.057669,0.034085,0.006365,61.535172,19.333511,-147.453812,,,
729605649.46671,2.431698,-0.55812,48.886778,0.015762,0.047134,0.995468,-0.058313,0.021801,0.006251,61.535172,19.333511,-147.453812,,,
729605649.470037,2.431698,-0.55812,48.886778,0.015762,0.047134,0.995468,-0.058313,0.021801,0.006251,61.535172,19.333511,-147.453812,,,
729605649.473364,2.414918,-0.554029,48.888216,0.015762,0.047134,0.995468,-0.058313,0.021801,0.006251,61.535172,19.333511,-147.453812,,,
729605649.476698,2.398005,-0.551167,48.888642,0.014359,0.044724,0.994919,-0.055643,0.012365,0.002315,61.535172,19.333511,-147.453812,,,
729605649.479906,2.398005,-0.551167,48.888642,0.014359,0.044724,0.994919,-0.055643,0.012365,0.002315,61.535172,19.333511,-147.453812,,,
729605649.483388,2.380512,-0.545802,48.8878,0.014359,0.044724,0.994919,-0.055643,0.012365,0.002315,61.535172,19.333511,-147.453812,,,
729605649.486696,2.363885,-0.543011,48.886692,0.016068,0.040939,0.999557,-0.056473,0.01466,-0.008217,61.535172,19.333511,-147.453812,,,
729605649.490107,2.363885,-0.543011,48.886692,0.016068,0.040939,0.999557,-0.056473,0.01466,-0.008217,61.535172,19.333511,-147.453812,,,
729605649.493374,2.347055,-0.538484,48.884982,0.016068,0.040939,0.999557,-0.056473,0.01466,-0.008217,61.535172,19.333511,-147.453812,,,
729605649.496592,2.331448,-0.537605,48.883188,0.016953,0.038422,1.005478,-0.049405,0.002739,-0.005528,61.535172,19.333511,-147.453812,,,
729605649.500047,2.331448,-0.537605,48.883188,0.016953,0.038422,1.005478,-0.049405,0.002739,-0.005528,61.354034,19.498123,-147.542389,,,
729605649.503405,2.318356,-0.538193,48.882511,0.016953,0.038422,1.005478,-0.049405,0.002739,-0.005528,61.354034,19.498123,-147.542389,,,
729605649.506686,2.307003,-0.537971,48.883432,0.015076,0.036377,1.009583,-0.035327,0.006325,0.004747,61.354034,19.498123,-147.542389,,,
729605649.510039,2.307003,-0.537971,48.883432,0.015076,0.036377,1.009583,-0.035327,0.006325,0.004747,61.354034,19.498123,-147.542389,,,
729605649.51321,2.300654,-0.538623,48.885371,0.015076,0.036377,1.009583,-0.035327,0.006325,0.004747,61.354034,19.498123,-147.542389,,,
729605649.516712,2.293701,-0.535783,48.88754,0.014175,0.035706,1.021805,-0.023854,0.013164,0.008605,61.354034,19.498123,-147.542389,,,
729605649.520029,2.293701,-0.535783,48.88754,0.014175,0.035706,1.021805,-0.023854,0.013164,0.008605,61.354034,19.498123,-147.542389,,,
729605649.523357,2.289525,-0.530123,48.890047,0.014175,0.035706,1.021805,-0.023854,0.013164,0.008605,61.354034,19.498123,-147.542389,,,
729605649.526691,2.281518,-0.520475,48.892271,0.015137,0.036331,1.013321,-0.029549,0.040371,0.005544,61.354034,19.498123,-147.542389,,,
729605649.529956,2.281518,-0.520475,48.892271,0.015137,0.036331,1.013321,-0.029549,0.040371,0.005544,61.354034,19.498123,-147.542389,,,
729605649.533371,2.274063,-0.508689,48.894156,0.015137,0.036331,1.013321,-0.029549,0.040371,0.005544,61.354034,19.498123,-147.542389,,,
729605649.536695,2.262168,-0.495087,48.895473,0.018448,0.039673,1.005173,-0.041549,0.051837,0.001871,61.354034,19.498123,-147.542389,,,
729605649.540032,2.262168,-0.495087,48.895473,0.018448,0.039673,1.005173,-0.041549,0.051837,0.001871,61.547119,19.741577,-147.308151,,,
729605649.54343,2.250119,-0.481837,48.896189,0.018448,0.039673,1.005173,-0.041549,0.051837,0.001871,61.547119,19.741577,-147.308151,,,
729605649.546568,2.233345,-0.46568,48.896327,0.017883,0.045502,1.002502,-0.059325,0.06005,-0.001893,61.547119,19.741577,-147.308151,,,
729605649.55006,2.233345,-0.46568,48.896327,0.017883,0.045502,1.002502,-0.059325,0.06005,-0.001893,61.547119,19.741577,-147.308151,,,
729605649.553352,2.216667,-0.450889,48.895613,0.017883,0.045502,1.002502,-0.059325,0.06005,-0.001893,61.547119,19.741577,-147.308151,,,
729605649.5567,2.197562,-0.436309,48.893803,0.015747,0.045181,0.996399,-0.069288,0.053984,-0.00771,61.547119,19.741577,-147.308151,,,
729605649.560025,2.197562,-0.436309,48.893803,0.015747,0.045181,0.996399,-0.069288,0.053984,-0.00771,61.547119,19.741577,-147.308151,,,
729605649.563221,2.178865,-0.426509,48.891267,0.015747,0.045181,0.996399,-0.069288,0.053984,-0.00771,61.547119,19.741577,-147.308151,,,
729605649.566757,2.159038,-0.418256,48.887706,0.010605,0.040665,0.994232,-0.070257,0.02904,-0.013161,61.547119,19.741577,-147.308151,,,
729605649.5701,2.159038,-0.418256,48.887706,0.010605,0.040665,0.994232,-0.070257,0.02904,-0.013161,61.547119,19.741577,-147.308151,,,
729605649.57337,2.140351,-0.415242,48.883154,0.010605,0.040665,0.994232,-0.070257,0.02904,-0.013161,61.547119,19.741577,-147.308151,,,
729605649.57669,2.12176,-0.413058,48.877466,0.009354,0.03804,0.99556,-0.064431,0.006564,-0.023819,61.547119,19.741577,-147.308151,,,
729605649.579872,2.12176,-0.413058,48.877466,0.009354,0.03804,0.99556,-0.064431,0.006564,-0.023819,61.435501,19.901703,-147.545181,,,
729605649.583415,2.104806,-0.414503,48.870787,0.009354,0.03804,0.99556,-0.064431,0.006564,-0.023819,61.435501,19.901703,-147.545181,,,
729605649.586687,2.089937,-0.415623,48.864014,0.007217,0.031372,1.007492,-0.04918,-0.003056,-0.025492,61.435501,19.901703,-147.545181,,,
729605649.590038,2.089937,-0.415623,48.864014,0.007217,0.031372,1.007492,-0.04918,-0.003056,-0.025492,61.435501,19.901703,-147.545181,,,
729605649.593421,2.078386,-0.420992,48.858157,0.007217,0.031372,1.007492,-0.04918,-0.003056,-0.025492,61.435501,19.901703,-147.545181,,,
729605649.596689,2.073085,-0.426583,48.853313,0.003937,0.026352,1.009827,-0.013832,-0.015789,-0.017597,61.435501,19.901703,-147.545181,,,
729605649.600029,2.073085,-0.426583,48.853313,0.003937,0.026352,1.009827,-0.013832,-0.015789,-0.017597,61.435501,19.901703,-147.545181,,,
729605649.603363,2.074807,-0.43307,48.849695,0.003937,0.026352,1.009827,-0.013832,-0.015789,-0.017597,61.435501,19.901703,-147.545181,,,
729605649.606689,2.083283,-0.436561,48.846833,0.006073,0.022552,1.031113,0.038206,-0.008148,-0.012833,61.435501,19.901703,-147.545181,,,
729605649.610034,2.083283,-0.436561,48.846833,0.006073,0.022552,1.031113,0.038206,-0.008148,-0.012833,61.435501,19.901703,-147.545181,,,
729605649.613266,2.096964,-0.440291,48.844185,0.006073,0.022552,1.031113,0.038206,-0.008148,-0.012833,61.435501,19.901703,-147.545181,,,
729605649.616703,2.113098,-0.440351,48.841993,0.009979,0.02739,1.030426,0.059785,0.002977,-0.008089,61.435501,19.901703,-147.545181,,,
729605649.62002,2.113098,-0.440351,48.841993,0.009979,0.02739,1.030426,0.059785,0.002977,-0.008089,61.36908,19.841614,-147.696548,,,
729605649.623371,2.130522,-0.440497,48.841281,0.009979,0.02739,1.030426,0.059785,0.002977,-0.008089,61.36908,19.841614,-147.696548,,,
729605649.626691,2.145992,-0.436903,48.841308,0.000137,0.026245,1.013702,0.053735,0.018468,-0.000851,61.36908,19.841614,-147.696548,,,
729605649.629897,2.145992,-0.436903,48.841308,0.000137,0.026245,1.013702,0.053735,0.018468,-0.000851,61.36908,19.841614,-147.696548,,,
729605649.633459,2.16225,-0.435679,48.84163,0.000137,0.026245,1.013702,0.053735,0.018468,-0.000851,61.36908,19.841614,-147.696548,,,
729605649.636684,2.174929,-0.433172,48.84196,0.002426,0.031387,1.004929,0.042974,0.011758,-0.001385,61.36908,19.841614,-147.696548,,,
729605649.640038,2.174929,-0.433172,48.84196,0.002426,0.031387,1.004929,0.042974,0.011758,-0.001385,61.36908,19.841614,-147.696548,,,
729605649.643374,2.185615,-0.433066,48.841893,0.002426,0.031387,1.004929,0.042974,0.011758,-0.001385,61.36908,19.841614,-147.696548,,,
729605649.646673,2.191255,-0.431863,48.840711,0.007111,0.041061,0.991806,0.017316,0.008195,-0.006037,61.36908,19.841614,-147.696548,,,
729605649.650031,2.191255,-0.431863,48.840711,0.007111,0.041061,0.991806,0.017316,0.008195,-0.006037,61.36908,19.841614,-147.696548,,,
729605649.653377,2.192948,-0.431172,48.838649,0.007111,0.041061,0.991806,0.017316,0.008195,-0.006037,61.36908,19.841614,-147.696548,,,
729605649.656729,2.190399,-0.430165,48.836135,0.001526,0.045105,0.986389,-0.011015,0.005525,-0.011023,61.36908,19.841614,-147.696548,,,
729605649.660034,2.190399,-0.430165,48.836135,0.001526,0.045105,0.986389,-0.011015,0.005525,-0.011023,61.36908,19.841614,-147.696548,,,
729605649.663218,2.183445,-0.429768,48.833743,0.001526,0.045105,0.986389,-0.011015,0.005525,-0.011023,61.290665,19.858475,-147.868622,,,
729605649.666715,2.173895,-0.428869,48.831678,0.00087,0.046661,0.982803,-0.037169,0.006599,-0.005391,61.290665,19.858475,-147.868622,,,
729605649.670039,2.173895,-0.428869,48.831678,0.00087,0.046661,0.982803,-0.037169,0.006599,-0.005391,61.290665,19.858475,-147.868622,,,
729605649.673435,2.160072,-0.426317,48.831061,0.00087,0.046661,0.982803,-0.037169,0.006599,-0.005391,61.290665,19.858475,-147.868622,,,
729605649.676716,2.145675,-0.422829,48.832209,0.00351,0.043915,0.985886,-0.052453,0.015945,0.004559,61.290665,19.858475,-147.868622,,,
729605649.679901,2.145675,-0.422829,48.832209,0.00351,0.043915,0.985886,-0.052453,0.015945,0.004559,61.290665,19.858475,-147.868622,,,
729605649.683394,2.127133,-0.418404,48.834236,0.00351,0.043915,0.985886,-0.052453,0.015945,0.004559,61.290665,19.858475,-147.868622,,,
729605649.68669,2.112492,-0.415896,48.837667,0.001724,0.041397,0.987396,-0.052251,0.016338,0.010671,61.290665,19.858475,-147.868622,,,
729605649.690049,2.112492,-0.415896,48.837667,0.001724,0.041397,0.987396,-0.052251,0.016338,0.010671,61.290665,19.858475,-147.868622,,,
729605649.693373,2.097044,-0.414849,48.841694,0.001724,0.041397,0.987396,-0.052251,0.016338,0.010671,61.290665,19.858475,-147.868622,,,
729605649.696572,2.087424,-0.414893,48.845713,0.005096,0.037582,0.995316,-0.032563,0.002488,0.014443,61.290665,19.858475,-147.868622,,,
729605649.700121,2.087424,-0.414893,48.845713,0.005096,0.037582,0.995316,-0.032563,0.002488,0.014443,61.290665,19.858475,-147.868622,,,
729605649.703367,2.081619,-0.415752,48.849673,0.005096,0.037582,0.995316,-0.032563,0.002488,0.014443,61.58432,19.908936,-147.61879,,,
729605649.706783,2.085097,-0.418606,48.852407,0.008087,0.030792,1.009506,0.019543,-0.006371,0.007842,61.58432,19.908936,-147.61879,,,
729605649.710042,2.085097,-0.418606,48.852407,0.008087,0.030792,1.009506,0.019543,-0.006371,0.007842,61.58432,19.908936,-147.61879,,,
729605649.713238,2.093408,-0.424569,48.853463,0.008087,0.030792,1.009506,0.019543,-0.006371,0.007842,61.58432,19.908936,-147.61879,,,
729605649.7168,2.10697,-0.437321,48.853052,0.012451,0.031784,1.014038,0.050874,-0.046563,-0.00392,61.58432,19.908936,-147.61879,,,
729605649.720024,2.10697,-0.437321,48.853052,0.012451,0.031784,1.014038,0.050874,-0.046563,-0.00392,61.58432,19.908936,-147.61879,,,
729605649.723378,2.119932,-0.451402,48.851176,0.012451,0.031784,1.014038,0.050874,-0.046563,-0.00392,61.58432,19.908936,-147.61879,,,
729605649.726694,2.130409,-0.465057,48.84795,0.003281,0.036499,0.992477,0.032847,-0.045994,-0.012991,61.58432,19.908936,-147.61879,,,
729605649.729891,2.130409,-0.465057,48.84795,0.003281,0.036499,0.992477,0.032847,-0.045994,-0.012991,61.58432,19.908936,-147.61879,,,
729605649.733389,2.138863,-0.476214,48.843704,0.003281,0.036499,0.992477,0.032847,-0.045994,-0.012991,61.58432,19.908936,-147.61879,,,
729605649.736707,2.142828,-0.486284,48.839391,0.005997,0.041077,0.995331,0.011376,-0.032,-0.01638,61.58432,19.908936,-147.61879,,,
729605649.740102,2.142828,-0.486284,48.839391,0.005997,0.041077,0.995331,0.011376,-0.032,-0.01638,61.58432,19.908936,-147.61879,,,
729605649.743362,2.145315,-0.493429,48.835636,0.005997,0.041077,0.995331,0.011376,-0.032,-0.01638,61.295944,19.91806,-147.644684,,,
729605649.746724,2.14235,-0.499721,48.833121,0.017059,0.044724,0.99382,-0.015671,-0.016217,-0.011088,61.295944,19.91806,-147.644684,,,
729605649.750039,2.14235,-0.499721,48.833121,0.017059,0.044724,0.99382,-0.015671,-0.016217,-0.011088,61.295944,19.91806,-147.644684,,,
729605649.753463,2.137638,-0.498985,48.831633,0.017059,0.044724,0.99382,-0.015671,-0.016217,-0.011088,61.295944,19.91806,-147.644684,,,
729605649.756754,2.1281,-0.492887,48.831164,0.014389,0.041122,0.992996,-0.031873,0.031656,-0.00167,61.295944,19.91806,-147.644684,,,
729605649.760018,2.1281,-0.492887,48.831164,0.014389,0.041122,0.992996,-0.031873,0.031656,-0.00167,61.295944,19.91806,-147.644684,,,
729605649.76318,2.118599,-0.480698,48.831622,0.014389,0.041122,0.992996,-0.031873,0.031656,-0.00167,61.295944,19.91806,-147.644684,,,
729605649.766725,2.108253,-0.466184,48.832771,0.010742,0.038559,0.999222,-0.034237,0.055704,0.002805,61.295944,19.91806,-147.644684,,,
729605649.770044,2.108253,-0.466184,48.832771,0.010742,0.038559,0.999222,-0.034237,0.055704,0.002805,61.295944,19.91806,-147.644684,,,
729605649.773376,2.099083,-0.449065,48.834529,0.010742,0.038559,0.999222,-0.034237,0.055704,0.002805,61.295944,19.91806,-147.644684,,,
729605649.776726,2.089838,-0.433497,48.836834,0.005997,0.035461,0.997391,-0.030411,0.05488,0.006183,61.295944,19.91806,-147.644684,,,
729605649.779931,2.089838,-0.433497,48.836834,0.005997,0.035461,0.997391,-0.030411,0.05488,0.006183,61.295944,19.91806,-147.644684,,,
729605649.783379,2.081552,-0.41975,48.83926,0.005997,0.035461,0.997391,-0.030411,0.05488,0.006183,61.43486,19.839859,-147.767593,,,
729605649.786789,2.074879,-0.410868,48.841282,0.005676,0.031952,0.983963,-0.020309,0.030675,0.003854,61.43486,19.839859,-147.767593,,,
729605649.790015,2.074879,-0.410868,48.841282,0.005676,0.031952,0.983963,-0.020309,0.030675,0.003854,61.43486,19.839859,-147.767593,,,
729605649.793432,2.069788,-0.40665,48.842196,0.005676,0.031952,0.983963,-0.020309,0.030675,0.003854,61.43486,19.839859,-147.767593,,,
729605649.796575,2.069788,-0.40665,48.842196,0.005676,0.031952,0.983963,-0.020309,0.030675,0.003854,61.43486,19.839859,-147.767593,,,
729605649.80005,2.07125,-0.405876,48.841437,0.001083,0.030899,0.990646,0.007269,0.00406,-0.007355,61.43486,19.839859,-147.767593,,,
729605649.803358,2.077151,-0.411064,48.8387,0.001083,0.030899,0.990646,0.007269,0.00406,-0.007355,61.43486,19.839859,-147.767593,,,
729605649.806688,2.077151,-0.411064,48.834802,0.001083,0.030899,0.990646,0.007269,0.00406,-0.007355,61.43486,19.839859,-147.767593,,,
729605649.810036,2.08713,-0.422284,48.834802,-0.000397,0.030472,1.003662,0.038138,-0.042584,-0.015603,61.43486,19.839859,-147.767593,,,
729605649.813207,2.099224,-0.438498,48.830711,-0.000397,0.030472,1.003662,0.038138,-0.042584,-0.015603,61.43486,19.839859,-147.767593,,,
729605649.816745,2.099224,-0.438498,48.82716,-0.000397,0.030472,1.003662,0.038138,-0.042584,-0.015603,61.43486,19.839859,-147.767593,,,
729605649.820098,2.110759,-0.457447,48.82716,-0.005539,0.026199,0.989639,0.041191,-0.064141,-0.014807,61.43486,19.839859,-147.767593,,,
729605649.823368,2.121769,-0.476056,48.824638,-0.005539,0.026199,0.989639,0.041191,-0.064141,-0.014807,61.43486,19.839859,-147.767593,,,
729605649.826687,2.121769,-0.476056,48.824638,-0.005539,0.026199,0.989639,0.041191,-0.064141,-0.008205,61.431351,19.824493,-147.328491,,,
729605649.829849,2.12885,-0.492446,48.82272,-0.001266,0.031509,0.995392,0.020419,-0.052812,-0.008205,61.431351,19.824493,-147.328491,,,
729605649.833451,2.13392,-0.507469,48.820432,-0.001266,0.031509,0.995392,0.020419,-0.052812,-0.008205,61.431351,19.824493,-147.328491,,,
729605649.836694,2.13392,-0.507469,48.820432,-0.001266,0.031509,0.995392,0.020419,-0.019648,-0.009392,61.431351,19.824493,-147.328491,,,
729605649.84004,2.134109,-0.515817,48.818305,0.007507,0.037674,0.997986,-0.000629,-0.019648,-0.009392,61.431351,19.824493,-147.328491,,,
729605649.843359,2.132518,-0.520002,48.81716,0.007507,0.037674,0.997986,-0.000629,-0.019648,-0.009392,61.431351,19.824493,-147.328491,,,
729605649.846576,2.132518,-0.520002,48.81716,0.007507,0.037674,0.997986,-0.000629,-0.019648,-0.009392,61.431351,19.824493,-147.328491,,,
729605649.85005,2.129448,-0.518597,48.816515,0.010834,0.038345,0.999649,-0.012676,0.0142,-0.00087,61.431351,19.824493,-147.328491,,,
729605649.853375,2.125492,-0.512242,48.816459,0.010834,0.038345,0.999649,-0.012676,0.0142,-0.00087,61.431351,19.824493,-147.328491,,,
729605649.856687,2.125492,-0.512242,48.816459,0.010834,0.038345,0.999649,-0.012676,0.0142,-0.00087,61.431351,19.824493,-147.328491,,,
729605649.860114,2.122032,-0.50233,48.816799,0.013107,0.034378,1.00473,-0.009922,0.041533,0.00069,61.431351,19.824493,-147.328491,,,
729605649.863263,2.118737,-0.489589,48.817721,0.013107,0.034378,1.00473,-0.009922,0.041533,0.00069,61.431351,19.824493,-147.328491,,,
729605649.866754,2.118737,-0.489589,48.817721,0.013107,0.034378,1.00473,-0.009922,0.041533,0.00069,61.515656,19.803146,-147.761948,,,
729605649.870034,2.115144,-0.475474,48.819057,0.00975,0.031677,1.001694,-0.011922,0.055862,0.002825,61.515656,19.803146,-147.761948,,,
729605649.873438,2.110302,-0.45894,48.82038,0.00975,0.031677,1.001694,-0.011922,0.055862,0.002825,61.515656,19.803146,-147.761948,,,
729605649.876744,2.110302,-0.45894,48.82038,0.00975,0.031677,1.001694,-0.011922,0.055862,0.002825,61.515656,19.803146,-147.761948,,,
729605649.879928,2.106998,-0.444279,48.821983,0.007309,0.028961,0.990448,-0.009818,0.051442,0.003551,61.515656,19.803146,-147.761948,,,
729605649.883418,2.103025,-0.431319,48.823423,0.007309,0.028961,0.990448,-0.009818,0.051442,0.003551,61.515656,19.803146,-147.761948,,,
729605649.886716,2.103025,-0.431319,48.823423,0.007309,0.028961,0.990448,-0.009818,0.051442,0.003551,61.515656,19.803146,-147.761948,,,
729605649.890033,2.101635,-0.423749,48.823983,0.002121,0.028275,0.985535,-0.001817,0.025076,-0.001037,61.515656,19.803146,-147.761948,,,
729605649.893379,2.101231,-0.418158,48.823379,0.002121,0.028275,0.985535,-0.001817,0.025076,-0.001037,61.515656,19.803146,-147.761948,,,
729605649.896557,2.101231,-0.418158,48.823379,0.002121,0.028275,0.985535,-0.001817,0.025076,-0.001037,61.515656,19.803146,-147.761948,,,
729605649.900139,2.104419,-0.418302,48.822257,0.003967,0.027618,0.989014,0.01318,-0.000178,-0.006255,61.515656,19.803146,-147.761948,,,
729605649.903357,2.108173,-0.418807,48.820738,0.003967,0.027618,0.989014,0.01318,-0.000178,-0.006255,61.515656,19.803146,-147.761948,,,
729605649.906742,2.108173,-0.418807,48.820738,0.003967,0.027618,0.989014,0.01318,-0.000178,-0.006255,61.577896,19.569138,-147.576553,,,
729605649.910045,2.116256,-0.424778,48.818513,0.003677,0.026566,0.992767,0.028582,-0.020369,-0.012019,61.577896,19.569138,-147.576553,,,
729605649.913272,2.124389,-0.430618,48.814868,0.003677,0.026566,0.992767,0.028582,-0.020369,-0.012019,61.577896,19.569138,-147.576553,,,
729605649.916725,2.124389,-0.430618,48.814868,0.003677,0.026566,0.992767,0.028582,-0.020369,-0.012019,61.577896,19.569138,-147.576553,,,
729605649.920033,2.131737,-0.437211,48.810357,0.007919,0.026825,0.991425,0.024621,-0.020703,-0.017662,61.577896,19.569138,-147.576553,,,
729605649.923379,2.137579,-0.44203,48.805432,0.007919,0.026825,0.991425,0.024621,-0.020703,-0.017662,61.577896,19.569138,-147.576553,,,
729605649.926778,2.137579,-0.44203,48.805432,0.007919,0.026825,0.991425,0.024621,-0.020703,-0.017662,61.577896,19.569138,-147.576553,,,
729605649.92988,2.140651,-0.442769,48.800202,0.011902,0.03006,0.98912,0.011101,0.003154,-0.01835,61.577896,19.569138,-147.576553,,,
729605649.933383,2.141492,-0.440728,48.795337,0.011902,0.03006,0.98912,0.011101,0.003154,-0.01835,61.577896,19.569138,-147.576553,,,
729605649.93674,2.141492,-0.440728,48.795337,0.011902,0.03006,0.98912,0.011101,0.003154,-0.01835,61.577896,19.569138,-147.576553,,,
729605649.940084,2.139917,-0.434573,48.790523,0.015549,0.035095,0.991577,-0.005229,0.02795,-0.019871,61.577896,19.569138,-147.576553,,,
729605649.943367,2.134681,-0.425431,48.78462,0.015549,0.035095,0.991577,-0.005229,0.02795,-0.019871,61.577896,19.569138,-147.576553,,,
729605649.946555,2.134681,-0.425431,48.78462,0.015549,0.035095,0.991577,-0.005229,0.02795,-0.019871,61.473572,19.862808,-147.552094,,,
729605649.950045,2.126807,-0.410818,48.777429,0.017639,0.041611,0.980789,-0.028811,0.055865,-0.027538,61.473572,19.862808,-147.552094,,,
729605649.953406,2.114394,-0.393172,48.770491,0.017639,0.041611,0.980789,-0.028811,0.055865,-0.027538,61.473572,19.862808,-147.552094,,,
729605649.956725,2.114394,-0.393172,48.770491,0.017639,0.041611,0.980789,-0.028811,0.055865,-0.027538,61.473572,19.862808,-147.552094,,,
729605649.960042,2.100218,-0.373265,48.764866,0.007156,0.034698,0.975586,-0.051689,0.0744,-0.020726,61.473572,19.862808,-147.552094,,,
729605649.963222,2.081263,-0.352673,48.760031,0.007156,0.034698,0.975586,-0.051689,0.0744,-0.020726,61.473572,19.862808,-147.552094,,,
729605649.966858,2.081263,-0.352673,48.760031,0.007156,0.034698,0.975586,-0.051689,0.0744,-0.020726,61.473572,19.862808,-147.552094,,,
729605649.970014,2.061452,-0.333492,48.756277,-0.000809,0.030609,0.970444,-0.07038,0.069375,-0.013546,61.473572,19.862808,-147.552094,,,
729605649.973368,2.038453,-0.314795,48.753116,-0.000809,0.030609,0.970444,-0.07038,0.069375,-0.013546,61.473572,19.862808,-147.552094,,,
729605649.976707,2.038453,-0.314795,48.753116,-0.000809,0.030609,0.970444,-0.07038,0.069375,-0.013546,61.473572,19.862808,-147.552094,,,
729605649.979946,2.016784,-0.298378,48.749289,-0.001144,0.028717,0.972244,-0.075042,0.057896,-0.014648,61.473572,19.862808,-147.552094,,,
729605649.983385,1.994498,-0.284347,48.744596,-0.001144,0.028717,0.972244,-0.075042,0.057896,-0.014648,61.473572,19.862808,-147.552094,,,
729605649.986695,1.994498,-0.284347,48.744596,-0.001144,0.028717,0.972244,-0.075042,0.057896,-0.014648,61.473572,19.862808,-147.552094,,,
729605649.990026,1.974199,-0.273811,48.739054,-0.00061,0.024521,0.980667,-0.06874,0.037594,-0.021051,61.593613,20.034103,-147.337372,,,
729605649.993442,1.953281,-0.266607,48.733181,-0.00061,0.024521,0.980667,-0.06874,0.037594,-0.021051,61.593613,20.034103,-147.337372,,,
729605649.99655,1.953281,-0.266607,48.733181,-0.00061,0.024521,0.980667,-0.06874,0.037594,-0.021051,61.593613,20.034103,-147.337372,,,
729605650.000046,1.934337,-0.262397,48.727623,-0.002869,0.021591,0.983231,-0.064302,0.014772,-0.020735,61.593613,20.034103,-147.337372,,,
729605650.003357,1.914651,-0.261046,48.7225,-0.002869,0.021591,0.983231,-0.064302,0.014772,-0.020735,61.593613,20.034103,-147.337372,,,
729605650.006762,1.914651,-0.261046,48.7225,-0.002869,0.021591,0.983231,-0.064302,0.014772,-0.020735,61.593613,20.034103,-147.337372,,,
729605650.010022,1.897073,-0.259076,48.717586,0.002625,0.024521,0.986267,-0.059252,0.009373,-0.018537,61.593613,20.034103,-147.337372,,,
729605650.013245,1.882822,-0.258489,48.712819,0.002625,0.024521,0.986267,-0.059252,0.009373,-0.018537,61.593613,20.034103,-147.337372,,,
729605650.016722,1.882822,-0.258489,48.712819,0.002625,0.024521,0.986267,-0.059252,0.009373,-0.018537,61.593613,20.034103,-147.337372,,,
729605650.020102,1.873823,-0.257496,48.707511,0.013168,0.025467,1.004333,-0.0272,0.005802,-0.0209,61.593613,20.034103,-147.337372,,,
729605650.023374,1.87059,-0.260479,48.702286,0.013168,0.025467,1.004333,-0.0272,0.005802,-0.0209,61.593613,20.034103,-147.337372,,,
729605650.02671,1.87059,-0.260479,48.702286,0.013168,0.025467,1.004333,-0.0272,0.005802,-0.0209,61.593613,20.034103,-147.337372,,,
729605650.029847,1.870132,-0.262463,48.697423,0.019958,0.029083,1.008972,0.003816,-0.007444,-0.020607,61.768234,19.874634,-147.347961,,,
729605650.033399,1.872281,-0.265508,48.692941,0.019958,0.029083,1.008972,0.003816,-0.007444,-0.020607,61.768234,19.874634,-147.347961,,,
729605650.036708,1.872281,-0.265508,48.692941,0.019958,0.029083,1.008972,0.003816,-0.007444,-0.020607,61.768234,19.874634,-147.347961,,,
729605650.040019,1.871424,-0.264282,48.689216,0.012268,0.031052,1.002579,-0.000665,0.007168,-0.012487,61.768234,19.874634,-147.347961,,,
729605650.043414,1.868379,-0.260376,48.68617,0.012268,0.031052,1.002579,-0.000665,0.007168,-0.012487,61.768234,19.874634,-147.347961,,,
729605650.046558,1.868379,-0.260376,48.68617,0.012268,0.031052,1.002579,-0.000665,0.007168,-0.012487,61.768234,19.874634,-147.347961,,,
729605650.050051,1.862708,-0.254707,48.68356,0.010635,0.035507,0.994659,-0.020729,0.026385,-0.010081,61.768234,19.874634,-147.347961,,,
729605650.053356,1.853988,-0.246284,48.680368,0.010635,0.035507,0.994659,-0.020729,0.026385,-0.010081,61.768234,19.874634,-147.347961,,,
729605650.056782,1.853988,-0.246284,48.680368,0.010635,0.035507,0.994659,-0.020729,0.026385,-0.010081,61.768234,19.874634,-147.347961,,,
729605650.060038,1.842451,-0.23786,48.675875,0.020615,0.043243,0.993927,-0.043124,0.035355,-0.017984,61.768234,19.874634,-147.347961,,,
729605650.063222,1.826588,-0.227049,48.670522,0.020615,0.043243,0.993927,-0.043124,0.035355,-0.017984,61.768234,19.874634,-147.347961,,,
729605650.066724,1.826588,-0.227049,48.670522,0.020615,0.043243,0.993927,-0.043124,0.035355,-0.017984,61.768234,19.874634,-147.347961,,,
729605650.070026,1.807662,-0.216183,48.66461,0.018661,0.046631,0.988037,-0.067579,0.040182,-0.02204,61.801498,19.859467,-147.671097,,,
729605650.073379,1.783648,-0.203648,48.657759,0.018661,0.046631,0.988037,-0.067579,0.040182,-0.02204,61.801498,19.859467,-147.671097,,,
729605650.076705,1.783648,-0.203648,48.657759,0.018661,0.046631,0.988037,-0.067579,0.040182,-0.02204,61.801498,19.859467,-147.671097,,,
729605650.07992,1.758372,-0.191264,48.650452,0.013611,0.049316,0.985474,-0.089539,0.047238,-0.026775,61.801498,19.859467,-147.671097,,,
729605650.083393,1.730601,-0.177091,48.643015,0.013611,0.049316,0.985474,-0.089539,0.047238,-0.026775,61.801498,19.859467,-147.671097,,,
729605650.0867,1.730601,-0.177091,48.643015,0.013611,0.049316,0.985474,-0.089539,0.047238,-0.026775,61.801498,19.859467,-147.671097,,,
729605650.090039,1.704375,-0.163438,48.635963,0.007797,0.044907,0.999802,-0.088935,0.051343,-0.024746,61.801498,19.859467,-147.671097,,,
729605650.09343,1.677712,-0.151081,48.630112,0.007797,0.044907,0.999802,-0.088935,0.051343,-0.024746,61.801498,19.859467,-147.671097,,,
729605650.096558,1.677712,-0.151081,48.630112,0.007797,0.044907,0.999802,-0.088935,0.051343,-0.024746,61.801498,19.859467,-147.671097,,,
729605650.100043,1.65284,-0.139802,48.626035,0.001434,0.035965,1.000214,-0.085288,0.03682,-0.013823,61.801498,19.859467,-147.671097,,,
729605650.103363,1.630498,-0.133411,48.623249,0.001434,0.035965,1.000214,-0.085288,0.03682,-0.013823,61.801498,19.859467,-147.671097,,,
