Time (sec),Pitch (deg),Roll (deg),Yaw(deg),X-Acceleration (g),Y-Acceleration (g),Z-Acceleration (g),Pitch Rate (deg/sec),Roll Rate (deg/sec),Yaw Rate (deg/sec),Magnetic Field in X direction (uT),Magnetic Field in Y direction (uT),Magnetic Field in Z Direction (uT),Latitude (deg),Longitude (deg),Altitude (m)
729608163.460871,-0.596782,2.647375,53.147623,-0.026276,0.001907,1.002426,-0.027061,-0.077493,-0.010281,66.891159,23.305405,-149.73822,,,
729608163.464169,-0.603977,2.624205,53.147623,-0.026276,0.001907,1.002426,-0.027061,-0.077493,-0.010281,66.891159,23.305405,-149.73822,,,
729608163.467509,-0.611343,2.602023,53.145743,-0.026276,0.001907,1.002426,-0.027061,-0.077493,-0.010281,66.891159,23.305405,-149.73822,,,
729608163.470907,-0.6156,2.582519,53.144338,-0.033295,-0.009949,1.011826,-0.010754,-0.06261,-0.006731,66.891159,23.305405,-149.73822,,,
729608163.474223,-0.6156,2.582519,53.144338,-0.033295,-0.009949,1.011826,-0.010754,-0.06261,-0.006731,66.891159,23.305405,-149.73822,,,
729608163.477509,-0.618023,2.564147,53.143396,-0.033295,-0.009949,1.011826,-0.010754,-0.06261,-0.006731,66.891159,23.305405,-149.73822,,,
729608163.48084,-0.618023,2.564147,53.143396,-0.033295,-0.009949,1.011826,-0.010754,-0.06261,-0.006731,66.891159,23.305405,-149.73822,,,
729608163.484177,-0.616415,2.5529,53.142969,-0.037643,-0.019363,1.027008,0.017828,-0.027978,0.000512,66.891159,23.305405,-149.73822,,,
729608163.487588,-0.609768,2.544936,53.14353,-0.037643,-0.019363,1.027008,0.017828,-0.027978,0.000512,66.891159,23.305405,-149.73822,,,
729608163.490858,-0.609768,2.544936,53.14353,-0.037643,-0.019363,1.027008,0.017828,-0.027978,0.000512,66.891159,23.305405,-149.73822,,,
729608163.494188,-0.598888,2.544592,53.145122,-0.037766,-0.025162,1.037415,0.048645,0.007673,0.006275,66.891159,23.305405,-149.73822,,,
729608163.497519,-0.584548,2.547654,53.14747,-0.037766,-0.025162,1.037415,0.048645,0.007673,0.006275,66.789963,23.185913,-149.910477,,,
729608163.500935,-0.584548,2.547654,53.14747,-0.037766,-0.025162,1.037415,0.048645,0.007673,0.006275,66.789963,23.185913,-149.910477,,,
729608163.504182,-0.566396,2.557203,53.150447,-0.039703,-0.027039,1.032806,0.058891,0.052367,0.013766,66.789963,23.185913,-149.910477,,,
729608163.507512,-0.549489,2.57286,53.153375,-0.039703,-0.027039,1.032806,0.058891,0.052367,0.013766,66.789963,23.185913,-149.910477,,,
729608163.510867,-0.549489,2.57286,53.153375,-0.039703,-0.027039,1.032806,0.058891,0.052367,0.013766,66.789963,23.185913,-149.910477,,,
729608163.514251,-0.529754,2.591063,53.156469,-0.040359,-0.025055,1.021988,0.054312,0.090739,0.012521,66.789963,23.185913,-149.910477,,,
729608163.517516,-0.514158,2.615767,53.159785,-0.040359,-0.025055,1.021988,0.054312,0.090739,0.012521,66.789963,23.185913,-149.910477,,,
729608163.520936,-0.514158,2.615767,53.159785,-0.040359,-0.025055,1.021988,0.054312,0.090739,0.012521,66.789963,23.185913,-149.910477,,,
729608163.52419,-0.495186,2.636349,53.162838,-0.040253,-0.017685,1.00264,0.043564,0.09358,0.009343,66.789963,23.185913,-149.910477,,,
729608163.527585,-0.48248,2.662816,53.165428,-0.040253,-0.017685,1.00264,0.043564,0.09358,0.009343,66.789963,23.185913,-149.910477,,,
729608163.53084,-0.48248,2.662816,53.165428,-0.040253,-0.017685,1.00264,0.043564,0.09358,0.009343,66.789963,23.185913,-149.910477,,,
729608163.534197,-0.46782,2.682398,53.167354,-0.047577,-0.014008,0.984894,0.033121,0.087923,0.002448,66.789963,23.185913,-149.910477,,,
729608163.537509,-0.459401,2.705127,53.168202,-0.047577,-0.014008,0.984894,0.033121,0.087923,0.002448,66.85878,23.047394,-149.496613,,,
729608163.540924,-0.459401,2.705127,53.168202,-0.047577,-0.014008,0.984894,0.033121,0.087923,0.002448,66.85878,23.047394,-149.496613,,,
729608163.544195,-0.449494,2.716508,53.166844,-0.047623,-0.008057,0.973969,0.022649,0.037454,-0.008509,66.85878,23.047394,-149.496613,,,
729608163.547544,-0.443268,2.724998,53.163135,-0.047623,-0.008057,0.973969,0.022649,0.037454,-0.008509,66.85878,23.047394,-149.496613,,,
729608163.550906,-0.443268,2.724998,53.163135,-0.047623,-0.008057,0.973969,0.022649,0.037454,-0.008509,66.85878,23.047394,-149.496613,,,
729608163.554238,-0.43759,2.722237,53.158069,-0.051727,-0.005753,0.957916,0.012422,-0.015837,-0.017627,66.85878,23.047394,-149.496613,,,
729608163.557498,-0.433978,2.715882,53.152621,-0.051727,-0.005753,0.957916,0.012422,-0.015837,-0.017627,66.85878,23.047394,-149.496613,,,
729608163.560622,-0.433978,2.715882,53.152621,-0.051727,-0.005753,0.957916,0.012422,-0.015837,-0.017627,66.85878,23.047394,-149.496613,,,
729608163.564225,-0.433435,2.703141,53.14709,-0.06041,-0.010727,0.956985,0.002581,-0.044437,-0.018949,66.85878,23.047394,-149.496613,,,
729608163.567504,-0.433868,2.689827,53.142117,-0.06041,-0.010727,0.956985,0.002581,-0.044437,-0.018949,66.85878,23.047394,-149.496613,,,
729608163.570917,-0.433868,2.689827,53.142117,-0.06041,-0.010727,0.956985,0.002581,-0.044437,-0.018949,66.85878,23.047394,-149.496613,,,
729608163.57419,-0.438583,2.675587,53.137824,-0.05899,-0.01651,0.965866,-0.016628,-0.038139,-0.012224,66.85878,23.047394,-149.496613,,,
729608163.577507,-0.444325,2.66515,53.134601,-0.05899,-0.01651,0.965866,-0.016628,-0.038139,-0.012224,66.869354,23.044037,-149.874924,,,
729608163.580966,-0.444325,2.66515,53.134601,-0.05899,-0.01651,0.965866,-0.016628,-0.038139,-0.012224,66.869354,23.044037,-149.874924,,,
729608163.584178,-0.453784,2.657385,53.132701,-0.057755,-0.018372,0.976303,-0.026289,-0.006102,-0.008109,66.869354,23.044037,-149.874924,,,
729608163.587504,-0.462085,2.655691,53.131933,-0.057755,-0.018372,0.976303,-0.026289,-0.006102,-0.008109,66.869354,23.044037,-149.874924,,,
729608163.5909,-0.462085,2.655691,53.131933,-0.057755,-0.018372,0.976303,-0.026289,-0.006102,-0.008109,66.869354,23.044037,-149.874924,,,
729608163.594232,-0.47229,2.658339,53.13266,-0.063828,-0.022217,0.986023,-0.024482,0.029775,0.002188,66.869354,23.044037,-149.874924,,,
729608163.597497,-0.479163,2.667117,53.135329,-0.063828,-0.022217,0.986023,-0.024482,0.029775,0.002188,66.869354,23.044037,-149.874924,,,
729608163.600889,-0.479163,2.667117,53.135329,-0.063828,-0.022217,0.986023,-0.024482,0.029775,0.002188,66.869354,23.044037,-149.874924,,,
729608163.604175,-0.486321,2.678787,53.140041,-0.064697,-0.024841,0.992401,-0.018431,0.053897,0.018237,66.869354,23.044037,-149.874924,,,
729608163.607503,-0.491481,2.693403,53.146609,-0.064697,-0.024841,0.992401,-0.018431,0.053897,0.018237,66.869354,23.044037,-149.874924,,,
729608163.6109,-0.491481,2.693403,53.146609,-0.064697,-0.024841,0.992401,-0.018431,0.053897,0.018237,66.869354,23.044037,-149.874924,,,
729608163.614182,-0.496946,2.708016,53.154334,-0.068405,-0.026978,0.987503,-0.012622,0.054184,0.028511,66.869354,23.044037,-149.874924,,,
729608163.617509,-0.501515,2.722738,53.162975,-0.068405,-0.026978,0.987503,-0.012622,0.054184,0.028511,66.869354,23.044037,-149.874924,,,
729608163.621005,-0.501515,2.722738,53.162975,-0.068405,-0.026978,0.987503,-0.012622,0.054184,0.028511,66.887024,23.376022,-149.997604,,,
729608163.624179,-0.506603,2.737393,53.173088,-0.070816,-0.021881,0.98027,-0.023905,0.049991,0.034454,66.887024,23.376022,-149.997604,,,
729608163.627517,-0.512782,2.750793,53.183964,-0.070816,-0.021881,0.98027,-0.023905,0.049991,0.034454,66.887024,23.376022,-149.997604,,,
729608163.630867,-0.512782,2.750793,53.183964,-0.070816,-0.021881,0.98027,-0.023905,0.049991,0.034454,66.887024,23.376022,-149.997604,,,
729608163.634242,-0.520891,2.762862,53.194958,-0.071106,-0.013779,0.975403,-0.037543,0.039179,0.035579,66.887024,23.376022,-149.997604,,,
729608163.637498,-0.53164,2.772536,53.206124,-0.071106,-0.013779,0.975403,-0.037543,0.039179,0.035579,66.887024,23.376022,-149.997604,,,
729608163.640919,-0.53164,2.772536,53.206124,-0.071106,-0.013779,0.975403,-0.037543,0.039179,0.035579,66.887024,23.376022,-149.997604,,,
729608163.644204,-0.545134,2.780828,53.216928,-0.064835,-0.007187,0.971832,-0.052902,0.014215,0.03325,66.887024,23.376022,-149.997604,,,
729608163.647505,-0.561007,2.783736,53.226956,-0.064835,-0.007187,0.971832,-0.052902,0.014215,0.03325,66.887024,23.376022,-149.997604,,,
729608163.650869,-0.561007,2.783736,53.226956,-0.064835,-0.007187,0.971832,-0.052902,0.014215,0.03325,66.887024,23.376022,-149.997604,,,
729608163.654169,-0.579108,2.785717,53.236703,-0.064438,-0.008408,0.967697,-0.069936,-0.008567,0.028057,66.887024,23.376022,-149.997604,,,
729608163.657507,-0.598284,2.781984,53.246442,-0.064438,-0.008408,0.967697,-0.069936,-0.008567,0.028057,66.887024,23.376022,-149.997604,,,
729608163.660836,-0.598284,2.781984,53.246442,-0.064438,-0.008408,0.967697,-0.069936,-0.008567,0.028057,67.07283,23.139389,-150.116547,,,
729608163.664181,-0.619597,2.776214,53.255811,-0.05983,-0.010422,0.972763,-0.072105,-0.028668,0.029456,67.07283,23.139389,-150.116547,,,
729608163.667503,-0.639651,2.766822,53.264681,-0.05983,-0.010422,0.972763,-0.072105,-0.028668,0.029456,67.07283,23.139389,-150.116547,,,
729608163.670902,-0.639651,2.766822,53.264681,-0.05983,-0.010422,0.972763,-0.072105,-0.028668,0.029456,67.07283,23.139389,-150.116547,,,
729608163.674172,-0.658752,2.757328,53.273448,-0.056137,-0.012039,0.984558,-0.05916,-0.034586,0.029255,67.07283,23.139389,-150.116547,,,
729608163.677505,-0.674839,2.745633,53.28282,-0.056137,-0.012039,0.984558,-0.05916,-0.034586,0.029255,67.07283,23.139389,-150.116547,,,
729608163.68085,-0.674839,2.745633,53.28282,-0.056137,-0.012039,0.984558,-0.05916,-0.034586,0.029255,67.07283,23.139389,-150.116547,,,
729608163.68423,-0.688846,2.734899,53.293067,-0.052368,-0.015839,0.998062,-0.034869,-0.038623,0.03665,67.07283,23.139389,-150.116547,,,
729608163.687494,-0.697402,2.724248,53.303741,-0.052368,-0.015839,0.998062,-0.034869,-0.038623,0.03665,67.07283,23.139389,-150.116547,,,
729608163.690858,-0.697402,2.724248,53.303741,-0.052368,-0.015839,0.998062,-0.034869,-0.038623,0.03665,67.07283,23.139389,-150.116547,,,
729608163.694181,-0.7024,2.718145,53.315523,-0.04776,-0.022964,1.009811,-0.005343,-0.016148,0.041345,67.07283,23.139389,-150.116547,,,
729608163.697522,-0.702891,2.71385,53.328426,-0.04776,-0.022964,1.009811,-0.005343,-0.016148,0.041345,67.07283,23.139389,-150.116547,,,
729608163.70089,-0.702891,2.71385,53.328426,-0.04776,-0.022964,1.009811,-0.005343,-0.016148,0.041345,66.83342,23.336258,-149.643021,,,
729608163.704184,-0.70208,2.716624,53.341024,-0.040298,-0.020111,1.01767,0.010823,0.014896,0.043594,66.83342,23.336258,-149.643021,,,
729608163.707505,-0.699051,2.721977,53.352592,-0.040298,-0.020111,1.01767,0.010823,0.014896,0.043594,66.83342,23.336258,-149.643021,,,
729608163.710945,-0.699051,2.721977,53.352592,-0.040298,-0.020111,1.01767,0.010823,0.014896,0.043594,66.83342,23.336258,-149.643021,,,
729608163.714192,-0.696869,2.737092,53.363591,-0.032639,-0.009521,1.012405,0.007819,0.058046,0.036891,66.83342,23.336258,-149.643021,,,
729608163.71751,-0.694964,2.7536,53.373403,-0.032639,-0.009521,1.012405,0.007819,0.058046,0.036891,66.83342,23.336258,-149.643021,,,
729608163.720864,-0.694964,2.7536,53.373403,-0.032639,-0.009521,1.012405,0.007819,0.058046,0.036891,66.83342,23.336258,-149.643021,,,
729608163.724265,-0.693992,2.776755,53.381214,-0.032593,0.00209,1.007874,0.000632,0.075931,0.022593,66.83342,23.336258,-149.643021,,,
729608163.727497,-0.694507,2.798448,53.387415,-0.032593,0.00209,1.007874,0.000632,0.075931,0.022593,66.83342,23.336258,-149.643021,,,
729608163.730853,-0.694507,2.798448,53.387415,-0.032593,0.00209,1.007874,0.000632,0.075931,0.022593,66.83342,23.336258,-149.643021,,,
729608163.734176,-0.6941,2.825082,53.392583,-0.035614,0.002747,0.996689,0.000108,0.083931,0.015311,66.83342,23.336258,-149.643021,,,
729608163.737507,-0.693816,2.847673,53.396647,-0.035614,0.002747,0.996689,0.000108,0.083931,0.015311,66.83342,23.336258,-149.643021,,,
729608163.740839,-0.693816,2.847673,53.396647,-0.035614,0.002747,0.996689,0.000108,0.083931,0.015311,67.088318,23.473312,-149.513382,,,
729608163.744188,-0.692017,2.870437,53.399827,-0.037048,0.000183,0.993713,0.010236,0.059085,0.008265,67.088318,23.473312,-149.513382,,,
729608163.747509,-0.688789,2.884948,53.40215,-0.037048,0.000183,0.993713,0.010236,0.059085,0.008265,67.088318,23.473312,-149.513382,,,
729608163.750907,-0.688789,2.884948,53.40215,-0.037048,0.000183,0.993713,0.010236,0.059085,0.008265,67.088318,23.473312,-149.513382,,,
729608163.754181,-0.683813,2.895523,53.404097,-0.047882,-0.004761,0.99057,0.022352,0.022891,0.004871,67.088318,23.473312,-149.513382,,,
729608163.75751,-0.677524,2.900105,53.405566,-0.047882,-0.004761,0.99057,0.022352,0.022891,0.004871,67.088318,23.473312,-149.513382,,,
729608163.76086,-0.677524,2.900105,53.405566,-0.047882,-0.004761,0.99057,0.022352,0.022891,0.004871,67.088318,23.473312,-149.513382,,,
729608163.764258,-0.670693,2.902296,53.406305,-0.053818,-0.001633,0.991257,0.026307,0.001589,0.000906,67.088318,23.473312,-149.513382,,,
729608163.767502,-0.663169,2.901691,53.406285,-0.053818,-0.001633,0.991257,0.026307,0.001589,0.000906,67.088318,23.473312,-149.513382,,,
729608163.770859,-0.663169,2.901691,53.406285,-0.053818,-0.001633,0.991257,0.026307,0.001589,0.000906,67.088318,23.473312,-149.513382,,,
729608163.774191,-0.656794,2.898743,53.405409,-0.050949,0.005615,0.995697,0.027592,-0.012523,-0.004434,67.088318,23.473312,-149.513382,,,
729608163.777512,-0.648381,2.894061,53.403612,-0.050949,0.005615,0.995697,0.027592,-0.012523,-0.004434,67.088318,23.473312,-149.513382,,,
729608163.780858,-0.648381,2.894061,53.403612,-0.050949,0.005615,0.995697,0.027592,-0.012523,-0.004434,67.088318,23.473312,-149.513382,,,
729608163.784199,-0.641422,2.886562,53.400403,-0.048065,0.011719,1.001587,0.036178,-0.018248,-0.011967,66.870575,23.463318,-149.717026,,,
729608163.787506,-0.631006,2.881437,53.396503,-0.048065,0.011719,1.001587,0.036178,-0.018248,-0.011967,66.870575,23.463318,-149.717026,,,
729608163.790904,-0.631006,2.881437,53.396503,-0.048065,0.011719,1.001587,0.036178,-0.018248,-0.011967,66.870575,23.463318,-149.717026,,,
729608163.794186,-0.618523,2.875029,53.39266,-0.045776,0.008865,1.01091,0.056377,0.000982,-0.012007,66.870575,23.463318,-149.717026,,,
729608163.797523,-0.603013,2.875258,53.388815,-0.045776,0.008865,1.01091,0.056377,0.000982,-0.012007,66.870575,23.463318,-149.717026,,,
729608163.80086,-0.603013,2.875258,53.388815,-0.045776,0.008865,1.01091,0.056377,0.000982,-0.012007,66.870575,23.463318,-149.717026,,,
729608163.804249,-0.584149,2.874503,53.38471,-0.045029,0.005219,1.022064,0.066384,0.019066,-0.015197,66.870575,23.463318,-149.717026,,,
729608163.807506,-0.565017,2.878816,53.380214,-0.045029,0.005219,1.022064,0.066384,0.019066,-0.015197,66.870575,23.463318,-149.717026,,,
729608163.810855,-0.565017,2.878816,53.380214,-0.045029,0.005219,1.022064,0.066384,0.019066,-0.015197,66.870575,23.463318,-149.717026,,,
729608163.814211,-0.54342,2.880911,53.375148,-0.051163,0.003494,1.017899,0.065529,0.026284,-0.016078,66.870575,23.463318,-149.717026,,,
729608163.817511,-0.525026,2.88771,53.369575,-0.051163,0.003494,1.017899,0.065529,0.026284,-0.016078,66.870575,23.463318,-149.717026,,,
729608163.82086,-0.525026,2.88771,53.369575,-0.051163,0.003494,1.017899,0.065529,0.026284,-0.016078,66.870575,23.463318,-149.717026,,,
729608163.824198,-0.50562,2.892102,53.363527,-0.061996,0.002853,1.012939,0.057515,0.023857,-0.021506,67.208817,23.242844,-149.73407,,,
729608163.827506,-0.490265,2.897346,53.35664,-0.061996,0.002853,1.012939,0.057515,0.023857,-0.021506,67.208817,23.242844,-149.73407,,,
729608163.830934,-0.490265,2.897346,53.35664,-0.061996,0.002853,1.012939,0.057515,0.023857,-0.021506,67.208817,23.242844,-149.73407,,,
729608163.834186,-0.475631,2.897931,53.348419,-0.069336,0.002472,1.008194,0.050301,0.001809,-0.033372,67.208817,23.242844,-149.73407,,,
729608163.837562,-0.462284,2.897126,53.338824,-0.069336,0.002472,1.008194,0.050301,0.001809,-0.033372,67.208817,23.242844,-149.73407,,,
729608163.840845,-0.462284,2.897126,53.338824,-0.069336,0.002472,1.008194,0.050301,0.001809,-0.033372,67.208817,23.242844,-149.73407,,,
729608163.844249,-0.446649,2.893134,53.328265,-0.076065,-0.005936,1.00885,0.061426,-0.02343,-0.034093,67.208817,23.242844,-149.73407,,,
729608163.847498,-0.429274,2.884808,53.317925,-0.076065,-0.005936,1.00885,0.061426,-0.02343,-0.034093,67.208817,23.242844,-149.73407,,,
729608163.850859,-0.429274,2.884808,53.317925,-0.076065,-0.005936,1.00885,0.061426,-0.02343,-0.034093,67.208817,23.242844,-149.73407,,,
729608163.854222,-0.407736,2.873502,53.308294,-0.079193,-0.017365,1.016953,0.080093,-0.045775,-0.026828,67.208817,23.242844,-149.73407,,,
729608163.857499,-0.384897,2.859299,53.300253,-0.079193,-0.017365,1.016953,0.080093,-0.045775,-0.026828,67.208817,23.242844,-149.73407,,,
729608163.86087,-0.384897,2.859299,53.300253,-0.079193,-0.017365,1.016953,0.080093,-0.045775,-0.026828,67.208817,23.242844,-149.73407,,,
729608163.864184,-0.354749,2.844044,53.295284,-0.083755,-0.029556,1.019699,0.111342,-0.050143,-0.002368,67.337296,23.009933,-149.740417,,,
729608163.867527,-0.323395,2.829686,53.293952,-0.083755,-0.029556,1.019699,0.111342,-0.050143,-0.002368,67.337296,23.009933,-149.740417,,,
729608163.870935,-0.323395,2.829686,53.293952,-0.083755,-0.029556,1.019699,0.111342,-0.050143,-0.002368,67.337296,23.009933,-149.740417,,,
729608163.874195,-0.285172,2.8167,53.296669,-0.086563,-0.036224,1.023575,0.130737,-0.032059,0.026603,67.337296,23.009933,-149.740417,,,
729608163.877515,-0.247116,2.807637,53.303388,-0.086563,-0.036224,1.023575,0.130737,-0.032059,0.026603,67.337296,23.009933,-149.740417,,,
729608163.880869,-0.247116,2.807637,53.303388,-0.086563,-0.036224,1.023575,0.130737,-0.032059,0.026603,67.337296,23.009933,-149.740417,,,
729608163.884249,-0.207335,2.801664,53.313415,-0.077255,-0.032547,1.014099,0.127175,-0.000313,0.04958,67.337296,23.009933,-149.740417,,,
729608163.887496,-0.170976,2.802267,53.326276,-0.077255,-0.032547,1.014099,0.127175,-0.000313,0.04958,67.337296,23.009933,-149.740417,,,
729608163.890844,-0.170976,2.802267,53.326276,-0.077255,-0.032547,1.014099,0.127175,-0.000313,0.04958,67.337296,23.009933,-149.740417,,,
729608163.894195,-0.135486,2.808259,53.341132,-0.062561,-0.020493,1.004913,0.106741,0.04017,0.062179,67.337296,23.009933,-149.740417,,,
729608163.897506,-0.104787,2.819385,53.357309,-0.062561,-0.020493,1.004913,0.106741,0.04017,0.062179,67.337296,23.009933,-149.740417,,,
729608163.900865,-0.104787,2.819385,53.357309,-0.062561,-0.020493,1.004913,0.106741,0.04017,0.062179,67.337296,23.009933,-149.740417,,,
729608163.904165,-0.077312,2.835843,53.374386,-0.05188,-0.008835,0.996017,0.082124,0.059832,0.062847,67.087234,22.864883,-149.847488,,,
729608163.907514,-0.054434,2.852428,53.391647,-0.05188,-0.008835,0.996017,0.082124,0.059832,0.062847,67.087234,22.864883,-149.847488,,,
729608163.910899,-0.054434,2.852428,53.391647,-0.05188,-0.008835,0.996017,0.082124,0.059832,0.062847,67.087234,22.864883,-149.847488,,,
729608163.914185,-0.03417,2.872,53.408707,-0.045502,-0.001175,0.983826,0.061204,0.05557,0.063493,67.087234,22.864883,-149.847488,,,
729608163.91751,-0.016693,2.88581,53.425738,-0.045502,-0.001175,0.983826,0.061204,0.05557,0.063493,67.087234,22.864883,-149.847488,,,
729608163.920841,-0.016693,2.88581,53.425738,-0.045502,-0.001175,0.983826,0.061204,0.05557,0.063493,67.087234,22.864883,-149.847488,,,
729608163.924239,-0.00184,2.899898,53.442511,-0.044296,0.001328,0.976501,0.042192,0.0244,0.054031,67.087234,22.864883,-149.847488,,,
729608163.927507,0.009556,2.904329,53.45766,-0.044296,0.001328,0.976501,0.042192,0.0244,0.054031,67.087234,22.864883,-149.847488,,,
729608163.930846,0.009556,2.904329,53.45766,-0.044296,0.001328,0.976501,0.042192,0.0244,0.054031,67.087234,22.864883,-149.847488,,,
729608163.934187,0.015478,2.909391,53.470582,-0.042328,0.002487,0.968704,0.020463,-0.008099,0.035902,67.087234,22.864883,-149.847488,,,
729608163.937511,0.021244,2.905174,53.481381,-0.042328,0.002487,0.968704,0.020463,-0.008099,0.035902,67.087234,22.864883,-149.847488,,,
729608163.940854,0.021244,2.905174,53.481381,-0.042328,0.002487,0.968704,0.020463,-0.008099,0.035902,67.087234,22.864883,-149.847488,,,
729608163.944187,0.019685,2.903936,53.490377,-0.039383,0.006836,0.969986,0.003929,-0.025108,0.02926,67.087234,22.864883,-149.847488,,,
729608163.947505,0.019648,2.894857,53.498959,-0.039383,0.006836,0.969986,0.003929,-0.025108,0.02926,67.144669,22.713791,-149.478546,,,
729608163.950931,0.019648,2.894857,53.498959,-0.039383,0.006836,0.969986,0.003929,-0.025108,0.02926,67.144669,22.713791,-149.478546,,,
729608163.95419,0.010011,2.892265,53.508276,-0.04129,0.002121,0.97435,-0.019286,-0.031774,0.031141,67.144669,22.713791,-149.478546,,,
729608163.957509,0.004294,2.882935,53.518471,-0.04129,0.002121,0.97435,-0.019286,-0.031774,0.031141,67.144669,22.713791,-149.478546,,,
729608163.960856,0.004294,2.882935,53.518471,-0.04129,0.002121,0.97435,-0.019286,-0.031774,0.031141,67.144669,22.713791,-149.478546,,,
729608163.964219,-0.010253,2.881438,53.529807,-0.042999,-0.003784,0.978561,-0.035713,-0.017043,0.039452,67.144669,22.713791,-149.478546,,,
729608163.9675,-0.020738,2.876259,53.542084,-0.042999,-0.003784,0.978561,-0.035713,-0.017043,0.039452,67.144669,22.713791,-149.478546,,,
729608163.970856,-0.020738,2.876259,53.542084,-0.042999,-0.003784,0.978561,-0.035713,-0.017043,0.039452,67.144669,22.713791,-149.478546,,,
729608163.974178,-0.037226,2.876305,53.554209,-0.040573,-0.005341,0.986603,-0.049114,-0.007805,0.038711,67.144669,22.713791,-149.478546,,,
729608163.977507,-0.051351,2.873984,53.565926,-0.040573,-0.005341,0.986603,-0.049114,-0.007805,0.038711,67.144669,22.713791,-149.478546,,,
729608163.98084,-0.051351,2.873984,53.565926,-0.040573,-0.005341,0.986603,-0.049114,-0.007805,0.038711,67.144669,22.713791,-149.478546,,,
729608163.984192,-0.069803,2.874992,53.577213,-0.03624,-0.002609,0.989334,-0.060562,0.010406,0.032714,67.144669,22.713791,-149.478546,,,
729608163.987503,-0.087457,2.876921,53.587907,-0.03624,-0.002609,0.989334,-0.060562,0.010406,0.032714,67.105377,22.801422,-149.645981,,,
729608163.990889,-0.087457,2.876921,53.587907,-0.03624,-0.002609,0.989334,-0.060562,0.010406,0.032714,67.105377,22.801422,-149.645981,,,
729608163.994178,-0.106487,2.879158,53.598493,-0.036331,-0.004547,0.997879,-0.068038,0.010759,0.033335,67.105377,22.801422,-149.645981,,,
729608163.997504,-0.125581,2.881032,53.609243,-0.036331,-0.004547,0.997879,-0.068038,0.010759,0.033335,67.105377,22.801422,-149.645981,,,
729608164.000952,-0.125581,2.881032,53.609243,-0.036331,-0.004547,0.997879,-0.068038,0.010759,0.033335,67.105377,22.801422,-149.645981,,,
729608164.004246,-0.143471,2.880412,53.620307,-0.043381,-0.011871,1.002045,-0.061373,0.000386,0.035888,67.105377,22.801422,-149.645981,,,
729608164.007506,-0.160477,2.880357,53.631781,-0.043381,-0.011871,1.002045,-0.061373,0.000386,0.035888,67.105377,22.801422,-149.645981,,,
729608164.010866,-0.160477,2.880357,53.631781,-0.043381,-0.011871,1.002045,-0.061373,0.000386,0.035888,67.105377,22.801422,-149.645981,,,
729608164.014199,-0.174982,2.87868,53.64361,-0.045807,-0.014404,1.008865,-0.051529,-0.00232,0.037265,67.105377,22.801422,-149.645981,,,
729608164.017513,-0.188793,2.876597,53.655159,-0.045807,-0.014404,1.008865,-0.051529,-0.00232,0.037265,67.105377,22.801422,-149.645981,,,
729608164.020861,-0.188793,2.876597,53.655159,-0.045807,-0.014404,1.008865,-0.051529,-0.00232,0.037265,67.105377,22.801422,-149.645981,,,
729608164.024199,-0.199701,2.870915,53.666055,-0.043976,-0.015137,1.01004,-0.040404,-0.015447,0.033065,67.105377,22.801422,-149.645981,,,
729608164.027515,-0.211233,2.864851,53.676307,-0.043976,-0.015137,1.01004,-0.040404,-0.015447,0.033065,67.049286,22.922989,-149.259491,,,
729608164.030905,-0.211233,2.864851,53.676307,-0.043976,-0.015137,1.01004,-0.040404,-0.015447,0.033065,67.049286,22.922989,-149.259491,,,
729608164.034206,-0.2203,2.855607,53.68603,-0.043686,-0.009109,1.010376,-0.037524,-0.025504,0.028118,67.049286,22.922989,-149.259491,,,
729608164.037514,-0.231124,2.847946,53.695127,-0.043686,-0.009109,1.010376,-0.037524,-0.025504,0.028118,67.049286,22.922989,-149.259491,,,
729608164.040854,-0.231124,2.847946,53.695127,-0.043686,-0.009109,1.010376,-0.037524,-0.025504,0.028118,67.049286,22.922989,-149.259491,,,
729608164.044243,-0.242693,2.839431,53.703663,-0.042755,-0.007202,1.009857,-0.046661,-0.022137,0.024405,67.049286,22.922989,-149.259491,,,
729608164.047507,-0.256372,2.832626,53.711776,-0.042755,-0.007202,1.009857,-0.046661,-0.022137,0.024405,67.049286,22.922989,-149.259491,,,
729608164.050855,-0.256372,2.832626,53.711776,-0.042755,-0.007202,1.009857,-0.046661,-0.022137,0.024405,67.049286,22.922989,-149.259491,,,
729608164.054208,-0.271718,2.823927,53.719499,-0.036652,-0.005249,1.005981,-0.054773,-0.021728,0.022743,67.049286,22.922989,-149.259491,,,
729608164.057512,-0.288136,2.816339,53.727476,-0.036652,-0.005249,1.005981,-0.054773,-0.021728,0.022743,67.049286,22.922989,-149.259491,,,
729608164.060862,-0.288136,2.816339,53.727476,-0.036652,-0.005249,1.005981,-0.054773,-0.021728,0.022743,67.049286,22.922989,-149.259491,,,
729608164.064201,-0.30495,2.806198,53.735064,-0.038208,-0.00499,1.002731,-0.055856,-0.027456,0.020849,67.049286,22.922989,-149.259491,,,
729608164.067516,-0.321612,2.797706,53.74161,-0.038208,-0.00499,1.002731,-0.055856,-0.027456,0.020849,67.049286,22.922989,-149.259491,,,
729608164.070916,-0.321612,2.797706,53.74161,-0.038208,-0.00499,1.002731,-0.055856,-0.027456,0.020849,67.289001,22.854233,-149.311813,,,
729608164.074192,-0.337105,2.785703,53.747569,-0.03566,-0.005447,1.006516,-0.056629,-0.03127,0.012032,67.289001,22.854233,-149.311813,,,
729608164.07758,-0.352578,2.775458,53.752444,-0.03566,-0.005447,1.006516,-0.056629,-0.03127,0.012032,67.289001,22.854233,-149.311813,,,
729608164.080838,-0.352578,2.775458,53.752444,-0.03566,-0.005447,1.006516,-0.056629,-0.03127,0.012032,67.289001,22.854233,-149.311813,,,
729608164.084201,-0.3669,2.76302,53.756326,-0.032349,-0.0047,1.006607,-0.041053,-0.034809,0.007388,67.289001,22.854233,-149.311813,,,
729608164.087514,-0.37864,2.751969,53.760152,-0.032349,-0.0047,1.006607,-0.041053,-0.034809,0.007388,67.289001,22.854233,-149.311813,,,
729608164.090849,-0.37864,2.751969,53.760152,-0.032349,-0.0047,1.006607,-0.041053,-0.034809,0.007388,67.289001,22.854233,-149.311813,,,
729608164.094249,-0.389462,2.740815,53.763817,-0.032318,-0.003983,1.007919,-0.025745,-0.033276,0.008551,67.289001,22.854233,-149.311813,,,
729608164.097506,-0.396432,2.731434,53.767243,-0.032318,-0.003983,1.007919,-0.025745,-0.033276,0.008551,67.289001,22.854233,-149.311813,,,
729608164.100862,-0.396432,2.731434,53.767243,-0.032318,-0.003983,1.007919,-0.025745,-0.033276,0.008551,67.289001,22.854233,-149.311813,,,
729608164.104196,-0.402715,2.722874,53.770728,-0.029022,-0.004929,1.012772,-0.011889,-0.018238,0.012349,67.289001,22.854233,-149.311813,,,
729608164.107512,-0.406569,2.717278,53.775242,-0.029022,-0.004929,1.012772,-0.011889,-0.018238,0.012349,67.289001,22.854233,-149.311813,,,
729608164.110866,-0.406569,2.717278,53.775242,-0.029022,-0.004929,1.012772,-0.011889,-0.018238,0.012349,66.982971,23.005569,-149.40004,,,
729608164.114202,-0.411419,2.713721,53.780368,-0.028305,-0.007034,1.010559,-0.014537,0.000988,0.014665,66.982971,23.005569,-149.40004,,,
729608164.117512,-0.416336,2.714049,53.784981,-0.028305,-0.007034,1.010559,-0.014537,0.000988,0.014665,66.982971,23.005569,-149.40004,,,
729608164.120945,-0.416336,2.714049,53.784981,-0.028305,-0.007034,1.010559,-0.014537,0.000988,0.014665,66.982971,23.005569,-149.40004,,,
729608164.124191,-0.421954,2.716269,53.789488,-0.030884,-0.003586,1.007401,-0.02068,0.018471,0.011967,66.982971,23.005569,-149.40004,,,
729608164.127511,-0.427676,2.72125,53.793974,-0.030884,-0.003586,1.007401,-0.02068,0.018471,0.011967,66.982971,23.005569,-149.40004,,,
729608164.130861,-0.427676,2.72125,53.793974,-0.030884,-0.003586,1.007401,-0.02068,0.018471,0.011967,66.982971,23.005569,-149.40004,,,
729608164.134243,-0.432686,2.724252,53.798075,-0.037476,-0.002396,1.006012,-0.018056,0.017604,0.011538,66.982971,23.005569,-149.40004,,,
729608164.137501,-0.437144,2.72773,53.80208,-0.037476,-0.002396,1.006012,-0.018056,0.017604,0.011538,66.982971,23.005569,-149.40004,,,
729608164.140856,-0.437144,2.72773,53.80208,-0.037476,-0.002396,1.006012,-0.018056,0.017604,0.011538,66.982971,23.005569,-149.40004,,,
729608164.144187,-0.440299,2.727517,53.805816,-0.039749,-0.005417,1.002319,-0.011411,0.0078,0.009487,66.982971,23.005569,-149.40004,,,
729608164.14751,-0.443316,2.728807,53.808153,-0.039749,-0.005417,1.002319,-0.011411,0.0078,0.009487,66.982971,23.005569,-149.40004,,,
729608164.150842,-0.443316,2.728807,53.808153,-0.039749,-0.005417,1.002319,-0.011411,0.0078,0.009487,67.210373,22.878296,-149.600891,,,
729608164.154171,-0.444711,2.725997,53.808688,-0.041199,-0.002396,1.002548,-0.001458,-0.005997,-0.00441,67.210373,22.878296,-149.600891,,,
729608164.157508,-0.444861,2.722155,53.80792,-0.041199,-0.002396,1.002548,-0.001458,-0.005997,-0.00441,67.210373,22.878296,-149.600891,,,
729608164.160914,-0.444861,2.722155,53.80792,-0.041199,-0.002396,1.002548,-0.001458,-0.005997,-0.00441,67.210373,22.878296,-149.600891,,,
729608164.164181,-0.44321,2.711822,53.805855,-0.044022,-0.00177,0.996933,0.006307,-0.033329,-0.009126,67.210373,22.878296,-149.600891,,,
729608164.167509,-0.44201,2.701595,53.803109,-0.044022,-0.00177,0.996933,0.006307,-0.033329,-0.009126,67.210373,22.878296,-149.600891,,,
729608164.170853,-0.44201,2.701595,53.803109,-0.044022,-0.00177,0.996933,0.006307,-0.033329,-0.009126,67.210373,22.878296,-149.600891,,,
729608164.174176,-0.44003,2.686209,53.800454,-0.048264,-0.004303,0.993576,0.005149,-0.046246,-0.010467,67.210373,22.878296,-149.600891,,,
729608164.177507,-0.438241,2.672927,53.798122,-0.048264,-0.004303,0.993576,0.005149,-0.046246,-0.010467,67.210373,22.878296,-149.600891,,,
729608164.180858,-0.438241,2.672927,53.798122,-0.048264,-0.004303,0.993576,0.005149,-0.046246,-0.010467,67.210373,22.878296,-149.600891,,,
729608164.184281,-0.434922,2.655543,53.796242,-0.047974,-0.003281,0.995117,0.011432,-0.04633,-0.003288,67.210373,22.878296,-149.600891,,,
729608164.187514,-0.431272,2.640682,53.795625,-0.047974,-0.003281,0.995117,0.011432,-0.04633,-0.003288,67.210373,22.878296,-149.600891,,,
729608164.190857,-0.431272,2.640682,53.795625,-0.047974,-0.003281,0.995117,0.011432,-0.04633,-0.003288,66.820526,23.093643,-149.324417,,,
729608164.194183,-0.427272,2.62205,53.796029,-0.048492,-0.00766,0.994553,0.012943,-0.043172,0.004433,66.820526,23.093643,-149.324417,,,
729608164.197511,-0.423991,2.609119,53.797682,-0.048492,-0.00766,0.994553,0.012943,-0.043172,0.004433,66.820526,23.093643,-149.324417,,,
729608164.200869,-0.423991,2.609119,53.797682,-0.048492,-0.00766,0.994553,0.012943,-0.043172,0.004433,66.820526,23.093643,-149.324417,,,
729608164.20419,-0.421719,2.597316,53.800597,-0.049576,-0.010345,0.994507,0.001988,-0.016005,0.008384,66.820526,23.093643,-149.324417,,,
729608164.207511,-0.420834,2.593449,53.803978,-0.049576,-0.010345,0.994507,0.001988,-0.016005,0.008384,66.820526,23.093643,-149.324417,,,
729608164.210917,-0.420834,2.593449,53.803978,-0.049576,-0.010345,0.994507,0.001988,-0.016005,0.008384,66.820526,23.093643,-149.324417,,,
729608164.214187,-0.419887,2.590517,53.807681,-0.050705,-0.006409,0.996628,-0.001409,0.009021,0.015221,66.820526,23.093643,-149.324417,,,
729608164.217529,-0.42111,2.592257,53.811971,-0.050705,-0.006409,0.996628,-0.001409,0.009021,0.015221,66.820526,23.093643,-149.324417,,,
729608164.220856,-0.42111,2.592257,53.811971,-0.050705,-0.006409,0.996628,-0.001409,0.009021,0.015221,66.820526,23.093643,-149.324417,,,
729608164.224257,-0.422201,2.593723,53.816738,-0.053268,-0.005905,0.995193,-0.005872,0.012893,0.016273,66.820526,23.093643,-149.324417,,,
729608164.227498,-0.424503,2.596643,53.822372,-0.053268,-0.005905,0.995193,-0.005872,0.012893,0.016273,66.820526,23.093643,-149.324417,,,
729608164.230879,-0.424503,2.596643,53.822372,-0.053268,-0.005905,0.995193,-0.005872,0.012893,0.016273,66.820526,23.093643,-149.324417,,,
729608164.234176,-0.426993,2.597962,53.829084,-0.054489,-0.009201,0.990829,-0.011174,0.007318,0.022041,66.82962,23.132599,-149.471451,,,
729608164.237568,-0.430535,2.598318,53.83633,-0.054489,-0.009201,0.990829,-0.011174,0.007318,0.022041,66.82962,23.132599,-149.471451,,,
729608164.240846,-0.430535,2.598318,53.83633,-0.054489,-0.009201,0.990829,-0.011174,0.007318,0.022041,66.82962,23.132599,-149.471451,,,
729608164.244186,-0.432721,2.594145,53.84374,-0.054596,-0.011185,0.986893,-0.007632,-0.024187,0.024571,66.82962,23.132599,-149.471451,,,
729608164.247507,-0.434843,2.584918,53.851311,-0.054596,-0.011185,0.986893,-0.007632,-0.024187,0.024571,66.82962,23.132599,-149.471451,,,
729608164.250932,-0.434843,2.584918,53.851311,-0.054596,-0.011185,0.986893,-0.007632,-0.024187,0.024571,66.82962,23.132599,-149.471451,,,
729608164.254188,-0.435516,2.570547,53.858508,-0.050827,-0.006729,0.981003,-0.005555,-0.06353,0.021247,66.82962,23.132599,-149.471451,,,
729608164.257526,-0.436807,2.550698,53.864914,-0.050827,-0.006729,0.981003,-0.005555,-0.06353,0.021247,66.82962,23.132599,-149.471451,,,
729608164.260851,-0.436807,2.550698,53.864914,-0.050827,-0.006729,0.981003,-0.005555,-0.06353,0.021247,66.82962,23.132599,-149.471451,,,
729608164.264259,-0.438146,2.52713,53.87076,-0.05069,-0.003189,0.979721,-0.007823,-0.092346,0.017139,66.82962,23.132599,-149.471451,,,
729608164.267556,-0.441338,2.499624,53.876398,-0.05069,-0.003189,0.979721,-0.007823,-0.092346,0.017139,66.82962,23.132599,-149.471451,,,
729608164.270847,-0.441338,2.499624,53.876398,-0.05069,-0.003189,0.979721,-0.007823,-0.092346,0.017139,66.82962,23.132599,-149.471451,,,
729608164.274186,-0.445544,2.47308,53.882162,-0.043854,-0.003845,0.983994,-0.020233,-0.089565,0.02132,66.572327,22.9711,-149.486954,,,
729608164.277602,-0.451629,2.447403,53.888567,-0.043854,-0.003845,0.983994,-0.020233,-0.089565,0.02132,66.572327,22.9711,-149.486954,,,
729608164.280845,-0.451629,2.447403,53.888567,-0.043854,-0.003845,0.983994,-0.020233,-0.089565,0.02132,66.572327,22.9711,-149.486954,,,
729608164.284188,-0.458761,2.424634,53.895946,-0.040436,-0.004227,0.990631,-0.024186,-0.079422,0.02636,66.572327,22.9711,-149.486954,,,
729608164.287527,-0.465507,2.401872,53.904138,-0.040436,-0.004227,0.990631,-0.024186,-0.079422,0.02636,66.572327,22.9711,-149.486954,,,
729608164.290885,-0.465507,2.401872,53.904138,-0.040436,-0.004227,0.990631,-0.024186,-0.079422,0.02636,66.572327,22.9711,-149.486954,,,
729608164.294185,-0.472197,2.383412,53.912475,-0.036697,-0.006744,0.99968,-0.024257,-0.056343,0.024253,66.572327,22.9711,-149.486954,,,
729608164.297547,-0.478951,2.367043,53.920309,-0.036697,-0.006744,0.99968,-0.024257,-0.056343,0.024253,66.572327,22.9711,-149.486954,,,
729608164.300856,-0.478951,2.367043,53.920309,-0.036697,-0.006744,0.99968,-0.024257,-0.056343,0.024253,66.572327,22.9711,-149.486954,,,
729608164.30426,-0.484828,2.35649,53.927645,-0.033127,-0.007645,1.005478,-0.019753,-0.034015,0.020639,66.572327,22.9711,-149.486954,,,
729608164.307513,-0.489682,2.346597,53.934223,-0.033127,-0.007645,1.005478,-0.019753,-0.034015,0.020639,66.572327,22.9711,-149.486954,,,
729608164.310856,-0.489682,2.346597,53.934223,-0.033127,-0.007645,1.005478,-0.019753,-0.034015,0.020639,66.572327,22.9711,-149.486954,,,
729608164.314185,-0.492892,2.341733,53.94025,-0.034271,-0.011566,1.005966,-0.008706,-0.019861,0.016844,66.435501,23.051849,-149.369904,,,
729608164.317575,-0.495852,2.33607,53.94568,-0.034271,-0.011566,1.005966,-0.008706,-0.019861,0.016844,66.435501,23.051849,-149.369904,,,
729608164.320855,-0.495852,2.33607,53.94568,-0.034271,-0.011566,1.005966,-0.008706,-0.019861,0.016844,66.435501,23.051849,-149.369904,,,
729608164.324203,-0.499458,2.335044,53.950902,-0.040359,-0.012802,1.004333,-0.011952,-0.007993,0.016185,66.435501,23.051849,-149.369904,,,
729608164.327624,-0.502917,2.332203,53.955958,-0.040359,-0.012802,1.004333,-0.011952,-0.007993,0.016185,66.435501,23.051849,-149.369904,,,
729608164.3309,-0.502917,2.332203,53.955958,-0.040359,-0.012802,1.004333,-0.011952,-0.007993,0.016185,66.435501,23.051849,-149.369904,,,
729608164.33419,-0.507131,2.332954,53.960816,-0.044449,-0.01178,0.998322,-0.017477,-0.003261,0.016134,66.435501,23.051849,-149.369904,,,
729608164.337548,-0.512344,2.331829,53.965738,-0.044449,-0.01178,0.998322,-0.017477,-0.003261,0.016134,66.435501,23.051849,-149.369904,,,
729608164.340858,-0.512344,2.331829,53.965738,-0.044449,-0.01178,0.998322,-0.017477,-0.003261,0.016134,66.435501,23.051849,-149.369904,,,
729608164.344257,-0.516672,2.332956,53.970888,-0.043839,-0.010544,0.994125,-0.019617,-0.002629,0.016431,66.435501,23.051849,-149.369904,,,
729608164.347551,-0.521647,2.331354,53.975878,-0.043839,-0.010544,0.994125,-0.019617,-0.002629,0.016431,66.435501,23.051849,-149.369904,,,
729608164.350853,-0.521647,2.331354,53.975878,-0.043839,-0.010544,0.994125,-0.019617,-0.002629,0.016431,66.435501,23.051849,-149.369904,,,
729608164.354188,-0.525529,2.330519,53.980323,-0.046768,-0.01088,0.997208,-0.016232,-0.008332,0.01426,66.444412,23.387527,-149.15036,,,
729608164.357608,-0.529767,2.32708,53.984458,-0.046768,-0.01088,0.997208,-0.016232,-0.008332,0.01426,66.444412,23.387527,-149.15036,,,
729608164.360843,-0.529767,2.32708,53.984458,-0.046768,-0.01088,0.997208,-0.016232,-0.008332,0.01426,66.444412,23.387527,-149.15036,,,
729608164.364188,-0.531507,2.322616,53.988771,-0.049911,-0.012039,0.996719,-0.007208,-0.016312,0.014438,66.444412,23.387527,-149.15036,,,
729608164.367527,-0.533368,2.316397,53.993565,-0.049911,-0.012039,0.996719,-0.007208,-0.016312,0.014438,66.444412,23.387527,-149.15036,,,
729608164.370917,-0.533368,2.316397,53.993565,-0.049911,-0.012039,0.996719,-0.007208,-0.016312,0.014438,66.444412,23.387527,-149.15036,,,
729608164.374187,-0.534021,2.30814,53.999035,-0.051025,-0.013687,0.995056,-0.002137,-0.027869,0.019923,66.444412,23.387527,-149.15036,,,
729608164.377528,-0.534021,2.30814,54.005564,-0.051025,-0.013687,0.995056,-0.002137,-0.027869,0.019923,66.444412,23.387527,-149.15036,,,
729608164.380841,-0.534362,2.29883,54.005564,-0.051025,-0.013687,0.995056,-0.002137,-0.027869,0.019923,66.444412,23.387527,-149.15036,,,
729608164.384298,-0.53395,2.287256,54.013446,-0.053619,-0.017151,0.993286,0.002913,-0.036366,0.029268,66.444412,23.387527,-149.15036,,,
729608164.387568,-0.53395,2.287256,54.022131,-0.053619,-0.017151,0.993286,0.002913,-0.036366,0.029268,66.444412,23.387527,-149.15036,,,
729608164.390849,-0.533388,2.27592,54.022131,-0.053619,-0.017151,0.993286,0.002913,-0.036366,0.029268,66.444412,23.387527,-149.15036,,,
729608164.394188,-0.532925,2.262376,54.030608,-0.052917,-0.015976,0.995865,0.000642,-0.038055,0.029256,66.444412,23.387527,-149.15036,,,
729608164.397639,-0.532583,2.251101,54.039134,-0.052917,-0.015976,0.995865,0.000642,-0.038055,0.029256,66.405594,23.397873,-149.357727,,,
729608164.40085,-0.532583,2.251101,54.039134,-0.052917,-0.015976,0.995865,0.000642,-0.038055,0.029256,66.405594,23.397873,-149.357727,,,
729608164.40419,-0.533103,2.240507,54.047653,-0.043625,-0.012482,0.997559,-0.001605,-0.029797,0.026192,66.405594,23.397873,-149.357727,,,
729608164.407526,-0.533103,2.240507,54.047653,-0.043625,-0.012482,0.997559,-0.001605,-0.029797,0.026192,66.405594,23.397873,-149.357727,,,
729608164.410916,-0.533191,2.231181,54.055782,-0.043625,-0.012482,0.997559,-0.001605,-0.029797,0.026192,66.405594,23.397873,-149.357727,,,
729608164.41417,-0.533454,2.223729,54.063982,-0.039581,-0.010086,1.003403,0.000917,-0.024,0.027931,66.405594,23.397873,-149.357727,,,
729608164.417524,-0.533454,2.223729,54.063982,-0.039581,-0.010086,1.003403,0.000917,-0.024,0.027931,66.405594,23.397873,-149.357727,,,
729608164.420858,-0.532528,2.215903,54.072757,-0.039581,-0.010086,1.003403,0.000917,-0.024,0.027931,66.405594,23.397873,-149.357727,,,
729608164.424175,-0.531656,2.210143,54.081976,-0.037399,-0.012497,1.005127,0.004683,-0.018296,0.031755,66.405594,23.397873,-149.357727,,,
729608164.427525,-0.531656,2.210143,54.081976,-0.037399,-0.012497,1.005127,0.004683,-0.018296,0.031755,66.405594,23.397873,-149.357727,,,
729608164.430846,-0.529589,2.204604,54.091879,-0.037399,-0.012497,1.005127,0.004683,-0.018296,0.031755,66.405594,23.397873,-149.357727,,,
729608164.434173,-0.527869,2.202748,54.102577,-0.038757,-0.015137,1.00882,0.003418,-0.003943,0.035965,66.405594,23.397873,-149.357727,,,
729608164.437513,-0.527869,2.202748,54.102577,-0.038757,-0.015137,1.00882,0.003418,-0.003943,0.035965,66.332306,23.405655,-149.341583,,,
729608164.44086,-0.52584,2.201463,54.113208,-0.038757,-0.015137,1.00882,0.003418,-0.003943,0.035965,66.332306,23.405655,-149.341583,,,
729608164.444205,-0.523977,2.203778,54.123322,-0.03537,-0.016357,1.00766,0.006593,0.009086,0.032416,66.332306,23.405655,-149.341583,,,
729608164.447523,-0.523977,2.203778,54.123322,-0.03537,-0.016357,1.00766,0.006593,0.009086,0.032416,66.332306,23.405655,-149.341583,,,
729608164.450943,-0.521785,2.205349,54.133145,-0.03537,-0.016357,1.00766,0.006593,0.009086,0.032416,66.332306,23.405655,-149.341583,,,
729608164.454274,-0.519995,2.21038,54.142539,-0.034851,-0.015762,1.007538,0.009188,0.014642,0.029235,66.332306,23.405655,-149.341583,,,
729608164.457549,-0.519995,2.21038,54.142539,-0.034851,-0.015762,1.007538,0.009188,0.014642,0.029235,66.332306,23.405655,-149.341583,,,
729608164.46087,-0.517249,2.2129,54.151538,-0.034851,-0.015762,1.007538,0.009188,0.014642,0.029235,66.332306,23.405655,-149.341583,,,
729608164.464128,-0.514563,2.217568,54.160399,-0.036469,-0.013489,1.002975,0.017398,0.00503,0.029121,66.332306,23.405655,-149.341583,,,
729608164.467525,-0.514563,2.217568,54.160399,-0.036469,-0.013489,1.002975,0.017398,0.00503,0.029121,66.332306,23.405655,-149.341583,,,
729608164.470878,-0.509208,2.21849,54.168668,-0.036469,-0.013489,1.002975,0.017398,0.00503,0.029121,66.332306,23.405655,-149.341583,,,
729608164.474189,-0.504248,2.221315,54.1766,-0.037445,-0.01442,1.001984,0.022216,0.000412,0.027917,66.332306,23.405655,-149.341583,,,
729608164.477517,-0.504248,2.221315,54.1766,-0.037445,-0.01442,1.001984,0.022216,0.000412,0.027917,66.212036,23.00885,-149.297455,,,
729608164.480869,-0.497544,2.220049,54.184315,-0.037445,-0.01442,1.001984,0.022216,0.000412,0.027917,66.212036,23.00885,-149.297455,,,
729608164.48419,-0.492433,2.219174,54.19113,-0.034317,-0.013763,0.996536,0.017029,-0.01267,0.018355,66.212036,23.00885,-149.297455,,,
729608164.487515,-0.492433,2.219174,54.19113,-0.034317,-0.013763,0.996536,0.017029,-0.01267,0.018355,66.212036,23.00885,-149.297455,,,
729608164.490872,-0.487461,2.214808,54.196251,-0.034317,-0.013763,0.996536,0.017029,-0.01267,0.018355,66.212036,23.00885,-149.297455,,,
729608164.494183,-0.484276,2.209443,54.19969,-0.031403,-0.008057,0.989609,0.007189,-0.015515,0.006011,66.212036,23.00885,-149.297455,,,
729608164.497615,-0.484276,2.209443,54.19969,-0.031403,-0.008057,0.989609,0.007189,-0.015515,0.006011,66.212036,23.00885,-149.297455,,,
729608164.500859,-0.481826,2.203948,54.20172,-0.031403,-0.008057,0.989609,0.007189,-0.015515,0.006011,66.212036,23.00885,-149.297455,,,
729608164.504185,-0.48065,2.198826,54.203127,-0.029526,-0.004837,0.988831,0.00445,-0.014132,0.002384,66.212036,23.00885,-149.297455,,,
729608164.507509,-0.48065,2.198826,54.203127,-0.029526,-0.004837,0.988831,0.00445,-0.014132,0.002384,66.212036,23.00885,-149.297455,,,
729608164.510925,-0.479789,2.19401,54.204331,-0.029526,-0.004837,0.988831,0.00445,-0.014132,0.002384,66.212036,23.00885,-149.297455,,,
729608164.514176,-0.479023,2.188638,54.205506,-0.026871,-0.007675,0.994568,0.011551,-0.018425,0.00368,66.212036,23.00885,-149.297455,,,
729608164.51752,-0.479023,2.188638,54.205506,-0.026871,-0.007675,0.994568,0.011551,-0.018425,0.00368,65.833771,23.386963,-149.415421,,,
729608164.520869,-0.47508,2.182198,54.206577,-0.026871,-0.007675,0.994568,0.011551,-0.018425,0.00368,65.833771,23.386963,-149.415421,,,
729608164.52418,-0.470054,2.174367,54.207492,-0.029129,-0.012543,0.99733,0.031114,-0.022289,0.001774,65.833771,23.386963,-149.415421,,,
729608164.527521,-0.470054,2.174367,54.207492,-0.029129,-0.012543,0.99733,0.031114,-0.022289,0.001774,65.833771,23.386963,-149.415421,,,
729608164.530852,-0.461941,2.167231,54.208596,-0.029129,-0.012543,0.99733,0.031114,-0.022289,0.001774,65.833771,23.386963,-149.415421,,,
729608164.534186,-0.45424,2.159895,54.209822,-0.028763,-0.01329,0.996841,0.035597,-0.026334,0.004885,65.833771,23.386963,-149.415421,,,
729608164.537576,-0.45424,2.159895,54.209822,-0.028763,-0.01329,0.996841,0.035597,-0.026334,0.004885,65.833771,23.386963,-149.415421,,,
729608164.540857,-0.444182,2.150707,54.211306,-0.028763,-0.01329,0.996841,0.035597,-0.026334,0.004885,65.833771,23.386963,-149.415421,,,
729608164.544185,-0.435384,2.142135,54.212289,-0.029266,-0.010254,0.97966,0.031917,-0.002099,0.001045,65.833771,23.386963,-149.415421,,,
729608164.547517,-0.435384,2.142135,54.212289,-0.029266,-0.010254,0.97966,0.031917,-0.002099,0.001045,65.833771,23.386963,-149.415421,,,
729608164.550922,-0.426367,2.142247,54.211692,-0.029266,-0.010254,0.97966,0.031917,-0.002099,0.001045,65.833771,23.386963,-149.415421,,,
729608164.554178,-0.420483,2.146518,54.209661,-0.023209,0.001373,1.007416,0.019591,0.012647,-0.007424,65.833771,23.386963,-149.415421,,,
729608164.557528,-0.420483,2.146518,54.209661,-0.023209,0.001373,1.007416,0.019591,0.012647,-0.007424,65.833771,23.386963,-149.415421,,,
729608164.560865,-0.414802,2.148379,54.207868,-0.023209,0.001373,1.007416,0.019591,0.012647,-0.007424,66.232941,23.285416,-149.511856,,,
729608164.564178,-0.411642,2.147193,54.207166,-0.025452,-0.003098,0.984512,0.012039,0.000709,-0.00274,66.232941,23.285416,-149.511856,,,
729608164.567531,-0.411642,2.147193,54.207166,-0.025452,-0.003098,0.984512,0.012039,0.000709,-0.00274,66.232941,23.285416,-149.511856,,,
729608164.570891,-0.409817,2.147645,54.207377,-0.025452,-0.003098,0.984512,0.012039,0.000709,-0.00274,66.232941,23.285416,-149.511856,,,
729608164.574179,-0.412349,2.150036,54.207454,-0.037949,-0.00766,0.98819,-0.016356,0.01923,-0.00669,66.232941,23.285416,-149.511856,,,
729608164.577591,-0.412349,2.150036,54.207454,-0.037949,-0.00766,0.98819,-0.016356,0.01923,-0.00669,66.232941,23.285416,-149.511856,,,
729608164.580855,-0.416993,2.152914,54.20569,-0.037949,-0.00766,0.98819,-0.016356,0.01923,-0.00669,66.232941,23.285416,-149.511856,,,
729608164.584185,-0.42275,2.1502,54.202638,-0.033218,0.001266,0.986404,-0.023246,-0.014776,-0.012782,66.232941,23.285416,-149.511856,,,
729608164.587526,-0.42275,2.1502,54.202638,-0.033218,0.001266,0.986404,-0.023246,-0.014776,-0.012782,66.232941,23.285416,-149.511856,,,
729608164.590911,-0.429805,2.144425,54.199647,-0.033218,0.001266,0.986404,-0.023246,-0.014776,-0.012782,66.232941,23.285416,-149.511856,,,
729608164.594178,-0.437482,2.134664,54.196063,-0.038498,0.003586,0.977951,-0.030021,-0.022931,-0.019101,66.232941,23.285416,-149.511856,,,
729608164.597529,-0.437482,2.134664,54.196063,-0.038498,0.003586,0.977951,-0.030021,-0.022931,-0.019101,66.232941,23.285416,-149.511856,,,
729608164.600864,-0.446202,2.126733,54.191723,-0.038498,0.003586,0.977951,-0.030021,-0.022931,-0.019101,66.190414,23.177551,-149.658905,,,
729608164.604182,-0.455483,2.116292,54.186476,-0.041763,0.000854,0.989594,-0.030822,-0.033276,-0.025292,66.190414,23.177551,-149.658905,,,
729608164.607609,-0.455483,2.116292,54.186476,-0.041763,0.000854,0.989594,-0.030822,-0.033276,-0.025292,66.190414,23.177551,-149.658905,,,
729608164.610852,-0.463387,2.105242,54.179937,-0.041763,0.000854,0.989594,-0.030822,-0.033276,-0.025292,66.190414,23.177551,-149.658905,,,
729608164.614183,-0.472372,2.089657,54.172925,-0.034424,-0.00209,0.986969,-0.02715,-0.0483,-0.028394,66.190414,23.177551,-149.658905,,,
729608164.617416,-0.472372,2.089657,54.172925,-0.034424,-0.00209,0.986969,-0.02715,-0.0483,-0.028394,66.190414,23.177551,-149.658905,,,
729608164.620869,-0.481224,2.075024,54.166354,-0.034424,-0.00209,0.986969,-0.02715,-0.0483,-0.028394,66.190414,23.177551,-149.658905,,,
729608164.624176,-0.490488,2.060347,54.160407,-0.040298,-0.005981,0.989151,-0.025371,-0.038136,-0.021533,66.190414,23.177551,-149.658905,,,
729608164.627555,-0.490488,2.060347,54.160407,-0.040298,-0.005981,0.989151,-0.025371,-0.038136,-0.021533,66.190414,23.177551,-149.658905,,,
729608164.630919,-0.498155,2.049157,54.154819,-0.040298,-0.005981,0.989151,-0.025371,-0.038136,-0.021533,66.190414,23.177551,-149.658905,,,
729608164.634189,-0.503859,2.038091,54.150574,-0.041061,-0.00679,0.998962,-0.016058,-0.025904,-0.010944,66.190414,23.177551,-149.658905,,,
729608164.637531,-0.503859,2.038091,54.150574,-0.041061,-0.00679,0.998962,-0.016058,-0.025904,-0.010944,66.190414,23.177551,-149.658905,,,
729608164.64088,-0.50879,2.030153,54.148286,-0.041061,-0.00679,0.998962,-0.016058,-0.025904,-0.010944,65.986221,23.312271,-149.518066,,,
729608164.644178,-0.510295,2.019651,54.147781,-0.043259,-0.010269,1.001892,-0.009118,-0.021453,0.003208,65.986221,23.312271,-149.518066,,,
729608164.64753,-0.510295,2.019651,54.147781,-0.043259,-0.010269,1.001892,-0.009118,-0.021453,0.003208,65.986221,23.312271,-149.518066,,,
729608164.650859,-0.51237,2.013439,54.149745,-0.043259,-0.010269,1.001892,-0.009118,-0.021453,0.003208,65.986221,23.312271,-149.518066,,,
729608164.654178,-0.513211,2.009372,54.154158,-0.049988,-0.019257,1.001266,0.001137,-0.005424,0.016101,65.986221,23.312271,-149.518066,,,
729608164.65752,-0.513211,2.009372,54.154158,-0.049988,-0.019257,1.001266,0.001137,-0.005424,0.016101,65.986221,23.312271,-149.518066,,,
729608164.660854,-0.51335,2.007466,54.159479,-0.049988,-0.019257,1.001266,0.001137,-0.005424,0.016101,65.986221,23.312271,-149.518066,,,
729608164.664177,-0.511661,2.008008,54.164932,-0.043335,-0.014954,1.008118,0.000712,0.011352,0.018459,65.986221,23.312271,-149.518066,,,
729608164.667599,-0.511661,2.008008,54.164932,-0.043335,-0.014954,1.008118,0.000712,0.011352,0.018459,65.986221,23.312271,-149.518066,,,
729608164.67086,-0.510843,2.010534,54.169773,-0.043335,-0.014954,1.008118,0.000712,0.011352,0.018459,65.986221,23.312271,-149.518066,,,
729608164.674185,-0.50688,2.013809,54.174393,-0.041824,-0.009888,1.005463,0.00568,0.013593,0.014777,65.986221,23.312271,-149.518066,,,
729608164.677527,-0.50688,2.013809,54.174393,-0.041824,-0.009888,1.005463,0.00568,0.013593,0.014777,65.986221,23.312271,-149.518066,,,
729608164.680908,-0.504403,2.016835,54.179201,-0.041824,-0.009888,1.005463,0.00568,0.013593,0.014777,66.037399,23.364868,-149.527756,,,
729608164.684221,-0.500188,2.021783,54.183384,-0.04303,-0.007874,1.000488,0.007683,0.015746,0.013962,66.037399,23.364868,-149.527756,,,
729608164.687515,-0.500188,2.021783,54.183384,-0.04303,-0.007874,1.000488,0.007683,0.015746,0.013962,66.037399,23.364868,-149.527756,,,
729608164.690933,-0.497405,2.025266,54.187044,-0.04303,-0.007874,1.000488,0.007683,0.015746,0.013962,66.037399,23.364868,-149.527756,,,
729608164.694179,-0.49276,2.028737,54.190733,-0.03894,-0.009933,1.001862,0.013755,0.011659,0.009632,66.037399,23.364868,-149.527756,,,
729608164.697534,-0.49276,2.028737,54.190733,-0.03894,-0.009933,1.001862,0.013755,0.011659,0.009632,66.037399,23.364868,-149.527756,,,
729608164.700869,-0.489115,2.030422,54.194054,-0.03894,-0.009933,1.001862,0.013755,0.011659,0.009632,66.037399,23.364868,-149.527756,,,
729608164.704203,-0.484205,2.030769,54.196319,-0.033005,-0.008759,0.997147,0.015155,0.001195,0.007723,66.037399,23.364868,-149.527756,,,
729608164.70752,-0.484205,2.030769,54.196319,-0.033005,-0.008759,0.997147,0.015155,0.001195,0.007723,66.037399,23.364868,-149.527756,,,
729608164.710876,-0.480123,2.029389,54.198415,-0.033005,-0.008759,0.997147,0.015155,0.001195,0.007723,66.037399,23.364868,-149.527756,,,
729608164.714184,-0.475991,2.028505,54.200737,-0.036819,-0.004974,0.994217,0.01514,-0.008504,0.00564,66.037399,23.364868,-149.527756,,,
729608164.717572,-0.475991,2.028505,54.200737,-0.036819,-0.004974,0.994217,0.01514,-0.008504,0.00564,66.037399,23.364868,-149.527756,,,
729608164.720857,-0.472056,2.025101,54.203176,-0.036819,-0.004974,0.994217,0.01514,-0.008504,0.00564,66.037399,23.364868,-149.527756,,,
729608164.724199,-0.468245,2.021394,54.205107,-0.033783,-0.002289,0.993698,0.015219,-0.017035,0.003373,66.122223,23.292725,-149.289078,,,
729608164.727531,-0.468245,2.021394,54.205107,-0.033783,-0.002289,0.993698,0.015219,-0.017035,0.003373,66.122223,23.292725,-149.289078,,,
729608164.730947,-0.464547,2.0158,54.205916,-0.033783,-0.002289,0.993698,0.015219,-0.017035,0.003373,66.122223,23.292725,-149.289078,,,
729608164.734176,-0.462482,2.012605,54.205781,-0.027298,-0.000809,0.994293,0.014949,-0.017861,-0.003604,66.122223,23.292725,-149.289078,,,
729608164.737528,-0.462482,2.012605,54.205781,-0.027298,-0.000809,0.994293,0.014949,-0.017861,-0.003604,66.122223,23.292725,-149.289078,,,
729608164.740863,-0.458668,2.006696,54.204737,-0.027298,-0.000809,0.994293,0.014949,-0.017861,-0.003604,66.122223,23.292725,-149.289078,,,
729608164.744186,-0.457151,2.004315,54.203301,-0.03009,-0.005005,0.997269,0.010779,-0.012693,-0.004742,66.122223,23.292725,-149.289078,,,
729608164.747523,-0.457151,2.004315,54.203301,-0.03009,-0.005005,0.997269,0.010779,-0.012693,-0.004742,66.122223,23.292725,-149.289078,,,
729608164.750865,-0.455114,2.000864,54.202007,-0.03009,-0.005005,0.997269,0.010779,-0.012693,-0.004742,66.122223,23.292725,-149.289078,,,
729608164.754183,-0.455436,2.000663,54.201168,-0.033005,-0.006866,0.997467,-0.00253,0.003548,-0.001499,66.122223,23.292725,-149.289078,,,
729608164.757579,-0.455436,2.000663,54.201168,-0.033005,-0.006866,0.997467,-0.00253,0.003548,-0.001499,66.122223,23.292725,-149.289078,,,
729608164.760854,-0.456337,2.001202,54.201229,-0.033005,-0.006866,0.997467,-0.00253,0.003548,-0.001499,66.122223,23.292725,-149.289078,,,
729608164.764187,-0.457821,2.004938,54.202043,-0.035507,-0.006973,0.99852,-0.007029,0.013018,0.002847,66.143539,23.40361,-149.575272,,,
729608164.767527,-0.457821,2.004938,54.202043,-0.035507,-0.006973,0.99852,-0.007029,0.013018,0.002847,66.143539,23.40361,-149.575272,,,
729608164.770914,-0.45944,2.007405,54.203382,-0.035507,-0.006973,0.99852,-0.007029,0.013018,0.002847,66.143539,23.40361,-149.575272,,,
729608164.774177,-0.460968,2.009784,54.205297,-0.039978,-0.009262,1.000198,0.000146,0.0011,0.004776,66.143539,23.40361,-149.575272,,,
729608164.777526,-0.460968,2.009784,54.205297,-0.039978,-0.009262,1.000198,0.000146,0.0011,0.004776,66.143539,23.40361,-149.575272,,,
729608164.780861,-0.461303,2.008935,54.207036,-0.039978,-0.009262,1.000198,0.000146,0.0011,0.004776,66.143539,23.40361,-149.575272,,,
729608164.784184,-0.460542,2.0056,54.208989,-0.044479,-0.01236,1.00209,0.007591,-0.014706,0.00621,66.143539,23.40361,-149.575272,,,
729608164.787525,-0.460542,2.0056,54.208989,-0.044479,-0.01236,1.00209,0.007591,-0.014706,0.00621,66.143539,23.40361,-149.575272,,,
729608164.790866,-0.458019,2.000159,54.211988,-0.044479,-0.01236,1.00209,0.007591,-0.014706,0.00621,66.143539,23.40361,-149.575272,,,
729608164.794179,-0.45384,1.992404,54.216006,-0.046646,-0.015961,1.000366,0.016436,-0.029989,0.015156,66.143539,23.40361,-149.575272,,,
729608164.797589,-0.45384,1.992404,54.216006,-0.046646,-0.015961,1.000366,0.016436,-0.029989,0.015156,66.143539,23.40361,-149.575272,,,
729608164.800852,-0.448566,1.982444,54.220991,-0.046646,-0.015961,1.000366,0.016436,-0.029989,0.015156,66.143539,23.40361,-149.575272,,,
729608164.804187,-0.44129,1.971909,54.226876,-0.043015,-0.016388,1.002228,0.025971,-0.036092,0.023005,66.054092,23.272888,-149.354324,,,
729608164.807527,-0.44129,1.971909,54.226876,-0.043015,-0.016388,1.002228,0.025971,-0.036092,0.023005,66.054092,23.272888,-149.354324,,,
729608164.810912,-0.434221,1.961276,54.232916,-0.043015,-0.016388,1.002228,0.025971,-0.036092,0.023005,66.054092,23.272888,-149.354324,,,
729608164.814174,-0.426376,1.951986,54.238767,-0.031891,-0.01593,1.004684,0.020304,-0.013823,0.018137,66.054092,23.272888,-149.354324,,,
729608164.81752,-0.426376,1.951986,54.238767,-0.031891,-0.01593,1.004684,0.020304,-0.013823,0.018137,66.054092,23.272888,-149.354324,,,
729608164.820859,-0.420435,1.947563,54.244279,-0.031891,-0.01593,1.004684,0.020304,-0.013823,0.018137,66.054092,23.272888,-149.354324,,,
729608164.824181,-0.41591,1.945806,54.249449,-0.023926,-0.009338,1.001724,0.004718,0.009601,0.01588,66.054092,23.272888,-149.354324,,,
729608164.827518,-0.41591,1.945806,54.249449,-0.023926,-0.009338,1.001724,0.004718,0.009601,0.01588,66.054092,23.272888,-149.354324,,,
729608164.83086,-0.414839,1.947545,54.254301,-0.023926,-0.009338,1.001724,0.004718,0.009601,0.01588,66.054092,23.272888,-149.354324,,,
729608164.834175,-0.415552,1.950245,54.258544,-0.023178,-0.001663,0.995026,-0.004965,0.019197,0.013019,66.054092,23.272888,-149.354324,,,
729608164.837572,-0.415552,1.950245,54.258544,-0.023178,-0.001663,0.995026,-0.004965,0.019197,0.013019,66.054092,23.272888,-149.354324,,,
729608164.84084,-0.417886,1.954204,54.262264,-0.023178,-0.001663,0.995026,-0.004965,0.019197,0.013019,66.054092,23.272888,-149.354324,,,
729608164.844196,-0.421755,1.957906,54.264898,-0.023788,-0.002426,0.992676,-0.015381,0.016314,0.004935,66.171234,23.235016,-149.208817,,,
729608164.847535,-0.421755,1.957906,54.264898,-0.023788,-0.002426,0.992676,-0.015381,0.016314,0.004935,66.171234,23.235016,-149.208817,,,
729608164.850919,-0.426515,1.960503,54.266475,-0.023788,-0.002426,0.992676,-0.015381,0.016314,0.004935,66.171234,23.235016,-149.208817,,,
729608164.85418,-0.430813,1.962027,54.267618,-0.028976,-0.00444,0.990662,-0.009237,-0.004005,-0.001176,66.171234,23.235016,-149.208817,,,
729608164.857523,-0.430813,1.962027,54.267618,-0.028976,-0.00444,0.990662,-0.009237,-0.004005,-0.001176,66.171234,23.235016,-149.208817,,,
729608164.860877,-0.434008,1.95918,54.268606,-0.028976,-0.00444,0.990662,-0.009237,-0.004005,-0.001176,66.171234,23.235016,-149.208817,,,
729608164.864179,-0.436351,1.95373,54.269365,-0.034042,-0.010132,0.990814,3.1e-05,-0.031832,-0.000722,66.171234,23.235016,-149.208817,,,
729608164.867529,-0.436351,1.95373,54.269365,-0.034042,-0.010132,0.990814,3.1e-05,-0.031832,-0.000722,66.171234,23.235016,-149.208817,,,
729608164.870861,-0.435786,1.943405,54.269946,-0.034042,-0.010132,0.990814,3.1e-05,-0.031832,-0.000722,66.171234,23.235016,-149.208817,,,
729608164.874188,-0.434943,1.93524,54.270226,-0.03093,-0.010574,0.993515,0.009407,-0.02918,-0.000972,66.171234,23.235016,-149.208817,,,
729608164.877591,-0.434943,1.93524,54.270226,-0.03093,-0.010574,0.993515,0.009407,-0.02918,-0.000972,66.171234,23.235016,-149.208817,,,
729608164.880862,-0.432996,1.925877,54.269622,-0.03093,-0.010574,0.993515,0.009407,-0.02918,-0.000972,66.171234,23.235016,-149.208817,,,
729608164.884185,-0.433393,1.920557,54.26854,-0.024429,-0.007584,0.996719,0.002943,-0.016518,-0.005901,66.171234,23.235016,-149.208817,,,
729608164.887535,-0.433393,1.920557,54.26854,-0.024429,-0.007584,0.996719,0.002943,-0.016518,-0.005901,66.068726,23.121475,-149.516586,,,
729608164.890929,-0.433399,1.914879,54.267232,-0.024429,-0.007584,0.996719,0.002943,-0.016518,-0.005901,66.068726,23.121475,-149.516586,,,
729608164.894171,-0.43584,1.911234,54.266018,-0.0242,-0.007294,0.995148,-0.003487,-0.009212,-0.004588,66.068726,23.121475,-149.516586,,,
729608164.897531,-0.43584,1.911234,54.266018,-0.0242,-0.007294,0.995148,-0.003487,-0.009212,-0.004588,66.068726,23.121475,-149.516586,,,
729608164.900916,-0.43688,1.908853,54.265231,-0.0242,-0.007294,0.995148,-0.003487,-0.009212,-0.004588,66.068726,23.121475,-149.516586,,,
729608164.904174,-0.438341,1.906289,54.264407,-0.025085,-0.010086,0.997635,0.001469,0.001761,-0.005883,66.068726,23.121475,-149.516586,,,
729608164.907576,-0.438341,1.906289,54.264407,-0.025085,-0.010086,0.997635,0.001469,0.001761,-0.005883,66.068726,23.121475,-149.516586,,,
729608164.910867,-0.43856,1.906351,54.263168,-0.025085,-0.010086,0.997635,0.001469,0.001761,-0.005883,66.068726,23.121475,-149.516586,,,
