Time (sec),Pitch (deg),Roll (deg),Yaw(deg),X-Acceleration (g),Y-Acceleration (g),Z-Acceleration (g),Pitch Rate (deg/sec),Roll Rate (deg/sec),Yaw Rate (deg/sec),Magnetic Field in X direction (uT),Magnetic Field in Y direction (uT),Magnetic Field in Z Direction (uT),Latitude (deg),Longitude (deg),Altitude (m)
729600894.332645,-0.149668,-0.790754,2.295613,0.031815,0.003571,0.997314,0.028579,0.030574,-0.020418,65.228714,11.335403,-147.106323,,,
729600894.335989,-0.142035,-0.78086,2.290714,0.031815,0.003571,0.997314,0.028579,0.030574,-0.020418,65.228714,11.335403,-147.106323,,,
729600894.339315,-0.142035,-0.78086,2.290714,0.031815,0.003571,0.997314,0.028579,0.030574,-0.020418,65.228714,11.335403,-147.106323,,,
729600894.342653,-0.133149,-0.769252,2.286554,0.027313,-0.001328,0.992004,0.029509,0.053344,-0.015209,65.228714,11.335403,-147.106323,,,
729600894.34603,-0.124389,-0.752742,2.283101,0.027313,-0.001328,0.992004,0.029509,0.053344,-0.015209,65.228714,11.335403,-147.106323,,,
729600894.349316,-0.124389,-0.752742,2.283101,0.027313,-0.001328,0.992004,0.029509,0.053344,-0.015209,65.42627,11.123138,-147.46524,,,
729600894.352651,-0.114459,-0.734992,2.280828,0.028122,-0.003204,0.988876,0.032047,0.078929,-0.006977,65.42627,11.123138,-147.46524,,,
729600894.355986,-0.105551,-0.71186,2.279145,0.028122,-0.003204,0.988876,0.032047,0.078929,-0.006977,65.42627,11.123138,-147.46524,,,
729600894.35937,-0.105551,-0.71186,2.279145,0.028122,-0.003204,0.988876,0.032047,0.078929,-0.006977,65.42627,11.123138,-147.46524,,,
729600894.36271,-0.096348,-0.688673,2.277493,0.028366,-0.003525,0.982452,0.03094,0.095578,-0.006673,65.42627,11.123138,-147.46524,,,
729600894.365985,-0.088232,-0.661864,2.275709,0.028366,-0.003525,0.982452,0.03094,0.095578,-0.006673,65.42627,11.123138,-147.46524,,,
729600894.369341,-0.088232,-0.661864,2.275709,0.028366,-0.003525,0.982452,0.03094,0.095578,-0.006673,65.42627,11.123138,-147.46524,,,
729600894.37275,-0.080974,-0.63675,2.27272,0.025711,-0.00293,0.975906,0.020939,0.098235,-0.014899,65.42627,11.123138,-147.46524,,,
729600894.376006,-0.07574,-0.610926,2.268593,0.025711,-0.00293,0.975906,0.020939,0.098235,-0.014899,65.42627,11.123138,-147.46524,,,
729600894.379416,-0.07574,-0.610926,2.268593,0.025711,-0.00293,0.975906,0.020939,0.098235,-0.014899,65.42627,11.123138,-147.46524,,,
729600894.382651,-0.070757,-0.591973,2.263937,0.024551,0.001617,0.966705,0.008738,0.075888,-0.018406,65.42627,11.123138,-147.46524,,,
729600894.386116,-0.069378,-0.572756,2.258057,0.024551,0.001617,0.966705,0.008738,0.075888,-0.018406,65.42627,11.123138,-147.46524,,,
729600894.38934,-0.069378,-0.572756,2.258057,0.024551,0.001617,0.966705,0.008738,0.075888,-0.018406,65.738144,11.0439,-147.165878,,,
729600894.392677,-0.068276,-0.561588,2.250762,0.020203,0.001511,0.95993,-0.004246,0.054169,-0.028144,65.738144,11.0439,-147.165878,,,
729600894.396108,-0.071125,-0.548225,2.242414,0.020203,0.001511,0.95993,-0.004246,0.054169,-0.028144,65.738144,11.0439,-147.165878,,,
729600894.39933,-0.071125,-0.548225,2.242414,0.020203,0.001511,0.95993,-0.004246,0.054169,-0.028144,65.738144,11.0439,-147.165878,,,
729600894.402662,-0.076346,-0.541718,2.233114,0.02124,0.0047,0.957458,-0.029206,0.035183,-0.034537,65.738144,11.0439,-147.165878,,,
729600894.406091,-0.08686,-0.533828,2.223477,0.02124,0.0047,0.957458,-0.029206,0.035183,-0.034537,65.738144,11.0439,-147.165878,,,
729600894.409381,-0.08686,-0.533828,2.223477,0.02124,0.0047,0.957458,-0.029206,0.035183,-0.034537,65.738144,11.0439,-147.165878,,,
729600894.412725,-0.100124,-0.531475,2.214275,0.015503,0.008057,0.954773,-0.051435,0.016777,-0.031301,65.738144,11.0439,-147.165878,,,
729600894.416007,-0.116266,-0.527781,2.205826,0.015503,0.008057,0.954773,-0.051435,0.016777,-0.031301,65.738144,11.0439,-147.165878,,,
729600894.419345,-0.116266,-0.527781,2.205826,0.015503,0.008057,0.954773,-0.051435,0.016777,-0.031301,65.738144,11.0439,-147.165878,,,
729600894.422737,-0.134256,-0.525586,2.198074,0.006943,0.007294,0.96048,-0.06375,0.02172,-0.026309,65.738144,11.0439,-147.165878,,,
729600894.425986,-0.153309,-0.519712,2.192047,0.006943,0.007294,0.96048,-0.06375,0.02172,-0.026309,65.738144,11.0439,-147.165878,,,
729600894.42935,-0.153309,-0.519712,2.192047,0.006943,0.007294,0.96048,-0.06375,0.02172,-0.026309,65.788498,11.437881,-147.67926,,,
729600894.432681,-0.173416,-0.515307,2.188197,0.007767,0.007431,0.976746,-0.070619,0.027055,-0.011044,65.788498,11.437881,-147.67926,,,
729600894.436074,-0.193832,-0.509366,2.186172,0.007767,0.007431,0.976746,-0.070619,0.027055,-0.011044,65.788498,11.437881,-147.67926,,,
729600894.439337,-0.193832,-0.509366,2.186172,0.007767,0.007431,0.976746,-0.070619,0.027055,-0.011044,65.788498,11.437881,-147.67926,,,
729600894.442666,-0.214863,-0.50625,2.186284,0.002792,0.006348,0.979919,-0.074498,0.021597,0.00392,65.788498,11.437881,-147.67926,,,
729600894.446013,-0.236946,-0.501825,2.188285,0.002792,0.006348,0.979919,-0.074498,0.021597,0.00392,65.788498,11.437881,-147.67926,,,
729600894.449408,-0.236946,-0.501825,2.188285,0.002792,0.006348,0.979919,-0.074498,0.021597,0.00392,65.788498,11.437881,-147.67926,,,
729600894.452649,-0.259241,-0.500833,2.191469,-0.00087,0.002319,0.984818,-0.07837,0.009979,0.012239,65.788498,11.437881,-147.67926,,,
729600894.455997,-0.282787,-0.499771,2.195181,-0.00087,0.002319,0.984818,-0.07837,0.009979,0.012239,65.788498,11.437881,-147.67926,,,
729600894.459336,-0.282787,-0.499771,2.195181,-0.00087,0.002319,0.984818,-0.07837,0.009979,0.012239,65.788498,11.437881,-147.67926,,,
729600894.462739,-0.307381,-0.501915,2.198673,0.002228,0.003983,0.98819,-0.090541,-0.002275,0.010833,65.788498,11.437881,-147.67926,,,
729600894.465977,-0.334519,-0.504187,2.201737,0.002228,0.003983,0.98819,-0.090541,-0.002275,0.010833,65.788498,11.437881,-147.67926,,,
729600894.469109,-0.334519,-0.504187,2.201737,0.002228,0.003983,0.98819,-0.090541,-0.002275,0.010833,65.788498,11.437881,-147.67926,,,
729600894.472706,-0.362416,-0.509592,2.204005,0.002853,0.004288,0.991287,-0.101875,-0.015661,0.005479,65.57515,11.624023,-147.181778,,,
729600894.47604,-0.392883,-0.51585,2.205256,0.002853,0.004288,0.991287,-0.101875,-0.015661,0.005479,65.57515,11.624023,-147.181778,,,
729600894.479371,-0.392883,-0.51585,2.205256,0.002853,0.004288,0.991287,-0.101875,-0.015661,0.005479,65.57515,11.624023,-147.181778,,,
729600894.482652,-0.423572,-0.524651,2.206204,0.002731,0.002869,0.993607,-0.112254,-0.02482,0.003558,65.57515,11.624023,-147.181778,,,
729600894.485998,-0.456103,-0.533502,2.207245,0.002731,0.002869,0.993607,-0.112254,-0.02482,0.003558,65.57515,11.624023,-147.181778,,,
729600894.489313,-0.456103,-0.533502,2.207245,0.002731,0.002869,0.993607,-0.112254,-0.02482,0.003558,65.57515,11.624023,-147.181778,,,
729600894.492644,-0.48709,-0.542723,2.208481,0.002319,-0.000854,1.002151,-0.113574,-0.025325,0.005,65.57515,11.624023,-147.181778,,,
729600894.496047,-0.519087,-0.550483,2.210314,0.002319,-0.000854,1.002151,-0.113574,-0.025325,0.005,65.57515,11.624023,-147.181778,,,
729600894.499333,-0.519087,-0.550483,2.210314,0.002319,-0.000854,1.002151,-0.113574,-0.025325,0.005,65.57515,11.624023,-147.181778,,,
729600894.502717,-0.547832,-0.556443,2.213089,0.001099,-0.007446,1.014374,-0.10378,-0.014905,0.011492,65.57515,11.624023,-147.181778,,,
729600894.506008,-0.576196,-0.561016,2.217388,0.001099,-0.007446,1.014374,-0.10378,-0.014905,0.011492,65.57515,11.624023,-147.181778,,,
729600894.509312,-0.576196,-0.561016,2.217388,0.001099,-0.007446,1.014374,-0.10378,-0.014905,0.011492,65.57515,11.624023,-147.181778,,,
729600894.512696,-0.597908,-0.564209,2.223556,-0.005417,-0.012421,1.02179,-0.074896,-0.00745,0.024215,65.636078,11.79657,-147.723923,,,
729600894.516012,-0.616756,-0.566694,2.232278,-0.005417,-0.012421,1.02179,-0.074896,-0.00745,0.024215,65.636078,11.79657,-147.723923,,,
729600894.51933,-0.616756,-0.566694,2.232278,-0.005417,-0.012421,1.02179,-0.074896,-0.00745,0.024215,65.636078,11.79657,-147.723923,,,
729600894.522672,-0.627243,-0.567081,2.243646,-0.007492,-0.02153,1.032578,-0.03458,-0.004382,0.042151,65.636078,11.79657,-147.723923,,,
729600894.526067,-0.634724,-0.56923,2.256808,-0.007492,-0.02153,1.032578,-0.03458,-0.004382,0.042151,65.636078,11.79657,-147.723923,,,
729600894.529364,-0.634724,-0.56923,2.256808,-0.007492,-0.02153,1.032578,-0.03458,-0.004382,0.042151,65.636078,11.79657,-147.723923,,,
729600894.532666,-0.635331,-0.57001,2.271421,-0.007843,-0.027283,1.036087,7.4e-05,-0.004292,0.051797,65.636078,11.79657,-147.723923,,,
729600894.536088,-0.634651,-0.571789,2.287099,-0.007843,-0.027283,1.036087,7.4e-05,-0.004292,0.051797,65.636078,11.79657,-147.723923,,,
729600894.53938,-0.634651,-0.571789,2.287099,-0.007843,-0.027283,1.036087,7.4e-05,-0.004292,0.051797,65.636078,11.79657,-147.723923,,,
729600894.542669,-0.630273,-0.572082,2.303083,-0.00708,-0.023895,1.032715,0.011838,-0.001096,0.053743,65.636078,11.79657,-147.723923,,,
729600894.546077,-0.626917,-0.572284,2.318405,-0.00708,-0.023895,1.032715,0.011838,-0.001096,0.053743,65.636078,11.79657,-147.723923,,,
729600894.54932,-0.626917,-0.572284,2.318405,-0.00708,-0.023895,1.032715,0.011838,-0.001096,0.053743,65.636078,11.79657,-147.723923,,,
729600894.552653,-0.621152,-0.570318,2.332546,0.001175,-0.018646,1.027863,0.0145,0.00736,0.045435,65.73085,11.906601,-147.261932,,,
729600894.556029,-0.617203,-0.569384,2.345474,0.001175,-0.018646,1.027863,0.0145,0.00736,0.045435,65.73085,11.906601,-147.261932,,,
729600894.559316,-0.617203,-0.569384,2.345474,0.001175,-0.018646,1.027863,0.0145,0.00736,0.045435,65.73085,11.906601,-147.261932,,,
729600894.56272,-0.610734,-0.567528,2.357108,0.006348,-0.017517,1.021317,0.01769,0.005858,0.036319,65.73085,11.906601,-147.261932,,,
729600894.5661,-0.605709,-0.567069,2.367635,0.006348,-0.017517,1.021317,0.01769,0.005858,0.036319,65.73085,11.906601,-147.261932,,,
729600894.569326,-0.605709,-0.567069,2.367635,0.006348,-0.017517,1.021317,0.01769,0.005858,0.036319,65.73085,11.906601,-147.261932,,,
729600894.572674,-0.598162,-0.565447,2.377349,0.010681,-0.019058,1.019424,0.023852,0.002752,0.030463,65.73085,11.906601,-147.261932,,,
729600894.575995,-0.598162,-0.565447,2.377349,0.010681,-0.019058,1.019424,0.023852,0.002752,0.030463,65.73085,11.906601,-147.261932,,,
729600894.579404,-0.591654,-0.565776,2.38594,0.010681,-0.019058,1.019424,0.023852,0.002752,0.030463,65.73085,11.906601,-147.261932,,,
729600894.582654,-0.583936,-0.564823,2.393683,0.012146,-0.013702,1.016556,0.029168,-0.007433,0.024321,65.73085,11.906601,-147.261932,,,
729600894.58598,-0.583936,-0.564823,2.393683,0.012146,-0.013702,1.016556,0.029168,-0.007433,0.024321,65.73085,11.906601,-147.261932,,,
729600894.589313,-0.575125,-0.56827,2.400777,0.012146,-0.013702,1.016556,0.029168,-0.007433,0.024321,65.73085,11.906601,-147.261932,,,
729600894.592658,-0.565757,-0.568955,2.407698,0.015549,-0.009415,1.00853,0.040113,-0.011258,0.022753,65.73085,11.906601,-147.261932,,,
729600894.59604,-0.565757,-0.568955,2.407698,0.015549,-0.009415,1.00853,0.040113,-0.011258,0.022753,65.431503,11.980896,-147.217911,,,
729600894.599318,-0.554443,-0.57294,2.413743,0.015549,-0.009415,1.00853,0.040113,-0.011258,0.022753,65.431503,11.980896,-147.217911,,,
729600894.602659,-0.54423,-0.573371,2.418345,0.017349,-0.007523,1.008865,0.049057,-0.008372,0.012405,65.431503,11.980896,-147.217911,,,
729600894.606035,-0.54423,-0.573371,2.418345,0.017349,-0.007523,1.008865,0.049057,-0.008372,0.012405,65.431503,11.980896,-147.217911,,,
729600894.609322,-0.529521,-0.576657,2.422259,0.017349,-0.007523,1.008865,0.049057,-0.008372,0.012405,65.431503,11.980896,-147.217911,,,
729600894.612713,-0.515927,-0.576778,2.426154,0.020142,-0.006073,1.009094,0.060535,-0.006663,0.011955,65.431503,11.980896,-147.217911,,,
729600894.616037,-0.515927,-0.576778,2.426154,0.020142,-0.006073,1.009094,0.060535,-0.006663,0.011955,65.431503,11.980896,-147.217911,,,
729600894.619395,-0.497405,-0.580031,2.430248,0.020142,-0.006073,1.009094,0.060535,-0.006663,0.011955,65.431503,11.980896,-147.217911,,,
729600894.622688,-0.478223,-0.581433,2.434788,0.020187,-0.008194,1.0047,0.078628,-0.008401,0.014738,65.431503,11.980896,-147.217911,,,
729600894.62603,-0.478223,-0.581433,2.434788,0.020187,-0.008194,1.0047,0.078628,-0.008401,0.014738,65.431503,11.980896,-147.217911,,,
729600894.629412,-0.454428,-0.58446,2.439898,0.020187,-0.008194,1.0047,0.078628,-0.008401,0.014738,65.431503,11.980896,-147.217911,,,
729600894.632675,-0.430051,-0.586125,2.445775,0.019424,-0.008636,1.00592,0.09131,-0.005493,0.019892,65.431503,11.980896,-147.217911,,,
729600894.635983,-0.430051,-0.586125,2.445775,0.019424,-0.008636,1.00592,0.09131,-0.005493,0.019892,65.477829,11.772797,-147.596008,,,
729600894.639337,-0.403824,-0.588418,2.452724,0.019424,-0.008636,1.00592,0.09131,-0.005493,0.019892,65.477829,11.772797,-147.596008,,,
729600894.64265,-0.378297,-0.589874,2.460404,0.015976,-0.011154,1.002716,0.09603,-0.002225,0.024876,65.477829,11.772797,-147.596008,,,
729600894.646053,-0.378297,-0.589874,2.460404,0.015976,-0.011154,1.002716,0.09603,-0.002225,0.024876,65.477829,11.772797,-147.596008,,,
729600894.64935,-0.351434,-0.590897,2.468073,0.015976,-0.011154,1.002716,0.09603,-0.002225,0.024876,65.477829,11.772797,-147.596008,,,
729600894.652644,-0.326776,-0.591181,2.474893,0.017395,-0.008713,0.998657,0.09141,0.00433,0.018973,65.477829,11.772797,-147.596008,,,
729600894.656072,-0.326776,-0.591181,2.474893,0.017395,-0.008713,0.998657,0.09141,0.00433,0.018973,65.477829,11.772797,-147.596008,,,
729600894.659324,-0.301624,-0.58997,2.480331,0.017395,-0.008713,0.998657,0.09141,0.00433,0.018973,65.477829,11.772797,-147.596008,,,
729600894.662593,-0.27891,-0.587511,2.484512,0.023026,0.000977,0.994812,0.081154,0.016096,0.010324,65.477829,11.772797,-147.596008,,,
729600894.666006,-0.27891,-0.587511,2.484512,0.023026,0.000977,0.994812,0.081154,0.016096,0.010324,65.477829,11.772797,-147.596008,,,
729600894.669396,-0.256446,-0.583391,2.488013,0.023026,0.000977,0.994812,0.081154,0.016096,0.010324,65.477829,11.772797,-147.596008,,,
729600894.672644,-0.236908,-0.57949,2.490995,0.023788,0.005508,0.991776,0.067495,0.023837,0.006912,65.477829,11.772797,-147.596008,,,
729600894.675983,-0.236908,-0.57949,2.490995,0.023788,0.005508,0.991776,0.067495,0.023837,0.006912,65.417953,11.744385,-147.391449,,,
729600894.67937,-0.218582,-0.573573,2.494069,0.023788,0.005508,0.991776,0.067495,0.023837,0.006912,65.417953,11.744385,-147.391449,,,
729600894.682644,-0.202072,-0.569906,2.497656,0.023056,0.009003,0.98288,0.058929,0.021918,0.010662,65.417953,11.744385,-147.391449,,,
729600894.685999,-0.202072,-0.569906,2.497656,0.023056,0.009003,0.98288,0.058929,0.021918,0.010662,65.417953,11.744385,-147.391449,,,
729600894.689337,-0.185837,-0.564766,2.500934,0.023056,0.009003,0.98288,0.058929,0.021918,0.010662,65.417953,11.744385,-147.391449,,,
729600894.692648,-0.170121,-0.563263,2.504146,0.022934,0.01268,0.980408,0.061942,0.014622,0.01025,65.417953,11.744385,-147.391449,,,
729600894.69611,-0.170121,-0.563263,2.504146,0.022934,0.01268,0.980408,0.061942,0.014622,0.01025,65.417953,11.744385,-147.391449,,,
729600894.699325,-0.15249,-0.560498,2.507014,0.022934,0.01268,0.980408,0.061942,0.014622,0.01025,65.417953,11.744385,-147.391449,,,
729600894.702655,-0.135066,-0.561288,2.508524,0.027588,0.01651,0.984192,0.07013,0.006823,0.00071,65.417953,11.744385,-147.391449,,,
729600894.706019,-0.135066,-0.561288,2.508524,0.027588,0.01651,0.984192,0.07013,0.006823,0.00071,65.417953,11.744385,-147.391449,,,
729600894.709386,-0.114042,-0.560231,2.509246,0.027588,0.01651,0.984192,0.07013,0.006823,0.00071,65.417953,11.744385,-147.391449,,,
729600894.712692,-0.091782,-0.560972,2.509895,0.02597,0.016571,0.991135,0.092165,0.008563,4.8e-05,65.417953,11.744385,-147.391449,,,
729600894.715971,-0.091782,-0.560972,2.509895,0.02597,0.016571,0.991135,0.092165,0.008563,4.8e-05,65.577408,11.403336,-147.19516,,,
729600894.719331,-0.065749,-0.561015,2.509983,0.02597,0.016571,0.991135,0.092165,0.008563,4.8e-05,65.577408,11.403336,-147.19516,,,
729600894.722642,-0.042382,-0.565788,2.509264,0.02507,0.014008,0.996292,0.089326,-0.015917,-0.00555,65.577408,11.403336,-147.19516,,,
729600894.725997,-0.042382,-0.565788,2.509264,0.02507,0.014008,0.996292,0.089326,-0.015917,-0.00555,65.577408,11.403336,-147.19516,,,
729600894.729351,-0.017374,-0.573331,2.507652,0.02507,0.014008,0.996292,0.089326,-0.015917,-0.00555,65.577408,11.403336,-147.19516,,,
729600894.732674,0.004658,-0.587545,2.504667,0.022171,0.013611,0.9823,0.076817,-0.046994,-0.015015,65.577408,11.403336,-147.19516,,,
729600894.735997,0.004658,-0.587545,2.504667,0.022171,0.013611,0.9823,0.076817,-0.046994,-0.015015,65.577408,11.403336,-147.19516,,,
729600894.739318,0.024516,-0.603541,2.499695,0.022171,0.013611,0.9823,0.076817,-0.046994,-0.015015,65.577408,11.403336,-147.19516,,,
729600894.74265,0.040345,-0.625903,2.491804,0.016495,0.015915,0.978989,0.043786,-0.067561,-0.035075,65.577408,11.403336,-147.19516,,,
729600894.746085,0.040345,-0.625903,2.491804,0.016495,0.015915,0.978989,0.043786,-0.067561,-0.035075,65.577408,11.403336,-147.19516,,,
729600894.749322,0.050874,-0.648683,2.481671,0.016495,0.015915,0.978989,0.043786,-0.067561,-0.035075,65.577408,11.403336,-147.19516,,,
729600894.752651,0.0591,-0.677561,2.470644,0.010376,0.013229,0.978912,0.017927,-0.090818,-0.041089,65.577408,11.403336,-147.19516,,,
729600894.756029,0.0591,-0.677561,2.470644,0.010376,0.013229,0.978912,0.017927,-0.090818,-0.041089,65.577408,11.403336,-147.19516,,,
729600894.759389,0.062557,-0.704967,2.458923,0.010376,0.013229,0.978912,0.017927,-0.090818,-0.041089,65.324463,11.425888,-147.308975,,,
729600894.762684,0.065247,-0.735681,2.446623,0.004868,0.003571,0.985504,-0.00355,-0.094466,-0.044923,65.324463,11.425888,-147.308975,,,
729600894.765977,0.065247,-0.735681,2.446623,0.004868,0.003571,0.985504,-0.00355,-0.094466,-0.044923,65.324463,11.425888,-147.308975,,,
729600894.769336,0.063276,-0.762272,2.434463,0.004868,0.003571,0.985504,-0.00355,-0.094466,-0.044923,65.324463,11.425888,-147.308975,,,
729600894.772645,0.062289,-0.78901,2.423267,0.001724,-0.006256,0.996368,-0.019141,-0.075185,-0.038055,65.324463,11.425888,-147.308975,,,
729600894.775979,0.062289,-0.78901,2.423267,0.001724,-0.006256,0.996368,-0.019141,-0.075185,-0.038055,65.324463,11.425888,-147.308975,,,
729600894.77937,0.056088,-0.808865,2.414078,0.001724,-0.006256,0.996368,-0.019141,-0.075185,-0.038055,65.324463,11.425888,-147.308975,,,
729600894.782639,0.052218,-0.826932,2.407513,-0.000702,-0.015305,1.006332,-0.029059,-0.039198,-0.019612,65.324463,11.425888,-147.308975,,,
729600894.785971,0.052218,-0.826932,2.407513,-0.000702,-0.015305,1.006332,-0.029059,-0.039198,-0.019612,65.324463,11.425888,-147.308975,,,
729600894.789325,0.044012,-0.83604,2.403476,-0.000702,-0.015305,1.006332,-0.029059,-0.039198,-0.019612,65.324463,11.425888,-147.308975,,,
729600894.792643,0.040484,-0.842361,2.401971,-0.001587,-0.021194,1.011948,-0.020693,-0.002402,-0.002116,65.324463,11.425888,-147.308975,,,
729600894.796042,0.040484,-0.842361,2.401971,-0.001587,-0.021194,1.011948,-0.020693,-0.002402,-0.002116,65.324463,11.425888,-147.308975,,,
729600894.799313,0.035389,-0.842827,2.403364,-0.001587,-0.021194,1.011948,-0.020693,-0.002402,-0.002116,65.415619,11.293976,-147.048279,,,
729600894.802643,0.036689,-0.843975,2.408079,0.000732,-0.024994,1.016174,0.002296,0.010283,0.020667,65.415619,11.293976,-147.048279,,,
729600894.805994,0.036689,-0.843975,2.408079,0.000732,-0.024994,1.016174,0.002296,0.010283,0.020667,65.415619,11.293976,-147.048279,,,
729600894.809403,0.038212,-0.839916,2.415379,0.000732,-0.024994,1.016174,0.002296,0.010283,0.020667,65.415619,11.293976,-147.048279,,,
729600894.812684,0.046606,-0.834362,2.424357,-0.004135,-0.027725,1.016327,0.027088,0.029328,0.031954,65.415619,11.293976,-147.048279,,,
729600894.815971,0.046606,-0.834362,2.424357,-0.004135,-0.027725,1.016327,0.027088,0.029328,0.031954,65.415619,11.293976,-147.048279,,,
729600894.819332,0.055501,-0.82724,2.434497,-0.004135,-0.027725,1.016327,0.027088,0.029328,0.031954,65.415619,11.293976,-147.048279,,,
729600894.822681,0.070441,-0.820647,2.444579,-3.1e-05,-0.022949,1.017166,0.043742,0.027603,0.031373,65.415619,11.293976,-147.048279,,,
729600894.825979,0.070441,-0.820647,2.444579,-3.1e-05,-0.022949,1.017166,0.043742,0.027603,0.031373,65.415619,11.293976,-147.048279,,,
729600894.829351,0.082779,-0.812969,2.45433,-3.1e-05,-0.022949,1.017166,0.043742,0.027603,0.031373,65.415619,11.293976,-147.048279,,,
729600894.832666,0.096491,-0.802475,2.4635,0.006348,-0.013901,1.000778,0.038359,0.036523,0.027496,65.415619,11.293976,-147.048279,,,
729600894.83606,0.096491,-0.802475,2.4635,0.006348,-0.013901,1.000778,0.038359,0.036523,0.027496,65.415619,11.293976,-147.048279,,,
729600894.83931,0.105318,-0.792328,2.471895,0.006348,-0.013901,1.000778,0.038359,0.036523,0.027496,65.31987,11.318207,-147.204056,,,
729600894.842652,0.109898,-0.778707,2.480134,0.011566,-0.004776,0.988373,0.012753,0.043461,0.026793,65.31987,11.318207,-147.204056,,,
729600894.846034,0.109898,-0.778707,2.480134,0.011566,-0.004776,0.988373,0.012753,0.043461,0.026793,65.31987,11.318207,-147.204056,,,
729600894.849376,0.110543,-0.766953,2.488687,0.011566,-0.004776,0.988373,0.012753,0.043461,0.026793,65.31987,11.318207,-147.204056,,,
729600894.852645,0.10476,-0.752944,2.498992,0.011017,0.0009,0.97728,-0.013738,0.040554,0.039447,65.31987,11.318207,-147.204056,,,
729600894.85599,0.10476,-0.752944,2.498992,0.011017,0.0009,0.97728,-0.013738,0.040554,0.039447,65.31987,11.318207,-147.204056,,,
729600894.859326,0.098808,-0.742951,2.511339,0.011017,0.0009,0.97728,-0.013738,0.040554,0.039447,65.31987,11.318207,-147.204056,,,
729600894.862691,0.085011,-0.730406,2.524469,0.013168,0.002045,0.976166,-0.035784,0.033645,0.045195,65.31987,11.318207,-147.204056,,,
729600894.865974,0.085011,-0.730406,2.524469,0.013168,0.002045,0.976166,-0.035784,0.033645,0.045195,65.31987,11.318207,-147.204056,,,
729600894.869326,0.073925,-0.722188,2.538224,0.013168,0.002045,0.976166,-0.035784,0.033645,0.045195,65.31987,11.318207,-147.204056,,,
729600894.872655,0.056867,-0.712452,2.552426,0.019257,0.002686,0.978592,-0.039223,0.022502,0.048336,65.31987,11.318207,-147.204056,,,
729600894.875892,0.056867,-0.712452,2.552426,0.019257,0.002686,0.978592,-0.039223,0.022502,0.048336,65.31987,11.318207,-147.204056,,,
729600894.879411,0.044799,-0.707799,2.566471,0.019257,0.002686,0.978592,-0.039223,0.022502,0.048336,65.314743,11.482956,-147.175095,,,
729600894.882649,0.025703,-0.70197,2.580778,0.02002,0.003632,0.977722,-0.043084,0.008388,0.050206,65.314743,11.482956,-147.175095,,,
729600894.885991,0.025703,-0.70197,2.580778,0.02002,0.003632,0.977722,-0.043084,0.008388,0.050206,65.314743,11.482956,-147.175095,,,
729600894.889374,0.012646,-0.700746,2.59531,0.02002,0.003632,0.977722,-0.043084,0.008388,0.050206,65.314743,11.482956,-147.175095,,,
729600894.892636,-0.0068,-0.695799,2.609846,0.02243,0.006668,0.979401,-0.043294,0.006113,0.050265,65.314743,11.482956,-147.175095,,,
729600894.896029,-0.0068,-0.695799,2.609846,0.02243,0.006668,0.979401,-0.043294,0.006113,0.050265,65.314743,11.482956,-147.175095,,,
729600894.899325,-0.019813,-0.695087,2.624447,0.02243,0.006668,0.979401,-0.043294,0.006113,0.050265,65.314743,11.482956,-147.175095,,,
729600894.902641,-0.037406,-0.692271,2.638973,0.031601,0.007141,0.983032,-0.043104,0.004692,0.049725,65.314743,11.482956,-147.175095,,,
729600894.906024,-0.037406,-0.692271,2.638973,0.031601,0.007141,0.983032,-0.043104,0.004692,0.049725,65.314743,11.482956,-147.175095,,,
729600894.909314,-0.050328,-0.692175,2.65329,0.031601,0.007141,0.983032,-0.043104,0.004692,0.049725,65.314743,11.482956,-147.175095,,,
729600894.912725,-0.064792,-0.692379,2.66741,0.03334,0.009369,0.982635,-0.03872,-0.003289,0.048281,65.314743,11.482956,-147.175095,,,
729600894.915975,-0.064792,-0.692379,2.66741,0.03334,0.009369,0.982635,-0.03872,-0.003289,0.048281,65.314743,11.482956,-147.175095,,,
729600894.919317,-0.076022,-0.694551,2.681007,0.03334,0.009369,0.982635,-0.03872,-0.003289,0.048281,65.314743,11.482956,-147.175095,,,
729600894.922644,-0.087187,-0.697732,2.69395,0.027557,0.00914,0.983627,-0.036745,-0.009646,0.043713,65.340454,11.540649,-147.255096,,,
729600894.92608,-0.087187,-0.697732,2.69395,0.027557,0.00914,0.983627,-0.036745,-0.009646,0.043713,65.340454,11.540649,-147.255096,,,
729600894.929384,-0.097824,-0.70167,2.706224,0.027557,0.00914,0.983627,-0.036745,-0.009646,0.043713,65.340454,11.540649,-147.255096,,,
729600894.932652,-0.10836,-0.706365,2.716496,0.024979,0.007401,0.987335,-0.042273,-0.018011,0.029854,65.340454,11.540649,-147.255096,,,
729600894.935984,-0.10836,-0.706365,2.716496,0.024979,0.007401,0.987335,-0.042273,-0.018011,0.029854,65.340454,11.540649,-147.255096,,,
729600894.939411,-0.120547,-0.712459,2.724705,0.024979,0.007401,0.987335,-0.042273,-0.018011,0.029854,65.340454,11.540649,-147.255096,,,
729600894.942645,-0.131628,-0.719368,2.731517,0.027817,0.009079,0.988007,-0.04134,-0.017775,0.020112,65.340454,11.540649,-147.255096,,,
729600894.946043,-0.131628,-0.719368,2.731517,0.027817,0.009079,0.988007,-0.04134,-0.017775,0.020112,65.340454,11.540649,-147.255096,,,
729600894.949328,-0.143882,-0.725032,2.736754,0.027817,0.009079,0.988007,-0.04134,-0.017775,0.020112,65.340454,11.540649,-147.255096,,,
729600894.952645,-0.154936,-0.732418,2.740425,0.023361,0.006775,0.99176,-0.043102,-0.016283,0.009233,65.340454,11.540649,-147.255096,,,
729600894.955992,-0.154936,-0.732418,2.740425,0.023361,0.006775,0.99176,-0.043102,-0.016283,0.009233,65.340454,11.540649,-147.255096,,,
729600894.959324,-0.167843,-0.737362,2.74248,0.023361,0.006775,0.99176,-0.043102,-0.016283,0.009233,65.340454,11.540649,-147.255096,,,
729600894.96269,-0.178854,-0.742177,2.74295,0.023636,0.003754,0.995087,-0.041055,-0.004638,-0.001811,65.198669,11.81395,-147.469986,,,
729600894.965971,-0.178854,-0.742177,2.74295,0.023636,0.003754,0.995087,-0.041055,-0.004638,-0.001811,65.198669,11.81395,-147.469986,,,
729600894.969333,-0.191005,-0.743375,2.741614,0.023636,0.003754,0.995087,-0.041055,-0.004638,-0.001811,65.198669,11.81395,-147.469986,,,
729600894.972643,-0.200408,-0.745333,2.739249,0.020248,-0.001678,1.001617,-0.036112,0.008869,-0.00896,65.198669,11.81395,-147.469986,,,
729600894.976025,-0.200408,-0.745333,2.739249,0.020248,-0.001678,1.001617,-0.036112,0.008869,-0.00896,65.198669,11.81395,-147.469986,,,
729600894.979358,-0.210104,-0.742759,2.736425,0.020248,-0.001678,1.001617,-0.036112,0.008869,-0.00896,65.198669,11.81395,-147.469986,,,
729600894.982641,-0.215715,-0.742202,2.733005,0.016037,-0.008057,1.007599,-0.023406,0.023284,-0.013183,65.198669,11.81395,-147.469986,,,
729600894.985982,-0.215715,-0.742202,2.733005,0.016037,-0.008057,1.007599,-0.023406,0.023284,-0.013183,65.198669,11.81395,-147.469986,,,
729600894.989377,-0.22079,-0.735996,2.729336,0.016037,-0.008057,1.007599,-0.023406,0.023284,-0.013183,65.198669,11.81395,-147.469986,,,
729600894.992645,-0.219919,-0.733184,2.725192,0.011642,-0.010315,1.010254,-0.002471,0.027454,-0.016626,65.198669,11.81395,-147.469986,,,
729600894.996045,-0.219919,-0.733184,2.725192,0.011642,-0.010315,1.010254,-0.002471,0.027454,-0.016626,65.198669,11.81395,-147.469986,,,
729600894.999322,-0.219321,-0.727023,2.720757,0.011642,-0.010315,1.010254,-0.002471,0.027454,-0.016626,65.198669,11.81395,-147.469986,,,
729600895.002745,-0.212882,-0.72478,2.716275,0.005188,-0.015396,1.008057,0.018786,0.022097,-0.017131,65.325424,11.702347,-147.351547,,,
729600895.005995,-0.212882,-0.72478,2.716275,0.005188,-0.015396,1.008057,0.018786,0.022097,-0.017131,65.325424,11.702347,-147.351547,,,
729600895.009368,-0.20647,-0.719358,2.711739,0.005188,-0.015396,1.008057,0.018786,0.022097,-0.017131,65.325424,11.702347,-147.351547,,,
729600895.012718,-0.196034,-0.717756,2.706578,0.005081,-0.014465,1.006378,0.027748,0.019466,-0.021497,65.325424,11.702347,-147.351547,,,
729600895.016072,-0.196034,-0.717756,2.706578,0.005081,-0.014465,1.006378,0.027748,0.019466,-0.021497,65.325424,11.702347,-147.351547,,,
729600895.019333,-0.18804,-0.713275,2.700488,0.005081,-0.014465,1.006378,0.027748,0.019466,-0.021497,65.325424,11.702347,-147.351547,,,
729600895.022663,-0.177298,-0.712912,2.693552,0.004089,-0.013031,0.999359,0.027558,0.013882,-0.027309,65.325424,11.702347,-147.351547,,,
729600895.02602,-0.177298,-0.712912,2.693552,0.004089,-0.013031,0.999359,0.027558,0.013882,-0.027309,65.325424,11.702347,-147.351547,,,
729600895.029377,-0.170097,-0.710838,2.685751,0.004089,-0.013031,0.999359,0.027558,0.013882,-0.027309,65.325424,11.702347,-147.351547,,,
729600895.032697,-0.162506,-0.712703,2.677343,0.003708,-0.006989,0.993607,0.015345,0.003548,-0.031319,65.325424,11.702347,-147.351547,,,
729600895.036072,-0.162506,-0.712703,2.677343,0.003708,-0.006989,0.993607,0.015345,0.003548,-0.031319,65.325424,11.702347,-147.351547,,,
729600895.03938,-0.159723,-0.712791,2.668327,0.003708,-0.006989,0.993607,0.015345,0.003548,-0.031319,65.325424,11.702347,-147.351547,,,
729600895.042636,-0.158279,-0.715563,2.658676,0.005127,-0.005463,0.989227,-0.001657,0.004066,-0.035502,65.379456,11.818665,-147.189392,,,
729600895.046039,-0.158279,-0.715563,2.658676,0.005127,-0.005463,0.989227,-0.001657,0.004066,-0.035502,65.379456,11.818665,-147.189392,,,
729600895.049324,-0.160443,-0.714605,2.648689,0.005127,-0.005463,0.989227,-0.001657,0.004066,-0.035502,65.379456,11.818665,-147.189392,,,
729600895.052645,-0.164843,-0.714275,2.639194,0.005066,-0.005402,0.992508,-0.014854,0.009976,-0.031906,65.379456,11.818665,-147.189392,,,
729600895.055998,-0.164843,-0.714275,2.639194,0.005066,-0.005402,0.992508,-0.014854,0.009976,-0.031906,65.379456,11.818665,-147.189392,,,
729600895.059331,-0.170162,-0.711719,2.630799,0.005066,-0.005402,0.992508,-0.014854,0.009976,-0.031906,65.379456,11.818665,-147.189392,,,
729600895.062683,-0.178022,-0.708666,2.623608,-0.000183,-0.010498,0.997238,-0.022455,0.016473,-0.023426,65.379456,11.818665,-147.189392,,,
729600895.06598,-0.178022,-0.708666,2.623608,-0.000183,-0.010498,0.997238,-0.022455,0.016473,-0.023426,65.379456,11.818665,-147.189392,,,
729600895.069314,-0.183963,-0.704566,2.618388,-0.000183,-0.010498,0.997238,-0.022455,0.016473,-0.023426,65.379456,11.818665,-147.189392,,,
729600895.07264,-0.190098,-0.699252,2.614495,-0.001923,-0.013519,1.000061,-0.009618,0.019562,-0.014391,65.379456,11.818665,-147.189392,,,
729600895.075631,-0.190098,-0.699252,2.614495,-0.001923,-0.013519,1.000061,-0.009618,0.019562,-0.014391,65.379456,11.818665,-147.189392,,,
729600895.079472,-0.19258,-0.694069,2.611165,-0.001923,-0.013519,1.000061,-0.009618,0.019562,-0.014391,65.379456,11.818665,-147.189392,,,
729600895.082623,-0.196588,-0.686853,2.608574,0.004532,-0.011536,1.00563,-0.000399,0.019849,-0.009393,65.379456,11.818665,-147.189392,,,
729600895.085992,-0.196588,-0.686853,2.608574,0.004532,-0.011536,1.00563,-0.000399,0.019849,-0.009393,65.479828,11.622757,-147.215302,,,
729600895.089316,-0.195842,-0.682052,2.606211,0.004532,-0.011536,1.00563,-0.000399,0.019849,-0.009393,65.479828,11.622757,-147.215302,,,
729600895.092653,-0.197127,-0.675434,2.603709,0.005478,-0.007385,1.005829,0.003941,0.022095,-0.010446,65.479828,11.622757,-147.215302,,,
729600895.096035,-0.197127,-0.675434,2.603709,0.005478,-0.007385,1.005829,0.003941,0.022095,-0.010446,65.479828,11.622757,-147.215302,,,
729600895.099307,-0.196207,-0.670243,2.601086,0.005478,-0.007385,1.005829,0.003941,0.022095,-0.010446,65.479828,11.622757,-147.215302,,,
729600895.102674,-0.197009,-0.66355,2.598393,0.005859,-0.007294,1.001434,0.003893,0.018357,-0.011034,65.479828,11.622757,-147.215302,,,
729600895.106003,-0.197009,-0.66355,2.598393,0.005859,-0.007294,1.001434,0.003893,0.018357,-0.011034,65.479828,11.622757,-147.215302,,,
729600895.109333,-0.195379,-0.660535,2.595505,0.005859,-0.007294,1.001434,0.003893,0.018357,-0.011034,65.479828,11.622757,-147.215302,,,
729600895.112696,-0.193744,-0.658356,2.591901,0.009476,-0.009995,1.001785,0.007905,-0.00061,-0.016118,65.479828,11.622757,-147.215302,,,
729600895.115974,-0.193744,-0.658356,2.591901,0.009476,-0.009995,1.001785,0.007905,-0.00061,-0.016118,65.479828,11.622757,-147.215302,,,
729600895.11932,-0.19194,-0.660677,2.588306,0.009476,-0.009995,1.001785,0.007905,-0.00061,-0.016118,65.479828,11.622757,-147.215302,,,
729600895.122645,-0.191221,-0.663884,2.585186,0.007156,-0.009872,1.001862,0.002492,-0.016166,-0.012759,65.479828,11.622757,-147.215302,,,
729600895.125982,-0.191221,-0.663884,2.585186,0.007156,-0.009872,1.001862,0.002492,-0.016166,-0.012759,65.333939,11.665512,-146.940369,,,
729600895.129359,-0.191468,-0.670243,2.582343,0.007156,-0.009872,1.001862,0.002492,-0.016166,-0.012759,65.333939,11.665512,-146.940369,,,
729600895.132639,-0.193915,-0.67518,2.579449,0.004669,-0.00882,0.998932,-0.006131,-0.018602,-0.013019,65.333939,11.665512,-146.940369,,,
729600895.135992,-0.193915,-0.67518,2.579449,0.004669,-0.00882,0.998932,-0.006131,-0.018602,-0.013019,65.333939,11.665512,-146.940369,,,
729600895.139407,-0.196474,-0.681104,2.576651,0.004669,-0.00882,0.998932,-0.006131,-0.018602,-0.013019,65.333939,11.665512,-146.940369,,,
729600895.142646,-0.202908,-0.683195,2.574313,0.009491,-0.008438,1.003601,-0.019943,-0.013116,-0.009735,65.333939,11.665512,-146.940369,,,
729600895.146039,-0.202908,-0.683195,2.574313,0.009491,-0.008438,1.003601,-0.019943,-0.013116,-0.009735,65.333939,11.665512,-146.940369,,,
729600895.149329,-0.209269,-0.687059,2.572099,0.009491,-0.008438,1.003601,-0.019943,-0.013116,-0.009735,65.333939,11.665512,-146.940369,,,
729600895.15265,-0.218874,-0.686771,2.570456,0.017548,-0.00676,1.002441,-0.024756,-0.003552,-0.005743,65.333939,11.665512,-146.940369,,,
729600895.155993,-0.218874,-0.686771,2.570456,0.017548,-0.00676,1.002441,-0.024756,-0.003552,-0.005743,65.333939,11.665512,-146.940369,,,
729600895.159337,-0.225608,-0.68772,2.56938,0.017548,-0.00676,1.002441,-0.024756,-0.003552,-0.005743,65.333939,11.665512,-146.940369,,,
729600895.162738,-0.233007,-0.685633,2.568832,0.022079,-0.006851,1.00293,-0.021414,0.008141,-0.002159,65.333939,11.665512,-146.940369,,,
729600895.166005,-0.233007,-0.685633,2.568832,0.022079,-0.006851,1.00293,-0.021414,0.008141,-0.002159,65.377533,11.762863,-147.203308,,,
729600895.169317,-0.238983,-0.68384,2.568457,0.022079,-0.006851,1.00293,-0.021414,0.008141,-0.002159,65.377533,11.762863,-147.203308,,,
729600895.172647,-0.245484,-0.679436,2.568166,0.022385,-0.006439,1.002975,-0.020329,0.015447,-0.001612,65.377533,11.762863,-147.203308,,,
729600895.176079,-0.245484,-0.679436,2.568166,0.022385,-0.006439,1.002975,-0.020329,0.015447,-0.001612,65.377533,11.762863,-147.203308,,,
729600895.179377,-0.251407,-0.676304,2.56747,0.022385,-0.006439,1.002975,-0.020329,0.015447,-0.001612,65.377533,11.762863,-147.203308,,,
729600895.182641,-0.258173,-0.673309,2.566596,0.02211,-0.005981,0.997696,-0.019471,0.006357,-0.002913,65.377533,11.762863,-147.203308,,,
729600895.185988,-0.258173,-0.673309,2.566596,0.02211,-0.005981,0.997696,-0.019471,0.006357,-0.002913,65.377533,11.762863,-147.203308,,,
729600895.18938,-0.264717,-0.67278,2.565553,0.02211,-0.005981,0.997696,-0.019471,0.006357,-0.002913,65.377533,11.762863,-147.203308,,,
729600895.192637,-0.273621,-0.673279,2.563697,0.018829,-0.004456,0.992615,-0.027428,-0.002365,-0.008488,65.377533,11.762863,-147.203308,,,
729600895.196047,-0.273621,-0.673279,2.563697,0.018829,-0.004456,0.992615,-0.027428,-0.002365,-0.008488,65.377533,11.762863,-147.203308,,,
729600895.199324,-0.282594,-0.675463,2.561576,0.018829,-0.004456,0.992615,-0.027428,-0.002365,-0.008488,65.377533,11.762863,-147.203308,,,
729600895.202646,-0.282594,-0.675463,2.560131,0.01651,-0.003494,0.993271,-0.038571,-0.010366,-0.003723,65.377533,11.762863,-147.203308,,,
729600895.206024,-0.2943,-0.677282,2.560131,0.01651,-0.003494,0.993271,-0.038571,-0.010366,-0.003723,65.407455,11.720398,-147.385498,,,
729600895.20934,-0.305403,-0.681502,2.558964,0.01651,-0.003494,0.993271,-0.038571,-0.010366,-0.003723,65.407455,11.720398,-147.385498,,,
729600895.212705,-0.317595,-0.684755,2.557493,0.01561,-0.005646,0.994827,-0.040443,-0.013904,-0.005875,65.407455,11.720398,-147.385498,,,
729600895.215974,-0.317595,-0.684755,2.557493,0.01561,-0.005646,0.994827,-0.040443,-0.013904,-0.005875,65.407455,11.720398,-147.385498,,,
729600895.219313,-0.329637,-0.689783,2.556084,0.01561,-0.005646,0.994827,-0.040443,-0.013904,-0.005875,65.407455,11.720398,-147.385498,,,
729600895.222646,-0.329637,-0.689783,2.556084,0.019882,-0.002914,0.998993,-0.042989,-0.014069,-0.006095,65.407455,11.720398,-147.385498,,,
729600895.225981,-0.342634,-0.694865,2.554636,0.019882,-0.002914,0.998993,-0.042989,-0.014069,-0.006095,65.407455,11.720398,-147.385498,,,
729600895.229424,-0.355048,-0.69966,2.553093,0.019882,-0.002914,0.998993,-0.042989,-0.014069,-0.006095,65.407455,11.720398,-147.385498,,,
729600895.23267,-0.355048,-0.69966,2.551956,0.016418,-0.004944,1.001266,-0.045157,-0.018548,-0.003159,65.407455,11.720398,-147.385498,,,
729600895.236006,-0.367973,-0.706865,2.551956,0.016418,-0.004944,1.001266,-0.045157,-0.018548,-0.003159,65.407455,11.720398,-147.385498,,,
729600895.239379,-0.381077,-0.713282,2.551166,0.016418,-0.004944,1.001266,-0.045157,-0.018548,-0.003159,65.407455,11.720398,-147.385498,,,
729600895.242638,-0.381077,-0.713282,2.551166,0.011703,-0.010056,1.00238,-0.046415,-0.02303,-0.003925,65.407455,11.720398,-147.385498,,,
729600895.246026,-0.394424,-0.722608,2.550243,0.011703,-0.010056,1.00238,-0.046415,-0.02303,-0.003925,65.407455,11.720398,-147.385498,,,
729600895.249325,-0.408309,-0.731442,2.549501,0.011703,-0.010056,1.00238,-0.046415,-0.02303,-0.003925,65.400543,11.70282,-147.240524,,,
729600895.252675,-0.408309,-0.731442,2.549501,0.011978,-0.010712,1.000916,-0.051346,-0.037227,-0.001627,65.400543,11.70282,-147.240524,,,
729600895.255997,-0.422683,-0.744679,2.549052,0.011978,-0.010712,1.000916,-0.051346,-0.037227,-0.001627,65.400543,11.70282,-147.240524,,,
729600895.259335,-0.437068,-0.756775,2.548479,0.011978,-0.010712,1.000916,-0.051346,-0.037227,-0.001627,65.400543,11.70282,-147.240524,,,
729600895.262663,-0.437068,-0.756775,2.548479,0.01236,-0.010895,1.004562,-0.043681,-0.04909,-0.003899,65.400543,11.70282,-147.240524,,,
729600895.265986,-0.449804,-0.772346,2.547572,0.01236,-0.010895,1.004562,-0.043681,-0.04909,-0.003899,65.400543,11.70282,-147.240524,,,
729600895.269317,-0.461719,-0.788599,2.54624,0.01236,-0.010895,1.004562,-0.043681,-0.04909,-0.003899,65.400543,11.70282,-147.240524,,,
729600895.272658,-0.461719,-0.788599,2.54624,0.015732,-0.009201,1.008286,-0.029532,-0.065531,-0.012591,65.400543,11.70282,-147.240524,,,
729600895.27601,-0.470606,-0.808408,2.543669,0.015732,-0.009201,1.008286,-0.029532,-0.065531,-0.012591,65.400543,11.70282,-147.240524,,,
729600895.279376,-0.477513,-0.828992,2.539776,0.015732,-0.009201,1.008286,-0.029532,-0.065531,-0.012591,65.400543,11.70282,-147.240524,,,
729600895.282672,-0.477513,-0.828992,2.539776,0.022049,-0.009033,1.013397,-0.011571,-0.073471,-0.021067,65.400543,11.70282,-147.240524,,,
729600895.285994,-0.480994,-0.851088,2.5347,0.022049,-0.009033,1.013397,-0.011571,-0.073471,-0.021067,65.400543,11.70282,-147.240524,,,
729600895.289332,-0.483188,-0.873192,2.528749,0.022049,-0.009033,1.013397,-0.011571,-0.073471,-0.021067,65.116318,11.969009,-147.527573,,,
729600895.292709,-0.483188,-0.873192,2.528749,0.017303,-0.011826,1.012054,0.008461,-0.074686,-0.025572,65.116318,11.969009,-147.527573,,,
729600895.295988,-0.481767,-0.895968,2.522183,0.017303,-0.011826,1.012054,0.008461,-0.074686,-0.025572,65.116318,11.969009,-147.527573,,,
729600895.299307,-0.477944,-0.917742,2.515012,0.017303,-0.011826,1.012054,0.008461,-0.074686,-0.025572,65.116318,11.969009,-147.527573,,,
729600895.302678,-0.477944,-0.917742,2.515012,0.017303,-0.011826,1.012054,0.031353,-0.062658,-0.026593,65.116318,11.969009,-147.527573,,,
729600895.306053,-0.469584,-0.938927,2.50774,0.017792,-0.014191,1.018021,0.031353,-0.062658,-0.026593,65.116318,11.969009,-147.527573,,,
729600895.309329,-0.460011,-0.956754,2.500935,0.017792,-0.014191,1.018021,0.031353,-0.062658,-0.026593,65.116318,11.969009,-147.527573,,,
729600895.312639,-0.460011,-0.956754,2.500935,0.017792,-0.014191,1.018021,0.031353,-0.062658,-0.026593,65.116318,11.969009,-147.527573,,,
729600895.315978,-0.448742,-0.971494,2.494965,0.016632,-0.014725,1.020721,0.041309,-0.045116,-0.020941,65.116318,11.969009,-147.527573,,,
729600895.319319,-0.436971,-0.984751,2.490206,0.016632,-0.014725,1.020721,0.041309,-0.045116,-0.020941,65.116318,11.969009,-147.527573,,,
729600895.322638,-0.436971,-0.984751,2.490206,0.016632,-0.014725,1.020721,0.041309,-0.045116,-0.020941,65.116318,11.969009,-147.527573,,,
729600895.326006,-0.425619,-0.99399,2.486814,0.010971,-0.015182,1.014496,0.043848,-0.026043,-0.011555,65.116318,11.969009,-147.527573,,,
729600895.329342,-0.412983,-1.00067,2.484443,0.010971,-0.015182,1.014496,0.043848,-0.026043,-0.011555,64.897232,12.092285,-147.446884,,,
729600895.332671,-0.412983,-1.00067,2.484443,0.010971,-0.015182,1.014496,0.044653,-0.006731,-0.006026,64.897232,12.092285,-147.446884,,,
729600895.335981,-0.400992,-1.003119,2.482875,0.01355,-0.011124,1.014389,0.044653,-0.006731,-0.006026,64.897232,12.092285,-147.446884,,,
729600895.339316,-0.388509,-1.005328,2.481719,0.01355,-0.011124,1.014389,0.044653,-0.006731,-0.006026,64.897232,12.092285,-147.446884,,,
729600895.342645,-0.388509,-1.005328,2.481719,0.01355,-0.011124,1.014389,0.044653,-0.006731,-0.006026,64.897232,12.092285,-147.446884,,,
729600895.346022,-0.377533,-1.005493,2.481199,0.016525,-0.007523,1.010681,0.03965,-0.000672,-0.001561,64.897232,12.092285,-147.446884,,,
729600895.349364,-0.366489,-1.0071,2.481623,0.016525,-0.007523,1.010681,0.03965,-0.000672,-0.001561,64.897232,12.092285,-147.446884,,,
729600895.35274,-0.366489,-1.0071,2.481623,0.016525,-0.007523,1.010681,0.03965,-0.000672,-0.001561,64.897232,12.092285,-147.446884,,,
729600895.356054,-0.35648,-1.010614,2.482227,0.012497,-0.008789,1.003113,0.037781,-0.012751,-0.000251,64.897232,12.092285,-147.446884,,,
729600895.359303,-0.345021,-1.016203,2.482805,0.012497,-0.008789,1.003113,0.037781,-0.012751,-0.000251,64.897232,12.092285,-147.446884,,,
729600895.362735,-0.345021,-1.016203,2.482805,0.012497,-0.008789,1.003113,0.037781,-0.012751,-0.000251,64.897232,12.092285,-147.446884,,,
729600895.365974,-0.333407,-1.024968,2.482875,0.01358,-0.007721,1.000641,0.044586,-0.030065,-0.003871,64.897232,12.092285,-147.446884,,,
729600895.369434,-0.32022,-1.035602,2.481811,0.01358,-0.007721,1.000641,0.044586,-0.030065,-0.003871,64.897232,12.092285,-147.446884,,,
729600895.372732,-0.32022,-1.035602,2.481811,0.01358,-0.007721,1.000641,0.044586,-0.030065,-0.003871,65.019348,11.877655,-147.431168,,,
729600895.375994,-0.307707,-1.048445,2.479538,0.018265,-0.010315,1.003036,0.051333,-0.048255,-0.012415,65.019348,11.877655,-147.431168,,,
729600895.379309,-0.292622,-1.063267,2.476384,0.018265,-0.010315,1.003036,0.051333,-0.048255,-0.012415,65.019348,11.877655,-147.431168,,,
729600895.382686,-0.292622,-1.063267,2.476384,0.018265,-0.010315,1.003036,0.051333,-0.048255,-0.012415,65.019348,11.877655,-147.431168,,,
729600895.385981,-0.278908,-1.07765,2.471902,0.020203,-0.009003,1.001038,0.05769,-0.04547,-0.021826,65.019348,11.877655,-147.431168,,,
729600895.389307,-0.261502,-1.09103,2.46645,0.020203,-0.009003,1.001038,0.05769,-0.04547,-0.021826,65.019348,11.877655,-147.431168,,,
729600895.39273,-0.261502,-1.09103,2.46645,0.020203,-0.009003,1.001038,0.05769,-0.04547,-0.021826,65.019348,11.877655,-147.431168,,,
729600895.395982,-0.244337,-1.102157,2.460708,0.024719,-0.009247,1.005676,0.071532,-0.037909,-0.024172,65.019348,11.877655,-147.431168,,,
729600895.399325,-0.223475,-1.112915,2.454387,0.024719,-0.009247,1.005676,0.071532,-0.037909,-0.024172,65.019348,11.877655,-147.431168,,,
729600895.402756,-0.223475,-1.112915,2.454387,0.024719,-0.009247,1.005676,0.071532,-0.037909,-0.024172,65.019348,11.877655,-147.431168,,,
729600895.406043,-0.203808,-1.119706,2.448296,0.025131,-0.008453,1.005173,0.079987,-0.024366,-0.022792,65.019348,11.877655,-147.431168,,,
729600895.409298,-0.180477,-1.126705,2.44263,0.025131,-0.008453,1.005173,0.079987,-0.024366,-0.022792,65.019348,11.877655,-147.431168,,,
729600895.412715,-0.180477,-1.126705,2.44263,0.025131,-0.008453,1.005173,0.079987,-0.024366,-0.022792,65.225739,11.603806,-147.311478,,,
729600895.415965,-0.157813,-1.130442,2.437249,0.022873,-0.008499,1.004669,0.085566,-0.009318,-0.020928,65.225739,11.603806,-147.311478,,,
729600895.41931,-0.133992,-1.132614,2.432854,0.022873,-0.008499,1.004669,0.085566,-0.009318,-0.020928,65.225739,11.603806,-147.311478,,,
729600895.422731,-0.133992,-1.132614,2.432854,0.022873,-0.008499,1.004669,0.085566,-0.009318,-0.020928,65.225739,11.603806,-147.311478,,,
729600895.425978,-0.113252,-1.130227,2.429568,0.021912,-0.006592,0.997482,0.073868,0.01493,-0.012978,65.225739,11.603806,-147.311478,,,
729600895.429308,-0.093611,-1.125095,2.42705,0.021912,-0.006592,0.997482,0.073868,0.01493,-0.012978,65.225739,11.603806,-147.311478,,,
729600895.432673,-0.093611,-1.125095,2.42705,0.021912,-0.006592,0.997482,0.073868,0.01493,-0.012978,65.225739,11.603806,-147.311478,,,
729600895.435981,-0.078279,-1.114622,2.425012,0.020966,-0.000961,0.990387,0.054181,0.040378,-0.009277,65.225739,11.603806,-147.311478,,,
729600895.43933,-0.063733,-1.101737,2.423245,0.020966,-0.000961,0.990387,0.054181,0.040378,-0.009277,65.225739,11.603806,-147.311478,,,
729600895.442722,-0.063733,-1.101737,2.423245,0.020966,-0.000961,0.990387,0.054181,0.040378,-0.009277,65.225739,11.603806,-147.311478,,,
729600895.446071,-0.052237,-1.083692,2.422113,0.024078,0.001343,0.991058,0.044353,0.069695,-0.00464,65.225739,11.603806,-147.311478,,,
729600895.449299,-0.040507,-1.06362,2.421511,0.024078,0.001343,0.991058,0.044353,0.069695,-0.00464,65.225739,11.603806,-147.311478,,,
729600895.452671,-0.040507,-1.06362,2.421511,0.024078,0.001343,0.991058,0.044353,0.069695,-0.00464,65.216522,11.333664,-147.129181,,,
729600895.455989,-0.031609,-1.041163,2.420923,0.02446,0.001434,0.989792,0.038894,0.086495,-0.004389,65.216522,11.333664,-147.129181,,,
729600895.459306,-0.020252,-1.017271,2.420246,0.02446,0.001434,0.989792,0.038894,0.086495,-0.004389,65.216522,11.333664,-147.129181,,,
729600895.462695,-0.020252,-1.017271,2.420246,0.02446,0.001434,0.989792,0.038894,0.086495,-0.004389,65.216522,11.333664,-147.129181,,,
729600895.465967,-0.010627,-0.995663,2.419846,0.021042,0.004807,0.988815,0.039657,0.077235,-0.00245,65.216522,11.333664,-147.129181,,,
729600895.469337,1.4e-05,-0.976531,2.419022,0.021042,0.004807,0.988815,0.039657,0.077235,-0.00245,65.216522,11.333664,-147.129181,,,
729600895.472736,1.4e-05,-0.976531,2.419022,0.021042,0.004807,0.988815,0.039657,0.077235,-0.00245,65.216522,11.333664,-147.129181,,,
729600895.475978,0.008046,-0.963968,2.417122,0.018265,0.008224,0.981766,0.034227,0.044453,-0.009831,65.216522,11.333664,-147.129181,,,
729600895.479307,0.017492,-0.954699,2.413831,0.018265,0.008224,0.981766,0.034227,0.044453,-0.009831,65.216522,11.333664,-147.129181,,,
729600895.482641,0.017492,-0.954699,2.413831,0.018265,0.008224,0.981766,0.034227,0.044453,-0.009831,65.216522,11.333664,-147.129181,,,
729600895.486052,0.024662,-0.952327,2.40859,0.014999,0.012787,0.976257,0.031851,0.008052,-0.023389,65.216522,11.333664,-147.129181,,,
729600895.489307,0.033664,-0.952876,2.401567,0.014999,0.012787,0.976257,0.031851,0.008052,-0.023389,65.216522,11.333664,-147.129181,,,
729600895.492641,0.033664,-0.952876,2.401567,0.014999,0.012787,0.976257,0.031851,0.008052,-0.023389,64.95755,11.533813,-147.109848,,,
729600895.496004,0.040742,-0.958651,2.393261,0.014648,0.016785,0.981949,0.031927,-0.018131,-0.032328,64.95755,11.533813,-147.109848,,,
729600895.499306,0.050409,-0.965447,2.384471,0.014648,0.016785,0.981949,0.031927,-0.018131,-0.032328,64.95755,11.533813,-147.109848,,,
729600895.502668,0.050409,-0.965447,2.384471,0.014648,0.016785,0.981949,0.031927,-0.018131,-0.032328,64.95755,11.533813,-147.109848,,,
729600895.505992,0.059758,-0.973792,2.375806,0.01683,0.014435,0.986267,0.038731,-0.021388,-0.03159,64.95755,11.533813,-147.109848,,,
729600895.509309,0.071319,-0.980207,2.367145,0.01683,0.014435,0.986267,0.038731,-0.021388,-0.03159,64.95755,11.533813,-147.109848,,,
729600895.512736,0.071319,-0.980207,2.367145,0.01683,0.014435,0.986267,0.038731,-0.021388,-0.03159,64.95755,11.533813,-147.109848,,,
729600895.515963,0.083327,-0.986695,2.35923,0.023071,0.010742,0.99556,0.042709,-0.013571,-0.026491,64.95755,11.533813,-147.109848,,,
729600895.519315,0.096634,-0.989754,2.353082,0.023071,0.010742,0.99556,0.042709,-0.013571,-0.026491,64.95755,11.533813,-147.109848,,,
729600895.522671,0.096634,-0.989754,2.353082,0.023071,0.010742,0.99556,0.042709,-0.013571,-0.026491,64.95755,11.533813,-147.109848,,,
729600895.526023,0.11278,-0.989895,2.348784,0.024597,0.010147,1.003082,0.064198,0.019303,-0.013972,64.95755,11.533813,-147.109848,,,
729600895.529307,0.132072,-0.982849,2.345344,0.024597,0.010147,1.003082,0.064198,0.019303,-0.013972,64.95755,11.533813,-147.109848,,,
729600895.532642,0.132072,-0.982849,2.345344,0.024597,0.010147,1.003082,0.064198,0.019303,-0.013972,64.95755,11.533813,-147.109848,,,
729600895.535989,0.153497,-0.973898,2.341998,0.029419,0.011536,1.012787,0.079022,0.043033,-0.01355,65.106079,11.223236,-147.114761,,,
729600895.539313,0.17491,-0.961617,2.338972,0.029419,0.011536,1.012787,0.079022,0.043033,-0.01355,65.106079,11.223236,-147.114761,,,
729600895.542639,0.17491,-0.961617,2.338972,0.029419,0.011536,1.012787,0.079022,0.043033,-0.01355,65.106079,11.223236,-147.114761,,,
729600895.546,0.194522,-0.949013,2.336327,0.026138,0.01149,0.996765,0.061426,0.051033,-0.010576,65.106079,11.223236,-147.114761,,,
729600895.549309,0.210039,-0.934832,2.334148,0.026138,0.01149,0.996765,0.061426,0.051033,-0.010576,65.106079,11.223236,-147.114761,,,
729600895.552711,0.210039,-0.934832,2.334148,0.026138,0.01149,0.996765,0.061426,0.051033,-0.010576,65.106079,11.223236,-147.114761,,,
729600895.555978,0.222426,-0.920673,2.332661,0.016907,0.013809,0.983521,0.029052,0.052333,-0.00525,65.106079,11.223236,-147.114761,,,
729600895.559319,0.227606,-0.907086,2.331738,0.016907,0.013809,0.983521,0.029052,0.052333,-0.00525,65.106079,11.223236,-147.114761,,,
729600895.562642,0.227606,-0.907086,2.331738,0.016907,0.013809,0.983521,0.029052,0.052333,-0.00525,65.106079,11.223236,-147.114761,,,
729600895.565978,0.230084,-0.896099,2.331698,0.010147,0.015579,0.97583,-0.00797,0.032823,0.001506,65.106079,11.223236,-147.114761,,,
729600895.569305,0.22514,-0.89058,2.333406,0.010147,0.015579,0.97583,-0.00797,0.032823,0.001506,65.106079,11.223236,-147.114761,,,
729600895.572669,0.22514,-0.89058,2.333406,0.010147,0.015579,0.97583,-0.00797,0.032823,0.001506,65.106079,11.223236,-147.114761,,,
729600895.575981,0.218437,-0.89103,2.336903,0.003906,0.009552,0.972672,-0.03777,-0.009126,0.014427,65.444275,11.392258,-147.396423,,,
729600895.579305,0.206335,-0.897055,2.341631,0.003906,0.009552,0.972672,-0.03777,-0.009126,0.014427,65.444275,11.392258,-147.396423,,,
729600895.582638,0.206335,-0.897055,2.341631,0.003906,0.009552,0.972672,-0.03777,-0.009126,0.014427,65.444275,11.392258,-147.396423,,,
729600895.585974,0.194539,-0.90874,2.346818,0.004257,0.004913,0.979004,-0.046936,-0.04351,0.017744,65.444275,11.392258,-147.396423,,,
729600895.58932,0.181956,-0.9236,2.350986,0.004257,0.004913,0.979004,-0.046936,-0.04351,0.017744,65.444275,11.392258,-147.396423,,,
729600895.59271,0.181956,-0.9236,2.350986,0.004257,0.004913,0.979004,-0.046936,-0.04351,0.017744,65.444275,11.392258,-147.396423,,,
729600895.59599,0.173297,-0.942536,2.35334,0.013794,0.001099,0.998993,-0.029973,-0.060335,0.004825,65.444275,11.392258,-147.396423,,,
729600895.599313,0.166194,-0.961677,2.354612,0.013794,0.001099,0.998993,-0.029973,-0.060335,0.004825,65.444275,11.392258,-147.396423,,,
729600895.602659,0.166194,-0.961677,2.354612,0.013794,0.001099,0.998993,-0.029973,-0.060335,0.004825,65.444275,11.392258,-147.396423,,,
729600895.606073,0.164802,-0.984414,2.354704,0.021149,-0.003845,1.01326,-0.002551,-0.070774,-0.003899,65.444275,11.392258,-147.396423,,,
729600895.609313,0.165986,-1.006677,2.353194,0.021149,-0.003845,1.01326,-0.002551,-0.070774,-0.003899,65.444275,11.392258,-147.396423,,,
729600895.612666,0.165986,-1.006677,2.353194,0.021149,-0.003845,1.01326,-0.002551,-0.070774,-0.003899,65.444275,11.392258,-147.396423,,,
729600895.616005,0.17294,-1.033969,2.351219,0.02388,-0.003632,1.019867,0.023258,-0.087473,-0.00765,65.0728,11.252426,-147.439438,,,
729600895.619344,0.179937,-1.06059,2.349407,0.02388,-0.003632,1.019867,0.023258,-0.087473,-0.00765,65.0728,11.252426,-147.439438,,,
729600895.622658,0.179937,-1.06059,2.349407,0.02388,-0.003632,1.019867,0.023258,-0.087473,-0.00765,65.0728,11.252426,-147.439438,,,
729600895.625999,0.190361,-1.088451,2.347667,0.02298,-0.003799,1.013901,0.033043,-0.089045,-0.007352,65.0728,11.252426,-147.439438,,,
729600895.62931,0.200077,-1.112577,2.346024,0.02298,-0.003799,1.013901,0.033043,-0.089045,-0.007352,65.0728,11.252426,-147.439438,,,
729600895.632645,0.200077,-1.112577,2.346024,0.02298,-0.003799,1.013901,0.033043,-0.089045,-0.007352,65.0728,11.252426,-147.439438,,,
729600895.635999,0.213838,-1.13112,2.344258,0.026291,-0.000427,1.016663,0.043036,-0.058355,-0.008364,65.0728,11.252426,-147.439438,,,
729600895.639311,0.227137,-1.14675,2.342055,0.026291,-0.000427,1.016663,0.043036,-0.058355,-0.008364,65.0728,11.252426,-147.439438,,,
729600895.642655,0.227137,-1.14675,2.342055,0.026291,-0.000427,1.016663,0.043036,-0.058355,-0.008364,65.0728,11.252426,-147.439438,,,
729600895.64605,0.244725,-1.156001,2.339089,0.037064,0.003326,1.022217,0.056285,-0.033072,-0.013896,65.0728,11.252426,-147.439438,,,
729600895.649313,0.261102,-1.164628,2.335837,0.037064,0.003326,1.022217,0.056285,-0.033072,-0.013896,65.0728,11.252426,-147.439438,,,
729600895.652658,0.261102,-1.164628,2.335837,0.037064,0.003326,1.022217,0.056285,-0.033072,-0.013896,65.0728,11.252426,-147.439438,,,
729600895.655983,0.278174,-1.165357,2.33263,0.038498,0.002838,1.020859,0.057574,-0.006485,-0.013475,65.048599,11.150772,-146.98822,,,
729600895.659313,0.294305,-1.165852,2.328925,0.038498,0.002838,1.020859,0.057574,-0.006485,-0.013475,65.048599,11.150772,-146.98822,,,
729600895.662792,0.294305,-1.165852,2.328925,0.038498,0.002838,1.020859,0.057574,-0.006485,-0.013475,65.048599,11.150772,-146.98822,,,
729600895.665985,0.309573,-1.159985,2.324654,0.034836,0.004944,1.014832,0.053342,0.01667,-0.017188,65.048599,11.150772,-146.98822,,,
729600895.669317,0.324899,-1.155874,2.319813,0.034836,0.004944,1.014832,0.053342,0.01667,-0.017188,65.048599,11.150772,-146.98822,,,
729600895.672637,0.324899,-1.155874,2.319813,0.034836,0.004944,1.014832,0.053342,0.01667,-0.017188,65.048599,11.150772,-146.98822,,,
729600895.675972,0.33734,-1.150897,2.314198,0.030273,0.006134,1.003967,0.043885,0.016921,-0.02236,65.048599,11.150772,-146.98822,,,
729600895.679309,0.348943,-1.147693,2.308614,0.030273,0.006134,1.003967,0.043885,0.016921,-0.02236,65.048599,11.150772,-146.98822,,,
729600895.682649,0.348943,-1.147693,2.308614,0.030273,0.006134,1.003967,0.043885,0.016921,-0.02236,65.048599,11.150772,-146.98822,,,
729600895.686011,0.35731,-1.147043,2.303432,0.017212,0.001953,0.992401,0.036256,0.00357,-0.019405,65.048599,11.150772,-146.98822,,,
729600895.689342,0.36685,-1.148335,2.298534,0.017212,0.001953,0.992401,0.036256,0.00357,-0.019405,65.048599,11.150772,-146.98822,,,
729600895.692643,0.36685,-1.148335,2.298534,0.017212,0.001953,0.992401,0.036256,0.00357,-0.019405,65.048599,11.150772,-146.98822,,,
729600895.695995,0.372577,-1.153669,2.293506,0.011642,-0.000473,0.985718,0.025921,-0.020145,-0.020121,65.048599,11.150772,-146.98822,,,
729600895.699311,0.379768,-1.162081,2.288013,0.011642,-0.000473,0.985718,0.025921,-0.020145,-0.020121,65.168945,10.892075,-147.117828,,,
729600895.702658,0.379768,-1.162081,2.288013,0.011642,-0.000473,0.985718,0.025921,-0.020145,-0.020121,65.168945,10.892075,-147.117828,,,
729600895.705974,0.384836,-1.175057,2.282071,0.011169,-0.0,0.983734,0.025075,-0.049254,-0.023228,65.168945,10.892075,-147.117828,,,
729600895.709319,0.392491,-1.191814,2.275708,0.011169,-0.0,0.983734,0.025075,-0.049254,-0.023228,65.168945,10.892075,-147.117828,,,
729600895.712635,0.392491,-1.191814,2.275708,0.011169,-0.0,0.983734,0.025075,-0.049254,-0.023228,65.168945,10.892075,-147.117828,,,
729600895.71598,0.399801,-1.213685,2.268155,0.015472,0.003448,0.987885,0.031256,-0.070168,-0.031712,65.168945,10.892075,-147.117828,,,
729600895.719307,0.409402,-1.235631,2.259442,0.015472,0.003448,0.987885,0.031256,-0.070168,-0.031712,65.168945,10.892075,-147.117828,,,
729600895.722655,0.409402,-1.235631,2.259442,0.015472,0.003448,0.987885,0.031256,-0.070168,-0.031712,65.168945,10.892075,-147.117828,,,
729600895.726085,0.418595,-1.262741,2.250933,0.013168,0.000748,0.991989,0.034408,-0.079858,-0.030552,65.168945,10.892075,-147.117828,,,
729600895.729312,0.427601,-1.287028,2.242515,0.013168,0.000748,0.991989,0.034408,-0.079858,-0.030552,65.168945,10.892075,-147.117828,,,
729600895.732648,0.427601,-1.287028,2.242515,0.013168,0.000748,0.991989,0.034408,-0.079858,-0.030552,65.168945,10.892075,-147.117828,,,
729600895.73599,0.43487,-1.314675,2.234556,0.014221,-0.000381,0.991989,0.028817,-0.081978,-0.027417,65.168945,10.892075,-147.117828,,,
729600895.739315,0.442039,-1.338251,2.22736,0.014221,-0.000381,0.991989,0.028817,-0.081978,-0.027417,64.900269,10.990707,-147.194443,,,
729600895.742649,0.442039,-1.338251,2.22736,0.014221,-0.000381,0.991989,0.028817,-0.081978,-0.027417,64.900269,10.990707,-147.194443,,,
729600895.745988,0.447295,-1.362333,2.22076,0.02272,0.003159,0.992249,0.018515,-0.06922,-0.023176,64.900269,10.990707,-147.194443,,,
729600895.749317,0.451575,-1.382066,2.215504,0.02272,0.003159,0.992249,0.018515,-0.06922,-0.023176,64.900269,10.990707,-147.194443,,,
729600895.752714,0.451575,-1.382066,2.215504,0.02272,0.003159,0.992249,0.018515,-0.06922,-0.023176,64.900269,10.990707,-147.194443,,,
729600895.75598,0.452918,-1.400414,2.212659,0.024857,0.003738,0.991196,0.003828,-0.056458,-0.006052,64.900269,10.990707,-147.194443,,,
729600895.759311,0.453225,-1.416741,2.211648,0.024857,0.003738,0.991196,0.003828,-0.056458,-0.006052,64.900269,10.990707,-147.194443,,,
729600895.762659,0.453225,-1.416741,2.211648,0.024857,0.003738,0.991196,0.003828,-0.056458,-0.006052,64.900269,10.990707,-147.194443,,,
729600895.766012,0.451489,-1.428456,2.210891,0.027344,0.001236,0.992538,0.001651,-0.042313,-0.004066,64.900269,10.990707,-147.194443,,,
729600895.769304,0.451677,-1.43953,2.209469,0.027344,0.001236,0.992538,0.001651,-0.042313,-0.004066,64.900269,10.990707,-147.194443,,,
729600895.772663,0.451677,-1.43953,2.209469,0.027344,0.001236,0.992538,0.001651,-0.042313,-0.004066,64.900269,10.990707,-147.194443,,,
729600895.775992,0.449436,-1.44358,2.206175,0.038559,0.006088,0.999588,-0.001053,-0.01607,-0.016916,64.900269,10.990707,-147.194443,,,
729600895.779306,0.449007,-1.448442,2.200931,0.038559,0.006088,0.999588,-0.001053,-0.01607,-0.016916,64.77121,10.923767,-147.070862,,,
729600895.782639,0.449007,-1.448442,2.200931,0.038559,0.006088,0.999588,-0.001053,-0.01607,-0.016916,64.77121,10.923767,-147.070862,,,
729600895.785822,0.447223,-1.449069,2.194109,0.042389,0.007935,0.999405,-0.001372,-0.006254,-0.027774,64.77121,10.923767,-147.070862,,,
729600895.789328,0.44706,-1.450694,2.185928,0.042389,0.007935,0.999405,-0.001372,-0.006254,-0.027774,64.77121,10.923767,-147.070862,,,
729600895.792733,0.44706,-1.450694,2.185928,0.042389,0.007935,0.999405,-0.001372,-0.006254,-0.027774,64.77121,10.923767,-147.070862,,,
729600895.795971,0.446566,-1.447597,2.177438,0.03421,0.006607,0.993439,0.004619,0.009656,-0.029945,64.77121,10.923767,-147.070862,,,
729600895.799314,0.448074,-1.445075,2.169425,0.03421,0.006607,0.993439,0.004619,0.009656,-0.029945,64.77121,10.923767,-147.070862,,,
