Time (sec),Pitch (deg),Roll (deg),Yaw(deg),X-Acceleration (g),Y-Acceleration (g),Z-Acceleration (g),Pitch Rate (deg/sec),Roll Rate (deg/sec),Yaw Rate (deg/sec),Magnetic Field in X direction (uT),Magnetic Field in Y direction (uT),Magnetic Field in Z Direction (uT),Latitude (deg),Longitude (deg),Altitude (m)
729608002.740279,0.460511,-2.166762,39.723317,0.025803,-0.003906,0.987,0.104928,-0.094502,0.106968,61.161728,19.535416,-148.156876,,,
729608002.743594,0.48945,-2.196484,39.755353,0.025803,-0.003906,0.987,0.104928,-0.094502,0.106968,61.161728,19.535416,-148.156876,,,
729608002.746928,0.48945,-2.196484,39.755353,0.025803,-0.003906,0.987,0.104928,-0.094502,0.106968,61.161728,19.535416,-148.156876,,,
729608002.750309,0.519476,-2.225999,39.787367,0.03157,-0.002594,0.982788,0.10317,-0.126344,0.103356,61.161728,19.535416,-148.156876,,,
729608002.75364,0.547337,-2.26448,39.81923,0.03157,-0.002594,0.982788,0.10317,-0.126344,0.103356,61.161728,19.535416,-148.156876,,,
729608002.75695,0.547337,-2.26448,39.81923,0.03157,-0.002594,0.982788,0.10317,-0.126344,0.103356,61.161728,19.535416,-148.156876,,,
729608002.760349,0.574188,-2.302862,39.849958,0.039871,0.004181,0.97496,0.091551,-0.147787,0.10067,61.161728,19.535416,-148.156876,,,
729608002.76362,0.598119,-2.347115,39.880169,0.039871,0.004181,0.97496,0.091551,-0.147787,0.10067,61.161728,19.535416,-148.156876,,,
729608002.766948,0.598119,-2.347115,39.880169,0.039871,0.004181,0.97496,0.091551,-0.147787,0.10067,61.161728,19.535416,-148.156876,,,
729608002.770287,0.61868,-2.390332,39.910521,0.044174,0.007538,0.972626,0.066348,-0.159224,0.10202,61.161728,19.535416,-148.156876,,,
729608002.773629,0.635328,-2.437007,39.941162,0.044174,0.007538,0.972626,0.066348,-0.159224,0.10202,60.718735,19.173752,-148.425186,,,
729608002.776942,0.635328,-2.437007,39.941162,0.044174,0.007538,0.972626,0.066348,-0.159224,0.10202,60.718735,19.173752,-148.425186,,,
729608002.780261,0.646557,-2.481603,39.972809,0.04985,0.007416,0.968597,0.036903,-0.162657,0.110247,60.718735,19.173752,-148.425186,,,
729608002.78362,0.65448,-2.529398,40.004919,0.04985,0.007416,0.968597,0.036903,-0.162657,0.110247,60.718735,19.173752,-148.425186,,,
729608002.787021,0.65448,-2.529398,40.004919,0.04985,0.007416,0.968597,0.036903,-0.162657,0.110247,60.718735,19.173752,-148.425186,,,
729608002.790262,0.657463,-2.573008,40.036575,0.057648,0.008774,0.966537,0.018082,-0.162054,0.106941,60.718735,19.173752,-148.425186,,,
729608002.793653,0.659904,-2.620966,40.068091,0.057648,0.008774,0.966537,0.018082,-0.162054,0.106941,60.718735,19.173752,-148.425186,,,
729608002.796921,0.659904,-2.620966,40.068091,0.057648,0.008774,0.966537,0.018082,-0.162054,0.106941,60.718735,19.173752,-148.425186,,,
729608002.800284,0.658755,-2.666127,40.099012,0.06546,0.010025,0.974228,0.002581,-0.165946,0.100954,60.718735,19.173752,-148.425186,,,
729608002.803627,0.658755,-2.666127,40.128261,0.06546,0.010025,0.974228,0.002581,-0.165946,0.100954,60.718735,19.173752,-148.425186,,,
729608002.806941,0.657502,-2.715503,40.128261,0.06546,0.010025,0.974228,0.002581,-0.165946,0.100954,60.718735,19.173752,-148.425186,,,
729608002.810267,0.653231,-2.760758,40.156094,0.068924,0.012543,0.977676,-0.009142,-0.166686,0.095181,60.718735,19.173752,-148.425186,,,
729608002.813664,0.653231,-2.760758,40.156094,0.068924,0.012543,0.977676,-0.009142,-0.166686,0.095181,60.375595,19.216629,-148.307846,,,
729608002.816996,0.649106,-2.809242,40.183122,0.068924,0.012543,0.977676,-0.009142,-0.166686,0.095181,60.375595,19.216629,-148.307846,,,
729608002.820257,0.641266,-2.855059,40.20938,0.072647,0.012253,0.979706,-0.021511,-0.167443,0.090148,60.375595,19.216629,-148.307846,,,
729608002.823612,0.641266,-2.855059,40.20938,0.072647,0.012253,0.979706,-0.021511,-0.167443,0.090148,60.375595,19.216629,-148.307846,,,
729608002.826974,0.633395,-2.9039,40.235615,0.072647,0.012253,0.979706,-0.021511,-0.167443,0.090148,60.375595,19.216629,-148.307846,,,
729608002.8303,0.621672,-2.948963,40.262213,0.072876,0.009918,0.980026,-0.033291,-0.157085,0.093295,60.375595,19.216629,-148.307846,,,
729608002.83361,0.621672,-2.948963,40.262213,0.072876,0.009918,0.980026,-0.033291,-0.157085,0.093295,60.375595,19.216629,-148.307846,,,
729608002.836956,0.610581,-2.994073,40.289534,0.072876,0.009918,0.980026,-0.033291,-0.157085,0.093295,60.375595,19.216629,-148.307846,,,
729608002.840263,0.598818,-3.035429,40.317601,0.069946,0.003662,0.988922,-0.02987,-0.142397,0.099938,60.375595,19.216629,-148.307846,,,
729608002.843619,0.598818,-3.035429,40.317601,0.069946,0.003662,0.988922,-0.02987,-0.142397,0.099938,60.375595,19.216629,-148.307846,,,
729608002.846927,0.588673,-3.076608,40.34627,0.069946,0.003662,0.988922,-0.02987,-0.142397,0.099938,60.375595,19.216629,-148.307846,,,
729608002.850264,0.57841,-3.115635,40.375065,0.07077,0.00116,0.990295,-0.026696,-0.134126,0.100865,60.375595,19.216629,-148.307846,,,
729608002.853697,0.57841,-3.115635,40.403399,0.07077,0.00116,0.990295,-0.026696,-0.134126,0.100865,60.375595,19.216629,-148.307846,,,
729608002.856932,0.568635,-3.154694,40.403399,0.07077,0.00116,0.990295,-0.026696,-0.134126,0.100865,60.034851,19.370239,-148.010223,,,
729608002.860274,0.558715,-3.191477,40.430656,0.073776,0.003067,0.989838,-0.028461,-0.118138,0.091893,60.034851,19.370239,-148.010223,,,
729608002.863596,0.558715,-3.191477,40.430656,0.073776,0.003067,0.989838,-0.028461,-0.118138,0.091893,60.034851,19.370239,-148.010223,,,
729608002.867031,0.548402,-3.225796,40.456405,0.073776,0.003067,0.989838,-0.028461,-0.118138,0.091893,60.034851,19.370239,-148.010223,,,
729608002.870258,0.537284,-3.257074,40.480698,0.07608,0.007767,0.992538,-0.036804,-0.095244,0.080543,60.034851,19.370239,-148.010223,,,
729608002.873614,0.537284,-3.257074,40.480698,0.07608,0.007767,0.992538,-0.036804,-0.095244,0.080543,60.034851,19.370239,-148.010223,,,
729608002.876957,0.525079,-3.285591,40.503814,0.07608,0.007767,0.992538,-0.036804,-0.095244,0.080543,60.034851,19.370239,-148.010223,,,
729608002.880266,0.511254,-3.311948,40.526266,0.077499,0.008209,0.987091,-0.044825,-0.080931,0.079336,60.034851,19.370239,-148.010223,,,
729608002.883612,0.511254,-3.311948,40.526266,0.077499,0.008209,0.987091,-0.044825,-0.080931,0.079336,60.034851,19.370239,-148.010223,,,
729608002.886936,0.496481,-3.335069,40.548405,0.077499,0.008209,0.987091,-0.044825,-0.080931,0.079336,60.034851,19.370239,-148.010223,,,
729608002.890267,0.481212,-3.356537,40.570639,0.075317,0.004776,0.985809,-0.05361,-0.060166,0.078085,60.034851,19.370239,-148.010223,,,
729608002.893691,0.481212,-3.356537,40.570639,0.075317,0.004776,0.985809,-0.05361,-0.060166,0.078085,60.034851,19.370239,-148.010223,,,
729608002.896924,0.465179,-3.374256,40.592932,0.075317,0.004776,0.985809,-0.05361,-0.060166,0.078085,59.722305,19.523148,-148.194962,,,
729608002.90027,0.450465,-3.391229,40.615404,0.069199,0.002182,0.988205,-0.045337,-0.04528,0.076624,59.722305,19.523148,-148.194962,,,
729608002.903623,0.450465,-3.391229,40.615404,0.069199,0.002182,0.988205,-0.045337,-0.04528,0.076624,59.722305,19.523148,-148.194962,,,
729608002.90698,0.436527,-3.404885,40.638122,0.069199,0.002182,0.988205,-0.045337,-0.04528,0.076624,59.722305,19.523148,-148.194962,,,
729608002.910261,0.424841,-3.418881,40.660825,0.063538,-0.00116,0.990433,-0.031266,-0.036542,0.074577,59.722305,19.523148,-148.194962,,,
729608002.913593,0.424841,-3.418881,40.660825,0.063538,-0.00116,0.990433,-0.031266,-0.036542,0.074577,59.722305,19.523148,-148.194962,,,
729608002.916931,0.415475,-3.429927,40.682905,0.063538,-0.00116,0.990433,-0.031266,-0.036542,0.074577,59.722305,19.523148,-148.194962,,,
729608002.920263,0.408487,-3.441188,40.704638,0.0634,0.00145,0.990402,-0.011469,-0.030777,0.074683,59.722305,19.523148,-148.194962,,,
729608002.923625,0.408487,-3.441188,40.704638,0.0634,0.00145,0.990402,-0.011469,-0.030777,0.074683,59.722305,19.523148,-148.194962,,,
729608002.926931,0.403423,-3.450886,40.725752,0.0634,0.00145,0.990402,-0.011469,-0.030777,0.074683,59.722305,19.523148,-148.194962,,,
729608002.930264,0.398866,-3.46126,40.74545,0.062958,0.006149,0.986954,-0.005719,-0.026617,0.062843,59.722305,19.523148,-148.194962,,,
729608002.93368,0.398866,-3.46126,40.74545,0.062958,0.006149,0.986954,-0.005719,-0.026617,0.062843,59.722305,19.523148,-148.194962,,,
729608002.936929,0.395158,-3.469814,40.763796,0.062958,0.006149,0.986954,-0.005719,-0.026617,0.062843,59.670563,19.723099,-147.867035,,,
729608002.940266,0.390961,-3.479734,40.780678,0.060898,0.008224,0.981644,-0.008236,-0.020745,0.055047,59.670563,19.723099,-147.867035,,,
729608002.943612,0.390961,-3.479734,40.780678,0.060898,0.008224,0.981644,-0.008236,-0.020745,0.055047,59.670563,19.723099,-147.867035,,,
729608002.946941,0.387335,-3.486938,40.797167,0.060898,0.008224,0.981644,-0.008236,-0.020745,0.055047,59.670563,19.723099,-147.867035,,,
729608002.950285,0.383407,-3.494588,40.81429,0.060394,0.010101,0.980576,-0.010676,-0.011611,0.058702,59.670563,19.723099,-147.867035,,,
729608002.953611,0.383407,-3.494588,40.81429,0.060394,0.010101,0.980576,-0.010676,-0.011611,0.058702,59.670563,19.723099,-147.867035,,,
729608002.956952,0.379747,-3.498544,40.832286,0.060394,0.010101,0.980576,-0.010676,-0.011611,0.058702,59.670563,19.723099,-147.867035,,,
729608002.96026,0.376836,-3.504101,40.851795,0.054428,0.005814,0.983261,-0.005109,-0.003625,0.072648,59.670563,19.723099,-147.867035,,,
729608002.963597,0.376836,-3.504101,40.851795,0.054428,0.005814,0.983261,-0.005109,-0.003625,0.072648,59.670563,19.723099,-147.867035,,,
729608002.966963,0.374053,-3.505863,40.873107,0.054428,0.005814,0.983261,-0.005109,-0.003625,0.072648,59.670563,19.723099,-147.867035,,,
729608002.970267,0.370718,-3.507324,40.896015,0.055084,0.006042,0.98378,-0.005532,0.015945,0.083087,59.670563,19.723099,-147.867035,,,
729608002.973671,0.370718,-3.507324,40.896015,0.055084,0.006042,0.98378,-0.005532,0.015945,0.083087,59.670563,19.723099,-147.867035,,,
729608002.976939,0.366976,-3.502522,40.920353,0.055084,0.006042,0.98378,-0.005532,0.015945,0.083087,59.670563,19.723099,-147.867035,,,
729608002.980282,0.363023,-3.497214,40.946161,0.058121,0.006729,0.987534,-0.003333,0.030566,0.09,59.620117,19.738434,-147.95639,,,
729608002.983615,0.363023,-3.497214,40.946161,0.058121,0.006729,0.987534,-0.003333,0.030566,0.09,59.620117,19.738434,-147.95639,,,
729608002.987038,0.360317,-3.489661,40.973415,0.058121,0.006729,0.987534,-0.003333,0.030566,0.09,59.620117,19.738434,-147.95639,,,
729608002.990258,0.356434,-3.483487,41.00151,0.057144,0.005692,0.987122,-0.003247,0.026958,0.097584,59.620117,19.738434,-147.95639,,,
729608002.993593,0.356434,-3.483487,41.00151,0.057144,0.005692,0.987122,-0.003247,0.026958,0.097584,59.620117,19.738434,-147.95639,,,
729608002.996952,0.353106,-3.476515,41.029138,0.057144,0.005692,0.987122,-0.003247,0.026958,0.097584,59.620117,19.738434,-147.95639,,,
729608003.00026,0.347339,-3.470068,41.055839,0.061401,0.011276,0.984909,-0.013246,0.026249,0.087448,59.620117,19.738434,-147.95639,,,
729608003.003612,0.347339,-3.470068,41.055839,0.061401,0.011276,0.984909,-0.013246,0.026249,0.087448,59.620117,19.738434,-147.95639,,,
729608003.006952,0.341257,-3.464468,41.081425,0.061401,0.011276,0.984909,-0.013246,0.026249,0.087448,59.620117,19.738434,-147.95639,,,
729608003.010268,0.333023,-3.461393,41.10609,0.063004,0.015808,0.981186,-0.02408,0.011769,0.08501,59.620117,19.738434,-147.95639,,,
729608003.013593,0.333023,-3.461393,41.10609,0.063004,0.015808,0.981186,-0.02408,0.011769,0.08501,59.620117,19.738434,-147.95639,,,
729608003.016964,0.323835,-3.459114,41.130263,0.063004,0.015808,0.981186,-0.02408,0.011769,0.08501,59.620117,19.738434,-147.95639,,,
729608003.020348,0.314477,-3.457212,41.154474,0.067108,0.016739,0.979797,-0.031833,0.012653,0.084142,59.856689,19.601181,-147.737167,,,
729608003.02363,0.314477,-3.457212,41.154474,0.067108,0.016739,0.979797,-0.031833,0.012653,0.084142,59.856689,19.601181,-147.737167,,,
729608003.027023,0.303479,-3.454832,41.178444,0.067108,0.016739,0.979797,-0.031833,0.012653,0.084142,59.856689,19.601181,-147.737167,,,
729608003.030262,0.291474,-3.452252,41.201642,0.072159,0.015961,0.98288,-0.044495,0.017598,0.078762,59.856689,19.601181,-147.737167,,,
729608003.033619,0.291474,-3.452252,41.201642,0.072159,0.015961,0.98288,-0.044495,0.017598,0.078762,59.856689,19.601181,-147.737167,,,
729608003.036948,0.277162,-3.44803,41.223819,0.072159,0.015961,0.98288,-0.044495,0.017598,0.078762,59.856689,19.601181,-147.737167,,,
729608003.040265,0.261974,-3.441406,41.244567,0.081345,0.016708,0.982346,-0.05198,0.032458,0.071793,59.856689,19.601181,-147.737167,,,
729608003.043626,0.261974,-3.441406,41.244567,0.081345,0.016708,0.982346,-0.05198,0.032458,0.071793,59.856689,19.601181,-147.737167,,,
729608003.046928,0.245179,-3.432306,41.264022,0.081345,0.016708,0.982346,-0.05198,0.032458,0.071793,59.856689,19.601181,-147.737167,,,
729608003.050265,0.228304,-3.419212,41.282249,0.08725,0.019028,0.98732,-0.056476,0.053111,0.063264,59.856689,19.601181,-147.737167,,,
729608003.053659,0.228304,-3.419212,41.282249,0.08725,0.019028,0.98732,-0.056476,0.053111,0.063264,59.856689,19.601181,-147.737167,,,
729608003.056937,0.211394,-3.404186,41.299283,0.08725,0.019028,0.98732,-0.056476,0.053111,0.063264,59.856689,19.601181,-147.737167,,,
729608003.060261,0.196121,-3.388172,41.315745,0.085373,0.018555,0.990662,-0.047291,0.059679,0.056671,59.721985,19.950714,-147.716049,,,
729608003.063604,0.196121,-3.388172,41.315745,0.085373,0.018555,0.990662,-0.047291,0.059679,0.056671,59.721985,19.950714,-147.716049,,,
729608003.066976,0.181749,-3.372778,41.332483,0.085373,0.018555,0.990662,-0.047291,0.059679,0.056671,59.721985,19.950714,-147.716049,,,
729608003.070257,0.168986,-3.35864,41.349588,0.079102,0.011185,0.991104,-0.037901,0.045446,0.062251,59.721985,19.950714,-147.716049,,,
729608003.073615,0.168986,-3.35864,41.349588,0.079102,0.011185,0.991104,-0.037901,0.045446,0.062251,59.721985,19.950714,-147.716049,,,
729608003.076951,0.158028,-3.346672,41.367508,0.079102,0.011185,0.991104,-0.037901,0.045446,0.062251,59.721985,19.950714,-147.716049,,,
729608003.080279,0.149457,-3.337228,41.386013,0.073288,0.002228,0.992813,-0.026634,0.033056,0.063779,59.721985,19.950714,-147.716049,,,
729608003.083613,0.149457,-3.337228,41.386013,0.073288,0.002228,0.992813,-0.026634,0.033056,0.063779,59.721985,19.950714,-147.716049,,,
729608003.086949,0.140927,-3.328891,41.403154,0.073288,0.002228,0.992813,-0.026634,0.033056,0.063779,59.721985,19.950714,-147.716049,,,
729608003.09026,0.133775,-3.32177,41.417524,0.077866,0.005173,0.994415,-0.030411,0.033507,0.041921,59.721985,19.950714,-147.716049,,,
729608003.09369,0.133775,-3.32177,41.417524,0.077866,0.005173,0.994415,-0.030411,0.033507,0.041921,59.721985,19.950714,-147.716049,,,
729608003.096918,0.123056,-3.313712,41.428193,0.077866,0.005173,0.994415,-0.030411,0.033507,0.041921,59.721985,19.950714,-147.716049,,,
729608003.100263,0.113379,-3.306633,41.434706,0.083466,0.013596,0.997589,-0.045216,0.03512,0.013161,59.845001,19.921356,-147.976501,,,
729608003.103604,0.113379,-3.306633,41.434706,0.083466,0.013596,0.997589,-0.045216,0.03512,0.013161,59.845001,19.921356,-147.976501,,,
729608003.107015,0.09957,-3.297412,41.437617,0.083466,0.013596,0.997589,-0.045216,0.03512,0.013161,59.845001,19.921356,-147.976501,,,
729608003.110265,0.086288,-3.290383,41.437563,0.081482,0.014893,0.996994,-0.058731,0.034561,-0.005642,59.845001,19.921356,-147.976501,,,
729608003.113596,0.086288,-3.290383,41.437563,0.081482,0.014893,0.996994,-0.058731,0.034561,-0.005642,59.845001,19.921356,-147.976501,,,
729608003.116956,0.068384,-3.280494,41.434912,0.081482,0.014893,0.996994,-0.058731,0.034561,-0.005642,59.845001,19.921356,-147.976501,,,
729608003.120269,0.051624,-3.273956,41.430516,0.076889,0.007141,0.999252,-0.069768,0.040814,-0.016351,59.845001,19.921356,-147.976501,,,
729608003.123605,0.051624,-3.273956,41.430516,0.076889,0.007141,0.999252,-0.069768,0.040814,-0.016351,59.845001,19.921356,-147.976501,,,
729608003.126951,0.031168,-3.263193,41.425449,0.076889,0.007141,0.999252,-0.069768,0.040814,-0.016351,59.845001,19.921356,-147.976501,,,
729608003.130263,0.014091,-3.259045,41.420572,0.069656,-0.003799,1.001892,-0.065632,0.032752,-0.012622,59.845001,19.921356,-147.976501,,,
729608003.133687,0.014091,-3.259045,41.420572,0.069656,-0.003799,1.001892,-0.065632,0.032752,-0.012622,59.845001,19.921356,-147.976501,,,
729608003.136939,-0.004504,-3.250973,41.416992,0.069656,-0.003799,1.001892,-0.065632,0.032752,-0.012622,59.845001,19.921356,-147.976501,,,
729608003.140261,-0.016914,-3.249896,41.414689,0.060059,-0.016739,1.011963,-0.046754,0.021672,-0.003751,59.845001,19.921356,-147.976501,,,
729608003.143618,-0.016914,-3.249896,41.414689,0.060059,-0.016739,1.011963,-0.046754,0.021672,-0.003751,59.847107,20.041107,-148.178497,,,
729608003.146928,-0.030007,-3.245019,41.413559,0.060059,-0.016739,1.011963,-0.046754,0.021672,-0.003751,59.847107,20.041107,-148.178497,,,
729608003.150273,-0.037861,-3.245787,41.412593,0.058365,-0.024338,1.017059,-0.032043,0.016158,-0.003876,59.847107,20.041107,-148.178497,,,
729608003.153624,-0.037861,-3.245787,41.412593,0.058365,-0.024338,1.017059,-0.032043,0.016158,-0.003876,59.847107,20.041107,-148.178497,,,
729608003.156994,-0.04694,-3.241129,41.410765,0.058365,-0.024338,1.017059,-0.032043,0.016158,-0.003876,59.847107,20.041107,-148.178497,,,
729608003.160263,-0.052964,-3.239003,41.408204,0.061234,-0.02095,1.024307,-0.02077,0.023773,-0.010489,59.847107,20.041107,-148.178497,,,
729608003.163595,-0.052964,-3.239003,41.408204,0.061234,-0.02095,1.024307,-0.02077,0.023773,-0.010489,59.847107,20.041107,-148.178497,,,
729608003.166954,-0.057912,-3.232523,41.405017,0.061234,-0.02095,1.024307,-0.02077,0.023773,-0.010489,59.847107,20.041107,-148.178497,,,
729608003.170265,-0.060093,-3.227014,41.401226,0.06366,-0.019485,1.027542,-0.006292,0.040722,-0.016623,59.847107,20.041107,-148.178497,,,
729608003.173677,-0.060093,-3.227014,41.401226,0.06366,-0.019485,1.027542,-0.006292,0.040722,-0.016623,59.847107,20.041107,-148.178497,,,
729608003.176947,-0.061242,-3.215163,41.396048,0.06366,-0.019485,1.027542,-0.006292,0.040722,-0.016623,59.847107,20.041107,-148.178497,,,
729608003.180291,-0.058152,-3.20606,41.389405,0.068024,-0.020584,1.032104,0.008692,0.053214,-0.028523,59.847107,20.041107,-148.178497,,,
729608003.183597,-0.058152,-3.20606,41.389405,0.068024,-0.020584,1.032104,0.008692,0.053214,-0.028523,60.125122,20.445816,-148.038376,,,
729608003.186933,-0.054492,-3.191772,41.381644,0.068024,-0.020584,1.032104,0.008692,0.053214,-0.028523,60.125122,20.445816,-148.038376,,,
729608003.190264,-0.04574,-3.181286,41.373117,0.066788,-0.021774,1.026398,0.023399,0.060458,-0.031876,60.125122,20.445816,-148.038376,,,
729608003.19361,-0.04574,-3.181286,41.373117,0.066788,-0.021774,1.026398,0.023399,0.060458,-0.031876,60.125122,20.445816,-148.038376,,,
729608003.196933,-0.039173,-3.164294,41.36465,0.066788,-0.021774,1.026398,0.023399,0.060458,-0.031876,60.125122,20.445816,-148.038376,,,
729608003.200271,-0.03101,-3.149431,41.357292,0.06102,-0.025787,1.022644,0.016781,0.07063,-0.024428,60.125122,20.445816,-148.038376,,,
729608003.20361,-0.03101,-3.149431,41.357292,0.06102,-0.025787,1.022644,0.016781,0.07063,-0.024428,60.125122,20.445816,-148.038376,,,
729608003.206951,-0.026416,-3.130117,41.351572,0.06102,-0.025787,1.022644,0.016781,0.07063,-0.024428,60.125122,20.445816,-148.038376,,,
729608003.210274,-0.023389,-3.115542,41.34725,0.053238,-0.027145,1.010895,0.006446,0.063158,-0.014002,60.125122,20.445816,-148.038376,,,
729608003.213594,-0.023389,-3.115542,41.34725,0.053238,-0.027145,1.010895,0.006446,0.063158,-0.014002,60.125122,20.445816,-148.038376,,,
729608003.216955,-0.022801,-3.098502,41.343712,0.053238,-0.027145,1.010895,0.006446,0.063158,-0.014002,60.125122,20.445816,-148.038376,,,
729608003.220306,-0.026489,-3.082394,41.340636,0.054184,-0.021408,1.00264,-0.012187,0.066141,-0.011837,60.125122,20.445816,-148.038376,,,
729608003.223601,-0.026489,-3.082394,41.340636,0.054184,-0.021408,1.00264,-0.012187,0.066141,-0.011837,60.093842,20.217896,-147.997528,,,
729608003.226661,-0.029558,-3.065252,41.336949,0.054184,-0.021408,1.00264,-0.012187,0.066141,-0.011837,60.093842,20.217896,-147.997528,,,
729608003.230306,-0.036365,-3.050501,41.331435,0.060013,-0.013107,1.004044,-0.011743,0.047204,-0.026324,60.093842,20.217896,-147.997528,,,
729608003.233609,-0.036365,-3.050501,41.331435,0.060013,-0.013107,1.004044,-0.011743,0.047204,-0.026324,60.093842,20.217896,-147.997528,,,
729608003.236998,-0.039666,-3.03935,41.323815,0.060013,-0.013107,1.004044,-0.011743,0.047204,-0.026324,60.093842,20.217896,-147.997528,,,
729608003.240272,-0.045212,-3.033139,41.313877,0.066895,-0.007904,0.997284,-0.0101,0.015473,-0.042112,60.093842,20.217896,-147.997528,,,
729608003.243644,-0.045212,-3.033139,41.313877,0.066895,-0.007904,0.997284,-0.0101,0.015473,-0.042112,60.093842,20.217896,-147.997528,,,
729608003.246929,-0.047632,-3.029606,41.301722,0.066895,-0.007904,0.997284,-0.0101,0.015473,-0.042112,60.093842,20.217896,-147.997528,,,
729608003.250279,-0.052436,-3.030635,41.28808,0.068863,-0.007278,0.9953,-0.00815,-0.004644,-0.048895,60.093842,20.217896,-147.997528,,,
729608003.253617,-0.052436,-3.030635,41.28808,0.068863,-0.007278,0.9953,-0.00815,-0.004644,-0.048895,60.093842,20.217896,-147.997528,,,
729608003.256951,-0.054398,-3.033325,41.274504,0.068863,-0.007278,0.9953,-0.00815,-0.004644,-0.048895,60.093842,20.217896,-147.997528,,,
729608003.260267,-0.058051,-3.039546,41.262068,0.068451,-0.013153,0.997589,-0.004736,-0.019596,-0.039601,60.093842,20.217896,-147.997528,,,
729608003.263677,-0.058051,-3.039546,41.262068,0.068451,-0.013153,0.997589,-0.004736,-0.019596,-0.039601,60.093842,20.217896,-147.997528,,,
729608003.267001,-0.057782,-3.046441,41.251238,0.068451,-0.013153,0.997589,-0.004736,-0.019596,-0.039601,60.129517,20.37822,-147.885818,,,
729608003.270259,-0.058751,-3.057512,41.242539,0.062271,-0.019485,1.001328,0.006175,-0.035667,-0.027254,60.129517,20.37822,-147.885818,,,
729608003.273615,-0.058751,-3.057512,41.242539,0.062271,-0.019485,1.001328,0.006175,-0.035667,-0.027254,60.129517,20.37822,-147.885818,,,
729608003.277017,-0.056436,-3.068632,41.235067,0.062271,-0.019485,1.001328,0.006175,-0.035667,-0.027254,60.129517,20.37822,-147.885818,,,
729608003.280255,-0.056803,-3.080015,41.227341,0.066589,-0.017593,0.999268,0.008866,-0.023978,-0.030767,60.129517,20.37822,-147.885818,,,
729608003.283619,-0.056803,-3.080015,41.227341,0.066589,-0.017593,0.999268,0.008866,-0.023978,-0.030767,60.129517,20.37822,-147.885818,,,
729608003.286937,-0.053922,-3.086739,41.218232,0.066589,-0.017593,0.999268,0.008866,-0.023978,-0.030767,60.129517,20.37822,-147.885818,,,
729608003.290262,-0.054961,-3.089824,41.207104,0.076767,-0.005524,1.008209,0.00875,6.8e-05,-0.047093,60.129517,20.37822,-147.885818,,,
729608003.293615,-0.054961,-3.089824,41.207104,0.076767,-0.005524,1.008209,0.00875,6.8e-05,-0.047093,60.129517,20.37822,-147.885818,,,
729608003.296928,-0.052668,-3.090046,41.194165,0.076767,-0.005524,1.008209,0.00875,6.8e-05,-0.047093,60.129517,20.37822,-147.885818,,,
729608003.300271,-0.053579,-3.08809,41.179885,0.079102,-7.6e-05,1.006866,0.002091,0.01537,-0.055081,60.129517,20.37822,-147.885818,,,
729608003.303638,-0.053579,-3.08809,41.179885,0.079102,-7.6e-05,1.006866,0.002091,0.01537,-0.055081,60.129517,20.37822,-147.885818,,,
729608003.306936,-0.052268,-3.083618,41.164688,0.079102,-7.6e-05,1.006866,0.002091,0.01537,-0.055081,60.46431,20.196899,-148.024292,,,
729608003.310265,-0.055179,-3.076358,41.148994,0.073685,-0.002136,1.002075,-0.012038,0.038199,-0.054888,60.46431,20.196899,-148.024292,,,
729608003.313595,-0.055179,-3.076358,41.148994,0.073685,-0.002136,1.002075,-0.012038,0.038199,-0.054888,60.46431,20.196899,-148.024292,,,
729608003.316974,-0.058474,-3.065782,41.133412,0.073685,-0.002136,1.002075,-0.012038,0.038199,-0.054888,60.46431,20.196899,-148.024292,,,
729608003.320254,-0.065512,-3.055168,41.117586,0.067657,-0.004501,0.996094,-0.026565,0.049443,-0.054554,60.46431,20.196899,-148.024292,,,
729608003.323611,-0.065512,-3.055168,41.117586,0.067657,-0.004501,0.996094,-0.026565,0.049443,-0.054554,60.46431,20.196899,-148.024292,,,
729608003.326988,-0.072963,-3.042531,41.101436,0.067657,-0.004501,0.996094,-0.026565,0.049443,-0.054554,60.46431,20.196899,-148.024292,,,
729608003.330255,-0.082322,-3.033095,41.084934,0.065063,-0.003647,0.99025,-0.032096,0.04164,-0.059395,60.46431,20.196899,-148.024292,,,
729608003.333608,-0.082322,-3.033095,41.084934,0.065063,-0.003647,0.99025,-0.032096,0.04164,-0.059395,60.46431,20.196899,-148.024292,,,
729608003.336941,-0.091301,-3.021983,41.067699,0.065063,-0.003647,0.99025,-0.032096,0.04164,-0.059395,60.46431,20.196899,-148.024292,,,
729608003.340268,-0.101011,-3.016226,41.049875,0.059067,-0.005997,0.992508,-0.026131,0.026822,-0.064068,60.46431,20.196899,-148.024292,,,
729608003.343588,-0.101011,-3.016226,41.049875,0.059067,-0.005997,0.992508,-0.026131,0.026822,-0.064068,60.46431,20.196899,-148.024292,,,
729608003.346974,-0.106903,-3.010005,41.031631,0.059067,-0.005997,0.992508,-0.026131,0.026822,-0.064068,60.211166,20.261505,-148.136368,,,
729608003.350259,-0.113404,-3.008636,41.013222,0.050903,-0.009781,0.995941,-0.00915,0.00594,-0.064735,60.211166,20.261505,-148.136368,,,
729608003.353682,-0.113404,-3.008636,41.013222,0.050903,-0.009781,0.995941,-0.00915,0.00594,-0.064735,60.211166,20.261505,-148.136368,,,
729608003.356973,-0.114433,-3.00897,40.995115,0.050903,-0.009781,0.995941,-0.00915,0.00594,-0.064735,60.211166,20.261505,-148.136368,,,
729608003.360283,-0.115682,-3.015261,40.977469,0.048218,-0.014725,0.996811,0.014248,-0.020552,-0.059697,60.211166,20.261505,-148.136368,,,
729608003.363598,-0.115682,-3.015261,40.977469,0.048218,-0.014725,0.996811,0.014248,-0.020552,-0.059697,60.211166,20.261505,-148.136368,,,
729608003.366948,-0.111103,-3.02255,40.960488,0.048218,-0.014725,0.996811,0.014248,-0.020552,-0.059697,60.211166,20.261505,-148.136368,,,
729608003.370294,-0.105481,-3.034957,40.944049,0.046219,-0.015884,1.000259,0.026656,-0.026528,-0.059454,60.211166,20.261505,-148.136368,,,
729608003.373611,-0.105481,-3.034957,40.944049,0.046219,-0.015884,1.000259,0.026656,-0.026528,-0.059454,60.211166,20.261505,-148.136368,,,
729608003.376961,-0.096419,-3.043283,40.928265,0.046219,-0.015884,1.000259,0.026656,-0.026528,-0.059454,60.211166,20.261505,-148.136368,,,
729608003.380275,-0.085768,-3.054068,40.913458,0.045288,-0.009003,1.00325,0.039441,-0.012072,-0.052943,60.211166,20.261505,-148.136368,,,
729608003.383629,-0.085768,-3.054068,40.913458,0.045288,-0.009003,1.00325,0.039441,-0.012072,-0.052943,60.211166,20.261505,-148.136368,,,
729608003.386934,-0.074599,-3.057544,40.899592,0.045288,-0.009003,1.00325,0.039441,-0.012072,-0.052943,59.984238,20.384857,-147.977051,,,
729608003.390329,-0.062623,-3.061168,40.886648,0.047516,-0.006271,1.004074,0.045717,0.01371,-0.04369,59.984238,20.384857,-147.977051,,,
729608003.393693,-0.062623,-3.061168,40.886648,0.047516,-0.006271,1.004074,0.045717,0.01371,-0.04369,59.984238,20.384857,-147.977051,,,
729608003.396961,-0.049813,-3.057217,40.87508,0.047516,-0.006271,1.004074,0.045717,0.01371,-0.04369,59.984238,20.384857,-147.977051,,,
729608003.400271,-0.036944,-3.053731,40.864947,0.047241,-0.004562,1.001389,0.045199,0.033365,-0.03732,59.984238,20.384857,-147.977051,,,
729608003.40371,-0.036944,-3.053731,40.864947,0.047241,-0.004562,1.001389,0.045199,0.033365,-0.03732,59.984238,20.384857,-147.977051,,,
729608003.406957,-0.02364,-3.044704,40.855454,0.047241,-0.004562,1.001389,0.045199,0.033365,-0.03732,59.984238,20.384857,-147.977051,,,
729608003.41026,-0.012008,-3.035439,40.846704,0.047165,0.001602,0.995529,0.040235,0.05138,-0.033617,59.984238,20.384857,-147.977051,,,
729608003.413719,-0.012008,-3.035439,40.846704,0.047165,0.001602,0.995529,0.040235,0.05138,-0.033617,59.984238,20.384857,-147.977051,,,
729608003.416987,-0.000167,-3.021636,40.838625,0.047165,0.001602,0.995529,0.040235,0.05138,-0.033617,59.984238,20.384857,-147.977051,,,
729608003.420273,0.009742,-3.008331,40.830849,0.042007,0.00676,0.991989,0.03435,0.057063,-0.028343,59.984238,20.384857,-147.977051,,,
729608003.423629,0.009742,-3.008331,40.830849,0.042007,0.00676,0.991989,0.03435,0.057063,-0.028343,59.984238,20.384857,-147.977051,,,
729608003.426933,0.019282,-2.99275,40.824032,0.042007,0.00676,0.991989,0.03435,0.057063,-0.028343,60.19342,19.963867,-148.051468,,,
729608003.43027,0.026359,-2.97773,40.818255,0.042358,0.013657,0.983536,0.023702,0.051894,-0.022147,60.19342,19.963867,-148.051468,,,
729608003.433614,0.026359,-2.97773,40.818255,0.042358,0.013657,0.983536,0.023702,0.051894,-0.022147,60.19342,19.963867,-148.051468,,,
729608003.436938,0.033748,-2.96382,40.814056,0.042358,0.013657,0.983536,0.023702,0.051894,-0.022147,60.19342,19.963867,-148.051468,,,
729608003.440271,0.037794,-2.952264,40.810956,0.037369,0.016586,0.976593,0.017835,0.035625,-0.013074,60.19342,19.963867,-148.051468,,,
729608003.443709,0.037794,-2.952264,40.810956,0.037369,0.016586,0.976593,0.017835,0.035625,-0.013074,60.19342,19.963867,-148.051468,,,
729608003.446918,0.042993,-2.944443,40.80815,0.037369,0.016586,0.976593,0.017835,0.035625,-0.013074,60.19342,19.963867,-148.051468,,,
729608003.450264,0.045976,-2.93911,40.806166,0.038437,0.017059,0.97757,0.027584,0.009989,-0.008675,60.19342,19.963867,-148.051468,,,
729608003.453606,0.045976,-2.93911,40.806166,0.038437,0.017059,0.97757,0.027584,0.009989,-0.008675,60.19342,19.963867,-148.051468,,,
729608003.45702,0.054717,-2.938415,40.804701,0.038437,0.017059,0.97757,0.027584,0.009989,-0.008675,60.19342,19.963867,-148.051468,,,
729608003.460263,0.063973,-2.941108,40.803256,0.045792,0.026901,0.98555,0.048273,-0.022565,-0.010694,60.19342,19.963867,-148.051468,,,
729608003.463603,0.063973,-2.941108,40.803256,0.045792,0.026901,0.98555,0.048273,-0.022565,-0.010694,60.19342,19.963867,-148.051468,,,
729608003.466939,0.07841,-2.947997,40.801696,0.045792,0.026901,0.98555,0.048273,-0.022565,-0.010694,60.19342,19.963867,-148.051468,,,
729608003.470307,0.07841,-2.947997,40.799706,0.050049,0.033142,0.989517,0.061439,-0.027823,-0.014029,60.083771,20.069824,-148.050049,,,
729608003.473618,0.09331,-2.955361,40.799706,0.050049,0.033142,0.989517,0.061439,-0.027823,-0.014029,60.083771,20.069824,-148.050049,,,
729608003.476946,0.11109,-2.963548,40.797326,0.050049,0.033142,0.989517,0.061439,-0.027823,-0.014029,60.083771,20.069824,-148.050049,,,
729608003.480282,0.11109,-2.963548,40.794732,0.053848,0.037918,0.993774,0.0671,-0.014183,-0.015077,60.083771,20.069824,-148.050049,,,
729608003.483668,0.128333,-2.969411,40.794732,0.053848,0.037918,0.993774,0.0671,-0.014183,-0.015077,60.083771,20.069824,-148.050049,,,
729608003.48695,0.147807,-2.973599,40.792107,0.053848,0.037918,0.993774,0.0671,-0.014183,-0.015077,60.083771,20.069824,-148.050049,,,
729608003.490262,0.147807,-2.973599,40.792107,0.053848,0.037918,0.993774,0.0671,-0.014183,-0.015077,60.083771,20.069824,-148.050049,,,
729608003.493618,0.167272,-2.973706,40.789548,0.055161,0.039963,0.994705,0.071102,0.009761,-0.013938,60.083771,20.069824,-148.050049,,,
729608003.496938,0.188396,-2.970902,40.786786,0.055161,0.039963,0.994705,0.071102,0.009761,-0.013938,60.083771,20.069824,-148.050049,,,
729608003.500337,0.188396,-2.963253,40.782897,0.056122,0.037415,0.998337,0.080305,0.033935,-0.019614,60.083771,20.069824,-148.050049,,,
729608003.503617,0.210908,-2.963253,40.782897,0.056122,0.037415,0.998337,0.080305,0.033935,-0.019614,60.083771,20.069824,-148.050049,,,
729608003.50695,0.23368,-2.954065,40.778121,0.056122,0.037415,0.998337,0.080305,0.033935,-0.019614,60.083771,20.069824,-148.050049,,,
729608003.510318,0.23368,-2.954065,40.778121,0.056122,0.037415,0.998337,0.084695,0.044128,-0.024798,60.075912,19.838318,-147.778763,,,
729608003.513602,0.258291,-2.941696,40.77336,0.05304,0.0336,0.996155,0.084695,0.044128,-0.024798,60.075912,19.838318,-147.778763,,,
729608003.516953,0.281898,-2.928975,40.768299,0.05304,0.0336,0.996155,0.084695,0.044128,-0.024798,60.075912,19.838318,-147.778763,,,
729608003.520271,0.281898,-2.928975,40.768299,0.05304,0.0336,0.996155,0.084695,0.044128,-0.024798,60.075912,19.838318,-147.778763,,,
729608003.523674,0.307522,-2.912586,40.762771,0.046158,0.032974,0.993515,0.082425,0.053377,-0.026476,60.075912,19.838318,-147.778763,,,
729608003.526938,0.331475,-2.898675,40.756687,0.046158,0.032974,0.993515,0.082425,0.053377,-0.026476,60.075912,19.838318,-147.778763,,,
729608003.530301,0.331475,-2.898675,40.756687,0.035995,0.027328,0.99205,0.086611,0.037349,-0.024463,60.075912,19.838318,-147.778763,,,
729608003.533612,0.357651,-2.884999,40.750529,0.035995,0.027328,0.99205,0.086611,0.037349,-0.024463,60.075912,19.838318,-147.778763,,,
729608003.537003,0.381812,-2.876062,40.744938,0.035995,0.027328,0.99205,0.086611,0.037349,-0.024463,60.075912,19.838318,-147.778763,,,
729608003.540311,0.381812,-2.876062,40.744938,0.035995,0.027328,0.99205,0.086611,0.037349,-0.024463,60.075912,19.838318,-147.778763,,,
729608003.543625,0.410022,-2.868073,40.740303,0.027359,0.021317,0.989731,0.089321,0.021226,-0.022245,60.075912,19.838318,-147.778763,,,
729608003.546935,0.436518,-2.863263,40.736557,0.027359,0.021317,0.989731,0.089321,0.021226,-0.022245,60.075912,19.838318,-147.778763,,,
729608003.550336,0.436518,-2.863263,40.736557,0.02356,0.019852,0.993439,0.095025,0.009482,-0.016288,60.157318,19.488708,-148.098038,,,
729608003.553611,0.467567,-2.860023,40.733539,0.02356,0.019852,0.993439,0.095025,0.009482,-0.016288,60.157318,19.488708,-148.098038,,,
729608003.55694,0.4946,-2.858386,40.731072,0.02356,0.019852,0.993439,0.095025,0.009482,-0.016288,60.157318,19.488708,-148.098038,,,
729608003.560267,0.4946,-2.858386,40.731072,0.02356,0.019852,0.993439,0.096511,0.000114,-0.005465,60.157318,19.488708,-148.098038,,,
729608003.563601,0.526898,-2.85908,40.729805,0.021637,0.013077,0.994308,0.096511,0.000114,-0.005465,60.157318,19.488708,-148.098038,,,
729608003.56695,0.554839,-2.861125,40.730602,0.021637,0.013077,0.994308,0.096511,0.000114,-0.005465,60.157318,19.488708,-148.098038,,,
729608003.570303,0.554839,-2.861125,40.730602,0.021637,0.013077,0.994308,0.096511,0.000114,-0.005465,60.157318,19.488708,-148.098038,,,
729608003.573611,0.588613,-2.865478,40.73286,0.019745,0.006561,0.993347,0.100361,-0.012567,0.004425,60.157318,19.488708,-148.098038,,,
729608003.577002,0.61681,-2.869577,40.736009,0.019745,0.006561,0.993347,0.100361,-0.012567,0.004425,60.157318,19.488708,-148.098038,,,
729608003.580354,0.61681,-2.869577,40.736009,0.019745,0.006561,0.993347,0.092073,-0.015442,0.011314,60.157318,19.488708,-148.098038,,,
729608003.583622,0.64856,-2.875268,40.739865,0.026398,0.0056,0.992874,0.092073,-0.015442,0.011314,60.157318,19.488708,-148.098038,,,
729608003.586943,0.67406,-2.879716,40.744138,0.026398,0.0056,0.992874,0.092073,-0.015442,0.011314,60.157318,19.488708,-148.098038,,,
729608003.590267,0.67406,-2.879716,40.744138,0.026398,0.0056,0.992874,0.092073,-0.015442,0.011314,60.185577,19.441467,-147.976151,,,
729608003.593613,0.70294,-2.88474,40.748688,0.03511,0.007431,0.990677,0.088545,-0.013416,0.012316,60.185577,19.441467,-147.976151,,,
729608003.596933,0.726932,-2.889396,40.754088,0.03511,0.007431,0.990677,0.088545,-0.013416,0.012316,60.185577,19.441467,-147.976151,,,
729608003.600313,0.726932,-2.889396,40.754088,0.03511,0.007431,0.990677,0.088545,-0.013416,0.012316,60.185577,19.441467,-147.976151,,,
729608003.603658,0.754005,-2.893256,40.760416,0.040054,0.005417,0.988998,0.079874,-0.004762,0.017876,60.185577,19.441467,-147.976151,,,
729608003.606926,0.776591,-2.894958,40.767749,0.040054,0.005417,0.988998,0.079874,-0.004762,0.017876,60.185577,19.441467,-147.976151,,,
729608003.610289,0.776591,-2.894958,40.767749,0.040054,0.005417,0.988998,0.079874,-0.004762,0.017876,60.185577,19.441467,-147.976151,,,
729608003.613597,0.800462,-2.892231,40.776986,0.042099,0.001205,0.988525,0.071448,0.014394,0.031505,60.185577,19.441467,-147.976151,,,
729608003.61694,0.819702,-2.888874,40.787958,0.042099,0.001205,0.988525,0.071448,0.014394,0.031505,60.185577,19.441467,-147.976151,,,
729608003.620327,0.819702,-2.888874,40.787958,0.042099,0.001205,0.988525,0.071448,0.014394,0.031505,60.185577,19.441467,-147.976151,,,
729608003.6236,0.83961,-2.880745,40.800127,0.040329,-0.002487,0.989975,0.067636,0.020564,0.044463,60.185577,19.441467,-147.976151,,,
729608003.626933,0.857909,-2.875334,40.814481,0.040329,-0.002487,0.989975,0.067636,0.020564,0.044463,60.185577,19.441467,-147.976151,,,
729608003.630278,0.857909,-2.875334,40.814481,0.040329,-0.002487,0.989975,0.067636,0.020564,0.044463,60.185577,19.441467,-147.976151,,,
729608003.633615,0.876586,-2.864057,40.831361,0.040298,1.5e-05,0.984985,0.063246,0.030235,0.0628,60.102753,19.348129,-147.956619,,,
729608003.636932,0.893371,-2.856388,40.850963,0.040298,1.5e-05,0.984985,0.063246,0.030235,0.0628,60.102753,19.348129,-147.956619,,,
729608003.640318,0.893371,-2.856388,40.850963,0.040298,1.5e-05,0.984985,0.063246,0.030235,0.0628,60.102753,19.348129,-147.956619,,,
729608003.643663,0.909584,-2.842728,40.873127,0.039322,-0.000763,0.986679,0.058169,0.042587,0.078202,60.102753,19.348129,-147.956619,,,
729608003.646929,0.925616,-2.831997,40.897364,0.039322,-0.000763,0.986679,0.058169,0.042587,0.078202,60.102753,19.348129,-147.956619,,,
729608003.650275,0.925616,-2.831997,40.897364,0.039322,-0.000763,0.986679,0.058169,0.042587,0.078202,60.102753,19.348129,-147.956619,,,
729608003.653616,0.940425,-2.814559,40.922897,0.040482,-0.00058,0.987457,0.060065,0.051712,0.089144,60.102753,19.348129,-147.956619,,,
729608003.65693,0.956385,-2.801141,40.94957,0.040482,-0.00058,0.987457,0.060065,0.051712,0.089144,60.102753,19.348129,-147.956619,,,
729608003.660321,0.956385,-2.801141,40.94957,0.040482,-0.00058,0.987457,0.060065,0.051712,0.089144,60.102753,19.348129,-147.956619,,,
729608003.663591,0.969787,-2.783875,40.976845,0.044067,0.004288,0.986282,0.054249,0.04352,0.091684,60.102753,19.348129,-147.956619,,,
729608003.666933,0.983688,-2.773113,41.00449,0.044067,0.004288,0.986282,0.054249,0.04352,0.091684,60.102753,19.348129,-147.956619,,,
729608003.670363,0.983688,-2.773113,41.00449,0.044067,0.004288,0.986282,0.054249,0.04352,0.091684,60.102753,19.348129,-147.956619,,,
729608003.673598,0.994094,-2.761227,41.031925,0.048798,0.009964,0.97963,0.040859,0.032721,0.088985,60.183517,19.055817,-147.555969,,,
729608003.676936,1.003421,-2.753672,41.058553,0.048798,0.009964,0.97963,0.040859,0.032721,0.088985,60.183517,19.055817,-147.555969,,,
729608003.680266,1.003421,-2.753672,41.058553,0.048798,0.009964,0.97963,0.040859,0.032721,0.088985,60.183517,19.055817,-147.555969,,,
729608003.683657,1.007756,-2.746738,41.083539,0.058792,0.01825,0.977753,0.015712,0.017636,0.080815,60.183517,19.055817,-147.555969,,,
729608003.686926,1.010685,-2.743531,41.1065,0.058792,0.01825,0.977753,0.015712,0.017636,0.080815,60.183517,19.055817,-147.555969,,,
729608003.690277,1.010685,-2.743531,41.1065,0.058792,0.01825,0.977753,0.015712,0.017636,0.080815,60.183517,19.055817,-147.555969,,,
729608003.693639,1.008346,-2.741142,41.127596,0.064972,0.024506,0.973572,-0.004458,0.003854,0.068628,60.183517,19.055817,-147.555969,,,
729608003.696933,1.005905,-2.741065,41.146971,0.064972,0.024506,0.973572,-0.004458,0.003854,0.068628,60.183517,19.055817,-147.555969,,,
729608003.70034,1.005905,-2.741065,41.146971,0.064972,0.024506,0.973572,-0.004458,0.003854,0.068628,60.183517,19.055817,-147.555969,,,
729608003.703618,0.997788,-2.740531,41.164408,0.069016,0.025955,0.977829,-0.024958,0.003415,0.054143,60.183517,19.055817,-147.555969,,,
729608003.706931,0.989078,-2.74097,41.179539,0.069016,0.025955,0.977829,-0.024958,0.003415,0.054143,60.183517,19.055817,-147.555969,,,
729608003.710328,0.989078,-2.74097,41.179539,0.069016,0.025955,0.977829,-0.024958,0.003415,0.054143,60.183517,19.055817,-147.555969,,,
729608003.713599,0.974529,-2.740264,41.193043,0.072952,0.025208,0.980057,-0.047423,0.002319,0.04519,60.25061,19.156845,-147.97821,,,
729608003.716931,0.959271,-2.73967,41.205159,0.072952,0.025208,0.980057,-0.047423,0.002319,0.04519,60.25061,19.156845,-147.97821,,,
729608003.720271,0.959271,-2.73967,41.205159,0.072952,0.025208,0.980057,-0.047423,0.002319,0.04519,60.25061,19.156845,-147.97821,,,
729608003.723685,0.938835,-2.737044,41.215488,0.074539,0.022263,0.984573,-0.06543,0.011596,0.035294,60.25061,19.156845,-147.97821,,,
729608003.726927,0.918105,-2.734335,41.224813,0.074539,0.022263,0.984573,-0.06543,0.011596,0.035294,60.25061,19.156845,-147.97821,,,
729608003.730267,0.918105,-2.734335,41.224813,0.074539,0.022263,0.984573,-0.06543,0.011596,0.035294,60.25061,19.156845,-147.97821,,,
729608003.733624,0.893844,-2.729926,41.233416,0.074081,0.01944,0.992142,-0.076585,0.016721,0.029258,60.25061,19.156845,-147.97821,,,
729608003.736934,0.871526,-2.726284,41.24123,0.074081,0.01944,0.992142,-0.076585,0.016721,0.029258,60.25061,19.156845,-147.97821,,,
729608003.740274,0.871526,-2.726284,41.24123,0.074081,0.01944,0.992142,-0.076585,0.016721,0.029258,60.25061,19.156845,-147.97821,,,
729608003.743602,0.847882,-2.722188,41.248402,0.071503,0.013031,0.998795,-0.074069,0.018772,0.026837,60.25061,19.156845,-147.97821,,,
729608003.746936,0.826663,-2.718138,41.255011,0.071503,0.013031,0.998795,-0.074069,0.018772,0.026837,60.25061,19.156845,-147.97821,,,
729608003.750341,0.826663,-2.718138,41.255011,0.071503,0.013031,0.998795,-0.074069,0.018772,0.026837,60.25061,19.156845,-147.97821,,,
729608003.753606,0.805807,-2.712567,41.26071,0.072128,0.005661,1.009476,-0.060558,0.024554,0.017746,60.25061,19.156845,-147.97821,,,
729608003.756932,0.788321,-2.705582,41.265882,0.072128,0.005661,1.009476,-0.060558,0.024554,0.017746,60.288345,19.16864,-147.896255,,,
729608003.760279,0.788321,-2.705582,41.265882,0.072128,0.005661,1.009476,-0.060558,0.024554,0.017746,60.288345,19.16864,-147.896255,,,
729608003.763598,0.774604,-2.699115,41.271199,0.071762,0.000534,1.018127,-0.038664,0.032394,0.017378,60.288345,19.16864,-147.896255,,,
729608003.766933,0.76409,-2.690794,41.276637,0.071762,0.000534,1.018127,-0.038664,0.032394,0.017378,60.288345,19.16864,-147.896255,,,
729608003.770283,0.76409,-2.690794,41.276637,0.071762,0.000534,1.018127,-0.038664,0.032394,0.017378,60.288345,19.16864,-147.896255,,,
729608003.773611,0.75747,-2.685433,41.281913,0.065247,-0.005096,1.018646,-0.025076,0.033488,0.017533,60.288345,19.16864,-147.896255,,,
729608003.776925,0.750222,-2.676411,41.286843,0.065247,-0.005096,1.018646,-0.025076,0.033488,0.017533,60.288345,19.16864,-147.896255,,,
729608003.780263,0.750222,-2.676411,41.286843,0.065247,-0.005096,1.018646,-0.025076,0.033488,0.017533,60.288345,19.16864,-147.896255,,,
729608003.78361,0.745816,-2.670303,41.291166,0.064209,-0.006042,1.016083,-0.020409,0.037569,0.009763,60.288345,19.16864,-147.896255,,,
729608003.786934,0.739115,-2.659623,41.293817,0.064209,-0.006042,1.016083,-0.020409,0.037569,0.009763,60.288345,19.16864,-147.896255,,,
729608003.790329,0.739115,-2.659623,41.293817,0.064209,-0.006042,1.016083,-0.020409,0.037569,0.009763,60.288345,19.16864,-147.896255,,,
729608003.793614,0.733772,-2.653864,41.294624,0.063461,-0.0,1.01033,-0.028831,0.035878,-0.002152,60.288345,19.16864,-147.896255,,,
729608003.796933,0.724941,-2.645158,41.294312,0.063461,-0.0,1.01033,-0.028831,0.035878,-0.002152,60.283707,19.328613,-147.721359,,,
729608003.800275,0.724941,-2.645158,41.294312,0.063461,-0.0,1.01033,-0.028831,0.035878,-0.002152,60.283707,19.328613,-147.721359,,,
729608003.803698,0.716537,-2.643413,41.292555,0.055359,0.004837,1.00116,-0.041519,0.025228,-0.0097,60.283707,19.328613,-147.721359,,,
729608003.806933,0.704334,-2.637592,41.289418,0.055359,0.004837,1.00116,-0.041519,0.025228,-0.0097,60.283707,19.328613,-147.721359,,,
729608003.810288,0.704334,-2.637592,41.289418,0.055359,0.004837,1.00116,-0.041519,0.025228,-0.0097,60.283707,19.328613,-147.721359,,,
729608003.813605,0.692566,-2.638496,41.285628,0.054657,0.0065,0.999359,-0.049711,0.009744,-0.017239,60.283707,19.328613,-147.721359,,,
729608003.816937,0.678205,-2.636541,41.280519,0.054657,0.0065,0.999359,-0.049711,0.009744,-0.017239,60.283707,19.328613,-147.721359,,,
729608003.820278,0.678205,-2.636541,41.280519,0.054657,0.0065,0.999359,-0.049711,0.009744,-0.017239,60.283707,19.328613,-147.721359,,,
729608003.823612,0.663438,-2.641647,41.273963,0.056305,0.005051,1.000488,-0.051606,-0.001392,-0.022325,60.283707,19.328613,-147.721359,,,
729608003.826937,0.648715,-2.644173,41.266363,0.056305,0.005051,1.000488,-0.051606,-0.001392,-0.022325,60.283707,19.328613,-147.721359,,,
729608003.830267,0.648715,-2.644173,41.266363,0.056305,0.005051,1.000488,-0.051606,-0.001392,-0.022325,60.283707,19.328613,-147.721359,,,
729608003.833623,0.634199,-2.652322,41.258379,0.053787,0.000961,1.003967,-0.04848,-0.016237,-0.027639,60.283707,19.328613,-147.721359,,,
729608003.836934,0.620998,-2.658043,41.250313,0.053787,0.000961,1.003967,-0.04848,-0.016237,-0.027639,60.258072,19.579224,-147.918457,,,
729608003.840281,0.620998,-2.658043,41.250313,0.053787,0.000961,1.003967,-0.04848,-0.016237,-0.027639,60.258072,19.579224,-147.918457,,,
729608003.843671,0.607555,-2.668405,41.242,0.054672,0.001144,1.005875,-0.03678,-0.016968,-0.031226,60.258072,19.579224,-147.918457,,,
729608003.84693,0.597232,-2.673709,41.233451,0.054672,0.001144,1.005875,-0.03678,-0.016968,-0.031226,60.258072,19.579224,-147.918457,,,
729608003.85028,0.597232,-2.673709,41.233451,0.054672,0.001144,1.005875,-0.03678,-0.016968,-0.031226,60.258072,19.579224,-147.918457,,,
729608003.853621,0.587487,-2.682158,41.22613,0.053528,-0.000488,1.014572,-0.017656,-0.010446,-0.018825,60.258072,19.579224,-147.918457,,,
729608003.856937,0.583005,-2.686397,41.220603,0.053528,-0.000488,1.014572,-0.017656,-0.010446,-0.018825,60.258072,19.579224,-147.918457,,,
729608003.860279,0.583005,-2.686397,41.220603,0.053528,-0.000488,1.014572,-0.017656,-0.010446,-0.018825,60.258072,19.579224,-147.918457,,,
729608003.863605,0.578312,-2.691477,41.216958,0.055359,-0.007126,1.018494,0.001879,0.002582,-0.010847,60.258072,19.579224,-147.918457,,,
729608003.866938,0.579572,-2.691009,41.214287,0.055359,-0.007126,1.018494,0.001879,0.002582,-0.010847,60.258072,19.579224,-147.918457,,,
729608003.870328,0.579572,-2.691009,41.214287,0.055359,-0.007126,1.018494,0.001879,0.002582,-0.010847,60.258072,19.579224,-147.918457,,,
729608003.873615,0.581451,-2.691727,41.211908,0.058289,-0.004425,1.02298,0.023527,0.01406,-0.011522,60.258072,19.579224,-147.918457,,,
729608003.876934,0.588654,-2.689586,41.208952,0.058289,-0.004425,1.02298,0.023527,0.01406,-0.011522,60.310791,19.59874,-147.885834,,,
729608003.880264,0.588654,-2.689586,41.208952,0.058289,-0.004425,1.02298,0.023527,0.01406,-0.011522,60.310791,19.59874,-147.885834,,,
729608003.88363,0.597776,-2.690162,41.205688,0.058472,0.001724,1.022736,0.039341,0.007287,-0.01687,60.310791,19.59874,-147.885834,,,
729608003.886935,0.609491,-2.68921,41.201721,0.058472,0.001724,1.022736,0.039341,0.007287,-0.01687,60.310791,19.59874,-147.885834,,,
729608003.890274,0.609491,-2.68921,41.201721,0.058472,0.001724,1.022736,0.039341,0.007287,-0.01687,60.310791,19.59874,-147.885834,,,
729608003.893679,0.619832,-2.688881,41.196714,0.055984,0.008286,1.017609,0.03418,0.007941,-0.023862,60.310791,19.59874,-147.885834,,,
729608003.896927,0.629468,-2.687851,41.191163,0.055984,0.008286,1.017609,0.03418,0.007941,-0.023862,60.310791,19.59874,-147.885834,,,
729608003.900277,0.629468,-2.687851,41.191163,0.055984,0.008286,1.017609,0.03418,0.007941,-0.023862,60.310791,19.59874,-147.885834,,,
729608003.903625,0.637059,-2.688798,41.184561,0.052063,0.014404,1.009476,0.02339,-0.002748,-0.027539,60.310791,19.59874,-147.885834,,,
729608003.906932,0.644051,-2.689813,41.177052,0.052063,0.014404,1.009476,0.02339,-0.002748,-0.027539,60.310791,19.59874,-147.885834,,,
729608003.910279,0.644051,-2.689813,41.177052,0.052063,0.014404,1.009476,0.02339,-0.002748,-0.027539,60.310791,19.59874,-147.885834,,,
729608003.913607,0.64942,-2.692911,41.169327,0.052841,0.013397,1.004456,0.019147,-0.008707,-0.031932,60.310791,19.59874,-147.885834,,,
729608003.916936,0.655158,-2.696452,41.161426,0.052841,0.013397,1.004456,0.019147,-0.008707,-0.031932,60.310791,19.59874,-147.885834,,,
729608003.920307,0.655158,-2.696452,41.161426,0.052841,0.013397,1.004456,0.019147,-0.008707,-0.031932,60.407791,19.602463,-147.960892,,,
729608003.923618,0.65888,-2.701987,41.153145,0.05249,0.013763,1.001831,0.023787,-0.016132,-0.03106,60.407791,19.602463,-147.960892,,,
729608003.926925,0.665603,-2.707152,41.144936,0.05249,0.013763,1.001831,0.023787,-0.016132,-0.03106,60.407791,19.602463,-147.960892,,,
729608003.930264,0.665603,-2.707152,41.144936,0.05249,0.013763,1.001831,0.023787,-0.016132,-0.03106,60.407791,19.602463,-147.960892,,,
729608003.933663,0.673484,-2.713252,41.137836,0.04837,0.012756,1.005051,0.036939,-0.013083,-0.023174,60.407791,19.602463,-147.960892,,,
729608003.93693,0.684868,-2.717101,41.132565,0.04837,0.012756,1.005051,0.036939,-0.013083,-0.023174,60.407791,19.602463,-147.960892,,,
729608003.940276,0.684868,-2.717101,41.132565,0.04837,0.012756,1.005051,0.036939,-0.013083,-0.023174,60.407791,19.602463,-147.960892,,,
729608003.943612,0.694855,-2.720469,41.12868,0.04631,0.010513,1.007492,0.046649,-0.003097,-0.013123,60.407791,19.602463,-147.960892,,,
729608003.946939,0.708614,-2.722765,41.125827,0.04631,0.010513,1.007492,0.046649,-0.003097,-0.013123,60.407791,19.602463,-147.960892,,,
729608003.950272,0.708614,-2.722765,41.125827,0.04631,0.010513,1.007492,0.046649,-0.003097,-0.013123,60.407791,19.602463,-147.960892,,,
729608003.953616,0.71949,-2.727246,41.124114,0.049438,0.013123,1.002228,0.050924,-0.01008,-0.008547,60.407791,19.602463,-147.960892,,,
729608003.956934,0.733469,-2.730916,41.122332,0.049438,0.013123,1.002228,0.050924,-0.01008,-0.008547,60.407791,19.602463,-147.960892,,,
729608003.960331,0.733469,-2.730916,41.122332,0.049438,0.013123,1.002228,0.050924,-0.01008,-0.008547,60.380234,19.250763,-147.772736,,,
729608003.963599,0.744648,-2.736643,41.11892,0.052826,0.016602,0.995682,0.048242,-0.013763,-0.022266,60.380234,19.250763,-147.772736,,,
729608003.966941,0.758365,-2.741687,41.113374,0.052826,0.016602,0.995682,0.048242,-0.013763,-0.022266,60.380234,19.250763,-147.772736,,,
729608003.97028,0.758365,-2.741687,41.113374,0.052826,0.016602,0.995682,0.048242,-0.013763,-0.022266,60.380234,19.250763,-147.772736,,,
729608003.973666,0.770952,-2.74997,41.10599,0.056427,0.022308,0.995773,0.047357,-0.026031,-0.037119,60.380234,19.250763,-147.772736,,,
729608003.976938,0.784767,-2.758184,41.096171,0.056427,0.022308,0.995773,0.047357,-0.026031,-0.037119,60.380234,19.250763,-147.772736,,,
729608003.980266,0.784767,-2.758184,41.096171,0.056427,0.022308,0.995773,0.047357,-0.026031,-0.037119,60.380234,19.250763,-147.772736,,,
729608003.983606,0.798834,-2.768091,41.084159,0.057053,0.024216,0.994324,0.050936,-0.029727,-0.048545,60.380234,19.250763,-147.772736,,,
729608003.986934,0.813741,-2.77749,41.070948,0.057053,0.024216,0.994324,0.050936,-0.029727,-0.048545,60.380234,19.250763,-147.772736,,,
729608003.990267,0.813741,-2.77749,41.070948,0.057053,0.024216,0.994324,0.050936,-0.029727,-0.048545,60.380234,19.250763,-147.772736,,,
729608003.993641,0.828609,-2.787138,41.05698,0.055557,0.019196,0.994827,0.04845,-0.024747,-0.053064,60.380234,19.250763,-147.772736,,,
729608003.99697,0.843201,-2.795107,41.043564,0.055557,0.019196,0.994827,0.04845,-0.024747,-0.053064,60.380234,19.250763,-147.772736,,,
729608004.000287,0.843201,-2.795107,41.043564,0.055557,0.019196,0.994827,0.04845,-0.024747,-0.053064,60.248688,18.991699,-147.887482,,,
729608004.003627,0.857661,-2.801777,41.031542,0.047028,0.01239,0.994797,0.049226,-0.013397,-0.038921,60.248688,18.991699,-147.887482,,,
729608004.00696,0.872719,-2.805554,41.021667,0.047028,0.01239,0.994797,0.049226,-0.013397,-0.038921,60.248688,18.991699,-147.887482,,,
729608004.01036,0.872719,-2.805554,41.021667,0.047028,0.01239,0.994797,0.049226,-0.013397,-0.038921,60.248688,18.991699,-147.887482,,,
729608004.013329,0.887919,-2.807108,41.014889,0.039871,0.006073,0.997574,0.055717,0.005422,-0.023771,60.248688,18.991699,-147.887482,,,
729608004.016992,0.905012,-2.805513,41.010646,0.039871,0.006073,0.997574,0.055717,0.005422,-0.023771,60.248688,18.991699,-147.887482,,,
729608004.020262,0.905012,-2.805513,41.010646,0.039871,0.006073,0.997574,0.055717,0.005422,-0.023771,60.248688,18.991699,-147.887482,,,
729608004.023682,0.923042,-2.799983,41.007903,0.040268,0.003754,1.002167,0.070582,0.029022,-0.014485,60.248688,18.991699,-147.887482,,,
729608004.026926,0.943706,-2.792118,41.005701,0.040268,0.003754,1.002167,0.070582,0.029022,-0.014485,60.248688,18.991699,-147.887482,,,
729608004.0303,0.943706,-2.792118,41.005701,0.040268,0.003754,1.002167,0.070582,0.029022,-0.014485,60.248688,18.991699,-147.887482,,,
729608004.033628,0.965112,-2.782174,41.002743,0.043884,0.008972,1.000671,0.079681,0.038555,-0.017996,60.248688,18.991699,-147.887482,,,
729608004.036939,0.98773,-2.771445,40.998309,0.043884,0.008972,1.000671,0.079681,0.038555,-0.017996,60.248688,18.991699,-147.887482,,,
729608004.040272,0.98773,-2.771445,40.998309,0.043884,0.008972,1.000671,0.079681,0.038555,-0.017996,60.456787,19.118576,-147.969025,,,
729608004.043607,1.010061,-2.760991,40.992809,0.041855,0.014435,0.991577,0.077723,0.041019,-0.027956,60.456787,19.118576,-147.969025,,,
729608004.046954,1.032242,-2.750007,40.986068,0.041855,0.014435,0.991577,0.077723,0.041019,-0.027956,60.456787,19.118576,-147.969025,,,
729608004.050365,1.032242,-2.750007,40.986068,0.041855,0.014435,0.991577,0.077723,0.041019,-0.027956,60.456787,19.118576,-147.969025,,,
729608004.053606,1.054327,-2.74199,40.97852,0.039688,0.017746,0.985428,0.070922,0.026931,-0.034778,60.456787,19.118576,-147.969025,,,
729608004.056931,1.075037,-2.735429,40.970143,0.039688,0.017746,0.985428,0.070922,0.026931,-0.034778,60.456787,19.118576,-147.969025,,,
729608004.060284,1.075037,-2.735429,40.970143,0.039688,0.017746,0.985428,0.070922,0.026931,-0.034778,60.456787,19.118576,-147.969025,,,
729608004.063602,1.095925,-2.735367,40.961708,0.03476,0.014114,0.978333,0.065531,-0.004922,-0.031633,60.456787,19.118576,-147.969025,,,
729608004.066928,1.115161,-2.73887,40.95472,0.03476,0.014114,0.978333,0.065531,-0.004922,-0.031633,60.456787,19.118576,-147.969025,,,
729608004.070281,1.115161,-2.73887,40.95472,0.03476,0.014114,0.978333,0.065531,-0.004922,-0.031633,60.456787,19.118576,-147.969025,,,
729608004.073609,1.133282,-2.747099,40.948405,0.024994,0.007568,0.971771,0.058342,-0.027757,-0.026089,60.456787,19.118576,-147.969025,,,
729608004.076939,1.14973,-2.755829,40.94312,0.024994,0.007568,0.971771,0.058342,-0.027757,-0.026089,60.456787,19.118576,-147.969025,,,
729608004.080263,1.14973,-2.755829,40.94312,0.024994,0.007568,0.971771,0.058342,-0.027757,-0.026089,60.456787,19.118576,-147.969025,,,
729608004.08365,1.164743,-2.766802,40.939357,0.027084,0.005203,0.978226,0.055314,-0.038788,-0.01352,60.539856,18.783875,-147.888916,,,
729608004.086937,1.18102,-2.779022,40.937237,0.027084,0.005203,0.978226,0.055314,-0.038788,-0.01352,60.539856,18.783875,-147.888916,,,
729608004.090343,1.18102,-2.779022,40.937237,0.027084,0.005203,0.978226,0.055314,-0.038788,-0.01352,60.539856,18.783875,-147.888916,,,
729608004.093593,1.195343,-2.790897,40.937054,0.029694,0.006287,0.982117,0.057168,-0.039903,0.000624,60.539856,18.783875,-147.888916,,,
729608004.096939,1.211458,-2.802804,40.938594,0.029694,0.006287,0.982117,0.057168,-0.039903,0.000624,60.539856,18.783875,-147.888916,,,
729608004.100293,1.211458,-2.802804,40.938594,0.029694,0.006287,0.982117,0.057168,-0.039903,0.000624,60.539856,18.783875,-147.888916,,,
729608004.103689,1.224847,-2.80989,40.941141,0.036423,0.007202,0.985855,0.052396,-0.016468,0.002173,60.539856,18.783875,-147.888916,,,
729608004.106931,1.23984,-2.814299,40.943319,0.036423,0.007202,0.985855,0.052396,-0.016468,0.002173,60.539856,18.783875,-147.888916,,,
729608004.110282,1.23984,-2.814299,40.943319,0.036423,0.007202,0.985855,0.052396,-0.016468,0.002173,60.539856,18.783875,-147.888916,,,
729608004.113606,1.250185,-2.81294,40.945175,0.05011,0.013794,0.987,0.044465,0.017257,0.002741,60.539856,18.783875,-147.888916,,,
729608004.116939,1.262225,-2.808113,40.947125,0.05011,0.013794,0.987,0.044465,0.017257,0.002741,60.539856,18.783875,-147.888916,,,
729608004.120281,1.262225,-2.808113,40.947125,0.05011,0.013794,0.987,0.044465,0.017257,0.002741,60.539856,18.783875,-147.888916,,,
729608004.123619,1.271165,-2.798142,40.949461,0.05513,0.022034,0.983414,0.034284,0.045415,0.008874,60.4944,18.517471,-147.62471,,,
729608004.126937,1.279879,-2.785767,40.952555,0.05513,0.022034,0.983414,0.034284,0.045415,0.008874,60.4944,18.517471,-147.62471,,,
729608004.130322,1.279879,-2.785767,40.952555,0.05513,0.022034,0.983414,0.034284,0.045415,0.008874,60.4944,18.517471,-147.62471,,,
729608004.133631,1.28525,-2.769932,40.95677,0.052826,0.020981,0.980789,0.021008,0.055709,0.015801,60.4944,18.517471,-147.62471,,,
729608004.136935,1.290189,-2.754572,40.962079,0.052826,0.020981,0.980789,0.021008,0.055709,0.015801,60.4944,18.517471,-147.62471,,,
729608004.14028,1.290189,-2.754572,40.962079,0.052826,0.020981,0.980789,0.021008,0.055709,0.015801,60.4944,18.517471,-147.62471,,,
729608004.143612,1.292913,-2.73741,40.967378,0.04985,0.020874,0.973755,0.00878,0.056391,0.01375,60.4944,18.517471,-147.62471,,,
729608004.146939,1.294266,-2.721721,40.971394,0.04985,0.020874,0.973755,0.00878,0.056391,0.01375,60.4944,18.517471,-147.62471,,,
729608004.150286,1.294266,-2.721721,40.971394,0.04985,0.020874,0.973755,0.00878,0.056391,0.01375,60.4944,18.517471,-147.62471,,,
729608004.153685,1.292352,-2.705213,40.973033,0.052856,0.025803,0.973022,-0.004621,0.045398,0.00084,60.4944,18.517471,-147.62471,,,
729608004.15692,1.29039,-2.694309,40.972919,0.052856,0.025803,0.973022,-0.004621,0.045398,0.00084,60.4944,18.517471,-147.62471,,,
729608004.160275,1.29039,-2.694309,40.972919,0.052856,0.025803,0.973022,-0.004621,0.045398,0.00084,60.4944,18.517471,-147.62471,,,
729608004.163598,1.284278,-2.684941,40.971402,0.053955,0.031052,0.96846,-0.020438,0.017307,-0.008684,60.616547,18.694016,-147.981857,,,
729608004.166928,1.278295,-2.681761,40.96866,0.053955,0.031052,0.96846,-0.020438,0.017307,-0.008684,60.616547,18.694016,-147.981857,,,
729608004.170275,1.278295,-2.681761,40.96866,0.053955,0.031052,0.96846,-0.020438,0.017307,-0.008684,60.616547,18.694016,-147.981857,,,
729608004.173616,1.268783,-2.67984,40.964924,0.051132,0.032028,0.967682,-0.030399,-0.001372,-0.0152,60.616547,18.694016,-147.981857,,,
729608004.176921,1.259604,-2.681768,40.960425,0.051132,0.032028,0.967682,-0.030399,-0.001372,-0.0152,60.616547,18.694016,-147.981857,,,
729608004.180327,1.259604,-2.681768,40.960425,0.051132,0.032028,0.967682,-0.030399,-0.001372,-0.0152,60.616547,18.694016,-147.981857,,,
729608004.183608,1.247877,-2.683173,40.955305,0.054092,0.030151,0.97406,-0.037426,-0.007203,-0.019568,60.616547,18.694016,-147.981857,,,
729608004.186933,1.236646,-2.685361,40.950142,0.054092,0.030151,0.97406,-0.037426,-0.007203,-0.019568,60.616547,18.694016,-147.981857,,,
729608004.19028,1.236646,-2.685361,40.950142,0.054092,0.030151,0.97406,-0.037426,-0.007203,-0.019568,60.616547,18.694016,-147.981857,,,
729608004.193666,1.223487,-2.685792,40.945136,0.055801,0.027206,0.980698,-0.04976,0.009678,-0.014913,60.616547,18.694016,-147.981857,,,
729608004.196922,1.209666,-2.68339,40.940775,0.055801,0.027206,0.980698,-0.04976,0.009678,-0.014913,60.616547,18.694016,-147.981857,,,
729608004.200276,1.209666,-2.68339,40.940775,0.055801,0.027206,0.980698,-0.04976,0.009678,-0.014913,60.616547,18.694016,-147.981857,,,
729608004.203596,1.193933,-2.678033,40.937653,0.055756,0.026184,0.988312,-0.060257,0.037675,-0.005819,60.766891,18.929245,-147.829361,,,
729608004.206933,1.175792,-2.667143,40.935813,0.055756,0.026184,0.988312,-0.060257,0.037675,-0.005819,60.766891,18.929245,-147.829361,,,
