Time (sec),Pitch (deg),Roll (deg),Yaw(deg),X-Acceleration (g),Y-Acceleration (g),Z-Acceleration (g),Pitch Rate (deg/sec),Roll Rate (deg/sec),Yaw Rate (deg/sec),Magnetic Field in X direction (uT),Magnetic Field in Y direction (uT),Magnetic Field in Z Direction (uT),Latitude (deg),Longitude (deg),Altitude (m)
729606785.939697,2.7043,-1.317766,58.741922,0.020981,0.035187,0.988129,0.026773,0.038493,-0.044652,60.290344,21.415619,-146.588638,,,
729606785.943048,2.707706,-1.309131,58.72939,0.020981,0.035187,0.988129,0.017473,0.048812,-0.046903,60.290344,21.415619,-146.588638,,,
729606785.946413,2.707706,-1.309131,58.72939,0.020981,0.035187,0.988129,0.017473,0.048812,-0.046903,60.290344,21.415619,-146.588638,,,
729606785.949783,2.711198,-1.295448,58.715555,0.025391,0.034348,0.98761,0.017473,0.048812,-0.046903,60.290344,21.415619,-146.588638,,,
729606785.953035,2.711928,-1.284281,58.701661,0.025391,0.034348,0.98761,0.010918,0.049769,-0.049913,60.290344,21.415619,-146.588638,,,
729606785.956387,2.711928,-1.284281,58.701661,0.025391,0.034348,0.98761,0.010918,0.049769,-0.049913,60.290344,21.415619,-146.588638,,,
729606785.959711,2.714002,-1.270652,58.688062,0.023651,0.032318,0.98494,0.010918,0.049769,-0.049913,60.290344,21.415619,-146.588638,,,
729606785.963028,2.71259,-1.259231,58.67496,0.023651,0.032318,0.98494,0.002429,0.042831,-0.047513,60.290344,21.415619,-146.588638,,,
729606785.966377,2.71259,-1.259231,58.67496,0.023651,0.032318,0.98494,0.002429,0.042831,-0.047513,60.290344,21.415619,-146.588638,,,
729606785.969703,2.712418,-1.248926,58.663034,0.01712,0.030472,0.979294,0.002429,0.042831,-0.047513,60.290344,21.415619,-146.588638,,,
729606785.973045,2.707625,-1.240844,58.652794,0.01712,0.030472,0.979294,-0.005481,0.031588,-0.035198,60.311844,21.196945,-146.758957,,,
729606785.976503,2.707625,-1.240844,58.652794,0.01712,0.030472,0.979294,-0.005481,0.031588,-0.035198,60.311844,21.196945,-146.758957,,,
729606785.979714,2.703396,-1.234454,58.644066,0.017776,0.032349,0.974579,-0.005481,0.031588,-0.035198,60.311844,21.196945,-146.758957,,,
729606785.983129,2.694796,-1.229769,58.636401,0.017776,0.032349,0.974579,-0.018392,0.019279,-0.026953,60.311844,21.196945,-146.758957,,,
729606785.986478,2.694796,-1.229769,58.636401,0.017776,0.032349,0.974579,-0.018392,0.019279,-0.026953,60.311844,21.196945,-146.758957,,,
729606785.989718,2.687358,-1.225267,58.629427,0.027725,0.039673,0.971207,-0.018392,0.019279,-0.026953,60.311844,21.196945,-146.758957,,,
729606785.993029,2.674818,-1.219676,58.622581,0.027725,0.039673,0.971207,-0.035793,0.017702,-0.024551,60.311844,21.196945,-146.758957,,,
729606785.996369,2.674818,-1.219676,58.622581,0.027725,0.039673,0.971207,-0.035793,0.017702,-0.024551,60.311844,21.196945,-146.758957,,,
729606785.999805,2.663249,-1.21433,58.615081,0.038528,0.046249,0.972321,-0.035793,0.017702,-0.024551,60.311844,21.196945,-146.758957,,,
729606786.003028,2.646374,-1.206321,58.607128,0.038528,0.046249,0.972321,-0.049448,0.023035,-0.027278,60.311844,21.196945,-146.758957,,,
729606786.006382,2.646374,-1.206321,58.607128,0.038528,0.046249,0.972321,-0.049448,0.023035,-0.027278,60.311844,21.196945,-146.758957,,,
729606786.00982,2.628883,-1.199016,58.599386,0.040558,0.050568,0.977036,-0.049448,0.023035,-0.027278,60.311844,21.196945,-146.758957,,,
729606786.013054,2.607488,-1.189799,58.590953,0.040558,0.050568,0.977036,-0.067765,0.028763,-0.027979,60.340576,21.500748,-146.99086,,,
729606786.016458,2.607488,-1.189799,58.590953,0.040558,0.050568,0.977036,-0.067765,0.028763,-0.027979,60.340576,21.500748,-146.99086,,,
729606786.019715,2.584893,-1.180473,58.581455,0.038849,0.054428,0.97905,-0.067765,0.028763,-0.027979,60.340576,21.500748,-146.99086,,,
729606786.024291,2.558199,-1.171979,58.571651,0.038849,0.054428,0.97905,-0.087207,0.035375,-0.032971,60.340576,21.500748,-146.99086,,,
729606786.026208,2.558199,-1.171979,58.571651,0.038849,0.054428,0.97905,-0.087207,0.035375,-0.032971,60.340576,21.500748,-146.99086,,,
729606786.029735,2.531816,-1.163282,58.561344,0.034592,0.052933,0.983627,-0.087207,0.035375,-0.032971,60.340576,21.500748,-146.99086,,,
729606786.033027,2.502748,-1.158258,58.550125,0.034592,0.052933,0.983627,-0.097141,0.026436,-0.03631,60.340576,21.500748,-146.99086,,,
729606786.036359,2.502748,-1.158258,58.550125,0.034592,0.052933,0.983627,-0.097141,0.026436,-0.03631,60.340576,21.500748,-146.99086,,,
729606786.039718,2.473493,-1.153369,58.537263,0.031448,0.050125,0.98703,-0.097141,0.026436,-0.03631,60.340576,21.500748,-146.99086,,,
729606786.043051,2.44129,-1.151187,58.523114,0.031448,0.050125,0.98703,-0.107865,0.00782,-0.04927,60.340576,21.500748,-146.99086,,,
729606786.046373,2.44129,-1.151187,58.523114,0.031448,0.050125,0.98703,-0.107865,0.00782,-0.04927,60.340576,21.500748,-146.99086,,,
729606786.049795,2.4104,-1.151843,58.508163,0.027985,0.04805,0.990372,-0.107865,0.00782,-0.04927,60.340576,21.500748,-146.99086,,,
729606786.053038,2.377713,-1.153289,58.492479,0.027985,0.04805,0.990372,-0.109183,-0.008986,-0.053213,60.555573,21.586838,-146.79657,,,
729606786.056392,2.377713,-1.153289,58.492479,0.027985,0.04805,0.990372,-0.109183,-0.008986,-0.053213,60.555573,21.586838,-146.79657,,,
729606786.059701,2.346781,-1.156723,58.477447,0.021378,0.045914,0.999924,-0.109183,-0.008986,-0.053213,60.555573,21.586838,-146.79657,,,
729606786.063038,2.315675,-1.162007,58.463928,0.021378,0.045914,0.999924,-0.103866,-0.018069,-0.046502,60.555573,21.586838,-146.79657,,,
729606786.066392,2.315675,-1.162007,58.463928,0.021378,0.045914,0.999924,-0.103866,-0.018069,-0.046502,60.555573,21.586838,-146.79657,,,
729606786.069719,2.286614,-1.167895,58.45189,0.012802,0.039993,1.010483,-0.103866,-0.018069,-0.046502,60.555573,21.586838,-146.79657,,,
729606786.073035,2.259939,-1.17858,58.441775,0.012802,0.039993,1.010483,-0.094634,-0.019323,-0.034957,60.555573,21.586838,-146.79657,,,
729606786.076472,2.259939,-1.17858,58.441775,0.012802,0.039993,1.010483,-0.094634,-0.019323,-0.034957,60.555573,21.586838,-146.79657,,,
729606786.079718,2.235098,-1.184497,58.432924,0.01149,0.035477,1.01915,-0.094634,-0.019323,-0.034957,60.555573,21.586838,-146.79657,,,
729606786.083046,2.215134,-1.19665,58.424975,0.01149,0.035477,1.01915,-0.076682,-0.015709,-0.027255,60.555573,21.586838,-146.79657,,,
729606786.08641,2.215134,-1.19665,58.424975,0.01149,0.035477,1.01915,-0.076682,-0.015709,-0.027255,60.555573,21.586838,-146.79657,,,
729606786.089785,2.195551,-1.200178,58.417142,0.012527,0.038071,1.027557,-0.076682,-0.015709,-0.027255,60.555573,21.586838,-146.79657,,,
729606786.093052,2.181638,-1.210653,58.409631,0.012527,0.038071,1.027557,-0.059409,-0.00611,-0.026353,60.555573,21.586838,-146.79657,,,
729606786.09638,2.181638,-1.210653,58.409631,0.012527,0.038071,1.027557,-0.059409,-0.00611,-0.026353,60.551071,21.634018,-146.658203,,,
729606786.099705,2.1661,-1.211592,58.401263,0.014984,0.039429,1.032288,-0.059409,-0.00611,-0.026353,60.551071,21.634018,-146.658203,,,
729606786.103034,2.156089,-1.218861,58.392863,0.014984,0.039429,1.032288,-0.046482,0.001331,-0.030194,60.551071,21.634018,-146.658203,,,
729606786.106399,2.156089,-1.218861,58.392863,0.014984,0.039429,1.032288,-0.046482,0.001331,-0.030194,60.551071,21.634018,-146.658203,,,
729606786.109753,2.14423,-1.218567,58.383892,0.014816,0.043793,1.027893,-0.046482,0.001331,-0.030194,60.551071,21.634018,-146.658203,,,
729606786.113051,2.136869,-1.223017,58.37461,0.014816,0.043793,1.027893,-0.039158,0.005571,-0.033444,60.551071,21.634018,-146.658203,,,
729606786.116383,2.136869,-1.223017,58.37461,0.014816,0.043793,1.027893,-0.039158,0.005571,-0.033444,60.551071,21.634018,-146.658203,,,
729606786.11973,2.12747,-1.222959,58.365596,0.015701,0.04567,1.020508,-0.039158,0.005571,-0.033444,60.551071,21.634018,-146.658203,,,
729606786.123026,2.121169,-1.227425,58.357473,0.015701,0.04567,1.020508,-0.027281,-0.002344,-0.027279,60.551071,21.634018,-146.658203,,,
729606786.126384,2.121169,-1.227425,58.357473,0.015701,0.04567,1.020508,-0.027281,-0.002344,-0.027279,60.551071,21.634018,-146.658203,,,
729606786.129712,2.113314,-1.23035,58.34954,0.012268,0.042389,1.014481,-0.027281,-0.002344,-0.027279,60.551071,21.634018,-146.658203,,,
729606786.133037,2.108551,-1.236892,58.341923,0.012268,0.042389,1.014481,-0.022282,-0.015551,-0.027818,60.551071,21.634018,-146.658203,,,
729606786.136356,2.108551,-1.236892,58.341923,0.012268,0.042389,1.014481,-0.022282,-0.015551,-0.027818,60.645401,21.790771,-146.834961,,,
729606786.139797,2.102113,-1.243322,58.335075,0.009613,0.039978,1.010025,-0.022282,-0.015551,-0.027818,60.645401,21.790771,-146.834961,,,
729606786.143077,2.09871,-1.250178,58.328334,0.009613,0.039978,1.010025,-0.016734,-0.02725,-0.02419,60.645401,21.790771,-146.834961,,,
729606786.1464,2.09871,-1.250178,58.328334,0.009613,0.039978,1.010025,-0.016734,-0.02725,-0.02419,60.645401,21.790771,-146.834961,,,
729606786.149704,2.096264,-1.260261,58.321075,0.012741,0.038818,1.013992,-0.016734,-0.02725,-0.02419,60.645401,21.790771,-146.834961,,,
729606786.153034,2.097164,-1.267557,58.313613,0.012741,0.038818,1.013992,0.003159,-0.04159,-0.027558,60.645401,21.790771,-146.834961,,,
729606786.156387,2.097164,-1.267557,58.313613,0.012741,0.038818,1.013992,0.003159,-0.04159,-0.027558,60.645401,21.790771,-146.834961,,,
729606786.159695,2.101578,-1.279559,58.306175,0.021866,0.037094,1.017624,0.003159,-0.04159,-0.027558,60.645401,21.790771,-146.834961,,,
729606786.163031,2.109016,-1.285221,58.299005,0.021866,0.037094,1.017624,0.03126,-0.037221,-0.028596,60.645401,21.790771,-146.834961,,,
729606786.166377,2.109016,-1.285221,58.299005,0.021866,0.037094,1.017624,0.03126,-0.037221,-0.028596,60.645401,21.790771,-146.834961,,,
729606786.169805,2.119432,-1.292302,58.29273,0.023941,0.039337,1.020462,0.03126,-0.037221,-0.028596,60.645401,21.790771,-146.834961,,,
729606786.173023,2.131597,-1.292455,58.287159,0.023941,0.039337,1.020462,0.042831,-0.009309,-0.023424,60.645401,21.790771,-146.834961,,,
729606786.176502,2.131597,-1.292455,58.287159,0.023941,0.039337,1.020462,0.042831,-0.009309,-0.023424,60.237457,21.7341,-147.187607,,,
729606786.179695,2.144334,-1.293729,58.281634,0.028259,0.044235,1.014771,0.042831,-0.009309,-0.023424,60.237457,21.7341,-147.187607,,,
729606786.183055,2.156908,-1.291958,58.275571,0.028259,0.044235,1.014771,0.043165,-0.000346,-0.023642,60.237457,21.7341,-147.187607,,,
729606786.186386,2.156908,-1.291958,58.275571,0.028259,0.044235,1.014771,0.043165,-0.000346,-0.023642,60.237457,21.7341,-147.187607,,,
729606786.189801,2.168551,-1.293299,58.269725,0.02652,0.047562,0.995605,0.043165,-0.000346,-0.023642,60.237457,21.7341,-147.187607,,,
729606786.193055,2.180425,-1.293462,58.263255,0.02652,0.047562,0.995605,0.040894,-0.00702,-0.02314,60.237457,21.7341,-147.187607,,,
729606786.196376,2.180425,-1.293462,58.263255,0.02652,0.047562,0.995605,0.040894,-0.00702,-0.02314,60.237457,21.7341,-147.187607,,,
729606786.199724,2.190613,-1.297676,58.255453,0.028351,0.052002,0.985153,0.040894,-0.00702,-0.02314,60.237457,21.7341,-147.187607,,,
729606786.203031,2.201389,-1.302032,58.245329,0.028351,0.052002,0.985153,0.03351,-0.018979,-0.038954,60.237457,21.7341,-147.187607,,,
729606786.206379,2.201389,-1.302032,58.245329,0.028351,0.052002,0.985153,0.03351,-0.018979,-0.038954,60.237457,21.7341,-147.187607,,,
729606786.209756,2.211039,-1.310484,58.232777,0.032059,0.055374,0.978989,0.03351,-0.018979,-0.038954,60.237457,21.7341,-147.187607,,,
729606786.213077,2.220792,-1.31518,58.21799,0.032059,0.055374,0.978989,0.033732,-0.029705,-0.054098,60.237457,21.7341,-147.187607,,,
729606786.216378,2.220792,-1.31518,58.21799,0.032059,0.055374,0.978989,0.033732,-0.029705,-0.054098,60.237457,21.7341,-147.187607,,,
729606786.219726,2.229679,-1.322393,58.201937,0.029556,0.056656,0.98465,0.033732,-0.029705,-0.054098,60.21611,21.781815,-146.706345,,,
729606786.223032,2.238491,-1.322463,58.185433,0.029556,0.056656,0.98465,0.029925,-0.017112,-0.056961,60.21611,21.781815,-146.706345,,,
729606786.226366,2.238491,-1.322463,58.185433,0.029556,0.056656,0.98465,0.029925,-0.017112,-0.056961,60.21611,21.781815,-146.706345,,,
729606786.229798,2.247853,-1.324362,58.169767,0.022995,0.048798,0.990158,0.029925,-0.017112,-0.056961,60.21611,21.781815,-146.706345,,,
729606786.233033,2.257684,-1.319348,58.155504,0.022995,0.048798,0.990158,0.033559,0.0114,-0.050526,60.21611,21.781815,-146.706345,,,
729606786.236382,2.257684,-1.319348,58.155504,0.022995,0.048798,0.990158,0.033559,0.0114,-0.050526,60.21611,21.781815,-146.706345,,,
729606786.239716,2.269557,-1.312791,58.143858,0.016083,0.046158,0.99823,0.033559,0.0114,-0.050526,60.21611,21.781815,-146.706345,,,
729606786.24313,2.281786,-1.30185,58.134393,0.016083,0.046158,0.99823,0.043921,0.039027,-0.036971,60.21611,21.781815,-146.706345,,,
729606786.246369,2.281786,-1.30185,58.134393,0.016083,0.046158,0.99823,0.043921,0.039027,-0.036971,60.21611,21.781815,-146.706345,,,
729606786.249719,2.294815,-1.288628,58.126542,0.0121,0.046768,0.995544,0.043921,0.039027,-0.036971,60.21611,21.781815,-146.706345,,,
729606786.253041,2.306939,-1.276593,58.120086,0.0121,0.046768,0.995544,0.042883,0.046549,-0.024264,60.21611,21.781815,-146.706345,,,
729606786.256465,2.306939,-1.276593,58.120086,0.0121,0.046768,0.995544,0.042883,0.046549,-0.024264,60.21611,21.781815,-146.706345,,,
729606786.259685,2.317828,-1.264749,58.114144,0.014465,0.043854,0.98381,0.042883,0.046549,-0.024264,60.494537,21.608887,-146.846695,,,
729606786.263035,2.329364,-1.257024,58.108182,0.014465,0.043854,0.98381,0.036715,0.037597,-0.022675,60.494537,21.608887,-146.846695,,,
729606786.266393,2.329364,-1.257024,58.108182,0.014465,0.043854,0.98381,0.036715,0.037597,-0.022675,60.494537,21.608887,-146.846695,,,
729606786.269773,2.338329,-1.248905,58.101624,0.010681,0.043335,0.983444,0.036715,0.037597,-0.022675,60.494537,21.608887,-146.846695,,,
729606786.273084,2.347593,-1.24451,58.094504,0.010681,0.043335,0.983444,0.026746,0.025584,-0.028897,60.494537,21.608887,-146.846695,,,
729606786.276377,2.347593,-1.24451,58.094504,0.010681,0.043335,0.983444,0.026746,0.025584,-0.028897,60.494537,21.608887,-146.846695,,,
729606786.27972,2.353803,-1.238973,58.087086,0.00473,0.041489,0.983749,0.026746,0.025584,-0.028897,60.494537,21.608887,-146.846695,,,
729606786.28304,2.36213,-1.236882,58.08002,0.00473,0.041489,0.983749,0.018536,0.020273,-0.024565,60.494537,21.608887,-146.846695,,,
729606786.286366,2.36213,-1.236882,58.08002,0.00473,0.041489,0.983749,0.018536,0.020273,-0.024565,60.494537,21.608887,-146.846695,,,
729606786.289715,2.367267,-1.230791,58.074097,-0.003891,0.036652,0.99469,0.018536,0.020273,-0.024565,60.494537,21.608887,-146.846695,,,
729606786.293083,2.375585,-1.229101,58.069755,-0.003891,0.036652,0.99469,0.015464,0.025941,-0.014024,60.494537,21.608887,-146.846695,,,
729606786.296447,2.375585,-1.229101,58.069755,-0.003891,0.036652,0.99469,0.015464,0.025941,-0.014024,60.494537,21.608887,-146.846695,,,
729606786.29971,2.379158,-1.222487,58.066373,0.003128,0.032578,0.998489,0.015464,0.025941,-0.014024,60.307709,21.594467,-146.905533,,,
729606786.303033,2.384631,-1.219661,58.064598,0.003128,0.032578,0.998489,0.007583,0.018493,-0.005221,60.307709,21.594467,-146.905533,,,
729606786.30638,2.384631,-1.219661,58.064598,0.003128,0.032578,0.998489,0.007583,0.018493,-0.005221,60.307709,21.594467,-146.905533,,,
729606786.3098,2.385418,-1.216031,58.063774,0.011139,0.03212,0.991821,0.007583,0.018493,-0.005221,60.307709,21.594467,-146.905533,,,
729606786.313042,2.386468,-1.213167,58.063024,0.011139,0.03212,0.991821,-0.003513,0.012854,-0.00074,60.307709,21.594467,-146.905533,,,
729606786.316379,2.386468,-1.213167,58.063024,0.011139,0.03212,0.991821,-0.003513,0.012854,-0.00074,60.307709,21.594467,-146.905533,,,
729606786.319484,2.386084,-1.211688,58.061728,0.008331,0.031921,0.996521,-0.003513,0.012854,-0.00074,60.307709,21.594467,-146.905533,,,
729606786.323062,2.386961,-1.207837,58.059264,0.008331,0.031921,0.996521,-0.002215,0.005704,-0.008167,60.307709,21.594467,-146.905533,,,
729606786.326359,2.386961,-1.207837,58.059264,0.008331,0.031921,0.996521,-0.002215,0.005704,-0.008167,60.307709,21.594467,-146.905533,,,
729606786.32972,2.387232,-1.208375,58.055895,0.009949,0.032272,1.003098,-0.002215,0.005704,-0.008167,60.307709,21.594467,-146.905533,,,
729606786.333073,2.389378,-1.208241,58.051816,0.009949,0.032272,1.003098,0.00547,-0.005501,-0.015018,60.307709,21.594467,-146.905533,,,
729606786.336444,2.389378,-1.208241,58.051816,0.009949,0.032272,1.003098,0.00547,-0.005501,-0.015018,60.307709,21.594467,-146.905533,,,
729606786.33969,2.391452,-1.213036,58.047697,0.011063,0.032471,1.002914,0.00547,-0.005501,-0.015018,60.381882,21.728653,-147.107132,,,
729606786.343073,2.3945,-1.215572,58.044296,0.011063,0.032471,1.002914,0.008275,-0.021364,-0.011579,60.381882,21.728653,-147.107132,,,
729606786.346387,2.3945,-1.215572,58.044296,0.011063,0.032471,1.002914,0.008275,-0.021364,-0.011579,60.381882,21.728653,-147.107132,,,
729606786.349716,2.397156,-1.221097,58.042489,0.01062,0.027939,0.999313,0.008275,-0.021364,-0.011579,60.381882,21.728653,-147.107132,,,
729606786.353039,2.399936,-1.219498,58.042444,0.01062,0.027939,0.999313,0.007485,-0.007437,-0.000572,60.381882,21.728653,-147.107132,,,
729606786.356461,2.399936,-1.219498,58.042444,0.01062,0.027939,0.999313,0.007485,-0.007437,-0.000572,60.381882,21.728653,-147.107132,,,
729606786.359749,2.401967,-1.218979,58.043694,0.013733,0.028107,1.006577,0.007485,-0.007437,-0.000572,60.381882,21.728653,-147.107132,,,
729606786.363049,2.40354,-1.206488,58.04458,0.013733,0.028107,1.006577,0.008281,0.016515,0.004065,60.381882,21.728653,-147.107132,,,
729606786.36637,2.40354,-1.206488,58.04458,0.013733,0.028107,1.006577,0.008281,0.016515,0.004065,60.381882,21.728653,-147.107132,,,
729606786.369697,2.40547,-1.199,58.045743,0.021347,0.036072,1.005722,0.008281,0.016515,0.004065,60.381882,21.728653,-147.107132,,,
729606786.373035,2.40516,-1.179047,58.046129,0.021347,0.036072,1.005722,0.004297,0.040464,-0.000723,60.381882,21.728653,-147.107132,,,
729606786.376438,2.40516,-1.179047,58.046129,0.021347,0.036072,1.005722,0.004297,0.040464,-0.000723,60.381882,21.728653,-147.107132,,,
729606786.379682,2.406466,-1.166274,58.046458,0.021118,0.03862,1.001068,0.004297,0.040464,-0.000723,60.483841,21.660339,-147.183167,,,
729606786.38308,2.406328,-1.146369,58.046247,0.021118,0.03862,1.001068,0.006307,0.049309,-0.00047,60.483841,21.660339,-147.183167,,,
729606786.386457,2.406328,-1.146369,58.046247,0.021118,0.03862,1.001068,0.006307,0.049309,-0.00047,60.483841,21.660339,-147.183167,,,
729606786.38973,2.408622,-1.132057,58.046079,0.014191,0.038528,0.999893,0.006307,0.049309,-0.00047,60.483841,21.660339,-147.183167,,,
729606786.393048,2.409011,-1.115806,58.045377,0.014191,0.038528,0.999893,0.008738,0.0475,-0.006236,60.483841,21.660339,-147.183167,,,
729606786.396391,2.409011,-1.115806,58.045377,0.014191,0.038528,0.999893,0.008738,0.0475,-0.006236,60.483841,21.660339,-147.183167,,,
729606786.39979,2.412066,-1.106143,58.044059,0.011673,0.04361,0.992035,0.008738,0.0475,-0.006236,60.483841,21.660339,-147.183167,,,
729606786.403029,2.41274,-1.095025,58.041416,0.011673,0.04361,0.992035,0.012373,0.025827,-0.009309,60.483841,21.660339,-147.183167,,,
729606786.406097,2.41274,-1.095025,58.041416,0.011673,0.04361,0.992035,0.012373,0.025827,-0.009309,60.483841,21.660339,-147.183167,,,
729606786.409772,2.414909,-1.091447,58.038039,0.009491,0.046661,0.986588,0.012373,0.025827,-0.009309,60.483841,21.660339,-147.183167,,,
729606786.413054,2.413969,-1.086878,58.034007,0.009491,0.046661,0.986588,0.004768,0.005323,-0.01646,60.483841,21.660339,-147.183167,,,
729606786.416383,2.413969,-1.086878,58.034007,0.009491,0.046661,0.986588,0.004768,0.005323,-0.01646,60.483841,21.660339,-147.183167,,,
729606786.419739,2.413482,-1.089085,58.029872,0.008255,0.045166,0.98494,0.004768,0.005323,-0.01646,60.483841,21.660339,-147.183167,,,
729606786.423037,2.408977,-1.09082,58.026335,0.008255,0.045166,0.98494,-0.005082,-0.014423,-0.017074,60.339111,21.591537,-147.111664,,,
729606786.426372,2.408977,-1.09082,58.026335,0.008255,0.045166,0.98494,-0.005082,-0.014423,-0.017074,60.339111,21.591537,-147.111664,,,
729606786.429727,2.40628,-1.098097,58.023562,0.007599,0.039993,0.984985,-0.005082,-0.014423,-0.017074,60.339111,21.591537,-147.111664,,,
729606786.433036,2.399366,-1.103356,58.020305,0.007599,0.039993,0.984985,-0.012704,-0.030447,-0.011391,60.339111,21.591537,-147.111664,,,
729606786.436405,2.399366,-1.103356,58.020305,0.007599,0.039993,0.984985,-0.012704,-0.030447,-0.011391,60.339111,21.591537,-147.111664,,,
729606786.439783,2.394789,-1.112835,58.017618,0.010315,0.039551,0.988953,-0.012704,-0.030447,-0.011391,60.339111,21.591537,-147.111664,,,
729606786.443044,2.387019,-1.120834,58.015576,0.010315,0.039551,0.988953,-0.016703,-0.031467,-0.009836,60.339111,21.591537,-147.111664,,,
729606786.446378,2.387019,-1.120834,58.015576,0.010315,0.039551,0.988953,-0.016703,-0.031467,-0.009836,60.339111,21.591537,-147.111664,,,
729606786.449709,2.381416,-1.128502,58.013954,0.013855,0.041351,0.993103,-0.016703,-0.031467,-0.009836,60.339111,21.591537,-147.111664,,,
729606786.453036,2.374699,-1.135573,58.013381,0.013855,0.041351,0.993103,-0.020322,-0.017482,-0.003233,60.339111,21.591537,-147.111664,,,
729606786.456377,2.374699,-1.135573,58.013381,0.013855,0.041351,0.993103,-0.020322,-0.017482,-0.003233,60.339111,21.591537,-147.111664,,,
729606786.459696,2.368706,-1.139507,58.01433,0.017181,0.040588,0.993042,-0.020322,-0.017482,-0.003233,60.339111,21.591537,-147.111664,,,
729606786.463031,2.361974,-1.140093,58.01675,0.017181,0.040588,0.993042,-0.018885,-0.000201,0.00767,60.173798,21.452347,-147.074432,,,
729606786.466473,2.361974,-1.140093,58.01675,0.017181,0.040588,0.993042,-0.018885,-0.000201,0.00767,60.173798,21.452347,-147.074432,,,
729606786.469717,2.355577,-1.138638,58.020573,0.022491,0.042969,0.993835,-0.018885,-0.000201,0.00767,60.173798,21.452347,-147.074432,,,
729606786.473035,2.349317,-1.132333,58.025688,0.022491,0.042969,0.993835,-0.021662,0.017282,0.016092,60.173798,21.452347,-147.074432,,,
729606786.476402,2.349317,-1.132333,58.025688,0.022491,0.042969,0.993835,-0.021662,0.017282,0.016092,60.173798,21.452347,-147.074432,,,
729606786.479747,2.343333,-1.126657,58.031875,0.030548,0.04425,0.992661,-0.021662,0.017282,0.016092,60.173798,21.452347,-147.074432,,,
729606786.483061,2.337849,-1.115618,58.038183,0.030548,0.04425,0.992661,-0.02525,0.028562,0.022462,60.173798,21.452347,-147.074432,,,
729606786.486409,2.337849,-1.115618,58.038183,0.030548,0.04425,0.992661,-0.02525,0.028562,0.022462,60.173798,21.452347,-147.074432,,,
729606786.489783,2.330833,-1.107459,58.04422,0.035416,0.049026,0.991943,-0.02525,0.028562,0.022462,60.173798,21.452347,-147.074432,,,
729606786.493023,2.324296,-1.09638,58.049432,0.035416,0.049026,0.991943,-0.026062,0.031313,0.018635,60.173798,21.452347,-147.074432,,,
729606786.496383,2.324296,-1.09638,58.049432,0.035416,0.049026,0.991943,-0.026062,0.031313,0.018635,60.173798,21.452347,-147.074432,,,
729606786.499704,2.315347,-1.090688,58.053194,0.037643,0.051025,0.98761,-0.026062,0.031313,0.018635,60.173798,21.452347,-147.074432,,,
729606786.503026,2.306473,-1.081961,58.054588,0.037643,0.051025,0.98761,-0.034124,0.017054,0.004213,60.20256,21.584808,-146.949646,,,
729606786.506372,2.306473,-1.081961,58.054588,0.037643,0.051025,0.98761,-0.034124,0.017054,0.004213,60.20256,21.584808,-146.949646,,,
729606786.509735,2.296257,-1.080528,58.054602,0.038116,0.05127,0.985001,-0.034124,0.017054,0.004213,60.20256,21.584808,-146.949646,,,
729606786.513061,2.285829,-1.077895,58.053468,0.038116,0.05127,0.985001,-0.035467,-0.001724,-0.004564,60.20256,21.584808,-146.949646,,,
729606786.516388,2.285829,-1.077895,58.053468,0.038116,0.05127,0.985001,-0.035467,-0.001724,-0.004564,60.20256,21.584808,-146.949646,,,
729606786.5197,2.275855,-1.082285,58.052043,0.032486,0.0466,0.992477,-0.035467,-0.001724,-0.004564,60.20256,21.584808,-146.949646,,,
729606786.523038,2.266433,-1.085863,58.051055,0.032486,0.0466,0.992477,-0.031458,-0.020849,-0.005176,60.20256,21.584808,-146.949646,,,
729606786.526363,2.266433,-1.085863,58.051055,0.032486,0.0466,0.992477,-0.031458,-0.020849,-0.005176,60.20256,21.584808,-146.949646,,,
729606786.529702,2.257063,-1.0932,58.051429,0.021957,0.042053,0.995667,-0.031458,-0.020849,-0.005176,60.20256,21.584808,-146.949646,,,
729606786.533036,2.257063,-1.0932,58.051429,0.021957,0.042053,0.995667,-0.02959,-0.018057,0.0008,60.20256,21.584808,-146.949646,,,
729606786.536455,2.248741,-1.09861,58.052619,0.021957,0.042053,0.995667,-0.02959,-0.018057,0.0008,60.20256,21.584808,-146.949646,,,
729606786.539793,2.240809,-1.1035,58.054399,0.021347,0.041183,1.002548,-0.02959,-0.018057,0.0008,60.20256,21.584808,-146.949646,,,
729606786.543079,2.240809,-1.1035,58.056623,0.021347,0.041183,1.002548,-0.023732,-0.007249,0.007184,60.253571,21.77916,-147.228836,,,
729606786.546406,2.233673,-1.105963,58.056623,0.021347,0.041183,1.002548,-0.023732,-0.007249,0.007184,60.253571,21.77916,-147.228836,,,
729606786.549726,2.225819,-1.106266,58.059029,0.026245,0.046967,1.008301,-0.023732,-0.007249,0.007184,60.253571,21.77916,-147.228836,,,
729606786.553127,2.218514,-1.106515,58.061781,0.026245,0.046967,1.008301,-0.02926,0.011381,0.010056,60.253571,21.77916,-147.228836,,,
729606786.556379,2.218514,-1.106515,58.061781,0.026245,0.046967,1.008301,-0.02926,0.011381,0.010056,60.253571,21.77916,-147.228836,,,
729606786.559705,2.209827,-1.100758,58.064708,0.028061,0.048218,1.011383,-0.02926,0.011381,0.010056,60.253571,21.77916,-147.228836,,,
729606786.563035,2.209827,-1.098966,58.067729,0.028061,0.048218,1.011383,-0.027274,0.032115,0.008568,60.253571,21.77916,-147.228836,,,
729606786.566372,2.203592,-1.098966,58.067729,0.028061,0.048218,1.011383,-0.027274,0.032115,0.008568,60.253571,21.77916,-147.228836,,,
729606786.569703,2.197044,-1.091015,58.070108,0.022705,0.048279,1.011703,-0.027274,0.032115,0.008568,60.253571,21.77916,-147.228836,,,
729606786.573027,2.197044,-1.091015,58.070108,0.022705,0.048279,1.011703,-0.015976,0.026361,0.0079,60.253571,21.77916,-147.228836,,,
729606786.57638,2.194811,-1.091078,58.072953,0.022705,0.048279,1.011703,-0.015976,0.026361,0.0079,60.253571,21.77916,-147.228836,,,
729606786.579714,2.192661,-1.086171,58.076173,0.018005,0.046387,1.009857,-0.015976,0.026361,0.0079,60.253571,21.77916,-147.228836,,,
729606786.58305,2.192661,-1.086171,58.080456,0.018005,0.046387,1.009857,0.001225,0.013976,0.012301,60.253571,21.77916,-147.228836,,,
729606786.586392,2.196412,-1.091048,58.080456,0.018005,0.046387,1.009857,0.001225,0.013976,0.012301,60.410721,21.739807,-147.139771,,,
729606786.589797,2.1988,-1.090075,58.085269,0.013687,0.045227,1.009109,0.001225,0.013976,0.012301,60.410721,21.739807,-147.139771,,,
729606786.593016,2.1988,-1.090075,58.085269,0.013687,0.045227,1.009109,0.010185,0.002008,0.016141,60.410721,21.739807,-147.139771,,,
729606786.596373,2.204691,-1.097905,58.090452,0.013687,0.045227,1.009109,0.010185,0.002008,0.016141,60.410721,21.739807,-147.139771,,,
729606786.599697,2.207216,-1.099101,58.095146,0.011749,0.049713,1.003952,0.010185,0.002008,0.016141,60.410721,21.739807,-147.139771,,,
729606786.60303,2.207216,-1.099101,58.095146,0.011749,0.049713,1.003952,0.007218,-0.000896,0.01188,60.410721,21.739807,-147.139771,,,
729606786.606393,2.210562,-1.103962,58.099195,0.011749,0.049713,1.003952,0.007218,-0.000896,0.01188,60.410721,21.739807,-147.139771,,,
729606786.60974,2.212197,-1.105075,58.102117,0.015152,0.05336,1.003265,0.007218,-0.000896,0.01188,60.410721,21.739807,-147.139771,,,
729606786.613117,2.212197,-1.105075,58.102117,0.015152,0.05336,1.003265,0.008947,-0.002086,0.004642,60.410721,21.739807,-147.139771,,,
729606786.616367,2.214203,-1.106824,58.104025,0.015152,0.05336,1.003265,0.008947,-0.002086,0.004642,60.410721,21.739807,-147.139771,,,
729606786.619704,2.216009,-1.108488,58.104761,0.016006,0.050781,1.00882,0.008947,-0.002086,0.004642,60.410721,21.739807,-147.139771,,,
729606786.623112,2.216009,-1.108488,58.104761,0.016006,0.050781,1.00882,0.007167,-0.00976,-1.8e-05,60.410721,21.739807,-147.139771,,,
729606786.626374,2.219033,-1.113019,58.105277,0.016006,0.050781,1.00882,0.007167,-0.00976,-1.8e-05,60.50798,21.810043,-146.984268,,,
729606786.629699,2.221545,-1.117045,58.105631,0.005997,0.046692,1.006027,0.007167,-0.00976,-1.8e-05,60.50798,21.810043,-146.984268,,,
729606786.633117,2.221545,-1.117045,58.105631,0.005997,0.046692,1.006027,0.012184,-0.014239,0.004922,60.50798,21.810043,-146.984268,,,
729606786.636385,2.226366,-1.125061,58.107083,0.005997,0.046692,1.006027,0.012184,-0.014239,0.004922,60.50798,21.810043,-146.984268,,,
729606786.639775,2.22963,-1.130687,58.110608,0.001709,0.041733,1.008423,0.012184,-0.014239,0.004922,60.50798,21.810043,-146.984268,,,
729606786.643054,2.22963,-1.130687,58.110608,0.001709,0.041733,1.008423,0.01111,-0.015718,0.014957,60.50798,21.810043,-146.984268,,,
729606786.646499,2.235247,-1.13905,58.116004,0.001709,0.041733,1.008423,0.01111,-0.015718,0.014957,60.50798,21.810043,-146.984268,,,
729606786.649784,2.239975,-1.143843,58.12304,7.6e-05,0.038025,1.012604,0.01111,-0.015718,0.014957,60.50798,21.810043,-146.984268,,,
729606786.653091,2.239975,-1.143843,58.12304,7.6e-05,0.038025,1.012604,0.01111,-0.015718,0.014957,60.50798,21.810043,-146.984268,,,
729606786.656403,2.247619,-1.147814,58.131975,7.6e-05,0.038025,1.012604,0.020372,-0.007685,0.025991,60.50798,21.810043,-146.984268,,,
729606786.65964,2.254748,-1.149925,58.141912,0.004761,0.034622,1.016571,0.020372,-0.007685,0.025991,60.50798,21.810043,-146.984268,,,
729606786.663081,2.254748,-1.149925,58.141912,0.004761,0.034622,1.016571,0.020372,-0.007685,0.025991,60.50798,21.810043,-146.984268,,,
729606786.66637,2.264674,-1.149366,58.152673,0.004761,0.034622,1.016571,0.030908,-0.000885,0.036242,60.203506,21.842194,-147.127411,,,
729606786.669698,2.275265,-1.149794,58.1651,0.008606,0.032394,1.015427,0.030908,-0.000885,0.036242,60.203506,21.842194,-147.127411,,,
729606786.673084,2.275265,-1.149794,58.1651,0.008606,0.032394,1.015427,0.030908,-0.000885,0.036242,60.203506,21.842194,-147.127411,,,
729606786.676428,2.289077,-1.146181,58.178681,0.008606,0.032394,1.015427,0.044228,0.007743,0.046155,60.203506,21.842194,-147.127411,,,
729606786.679716,2.302274,-1.145516,58.192484,0.014496,0.033752,1.012344,0.044228,0.007743,0.046155,60.203506,21.842194,-147.127411,,,
729606786.68311,2.302274,-1.145516,58.192484,0.014496,0.033752,1.012344,0.047897,0.004622,0.045645,60.203506,21.842194,-147.127411,,,
729606786.686451,2.317421,-1.142884,58.205157,0.014496,0.033752,1.012344,0.047897,0.004622,0.045645,60.203506,21.842194,-147.127411,,,
729606786.689716,2.328527,-1.144548,58.216441,0.025345,0.041458,0.99678,0.047897,0.004622,0.045645,60.203506,21.842194,-147.127411,,,
729606786.693045,2.328527,-1.144548,58.216441,0.025345,0.041458,0.99678,0.047897,0.004622,0.045645,60.203506,21.842194,-147.127411,,,
729606786.696384,2.340029,-1.146084,58.226225,0.025345,0.041458,0.99678,0.03456,-0.009012,0.031952,60.203506,21.842194,-147.127411,,,
729606786.699713,2.346481,-1.151055,58.234444,0.030228,0.045105,0.989304,0.03456,-0.009012,0.031952,60.203506,21.842194,-147.127411,,,
729606786.703111,2.346481,-1.151055,58.234444,0.030228,0.045105,0.989304,0.03456,-0.009012,0.031952,60.203506,21.842194,-147.127411,,,
729606786.706396,2.353498,-1.154658,58.240927,0.030228,0.045105,0.989304,0.019442,-0.021225,0.019987,60.203506,21.842194,-147.127411,,,
729606786.709715,2.357413,-1.163264,58.246513,0.029419,0.039688,0.988724,0.019442,-0.021225,0.019987,60.341766,21.548996,-146.851868,,,
729606786.713072,2.357413,-1.163264,58.246513,0.029419,0.039688,0.988724,0.019442,-0.021225,0.019987,60.341766,21.548996,-146.851868,,,
729606786.716385,2.361622,-1.166394,58.251636,0.029419,0.039688,0.988724,0.008759,-0.032997,0.017119,60.341766,21.548996,-146.851868,,,
729606786.719702,2.364917,-1.177986,58.257492,0.028259,0.033447,0.991913,0.008759,-0.032997,0.017119,60.341766,21.548996,-146.851868,,,
729606786.722819,2.364917,-1.177986,58.257492,0.028259,0.033447,0.991913,0.008759,-0.032997,0.017119,60.341766,21.548996,-146.851868,,,
729606786.726394,2.367172,-1.182626,58.263956,0.028259,0.033447,0.991913,0.007316,-0.03778,0.02068,60.341766,21.548996,-146.851868,,,
729606786.729696,2.369309,-1.195005,58.271344,0.031937,0.028671,0.996857,0.007316,-0.03778,0.02068,60.341766,21.548996,-146.851868,,,
729606786.733083,2.369309,-1.195005,58.271344,0.031937,0.028671,0.996857,0.007316,-0.03778,0.02068,60.341766,21.548996,-146.851868,,,
729606786.736363,2.370057,-1.198552,58.278738,0.031937,0.028671,0.996857,0.007075,-0.033769,0.027051,60.341766,21.548996,-146.851868,,,
729606786.739702,2.37166,-1.208227,58.28669,0.037598,0.028931,1.001846,0.007075,-0.033769,0.027051,60.341766,21.548996,-146.851868,,,
729606786.743148,2.37166,-1.208227,58.28669,0.037598,0.028931,1.001846,0.007075,-0.033769,0.027051,60.341766,21.548996,-146.851868,,,
729606786.746379,2.371213,-1.210424,58.293766,0.037598,0.028931,1.001846,0.005479,-0.01947,0.025561,60.341766,21.548996,-146.851868,,,
729606786.749706,2.372405,-1.216314,58.300253,0.044937,0.03302,0.999603,0.005479,-0.01947,0.025561,60.164185,21.75679,-146.709808,,,
729606786.753093,2.372405,-1.216314,58.300253,0.044937,0.03302,0.999603,0.005479,-0.01947,0.025561,60.164185,21.75679,-146.709808,,,
729606786.756353,2.372039,-1.214827,58.305362,0.044937,0.03302,0.999603,0.006413,-0.005734,0.016789,60.164185,21.75679,-146.709808,,,
729606786.759715,2.374808,-1.214947,58.309071,0.047455,0.032242,1.005112,0.006413,-0.005734,0.016789,60.164185,21.75679,-146.709808,,,
729606786.763085,2.374808,-1.214947,58.309071,0.047455,0.032242,1.005112,0.006413,-0.005734,0.016789,60.164185,21.75679,-146.709808,,,
729606786.766367,2.377101,-1.212568,58.310957,0.047455,0.032242,1.005112,0.013543,0.009644,0.007506,60.164185,21.75679,-146.709808,,,
729606786.769697,2.380544,-1.211095,58.311501,0.044968,0.032593,1.001801,0.013543,0.009644,0.007506,60.164185,21.75679,-146.709808,,,
729606786.773028,2.380544,-1.211095,58.311501,0.044968,0.032593,1.001801,0.013543,0.009644,0.007506,60.164185,21.75679,-146.709808,,,
729606786.776401,2.384095,-1.212329,58.310951,0.044968,0.032593,1.001801,0.012093,0.007302,-0.001957,60.164185,21.75679,-146.709808,,,
729606786.779714,2.386713,-1.210231,58.30898,0.03627,0.035019,0.992981,0.012093,0.007302,-0.001957,60.164185,21.75679,-146.709808,,,
729606786.783047,2.386713,-1.210231,58.30898,0.03627,0.035019,0.992981,0.012093,0.007302,-0.001957,60.164185,21.75679,-146.709808,,,
729606786.786357,2.388901,-1.210987,58.306268,0.03627,0.035019,0.992981,0.005757,0.011452,-0.011556,60.164185,21.75679,-146.709808,,,
729606786.789703,2.39013,-1.20952,58.30281,0.029526,0.036789,0.992432,0.005757,0.011452,-0.011556,60.058441,21.566742,-146.90506,,,
729606786.793024,2.39013,-1.20952,58.30281,0.029526,0.036789,0.992432,0.005757,0.011452,-0.011556,60.058441,21.566742,-146.90506,,,
729606786.796363,2.390998,-1.214187,58.299001,0.029526,0.036789,0.992432,0.007901,-0.00183,-0.014464,60.058441,21.566742,-146.90506,,,
729606786.799701,2.392846,-1.216902,58.294158,0.031143,0.037537,0.985138,0.007901,-0.00183,-0.014464,60.058441,21.566742,-146.90506,,,
729606786.803041,2.392846,-1.216902,58.294158,0.031143,0.037537,0.985138,0.007901,-0.00183,-0.014464,60.058441,21.566742,-146.90506,,,
729606786.806469,2.392032,-1.22303,58.287683,0.031143,0.037537,0.985138,0.004221,-0.012193,-0.025861,60.058441,21.566742,-146.90506,,,
729606786.809739,2.39238,-1.225971,58.279329,0.031174,0.04129,0.98674,0.004221,-0.012193,-0.025861,60.058441,21.566742,-146.90506,,,
729606786.813048,2.39238,-1.225971,58.279329,0.031174,0.04129,0.98674,0.004221,-0.012193,-0.025861,60.058441,21.566742,-146.90506,,,
729606786.816374,2.389215,-1.233743,58.269936,0.031174,0.04129,0.98674,0.000432,-0.008673,-0.033046,60.058441,21.566742,-146.90506,,,
729606786.819723,2.388072,-1.236548,58.26013,0.02301,0.040527,0.984634,0.000432,-0.008673,-0.033046,60.058441,21.566742,-146.90506,,,
729606786.823104,2.388072,-1.236548,58.26013,0.02301,0.040527,0.984634,0.000432,-0.008673,-0.033046,60.058441,21.566742,-146.90506,,,
729606786.826362,2.383955,-1.246737,58.251125,0.02301,0.040527,0.984634,-0.006941,-0.008842,-0.034621,60.058441,21.566742,-146.90506,,,
729606786.829708,2.382129,-1.249263,58.242425,0.014053,0.034866,0.987411,-0.006941,-0.008842,-0.034621,60.171997,21.450989,-147.237061,,,
729606786.833111,2.382129,-1.249263,58.242425,0.014053,0.034866,0.987411,-0.006941,-0.008842,-0.034621,60.171997,21.450989,-147.237061,,,
729606786.836368,2.378846,-1.260984,58.234914,0.014053,0.034866,0.987411,-0.004042,-0.005228,-0.02936,60.171997,21.450989,-147.237061,,,
729606786.839703,2.37822,-1.26194,58.228689,0.006195,0.026855,0.994171,-0.004042,-0.005228,-0.02936,60.171997,21.450989,-147.237061,,,
729606786.843063,2.37822,-1.26194,58.228689,0.006195,0.026855,0.994171,-0.004042,-0.005228,-0.02936,60.171997,21.450989,-147.237061,,,
729606786.84638,2.376629,-1.272376,58.225378,0.006195,0.026855,0.994171,0.001451,-0.000183,-0.016269,60.171997,21.450989,-147.237061,,,
729606786.849718,2.378106,-1.273255,58.223658,0.00174,0.024063,0.996185,0.001451,-0.000183,-0.016269,60.171997,21.450989,-147.237061,,,
729606786.853054,2.378106,-1.273255,58.223658,0.00174,0.024063,0.996185,0.001451,-0.000183,-0.016269,60.171997,21.450989,-147.237061,,,
729606786.856457,2.378451,-1.282128,58.22406,0.00174,0.024063,0.996185,0.009271,-0.001503,0.000192,60.171997,21.450989,-147.237061,,,
729606786.859692,2.381013,-1.282377,58.225376,0.003052,0.03038,0.992889,0.009271,-0.001503,0.000192,60.171997,21.450989,-147.237061,,,
729606786.863047,2.381013,-1.282377,58.225376,0.003052,0.03038,0.992889,0.009271,-0.001503,0.000192,60.171997,21.450989,-147.237061,,,
729606786.866371,2.383238,-1.285718,58.227243,0.003052,0.03038,0.992889,0.011531,0.006508,0.003106,60.171997,21.450989,-147.237061,,,
729606786.869702,2.387127,-1.283758,58.228809,0.014725,0.041153,0.989594,0.011531,0.006508,0.003106,60.171997,21.450989,-147.237061,,,
729606786.873047,2.387127,-1.283758,58.228809,0.014725,0.041153,0.989594,0.011531,0.006508,0.003106,60.05751,21.532379,-147.029755,,,
729606786.876409,2.389762,-1.284086,58.229155,0.014725,0.041153,0.989594,0.012322,0.01087,-0.000977,60.05751,21.532379,-147.029755,,,
729606786.879709,2.392915,-1.280431,58.22819,0.025131,0.046158,0.984726,0.012322,0.01087,-0.000977,60.05751,21.532379,-147.029755,,,
729606786.883046,2.392915,-1.280431,58.22819,0.025131,0.046158,0.984726,0.012322,0.01087,-0.000977,60.05751,21.532379,-147.029755,,,
729606786.886365,2.395282,-1.280356,58.227463,0.025131,0.046158,0.984726,0.008801,0.017666,-0.004516,60.05751,21.532379,-147.029755,,,
729606786.889701,2.397777,-1.276283,58.227123,0.026917,0.046631,0.98558,0.008801,0.017666,-0.004516,60.05751,21.532379,-147.029755,,,
729606786.893025,2.397777,-1.276283,58.227123,0.026917,0.046631,0.98558,0.008801,0.017666,-0.004516,60.05751,21.532379,-147.029755,,,
729606786.896368,2.399479,-1.27542,58.227396,0.026917,0.046631,0.98558,0.004755,0.017123,-0.001792,60.05751,21.532379,-147.029755,,,
729606786.899698,2.400214,-1.272709,58.227483,0.026245,0.047653,0.980026,0.004755,0.017123,-0.001792,60.05751,21.532379,-147.029755,,,
729606786.90304,2.400214,-1.272709,58.227483,0.026245,0.047653,0.980026,0.004755,0.017123,-0.001792,60.05751,21.532379,-147.029755,,,
729606786.906414,2.399297,-1.270191,58.226534,0.026245,0.047653,0.980026,-0.000661,0.008595,-0.00459,60.05751,21.532379,-147.029755,,,
729606786.909714,2.396289,-1.269464,58.223962,0.032089,0.052887,0.97438,-0.000661,0.008595,-0.00459,60.05751,21.532379,-147.029755,,,
729606786.913042,2.396289,-1.269464,58.223962,0.032089,0.052887,0.97438,-0.000661,0.008595,-0.00459,60.212799,21.396912,-147.120956,,,
729606786.91639,2.388201,-1.265374,58.219898,0.032089,0.052887,0.97438,-0.018484,0.003624,-0.01466,60.212799,21.396912,-147.120956,,,
729606786.919706,2.379597,-1.265832,58.214896,0.035019,0.058228,0.973892,-0.018484,0.003624,-0.01466,60.212799,21.396912,-147.120956,,,
729606786.92305,2.379597,-1.265832,58.214896,0.035019,0.058228,0.973892,-0.018484,0.003624,-0.01466,60.212799,21.396912,-147.120956,,,
729606786.926369,2.36588,-1.2598,58.208617,0.035019,0.058228,0.973892,-0.038584,0.001009,-0.022772,60.212799,21.396912,-147.120956,,,
729606786.929701,2.353625,-1.258966,58.202688,0.024979,0.052658,0.980148,-0.038584,0.001009,-0.022772,60.212799,21.396912,-147.120956,,,
729606786.933097,2.353625,-1.258966,58.202688,0.024979,0.052658,0.980148,-0.038584,0.001009,-0.022772,60.212799,21.396912,-147.120956,,,
729606786.936371,2.33723,-1.250433,58.197056,0.024979,0.052658,0.980148,-0.047929,0.007736,-0.018668,60.212799,21.396912,-147.120956,,,
729606786.939699,2.323146,-1.248487,58.192519,0.01535,0.043381,0.98584,-0.047929,0.007736,-0.018668,60.212799,21.396912,-147.120956,,,
729606786.943105,2.323146,-1.248487,58.192519,0.01535,0.043381,0.98584,-0.047929,0.007736,-0.018668,60.212799,21.396912,-147.120956,,,
729606786.946384,2.308529,-1.242005,58.189629,0.01535,0.043381,0.98584,-0.04974,0.008461,-0.012002,60.212799,21.396912,-147.120956,,,
729606786.949714,2.296439,-1.239841,58.188456,0.013306,0.038315,0.9991,-0.04974,0.008461,-0.012002,60.212799,21.396912,-147.120956,,,
729606786.953027,2.296439,-1.239841,58.188456,0.013306,0.038315,0.9991,-0.04974,0.008461,-0.012002,60.222855,21.516708,-146.805359,,,
729606786.956366,2.286657,-1.237201,58.187974,0.013306,0.038315,0.9991,-0.04026,0.010478,-0.004503,60.222855,21.516708,-146.805359,,,
729606786.959695,2.277329,-1.235614,58.187734,0.013092,0.037216,1.005753,-0.04026,0.010478,-0.004503,60.222855,21.516708,-146.805359,,,
729606786.963024,2.277329,-1.235614,58.187734,0.013092,0.037216,1.005753,-0.04026,0.010478,-0.004503,60.222855,21.516708,-146.805359,,,
729606786.966362,2.270889,-1.235862,58.187615,0.013092,0.037216,1.005753,-0.026173,0.00897,-0.001601,60.222855,21.516708,-146.805359,,,
729606786.969691,2.263767,-1.233,58.187748,0.009476,0.034683,1.00856,-0.026173,0.00897,-0.001601,60.222855,21.516708,-146.805359,,,
729606786.973127,2.263767,-1.233,58.187748,0.009476,0.034683,1.00856,-0.026173,0.00897,-0.001601,60.222855,21.516708,-146.805359,,,
729606786.976361,2.259194,-1.231832,58.188917,0.009476,0.034683,1.00856,-0.020356,0.014792,0.004271,60.222855,21.516708,-146.805359,,,
729606786.979737,2.254339,-1.228909,58.191138,0.010269,0.032242,1.014511,-0.020356,0.014792,0.004271,60.222855,21.516708,-146.805359,,,
729606786.983042,2.254339,-1.228909,58.191138,0.010269,0.032242,1.014511,-0.020356,0.014792,0.004271,60.222855,21.516708,-146.805359,,,
729606786.986458,2.253399,-1.230445,58.19451,0.010269,0.032242,1.014511,-0.008511,0.008708,0.00884,60.222855,21.516708,-146.805359,,,
729606786.989695,2.251981,-1.230573,58.198568,0.012878,0.03241,1.013092,-0.008511,0.008708,0.00884,60.222855,21.516708,-146.805359,,,
729606786.993036,2.251981,-1.230573,58.198568,0.012878,0.03241,1.013092,-0.008511,0.008708,0.00884,60.102615,21.518661,-147.014771,,,
729606786.996387,2.254879,-1.237619,58.203069,0.012878,0.03241,1.013092,-0.002429,-0.001057,0.014806,60.102615,21.518661,-147.014771,,,
729606786.999714,2.25383,-1.240311,58.207031,0.017899,0.034866,1.007858,-0.002429,-0.001057,0.014806,60.102615,21.518661,-147.014771,,,
729606787.00302,2.25383,-1.240311,58.207031,0.017899,0.034866,1.007858,-0.002429,-0.001057,0.014806,60.102615,21.518661,-147.014771,,,
729606787.006382,2.257093,-1.248358,58.211002,0.017899,0.034866,1.007858,-0.002857,-0.009665,0.012113,60.102615,21.518661,-147.014771,,,
729606787.009733,2.25566,-1.252083,58.214368,0.023987,0.041504,1.005798,-0.002857,-0.009665,0.012113,60.102615,21.518661,-147.014771,,,
729606787.013046,2.25566,-1.252083,58.214368,0.023987,0.041504,1.005798,-0.002857,-0.009665,0.012113,60.102615,21.518661,-147.014771,,,
729606787.016375,2.256395,-1.255666,58.216295,0.023987,0.041504,1.005798,-0.007593,-0.008842,0.004248,60.102615,21.518661,-147.014771,,,
729606787.019692,2.255062,-1.259267,58.216685,0.032822,0.044891,1.006897,-0.007593,-0.008842,0.004248,60.102615,21.518661,-147.014771,,,
729606787.023122,2.255062,-1.259267,58.216685,0.032822,0.044891,1.006897,-0.007593,-0.008842,0.004248,60.102615,21.518661,-147.014771,,,
729606787.026353,2.254584,-1.258291,58.215943,0.032822,0.044891,1.006897,-0.001333,-0.005008,-0.004205,60.102615,21.518661,-147.014771,,,
729606787.029706,2.254446,-1.258926,58.214869,0.035385,0.043457,1.008423,-0.001333,-0.005008,-0.004205,60.102615,21.518661,-147.014771,,,
729606787.033052,2.254446,-1.258926,58.214869,0.035385,0.043457,1.008423,-0.001333,-0.005008,-0.004205,60.102615,21.518661,-147.014771,,,
729606787.036365,2.254901,-1.254946,58.213949,0.035385,0.043457,1.008423,0.005087,0.004312,-0.002984,60.077347,21.855759,-146.758469,,,
729606787.039703,2.25617,-1.253721,58.213547,0.031631,0.042648,1.008911,0.005087,0.004312,-0.002984,60.077347,21.855759,-146.758469,,,
729606787.043054,2.25617,-1.253721,58.213547,0.031631,0.042648,1.008911,0.005087,0.004312,-0.002984,60.077347,21.855759,-146.758469,,,
729606787.046453,2.257183,-1.24773,58.213218,0.031631,0.042648,1.008911,0.005077,0.013943,-0.003122,60.077347,21.855759,-146.758469,,,
729606787.049825,2.259871,-1.24366,58.213801,0.025879,0.042633,1.004288,0.005077,0.013943,-0.003122,60.077347,21.855759,-146.758469,,,
729606787.053119,2.259871,-1.24366,58.213801,0.025879,0.042633,1.004288,0.005077,0.013943,-0.003122,60.077347,21.855759,-146.758469,,,
729606787.056376,2.262151,-1.233208,58.215171,0.025879,0.042633,1.004288,0.015723,0.025175,0.002596,60.077347,21.855759,-146.758469,,,
729606787.059705,2.266475,-1.227252,58.217295,0.019882,0.041397,1.008652,0.015723,0.025175,0.002596,60.077347,21.855759,-146.758469,,,
729606787.063023,2.266475,-1.227252,58.217295,0.019882,0.041397,1.008652,0.015723,0.025175,0.002596,60.077347,21.855759,-146.758469,,,
729606787.066367,2.269098,-1.217913,58.219932,0.019882,0.041397,1.008652,0.017774,0.021914,0.00867,60.077347,21.855759,-146.758469,,,
729606787.069694,2.273445,-1.214543,58.223534,0.012329,0.039597,1.003189,0.017774,0.021914,0.00867,60.077347,21.855759,-146.758469,,,
729606787.0731,2.273445,-1.214543,58.223534,0.012329,0.039597,1.003189,0.017774,0.021914,0.00867,60.077347,21.855759,-146.758469,,,
729606787.076424,2.276644,-1.210315,58.227258,0.012329,0.039597,1.003189,0.015991,0.006949,0.013668,60.207993,21.630646,-147.146194,,,
729606787.079713,2.281119,-1.210855,58.230887,0.008759,0.040009,1.001694,0.015991,0.006949,0.013668,60.207993,21.630646,-147.146194,,,
729606787.083045,2.281119,-1.210855,58.230887,0.008759,0.040009,1.001694,0.015991,0.006949,0.013668,60.207993,21.630646,-147.146194,,,
729606787.086465,2.284939,-1.212849,58.233726,0.008759,0.040009,1.001694,0.017328,-0.004796,0.007319,60.207993,21.630646,-147.146194,,,
729606787.089697,2.289338,-1.217303,58.23507,0.012115,0.044937,0.998993,0.017328,-0.004796,0.007319,60.207993,21.630646,-147.146194,,,
729606787.093031,2.289338,-1.217303,58.23507,0.012115,0.044937,0.998993,0.017328,-0.004796,0.007319,60.207993,21.630646,-147.146194,,,
729606787.096379,2.294135,-1.226108,58.235123,0.012115,0.044937,0.998993,0.014573,-0.019395,0.000434,60.207993,21.630646,-147.146194,,,
729606787.099701,2.298959,-1.234101,58.235057,0.014954,0.046402,0.999023,0.014573,-0.019395,0.000434,60.207993,21.630646,-147.146194,,,
729606787.103021,2.298959,-1.234101,58.235057,0.014954,0.046402,0.999023,0.014573,-0.019395,0.000434,60.207993,21.630646,-147.146194,,,
729606787.106379,2.305501,-1.247909,58.235677,0.014954,0.046402,0.999023,0.021699,-0.027675,-0.00222,60.207993,21.630646,-147.146194,,,
729606787.109723,2.311651,-1.256688,58.23689,0.014038,0.041733,1.000824,0.021699,-0.027675,-0.00222,60.207993,21.630646,-147.146194,,,
729606787.113107,2.311651,-1.256688,58.23689,0.014038,0.041733,1.000824,0.021699,-0.027675,-0.00222,60.207993,21.630646,-147.146194,,,
729606787.116394,2.318847,-1.270112,58.239325,0.014038,0.041733,1.000824,0.025079,-0.027467,0.005351,60.35997,21.746964,-147.229294,,,
729606787.119695,2.325758,-1.278045,58.24233,0.016342,0.039276,0.99968,0.025079,-0.027467,0.005351,60.35997,21.746964,-147.229294,,,
729606787.123134,2.325758,-1.278045,58.24233,0.016342,0.039276,0.99968,0.025079,-0.027467,0.005351,60.35997,21.746964,-147.229294,,,
729606787.126371,2.333043,-1.286926,58.246432,0.016342,0.039276,0.99968,0.023685,-0.017458,0.010651,60.35997,21.746964,-147.229294,,,
729606787.129699,2.340272,-1.290858,58.251149,0.018051,0.041107,0.997665,0.023685,-0.017458,0.010651,60.35997,21.746964,-147.229294,,,
729606787.133029,2.340272,-1.290858,58.251149,0.018051,0.041107,0.997665,0.023685,-0.017458,0.010651,60.35997,21.746964,-147.229294,,,
729606787.136445,2.347487,-1.292416,58.256296,0.018051,0.041107,0.997665,0.025098,0.001545,0.014893,60.35997,21.746964,-147.229294,,,
729606787.139695,2.354432,-1.291333,58.26209,0.016006,0.042328,0.997574,0.025098,0.001545,0.014893,60.35997,21.746964,-147.229294,,,
729606787.143111,2.354432,-1.291333,58.26209,0.016006,0.042328,0.997574,0.025098,0.001545,0.014893,60.35997,21.746964,-147.229294,,,
729606787.146384,2.361169,-1.287058,58.26835,0.016006,0.042328,0.997574,0.024377,0.01262,0.020453,60.35997,21.746964,-147.229294,,,
729606787.149704,2.367696,-1.284789,58.274506,0.01741,0.041794,0.992264,0.024377,0.01262,0.020453,60.35997,21.746964,-147.229294,,,
729606787.153031,2.367696,-1.284789,58.274506,0.01741,0.041794,0.992264,0.024377,0.01262,0.020453,60.35997,21.746964,-147.229294,,,
729606787.156396,2.373295,-1.277111,58.279701,0.01741,0.041794,0.992264,0.021183,0.010853,0.016648,60.041306,21.367294,-146.824936,,,
729606787.159687,2.378562,-1.274136,58.284137,0.021317,0.044205,0.987961,0.021183,0.010853,0.016648,60.041306,21.367294,-146.824936,,,
729606787.163033,2.378562,-1.274136,58.284137,0.021317,0.044205,0.987961,0.021183,0.010853,0.016648,60.041306,21.367294,-146.824936,,,
729606787.166378,2.383267,-1.26623,58.287335,0.021317,0.044205,0.987961,0.016308,0.013493,0.010425,60.041306,21.367294,-146.824936,,,
729606787.169742,2.386569,-1.263929,58.289804,0.020447,0.044067,0.98703,0.016308,0.013493,0.010425,60.041306,21.367294,-146.824936,,,
729606787.173085,2.386569,-1.263929,58.289804,0.020447,0.044067,0.98703,0.016308,0.013493,0.010425,60.041306,21.367294,-146.824936,,,
729606787.176556,2.391214,-1.258404,58.291872,0.020447,0.044067,0.98703,0.01184,0.010229,0.005804,60.041306,21.367294,-146.824936,,,
729606787.179692,2.395815,-1.257697,58.293842,0.017609,0.042419,0.990829,0.01184,0.010229,0.005804,60.041306,21.367294,-146.824936,,,
729606787.183072,2.395815,-1.257697,58.293842,0.017609,0.042419,0.990829,0.01184,0.010229,0.005804,60.041306,21.367294,-146.824936,,,
729606787.186454,2.401555,-1.256021,58.295312,0.017609,0.042419,0.990829,0.01962,-0.002086,0.003518,60.041306,21.367294,-146.824936,,,
729606787.189696,2.406823,-1.258788,58.296922,0.017151,0.0401,0.99173,0.01962,-0.002086,0.003518,60.041306,21.367294,-146.824936,,,
729606787.193031,2.406823,-1.258788,58.296922,0.017151,0.0401,0.99173,0.01962,-0.002086,0.003518,60.041306,21.367294,-146.824936,,,
729606787.196383,2.410522,-1.259363,58.298161,0.017151,0.0401,0.99173,0.014652,-0.007582,0.0032,60.041306,21.367294,-146.824936,,,
729606787.199702,2.413525,-1.262688,58.299578,0.017868,0.037186,0.989197,0.014652,-0.007582,0.0032,60.041199,21.416519,-146.778061,,,
729606787.203034,2.413525,-1.262688,58.299578,0.017868,0.037186,0.989197,0.014652,-0.007582,0.0032,60.041199,21.416519,-146.778061,,,
729606787.206382,2.415417,-1.26374,58.301006,0.017868,0.037186,0.989197,0.009619,-0.008259,0.004054,60.041199,21.416519,-146.778061,,,
729606787.209807,2.416966,-1.265723,58.302523,0.020187,0.0345,0.990845,0.009619,-0.008259,0.004054,60.041199,21.416519,-146.778061,,,
729606787.213054,2.416966,-1.265723,58.302523,0.020187,0.0345,0.990845,0.009619,-0.008259,0.004054,60.041199,21.416519,-146.778061,,,
729606787.216435,2.417039,-1.264353,58.303969,0.020187,0.0345,0.990845,0.001355,9e-05,0.004539,60.041199,21.416519,-146.778061,,,
729606787.219694,2.416123,-1.264454,58.306038,0.023315,0.036133,0.992279,0.001355,9e-05,0.004539,60.041199,21.416519,-146.778061,,,
729606787.223126,2.416123,-1.264454,58.306038,0.023315,0.036133,0.992279,0.001355,9e-05,0.004539,60.041199,21.416519,-146.778061,,,
729606787.226362,2.414553,-1.261704,58.308259,0.023315,0.036133,0.992279,-0.006315,0.006169,0.005995,60.041199,21.416519,-146.778061,,,
729606787.229696,2.412053,-1.260899,58.310334,0.025787,0.035324,0.99382,-0.006315,0.006169,0.005995,60.041199,21.416519,-146.778061,,,
729606787.233051,2.412053,-1.260899,58.310334,0.025787,0.035324,0.99382,-0.006315,0.006169,0.005995,60.041199,21.416519,-146.778061,,,
729606787.236424,2.408918,-1.258889,58.312714,0.025787,0.035324,0.99382,-0.012276,0.005899,0.006107,60.041199,21.416519,-146.778061,,,
729606787.239685,2.405061,-1.257979,58.315162,0.020187,0.028915,0.995697,-0.012276,0.005899,0.006107,59.956421,21.562195,-147.218704,,,
729606787.243294,2.405061,-1.257979,58.315162,0.020187,0.028915,0.995697,-0.012276,0.005899,0.006107,59.956421,21.562195,-147.218704,,,
729606787.246422,2.401705,-1.258184,58.317715,0.020187,0.028915,0.995697,-0.015581,0.004992,0.007186,59.956421,21.562195,-147.218704,,,
729606787.249709,2.397521,-1.259243,58.320063,0.019669,0.028671,0.998764,-0.015581,0.004992,0.007186,59.956421,21.562195,-147.218704,,,
729606787.253036,2.397521,-1.259243,58.320063,0.019669,0.028671,0.998764,-0.015581,0.004992,0.007186,59.956421,21.562195,-147.218704,,,
729606787.256383,2.394035,-1.260447,58.322287,0.019669,0.028671,0.998764,-0.015199,-0.003132,0.006016,59.956421,21.562195,-147.218704,,,
729606787.25969,2.390654,-1.263743,58.324516,0.019867,0.030197,1.001877,-0.015199,-0.003132,0.006016,59.956421,21.562195,-147.218704,,,
729606787.263132,2.390654,-1.263743,58.324516,0.019867,0.030197,1.001877,-0.015199,-0.003132,0.006016,59.956421,21.562195,-147.218704,,,
729606787.266367,2.388071,-1.266926,58.326507,0.019867,0.030197,1.001877,-0.007959,-0.014424,0.006169,59.956421,21.562195,-147.218704,,,
729606787.269704,2.386614,-1.272645,58.329055,0.020798,0.033813,1.004486,-0.007959,-0.014424,0.006169,59.956421,21.562195,-147.218704,,,
729606787.273051,2.386614,-1.272645,58.329055,0.020798,0.033813,1.004486,-0.007959,-0.014424,0.006169,59.956421,21.562195,-147.218704,,,
729606787.276422,2.386451,-1.276079,58.331179,0.020798,0.033813,1.004486,0.006953,-0.016868,0.007269,59.956421,21.562195,-147.218704,,,
729606787.279704,2.387731,-1.28048,58.332413,0.028137,0.036713,1.00592,0.006953,-0.016868,0.007269,59.975067,21.611923,-146.602921,,,
729606787.283052,2.387731,-1.28048,58.332413,0.028137,0.036713,1.00592,0.006953,-0.016868,0.007269,59.975067,21.611923,-146.602921,,,
729606787.286375,2.388118,-1.282765,58.333455,0.028137,0.036713,1.00592,0.007408,-0.011648,0.004515,59.975067,21.611923,-146.602921,,,
729606787.289704,2.388726,-1.285712,58.334524,0.035934,0.039734,1.00322,0.007408,-0.011648,0.004515,59.975067,21.611923,-146.602921,,,
729606787.293047,2.388726,-1.285712,58.334524,0.035934,0.039734,1.00322,0.007408,-0.011648,0.004515,59.975067,21.611923,-146.602921,,,
729606787.296369,2.386662,-1.287373,58.335189,0.035934,0.039734,1.00322,-0.00057,-0.002983,0.002952,59.975067,21.611923,-146.602921,,,
729606787.299778,2.385239,-1.287558,58.335201,0.039886,0.041519,0.995316,-0.00057,-0.002983,0.002952,59.975067,21.611923,-146.602921,,,
729606787.303079,2.385239,-1.287558,58.335201,0.039886,0.041519,0.995316,-0.00057,-0.002983,0.002952,59.975067,21.611923,-146.602921,,,
729606787.306372,2.382367,-1.287839,58.334709,0.039886,0.041519,0.995316,-0.006073,0.008953,-0.0058,59.975067,21.611923,-146.602921,,,
729606787.309737,2.379968,-1.286865,58.333218,0.042557,0.045059,0.994278,-0.006073,0.008953,-0.0058,59.975067,21.611923,-146.602921,,,
729606787.313051,2.379968,-1.286865,58.333218,0.042557,0.045059,0.994278,-0.006073,0.008953,-0.0058,59.975067,21.611923,-146.602921,,,
729606787.31638,2.375834,-1.286963,58.329983,0.042557,0.045059,0.994278,-0.007282,0.005078,-0.011508,59.975067,21.611923,-146.602921,,,
729606787.319819,2.373409,-1.287276,58.32505,0.044067,0.048584,0.994278,-0.007282,0.005078,-0.011508,59.975067,21.611923,-146.602921,,,
729606787.323021,2.373409,-1.287276,58.32505,0.044067,0.048584,0.994278,-0.007282,0.005078,-0.011508,60.07196,21.568817,-147.034592,,,
729606787.326365,2.367394,-1.288288,58.319012,0.044067,0.048584,0.994278,-0.012505,-0.005224,-0.020254,60.07196,21.568817,-147.034592,,,
729606787.329705,2.363727,-1.293069,58.312392,0.033661,0.046921,0.991959,-0.012505,-0.005224,-0.020254,60.07196,21.568817,-147.034592,,,
729606787.333042,2.363727,-1.293069,58.312392,0.033661,0.046921,0.991959,-0.012505,-0.005224,-0.020254,60.07196,21.568817,-147.034592,,,
729606787.336364,2.357618,-1.299523,58.30537,0.033661,0.046921,0.991959,-0.010533,-0.026115,-0.025791,60.07196,21.568817,-147.034592,,,
729606787.339751,2.354699,-1.310288,58.298409,0.025589,0.047241,0.991821,-0.010533,-0.026115,-0.025791,60.07196,21.568817,-147.034592,,,
729606787.343095,2.354699,-1.310288,58.298409,0.025589,0.047241,0.991821,-0.010533,-0.026115,-0.025791,60.07196,21.568817,-147.034592,,,
729606787.346385,2.349515,-1.322257,58.290753,0.025589,0.047241,0.991821,-0.010638,-0.043273,-0.029271,60.07196,21.568817,-147.034592,,,
729606787.349744,2.346177,-1.336179,58.282576,0.023926,0.048187,0.993668,-0.010638,-0.043273,-0.029271,60.07196,21.568817,-147.034592,,,
729606787.353057,2.346177,-1.336179,58.282576,0.023926,0.048187,0.993668,-0.010638,-0.043273,-0.029271,60.07196,21.568817,-147.034592,,,
729606787.356451,2.341734,-1.348971,58.27475,0.023926,0.048187,0.993668,-0.009795,-0.042651,-0.028844,60.07196,21.568817,-147.034592,,,
729606787.359726,2.339084,-1.359965,58.267549,0.023392,0.046555,1.001907,-0.009795,-0.042651,-0.028844,60.07196,21.568817,-147.034592,,,
729606787.363041,2.339084,-1.359965,58.267549,0.023392,0.046555,1.001907,-0.009795,-0.042651,-0.028844,60.154327,21.652023,-146.95105,,,
729606787.366368,2.335727,-1.370725,58.260943,0.023392,0.046555,1.001907,-0.011454,-0.025322,-0.025515,60.154327,21.652023,-146.95105,,,
729606787.369692,2.333624,-1.374261,58.254977,0.021149,0.046341,1.00621,-0.011454,-0.025322,-0.025515,60.154327,21.652023,-146.95105,,,
729606787.373045,2.333624,-1.374261,58.254977,0.021149,0.046341,1.00621,-0.011454,-0.025322,-0.025515,60.154327,21.652023,-146.95105,,,
729606787.376367,2.331485,-1.379138,58.250732,0.021149,0.046341,1.00621,-0.004974,0.00546,-0.018482,60.154327,21.652023,-146.95105,,,
729606787.37977,2.329412,-1.374343,58.248021,0.019608,0.043991,1.007584,-0.004974,0.00546,-0.018482,60.154327,21.652023,-146.95105,,,
729606787.383043,2.329412,-1.374343,58.248021,0.019608,0.043991,1.007584,-0.004974,0.00546,-0.018482,60.154327,21.652023,-146.95105,,,
729606787.386358,2.328862,-1.373817,58.246837,0.019608,0.043991,1.007584,-0.003147,0.03011,-0.006585,60.154327,21.652023,-146.95105,,,
729606787.38969,2.329016,-1.366894,58.24639,0.014908,0.044159,1.00444,-0.003147,0.03011,-0.006585,60.154327,21.652023,-146.95105,,,
729606787.393027,2.329016,-1.366894,58.24639,0.014908,0.044159,1.00444,-0.003147,0.03011,-0.006585,60.154327,21.652023,-146.95105,,,
729606787.396376,2.330639,-1.369958,58.247241,0.014908,0.044159,1.00444,0.000933,0.020822,0.002218,60.154327,21.652023,-146.95105,,,
729606787.399701,2.330949,-1.367381,58.248438,0.014908,0.044159,1.00444,0.000933,0.020822,0.002218,60.154327,21.652023,-146.95105,,,
729606787.403021,2.330949,-1.367381,58.248438,0.009155,0.043777,0.994904,0.000933,0.020822,0.002218,60.197784,21.500397,-146.851715,,,
729606787.406367,2.333444,-1.374998,58.251067,0.009155,0.043777,0.994904,0.002232,0.001119,0.006411,60.197784,21.500397,-146.851715,,,
729606787.409784,2.334756,-1.378591,58.254217,0.001892,0.040421,0.994675,0.002232,0.001119,0.006411,60.197784,21.500397,-146.851715,,,
