Time (sec),Pitch (deg),Roll (deg),Yaw(deg),X-Acceleration (g),Y-Acceleration (g),Z-Acceleration (g),Pitch Rate (deg/sec),Roll Rate (deg/sec),Yaw Rate (deg/sec),Magnetic Field in X direction (uT),Magnetic Field in Y direction (uT),Magnetic Field in Z Direction (uT),Latitude (deg),Longitude (deg),Altitude (m)
729608691.07995,0.205014,1.531213,57.971329,-0.020767,0.014648,0.972046,-0.027731,-0.042897,-0.025165,64.32518,23.263153,-147.410812,,,
729608691.083176,0.19571,1.519641,57.966468,-0.020767,0.014648,0.972046,-0.027731,-0.042897,-0.025165,64.32518,23.263153,-147.410812,,,
729608691.086553,0.19571,1.519641,57.966468,-0.020767,0.014648,0.972046,-0.027731,-0.042897,-0.025165,64.32518,23.263153,-147.410812,,,
729608691.089861,0.183964,1.509137,57.96281,-0.021576,0.009811,0.975723,-0.035958,-0.031734,-0.015238,64.200989,23.187134,-147.54808,,,
729608691.093174,0.173467,1.501889,57.960833,-0.021576,0.009811,0.975723,-0.035958,-0.031734,-0.015238,64.200989,23.187134,-147.54808,,,
729608691.096553,0.173467,1.501889,57.960833,-0.021576,0.009811,0.975723,-0.035958,-0.031734,-0.015238,64.200989,23.187134,-147.54808,,,
729608691.099855,0.164181,1.495463,57.96014,-0.024857,0.007568,0.985977,-0.034546,-0.009845,-0.003405,64.200989,23.187134,-147.54808,,,
729608691.103181,0.155131,1.494462,57.95995,-0.024857,0.007568,0.985977,-0.034546,-0.009845,-0.003405,64.200989,23.187134,-147.54808,,,
729608691.106545,0.155131,1.494462,57.95995,-0.024857,0.007568,0.985977,-0.034546,-0.009845,-0.003405,64.200989,23.187134,-147.54808,,,
729608691.109861,0.150105,1.494802,57.960871,-0.026093,0.005402,0.993057,-0.021368,0.011113,0.002351,64.200989,23.187134,-147.54808,,,
729608691.113176,0.145306,1.499462,57.962663,-0.026093,0.005402,0.993057,-0.021368,0.011113,0.002351,64.200989,23.187134,-147.54808,,,
729608691.116631,0.145306,1.499462,57.962663,-0.026093,0.005402,0.993057,-0.021368,0.011113,0.002351,64.200989,23.187134,-147.54808,,,
729608691.119849,0.143043,1.505932,57.96501,-0.027298,0.00296,0.998276,-0.010683,0.02654,0.006157,64.200989,23.187134,-147.54808,,,
729608691.123178,0.140407,1.514478,57.96839,-0.027298,0.00296,0.998276,-0.010683,0.02654,0.006157,64.200989,23.187134,-147.54808,,,
729608691.126559,0.140407,1.514478,57.96839,-0.027298,0.00296,0.998276,-0.010683,0.02654,0.006157,64.200989,23.187134,-147.54808,,,
729608691.129913,0.139582,1.524899,57.971946,-0.029083,0.00528,0.995712,-0.007942,0.036477,0.011747,64.084305,23.401016,-147.686584,,,
729608691.133169,0.136461,1.534218,57.975239,-0.029083,0.00528,0.995712,-0.007942,0.036477,0.011747,64.084305,23.401016,-147.686584,,,
729608691.136529,0.136461,1.534218,57.975239,-0.029083,0.00528,0.995712,-0.007942,0.036477,0.011747,64.084305,23.401016,-147.686584,,,
729608691.139869,0.135084,1.543558,57.97811,-0.028244,0.010712,0.992401,-0.012397,0.033048,0.007654,64.084305,23.401016,-147.686584,,,
729608691.143184,0.129868,1.55096,57.980335,-0.028244,0.010712,0.992401,-0.012397,0.033048,0.007654,64.084305,23.401016,-147.686584,,,
729608691.146534,0.129868,1.55096,57.980335,-0.028244,0.010712,0.992401,-0.012397,0.033048,0.007654,64.084305,23.401016,-147.686584,,,
729608691.149861,0.125756,1.557027,57.982417,-0.030136,0.01506,0.987625,-0.024859,0.022395,0.004959,64.084305,23.401016,-147.686584,,,
729608691.153185,0.117279,1.561682,57.985217,-0.030136,0.01506,0.987625,-0.024859,0.022395,0.004959,64.084305,23.401016,-147.686584,,,
729608691.156594,0.117279,1.561682,57.985217,-0.030136,0.01506,0.987625,-0.024859,0.022395,0.004959,64.084305,23.401016,-147.686584,,,
729608691.159851,0.111306,1.56394,57.988709,-0.031174,0.013687,0.987427,-0.032988,0.012441,0.009488,64.084305,23.401016,-147.686584,,,
729608691.163182,0.101625,1.56562,57.992126,-0.031174,0.013687,0.987427,-0.032988,0.012441,0.009488,64.084305,23.401016,-147.686584,,,
729608691.166531,0.101625,1.56562,57.992126,-0.031174,0.013687,0.987427,-0.032988,0.012441,0.009488,64.084305,23.401016,-147.686584,,,
729608691.169844,0.095401,1.563513,57.996201,-0.030167,0.008743,0.988876,-0.029674,-0.001225,0.010607,64.273712,23.477158,-147.451767,,,
729608691.173178,0.088961,1.560588,58.001319,-0.030167,0.008743,0.988876,-0.029674,-0.001225,0.010607,64.273712,23.477158,-147.451767,,,
729608691.17654,0.088961,1.560588,58.001319,-0.030167,0.008743,0.988876,-0.029674,-0.001225,0.010607,64.273712,23.477158,-147.451767,,,
729608691.179861,0.085701,1.556014,58.00644,-0.02446,0.008804,0.996414,-0.015624,-0.011863,0.015339,64.273712,23.477158,-147.451767,,,
729608691.183183,0.082662,1.55234,58.011393,-0.02446,0.008804,0.996414,-0.015624,-0.011863,0.015339,64.273712,23.477158,-147.451767,,,
729608691.186508,0.082662,1.55234,58.011393,-0.02446,0.008804,0.996414,-0.015624,-0.011863,0.015339,64.273712,23.477158,-147.451767,,,
729608691.189861,0.08161,1.549554,58.015686,-0.019119,0.010956,0.998947,-0.006316,-0.009581,0.014085,64.273712,23.477158,-147.451767,,,
729608691.193184,0.080253,1.548138,58.019244,-0.019119,0.010956,0.998947,-0.006316,-0.009581,0.014085,64.273712,23.477158,-147.451767,,,
729608691.196597,0.080253,1.548138,58.019244,-0.019119,0.010956,0.998947,-0.006316,-0.009581,0.014085,64.273712,23.477158,-147.451767,,,
729608691.199859,0.079852,1.549036,58.022531,-0.017456,0.015289,1.002197,0.000595,0.00465,0.010124,64.273712,23.477158,-147.451767,,,
729608691.203181,0.07922,1.552828,58.025428,-0.017456,0.015289,1.002197,0.000595,0.00465,0.010124,64.273712,23.477158,-147.451767,,,
729608691.206543,0.07922,1.552828,58.025428,-0.017456,0.015289,1.002197,0.000595,0.00465,0.010124,64.273712,23.477158,-147.451767,,,
729608691.209886,0.07874,1.560187,58.02859,-0.016983,0.013214,1.005615,-0.000897,0.025553,0.008934,64.273712,23.477158,-147.451767,,,
729608691.213251,0.077392,1.56965,58.032124,-0.016983,0.013214,1.005615,-0.000897,0.025553,0.008934,64.315598,23.4142,-147.759506,,,
729608691.216524,0.077392,1.56965,58.032124,-0.016983,0.013214,1.005615,-0.000897,0.025553,0.008934,64.315598,23.4142,-147.759506,,,
729608691.219858,0.078459,1.581818,58.035773,-0.022476,0.008087,1.006195,-0.00416,0.043652,0.008708,64.315598,23.4142,-147.759506,,,
729608691.223179,0.078072,1.595066,58.039256,-0.022476,0.008087,1.006195,-0.00416,0.043652,0.008708,64.315598,23.4142,-147.759506,,,
729608691.226527,0.078072,1.595066,58.039256,-0.022476,0.008087,1.006195,-0.00416,0.043652,0.008708,64.315598,23.4142,-147.759506,,,
729608691.229869,0.082252,1.609164,58.042159,-0.029022,0.00676,1.01181,0.00066,0.051597,0.008408,64.315598,23.4142,-147.759506,,,
729608691.23318,0.083754,1.621407,58.044652,-0.029022,0.00676,1.01181,0.00066,0.051597,0.008408,64.315598,23.4142,-147.759506,,,
729608691.236573,0.083754,1.621407,58.044652,-0.029022,0.00676,1.01181,0.00066,0.051597,0.008408,64.315598,23.4142,-147.759506,,,
729608691.23989,0.09045,1.631751,58.047325,-0.034561,0.006836,1.005539,0.00848,0.036056,0.006897,64.315598,23.4142,-147.759506,,,
729608691.243168,0.092995,1.637067,58.050604,-0.034561,0.006836,1.005539,0.00848,0.036056,0.006897,64.315598,23.4142,-147.759506,,,
729608691.246578,0.092995,1.637067,58.050604,-0.034561,0.006836,1.005539,0.00848,0.036056,0.006897,64.315598,23.4142,-147.759506,,,
729608691.249914,0.097245,1.640052,58.054371,-0.041641,0.005646,0.997757,0.006904,0.009404,0.01281,64.315598,23.4142,-147.759506,,,
729608691.253183,0.098662,1.639247,58.058843,-0.041641,0.005646,0.997757,0.006904,0.009404,0.01281,64.394653,23.67067,-147.734772,,,
729608691.256513,0.098662,1.639247,58.058843,-0.041641,0.005646,0.997757,0.006904,0.009404,0.01281,64.394653,23.67067,-147.734772,,,
729608691.259855,0.101749,1.635507,58.064302,-0.041306,0.001953,1.000763,0.004907,-0.007163,0.018006,64.394653,23.67067,-147.734772,,,
729608691.263182,0.10277,1.630254,58.070824,-0.041306,0.001953,1.000763,0.004907,-0.007163,0.018006,64.394653,23.67067,-147.734772,,,
729608691.266515,0.10277,1.630254,58.070824,-0.041306,0.001953,1.000763,0.004907,-0.007163,0.018006,64.394653,23.67067,-147.734772,,,
729608691.269864,0.107544,1.620989,58.077861,-0.036499,0.000778,1.006592,0.009268,-0.018576,0.021244,64.394653,23.67067,-147.734772,,,
729608691.273186,0.111726,1.614749,58.084865,-0.036499,0.000778,1.006592,0.009268,-0.018576,0.021244,64.394653,23.67067,-147.734772,,,
729608691.276547,0.111726,1.614749,58.084865,-0.036499,0.000778,1.006592,0.009268,-0.018576,0.021244,64.394653,23.67067,-147.734772,,,
729608691.279849,0.120954,1.607351,58.091585,-0.033218,-0.000305,1.016357,0.020973,-0.01165,0.023148,64.394653,23.67067,-147.734772,,,
729608691.283183,0.128623,1.607179,58.097283,-0.033218,-0.000305,1.016357,0.020973,-0.01165,0.023148,64.394653,23.67067,-147.734772,,,
729608691.286515,0.128623,1.607179,58.097283,-0.033218,-0.000305,1.016357,0.020973,-0.01165,0.023148,64.394653,23.67067,-147.734772,,,
729608691.289885,0.141282,1.606698,58.10248,-0.028198,0.0009,1.023804,0.031058,0.014785,0.018083,64.394653,23.67067,-147.734772,,,
729608691.29318,0.150765,1.612799,58.107989,-0.028198,0.0009,1.023804,0.031058,0.014785,0.018083,64.391327,23.526321,-147.424408,,,
729608691.296536,0.150765,1.612799,58.107989,-0.028198,0.0009,1.023804,0.031058,0.014785,0.018083,64.391327,23.526321,-147.424408,,,
729608691.29985,0.162805,1.619687,58.114394,-0.026031,0.000641,1.01741,0.036996,0.037168,0.02084,64.391327,23.526321,-147.424408,,,
729608691.303182,0.172875,1.632869,58.122276,-0.026031,0.000641,1.01741,0.036996,0.037168,0.02084,64.391327,23.526321,-147.424408,,,
729608691.306524,0.172875,1.632869,58.122276,-0.026031,0.000641,1.01741,0.036996,0.037168,0.02084,64.391327,23.526321,-147.424408,,,
729608691.30987,0.183231,1.648061,58.13096,-0.030655,0.000793,1.011002,0.032402,0.059687,0.027641,64.391327,23.526321,-147.424408,,,
729608691.313181,0.191665,1.664769,58.140048,-0.030655,0.000793,1.011002,0.032402,0.059687,0.027641,64.391327,23.526321,-147.424408,,,
729608691.316574,0.191665,1.664769,58.140048,-0.030655,0.000793,1.011002,0.032402,0.059687,0.027641,64.391327,23.526321,-147.424408,,,
729608691.319859,0.200079,1.681573,58.149678,-0.029053,0.005051,0.997299,0.025243,0.058163,0.030956,64.391327,23.526321,-147.424408,,,
729608691.32318,0.207608,1.694445,58.158865,-0.029053,0.005051,0.997299,0.025243,0.058163,0.030956,64.391327,23.526321,-147.424408,,,
729608691.326533,0.207608,1.694445,58.158865,-0.029053,0.005051,0.997299,0.025243,0.058163,0.030956,64.391327,23.526321,-147.424408,,,
729608691.32992,0.216444,1.706457,58.167232,-0.0298,0.005905,0.989655,0.027172,0.034985,0.027151,64.391327,23.526321,-147.424408,,,
729608691.333177,0.22502,1.711685,58.174555,-0.0298,0.005905,0.989655,0.027172,0.034985,0.027151,64.312332,23.594864,-147.845688,,,
729608691.336517,0.22502,1.711685,58.174555,-0.0298,0.005905,0.989655,0.027172,0.034985,0.027151,64.312332,23.594864,-147.845688,,,
729608691.339869,0.23374,1.717729,58.180578,-0.030655,0.003204,0.991898,0.033777,0.008885,0.02012,64.312332,23.594864,-147.845688,,,
729608691.343225,0.243996,1.715766,58.186013,-0.030655,0.003204,0.991898,0.033777,0.008885,0.02012,64.312332,23.594864,-147.845688,,,
729608691.346512,0.243996,1.715766,58.186013,-0.030655,0.003204,0.991898,0.033777,0.008885,0.02012,64.312332,23.594864,-147.845688,,,
729608691.349878,0.254245,1.712635,58.19121,-0.030182,0.002014,0.990601,0.038034,-0.018155,0.016943,64.312332,23.594864,-147.845688,,,
729608691.35318,0.264872,1.704917,58.196688,-0.030182,0.002014,0.990601,0.038034,-0.018155,0.016943,64.312332,23.594864,-147.845688,,,
729608691.356574,0.264872,1.704917,58.196688,-0.030182,0.002014,0.990601,0.038034,-0.018155,0.016943,64.312332,23.594864,-147.845688,,,
729608691.359859,0.272726,1.69808,58.201839,-0.024323,-0.000763,0.991333,0.033193,-0.025237,0.015777,64.312332,23.594864,-147.845688,,,
729608691.363188,0.280484,1.691211,58.206163,-0.024323,-0.000763,0.991333,0.033193,-0.025237,0.015777,64.312332,23.594864,-147.845688,,,
729608691.36653,0.280484,1.691211,58.206163,-0.024323,-0.000763,0.991333,0.033193,-0.025237,0.015777,64.312332,23.594864,-147.845688,,,
729608691.369936,0.285239,1.686058,58.210095,-0.020844,0.002884,0.993851,0.023219,-0.01472,0.012347,64.312332,23.594864,-147.845688,,,
729608691.373209,0.29042,1.682407,58.21412,-0.020844,0.002884,0.993851,0.023219,-0.01472,0.012347,64.312332,23.594864,-147.845688,,,
729608691.376535,0.29042,1.682407,58.21412,-0.020844,0.002884,0.993851,0.023219,-0.01472,0.012347,64.253586,23.413437,-147.382584,,,
729608691.379866,0.293448,1.678948,58.2178,-0.016159,0.004608,0.993927,0.015043,-0.002749,0.010808,64.253586,23.413437,-147.382584,,,
729608691.383172,0.295992,1.679124,58.22024,-0.016159,0.004608,0.993927,0.015043,-0.002749,0.010808,64.253586,23.413437,-147.382584,,,
729608691.38653,0.295992,1.679124,58.22024,-0.016159,0.004608,0.993927,0.015043,-0.002749,0.010808,64.253586,23.413437,-147.382584,,,
729608691.389863,0.295557,1.681814,58.222395,-0.014786,0.003983,0.996918,0.006614,0.014337,0.006076,64.253586,23.413437,-147.382584,,,
729608691.393179,0.295349,1.686268,58.224695,-0.014786,0.003983,0.996918,0.006614,0.014337,0.006076,64.253586,23.413437,-147.382584,,,
729608691.39657,0.295349,1.686268,58.224695,-0.014786,0.003983,0.996918,0.006614,0.014337,0.006076,64.253586,23.413437,-147.382584,,,
729608691.399868,0.294158,1.690787,58.226513,-0.018524,0.001617,0.996231,-0.000747,0.018627,0.003735,64.253586,23.413437,-147.382584,,,
729608691.403174,0.293576,1.694982,58.228627,-0.018524,0.001617,0.996231,-0.000747,0.018627,0.003735,64.253586,23.413437,-147.382584,,,
729608691.406524,0.293576,1.694982,58.228627,-0.018524,0.001617,0.996231,-0.000747,0.018627,0.003735,64.253586,23.413437,-147.382584,,,
729608691.409933,0.293549,1.69869,58.231324,-0.021484,-0.00177,0.989746,-0.00173,0.015949,0.006669,64.253586,23.413437,-147.382584,,,
729608691.413176,0.294271,1.701399,58.233882,-0.021484,-0.00177,0.989746,-0.00173,0.015949,0.006669,64.253586,23.413437,-147.382584,,,
729608691.416537,0.294271,1.701399,58.233882,-0.021484,-0.00177,0.989746,-0.00173,0.015949,0.006669,64.367981,23.334885,-147.954056,,,
729608691.419866,0.29602,1.704016,58.235613,-0.020966,-0.002655,0.997421,0.006866,0.01247,0.007054,64.367981,23.334885,-147.954056,,,
729608691.423271,0.299509,1.705901,58.2359,-0.020966,-0.002655,0.997421,0.006866,0.01247,0.007054,64.367981,23.334885,-147.954056,,,
729608691.426511,0.299509,1.705901,58.2359,-0.020966,-0.002655,0.997421,0.006866,0.01247,0.007054,64.367981,23.334885,-147.954056,,,
729608691.429868,0.303429,1.707375,58.234753,-0.016937,0.001587,0.99942,0.018228,0.007378,-0.005967,64.367981,23.334885,-147.954056,,,
729608691.433183,0.30804,1.707717,58.232124,-0.016937,0.001587,0.99942,0.018228,0.007378,-0.005967,64.367981,23.334885,-147.954056,,,
729608691.436509,0.30804,1.707717,58.232124,-0.016937,0.001587,0.99942,0.018228,0.007378,-0.005967,64.367981,23.334885,-147.954056,,,
729608691.439862,0.311138,1.706885,58.228402,-0.018784,0.003952,0.996048,0.017343,0.005164,-0.013965,64.367981,23.334885,-147.954056,,,
729608691.443178,0.31455,1.707144,58.225165,-0.018784,0.003952,0.996048,0.017343,0.005164,-0.013965,64.367981,23.334885,-147.954056,,,
729608691.446538,0.31455,1.707144,58.225165,-0.018784,0.003952,0.996048,0.017343,0.005164,-0.013965,64.367981,23.334885,-147.954056,,,
729608691.449902,0.315183,1.70603,58.223232,-0.028946,0.001785,0.993301,0.006281,0.00978,-0.007356,64.367981,23.334885,-147.954056,,,
729608691.453175,0.31629,1.709059,58.221914,-0.028946,0.001785,0.993301,0.006281,0.00978,-0.007356,64.367981,23.334885,-147.954056,,,
729608691.456509,0.31629,1.709059,58.221914,-0.028946,0.001785,0.993301,0.006281,0.00978,-0.007356,64.527664,23.324814,-147.894043,,,
729608691.459857,0.317007,1.709082,58.221175,-0.032837,0.00235,0.993378,0.004445,0.014452,-0.004443,64.527664,23.324814,-147.894043,,,
729608691.463177,0.318009,1.713643,58.220522,-0.032837,0.00235,0.993378,0.004445,0.014452,-0.004443,64.527664,23.324814,-147.894043,,,
729608691.466528,0.318009,1.713643,58.220522,-0.032837,0.00235,0.993378,0.004445,0.014452,-0.004443,64.527664,23.324814,-147.894043,,,
729608691.46986,0.31939,1.714,58.219333,-0.033493,0.005142,1.000336,0.008327,0.02064,-0.00507,64.527664,23.324814,-147.894043,,,
729608691.473178,0.322583,1.719038,58.217792,-0.033493,0.005142,1.000336,0.008327,0.02064,-0.00507,64.527664,23.324814,-147.894043,,,
729608691.476619,0.322583,1.719038,58.217792,-0.033493,0.005142,1.000336,0.008327,0.02064,-0.00507,64.527664,23.324814,-147.894043,,,
729608691.479867,0.326849,1.71998,58.21642,-0.035416,0.006012,1.001923,0.020587,0.019983,-0.005616,64.527664,23.324814,-147.894043,,,
729608691.483189,0.333321,1.72498,58.215575,-0.035416,0.006012,1.001923,0.020587,0.019983,-0.005616,64.527664,23.324814,-147.894043,,,
729608691.486534,0.333321,1.72498,58.215575,-0.035416,0.006012,1.001923,0.020587,0.019983,-0.005616,64.527664,23.324814,-147.894043,,,
729608691.489936,0.338583,1.726542,58.215432,-0.038055,0.005997,0.997772,0.024648,0.018246,-1.4e-05,64.527664,23.324814,-147.894043,,,
729608691.493179,0.347221,1.731305,58.216291,-0.038055,0.005997,0.997772,0.024648,0.018246,-1.4e-05,64.527664,23.324814,-147.894043,,,
729608691.496521,0.347221,1.731305,58.216291,-0.038055,0.005997,0.997772,0.024648,0.018246,-1.4e-05,64.35939,23.147781,-147.787277,,,
729608691.499846,0.354944,1.734142,58.218173,-0.037018,0.00528,0.996979,0.035464,0.018938,0.005751,64.35939,23.147781,-147.787277,,,
729608691.503178,0.36715,1.739221,58.220172,-0.037018,0.00528,0.996979,0.035464,0.018938,0.005751,64.35939,23.147781,-147.787277,,,
729608691.506519,0.36715,1.739221,58.220172,-0.037018,0.00528,0.996979,0.035464,0.018938,0.005751,64.35939,23.147781,-147.787277,,,
729608691.509864,0.379445,1.740016,58.222129,-0.032928,0.006409,0.995148,0.049371,0.022523,0.009715,64.35939,23.147781,-147.787277,,,
729608691.513175,0.396004,1.744942,58.224202,-0.032928,0.006409,0.995148,0.049371,0.022523,0.009715,64.35939,23.147781,-147.787277,,,
729608691.516597,0.396004,1.744942,58.224202,-0.032928,0.006409,0.995148,0.049371,0.022523,0.009715,64.35939,23.147781,-147.787277,,,
729608691.519863,0.41374,1.7466,58.22608,-0.031113,0.010651,0.996017,0.064845,0.023456,0.008675,64.35939,23.147781,-147.787277,,,
729608691.523189,0.433447,1.753004,58.2275,-0.031113,0.010651,0.996017,0.064845,0.023456,0.008675,64.35939,23.147781,-147.787277,,,
729608691.52653,0.433447,1.753004,58.2275,-0.031113,0.010651,0.996017,0.064845,0.023456,0.008675,64.35939,23.147781,-147.787277,,,
729608691.529925,0.451615,1.759239,58.228264,-0.033035,0.014816,0.995285,0.070649,0.031029,0.005526,64.35939,23.147781,-147.787277,,,
729608691.533217,0.470377,1.768461,58.228703,-0.033035,0.014816,0.995285,0.070649,0.031029,0.005526,64.35939,23.147781,-147.787277,,,
729608691.536512,0.470377,1.768461,58.228703,-0.033035,0.014816,0.995285,0.070649,0.031029,0.005526,64.35939,23.147781,-147.787277,,,
729608691.539873,0.485778,1.777865,58.22843,-0.035095,0.020966,0.990799,0.060026,0.034508,-0.000748,64.633148,23.236389,-147.87175,,,
729608691.543186,0.501606,1.785425,58.22715,-0.035095,0.020966,0.990799,0.060026,0.034508,-0.000748,64.633148,23.236389,-147.87175,,,
729608691.546526,0.501606,1.785425,58.22715,-0.035095,0.020966,0.990799,0.060026,0.034508,-0.000748,64.633148,23.236389,-147.87175,,,
729608691.54988,0.514553,1.792069,58.225005,-0.038132,0.020782,0.98497,0.05038,0.024063,-0.006311,64.633148,23.236389,-147.87175,,,
729608691.553184,0.52773,1.797335,58.221818,-0.038132,0.020782,0.98497,0.05038,0.024063,-0.006311,64.633148,23.236389,-147.87175,,,
729608691.556583,0.52773,1.797335,58.221818,-0.038132,0.020782,0.98497,0.05038,0.024063,-0.006311,64.633148,23.236389,-147.87175,,,
729608691.559855,0.538707,1.802791,58.217703,-0.036163,0.020325,0.988541,0.042803,0.018886,-0.013692,64.633148,23.236389,-147.87175,,,
729608691.563187,0.550538,1.806649,58.212334,-0.036163,0.020325,0.988541,0.042803,0.018886,-0.013692,64.633148,23.236389,-147.87175,,,
729608691.566529,0.550538,1.806649,58.212334,-0.036163,0.020325,0.988541,0.042803,0.018886,-0.013692,64.633148,23.236389,-147.87175,,,
729608691.569864,0.562671,1.81207,58.206197,-0.037888,0.018341,0.997345,0.046452,0.01417,-0.020447,64.633148,23.236389,-147.87175,,,
729608691.573185,0.57662,1.816476,58.200692,-0.037888,0.018341,0.997345,0.046452,0.01417,-0.020447,64.633148,23.236389,-147.87175,,,
729608691.576529,0.57662,1.816476,58.200692,-0.037888,0.018341,0.997345,0.046452,0.01417,-0.020447,64.633148,23.236389,-147.87175,,,
729608691.579907,0.590751,1.825196,58.196498,-0.04129,0.0103,1.007721,0.057004,0.026761,-0.01308,64.657242,23.19075,-147.382874,,,
729608691.583176,0.607857,1.833612,58.193951,-0.04129,0.0103,1.007721,0.057004,0.026761,-0.01308,64.657242,23.19075,-147.382874,,,
729608691.586512,0.607857,1.833612,58.193951,-0.04129,0.0103,1.007721,0.057004,0.026761,-0.01308,64.657242,23.19075,-147.382874,,,
729608691.589864,0.624901,1.844908,58.193675,-0.045609,0.004486,1.01004,0.0663,0.039027,-0.000573,64.657242,23.19075,-147.382874,,,
729608691.593181,0.644652,1.856451,58.195825,-0.045609,0.004486,1.01004,0.0663,0.039027,-0.000573,64.657242,23.19075,-147.382874,,,
729608691.596524,0.644652,1.856451,58.195825,-0.045609,0.004486,1.01004,0.0663,0.039027,-0.000573,64.657242,23.19075,-147.382874,,,
729608691.599585,0.665146,1.869173,58.200086,-0.046432,0.006271,1.012039,0.0727,0.049077,0.01433,64.657242,23.19075,-147.382874,,,
729608691.603219,0.686742,1.882419,58.205987,-0.046432,0.006271,1.012039,0.0727,0.049077,0.01433,64.657242,23.19075,-147.382874,,,
729608691.606545,0.686742,1.882419,58.205987,-0.046432,0.006271,1.012039,0.0727,0.049077,0.01433,64.657242,23.19075,-147.382874,,,
729608691.609873,0.708886,1.894782,58.213149,-0.048645,0.011749,1.006958,0.074687,0.051513,0.024807,64.657242,23.19075,-147.382874,,,
729608691.613175,0.730427,1.907392,58.221118,-0.048645,0.011749,1.006958,0.074687,0.051513,0.024807,64.657242,23.19075,-147.382874,,,
729608691.616526,0.730427,1.907392,58.221118,-0.048645,0.011749,1.006958,0.074687,0.051513,0.024807,64.657242,23.19075,-147.382874,,,
729608691.619678,0.752882,1.919562,58.230543,-0.047638,0.016083,1.002472,0.072179,0.043011,0.032562,64.589996,23.114456,-147.462189,,,
729608691.623219,0.772883,1.929123,58.241546,-0.047638,0.016083,1.002472,0.072179,0.043011,0.032562,64.589996,23.114456,-147.462189,,,
729608691.626529,0.772883,1.929123,58.241546,-0.047638,0.016083,1.002472,0.072179,0.043011,0.032562,64.589996,23.114456,-147.462189,,,
729608691.629911,0.793284,1.938487,58.253487,-0.045502,0.017242,0.996353,0.063918,0.031707,0.041073,64.589996,23.114456,-147.462189,,,
729608691.633178,0.808897,1.944888,58.266818,-0.045502,0.017242,0.996353,0.063918,0.031707,0.041073,64.589996,23.114456,-147.462189,,,
729608691.636533,0.808897,1.944888,58.266818,-0.045502,0.017242,0.996353,0.063918,0.031707,0.041073,64.589996,23.114456,-147.462189,,,
729608691.639873,0.82407,1.950783,58.281893,-0.040756,0.019135,0.987991,0.04711,0.020869,0.05145,64.589996,23.114456,-147.462189,,,
729608691.64318,0.834957,1.954132,58.298202,-0.040756,0.019135,0.987991,0.04711,0.020869,0.05145,64.589996,23.114456,-147.462189,,,
729608691.646527,0.834957,1.954132,58.298202,-0.040756,0.019135,0.987991,0.04711,0.020869,0.05145,64.589996,23.114456,-147.462189,,,
729608691.649905,0.844793,1.956273,58.314961,-0.039597,0.022781,0.983994,0.02638,0.011063,0.055602,64.589996,23.114456,-147.462189,,,
729608691.653244,0.849526,1.955128,58.332327,-0.039597,0.022781,0.983994,0.02638,0.011063,0.055602,64.589996,23.114456,-147.462189,,,
729608691.656574,0.849526,1.955128,58.332327,-0.039597,0.022781,0.983994,0.02638,0.011063,0.055602,64.589996,23.114456,-147.462189,,,
729608691.659855,0.850584,1.954251,58.350184,-0.0392,0.027039,0.98288,0.005456,-0.006764,0.062006,64.656876,22.689789,-147.711182,,,
729608691.663182,0.849193,1.948645,58.368139,-0.0392,0.027039,0.98288,0.005456,-0.006764,0.062006,64.656876,22.689789,-147.711182,,,
729608691.666517,0.849193,1.948645,58.368139,-0.0392,0.027039,0.98288,0.005456,-0.006764,0.062006,64.656876,22.689789,-147.711182,,,
729608691.669843,0.842949,1.942476,58.385943,-0.034515,0.024979,0.980972,-0.015499,-0.023658,0.06017,64.656876,22.689789,-147.711182,,,
729608691.673212,0.837081,1.931812,58.403773,-0.034515,0.024979,0.980972,-0.015499,-0.023658,0.06017,64.656876,22.689789,-147.711182,,,
729608691.676532,0.837081,1.931812,58.403773,-0.034515,0.024979,0.980972,-0.015499,-0.023658,0.06017,64.656876,22.689789,-147.711182,,,
729608691.679915,0.826407,1.925135,58.421251,-0.029572,0.022049,0.986969,-0.028081,-0.033097,0.058118,64.656876,22.689789,-147.711182,,,
729608691.683241,0.818853,1.913586,58.438683,-0.029572,0.022049,0.986969,-0.028081,-0.033097,0.058118,64.656876,22.689789,-147.711182,,,
729608691.686537,0.818853,1.913586,58.438683,-0.029572,0.022049,0.986969,-0.028081,-0.033097,0.058118,64.656876,22.689789,-147.711182,,,
729608691.689874,0.811462,1.905795,58.456719,-0.029358,0.015717,0.998917,-0.022434,-0.040462,0.061086,64.656876,22.689789,-147.711182,,,
729608691.693249,0.807701,1.89365,58.476259,-0.029358,0.015717,0.998917,-0.022434,-0.040462,0.061086,64.656876,22.689789,-147.711182,,,
729608691.696524,0.807701,1.89365,58.476259,-0.029358,0.015717,0.998917,-0.022434,-0.040462,0.061086,64.656876,22.689789,-147.711182,,,
729608691.699865,0.806139,1.888029,58.496503,-0.030975,0.005035,1.008667,-0.008378,-0.03391,0.06783,64.656876,22.689789,-147.711182,,,
729608691.703197,0.805224,1.881194,58.515853,-0.030975,0.005035,1.008667,-0.008378,-0.03391,0.06783,64.516907,22.922546,-147.807434,,,
729608691.70651,0.805224,1.881194,58.515853,-0.030975,0.005035,1.008667,-0.008378,-0.03391,0.06783,64.516907,22.922546,-147.807434,,,
729608691.709846,0.805851,1.881978,58.533742,-0.027206,0.006348,1.019058,-0.001607,-0.008071,0.063442,64.516907,22.922546,-147.807434,,,
729608691.713282,0.80545,1.88007,58.550893,-0.027206,0.006348,1.019058,-0.001607,-0.008071,0.063442,64.516907,22.922546,-147.807434,,,
729608691.716538,0.80545,1.88007,58.550893,-0.027206,0.006348,1.019058,-0.001607,-0.008071,0.063442,64.516907,22.922546,-147.807434,,,
729608691.719927,0.80534,1.882505,58.567463,-0.026794,0.01207,1.009369,-0.008002,0.00052,0.055885,64.516907,22.922546,-147.807434,,,
729608691.723232,0.802414,1.882925,58.584029,-0.026794,0.01207,1.009369,-0.008002,0.00052,0.055885,64.516907,22.922546,-147.807434,,,
729608691.726516,0.802414,1.882925,58.584029,-0.026794,0.01207,1.009369,-0.008002,0.00052,0.055885,64.516907,22.922546,-147.807434,,,
729608691.729869,0.800098,1.88637,58.600804,-0.033234,0.012314,1.004532,-0.016245,0.007509,0.057398,64.516907,22.922546,-147.807434,,,
729608691.733226,0.79481,1.886341,58.617363,-0.033234,0.012314,1.004532,-0.016245,0.007509,0.057398,64.516907,22.922546,-147.807434,,,
729608691.736513,0.79481,1.886341,58.617363,-0.033234,0.012314,1.004532,-0.016245,0.007509,0.057398,64.516907,22.922546,-147.807434,,,
729608691.739857,0.792787,1.885424,58.6329,-0.031754,0.010773,1.001648,-0.021406,-0.005037,0.052587,64.516907,22.922546,-147.807434,,,
729608691.743285,0.787522,1.878752,58.646788,-0.031754,0.010773,1.001648,-0.021406,-0.005037,0.052587,64.539124,23.013748,-147.464523,,,
729608691.746561,0.787522,1.878752,58.646788,-0.031754,0.010773,1.001648,-0.021406,-0.005037,0.052587,64.539124,23.013748,-147.464523,,,
729608691.749841,0.787443,1.870757,58.65885,-0.025772,0.012329,1.001358,-0.013871,-0.027288,0.037753,64.539124,23.013748,-147.464523,,,
729608691.753256,0.785247,1.859746,58.669056,-0.025772,0.012329,1.001358,-0.013871,-0.027288,0.037753,64.539124,23.013748,-147.464523,,,
729608691.756515,0.785247,1.859746,58.669056,-0.025772,0.012329,1.001358,-0.013871,-0.027288,0.037753,64.539124,23.013748,-147.464523,,,
729608691.759918,0.786963,1.848074,58.677119,-0.022675,0.014038,1.006454,-0.006519,-0.038131,0.026087,64.539124,23.013748,-147.464523,,,
729608691.763217,0.786906,1.836589,58.683378,-0.022675,0.014038,1.006454,-0.006519,-0.038131,0.026087,64.539124,23.013748,-147.464523,,,
729608691.766508,0.786906,1.836589,58.683378,-0.022675,0.014038,1.006454,-0.006519,-0.038131,0.026087,64.539124,23.013748,-147.464523,,,
729608691.769854,0.789839,1.824532,58.688144,-0.018448,0.011978,1.01149,0.003383,-0.036798,0.015258,64.539124,23.013748,-147.464523,,,
729608691.773234,0.792863,1.814255,58.691537,-0.018448,0.011978,1.01149,0.003383,-0.036798,0.015258,64.539124,23.013748,-147.464523,,,
729608691.776522,0.792863,1.814255,58.691537,-0.018448,0.011978,1.01149,0.003383,-0.036798,0.015258,64.539124,23.013748,-147.464523,,,
729608691.77987,0.796016,1.805746,58.694107,-0.017868,0.004486,1.010971,0.016414,-0.026934,0.006983,64.539124,23.013748,-147.464523,,,
729608691.783203,0.801223,1.800404,58.695806,-0.017868,0.004486,1.010971,0.016414,-0.026934,0.006983,64.592392,22.83287,-147.599319,,,
729608691.786591,0.801223,1.800404,58.695806,-0.017868,0.004486,1.010971,0.016414,-0.026934,0.006983,64.592392,22.83287,-147.599319,,,
729608691.789852,0.804632,1.796728,58.696125,-0.018982,0.002426,1.013245,0.023638,-0.007237,-0.001442,64.592392,22.83287,-147.599319,,,
729608691.793249,0.812289,1.79591,58.695959,-0.018982,0.002426,1.013245,0.023638,-0.007237,-0.001442,64.592392,22.83287,-147.599319,,,
729608691.796514,0.812289,1.79591,58.695959,-0.018982,0.002426,1.013245,0.023638,-0.007237,-0.001442,64.592392,22.83287,-147.599319,,,
729608691.799843,0.819193,1.794036,58.697029,-0.025238,0.000732,1.010712,0.026812,0.002869,0.001436,64.592392,22.83287,-147.599319,,,
729608691.80318,0.819193,1.794036,58.698986,-0.025238,0.000732,1.010712,0.026812,0.002869,0.001436,64.592392,22.83287,-147.599319,,,
729608691.806567,0.827742,1.795877,58.698986,-0.025238,0.000732,1.010712,0.026812,0.002869,0.001436,64.592392,22.83287,-147.599319,,,
729608691.8099,0.83595,1.79941,58.701217,-0.034805,-0.002243,1.007599,0.02854,0.016484,0.006699,64.592392,22.83287,-147.599319,,,
729608691.813218,0.84417,1.803681,58.70298,-0.034805,-0.002243,1.007599,0.02854,0.016484,0.006699,64.592392,22.83287,-147.599319,,,
729608691.816519,0.84417,1.803681,58.70298,-0.034805,-0.002243,1.007599,0.02854,0.016484,0.006699,64.592392,22.83287,-147.599319,,,
729608691.819842,0.85074,1.8082,58.703811,-0.037018,-0.000229,1.004684,0.028613,0.01724,0.002538,64.592392,22.83287,-147.599319,,,
729608691.823264,0.85074,1.8082,58.703811,-0.037018,-0.000229,1.004684,0.028613,0.01724,0.002538,64.592392,22.83287,-147.599319,,,
729608691.826511,0.857977,1.81133,58.704562,-0.037018,-0.000229,1.004684,0.028613,0.01724,0.002538,64.439911,22.702347,-147.352478,,,
729608691.829868,0.863286,1.811682,58.705738,-0.039963,3.1e-05,0.995422,0.021237,0.007997,0.003363,64.439911,22.702347,-147.352478,,,
729608691.833181,0.863286,1.811682,58.705738,-0.039963,3.1e-05,0.995422,0.021237,0.007997,0.003363,64.439911,22.702347,-147.352478,,,
729608691.836605,0.868357,1.811331,58.707214,-0.039963,3.1e-05,0.995422,0.021237,0.007997,0.003363,64.439911,22.702347,-147.352478,,,
729608691.839845,0.872754,1.806706,58.708387,-0.038635,0.001541,0.991379,0.019449,-0.002724,0.002908,64.439911,22.702347,-147.352478,,,
729608691.843195,0.872754,1.806706,58.708387,-0.038635,0.001541,0.991379,0.019449,-0.002724,0.002908,64.439911,22.702347,-147.352478,,,
729608691.84652,0.877972,1.801879,58.708891,-0.038635,0.001541,0.991379,0.019449,-0.002724,0.002908,64.439911,22.702347,-147.352478,,,
729608691.849843,0.882932,1.790192,58.708508,-0.027618,0.006989,0.988007,0.021352,-0.024995,-0.003741,64.439911,22.702347,-147.352478,,,
729608691.853189,0.882932,1.790192,58.708508,-0.027618,0.006989,0.988007,0.021352,-0.024995,-0.003741,64.439911,22.702347,-147.352478,,,
729608691.85653,0.888333,1.780444,58.707109,-0.027618,0.006989,0.988007,0.021352,-0.024995,-0.003741,64.439911,22.702347,-147.352478,,,
729608691.859848,0.890741,1.766485,58.705965,-0.023758,0.007889,0.983932,0.016788,-0.031707,-0.009142,64.439911,22.702347,-147.352478,,,
729608691.86326,0.890741,1.766485,58.705965,-0.023758,0.007889,0.983932,0.016788,-0.031707,-0.009142,64.439911,22.702347,-147.352478,,,
729608691.866557,0.894202,1.758059,58.705714,-0.023758,0.007889,0.983932,0.016788,-0.031707,-0.009142,64.243057,22.954636,-147.656448,,,
729608691.869846,0.891875,1.746595,58.707017,-0.020065,0.006531,0.982132,0.006203,-0.021521,0.004549,64.243057,22.954636,-147.656448,,,
729608691.87319,0.891875,1.746595,58.707017,-0.020065,0.006531,0.982132,0.006203,-0.021521,0.004549,64.243057,22.954636,-147.656448,,,
729608691.876527,0.891691,1.739792,58.710245,-0.020065,0.006531,0.982132,0.006203,-0.021521,0.004549,64.243057,22.954636,-147.656448,,,
729608691.87985,0.8857,1.730878,58.714758,-0.015121,0.011292,0.978378,-0.010109,-0.017831,0.013757,64.243057,22.954636,-147.656448,,,
729608691.883187,0.8857,1.730878,58.714758,-0.015121,0.011292,0.978378,-0.010109,-0.017831,0.013757,64.243057,22.954636,-147.656448,,,
729608691.886582,0.880875,1.725086,58.719325,-0.015121,0.011292,0.978378,-0.010109,-0.017831,0.013757,64.243057,22.954636,-147.656448,,,
729608691.889843,0.867946,1.719955,58.723229,-0.014694,0.016891,0.976593,-0.029248,-0.01832,0.011317,64.243057,22.954636,-147.656448,,,
729608691.893191,0.867946,1.719955,58.723229,-0.014694,0.016891,0.976593,-0.029248,-0.01832,0.011317,64.243057,22.954636,-147.656448,,,
729608691.896528,0.856317,1.714629,58.725601,-0.014694,0.016891,0.976593,-0.029248,-0.01832,0.011317,64.243057,22.954636,-147.656448,,,
729608691.899849,0.837291,1.711058,58.726027,-0.01088,0.022186,0.977066,-0.048733,-0.018578,-0.002347,64.243057,22.954636,-147.656448,,,
729608691.903178,0.837291,1.711058,58.726027,-0.01088,0.022186,0.977066,-0.048733,-0.018578,-0.002347,64.243057,22.954636,-147.656448,,,
729608691.906518,0.820933,1.703552,58.723978,-0.01088,0.022186,0.977066,-0.048733,-0.018578,-0.002347,64.456833,22.964325,-147.405304,,,
729608691.909853,0.799214,1.697683,58.719801,-0.013977,0.022217,0.980057,-0.06036,-0.028383,-0.015403,64.456833,22.964325,-147.405304,,,
729608691.913246,0.799214,1.697683,58.719801,-0.013977,0.022217,0.980057,-0.06036,-0.028383,-0.015403,64.456833,22.964325,-147.405304,,,
729608691.91652,0.780425,1.687925,58.714148,-0.013977,0.022217,0.980057,-0.06036,-0.028383,-0.015403,64.456833,22.964325,-147.405304,,,
729608691.919851,0.757407,1.679291,58.707279,-0.024704,0.016556,0.986023,-0.065284,-0.039325,-0.028545,64.456833,22.964325,-147.405304,,,
729608691.923191,0.757407,1.679291,58.707279,-0.024704,0.016556,0.986023,-0.065284,-0.039325,-0.028545,64.456833,22.964325,-147.405304,,,
729608691.926584,0.740105,1.663665,58.700196,-0.024704,0.016556,0.986023,-0.065284,-0.039325,-0.028545,64.456833,22.964325,-147.405304,,,
729608691.929836,0.721958,1.646307,58.693543,-0.035538,0.008545,0.988892,-0.053895,-0.061168,-0.026998,64.456833,22.964325,-147.405304,,,
729608691.933179,0.721958,1.646307,58.693543,-0.035538,0.008545,0.988892,-0.053895,-0.061168,-0.026998,64.456833,22.964325,-147.405304,,,
729608691.936531,0.707649,1.625466,58.687711,-0.035538,0.008545,0.988892,-0.053895,-0.061168,-0.026998,64.456833,22.964325,-147.405304,,,
729608691.939838,0.693944,1.602757,58.68251,-0.044632,0.002396,0.995117,-0.03802,-0.072345,-0.020015,64.456833,22.964325,-147.405304,,,
729608691.943197,0.693944,1.602757,58.68251,-0.044632,0.002396,0.995117,-0.03802,-0.072345,-0.020015,64.456833,22.964325,-147.405304,,,
729608691.946514,0.682433,1.582086,58.677846,-0.044632,0.002396,0.995117,-0.03802,-0.072345,-0.020015,64.215546,22.918518,-147.214233,,,
729608691.949839,0.670409,1.561663,58.673549,-0.047256,0.007446,1.000153,-0.037406,-0.06295,-0.015102,64.215546,22.918518,-147.214233,,,
729608691.953268,0.670409,1.561663,58.673549,-0.047256,0.007446,1.000153,-0.037406,-0.06295,-0.015102,64.215546,22.918518,-147.214233,,,
729608691.956517,0.66036,1.545063,58.669504,-0.047256,0.007446,1.000153,-0.037406,-0.06295,-0.015102,64.215546,22.918518,-147.214233,,,
729608691.959659,0.651142,1.528191,58.666187,-0.047821,0.013077,1.008789,-0.031332,-0.046141,-0.014683,64.215546,22.918518,-147.214233,,,
729608691.963273,0.651142,1.528191,58.666187,-0.047821,0.013077,1.008789,-0.031332,-0.046141,-0.014683,64.215546,22.918518,-147.214233,,,
729608691.966602,0.644015,1.518944,58.664514,-0.047821,0.013077,1.008789,-0.031332,-0.046141,-0.014683,64.215546,22.918518,-147.214233,,,
729608691.969847,0.639616,1.511911,58.664819,-0.05127,0.00618,1.017258,-0.019687,-0.007869,-0.002344,64.215546,22.918518,-147.214233,,,
729608691.973195,0.639616,1.511911,58.664819,-0.05127,0.00618,1.017258,-0.019687,-0.007869,-0.002344,64.215546,22.918518,-147.214233,,,
729608691.976532,0.63628,1.51367,58.66651,-0.05127,0.00618,1.017258,-0.019687,-0.007869,-0.002344,64.215546,22.918518,-147.214233,,,
729608691.979848,0.639264,1.514885,58.669291,-0.053635,0.002106,1.022964,0.00055,0.019296,0.008808,64.215546,22.918518,-147.214233,,,
729608691.983191,0.639264,1.514885,58.669291,-0.053635,0.002106,1.022964,0.00055,0.019296,0.008808,64.215546,22.918518,-147.214233,,,
729608691.98654,0.644143,1.522755,58.672531,-0.053635,0.002106,1.022964,0.00055,0.019296,0.008808,64.215546,22.918518,-147.214233,,,
729608691.989844,0.656599,1.525878,58.676533,-0.047318,0.002777,1.019714,0.029501,0.031381,0.012845,64.371643,23.016602,-147.130615,,,
729608691.993241,0.656599,1.525878,58.676533,-0.047318,0.002777,1.019714,0.029501,0.031381,0.012845,64.371643,23.016602,-147.130615,,,
729608691.996522,0.667998,1.532043,58.681438,-0.047318,0.002777,1.019714,0.029501,0.031381,0.012845,64.371643,23.016602,-147.130615,,,
729608691.999848,0.682817,1.534718,58.686244,-0.034348,0.004227,1.002777,0.044903,0.018149,0.016527,64.371643,23.016602,-147.130615,,,
729608692.003025,0.682817,1.534718,58.686244,-0.034348,0.004227,1.002777,0.044903,0.018149,0.016527,64.371643,23.016602,-147.130615,,,
729608692.006544,0.696056,1.538551,58.689661,-0.034348,0.004227,1.002777,0.044903,0.018149,0.016527,64.371643,23.016602,-147.130615,,,
729608692.00985,0.709584,1.541843,58.691202,-0.026932,0.010147,0.996368,0.050089,0.00742,0.00492,64.371643,23.016602,-147.130615,,,
729608692.013194,0.709584,1.541843,58.691202,-0.026932,0.010147,0.996368,0.050089,0.00742,0.00492,64.371643,23.016602,-147.130615,,,
729608692.016543,0.723382,1.539902,58.691017,-0.026932,0.010147,0.996368,0.050089,0.00742,0.00492,64.371643,23.016602,-147.130615,,,
729608692.019847,0.733702,1.540446,58.689175,-0.02655,0.016037,0.987289,0.044765,-0.012687,-0.00551,64.371643,23.016602,-147.130615,,,
729608692.023202,0.733702,1.540446,58.689175,-0.02655,0.016037,0.987289,0.044765,-0.012687,-0.00551,64.371643,23.016602,-147.130615,,,
729608692.026541,0.743867,1.537308,58.686442,-0.02655,0.016037,0.987289,0.044765,-0.012687,-0.00551,64.371643,23.016602,-147.130615,,,
729608692.02985,0.74949,1.543586,58.682829,-0.024048,0.01651,0.990387,0.028785,0.001999,-0.013598,64.209473,22.897308,-147.324844,,,
729608692.033249,0.74949,1.543586,58.682829,-0.024048,0.01651,0.990387,0.028785,0.001999,-0.013598,64.209473,22.897308,-147.324844,,,
729608692.036516,0.756827,1.546095,58.678942,-0.024048,0.01651,0.990387,0.028785,0.001999,-0.013598,64.209473,22.897308,-147.324844,,,
729608692.039844,0.763593,1.556019,58.675639,-0.023239,0.010834,0.995422,0.02517,0.013406,-0.011015,64.209473,22.897308,-147.324844,,,
729608692.043184,0.763593,1.556019,58.675639,-0.023239,0.010834,0.995422,0.02517,0.013406,-0.011015,64.209473,22.897308,-147.324844,,,
729608692.046548,0.771694,1.560508,58.673497,-0.023239,0.010834,0.995422,0.02517,0.013406,-0.011015,64.209473,22.897308,-147.324844,,,
729608692.049836,0.779421,1.572938,58.671558,-0.030289,0.000626,1.000076,0.029107,0.022597,-0.00808,64.209473,22.897308,-147.324844,,,
729608692.05318,0.779421,1.572938,58.671558,-0.030289,0.000626,1.000076,0.029107,0.022597,-0.00808,64.209473,22.897308,-147.324844,,,
729608692.056549,0.788245,1.579142,58.668746,-0.030289,0.000626,1.000076,0.029107,0.022597,-0.00808,64.209473,22.897308,-147.324844,,,
729608692.059847,0.794532,1.593368,58.664856,-0.031342,-0.000244,0.996552,0.034437,0.025678,-0.009389,64.209473,22.897308,-147.324844,,,
729608692.063203,0.794532,1.593368,58.664856,-0.031342,-0.000244,0.996552,0.034437,0.025678,-0.009389,64.209473,22.897308,-147.324844,,,
729608692.06652,0.804441,1.599758,58.661372,-0.031342,-0.000244,0.996552,0.034437,0.025678,-0.009389,64.209473,22.897308,-147.324844,,,
729608692.069849,0.809929,1.613209,58.65857,-0.029556,0.000885,0.990326,0.032658,0.026692,-0.013251,64.109039,23.006653,-147.429169,,,
729608692.073322,0.809929,1.613209,58.65857,-0.029556,0.000885,0.990326,0.032658,0.026692,-0.013251,64.109039,23.006653,-147.429169,,,
729608692.076504,0.816711,1.620966,58.656058,-0.029556,0.000885,0.990326,0.032658,0.026692,-0.013251,64.109039,23.006653,-147.429169,,,
729608692.079856,0.818603,1.634429,58.654047,-0.025436,0.003662,0.984726,0.01699,0.036045,-0.008097,64.109039,23.006653,-147.429169,,,
729608692.083193,0.818603,1.634429,58.654047,-0.025436,0.003662,0.984726,0.01699,0.036045,-0.008097,64.109039,23.006653,-147.429169,,,
729608692.086581,0.82212,1.646664,58.65287,-0.025436,0.003662,0.984726,0.01699,0.036045,-0.008097,64.109039,23.006653,-147.429169,,,
729608692.089836,0.823645,1.659369,58.651814,-0.023712,0.005371,0.986725,0.01085,0.050031,-0.006651,64.109039,23.006653,-147.429169,,,
729608692.093189,0.823645,1.659369,58.651814,-0.023712,0.005371,0.986725,0.01085,0.050031,-0.006651,64.109039,23.006653,-147.429169,,,
729608692.09653,0.826902,1.670704,58.650758,-0.023712,0.005371,0.986725,0.01085,0.050031,-0.006651,64.109039,23.006653,-147.429169,,,
729608692.099842,0.829991,1.679534,58.649645,-0.024857,0.004974,0.981888,0.011168,0.036642,-0.004509,64.109039,23.006653,-147.429169,,,
729608692.103207,0.829991,1.679534,58.649645,-0.024857,0.004974,0.981888,0.011168,0.036642,-0.004509,64.109039,23.006653,-147.429169,,,
729608692.106532,0.8325,1.687409,58.648235,-0.024857,0.004974,0.981888,0.011168,0.036642,-0.004509,64.109039,23.006653,-147.429169,,,
729608692.109844,0.835299,1.691311,58.646677,-0.025482,0.006195,0.977219,0.007759,0.022325,-0.007046,64.142029,22.999588,-147.738098,,,
729608692.11327,0.835299,1.691311,58.646677,-0.025482,0.006195,0.977219,0.007759,0.022325,-0.007046,64.142029,22.999588,-147.738098,,,
729608692.11652,0.836565,1.693079,58.645236,-0.025482,0.006195,0.977219,0.007759,0.022325,-0.007046,64.142029,22.999588,-147.738098,,,
729608692.119853,0.835898,1.689406,58.643608,-0.019089,0.010147,0.974182,0.000343,-0.001836,-0.010247,64.142029,22.999588,-147.738098,,,
729608692.123185,0.835898,1.689406,58.643608,-0.019089,0.010147,0.974182,0.000343,-0.001836,-0.010247,64.142029,22.999588,-147.738098,,,
729608692.126585,0.833878,1.684995,58.640852,-0.019089,0.010147,0.974182,0.000343,-0.001836,-0.010247,64.142029,22.999588,-147.738098,,,
729608692.129844,0.827606,1.678107,58.636633,-0.006393,0.016693,0.970093,-0.010173,-0.019261,-0.014741,64.142029,22.999588,-147.738098,,,
729608692.133177,0.827606,1.678107,58.636633,-0.006393,0.016693,0.970093,-0.010173,-0.019261,-0.014741,64.142029,22.999588,-147.738098,,,
729608692.136535,0.821651,1.672043,58.629996,-0.006393,0.016693,0.970093,-0.010173,-0.019261,-0.014741,64.142029,22.999588,-147.738098,,,
729608692.139849,0.809207,1.668328,58.621305,0.003082,0.023071,0.975815,-0.025825,-0.012914,-0.032894,64.142029,22.999588,-147.738098,,,
729608692.143191,0.809207,1.668328,58.621305,0.003082,0.023071,0.975815,-0.025825,-0.012914,-0.032894,64.142029,22.999588,-147.738098,,,
729608692.146515,0.798496,1.666229,58.611855,0.003082,0.023071,0.975815,-0.025825,-0.012914,-0.032894,64.142029,22.999588,-147.738098,,,
729608692.149853,0.782471,1.669065,58.602429,0.005585,0.022003,0.979141,-0.041879,0.010168,-0.037325,64.142029,22.999588,-147.738098,,,
729608692.153246,0.782471,1.669065,58.602429,0.005585,0.022003,0.979141,-0.041879,0.010168,-0.037325,64.386002,23.136551,-147.593414,,,
729608692.156523,0.768438,1.676806,58.593866,0.005585,0.022003,0.979141,-0.041879,0.010168,-0.037325,64.386002,23.136551,-147.593414,,,
729608692.15985,0.751392,1.688001,58.586776,-0.001251,0.014709,0.98732,-0.052907,0.046966,-0.027047,64.386002,23.136551,-147.593414,,,
729608692.163184,0.751392,1.688001,58.586776,-0.001251,0.014709,0.98732,-0.052907,0.046966,-0.027047,64.386002,23.136551,-147.593414,,,
729608692.166589,0.737306,1.70217,58.581018,-0.001251,0.014709,0.98732,-0.052907,0.046966,-0.027047,64.386002,23.136551,-147.593414,,,
729608692.16984,0.723417,1.716571,58.575246,-0.006393,0.010376,0.988312,-0.0433,0.055988,-0.021324,64.386002,23.136551,-147.593414,,,
729608692.173192,0.723417,1.716571,58.575246,-0.006393,0.010376,0.988312,-0.0433,0.055988,-0.021324,64.386002,23.136551,-147.593414,,,
729608692.176544,0.712016,1.732015,58.56857,-0.006393,0.010376,0.988312,-0.0433,0.055988,-0.021324,64.386002,23.136551,-147.593414,,,
729608692.179845,0.700149,1.745655,58.561279,-0.013428,0.015305,0.991058,-0.034443,0.055219,-0.029093,64.386002,23.136551,-147.593414,,,
729608692.183177,0.700149,1.745655,58.561279,-0.013428,0.015305,0.991058,-0.034443,0.055219,-0.029093,64.386002,23.136551,-147.593414,,,
729608692.186529,0.691404,1.759148,58.553528,-0.013428,0.015305,0.991058,-0.034443,0.055219,-0.029093,64.386002,23.136551,-147.593414,,,
729608692.189849,0.682949,1.769543,58.54574,-0.025513,0.019958,0.995468,-0.023069,0.04227,-0.028984,64.386002,23.136551,-147.593414,,,
729608692.193183,0.682949,1.769543,58.54574,-0.025513,0.019958,0.995468,-0.023069,0.04227,-0.028984,64.228699,23.18605,-147.652924,,,
729608692.196537,0.677896,1.778406,58.537761,-0.025513,0.019958,0.995468,-0.023069,0.04227,-0.028984,64.228699,23.18605,-147.652924,,,
729608692.199846,0.673596,1.782737,58.529339,-0.035049,0.022552,0.996048,-0.008534,0.024934,-0.031062,64.228699,23.18605,-147.652924,,,
729608692.203234,0.673596,1.782737,58.529339,-0.035049,0.022552,0.996048,-0.008534,0.024934,-0.031062,64.228699,23.18605,-147.652924,,,
729608692.206533,0.670746,1.787018,58.520836,-0.035049,0.022552,0.996048,-0.008534,0.024934,-0.031062,64.228699,23.18605,-147.652924,,,
729608692.209854,0.668594,1.786718,58.511939,-0.038971,0.02121,0.991653,-0.007412,0.018731,-0.033343,64.228699,23.18605,-147.652924,,,
729608692.21321,0.668594,1.786718,58.511939,-0.038971,0.02121,0.991653,-0.007412,0.018731,-0.033343,64.228699,23.18605,-147.652924,,,
729608692.216585,0.665633,1.792253,58.502975,-0.038971,0.02121,0.991653,-0.007412,0.018731,-0.033343,64.228699,23.18605,-147.652924,,,
729608692.21984,0.663532,1.79311,58.494808,-0.03746,0.024765,0.993469,-0.011929,0.029811,-0.032916,64.228699,23.18605,-147.652924,,,
729608692.223194,0.663532,1.79311,58.494808,-0.03746,0.024765,0.993469,-0.011929,0.029811,-0.032916,64.228699,23.18605,-147.652924,,,
729608692.226529,0.65811,1.802422,58.486964,-0.03746,0.024765,0.993469,-0.011929,0.029811,-0.032916,64.228699,23.18605,-147.652924,,,
729608692.229846,0.653829,1.804946,58.480056,-0.040131,0.03212,0.988495,-0.02319,0.040988,-0.02831,64.228699,23.18605,-147.652924,,,
729608692.23318,0.653829,1.804946,58.480056,-0.040131,0.03212,0.988495,-0.02319,0.040988,-0.02831,64.41452,23.151428,-147.680573,,,
729608692.236532,0.645925,1.816146,58.474585,-0.040131,0.03212,0.988495,-0.02319,0.040988,-0.02831,64.41452,23.151428,-147.680573,,,
729608692.239846,0.638648,1.819324,58.470228,-0.044785,0.032974,0.987091,-0.026731,0.040075,-0.018808,64.41452,23.151428,-147.680573,,,
729608692.24324,0.638648,1.819324,58.470228,-0.044785,0.032974,0.987091,-0.026731,0.040075,-0.018808,64.41452,23.151428,-147.680573,,,
729608692.246524,0.630396,1.828132,58.466478,-0.044785,0.032974,0.987091,-0.026731,0.040075,-0.018808,64.41452,23.151428,-147.680573,,,
729608692.249851,0.62212,1.830211,58.463775,-0.044998,0.030533,0.988525,-0.025733,0.032548,-0.011549,64.41452,23.151428,-147.680573,,,
729608692.253194,0.62212,1.830211,58.463775,-0.044998,0.030533,0.988525,-0.025733,0.032548,-0.011549,64.41452,23.151428,-147.680573,,,
729608692.256571,0.613898,1.836883,58.462834,-0.044998,0.030533,0.988525,-0.025733,0.032548,-0.011549,64.41452,23.151428,-147.680573,,,
729608692.259851,0.605456,1.836844,58.463572,-0.047897,0.029724,0.991089,-0.030612,0.01921,-0.000195,64.41452,23.151428,-147.680573,,,
729608692.263205,0.605456,1.836844,58.463572,-0.047897,0.029724,0.991089,-0.030612,0.01921,-0.000195,64.41452,23.151428,-147.680573,,,
729608692.266533,0.596571,1.841287,58.465335,-0.047897,0.029724,0.991089,-0.030612,0.01921,-0.000195,64.41452,23.151428,-147.680573,,,
729608692.269866,0.589831,1.84243,58.468158,-0.052292,0.03064,0.996414,-0.030876,0.014614,0.008793,64.41452,23.151428,-147.680573,,,
729608692.27318,0.589831,1.84243,58.468158,-0.052292,0.03064,0.996414,-0.030876,0.014614,0.008793,64.496597,23.284943,-147.844162,,,
729608692.276528,0.581668,1.845313,58.471247,-0.052292,0.03064,0.996414,-0.030876,0.014614,0.008793,64.496597,23.284943,-147.844162,,,
729608692.279848,0.577471,1.847612,58.474384,-0.045044,0.031647,1.003983,-0.023396,0.011922,0.00963,64.496597,23.284943,-147.844162,,,
729608692.283271,0.577471,1.847612,58.474384,-0.045044,0.031647,1.003983,-0.023396,0.011922,0.00963,64.496597,23.284943,-147.844162,,,
729608692.286524,0.570888,1.850308,58.478088,-0.045044,0.031647,1.003983,-0.023396,0.011922,0.00963,64.496597,23.284943,-147.844162,,,
729608692.289836,0.567898,1.855372,58.482629,-0.043594,0.028793,1.009171,-0.019996,0.01633,0.0135,64.496597,23.284943,-147.844162,,,
729608692.293194,0.567898,1.855372,58.482629,-0.043594,0.028793,1.009171,-0.019996,0.01633,0.0135,64.496597,23.284943,-147.844162,,,
729608692.296568,0.561447,1.859236,58.487707,-0.043594,0.028793,1.009171,-0.019996,0.01633,0.0135,64.496597,23.284943,-147.844162,,,
729608692.299847,0.559113,1.865674,58.493611,-0.046509,0.025116,1.012589,-0.019143,0.018148,0.018506,64.496597,23.284943,-147.844162,,,
729608692.303201,0.559113,1.865674,58.493611,-0.046509,0.025116,1.012589,-0.019143,0.018148,0.018506,64.496597,23.284943,-147.844162,,,
729608692.306577,0.553141,1.869979,58.500485,-0.046509,0.025116,1.012589,-0.019143,0.018148,0.018506,64.496597,23.284943,-147.844162,,,
729608692.309855,0.55308,1.875846,58.508024,-0.048203,0.023544,1.016739,-0.020114,0.016111,0.022948,64.496597,23.284943,-147.844162,,,
729608692.3132,0.55308,1.875846,58.508024,-0.048203,0.023544,1.016739,-0.020114,0.016111,0.022948,64.496597,23.284943,-147.844162,,,
729608692.316521,0.547812,1.87896,58.51642,-0.048203,0.023544,1.016739,-0.020114,0.016111,0.022948,64.62706,23.308594,-147.580139,,,
729608692.319845,0.550468,1.885262,58.525857,-0.051437,0.015015,1.02002,-0.01315,0.010466,0.031514,64.62706,23.308594,-147.580139,,,
729608692.323241,0.550468,1.885262,58.525857,-0.051437,0.015015,1.02002,-0.01315,0.010466,0.031514,64.62706,23.308594,-147.580139,,,
729608692.32653,0.547949,1.887188,58.536005,-0.051437,0.015015,1.02002,-0.01315,0.010466,0.031514,64.62706,23.308594,-147.580139,,,
729608692.329864,0.553047,1.891663,58.54581,-0.051544,0.011978,1.023697,-0.003359,0.005871,0.032397,64.62706,23.308594,-147.580139,,,
729608692.333215,0.553047,1.891663,58.54581,-0.051544,0.011978,1.023697,-0.003359,0.005871,0.032397,64.62706,23.308594,-147.580139,,,
729608692.336568,0.553254,1.891402,58.554966,-0.051544,0.011978,1.023697,-0.003359,0.005871,0.032397,64.62706,23.308594,-147.580139,,,
729608692.339841,0.561103,1.894997,58.563914,-0.04512,0.011581,1.023651,0.00533,0.000259,0.028957,64.62706,23.308594,-147.580139,,,
729608692.343183,0.561103,1.894997,58.563914,-0.04512,0.011581,1.023651,0.00533,0.000259,0.028957,64.62706,23.308594,-147.580139,,,
729608692.346538,0.564389,1.89372,58.574332,-0.04512,0.011581,1.023651,0.00533,0.000259,0.028957,64.62706,23.308594,-147.580139,,,
729608692.34984,0.5743,1.89802,58.586477,-0.045639,0.008087,1.019836,0.012296,-0.00226,0.040024,64.62706,23.308594,-147.580139,,,
729608692.353197,0.5743,1.89802,58.586477,-0.045639,0.008087,1.019836,0.012296,-0.00226,0.040024,64.62706,23.308594,-147.580139,,,
729608692.356534,0.578749,1.896017,58.600012,-0.045639,0.008087,1.019836,0.012296,-0.00226,0.040024,64.447769,23.330551,-147.745743,,,
729608692.359844,0.590067,1.898758,58.614352,-0.044647,0.004425,1.015945,0.017109,-0.005662,0.048733,64.447769,23.330551,-147.745743,,,
729608692.363264,0.590067,1.898758,58.614352,-0.044647,0.004425,1.015945,0.017109,-0.005662,0.048733,64.447769,23.330551,-147.745743,,,
729608692.366508,0.596267,1.896278,58.628851,-0.044647,0.004425,1.015945,0.017109,-0.005662,0.048733,64.447769,23.330551,-147.745743,,,
729608692.369856,0.609101,1.896182,58.643002,-0.037918,0.010147,1.01413,0.023543,-0.005277,0.047251,64.447769,23.330551,-147.745743,,,
729608692.373204,0.609101,1.896182,58.643002,-0.037918,0.010147,1.01413,0.023543,-0.005277,0.047251,64.447769,23.330551,-147.745743,,,
729608692.376579,0.617606,1.892228,58.656488,-0.037918,0.010147,1.01413,0.023543,-0.005277,0.047251,64.447769,23.330551,-147.745743,,,
729608692.379844,0.631937,1.891746,58.669245,-0.030914,0.014038,1.01384,0.033769,-0.010626,0.044346,64.447769,23.330551,-147.745743,,,
729608692.383196,0.631937,1.891746,58.669245,-0.030914,0.014038,1.01384,0.033769,-0.010626,0.044346,64.447769,23.330551,-147.745743,,,
729608692.386535,0.642846,1.888027,58.681188,-0.030914,0.014038,1.01384,0.033769,-0.010626,0.044346,64.447769,23.330551,-147.745743,,,
729608692.389846,0.658514,1.889134,58.692689,-0.026398,0.014603,1.016632,0.040313,-0.007217,0.03858,64.447769,23.330551,-147.745743,,,
729608692.393191,0.658514,1.889134,58.692689,-0.026398,0.014603,1.016632,0.040313,-0.007217,0.03858,64.447769,23.330551,-147.745743,,,
729608692.396516,0.671605,1.88671,58.704033,-0.026398,0.014603,1.016632,0.040313,-0.007217,0.03858,64.471344,23.168137,-147.683792,,,
729608692.399851,0.687051,1.88968,58.714036,-0.021652,0.014603,1.01506,0.048533,-0.003565,0.036049,64.471344,23.168137,-147.683792,,,
729608692.403245,0.687051,1.88968,58.714036,-0.021652,0.014603,1.01506,0.048533,-0.003565,0.036049,64.471344,23.168137,-147.683792,,,
729608692.406515,0.701642,1.888623,58.722697,-0.021652,0.014603,1.01506,0.048533,-0.003565,0.036049,64.471344,23.168137,-147.683792,,,
729608692.409845,0.717314,1.891395,58.730605,-0.017166,0.01712,1.014099,0.056507,-0.002532,0.027398,64.471344,23.168137,-147.683792,,,
729608692.413188,0.717314,1.891395,58.730605,-0.017166,0.01712,1.014099,0.056507,-0.002532,0.027398,64.471344,23.168137,-147.683792,,,
729608692.416589,0.73458,1.88918,58.737699,-0.017166,0.01712,1.014099,0.056507,-0.002532,0.027398,64.471344,23.168137,-147.683792,,,
729608692.419836,0.753039,1.888483,58.743736,-0.01767,0.018906,1.011963,0.064487,-0.008588,0.022012,64.471344,23.168137,-147.683792,,,
729608692.423208,0.753039,1.888483,58.743736,-0.01767,0.018906,1.011963,0.064487,-0.008588,0.022012,64.471344,23.168137,-147.683792,,,
729608692.426514,0.772613,1.883602,58.748275,-0.01767,0.018906,1.011963,0.064487,-0.008588,0.022012,64.471344,23.168137,-147.683792,,,
729608692.429851,0.792597,1.8799,58.750474,-0.016754,0.018646,1.008759,0.071096,-0.01848,0.010547,64.471344,23.168137,-147.683792,,,
729608692.433173,0.792597,1.8799,58.750474,-0.016754,0.018646,1.008759,0.071096,-0.01848,0.010547,64.471344,23.168137,-147.683792,,,
729608692.436587,0.813975,1.873279,58.750644,-0.016754,0.018646,1.008759,0.071096,-0.01848,0.010547,64.442947,23.041489,-147.680573,,,
729608692.439827,0.813975,1.873279,58.749128,-0.012756,0.023987,1.003113,0.07546,-0.024678,-0.002697,64.442947,23.041489,-147.680573,,,
729608692.443259,0.834087,1.868332,58.749128,-0.012756,0.023987,1.003113,0.07546,-0.024678,-0.002697,64.442947,23.041489,-147.680573,,,
729608692.446524,0.856553,1.860742,58.746098,-0.012756,0.023987,1.003113,0.07546,-0.024678,-0.002697,64.442947,23.041489,-147.680573,,,
729608692.449851,0.878329,1.855523,58.741713,-0.017197,0.02449,1.005371,0.08331,-0.02002,-0.015238,64.442947,23.041489,-147.680573,,,
729608692.453189,0.878329,1.855523,58.741713,-0.017197,0.02449,1.005371,0.08331,-0.02002,-0.015238,64.442947,23.041489,-147.680573,,,
729608692.456577,0.901628,1.851253,58.736808,-0.017197,0.02449,1.005371,0.08331,-0.02002,-0.015238,64.442947,23.041489,-147.680573,,,
729608692.459832,0.901628,1.851253,58.736808,-0.024292,0.021133,1.004761,0.081179,0.001024,-0.014318,64.442947,23.041489,-147.680573,,,
729608692.463179,0.924167,1.850377,58.732421,-0.024292,0.021133,1.004761,0.081179,0.001024,-0.014318,64.442947,23.041489,-147.680573,,,
729608692.466522,0.946491,1.852891,58.728835,-0.024292,0.021133,1.004761,0.081179,0.001024,-0.014318,64.442947,23.041489,-147.680573,,,
729608692.469834,0.946491,1.856825,58.72655,-0.030258,0.016968,1.000854,0.075815,0.020366,-0.005953,64.442947,23.041489,-147.680573,,,
729608692.473193,0.967419,1.856825,58.72655,-0.030258,0.016968,1.000854,0.075815,0.020366,-0.005953,64.442947,23.041489,-147.680573,,,
729608692.476525,0.988469,1.863618,58.726265,-0.030258,0.016968,1.000854,0.075815,0.020366,-0.005953,64.442947,23.041489,-147.680573,,,
729608692.479915,0.988469,1.863618,58.726265,-0.037781,0.013412,0.996445,0.073251,0.032348,0.005442,64.213013,22.99881,-147.890167,,,
729608692.483237,1.009325,1.869684,58.727765,-0.037781,0.013412,0.996445,0.073251,0.032348,0.005442,64.213013,22.99881,-147.890167,,,
729608692.486525,1.03117,1.87827,58.730918,-0.037781,0.013412,0.996445,0.073251,0.032348,0.005442,64.213013,22.99881,-147.890167,,,
729608692.489859,1.03117,1.87827,58.730918,-0.043274,0.014374,0.995209,0.077728,0.029719,0.019698,64.213013,22.99881,-147.890167,,,
729608692.493193,1.052439,1.881851,58.735634,-0.043274,0.014374,0.995209,0.077728,0.029719,0.019698,64.213013,22.99881,-147.890167,,,
729608692.496581,1.073962,1.887295,58.740555,-0.043274,0.014374,0.995209,0.077728,0.029719,0.019698,64.213013,22.99881,-147.890167,,,
729608692.499833,1.073962,1.887295,58.740555,-0.043274,0.014374,0.995209,0.074897,0.009068,0.01606,64.213013,22.99881,-147.890167,,,
729608692.50318,1.094752,1.884568,58.7447,-0.040176,0.018692,0.987213,0.074897,0.009068,0.01606,64.213013,22.99881,-147.890167,,,
729608692.506518,1.11455,1.884293,58.748092,-0.040176,0.018692,0.987213,0.074897,0.009068,0.01606,64.213013,22.99881,-147.890167,,,
729608692.509858,1.11455,1.884293,58.748092,-0.03775,0.023712,0.98317,0.063625,-0.003978,0.009939,64.213013,22.99881,-147.890167,,,
729608692.513192,1.13233,1.876953,58.751442,-0.03775,0.023712,0.98317,0.063625,-0.003978,0.009939,64.213013,22.99881,-147.890167,,,
729608692.516511,1.148771,1.872584,58.75492,-0.03775,0.023712,0.98317,0.063625,-0.003978,0.009939,64.213013,22.99881,-147.890167,,,
729608692.519842,1.148771,1.872584,58.75492,-0.03775,0.023712,0.98317,0.045337,-0.019165,0.014298,64.43222,22.757843,-147.427948,,,
729608692.523242,1.163065,1.860272,58.759306,-0.036011,0.023712,0.978577,0.045337,-0.019165,0.014298,64.43222,22.757843,-147.427948,,,
729608692.526506,1.173635,1.853281,58.764437,-0.036011,0.023712,0.978577,0.045337,-0.019165,0.014298,64.43222,22.757843,-147.427948,,,
729608692.52984,1.173635,1.853281,58.764437,-0.036011,0.023712,0.978577,0.027141,-0.02284,0.01942,64.43222,22.757843,-147.427948,,,
729608692.53318,1.182984,1.84022,58.770001,-0.035416,0.021439,0.976318,0.027141,-0.02284,0.01942,64.43222,22.757843,-147.427948,,,
729608692.536558,1.188463,1.832634,58.775825,-0.035416,0.021439,0.976318,0.027141,-0.02284,0.01942,64.43222,22.757843,-147.427948,,,
729608692.539858,1.188463,1.832634,58.775825,-0.035416,0.021439,0.976318,0.014724,-0.024803,0.02016,64.43222,22.757843,-147.427948,,,
729608692.543208,1.192841,1.821054,58.782559,-0.033249,0.02124,0.977768,0.014724,-0.024803,0.02016,64.43222,22.757843,-147.427948,,,
729608692.546515,1.195482,1.813311,58.789627,-0.033249,0.02124,0.977768,0.014724,-0.024803,0.02016,64.43222,22.757843,-147.427948,,,
729608692.549918,1.195482,1.813311,58.789627,-0.034607,0.019394,0.985199,0.004024,-0.022305,0.027385,64.43222,22.757843,-147.427948,,,
729608692.553184,1.195686,1.805037,58.797121,-0.034607,0.019394,0.985199,0.004024,-0.022305,0.027385,64.43222,22.757843,-147.427948,,,
