Time (sec),Pitch (deg),Roll (deg),Yaw(deg),X-Acceleration (g),Y-Acceleration (g),Z-Acceleration (g),Pitch Rate (deg/sec),Roll Rate (deg/sec),Yaw Rate (deg/sec),Magnetic Field in X direction (uT),Magnetic Field in Y direction (uT),Magnetic Field in Z Direction (uT),Latitude (deg),Longitude (deg),Altitude (m)
729600958.502314,1.302797,-2.545972,-1.987772,0.034622,0.016785,1.005157,0.062394,0.022238,0.002757,63.919769,8.709381,-147.438705,,,
729600958.505702,1.302797,-2.545972,-1.987772,0.034622,0.016785,1.005157,0.056011,0.027271,0.008066,63.919769,8.709381,-147.438705,,,
729600958.509036,1.319574,-2.538251,-1.984642,0.033875,0.016129,1.001617,0.056011,0.027271,0.008066,63.919769,8.709381,-147.438705,,,
729600958.512373,1.334452,-2.531979,-1.980796,0.033875,0.016129,1.001617,0.056011,0.027271,0.008066,63.919769,8.709381,-147.438705,,,
729600958.515653,1.334452,-2.531979,-1.980796,0.033875,0.016129,1.001617,0.056011,0.027271,0.008066,63.919769,8.709381,-147.438705,,,
729600958.519037,1.346662,-2.525004,-1.976443,0.031097,0.018082,0.991547,0.038115,0.015112,0.012841,63.919769,8.709381,-147.438705,,,
729600958.522362,1.356281,-2.5228,-1.971643,0.031097,0.018082,0.991547,0.038115,0.015112,0.012841,63.919769,8.709381,-147.438705,,,
729600958.525833,1.356281,-2.5228,-1.971643,0.031097,0.018082,0.991547,0.038115,0.015112,0.012841,63.919769,8.709381,-147.438705,,,
729600958.529002,1.363164,-2.518537,-1.966759,0.030563,0.020584,0.986511,0.022985,-0.00065,0.014788,63.919769,8.709381,-147.438705,,,
729600958.532322,1.368222,-2.521065,-1.96194,0.030563,0.020584,0.986511,0.022985,-0.00065,0.014788,63.919769,8.709381,-147.438705,,,
729600958.535718,1.368222,-2.521065,-1.96194,0.030563,0.020584,0.986511,0.022985,-0.00065,0.014788,63.983276,8.671173,-147.18866,,,
729600958.539053,1.369822,-2.521362,-1.957804,0.035904,0.0224,0.982391,0.003135,-0.016211,0.011646,63.983276,8.671173,-147.18866,,,
729600958.542359,1.369635,-2.528413,-1.954085,0.035904,0.0224,0.982391,0.003135,-0.016211,0.011646,63.983276,8.671173,-147.18866,,,
729600958.545677,1.369635,-2.528413,-1.954085,0.035904,0.0224,0.982391,0.003135,-0.016211,0.011646,63.983276,8.671173,-147.18866,,,
729600958.548988,1.367225,-2.533959,-1.9508,0.039383,0.020935,0.981293,-0.008797,-0.032223,0.009778,63.983276,8.671173,-147.18866,,,
729600958.552315,1.363411,-2.544888,-1.947719,0.039383,0.020935,0.981293,-0.008797,-0.032223,0.009778,63.983276,8.671173,-147.18866,,,
729600958.555692,1.363411,-2.544888,-1.947719,0.039383,0.020935,0.981293,-0.008797,-0.032223,0.009778,63.983276,8.671173,-147.18866,,,
729600958.559039,1.357206,-2.553914,-1.944821,0.042053,0.016113,0.9841,-0.019248,-0.0392,0.009421,63.983276,8.671173,-147.18866,,,
729600958.56231,1.350632,-2.565819,-1.941429,0.042053,0.016113,0.9841,-0.019248,-0.0392,0.009421,63.983276,8.671173,-147.18866,,,
729600958.565744,1.350632,-2.565819,-1.941429,0.042053,0.016113,0.9841,-0.019248,-0.0392,0.009421,63.983276,8.671173,-147.18866,,,
729600958.568989,1.341742,-2.574161,-1.936886,0.04332,0.014786,0.989365,-0.025261,-0.030908,0.018103,63.983276,8.671173,-147.18866,,,
729600958.57233,1.334421,-2.583055,-1.931714,0.04332,0.014786,0.989365,-0.025261,-0.030908,0.018103,63.983276,8.671173,-147.18866,,,
729600958.575778,1.334421,-2.583055,-1.931714,0.04332,0.014786,0.989365,-0.025261,-0.030908,0.018103,63.752579,8.772705,-147.198059,,,
729600958.579031,1.32651,-2.587777,-1.925692,0.050018,0.013824,0.994568,-0.018492,-0.01896,0.024143,63.752579,8.772705,-147.198059,,,
729600958.582309,1.321427,-2.593188,-1.91912,0.050018,0.013824,0.994568,-0.018492,-0.01896,0.024143,63.752579,8.772705,-147.198059,,,
729600958.585727,1.321427,-2.593188,-1.91912,0.050018,0.013824,0.994568,-0.018492,-0.01896,0.024143,63.752579,8.772705,-147.198059,,,
729600958.58897,1.317032,-2.593554,-1.913461,0.055984,0.014221,0.998764,-0.002924,-0.00488,0.017556,63.752579,8.772705,-147.198059,,,
729600958.592367,1.317086,-2.594277,-1.908094,0.055984,0.014221,0.998764,-0.002924,-0.00488,0.017556,63.752579,8.772705,-147.198059,,,
729600958.595698,1.317086,-2.594277,-1.908094,0.055984,0.014221,0.998764,-0.002924,-0.00488,0.017556,63.752579,8.772705,-147.198059,,,
729600958.598992,1.318267,-2.588836,-1.903478,0.057419,0.016571,1.002304,0.010252,0.01525,0.012247,63.752579,8.772705,-147.198059,,,
729600958.60232,1.321261,-2.585342,-1.899161,0.057419,0.016571,1.002304,0.010252,0.01525,0.012247,63.752579,8.772705,-147.198059,,,
729600958.605804,1.321261,-2.585342,-1.899161,0.057419,0.016571,1.002304,0.010252,0.01525,0.012247,63.752579,8.772705,-147.198059,,,
729600958.609034,1.324205,-2.579249,-1.895136,0.055389,0.016235,0.997437,0.012118,0.01311,0.010509,63.752579,8.772705,-147.198059,,,
729600958.612325,1.326714,-2.577317,-1.89159,0.055389,0.016235,0.997437,0.012118,0.01311,0.010509,63.752579,8.772705,-147.198059,,,
729600958.615681,1.326714,-2.577317,-1.89159,0.055389,0.016235,0.997437,0.012118,0.01311,0.010509,63.900497,8.837662,-147.264053,,,
729600958.619055,1.327555,-2.574816,-1.887904,0.049149,0.017319,0.981186,0.001248,0.005516,0.012201,63.900497,8.837662,-147.264053,,,
729600958.622313,1.32627,-2.574973,-1.884603,0.049149,0.017319,0.981186,0.001248,0.005516,0.012201,63.900497,8.837662,-147.264053,,,
729600958.625785,1.32627,-2.574973,-1.884603,0.049149,0.017319,0.981186,0.001248,0.005516,0.012201,63.900497,8.837662,-147.264053,,,
729600958.628982,1.32161,-2.576698,-1.882881,0.049286,0.022491,0.975723,-0.015352,-0.011592,0.00207,63.900497,8.837662,-147.264053,,,
729600958.632316,1.316401,-2.582323,-1.882884,0.049286,0.022491,0.975723,-0.015352,-0.011592,0.00207,63.900497,8.837662,-147.264053,,,
729600958.635647,1.316401,-2.582323,-1.882884,0.049286,0.022491,0.975723,-0.015352,-0.011592,0.00207,63.900497,8.837662,-147.264053,,,
729600958.639002,1.308484,-2.588961,-1.885137,0.051849,0.027802,0.969238,-0.023285,-0.023472,-0.013186,63.900497,8.837662,-147.264053,,,
729600958.642356,1.302075,-2.596073,-1.889751,0.051849,0.027802,0.969238,-0.023285,-0.023472,-0.013186,63.900497,8.837662,-147.264053,,,
729600958.645742,1.302075,-2.596073,-1.889751,0.051849,0.027802,0.969238,-0.023285,-0.023472,-0.013186,63.900497,8.837662,-147.264053,,,
729600958.648982,1.294021,-2.602473,-1.89589,0.053284,0.031815,0.978592,-0.022453,-0.018687,-0.023911,63.900497,8.837662,-147.264053,,,
729600958.652322,1.287965,-2.607565,-1.903561,0.053284,0.031815,0.978592,-0.022453,-0.018687,-0.023911,63.900497,8.837662,-147.264053,,,
729600958.655658,1.287965,-2.607565,-1.903561,0.053284,0.031815,0.978592,-0.022453,-0.018687,-0.023911,63.900497,8.837662,-147.264053,,,
729600958.659079,1.281655,-2.612445,-1.911954,0.053314,0.027542,0.985062,-0.012556,-0.007118,-0.029677,63.997803,8.891464,-147.328293,,,
729600958.662311,1.278631,-2.614202,-1.919347,0.053314,0.027542,0.985062,-0.012556,-0.007118,-0.029677,63.997803,8.891464,-147.328293,,,
729600958.665682,1.278631,-2.614202,-1.919347,0.053314,0.027542,0.985062,-0.012556,-0.007118,-0.029677,63.997803,8.891464,-147.328293,,,
729600958.66901,1.275675,-2.616517,-1.924795,0.050201,0.018311,0.989044,-0.001743,0.004896,-0.016992,63.997803,8.891464,-147.328293,,,
729600958.672311,1.275468,-2.614773,-1.928221,0.050201,0.018311,0.989044,-0.001743,0.004896,-0.016992,63.997803,8.891464,-147.328293,,,
729600958.675721,1.275468,-2.614773,-1.928221,0.050201,0.018311,0.989044,-0.001743,0.004896,-0.016992,63.997803,8.891464,-147.328293,,,
729600958.67899,1.274284,-2.613279,-1.929594,0.045609,0.017838,0.989227,9.5e-05,0.018453,-0.003066,63.997803,8.891464,-147.328293,,,
729600958.682321,1.274089,-2.608591,-1.929733,0.045609,0.017838,0.989227,9.5e-05,0.018453,-0.003066,63.997803,8.891464,-147.328293,,,
729600958.685739,1.274089,-2.608591,-1.929733,0.045609,0.017838,0.989227,9.5e-05,0.018453,-0.003066,63.997803,8.891464,-147.328293,,,
729600958.688991,1.272999,-2.60474,-1.929415,0.044327,0.023499,0.982071,0.001421,0.02179,-0.000164,63.997803,8.891464,-147.328293,,,
729600958.692367,1.273187,-2.599702,-1.929569,0.044327,0.023499,0.982071,0.001421,0.02179,-0.000164,63.997803,8.891464,-147.328293,,,
729600958.695643,1.273187,-2.599702,-1.929569,0.044327,0.023499,0.982071,0.001421,0.02179,-0.000164,63.997803,8.891464,-147.328293,,,
729600958.699057,1.272248,-2.59671,-1.931654,0.051514,0.032608,0.977539,-0.003209,0.012678,-0.013518,63.819778,8.715668,-147.267624,,,
729600958.70231,1.270642,-2.59476,-1.936539,0.051514,0.032608,0.977539,-0.003209,0.012678,-0.013518,63.819778,8.715668,-147.267624,,,
729600958.705664,1.270642,-2.59476,-1.936539,0.051514,0.032608,0.977539,-0.003209,0.012678,-0.013518,63.819778,8.715668,-147.267624,,,
729600958.709046,1.268378,-2.595087,-1.944075,0.05928,0.038544,0.974915,-0.011928,0.00358,-0.03181,63.819778,8.715668,-147.267624,,,
729600958.71234,1.265232,-2.59499,-1.953757,0.05928,0.038544,0.974915,-0.011928,0.00358,-0.03181,63.819778,8.715668,-147.267624,,,
729600958.715695,1.265232,-2.59499,-1.953757,0.05928,0.038544,0.974915,-0.011928,0.00358,-0.03181,63.819778,8.715668,-147.267624,,,
729600958.719011,1.262696,-2.597134,-1.964212,0.060944,0.03978,0.979477,-0.01826,-0.001379,-0.037131,63.819778,8.715668,-147.267624,,,
729600958.722319,1.257884,-2.59787,-1.974672,0.060944,0.03978,0.979477,-0.01826,-0.001379,-0.037131,63.819778,8.715668,-147.267624,,,
729600958.725666,1.257884,-2.59787,-1.974672,0.060944,0.03978,0.979477,-0.01826,-0.001379,-0.037131,63.819778,8.715668,-147.267624,,,
729600958.72901,1.254289,-2.599283,-1.984207,0.05455,0.034821,0.984619,-0.020879,0.005518,-0.03079,63.819778,8.715668,-147.267624,,,
729600958.732318,1.248053,-2.597714,-1.992396,0.05455,0.034821,0.984619,-0.020879,0.005518,-0.03079,63.819778,8.715668,-147.267624,,,
729600958.73567,1.248053,-2.597714,-1.992396,0.05455,0.034821,0.984619,-0.020879,0.005518,-0.03079,63.819778,8.715668,-147.267624,,,
729600958.739025,1.241314,-2.596147,-1.999442,0.049362,0.03038,0.990372,-0.027195,0.014391,-0.02278,63.796448,8.651199,-147.3396,,,
729600958.742361,1.233268,-2.592228,-2.005664,0.049362,0.03038,0.990372,-0.027195,0.014391,-0.02278,63.796448,8.651199,-147.3396,,,
729600958.74569,1.233268,-2.592228,-2.005664,0.049362,0.03038,0.990372,-0.027195,0.014391,-0.02278,63.796448,8.651199,-147.3396,,,
729600958.749086,1.223699,-2.588116,-2.011337,0.050232,0.033401,0.991806,-0.033119,0.020561,-0.018806,63.796448,8.651199,-147.3396,,,
729600958.752317,1.214156,-2.583523,-2.016642,0.050232,0.033401,0.991806,-0.033119,0.020561,-0.018806,63.796448,8.651199,-147.3396,,,
729600958.755674,1.214156,-2.583523,-2.016642,0.050232,0.033401,0.991806,-0.033119,0.020561,-0.018806,63.796448,8.651199,-147.3396,,,
729600958.759047,1.204244,-2.580342,-2.022205,0.044418,0.034607,0.994476,-0.034559,0.010395,-0.020543,63.796448,8.651199,-147.3396,,,
729600958.762409,1.193881,-2.578982,-2.02786,0.044418,0.034607,0.994476,-0.034559,0.010395,-0.020543,63.796448,8.651199,-147.3396,,,
729600958.765651,1.193881,-2.578982,-2.02786,0.044418,0.034607,0.994476,-0.034559,0.010395,-0.020543,63.796448,8.651199,-147.3396,,,
729600958.769007,1.184065,-2.579462,-2.032454,0.040558,0.029755,0.995377,-0.037923,-0.000446,-0.013039,63.796448,8.651199,-147.3396,,,
729600958.772317,1.173586,-2.58096,-2.036236,0.040558,0.029755,0.995377,-0.037923,-0.000446,-0.013039,63.796448,8.651199,-147.3396,,,
729600958.775779,1.173586,-2.58096,-2.036236,0.040558,0.029755,0.995377,-0.037923,-0.000446,-0.013039,63.796448,8.651199,-147.3396,,,
729600958.778986,1.167673,-2.585312,-2.039416,0.038712,0.024963,1.000412,-0.02724,-0.005088,-0.009621,63.734802,8.767273,-147.631653,,,
729600958.782325,1.161037,-2.588717,-2.04256,0.038712,0.024963,1.000412,-0.02724,-0.005088,-0.009621,63.734802,8.767273,-147.631653,,,
729600958.785711,1.161037,-2.588717,-2.04256,0.038712,0.024963,1.000412,-0.02724,-0.005088,-0.009621,63.734802,8.767273,-147.631653,,,
729600958.788987,1.161179,-2.597863,-2.046309,0.041611,0.020966,1.012558,-0.013366,-0.01804,-0.014989,63.734802,8.767273,-147.631653,,,
729600958.792375,1.158122,-2.603254,-2.050449,0.041611,0.020966,1.012558,-0.013366,-0.01804,-0.014989,63.734802,8.767273,-147.631653,,,
729600958.795656,1.158122,-2.603254,-2.050449,0.041611,0.020966,1.012558,-0.013366,-0.01804,-0.014989,63.734802,8.767273,-147.631653,,,
729600958.799029,1.160845,-2.610545,-2.054694,0.045944,0.016113,1.013992,-0.005393,-0.006253,-0.016601,63.734802,8.767273,-147.631653,,,
729600958.802316,1.158988,-2.611555,-2.058726,0.045944,0.016113,1.013992,-0.005393,-0.006253,-0.016601,63.734802,8.767273,-147.631653,,,
729600958.805657,1.158988,-2.611555,-2.058726,0.045944,0.016113,1.013992,-0.005393,-0.006253,-0.016601,63.734802,8.767273,-147.631653,,,
729600958.809041,1.160306,-2.611682,-2.06169,0.044205,0.016251,1.018265,-0.003578,0.011146,-0.009473,63.734802,8.767273,-147.631653,,,
729600958.812318,1.159467,-2.609335,-2.063675,0.044205,0.016251,1.018265,-0.003578,0.011146,-0.009473,63.734802,8.767273,-147.631653,,,
729600958.815653,1.159467,-2.609335,-2.063675,0.044205,0.016251,1.018265,-0.003578,0.011146,-0.009473,63.734802,8.767273,-147.631653,,,
729600958.818991,1.161108,-2.607764,-2.064794,0.03891,0.018265,1.016449,-0.003336,0.013239,-0.003614,63.734802,8.767273,-147.631653,,,
729600958.82233,1.160166,-2.604808,-2.064991,0.03891,0.018265,1.016449,-0.003336,0.013239,-0.003614,64.059967,8.727859,-147.256531,,,
729600958.825733,1.160166,-2.604808,-2.064991,0.03891,0.018265,1.016449,-0.003336,0.013239,-0.003614,64.059967,8.727859,-147.256531,,,
729600958.828984,1.163275,-2.602655,-2.064406,0.039444,0.020004,1.013596,0.000374,0.014172,0.001546,64.059967,8.727859,-147.256531,,,
729600958.83232,1.162543,-2.599389,-2.063587,0.039444,0.020004,1.013596,0.000374,0.014172,0.001546,64.059967,8.727859,-147.256531,,,
729600958.835665,1.162543,-2.599389,-2.063587,0.039444,0.020004,1.013596,0.000374,0.014172,0.001546,64.059967,8.727859,-147.256531,,,
729600958.838979,1.164737,-2.595215,-2.063402,0.040314,0.023041,1.012985,-9e-06,0.016257,-0.002798,64.059967,8.727859,-147.256531,,,
729600958.842364,1.164764,-2.592305,-2.063837,0.040314,0.023041,1.012985,-9e-06,0.016257,-0.002798,64.059967,8.727859,-147.256531,,,
729600958.845652,1.164764,-2.592305,-2.063837,0.040314,0.023041,1.012985,-9e-06,0.016257,-0.002798,64.059967,8.727859,-147.256531,,,
729600958.849073,1.167185,-2.589795,-2.064504,0.04129,0.022125,1.014206,0.003385,0.003414,-0.004359,64.059967,8.727859,-147.256531,,,
729600958.852312,1.168421,-2.590233,-2.064964,0.04129,0.022125,1.014206,0.003385,0.003414,-0.004359,64.059967,8.727859,-147.256531,,,
729600958.855666,1.168421,-2.590233,-2.064964,0.04129,0.022125,1.014206,0.003385,0.003414,-0.004359,64.059967,8.727859,-147.256531,,,
729600958.859044,1.171188,-2.589969,-2.064807,0.036606,0.016266,1.010696,0.011598,-0.001752,-0.000228,64.059967,8.727859,-147.256531,,,
729600958.862315,1.175132,-2.591701,-2.063714,0.036606,0.016266,1.010696,0.011598,-0.001752,-0.000228,63.825989,8.909393,-147.726074,,,
729600958.865665,1.175132,-2.591701,-2.063714,0.036606,0.016266,1.010696,0.011598,-0.001752,-0.000228,63.825989,8.909393,-147.726074,,,
729600958.869001,1.180328,-2.593123,-2.061634,0.035965,0.012482,1.010315,0.023344,-0.004323,0.00623,63.825989,8.909393,-147.726074,,,
729600958.872323,1.187355,-2.596412,-2.059116,0.035965,0.012482,1.010315,0.023344,-0.004323,0.00623,63.825989,8.909393,-147.726074,,,
729600958.875724,1.187355,-2.596412,-2.059116,0.035965,0.012482,1.010315,0.023344,-0.004323,0.00623,63.825989,8.909393,-147.726074,,,
729600958.87898,1.194026,-2.60135,-2.056322,0.036163,0.016541,1.011505,0.030726,-0.014552,0.007779,63.825989,8.909393,-147.726074,,,
729600958.882317,1.20268,-2.60729,-2.053284,0.036163,0.016541,1.011505,0.030726,-0.014552,0.007779,63.825989,8.909393,-147.726074,,,
729600958.88566,1.20268,-2.60729,-2.053284,0.036163,0.016541,1.011505,0.030726,-0.014552,0.007779,63.825989,8.909393,-147.726074,,,
729600958.889042,1.20996,-2.613364,-2.050294,0.037201,0.022781,1.007996,0.028281,-0.023934,0.00775,63.825989,8.909393,-147.726074,,,
729600958.892356,1.216971,-2.62186,-2.047389,0.037201,0.022781,1.007996,0.028281,-0.023934,0.00775,63.825989,8.909393,-147.726074,,,
729600958.895661,1.216971,-2.62186,-2.047389,0.037201,0.022781,1.007996,0.028281,-0.023934,0.00775,63.825989,8.909393,-147.726074,,,
729600958.899006,1.221143,-2.629446,-2.044457,0.035049,0.026428,1.00177,0.013074,-0.02938,0.008895,63.825989,8.909393,-147.726074,,,
729600958.902317,1.224222,-2.639106,-2.040996,0.035049,0.026428,1.00177,0.013074,-0.02938,0.008895,63.742188,8.703445,-147.463196,,,
729600958.905641,1.224222,-2.639106,-2.040996,0.035049,0.026428,1.00177,0.013074,-0.02938,0.008895,63.742188,8.703445,-147.463196,,,
729600958.909058,1.22664,-2.647659,-2.037281,0.035629,0.0233,0.997452,0.010613,-0.034089,0.011041,63.742188,8.703445,-147.463196,,,
729600958.912358,1.229329,-2.658902,-2.033459,0.035629,0.0233,0.997452,0.010613,-0.034089,0.011041,63.742188,8.703445,-147.463196,,,
729600958.915652,1.229329,-2.658902,-2.033459,0.035629,0.0233,0.997452,0.010613,-0.034089,0.011041,63.742188,8.703445,-147.463196,,,
729600958.919017,1.232567,-2.669917,-2.029886,0.043503,0.018005,1.001663,0.011696,-0.04104,0.009462,63.742188,8.703445,-147.463196,,,
729600958.922324,1.235152,-2.682134,-2.026537,0.043503,0.018005,1.001663,0.011696,-0.04104,0.009462,63.742188,8.703445,-147.463196,,,
729600958.9257,1.235152,-2.682134,-2.026537,0.043503,0.018005,1.001663,0.011696,-0.04104,0.009462,63.742188,8.703445,-147.463196,,,
729600958.928978,1.237776,-2.691574,-2.023293,0.049805,0.016434,1.004074,0.013475,-0.034106,0.00891,63.742188,8.703445,-147.463196,,,
729600958.932319,1.241613,-2.700553,-2.02006,0.049805,0.016434,1.004074,0.013475,-0.034106,0.00891,63.742188,8.703445,-147.463196,,,
729600958.935648,1.241613,-2.700553,-2.02006,0.049805,0.016434,1.004074,0.013475,-0.034106,0.00891,63.742188,8.703445,-147.463196,,,
729600958.938995,1.244229,-2.704151,-2.016591,0.050262,0.017807,1.006058,0.018487,-0.015484,0.01074,63.742188,8.703445,-147.463196,,,
729600958.942374,1.249394,-2.708163,-2.012994,0.050262,0.017807,1.006058,0.018487,-0.015484,0.01074,63.742188,8.703445,-147.463196,,,
729600958.945656,1.249394,-2.708163,-2.012994,0.050262,0.017807,1.006058,0.018487,-0.015484,0.01074,63.714233,8.734253,-147.096786,,,
729600958.948984,1.252969,-2.706941,-2.009536,0.048447,0.017975,1.006058,0.021493,0.001053,0.010053,63.714233,8.734253,-147.096786,,,
729600958.952313,1.259498,-2.70718,-2.005769,0.048447,0.017975,1.006058,0.021493,0.001053,0.010053,63.714233,8.734253,-147.096786,,,
729600958.955649,1.259498,-2.70718,-2.005769,0.048447,0.017975,1.006058,0.021493,0.001053,0.010053,63.714233,8.734253,-147.096786,,,
729600958.959037,1.26646,-2.70487,-2.002302,0.049179,0.019699,1.004181,0.028895,0.001027,0.008039,63.714233,8.734253,-147.096786,,,
729600958.962308,1.274677,-2.7059,-1.999472,0.049179,0.019699,1.004181,0.028895,0.001027,0.008039,63.714233,8.734253,-147.096786,,,
729600958.965642,1.274677,-2.7059,-1.999472,0.049179,0.019699,1.004181,0.028895,0.001027,0.008039,63.714233,8.734253,-147.096786,,,
729600958.96898,1.283373,-2.704809,-1.997065,0.046265,0.017349,0.994858,0.028031,-0.001814,0.005515,63.714233,8.734253,-147.096786,,,
729600958.97231,1.29064,-2.707125,-1.994388,0.046265,0.017349,0.994858,0.028031,-0.001814,0.005515,63.714233,8.734253,-147.096786,,,
729600958.975762,1.29064,-2.707125,-1.994388,0.046265,0.017349,0.994858,0.028031,-0.001814,0.005515,63.714233,8.734253,-147.096786,,,
729600958.978814,1.297778,-2.707698,-1.991197,0.040253,0.013885,0.986435,0.023172,-0.011083,0.0098,63.714233,8.734253,-147.096786,,,
729600958.982359,1.304779,-2.712702,-1.98691,0.040253,0.013885,0.986435,0.023172,-0.011083,0.0098,63.714233,8.734253,-147.096786,,,
729600958.98566,1.304779,-2.712702,-1.98691,0.040253,0.013885,0.986435,0.023172,-0.011083,0.0098,63.617172,8.756134,-147.247116,,,
729600958.988985,1.312212,-2.71679,-1.98154,0.03595,0.009979,0.984116,0.030307,-0.019293,0.017329,63.617172,8.756134,-147.247116,,,
729600958.992473,1.321081,-2.723453,-1.9754,0.03595,0.009979,0.984116,0.030307,-0.019293,0.017329,63.617172,8.756134,-147.247116,,,
729600958.995709,1.321081,-2.723453,-1.9754,0.03595,0.009979,0.984116,0.030307,-0.019293,0.017329,63.617172,8.756134,-147.247116,,,
729600958.999039,1.329798,-2.73004,-1.969263,0.040039,0.012375,0.988525,0.038441,-0.020046,0.016907,63.617172,8.756134,-147.247116,,,
729600959.002333,1.340588,-2.736814,-1.964213,0.040039,0.012375,0.988525,0.038441,-0.020046,0.016907,63.617172,8.756134,-147.247116,,,
729600959.005681,1.340588,-2.736814,-1.964213,0.040039,0.012375,0.988525,0.038441,-0.020046,0.016907,63.617172,8.756134,-147.247116,,,
729600959.009147,1.349661,-2.743278,-1.960536,0.049332,0.020142,0.985992,0.037322,-0.013895,0.007276,63.617172,8.756134,-147.247116,,,
729600959.012311,1.358707,-2.747126,-1.958344,0.049332,0.020142,0.985992,0.037322,-0.013895,0.007276,63.617172,8.756134,-147.247116,,,
729600959.015677,1.358707,-2.747126,-1.958344,0.049332,0.020142,0.985992,0.037322,-0.013895,0.007276,63.617172,8.756134,-147.247116,,,
729600959.019016,1.363383,-2.74941,-1.956735,0.053238,0.0242,0.978088,0.017212,-0.002052,0.00416,63.617172,8.756134,-147.247116,,,
729600959.022314,1.367207,-2.75003,-1.954452,0.053238,0.0242,0.978088,0.017212,-0.002052,0.00416,63.617172,8.756134,-147.247116,,,
729600959.025703,1.367207,-2.75003,-1.954452,0.053238,0.0242,0.978088,0.017212,-0.002052,0.00416,63.876801,8.648041,-147.351944,,,
729600959.029022,1.367779,-2.750054,-1.950964,0.04866,0.023865,0.974854,0.003002,0.003294,0.01321,63.876801,8.648041,-147.351944,,,
729600959.032312,1.367489,-2.750865,-1.9461,0.04866,0.023865,0.974854,0.003002,0.003294,0.01321,63.876801,8.648041,-147.351944,,,
729600959.035767,1.367489,-2.750865,-1.9461,0.04866,0.023865,0.974854,0.003002,0.003294,0.01321,63.876801,8.648041,-147.351944,,,
729600959.039001,1.364991,-2.753823,-1.9401,0.04628,0.023331,0.972565,-0.005658,-0.010983,0.021584,63.876801,8.648041,-147.351944,,,
729600959.042459,1.362031,-2.75822,-1.93491,0.04628,0.023331,0.972565,-0.005658,-0.010983,0.021584,63.876801,8.648041,-147.351944,,,
729600959.045773,1.362031,-2.75822,-1.93491,0.04628,0.023331,0.972565,-0.005658,-0.010983,0.021584,63.876801,8.648041,-147.351944,,,
729600959.049082,1.356381,-2.762275,-1.932186,0.056046,0.027863,0.974503,-0.013063,-0.014797,0.004878,63.876801,8.648041,-147.351944,,,
729600959.052319,1.352092,-2.767147,-1.932738,0.056046,0.027863,0.974503,-0.013063,-0.014797,0.004878,63.876801,8.648041,-147.351944,,,
729600959.055675,1.352092,-2.767147,-1.932738,0.056046,0.027863,0.974503,-0.013063,-0.014797,0.004878,63.876801,8.648041,-147.351944,,,
729600959.059056,1.345096,-2.770054,-1.937289,0.067474,0.03334,0.978821,-0.016313,-0.018242,-0.022403,63.876801,8.648041,-147.351944,,,
729600959.062373,1.34073,-2.776334,-1.944834,0.067474,0.03334,0.978821,-0.016313,-0.018242,-0.022403,63.876801,8.648041,-147.351944,,,
729600959.065648,1.34073,-2.776334,-1.944834,0.067474,0.03334,0.978821,-0.016313,-0.018242,-0.022403,63.597519,8.811798,-147.523727,,,
729600959.068994,1.333681,-2.779352,-1.954816,0.069931,0.033478,0.98349,-0.012981,-0.013905,-0.039174,63.597519,8.811798,-147.523727,,,
729600959.072318,1.330602,-2.782692,-1.966196,0.069931,0.033478,0.98349,-0.012981,-0.013905,-0.039174,63.597519,8.811798,-147.523727,,,
729600959.075726,1.330602,-2.782692,-1.966196,0.069931,0.033478,0.98349,-0.012981,-0.013905,-0.039174,63.597519,8.811798,-147.523727,,,
729600959.078976,1.325975,-2.78327,-1.977874,0.063965,0.027985,0.987869,-0.010584,-0.002123,-0.041191,63.597519,8.811798,-147.523727,,,
729600959.082319,1.323272,-2.783591,-1.989131,0.063965,0.027985,0.987869,-0.010584,-0.002123,-0.041191,63.597519,8.811798,-147.523727,,,
729600959.085662,1.323272,-2.783591,-1.989131,0.063965,0.027985,0.987869,-0.010584,-0.002123,-0.041191,63.597519,8.811798,-147.523727,,,
729600959.088998,1.320206,-2.783063,-1.999131,0.058121,0.023758,0.990372,-0.011972,0.008914,-0.032439,63.597519,8.811798,-147.523727,,,
729600959.092363,1.316276,-2.780154,-2.007247,0.058121,0.023758,0.990372,-0.011972,0.008914,-0.032439,63.597519,8.811798,-147.523727,,,
729600959.095765,1.316276,-2.780154,-2.007247,0.058121,0.023758,0.990372,-0.011972,0.008914,-0.032439,63.597519,8.811798,-147.523727,,,
729600959.098999,1.311764,-2.776759,-2.013402,0.049454,0.021469,0.986389,-0.019357,0.019663,-0.01865,63.597519,8.811798,-147.523727,,,
729600959.102314,1.3055,-2.771839,-2.017941,0.049454,0.021469,0.986389,-0.019357,0.019663,-0.01865,63.597519,8.811798,-147.523727,,,
729600959.10567,1.3055,-2.771839,-2.017941,0.049454,0.021469,0.986389,-0.019357,0.019663,-0.01865,63.597519,8.811798,-147.523727,,,
729600959.109073,1.298628,-2.766904,-2.021174,0.037537,0.016632,0.990387,-0.023273,0.018903,-0.009392,63.711121,8.750443,-147.355453,,,
729600959.112306,1.29212,-2.76273,-2.023834,0.037537,0.016632,0.990387,-0.023273,0.018903,-0.009392,63.711121,8.750443,-147.355453,,,
729600959.115655,1.29212,-2.76273,-2.023834,0.037537,0.016632,0.990387,-0.023273,0.018903,-0.009392,63.711121,8.750443,-147.355453,,,
729600959.118988,1.286554,-2.759348,-2.026921,0.032455,0.013351,0.995422,-0.020513,0.015205,-0.012547,63.711121,8.750443,-147.355453,,,
729600959.122342,1.281044,-2.756043,-2.030715,0.032455,0.013351,0.995422,-0.020513,0.015205,-0.012547,63.711121,8.750443,-147.355453,,,
729600959.125706,1.281044,-2.756043,-2.030715,0.032455,0.013351,0.995422,-0.020513,0.015205,-0.012547,63.711121,8.750443,-147.355453,,,
729600959.12904,1.278037,-2.756894,-2.03591,0.035767,0.010559,1.005875,-0.014969,0.004953,-0.023004,63.711121,8.750443,-147.355453,,,
729600959.132393,1.274789,-2.757185,-2.042768,0.035767,0.010559,1.005875,-0.014969,0.004953,-0.023004,63.711121,8.750443,-147.355453,,,
729600959.135656,1.274789,-2.757185,-2.042768,0.035767,0.010559,1.005875,-0.014969,0.004953,-0.023004,63.711121,8.750443,-147.355453,,,
729600959.138999,1.275684,-2.764097,-2.050041,0.037186,0.010269,1.008377,-0.005724,-0.006288,-0.027105,63.711121,8.750443,-147.355453,,,
729600959.142386,1.274867,-2.766908,-2.057629,0.037186,0.010269,1.008377,-0.005724,-0.006288,-0.027105,63.711121,8.750443,-147.355453,,,
729600959.145679,1.274867,-2.766908,-2.057629,0.037186,0.010269,1.008377,-0.005724,-0.006288,-0.027105,63.711121,8.750443,-147.355453,,,
729600959.148995,1.278364,-2.77455,-2.064613,0.036652,0.010254,1.011826,0.007573,-0.006537,-0.024272,63.685089,8.915314,-147.188629,,,
729600959.152325,1.281323,-2.776779,-2.070657,0.036652,0.010254,1.011826,0.007573,-0.006537,-0.024272,63.685089,8.915314,-147.188629,,,
729600959.155649,1.281323,-2.776779,-2.070657,0.036652,0.010254,1.011826,0.007573,-0.006537,-0.024272,63.685089,8.915314,-147.188629,,,
729600959.159063,1.287564,-2.781622,-2.075035,0.034698,0.008972,1.017624,0.02421,-0.001746,-0.014,63.685089,8.915314,-147.188629,,,
729600959.162366,1.295462,-2.783608,-2.076689,0.034698,0.008972,1.017624,0.02421,-0.001746,-0.014,63.685089,8.915314,-147.188629,,,
729600959.165685,1.295462,-2.783608,-2.076689,0.034698,0.008972,1.017624,0.02421,-0.001746,-0.014,63.685089,8.915314,-147.188629,,,
729600959.16908,1.305932,-2.787462,-2.075766,0.03804,0.007797,1.016403,0.041025,-0.003691,0.00292,63.685089,8.915314,-147.188629,,,
729600959.172315,1.318223,-2.788988,-2.073463,0.03804,0.007797,1.016403,0.041025,-0.003691,0.00292,63.685089,8.915314,-147.188629,,,
729600959.175717,1.318223,-2.788988,-2.073463,0.03804,0.007797,1.016403,0.041025,-0.003691,0.00292,63.685089,8.915314,-147.188629,,,
729600959.179004,1.331221,-2.78898,-2.070251,0.044952,0.012482,1.013428,0.050791,0.001691,0.008907,63.685089,8.915314,-147.188629,,,
729600959.182386,1.345611,-2.789379,-2.067059,0.044952,0.012482,1.013428,0.050791,0.001691,0.008907,63.685089,8.915314,-147.188629,,,
729600959.18566,1.345611,-2.789379,-2.067059,0.044952,0.012482,1.013428,0.050791,0.001691,0.008907,63.685089,8.915314,-147.188629,,,
729600959.188992,1.357764,-2.785892,-2.065151,0.05188,0.017685,1.009552,0.047526,0.005515,0.000719,63.763153,8.517487,-147.418076,,,
729600959.192384,1.370598,-2.785472,-2.06436,0.05188,0.017685,1.009552,0.047526,0.005515,0.000719,63.763153,8.517487,-147.418076,,,
729600959.195784,1.370598,-2.785472,-2.06436,0.05188,0.017685,1.009552,0.047526,0.005515,0.000719,63.763153,8.517487,-147.418076,,,
729600959.199038,1.378417,-2.782224,-2.064552,0.054611,0.022888,1.000748,0.031895,0.000621,-0.004757,63.763153,8.517487,-147.418076,,,
729600959.202413,1.385781,-2.782527,-2.065901,0.054611,0.022888,1.000748,0.031895,0.000621,-0.004757,63.763153,8.517487,-147.418076,,,
729600959.205662,1.385781,-2.782527,-2.065901,0.054611,0.022888,1.000748,0.031895,0.000621,-0.004757,63.763153,8.517487,-147.418076,,,
729600959.209097,1.387638,-2.780132,-2.068644,0.05658,0.029099,0.994019,0.01612,-0.000775,-0.013251,63.763153,8.517487,-147.418076,,,
729600959.212402,1.391537,-2.781972,-2.072261,0.05658,0.029099,0.994019,0.01612,-0.000775,-0.013251,63.763153,8.517487,-147.418076,,,
729600959.215653,1.391537,-2.781972,-2.072261,0.05658,0.029099,0.994019,0.01612,-0.000775,-0.013251,63.763153,8.517487,-147.418076,,,
729600959.218989,1.390998,-2.783115,-2.075966,0.057205,0.029953,0.993134,0.008684,-0.013936,-0.013117,63.763153,8.517487,-147.418076,,,
729600959.222398,1.392974,-2.788325,-2.07983,0.057205,0.029953,0.993134,0.008684,-0.013936,-0.013117,63.763153,8.517487,-147.418076,,,
729600959.225707,1.392974,-2.788325,-2.07983,0.057205,0.029953,0.993134,0.008684,-0.013936,-0.013117,63.763153,8.517487,-147.418076,,,
729600959.229173,1.390804,-2.790761,-2.084476,0.055542,0.027084,0.992432,0.002381,-0.016523,-0.01774,63.717087,8.49585,-147.440674,,,
729600959.232335,1.391417,-2.797154,-2.089301,0.055542,0.027084,0.992432,0.002381,-0.016523,-0.01774,63.717087,8.49585,-147.440674,,,
729600959.235654,1.391417,-2.797154,-2.089301,0.055542,0.027084,0.992432,0.002381,-0.016523,-0.01774,63.717087,8.49585,-147.440674,,,
729600959.238735,1.387947,-2.800847,-2.094574,0.055481,0.02449,0.994034,-0.00054,-0.021001,-0.020192,63.717087,8.49585,-147.440674,,,
729600959.242448,1.388251,-2.807662,-2.09999,0.055481,0.02449,0.994034,-0.00054,-0.021001,-0.020192,63.717087,8.49585,-147.440674,,,
729600959.245682,1.388251,-2.807662,-2.09999,0.055481,0.02449,0.994034,-0.00054,-0.021001,-0.020192,63.717087,8.49585,-147.440674,,,
729600959.248997,1.385255,-2.812096,-2.105696,0.058578,0.02356,0.995895,0.002453,-0.020551,-0.021924,63.717087,8.49585,-147.440674,,,
729600959.2524,1.386593,-2.818171,-2.111928,0.058578,0.02356,0.995895,0.002453,-0.020551,-0.021924,63.717087,8.49585,-147.440674,,,
729600959.255641,1.386593,-2.818171,-2.111928,0.058578,0.02356,0.995895,0.002453,-0.020551,-0.021924,63.717087,8.49585,-147.440674,,,
729600959.259057,1.386571,-2.823254,-2.118316,0.061157,0.023483,0.998901,0.008293,-0.017297,-0.023186,63.717087,8.49585,-147.440674,,,
729600959.262372,1.389989,-2.829232,-2.124531,0.061157,0.023483,0.998901,0.008293,-0.017297,-0.023186,63.717087,8.49585,-147.440674,,,
729600959.265648,1.389989,-2.829232,-2.124531,0.061157,0.023483,0.998901,0.008293,-0.017297,-0.023186,63.717087,8.49585,-147.440674,,,
729600959.268993,1.393328,-2.836368,-2.131047,0.061493,0.025009,1.001297,0.016674,-0.019835,-0.025818,63.717087,8.49585,-147.440674,,,
729600959.272397,1.399096,-2.842615,-2.138233,0.061493,0.025009,1.001297,0.016674,-0.019835,-0.025818,63.882446,8.334305,-147.423599,,,
729600959.275723,1.399096,-2.842615,-2.138233,0.061493,0.025009,1.001297,0.016674,-0.019835,-0.025818,63.882446,8.334305,-147.423599,,,
729600959.278976,1.405862,-2.849973,-2.146042,0.057663,0.025055,0.99704,0.021754,-0.018712,-0.030678,63.882446,8.334305,-147.423599,,,
729600959.282321,1.411657,-2.855946,-2.154665,0.057663,0.025055,0.99704,0.021754,-0.018712,-0.030678,63.882446,8.334305,-147.423599,,,
729600959.285698,1.411657,-2.855946,-2.154665,0.057663,0.025055,0.99704,0.021754,-0.018712,-0.030678,63.882446,8.334305,-147.423599,,,
729600959.288981,1.417796,-2.863255,-2.163919,0.058868,0.025146,0.995407,0.013881,-0.016902,-0.03501,63.882446,8.334305,-147.423599,,,
729600959.292373,1.421079,-2.868334,-2.173552,0.058868,0.025146,0.995407,0.013881,-0.016902,-0.03501,63.882446,8.334305,-147.423599,,,
729600959.295725,1.421079,-2.868334,-2.173552,0.058868,0.025146,0.995407,0.013881,-0.016902,-0.03501,63.882446,8.334305,-147.423599,,,
729600959.298987,1.424057,-2.874629,-2.182858,0.056564,0.025436,0.98819,0.003902,-0.013344,-0.032506,63.882446,8.334305,-147.423599,,,
729600959.302318,1.424057,-2.879036,-2.192154,0.056564,0.025436,0.98819,0.003902,-0.013344,-0.032506,63.882446,8.334305,-147.423599,,,
729600959.305654,1.424557,-2.879036,-2.192154,0.056564,0.025436,0.98819,0.003902,-0.013344,-0.032506,63.882446,8.334305,-147.423599,,,
729600959.309061,1.424402,-2.884705,-2.20132,0.053207,0.027588,0.987625,-0.002276,-0.014385,-0.031482,63.882446,8.334305,-147.423599,,,
729600959.312428,1.423126,-2.889742,-2.209913,0.053207,0.027588,0.987625,-0.002276,-0.014385,-0.031482,63.722839,8.405884,-147.750046,,,
729600959.315706,1.423126,-2.889742,-2.209913,0.053207,0.027588,0.987625,-0.002276,-0.014385,-0.031482,63.722839,8.405884,-147.750046,,,
729600959.318993,1.420194,-2.896162,-2.218387,0.054459,0.029022,0.982925,-0.012728,-0.013692,-0.030354,63.722839,8.405884,-147.750046,,,
729600959.322325,1.420194,-2.896162,-2.218387,0.054459,0.029022,0.982925,-0.012728,-0.013692,-0.030354,63.722839,8.405884,-147.750046,,,
729600959.325687,1.416024,-2.900529,-2.226825,0.054459,0.029022,0.982925,-0.012728,-0.013692,-0.030354,63.722839,8.405884,-147.750046,,,
729600959.329074,1.411363,-2.905978,-2.234838,0.053146,0.030655,0.982178,-0.014084,-0.006013,-0.027696,63.722839,8.405884,-147.750046,,,
729600959.332325,1.411363,-2.905978,-2.234838,0.053146,0.030655,0.982178,-0.014084,-0.006013,-0.027696,63.722839,8.405884,-147.750046,,,
729600959.335647,1.409574,-2.906574,-2.241732,0.053146,0.030655,0.982178,-0.014084,-0.006013,-0.027696,63.722839,8.405884,-147.750046,,,
729600959.339008,1.410474,-2.91105,-2.247123,0.051987,0.028381,0.999664,0.006199,-0.015213,-0.018671,63.722839,8.405884,-147.750046,,,
729600959.342394,1.410474,-2.91105,-2.247123,0.051987,0.028381,0.999664,0.006199,-0.015213,-0.018671,63.722839,8.405884,-147.750046,,,
729600959.345686,1.412409,-2.918969,-2.251551,0.051987,0.028381,0.999664,0.006199,-0.015213,-0.018671,63.722839,8.405884,-147.750046,,,
729600959.349023,1.414825,-2.930773,-2.255661,0.05368,0.026611,0.980057,0.008699,-0.027289,-0.016975,63.722839,8.405884,-147.750046,,,
729600959.352324,1.414825,-2.930773,-2.255661,0.05368,0.026611,0.980057,0.008699,-0.027289,-0.016975,63.781143,8.365692,-147.808487,,,
729600959.355649,1.417521,-2.938586,-2.25963,0.05368,0.026611,0.980057,0.008699,-0.027289,-0.016975,63.781143,8.365692,-147.808487,,,
729600959.359051,1.42001,-2.947088,-2.263349,0.048691,0.022263,0.985504,0.006207,-0.021417,-0.015398,63.781143,8.365692,-147.808487,,,
729600959.362386,1.42001,-2.947088,-2.263349,0.048691,0.022263,0.985504,0.006207,-0.021417,-0.015398,63.781143,8.365692,-147.808487,,,
729600959.365639,1.422045,-2.953851,-2.267908,0.048691,0.022263,0.985504,0.006207,-0.021417,-0.015398,63.781143,8.365692,-147.808487,,,
729600959.369031,1.424524,-2.962558,-2.273006,0.055557,0.023102,0.990494,0.007178,-0.02173,-0.019559,63.781143,8.365692,-147.808487,,,
729600959.372326,1.424524,-2.962558,-2.273006,0.055557,0.023102,0.990494,0.007178,-0.02173,-0.019559,63.781143,8.365692,-147.808487,,,
729600959.375747,1.426068,-2.968864,-2.277989,0.055557,0.023102,0.990494,0.007178,-0.02173,-0.019559,63.781143,8.365692,-147.808487,,,
729600959.379017,1.427734,-2.974289,-2.282506,0.056198,0.023392,0.989304,0.004726,-0.009958,-0.016269,63.781143,8.365692,-147.808487,,,
729600959.382341,1.427734,-2.974289,-2.282506,0.056198,0.023392,0.989304,0.004726,-0.009958,-0.016269,63.781143,8.365692,-147.808487,,,
729600959.385664,1.428139,-2.976477,-2.285971,0.056198,0.023392,0.989304,0.004726,-0.009958,-0.016269,63.781143,8.365692,-147.808487,,,
729600959.389013,1.427856,-2.977493,-2.288488,0.049011,0.024399,0.997391,-0.005889,0.003274,-0.009212,63.781143,8.365692,-147.808487,,,
729600959.39237,1.427856,-2.977493,-2.288488,0.049011,0.024399,0.997391,-0.005889,0.003274,-0.009212,63.802872,8.354935,-147.618118,,,
729600959.395721,1.425629,-2.977091,-2.290517,0.049011,0.024399,0.997391,-0.005889,0.003274,-0.009212,63.802872,8.354935,-147.618118,,,
729600959.398985,1.424517,-2.978217,-2.292315,0.04744,0.032059,0.995026,-0.009082,-0.002897,-0.007576,63.802872,8.354935,-147.618118,,,
729600959.4024,1.424517,-2.978217,-2.292315,0.04744,0.032059,0.995026,-0.009082,-0.002897,-0.007576,63.802872,8.354935,-147.618118,,,
729600959.405657,1.42159,-2.980563,-2.294594,0.04744,0.032059,0.995026,-0.009082,-0.002897,-0.007576,63.802872,8.354935,-147.618118,,,
729600959.409106,1.420263,-2.98429,-2.298105,0.051987,0.035416,0.992996,-0.007193,-0.011771,-0.016318,63.802872,8.354935,-147.618118,,,
729600959.412339,1.420263,-2.98429,-2.298105,0.051987,0.035416,0.992996,-0.007193,-0.011771,-0.016318,63.802872,8.354935,-147.618118,,,
729600959.415707,1.417808,-2.988421,-2.303016,0.051987,0.035416,0.992996,-0.007193,-0.011771,-0.016318,63.802872,8.354935,-147.618118,,,
729600959.419036,1.416083,-2.993769,-2.30944,0.057358,0.03537,0.996414,-0.00834,-0.018053,-0.026842,63.802872,8.354935,-147.618118,,,
729600959.422321,1.416083,-2.993769,-2.30944,0.057358,0.03537,0.996414,-0.00834,-0.018053,-0.026842,63.802872,8.354935,-147.618118,,,
729600959.425713,1.414539,-3.000542,-2.317388,0.057358,0.03537,0.996414,-0.00834,-0.018053,-0.026842,63.802872,8.354935,-147.618118,,,
729600959.429101,1.414208,-3.00922,-2.326773,0.064117,0.034485,0.995422,-0.001692,-0.031577,-0.037232,63.802872,8.354935,-147.618118,,,
729600959.432411,1.414208,-3.00922,-2.326773,0.064117,0.034485,0.995422,-0.001692,-0.031577,-0.037232,63.802872,8.354935,-147.618118,,,
729600959.435653,1.41474,-3.018783,-2.337206,0.064117,0.034485,0.995422,-0.001692,-0.031577,-0.037232,63.788284,8.317154,-147.58371,,,
729600959.43899,1.416357,-3.026793,-2.347699,0.062912,0.031891,0.998703,0.009523,-0.024098,-0.038181,63.788284,8.317154,-147.58371,,,
729600959.44236,1.416357,-3.026793,-2.347699,0.062912,0.031891,0.998703,0.009523,-0.024098,-0.038181,63.788284,8.317154,-147.58371,,,
729600959.445729,1.419795,-3.03293,-2.357837,0.062912,0.031891,0.998703,0.009523,-0.024098,-0.038181,63.788284,8.317154,-147.58371,,,
729600959.44899,1.424283,-3.038126,-2.366838,0.063156,0.031921,1.005814,0.018166,-0.008774,-0.030957,63.788284,8.317154,-147.58371,,,
729600959.452319,1.424283,-3.038126,-2.366838,0.063156,0.031921,1.005814,0.018166,-0.008774,-0.030957,63.788284,8.317154,-147.58371,,,
729600959.455828,1.430174,-3.040549,-2.374212,0.063156,0.031921,1.005814,0.018166,-0.008774,-0.030957,63.788284,8.317154,-147.58371,,,
729600959.459009,1.436072,-3.041249,-2.379806,0.065262,0.029556,1.001846,0.021279,0.004499,-0.018711,63.788284,8.317154,-147.58371,,,
729600959.462403,1.436072,-3.041249,-2.379806,0.065262,0.029556,1.001846,0.021279,0.004499,-0.018711,63.788284,8.317154,-147.58371,,,
729600959.465658,1.442419,-3.038976,-2.384546,0.065262,0.029556,1.001846,0.021279,0.004499,-0.018711,63.788284,8.317154,-147.58371,,,
729600959.469006,1.449563,-3.031699,-2.389238,0.068359,0.03096,1.002869,0.022878,0.029645,-0.018192,63.788284,8.317154,-147.58371,,,
729600959.472305,1.449563,-3.031699,-2.389238,0.068359,0.03096,1.002869,0.022878,0.029645,-0.018192,63.788284,8.317154,-147.58371,,,
729600959.475754,1.456017,-3.023475,-2.393975,0.068359,0.03096,1.002869,0.022878,0.029645,-0.018192,63.599167,8.369415,-147.778488,,,
729600959.479001,1.464409,-3.013724,-2.399271,0.066208,0.035019,1.00209,0.020457,0.036012,-0.021867,63.599167,8.369415,-147.778488,,,
729600959.482344,1.464409,-3.013724,-2.399271,0.066208,0.035019,1.00209,0.020457,0.036012,-0.021867,63.599167,8.369415,-147.778488,,,
729600959.485777,1.470041,-3.004311,-2.404632,0.066208,0.035019,1.00209,0.020457,0.036012,-0.021867,63.599167,8.369415,-147.778488,,,
729600959.489015,1.477743,-2.996699,-2.410437,0.059174,0.033951,0.991959,0.017752,0.027182,-0.024926,63.599167,8.369415,-147.778488,,,
729600959.492411,1.477743,-2.996699,-2.410437,0.059174,0.033951,0.991959,0.017752,0.027182,-0.024926,63.599167,8.369415,-147.778488,,,
729600959.495692,1.482239,-2.990435,-2.41691,0.059174,0.033951,0.991959,0.017752,0.027182,-0.024926,63.599167,8.369415,-147.778488,,,
729600959.499003,1.487736,-2.988718,-2.424345,0.055954,0.031448,0.988159,0.010445,0.008533,-0.031615,63.599167,8.369415,-147.778488,,,
729600959.502366,1.487736,-2.988718,-2.424345,0.055954,0.031448,0.988159,0.010445,0.008533,-0.031615,63.599167,8.369415,-147.778488,,,
729600959.505749,1.489833,-2.987869,-2.433124,0.055954,0.031448,0.988159,0.010445,0.008533,-0.031615,63.599167,8.369415,-147.778488,,,
729600959.509067,1.492473,-2.991767,-2.442605,0.052994,0.03421,0.981216,0.000866,-0.003704,-0.036548,63.599167,8.369415,-147.778488,,,
729600959.512302,1.492473,-2.991767,-2.442605,0.052994,0.03421,0.981216,0.000866,-0.003704,-0.036548,63.599167,8.369415,-147.778488,,,
729600959.515655,1.491878,-2.993657,-2.453312,0.052994,0.03421,0.981216,0.000866,-0.003704,-0.036548,63.906036,8.527115,-147.535706,,,
729600959.518982,1.491012,-2.999135,-2.463956,0.050964,0.037094,0.981461,-0.009339,-0.013605,-0.035945,63.906036,8.527115,-147.535706,,,
729600959.522338,1.491012,-2.999135,-2.463956,0.050964,0.037094,0.981461,-0.009339,-0.013605,-0.035945,63.906036,8.527115,-147.535706,,,
729600959.525698,1.488073,-3.003554,-2.472957,0.050964,0.037094,0.981461,-0.009339,-0.013605,-0.035945,63.906036,8.527115,-147.535706,,,
729600959.529012,1.485964,-3.010853,-2.480281,0.045425,0.031906,0.983719,-0.011788,-0.015182,-0.024583,63.906036,8.527115,-147.535706,,,
729600959.532409,1.485964,-3.010853,-2.480281,0.045425,0.031906,0.983719,-0.011788,-0.015182,-0.024583,63.906036,8.527115,-147.535706,,,
729600959.535687,1.482766,-3.015754,-2.486133,0.045425,0.031906,0.983719,-0.011788,-0.015182,-0.024583,63.906036,8.527115,-147.535706,,,
729600959.538975,1.481361,-3.022568,-2.490087,0.043167,0.028275,0.986282,-0.004147,-0.006849,-0.012305,63.906036,8.527115,-147.535706,,,
729600959.542391,1.481361,-3.022568,-2.490087,0.043167,0.028275,0.986282,-0.004147,-0.006849,-0.012305,63.906036,8.527115,-147.535706,,,
729600959.545661,1.479694,-3.024767,-2.49277,0.043167,0.028275,0.986282,-0.004147,-0.006849,-0.012305,63.906036,8.527115,-147.535706,,,
729600959.548983,1.479295,-3.029983,-2.494495,0.044754,0.026978,0.989761,-0.004938,-0.003048,-0.006272,63.906036,8.527115,-147.535706,,,
729600959.552326,1.479295,-3.029983,-2.494495,0.044754,0.026978,0.989761,-0.004938,-0.003048,-0.006272,63.906036,8.527115,-147.535706,,,
729600959.555641,1.477443,-3.031559,-2.495973,0.044754,0.026978,0.989761,-0.004938,-0.003048,-0.006272,63.632309,8.317535,-147.584305,,,
729600959.559029,1.478099,-3.034984,-2.497323,0.047592,0.026993,0.984589,-0.002812,0.001247,-0.005905,63.632309,8.317535,-147.584305,,,
729600959.562351,1.478099,-3.034984,-2.497323,0.047592,0.026993,0.984589,-0.002812,0.001247,-0.005905,63.632309,8.317535,-147.584305,,,
729600959.56567,1.47793,-3.034883,-2.499541,0.047592,0.026993,0.984589,-0.002812,0.001247,-0.005905,63.632309,8.317535,-147.584305,,,
729600959.568977,1.4805,-3.036516,-2.502641,0.048752,0.028976,0.993469,0.004295,-0.00116,-0.012661,63.632309,8.317535,-147.584305,,,
729600959.572418,1.4805,-3.036516,-2.502641,0.048752,0.028976,0.993469,0.004295,-0.00116,-0.012661,63.632309,8.317535,-147.584305,,,
729600959.575691,1.481902,-3.038046,-2.506792,0.048752,0.028976,0.993469,0.004295,-0.00116,-0.012661,63.632309,8.317535,-147.584305,,,
729600959.578981,1.484703,-3.040604,-2.512381,0.050919,0.032471,0.989517,0.001951,-0.004279,-0.022675,63.632309,8.317535,-147.584305,,,
729600959.582308,1.484703,-3.040604,-2.512381,0.050919,0.032471,0.989517,0.001951,-0.004279,-0.022675,63.632309,8.317535,-147.584305,,,
729600959.58574,1.485076,-3.041991,-2.518702,0.050919,0.032471,0.989517,0.001951,-0.004279,-0.022675,63.632309,8.317535,-147.584305,,,
729600959.588978,1.487963,-3.042796,-2.524509,0.046936,0.031387,0.991745,0.002444,0.000489,-0.01918,63.632309,8.317535,-147.584305,,,
729600959.592362,1.487963,-3.042796,-2.524509,0.046936,0.031387,0.991745,0.002444,0.000489,-0.01918,63.632309,8.317535,-147.584305,,,
729600959.595681,1.487957,-3.042968,-2.528368,0.046936,0.031387,0.991745,0.002444,0.000489,-0.01918,63.632309,8.317535,-147.584305,,,
729600959.598989,1.489095,-3.042141,-2.530808,0.039841,0.028,0.994583,-0.005046,0.002176,-0.008762,63.631577,8.430161,-147.465515,,,
729600959.602329,1.489095,-3.042141,-2.530808,0.039841,0.028,0.994583,-0.005046,0.002176,-0.008762,63.631577,8.430161,-147.465515,,,
729600959.605664,1.487486,-3.041548,-2.531984,0.039841,0.028,0.994583,-0.005046,0.002176,-0.008762,63.631577,8.430161,-147.465515,,,
729600959.609053,1.486004,-3.037987,-2.531969,0.036285,0.023468,0.993958,-0.011177,0.00924,0.000238,63.631577,8.430161,-147.465515,,,
729600959.612307,1.486004,-3.037987,-2.531969,0.036285,0.023468,0.993958,-0.011177,0.00924,0.000238,63.631577,8.430161,-147.465515,,,
729600959.615663,1.482408,-3.03494,-2.531534,0.036285,0.023468,0.993958,-0.011177,0.00924,0.000238,63.631577,8.430161,-147.465515,,,
729600959.618982,1.478813,-3.028098,-2.531153,0.040482,0.024185,0.994553,-0.013731,0.019854,0.000394,63.631577,8.430161,-147.465515,,,
729600959.622371,1.478813,-3.028098,-2.531153,0.040482,0.024185,0.994553,-0.013731,0.019854,0.000394,63.631577,8.430161,-147.465515,,,
729600959.625704,1.474586,-3.022904,-2.530902,0.040482,0.024185,0.994553,-0.013731,0.019854,0.000394,63.631577,8.430161,-147.465515,,,
729600959.629009,1.470733,-3.014739,-2.531423,0.045227,0.028839,0.992416,-0.01526,0.030041,-0.00463,63.631577,8.430161,-147.465515,,,
729600959.632307,1.470733,-3.014739,-2.531423,0.045227,0.028839,0.992416,-0.01526,0.030041,-0.00463,63.631577,8.430161,-147.465515,,,
729600959.635748,1.466837,-3.00715,-2.532904,0.045227,0.028839,0.992416,-0.01526,0.030041,-0.00463,63.631577,8.430161,-147.465515,,,
729600959.638989,1.464691,-2.999211,-2.534121,0.042709,0.02803,0.999359,-0.005235,0.024171,-0.003111,63.752365,8.486298,-147.6064,,,
729600959.642387,1.464691,-2.999211,-2.534121,0.042709,0.02803,0.999359,-0.005235,0.024171,-0.003111,63.752365,8.486298,-147.6064,,,
729600959.645662,1.462739,-2.993666,-2.534418,0.042709,0.02803,0.999359,-0.005235,0.024171,-0.003111,63.752365,8.486298,-147.6064,,,
729600959.64898,1.461421,-2.988995,-2.533222,0.03775,0.021774,0.994873,-0.009585,0.015641,0.007521,63.752365,8.486298,-147.6064,,,
729600959.65232,1.461421,-2.988995,-2.533222,0.03775,0.021774,0.994873,-0.009585,0.015641,0.007521,63.752365,8.486298,-147.6064,,,
729600959.655672,1.458554,-2.985889,-2.530234,0.03775,0.021774,0.994873,-0.009585,0.015641,0.007521,63.752365,8.486298,-147.6064,,,
729600959.659046,1.457218,-2.982946,-2.525635,0.033768,0.015991,0.991592,-0.010695,0.010803,0.018959,63.752365,8.486298,-147.6064,,,
729600959.662375,1.457218,-2.982946,-2.525635,0.033768,0.015991,0.991592,-0.010695,0.010803,0.018959,63.752365,8.486298,-147.6064,,,
729600959.665657,1.453711,-2.981815,-2.519363,0.033768,0.015991,0.991592,-0.010695,0.010803,0.018959,63.752365,8.486298,-147.6064,,,
729600959.668979,1.45215,-2.980876,-2.511791,0.033844,0.014954,0.99646,-0.005424,-0.00258,0.028045,63.752365,8.486298,-147.6064,,,
729600959.672402,1.45215,-2.980876,-2.511791,0.033844,0.014954,0.99646,-0.005424,-0.00258,0.028045,63.752365,8.486298,-147.6064,,,
729600959.675764,1.449566,-2.983413,-2.503366,0.033844,0.014954,0.99646,-0.005424,-0.00258,0.028045,63.752365,8.486298,-147.6064,,,
729600959.678985,1.447371,-2.982951,-2.494548,0.039017,0.017532,0.996552,-0.00328,-0.006433,0.031261,63.726761,8.46521,-147.607666,,,
729600959.682317,1.447371,-2.982951,-2.494548,0.039017,0.017532,0.996552,-0.00328,-0.006433,0.031261,63.726761,8.46521,-147.607666,,,
729600959.68569,1.446156,-2.985714,-2.485732,0.039017,0.017532,0.996552,-0.00328,-0.006433,0.031261,63.726761,8.46521,-147.607666,,,
729600959.688981,1.445156,-2.984423,-2.477956,0.045151,0.019836,1.003494,0.000602,-0.002466,0.02439,63.726761,8.46521,-147.607666,,,
729600959.692365,1.445156,-2.984423,-2.477956,0.045151,0.019836,1.003494,0.000602,-0.002466,0.02439,63.726761,8.46521,-147.607666,,,
729600959.695673,1.445534,-2.984963,-2.470397,0.045151,0.019836,1.003494,0.000602,-0.002466,0.02439,63.726761,8.46521,-147.607666,,,
729600959.698976,1.447589,-2.98065,-2.462736,0.05217,0.023727,1.004913,0.009521,0.016999,0.02501,63.726761,8.46521,-147.607666,,,
729600959.70234,1.447589,-2.98065,-2.462736,0.05217,0.023727,1.004913,0.009521,0.016999,0.02501,63.726761,8.46521,-147.607666,,,
729600959.705653,1.450744,-2.975287,-2.454314,0.05217,0.023727,1.004913,0.009521,0.016999,0.02501,63.726761,8.46521,-147.607666,,,
729600959.709049,1.456375,-2.966244,-2.444417,0.050781,0.021179,1.009201,0.018877,0.03205,0.03513,63.726761,8.46521,-147.607666,,,
729600959.712308,1.456375,-2.966244,-2.444417,0.050781,0.021179,1.009201,0.018877,0.03205,0.03513,63.726761,8.46521,-147.607666,,,
729600959.715695,1.461471,-2.956983,-2.432364,0.050781,0.021179,1.009201,0.018877,0.03205,0.03513,63.726761,8.46521,-147.607666,,,
729600959.71898,1.467776,-2.94336,-2.41807,0.0466,0.017532,1.007263,0.028868,0.045417,0.050657,63.726761,8.46521,-147.607666,,,
729600959.722327,1.467776,-2.94336,-2.41807,0.0466,0.017532,1.007263,0.028868,0.045417,0.050657,63.62709,8.503815,-147.542023,,,
729600959.725736,1.475079,-2.93276,-2.40179,0.0466,0.017532,1.007263,0.028868,0.045417,0.050657,63.62709,8.503815,-147.542023,,,
729600959.729081,1.481057,-2.920775,-2.384312,0.047577,0.017166,0.999283,0.030183,0.031786,0.059573,63.62709,8.503815,-147.542023,,,
729600959.732315,1.481057,-2.920775,-2.384312,0.047577,0.017166,0.999283,0.030183,0.031786,0.059573,63.62709,8.503815,-147.542023,,,
729600959.735669,1.488487,-2.913426,-2.367051,0.047577,0.017166,0.999283,0.030183,0.031786,0.059573,63.62709,8.503815,-147.542023,,,
729600959.738982,1.493037,-2.903652,-2.351003,0.048782,0.023087,0.99498,0.028296,0.019712,0.051949,63.62709,8.503815,-147.542023,,,
729600959.742373,1.493037,-2.903652,-2.351003,0.048782,0.023087,0.99498,0.028296,0.019712,0.051949,63.62709,8.503815,-147.542023,,,
729600959.745642,1.499196,-2.900516,-2.337065,0.048782,0.023087,0.99498,0.028296,0.019712,0.051949,63.62709,8.503815,-147.542023,,,
729600959.748985,1.501331,-2.896591,-2.326191,0.055603,0.02829,0.988983,0.015442,-0.000242,0.031875,63.62709,8.503815,-147.542023,,,
729600959.752311,1.501331,-2.896591,-2.326191,0.055603,0.02829,0.988983,0.015442,-0.000242,0.031875,63.62709,8.503815,-147.542023,,,
729600959.755642,1.504293,-2.898853,-2.317742,0.055603,0.02829,0.988983,0.015442,-0.000242,0.031875,63.62709,8.503815,-147.542023,,,
729600959.759028,1.503589,-2.90127,-2.311649,0.061005,0.029633,0.981598,0.001422,-0.016995,0.01659,63.62709,8.503815,-147.542023,,,
729600959.762357,1.503589,-2.90127,-2.311649,0.061005,0.029633,0.981598,0.001422,-0.016995,0.01659,63.726517,8.389877,-147.558578,,,
729600959.765664,1.502237,-2.907764,-2.307336,0.061005,0.029633,0.981598,0.001422,-0.016995,0.01659,63.726517,8.389877,-147.558578,,,
729600959.768976,1.497775,-2.913517,-2.304335,0.060532,0.030258,0.98053,-0.013729,-0.016921,0.008327,63.726517,8.389877,-147.558578,,,
729600959.772314,1.497775,-2.913517,-2.304335,0.060532,0.030258,0.98053,-0.013729,-0.016921,0.008327,63.726517,8.389877,-147.558578,,,
729600959.775705,1.493226,-2.918858,-2.301704,0.060532,0.030258,0.98053,-0.013729,-0.016921,0.008327,63.726517,8.389877,-147.558578,,,
729600959.778978,1.487293,-2.922271,-2.299206,0.062943,0.029938,0.984726,-0.019026,-0.000707,0.007605,63.726517,8.389877,-147.558578,,,
729600959.782335,1.487293,-2.922271,-2.299206,0.062943,0.029938,0.984726,-0.019026,-0.000707,0.007605,63.726517,8.389877,-147.558578,,,
729600959.785712,1.481588,-2.922217,-2.297212,0.062943,0.029938,0.984726,-0.019026,-0.000707,0.007605,63.726517,8.389877,-147.558578,,,
729600959.78897,1.475189,-2.92022,-2.295416,0.068558,0.028275,0.99826,-0.013035,0.009289,0.006004,63.726517,8.389877,-147.558578,,,
729600959.792393,1.475189,-2.92022,-2.295416,0.068558,0.028275,0.99826,-0.013035,0.009289,0.006004,63.726517,8.389877,-147.558578,,,
729600959.795674,1.47133,-2.918564,-2.293284,0.068558,0.028275,0.99826,-0.013035,0.009289,0.006004,63.726517,8.389877,-147.558578,,,
729600959.799093,1.465788,-2.915723,-2.290588,0.065109,0.024536,0.999191,-0.009331,0.00867,0.009992,63.726517,8.389877,-147.558578,,,
729600959.802331,1.465788,-2.915723,-2.290588,0.065109,0.024536,0.999191,-0.009331,0.00867,0.009992,63.645218,8.530731,-147.744888,,,
729600959.805755,1.463339,-2.914887,-2.287033,0.065109,0.024536,0.999191,-0.009331,0.00867,0.009992,63.645218,8.530731,-147.744888,,,
729600959.808846,1.460486,-2.914436,-2.282894,0.059738,0.018967,1.000839,-0.001768,0.001643,0.013867,63.645218,8.530731,-147.744888,,,
729600959.81242,1.460486,-2.914436,-2.282894,0.059738,0.018967,1.000839,-0.001768,0.001643,0.013867,63.645218,8.530731,-147.744888,,,
729600959.815657,1.45961,-2.915788,-2.279193,0.059738,0.018967,1.000839,-0.001768,0.001643,0.013867,63.645218,8.530731,-147.744888,,,
729600959.818998,1.459056,-2.918031,-2.277375,0.05925,0.020935,1.000793,1.7e-05,-0.004914,0.000655,63.645218,8.530731,-147.744888,,,
729600959.822305,1.459056,-2.918031,-2.277375,0.05925,0.020935,1.000793,1.7e-05,-0.004914,0.000655,63.645218,8.530731,-147.744888,,,
729600959.825747,1.458968,-2.920589,-2.278195,0.05925,0.020935,1.000793,1.7e-05,-0.004914,0.000655,63.645218,8.530731,-147.744888,,,
729600959.828997,1.460057,-2.924927,-2.281276,0.067215,0.027206,1.00116,8e-05,-0.004019,-0.015469,63.645218,8.530731,-147.744888,,,
729600959.832342,1.460057,-2.924927,-2.281276,0.067215,0.027206,1.00116,8e-05,-0.004019,-0.015469,63.645218,8.530731,-147.744888,,,
729600959.835669,1.460632,-2.925567,-2.28608,0.067215,0.027206,1.00116,8e-05,-0.004019,-0.015469,63.645218,8.530731,-147.744888,,,
729600959.838986,1.463017,-2.926939,-2.291461,0.063843,0.026169,1.0056,0.006395,0.010073,-0.020342,63.645218,8.530731,-147.744888,,,
729600959.842408,1.463017,-2.926939,-2.291461,0.063843,0.026169,1.0056,0.006395,0.010073,-0.020342,63.754272,8.495544,-147.501694,,,
729600959.845657,1.464627,-2.923952,-2.296575,0.063843,0.026169,1.0056,0.006395,0.010073,-0.020342,63.754272,8.495544,-147.501694,,,
729600959.849008,1.46704,-2.92148,-2.300483,0.052155,0.019241,1.001541,0.004639,0.024783,-0.012295,63.754272,8.495544,-147.501694,,,
729600959.852367,1.46704,-2.92148,-2.300483,0.052155,0.019241,1.001541,0.004639,0.024783,-0.012295,63.754272,8.495544,-147.501694,,,
729600959.855644,1.467868,-2.914007,-2.303178,0.052155,0.019241,1.001541,0.004639,0.024783,-0.012295,63.754272,8.495544,-147.501694,,,
729600959.85903,1.468729,-2.90891,-2.305338,0.045792,0.018356,0.999435,-0.001521,0.033523,-0.00891,63.754272,8.495544,-147.501694,,,
729600959.86234,1.468729,-2.90891,-2.305338,0.045792,0.018356,0.999435,-0.001521,0.033523,-0.00891,63.754272,8.495544,-147.501694,,,
729600959.865643,1.468097,-2.900201,-2.307651,0.045792,0.018356,0.999435,-0.001521,0.033523,-0.00891,63.754272,8.495544,-147.501694,,,
729600959.868976,1.468468,-2.896417,-2.310009,0.044174,0.025421,0.993149,0.002642,0.027179,-0.010184,63.754272,8.495544,-147.501694,,,
729600959.872313,1.468468,-2.896417,-2.310009,0.044174,0.025421,0.993149,0.002642,0.027179,-0.010184,63.754272,8.495544,-147.501694,,,
729600959.87551,1.470496,-2.890832,-2.312195,0.044174,0.025421,0.993149,0.002642,0.027179,-0.010184,63.754272,8.495544,-147.501694,,,
729600959.879029,1.473468,-2.891385,-2.313818,0.037079,0.023697,0.995544,0.015435,0.00465,-0.007416,63.754272,8.495544,-147.501694,,,
729600959.882377,1.473468,-2.891385,-2.313818,0.037079,0.023697,0.995544,0.015435,0.00465,-0.007416,63.754272,8.495544,-147.501694,,,
729600959.885637,1.478459,-2.893005,-2.3157,0.037079,0.023697,0.995544,0.015435,0.00465,-0.007416,63.894394,8.397141,-147.643387,,,
729600959.888972,1.483454,-2.900165,-2.317678,0.032898,0.019699,0.997803,0.026859,-0.021744,-0.009034,63.894394,8.397141,-147.643387,,,
729600959.892378,1.483454,-2.900165,-2.317678,0.032898,0.019699,0.997803,0.026859,-0.021744,-0.009034,63.894394,8.397141,-147.643387,,,
729600959.895666,1.491194,-2.908401,-2.31977,0.032898,0.019699,0.997803,0.026859,-0.021744,-0.009034,63.894394,8.397141,-147.643387,,,
729600959.898979,1.498134,-2.921326,-2.322486,0.034363,0.019211,0.99527,0.024497,-0.034462,-0.013769,63.894394,8.397141,-147.643387,,,
729600959.902408,1.498134,-2.921326,-2.322486,0.034363,0.019211,0.99527,0.024497,-0.034462,-0.013769,63.894394,8.397141,-147.643387,,,
729600959.905664,1.504702,-2.932183,-2.325822,0.034363,0.019211,0.99527,0.024497,-0.034462,-0.013769,63.894394,8.397141,-147.643387,,,
729600959.909118,1.509649,-2.94622,-2.329122,0.040161,0.019913,0.992661,0.010703,-0.031725,-0.013541,63.894394,8.397141,-147.643387,,,
729600959.912298,1.509649,-2.94622,-2.329122,0.040161,0.019913,0.992661,0.010703,-0.031725,-0.013541,63.894394,8.397141,-147.643387,,,
729600959.915687,1.511809,-2.955293,-2.331864,0.040161,0.019913,0.992661,0.010703,-0.031725,-0.013541,63.894394,8.397141,-147.643387,,,
729600959.918987,1.511956,-2.96424,-2.333403,0.045029,0.022552,0.992508,0.0012,-0.017555,-0.005009,63.894394,8.397141,-147.643387,,,
729600959.922341,1.511956,-2.96424,-2.333403,0.045029,0.022552,0.992508,0.0012,-0.017555,-0.005009,63.894394,8.397141,-147.643387,,,
729600959.925685,1.511034,-2.96874,-2.333904,0.045029,0.022552,0.992508,0.0012,-0.017555,-0.005009,64.062271,8.48436,-147.701141,,,
729600959.929028,1.506864,-2.969759,-2.332945,0.048813,0.028656,0.991348,-0.006414,0.001616,0.005714,64.062271,8.48436,-147.701141,,,
729600959.93242,1.506864,-2.969759,-2.332945,0.048813,0.028656,0.991348,-0.006414,0.001616,0.005714,64.062271,8.48436,-147.701141,,,
729600959.935625,1.504327,-2.969014,-2.330803,0.048813,0.028656,0.991348,-0.006414,0.001616,0.005714,64.062271,8.48436,-147.701141,,,
729600959.938993,1.499495,-2.964612,-2.328528,0.053253,0.030899,0.991852,-0.012746,0.017659,0.007252,64.062271,8.48436,-147.701141,,,
729600959.942403,1.499495,-2.964612,-2.328528,0.053253,0.030899,0.991852,-0.012746,0.017659,0.007252,64.062271,8.48436,-147.701141,,,
729600959.945648,1.494908,-2.959998,-2.326161,0.053253,0.030899,0.991852,-0.012746,0.017659,0.007252,64.062271,8.48436,-147.701141,,,
729600959.948984,1.490091,-2.952756,-2.32455,0.058075,0.03244,0.991165,-0.015404,0.019907,0.002585,64.062271,8.48436,-147.701141,,,
729600959.952215,1.490091,-2.952756,-2.32455,0.058075,0.03244,0.991165,-0.015404,0.019907,0.002585,64.062271,8.48436,-147.701141,,,
729600959.955714,1.485932,-2.948297,-2.324175,0.058075,0.03244,0.991165,-0.015404,0.019907,0.002585,64.062271,8.48436,-147.701141,,,
729600959.959043,1.48159,-2.941006,-2.324759,0.057266,0.031845,0.9897,-0.010951,0.012792,-0.003651,64.062271,8.48436,-147.701141,,,
729600959.962343,1.48159,-2.941006,-2.324759,0.057266,0.031845,0.9897,-0.010951,0.012792,-0.003651,64.062271,8.48436,-147.701141,,,
729600959.96565,1.478714,-2.9388,-2.326509,0.057266,0.031845,0.9897,-0.010951,0.012792,-0.003651,63.853409,8.450333,-147.260086,,,
729600959.96898,1.475354,-2.933328,-2.329372,0.055878,0.03096,0.989059,-0.003311,0.004369,-0.011022,63.853409,8.450333,-147.260086,,,
729600959.97235,1.475354,-2.933328,-2.329372,0.055878,0.03096,0.989059,-0.003311,0.004369,-0.011022,63.853409,8.450333,-147.260086,,,
729600959.975827,1.475375,-2.933164,-2.332292,0.055878,0.03096,0.989059,-0.003311,0.004369,-0.011022,63.853409,8.450333,-147.260086,,,
729600959.979032,1.475375,-2.933164,-2.332292,0.054962,0.025208,0.994492,0.006525,-0.000754,-0.012152,63.853409,8.450333,-147.260086,,,
729600959.982349,1.475506,-2.930138,-2.335396,0.054962,0.025208,0.994492,0.006525,-0.000754,-0.012152,63.853409,8.450333,-147.260086,,,
