Time (sec),Pitch (deg),Roll (deg),Yaw(deg),X-Acceleration (g),Y-Acceleration (g),Z-Acceleration (g),Pitch Rate (deg/sec),Roll Rate (deg/sec),Yaw Rate (deg/sec),Magnetic Field in X direction (uT),Magnetic Field in Y direction (uT),Magnetic Field in Z Direction (uT),Latitude (deg),Longitude (deg),Altitude (m)
729601196.917742,0.453636,-0.201664,-14.519706,-0.000732,0.005753,0.992538,-0.074573,-0.004139,-0.013051,69.424103,10.064407,-147.118057,,,
729601196.921082,0.453636,-0.201664,-14.519706,-0.000732,0.005753,0.992538,-0.074573,-0.004139,-0.013051,69.424103,10.064407,-147.118057,,,
729601196.924496,0.43428,-0.201845,-14.523157,-0.005051,0.003372,0.99324,-0.074573,-0.004139,-0.013051,69.504333,10.265625,-147.000504,,,
729601196.927746,0.412082,-0.206317,-14.52715,-0.005051,0.003372,0.99324,-0.077263,-0.015266,-0.016892,69.504333,10.265625,-147.000504,,,
729601196.931181,0.412082,-0.206317,-14.52715,-0.004181,0.002106,0.997818,-0.077263,-0.015266,-0.016892,69.504333,10.265625,-147.000504,,,
729601196.934433,0.391921,-0.210103,-14.5319,-0.004181,0.002106,0.997818,-0.077263,-0.015266,-0.016892,69.504333,10.265625,-147.000504,,,
729601196.937761,0.369272,-0.220803,-14.538066,-0.004181,0.002106,0.997818,-0.077145,-0.039248,-0.026923,69.504333,10.265625,-147.000504,,,
729601196.941095,0.369272,-0.220803,-14.538066,-0.004181,0.002106,0.997818,-0.077145,-0.039248,-0.026923,69.504333,10.265625,-147.000504,,,
729601196.944415,0.351378,-0.230887,-14.546377,-0.001846,0.000443,0.996567,-0.077145,-0.039248,-0.026923,69.504333,10.265625,-147.000504,,,
729601196.947749,0.332193,-0.246917,-14.556111,-0.001846,0.000443,0.996567,-0.063789,-0.056545,-0.036969,69.504333,10.265625,-147.000504,,,
729601196.951146,0.332193,-0.246917,-14.556111,-0.001846,0.000443,0.996567,-0.063789,-0.056545,-0.036969,69.504333,10.265625,-147.000504,,,
729601196.954424,0.318144,-0.261961,-14.566332,-0.0,-0.001297,1.004715,-0.063789,-0.056545,-0.036969,69.504333,10.265625,-147.000504,,,
729601196.957827,0.299424,-0.281985,-14.576216,-0.0,-0.001297,1.004715,-0.066916,-0.069747,-0.034732,69.504333,10.265625,-147.000504,,,
729601196.961131,0.299424,-0.281985,-14.576216,-0.0,-0.001297,1.004715,-0.066916,-0.069747,-0.034732,69.504333,10.265625,-147.000504,,,
729601196.964434,0.284035,-0.301838,-14.585167,0.00264,-9.2e-05,1.001419,-0.066916,-0.069747,-0.034732,69.267273,10.168518,-147.128052,,,
729601196.96775,0.262226,-0.321206,-14.592882,0.00264,-9.2e-05,1.001419,-0.078962,-0.061891,-0.025983,69.267273,10.168518,-147.128052,,,
729601196.971125,0.262226,-0.321206,-14.592882,0.00264,-9.2e-05,1.001419,-0.078962,-0.061891,-0.025983,69.267273,10.168518,-147.128052,,,
729601196.974434,0.242499,-0.338321,-14.599834,0.00174,0.00415,0.9991,-0.078962,-0.061891,-0.025983,69.267273,10.168518,-147.128052,,,
729601196.977784,0.215137,-0.353965,-14.606438,0.00174,0.00415,0.9991,-0.101191,-0.049128,-0.023351,69.267273,10.168518,-147.128052,,,
729601196.981105,0.215137,-0.353965,-14.606438,0.00174,0.00415,0.9991,-0.101191,-0.049128,-0.023351,69.267273,10.168518,-147.128052,,,
729601196.984527,0.186637,-0.36686,-14.612963,0.01123,0.010818,1.004669,-0.101191,-0.049128,-0.023351,69.267273,10.168518,-147.128052,,,
729601196.987745,0.154577,-0.380083,-14.61966,0.01123,0.010818,1.004669,-0.112959,-0.041567,-0.024522,69.267273,10.168518,-147.128052,,,
729601196.991204,0.154577,-0.380083,-14.61966,0.01123,0.010818,1.004669,-0.112959,-0.041567,-0.024522,69.267273,10.168518,-147.128052,,,
729601196.994426,0.121656,-0.389589,-14.627048,0.015762,0.004868,1.00769,-0.112959,-0.041567,-0.024522,69.267273,10.168518,-147.128052,,,
729601196.99775,0.088538,-0.402372,-14.636115,0.015762,0.004868,1.00769,-0.112298,-0.04241,-0.036212,69.267273,10.168518,-147.128052,,,
729601197.000742,0.088538,-0.402372,-14.636115,0.015762,0.004868,1.00769,-0.112298,-0.04241,-0.036212,69.267273,10.168518,-147.128052,,,
729601197.004457,0.057358,-0.412072,-14.647101,0.017319,-0.001938,1.018906,-0.112298,-0.04241,-0.036212,69.148209,10.619095,-147.585724,,,
729601197.00779,0.027707,-0.42622,-14.658987,0.017319,-0.001938,1.018906,-0.098802,-0.048659,-0.042578,69.148209,10.619095,-147.585724,,,
729601197.011109,0.027707,-0.42622,-14.658987,0.017319,-0.001938,1.018906,-0.098802,-0.048659,-0.042578,69.148209,10.619095,-147.585724,,,
729601197.014414,0.000949,-0.438662,-14.671459,0.015289,-0.006836,1.027634,-0.098802,-0.048659,-0.042578,69.148209,10.619095,-147.585724,,,
729601197.017748,-0.022479,-0.455961,-14.683712,0.015289,-0.006836,1.027634,-0.073648,-0.060511,-0.041226,69.148209,10.619095,-147.585724,,,
729601197.021084,-0.022479,-0.455961,-14.683712,0.015289,-0.006836,1.027634,-0.073648,-0.060511,-0.041226,69.148209,10.619095,-147.585724,,,
729601197.024514,-0.041665,-0.472855,-14.694759,0.010925,-0.012604,1.030884,-0.073648,-0.060511,-0.041226,69.148209,10.619095,-147.585724,,,
729601197.027745,-0.056876,-0.49475,-14.70505,0.010925,-0.012604,1.030884,-0.045613,-0.078059,-0.036113,69.148209,10.619095,-147.585724,,,
729601197.031109,-0.056876,-0.49475,-14.70505,0.010925,-0.012604,1.030884,-0.045613,-0.078059,-0.036113,69.148209,10.619095,-147.585724,,,
729601197.034517,-0.067993,-0.51633,-14.714352,0.008484,-0.011826,1.027298,-0.045613,-0.078059,-0.036113,69.148209,10.619095,-147.585724,,,
729601197.037743,-0.07461,-0.54131,-14.723338,0.008484,-0.011826,1.027298,-0.014672,-0.085979,-0.034214,69.148209,10.619095,-147.585724,,,
729601197.041085,-0.07461,-0.54131,-14.723338,0.008484,-0.011826,1.027298,-0.014672,-0.085979,-0.034214,69.148209,10.619095,-147.585724,,,
729601197.04446,-0.075637,-0.565267,-14.732922,0.00972,-0.008469,1.028931,-0.014672,-0.085979,-0.034214,69.148209,10.619095,-147.585724,,,
729601197.047755,-0.073789,-0.591864,-14.742785,0.00972,-0.008469,1.028931,0.011154,-0.089779,-0.036359,68.98494,10.5215,-146.942154,,,
729601197.051129,-0.073789,-0.591864,-14.742785,0.00972,-0.008469,1.028931,0.011154,-0.089779,-0.036359,68.98494,10.5215,-146.942154,,,
729601197.054385,-0.067409,-0.61689,-14.753046,0.013885,-0.005875,1.028305,0.011154,-0.089779,-0.036359,68.98494,10.5215,-146.942154,,,
729601197.057831,-0.060742,-0.643386,-14.762853,0.013885,-0.005875,1.028305,0.026666,-0.089201,-0.033391,68.98494,10.5215,-146.942154,,,
729601197.06117,-0.060742,-0.643386,-14.762853,0.013885,-0.005875,1.028305,0.026666,-0.089201,-0.033391,68.98494,10.5215,-146.942154,,,
729601197.064412,-0.051217,-0.669725,-14.771701,0.013611,-0.00679,1.016693,0.026666,-0.089201,-0.033391,68.98494,10.5215,-146.942154,,,
729601197.067758,-0.04381,-0.693675,-14.779854,0.013611,-0.00679,1.016693,0.02871,-0.077236,-0.028578,68.98494,10.5215,-146.942154,,,
729601197.071084,-0.04381,-0.693675,-14.779854,0.013611,-0.00679,1.016693,0.02871,-0.077236,-0.028578,68.98494,10.5215,-146.942154,,,
729601197.074425,-0.035552,-0.716551,-14.786945,0.012482,-0.006439,1.014435,0.02871,-0.077236,-0.028578,68.98494,10.5215,-146.942154,,,
729601197.077759,-0.028574,-0.736678,-14.793251,0.012482,-0.006439,1.014435,0.023454,-0.065217,-0.02311,68.98494,10.5215,-146.942154,,,
729601197.08109,-0.028574,-0.736678,-14.793251,0.012482,-0.006439,1.014435,0.023454,-0.065217,-0.02311,68.98494,10.5215,-146.942154,,,
729601197.08451,-0.022946,-0.756036,-14.799655,0.01593,-0.000595,1.010101,0.023454,-0.065217,-0.02311,68.98494,10.5215,-146.942154,,,
729601197.087745,-0.017519,-0.772747,-14.806111,0.01593,-0.000595,1.010101,0.017518,-0.052654,-0.023397,69.060135,10.648239,-147.254288,,,
729601197.0912,-0.017519,-0.772747,-14.806111,0.01593,-0.000595,1.010101,0.017518,-0.052654,-0.023397,69.060135,10.648239,-147.254288,,,
729601197.094415,-0.014577,-0.787552,-14.812713,0.015747,0.002853,1.002396,0.017518,-0.052654,-0.023397,69.060135,10.648239,-147.254288,,,
729601197.097764,-0.010626,-0.801172,-14.82,0.015747,0.002853,1.002396,0.013677,-0.043393,-0.028159,69.060135,10.648239,-147.254288,,,
729601197.101104,-0.010626,-0.801172,-14.82,0.015747,0.002853,1.002396,0.013677,-0.043393,-0.028159,69.060135,10.648239,-147.254288,,,
729601197.104444,-0.008931,-0.813279,-14.827617,0.012787,0.003677,0.999527,0.013677,-0.043393,-0.028159,69.060135,10.648239,-147.254288,,,
729601197.107888,-0.004462,-0.826206,-14.835657,0.012787,0.003677,0.999527,0.017401,-0.043437,-0.03115,69.060135,10.648239,-147.254288,,,
729601197.111105,-0.004462,-0.826206,-14.835657,0.012787,0.003677,0.999527,0.017401,-0.043437,-0.03115,69.060135,10.648239,-147.254288,,,
729601197.114446,-0.000426,-0.839225,-14.844476,0.014069,-0.000259,0.998138,0.017401,-0.043437,-0.03115,69.060135,10.648239,-147.254288,,,
729601197.117757,0.006944,-0.855321,-14.85386,0.014069,-0.000259,0.998138,0.026285,-0.055486,-0.035123,69.060135,10.648239,-147.254288,,,
729601197.121084,0.006944,-0.855321,-14.85386,0.014069,-0.000259,0.998138,0.026285,-0.055486,-0.035123,69.060135,10.648239,-147.254288,,,
729601197.124522,0.013729,-0.872016,-14.864017,0.018082,-0.003189,0.999115,0.026285,-0.055486,-0.035123,69.060135,10.648239,-147.254288,,,
729601197.127757,0.022854,-0.891173,-14.875644,0.018082,-0.003189,0.999115,0.033947,-0.066101,-0.045466,68.87674,10.394409,-147.295609,,,
729601197.13109,0.022854,-0.891173,-14.875644,0.018082,-0.003189,0.999115,0.033947,-0.066101,-0.045466,68.87674,10.394409,-147.295609,,,
729601197.134515,0.031819,-0.911397,-14.888892,0.018311,-0.003143,0.993103,0.033947,-0.066101,-0.045466,68.87674,10.394409,-147.295609,,,
729601197.137737,0.043393,-0.934337,-14.903409,0.018311,-0.003143,0.993103,0.042713,-0.081929,-0.054463,68.87674,10.394409,-147.295609,,,
729601197.141083,0.043393,-0.934337,-14.903409,0.018311,-0.003143,0.993103,0.042713,-0.081929,-0.054463,68.87674,10.394409,-147.295609,,,
729601197.14443,0.054796,-0.958353,-14.91923,0.019348,-0.002472,0.995819,0.042713,-0.081929,-0.054463,68.87674,10.394409,-147.295609,,,
729601197.147746,0.067937,-0.983212,-14.936419,0.019348,-0.002472,0.995819,0.04316,-0.0822,-0.064039,68.87674,10.394409,-147.295609,,,
729601197.151108,0.067937,-0.983212,-14.936419,0.019348,-0.002472,0.995819,0.04316,-0.0822,-0.064039,68.87674,10.394409,-147.295609,,,
729601197.154409,0.078874,-1.005665,-14.953925,0.019104,-0.002151,0.996399,0.04316,-0.0822,-0.064039,68.87674,10.394409,-147.295609,,,
729601197.157901,0.090387,-1.02625,-14.971171,0.019104,-0.002151,0.996399,0.03748,-0.063094,-0.062093,68.87674,10.394409,-147.295609,,,
729601197.161164,0.090387,-1.02625,-14.971171,0.019104,-0.002151,0.996399,0.03748,-0.063094,-0.062093,68.87674,10.394409,-147.295609,,,
729601197.164451,0.099964,-1.04314,-14.988316,0.015457,-0.003571,0.994446,0.03748,-0.063094,-0.062093,68.87674,10.394409,-147.295609,,,
729601197.167788,0.107316,-1.057453,-15.004404,0.015457,-0.003571,0.994446,0.021689,-0.041105,-0.054544,68.742157,10.444199,-147.259735,,,
729601197.171082,0.107316,-1.057453,-15.004404,0.015457,-0.003571,0.994446,0.021689,-0.041105,-0.054544,68.742157,10.444199,-147.259735,,,
729601197.174419,0.112886,-1.068385,-15.018554,0.007919,-0.005493,0.992218,0.021689,-0.041105,-0.054544,68.742157,10.444199,-147.259735,,,
729601197.177751,0.115831,-1.079599,-15.031461,0.007919,-0.005493,0.992218,0.006482,-0.035094,-0.045634,68.742157,10.444199,-147.259735,,,
729601197.1811,0.115831,-1.079599,-15.031461,0.007919,-0.005493,0.992218,0.006482,-0.035094,-0.045634,68.742157,10.444199,-147.259735,,,
729601197.184504,0.117071,-1.088606,-15.044301,0.003525,-0.002716,0.990021,0.006482,-0.035094,-0.045634,68.742157,10.444199,-147.259735,,,
729601197.187738,0.11709,-1.099471,-15.056725,0.003525,-0.002716,0.990021,-0.000441,-0.034401,-0.04267,68.742157,10.444199,-147.259735,,,
729601197.191169,0.11709,-1.099471,-15.056725,0.003525,-0.002716,0.990021,-0.000441,-0.034401,-0.04267,68.742157,10.444199,-147.259735,,,
729601197.194417,0.116054,-1.109624,-15.06797,0.001724,-0.004517,0.990692,-0.000441,-0.034401,-0.04267,68.742157,10.444199,-147.259735,,,
729601197.197756,0.116629,-1.122034,-15.078291,0.001724,-0.004517,0.990692,0.004071,-0.042176,-0.036311,68.742157,10.444199,-147.259735,,,
729601197.2011,0.116629,-1.122034,-15.078291,0.001724,-0.004517,0.990692,0.004071,-0.042176,-0.036311,68.742157,10.444199,-147.259735,,,
729601197.204438,0.117017,-1.136247,-15.088066,0.003128,-0.007645,0.999252,0.004071,-0.042176,-0.036311,68.742157,10.444199,-147.259735,,,
729601197.207746,0.11996,-1.153795,-15.097097,0.003128,-0.007645,0.999252,0.011986,-0.063704,-0.031305,68.742157,10.444199,-147.259735,,,
729601197.21114,0.11996,-1.153795,-15.097097,0.003128,-0.007645,0.999252,0.011986,-0.063704,-0.031305,68.598953,10.2108,-147.318726,,,
729601197.214418,0.122605,-1.173077,-15.1058,0.008713,-0.009537,0.996033,0.011986,-0.063704,-0.031305,68.598953,10.2108,-147.318726,,,
729601197.217747,0.127166,-1.194037,-15.115031,0.008713,-0.009537,0.996033,0.018095,-0.072673,-0.035138,68.598953,10.2108,-147.318726,,,
729601197.221077,0.127166,-1.194037,-15.115031,0.008713,-0.009537,0.996033,0.018095,-0.072673,-0.035138,68.598953,10.2108,-147.318726,,,
729601197.224495,0.132166,-1.21564,-15.12512,0.016998,-0.006989,1.003418,0.018095,-0.072673,-0.035138,68.598953,10.2108,-147.318726,,,
729601197.227785,0.140794,-1.238647,-15.135971,0.016998,-0.006989,1.003418,0.034463,-0.079177,-0.040791,68.598953,10.2108,-147.318726,,,
729601197.231112,0.140794,-1.238647,-15.135971,0.016998,-0.006989,1.003418,0.034463,-0.079177,-0.040791,68.598953,10.2108,-147.318726,,,
729601197.234519,0.150155,-1.260526,-15.147823,0.027145,-0.003036,1.007126,0.034463,-0.079177,-0.040791,68.598953,10.2108,-147.318726,,,
729601197.237744,0.162342,-1.28165,-15.16021,0.027145,-0.003036,1.007126,0.045493,-0.067467,-0.044784,68.598953,10.2108,-147.318726,,,
729601197.241087,0.162342,-1.28165,-15.16021,0.027145,-0.003036,1.007126,0.045493,-0.067467,-0.044784,68.598953,10.2108,-147.318726,,,
729601197.244428,0.174327,-1.298191,-15.172241,0.029968,-0.002151,1.009323,0.045493,-0.067467,-0.044784,68.598953,10.2108,-147.318726,,,
729601197.247745,0.189226,-1.315337,-15.183809,0.029968,-0.002151,1.009323,0.05427,-0.052881,-0.041816,68.598953,10.2108,-147.318726,,,
729601197.251078,0.189226,-1.315337,-15.183809,0.029968,-0.002151,1.009323,0.05427,-0.052881,-0.041816,68.43605,10.333862,-147.062027,,,
729601197.254457,0.20333,-1.326346,-15.194229,0.033173,9.2e-05,1.009918,0.05427,-0.052881,-0.041816,68.43605,10.333862,-147.062027,,,
729601197.257853,0.219284,-1.342025,-15.204379,0.033173,9.2e-05,1.009918,0.052563,-0.048946,-0.040012,68.43605,10.333862,-147.062027,,,
729601197.261078,0.219284,-1.342025,-15.204379,0.033173,9.2e-05,1.009918,0.052563,-0.048946,-0.040012,68.43605,10.333862,-147.062027,,,
729601197.264462,0.233041,-1.351172,-15.214577,0.0345,0.008118,0.999649,0.052563,-0.048946,-0.040012,68.43605,10.333862,-147.062027,,,
729601197.267762,0.247373,-1.365744,-15.22411,0.0345,0.008118,0.999649,0.046914,-0.04671,-0.035414,68.43605,10.333862,-147.062027,,,
729601197.271122,0.247373,-1.365744,-15.22411,0.0345,0.008118,0.999649,0.046914,-0.04671,-0.035414,68.43605,10.333862,-147.062027,,,
729601197.274425,0.257442,-1.373647,-15.233113,0.029266,0.012955,0.989624,0.046914,-0.04671,-0.035414,68.43605,10.333862,-147.062027,,,
729601197.277768,0.268072,-1.389044,-15.241555,0.029266,0.012955,0.989624,0.032414,-0.051342,-0.03138,68.43605,10.333862,-147.062027,,,
729601197.281087,0.268072,-1.389044,-15.241555,0.029266,0.012955,0.989624,0.032414,-0.051342,-0.03138,68.43605,10.333862,-147.062027,,,
729601197.284498,0.273708,-1.399227,-15.24999,0.02771,0.015366,0.984299,0.032414,-0.051342,-0.03138,68.43605,10.333862,-147.062027,,,
729601197.287826,0.282815,-1.416029,-15.25904,0.02771,0.015366,0.984299,0.031669,-0.057527,-0.035837,68.43605,10.333862,-147.062027,,,
729601197.291178,0.282815,-1.416029,-15.25904,0.02771,0.015366,0.984299,0.031669,-0.057527,-0.035837,68.148788,10.332565,-147.345505,,,
729601197.29442,0.28866,-1.429814,-15.268892,0.035675,0.021027,0.986313,0.031669,-0.057527,-0.035837,68.148788,10.332565,-147.345505,,,
729601197.297765,0.298903,-1.449082,-15.279981,0.035675,0.021027,0.986313,0.035854,-0.066666,-0.044658,68.148788,10.332565,-147.345505,,,
729601197.301119,0.298903,-1.449082,-15.279981,0.035675,0.021027,0.986313,0.035854,-0.066666,-0.044658,68.148788,10.332565,-147.345505,,,
729601197.304426,0.306348,-1.467989,-15.292475,0.039398,0.022736,0.989304,0.035854,-0.066666,-0.044658,68.148788,10.332565,-147.345505,,,
729601197.307854,0.31741,-1.488306,-15.305917,0.039398,0.022736,0.989304,0.040936,-0.066671,-0.051397,68.148788,10.332565,-147.345505,,,
729601197.311142,0.31741,-1.488306,-15.305917,0.039398,0.022736,0.989304,0.040936,-0.066671,-0.051397,68.148788,10.332565,-147.345505,,,
729601197.314413,0.326979,-1.509423,-15.319667,0.038757,0.020859,0.99324,0.040936,-0.066671,-0.051397,68.148788,10.332565,-147.345505,,,
729601197.317749,0.338152,-1.529507,-15.33297,0.038757,0.020859,0.99324,0.038104,-0.06666,-0.048244,68.148788,10.332565,-147.345505,,,
729601197.321077,0.338152,-1.529507,-15.33297,0.038757,0.020859,0.99324,0.038104,-0.06666,-0.048244,68.148788,10.332565,-147.345505,,,
729601197.32451,0.347038,-1.549568,-15.345975,0.037399,0.022156,0.99025,0.038104,-0.06666,-0.048244,68.148788,10.332565,-147.345505,,,
729601197.327751,0.357602,-1.567452,-15.358226,0.037399,0.022156,0.99025,0.036209,-0.058695,-0.042895,68.148788,10.332565,-147.345505,,,
729601197.331115,0.357602,-1.567452,-15.358226,0.037399,0.022156,0.99025,0.036209,-0.058695,-0.042895,68.148788,10.332565,-147.345505,,,
729601197.334426,0.367386,-1.586488,-15.368577,0.030991,0.019638,0.988693,0.036209,-0.058695,-0.042895,68.130737,10.29129,-147.209488,,,
729601197.337754,0.37803,-1.601934,-15.376991,0.030991,0.019638,0.988693,0.035902,-0.047597,-0.029285,68.130737,10.29129,-147.209488,,,
729601197.341077,0.37803,-1.601934,-15.376991,0.030991,0.019638,0.988693,0.035902,-0.047597,-0.029285,68.130737,10.29129,-147.209488,,,
729601197.344425,0.389712,-1.617252,-15.383699,0.024841,0.017807,0.991592,0.035902,-0.047597,-0.029285,68.130737,10.29129,-147.209488,,,
729601197.347751,0.400149,-1.629644,-15.389825,0.024841,0.017807,0.991592,0.035041,-0.037997,-0.025107,68.130737,10.29129,-147.209488,,,
729601197.351143,0.400149,-1.629644,-15.389825,0.024841,0.017807,0.991592,0.035041,-0.037997,-0.025107,68.130737,10.29129,-147.209488,,,
729601197.354417,0.412068,-1.641326,-15.39638,0.025696,0.020676,0.988571,0.035041,-0.037997,-0.025107,68.130737,10.29129,-147.209488,,,
729601197.35783,0.421736,-1.653132,-15.403003,0.025696,0.020676,0.988571,0.031024,-0.038131,-0.025451,68.130737,10.29129,-147.209488,,,
729601197.361093,0.421736,-1.653132,-15.403003,0.025696,0.020676,0.988571,0.031024,-0.038131,-0.025451,68.130737,10.29129,-147.209488,,,
729601197.364515,0.432368,-1.665745,-15.409581,0.023651,0.020782,0.984207,0.031024,-0.038131,-0.025451,68.130737,10.29129,-147.209488,,,
729601197.36775,0.438941,-1.679496,-15.415692,0.023651,0.020782,0.984207,0.020055,-0.048119,-0.021838,68.130737,10.29129,-147.209488,,,
729601197.37109,0.438941,-1.679496,-15.415692,0.023651,0.020782,0.984207,0.020055,-0.048119,-0.021838,68.130737,10.29129,-147.209488,,,
729601197.374439,0.447986,-1.697683,-15.421154,0.017334,0.019012,0.97879,0.020055,-0.048119,-0.021838,68.073334,10.178543,-147.140137,,,
729601197.377744,0.451365,-1.714294,-15.426141,0.017334,0.019012,0.97879,0.006578,-0.05739,-0.017981,68.073334,10.178543,-147.140137,,,
729601197.381097,0.451365,-1.714294,-15.426141,0.017334,0.019012,0.97879,0.006578,-0.05739,-0.017981,68.073334,10.178543,-147.140137,,,
729601197.384427,0.456318,-1.735068,-15.431078,0.01358,0.011993,0.980865,0.006578,-0.05739,-0.017981,68.073334,10.178543,-147.140137,,,
729601197.387754,0.457153,-1.753901,-15.436766,0.01358,0.011993,0.980865,0.002625,-0.065531,-0.02285,68.073334,10.178543,-147.140137,,,
729601197.391193,0.457153,-1.753901,-15.436766,0.01358,0.011993,0.980865,0.002625,-0.065531,-0.02285,68.073334,10.178543,-147.140137,,,
729601197.394496,0.462046,-1.776949,-15.443193,0.021011,0.006821,0.988831,0.002625,-0.065531,-0.02285,68.073334,10.178543,-147.140137,,,
729601197.397491,0.465313,-1.798669,-15.45014,0.021011,0.006821,0.988831,0.014351,-0.074553,-0.026669,68.073334,10.178543,-147.140137,,,
729601197.40121,0.465313,-1.798669,-15.45014,0.021011,0.006821,0.988831,0.014351,-0.074553,-0.026669,68.073334,10.178543,-147.140137,,,
729601197.404413,0.474211,-1.822247,-15.457242,0.023071,0.002197,0.997421,0.014351,-0.074553,-0.026669,68.073334,10.178543,-147.140137,,,
729601197.407764,0.481656,-1.843075,-15.463703,0.023071,0.002197,0.997421,0.028919,-0.066114,-0.022619,68.073334,10.178543,-147.140137,,,
729601197.411087,0.481656,-1.843075,-15.463703,0.023071,0.002197,0.997421,0.028919,-0.066114,-0.022619,68.073334,10.178543,-147.140137,,,
729601197.414494,0.493487,-1.860444,-15.468651,0.018402,0.00032,1.00499,0.028919,-0.066114,-0.022619,68.155365,10.116669,-147.013947,,,
729601197.417744,0.503938,-1.877439,-15.471689,0.018402,0.00032,1.00499,0.037739,-0.054038,-0.009665,68.155365,10.116669,-147.013947,,,
729601197.42108,0.503938,-1.877439,-15.471689,0.018402,0.00032,1.00499,0.037739,-0.054038,-0.009665,68.155365,10.116669,-147.013947,,,
729601197.424483,0.51716,-1.890479,-15.472861,0.020477,0.003525,1.002167,0.037739,-0.054038,-0.009665,68.155365,10.116669,-147.013947,,,
729601197.427799,0.527512,-1.90315,-15.472179,0.020477,0.003525,1.002167,0.036896,-0.034519,0.003121,68.155365,10.116669,-147.013947,,,
729601197.431139,0.527512,-1.90315,-15.472179,0.020477,0.003525,1.002167,0.036896,-0.034519,0.003121,68.155365,10.116669,-147.013947,,,
729601197.434428,0.540704,-1.910626,-15.470173,0.02504,0.007538,0.997498,0.036896,-0.034519,0.003121,68.155365,10.116669,-147.013947,,,
729601197.43776,0.550234,-1.918184,-15.467953,0.02504,0.007538,0.997498,0.033653,-0.019513,0.004477,68.155365,10.116669,-147.013947,,,
729601197.441088,0.550234,-1.918184,-15.467953,0.02504,0.007538,0.997498,0.033653,-0.019513,0.004477,68.155365,10.116669,-147.013947,,,
729601197.444418,0.562575,-1.920349,-15.465817,0.029037,0.010666,0.999298,0.033653,-0.019513,0.004477,68.155365,10.116669,-147.013947,,,
729601197.447756,0.571647,-1.926298,-15.464242,0.029037,0.010666,0.999298,0.031293,-0.021956,0.000424,68.155365,10.116669,-147.013947,,,
729601197.451189,0.571647,-1.926298,-15.464242,0.029037,0.010666,0.999298,0.031293,-0.021956,0.000424,68.155365,10.116669,-147.013947,,,
729601197.454406,0.582284,-1.929908,-15.463654,0.030075,0.00885,0.993912,0.031293,-0.021956,0.000424,68.107498,9.754578,-147.625275,,,
729601197.457836,0.590615,-1.941464,-15.463652,0.030075,0.00885,0.993912,0.028483,-0.041558,-0.00392,68.107498,9.754578,-147.625275,,,
729601197.461096,0.590615,-1.941464,-15.463652,0.030075,0.00885,0.993912,0.028483,-0.041558,-0.00392,68.107498,9.754578,-147.625275,,,
729601197.464489,0.597591,-1.950027,-15.464378,0.028961,0.009933,0.985764,0.028483,-0.041558,-0.00392,68.107498,9.754578,-147.625275,,,
729601197.467744,0.60306,-1.965753,-15.465537,0.028961,0.009933,0.985764,0.01687,-0.054128,-0.006924,68.107498,9.754578,-147.625275,,,
729601197.471082,0.60306,-1.965753,-15.465537,0.028961,0.009933,0.985764,0.01687,-0.054128,-0.006924,68.107498,9.754578,-147.625275,,,
729601197.474436,0.604915,-1.979708,-15.466761,0.023605,0.009277,0.982544,0.01687,-0.054128,-0.006924,68.107498,9.754578,-147.625275,,,
729601197.477751,0.606681,-1.998027,-15.467758,0.023605,0.009277,0.982544,0.005347,-0.062327,-0.005171,68.107498,9.754578,-147.625275,,,
729601197.481089,0.606681,-1.998027,-15.467758,0.023605,0.009277,0.982544,0.005347,-0.062327,-0.005171,68.107498,9.754578,-147.625275,,,
729601197.484421,0.605286,-2.013121,-15.468353,0.024933,0.007721,0.980057,0.005347,-0.062327,-0.005171,68.107498,9.754578,-147.625275,,,
729601197.487753,0.60683,-2.031588,-15.468708,0.024933,0.007721,0.980057,0.008713,-0.058593,-0.003914,68.107498,9.754578,-147.625275,,,
729601197.491079,0.60683,-2.031588,-15.468708,0.024933,0.007721,0.980057,0.008713,-0.058593,-0.003914,68.107498,9.754578,-147.625275,,,
729601197.494446,0.607088,-2.04314,-15.46955,0.032516,0.008163,0.988647,0.008713,-0.058593,-0.003914,68.107498,9.754578,-147.625275,,,
729601197.497747,0.610749,-2.057636,-15.470074,0.032516,0.008163,0.988647,0.014967,-0.044618,-0.002372,67.763458,10.093033,-147.611282,,,
729601197.501135,0.610749,-2.057636,-15.470074,0.032516,0.008163,0.988647,0.014967,-0.044618,-0.002372,67.763458,10.093033,-147.611282,,,
729601197.504417,0.614209,-2.066044,-15.469743,0.038803,0.007675,0.993362,0.014967,-0.044618,-0.002372,67.763458,10.093033,-147.611282,,,
729601197.507749,0.619676,-2.076298,-15.468265,0.038803,0.007675,0.993362,0.020409,-0.029507,0.005079,67.763458,10.093033,-147.611282,,,
729601197.511101,0.619676,-2.076298,-15.468265,0.038803,0.007675,0.993362,0.020409,-0.029507,0.005079,67.763458,10.093033,-147.611282,,,
729601197.514486,0.625299,-2.082282,-15.46544,0.036987,0.00087,0.992416,0.020409,-0.029507,0.005079,67.763458,10.093033,-147.611282,,,
729601197.517737,0.632251,-2.089529,-15.460953,0.036987,0.00087,0.992416,0.027203,-0.020549,0.016173,67.763458,10.093033,-147.611282,,,
729601197.521089,0.632251,-2.089529,-15.460953,0.036987,0.00087,0.992416,0.027203,-0.020549,0.016173,67.763458,10.093033,-147.611282,,,
729601197.524438,0.639817,-2.094143,-15.455516,0.034042,-0.003082,0.995758,0.027203,-0.020549,0.016173,67.763458,10.093033,-147.611282,,,
729601197.527752,0.648692,-2.101248,-15.450018,0.034042,-0.003082,0.995758,0.034578,-0.022905,0.016194,67.763458,10.093033,-147.611282,,,
729601197.531102,0.648692,-2.101248,-15.450018,0.034042,-0.003082,0.995758,0.034578,-0.022905,0.016194,67.763458,10.093033,-147.611282,,,
729601197.534423,0.657886,-2.106974,-15.444794,0.038452,-0.004684,0.993103,0.034578,-0.022905,0.016194,67.763458,10.093033,-147.611282,,,
729601197.537758,0.667233,-2.113612,-15.439903,0.038452,-0.004684,0.993103,0.032119,-0.016906,0.013782,67.717667,9.856918,-147.328384,,,
729601197.541082,0.667233,-2.113612,-15.439903,0.038452,-0.004684,0.993103,0.032119,-0.016906,0.013782,67.717667,9.856918,-147.328384,,,
729601197.544419,0.675772,-2.115619,-15.435375,0.034576,-0.005478,0.98941,0.032119,-0.016906,0.013782,67.717667,9.856918,-147.328384,,,
729601197.547789,0.684681,-2.119825,-15.43155,0.034576,-0.005478,0.98941,0.031587,-0.011124,0.008636,67.717667,9.856918,-147.328384,,,
729601197.551152,0.684681,-2.119825,-15.43155,0.034576,-0.005478,0.98941,0.031587,-0.011124,0.008636,67.717667,9.856918,-147.328384,,,
729601197.554426,0.692502,-2.120194,-15.428604,0.03653,-0.002518,0.987076,0.031587,-0.011124,0.008636,67.717667,9.856918,-147.328384,,,
729601197.557796,0.700781,-2.126774,-15.42632,0.03653,-0.002518,0.987076,0.029295,-0.024838,0.00376,67.717667,9.856918,-147.328384,,,
729601197.561103,0.700781,-2.126774,-15.42632,0.03653,-0.002518,0.987076,0.029295,-0.024838,0.00376,67.717667,9.856918,-147.328384,,,
729601197.564416,0.706853,-2.132895,-15.425127,0.040527,0.005051,0.980423,0.029295,-0.024838,0.00376,67.717667,9.856918,-147.328384,,,
729601197.567768,0.713583,-2.142444,-15.424679,0.040527,0.005051,0.980423,0.024594,-0.030966,-0.001468,67.717667,9.856918,-147.328384,,,
729601197.571082,0.713583,-2.142444,-15.424679,0.040527,0.005051,0.980423,0.024594,-0.030966,-0.001468,67.717667,9.856918,-147.328384,,,
729601197.574414,0.71906,-2.151214,-15.424354,0.042587,0.006943,0.985748,0.024594,-0.030966,-0.001468,67.717667,9.856918,-147.328384,,,
729601197.577749,0.724434,-2.16028,-15.424763,0.042587,0.006943,0.985748,0.017257,-0.027822,-0.006382,67.689178,9.729141,-147.006058,,,
729601197.581107,0.724434,-2.16028,-15.424763,0.042587,0.006943,0.985748,0.017257,-0.027822,-0.006382,67.689178,9.729141,-147.006058,,,
729601197.58443,0.728295,-2.169876,-15.426381,0.047943,0.007477,0.993469,0.017257,-0.027822,-0.006382,67.689178,9.729141,-147.006058,,,
729601197.587747,0.734797,-2.17746,-15.429181,0.047943,0.007477,0.993469,0.024307,-0.020892,-0.014746,67.689178,9.729141,-147.006058,,,
729601197.591092,0.734797,-2.17746,-15.429181,0.047943,0.007477,0.993469,0.024307,-0.020892,-0.014746,67.689178,9.729141,-147.006058,,,
729601197.594417,0.739788,-2.181945,-15.4336,0.060394,0.008316,1.004089,0.024307,-0.020892,-0.014746,67.689178,9.729141,-147.006058,,,
729601197.597745,0.7507,-2.184828,-15.439338,0.060394,0.008316,1.004089,0.040547,-0.001964,-0.024686,67.689178,9.729141,-147.006058,,,
729601197.601144,0.7507,-2.184828,-15.439338,0.060394,0.008316,1.004089,0.040547,-0.001964,-0.024686,67.689178,9.729141,-147.006058,,,
729601197.604412,0.758579,-2.184381,-15.446913,0.068817,0.009094,1.011993,0.040547,-0.001964,-0.024686,67.689178,9.729141,-147.006058,,,
729601197.6078,0.771927,-2.182461,-15.455915,0.068817,0.009094,1.011993,0.04713,0.013998,-0.034952,67.689178,9.729141,-147.006058,,,
729601197.611155,0.771927,-2.182461,-15.455915,0.068817,0.009094,1.011993,0.04713,0.013998,-0.034952,67.689178,9.729141,-147.006058,,,
729601197.614453,0.781428,-2.177969,-15.465542,0.069809,0.012207,1.009415,0.04713,0.013998,-0.034952,67.689178,9.729141,-147.006058,,,
729601197.617762,0.797074,-2.170743,-15.476429,0.069809,0.012207,1.009415,0.056753,0.031831,-0.044144,67.644638,9.697327,-147.437927,,,
729601197.621081,0.797074,-2.170743,-15.476429,0.069809,0.012207,1.009415,0.056753,0.031831,-0.044144,67.644638,9.697327,-147.437927,,,
729601197.624443,0.809795,-2.161214,-15.488722,0.070129,0.017075,1.011612,0.056753,0.031831,-0.044144,67.644638,9.697327,-147.437927,,,
729601197.627769,0.809795,-2.153137,-15.50276,0.070129,0.017075,1.011612,0.071306,0.029336,-0.057017,67.644638,9.697327,-147.437927,,,
729601197.631072,0.829455,-2.153137,-15.50276,0.070129,0.017075,1.011612,0.071306,0.029336,-0.057017,67.644638,9.697327,-147.437927,,,
729601197.634413,0.847421,-2.145937,-15.518597,0.068359,0.021454,1.012344,0.071306,0.029336,-0.057017,67.644638,9.697327,-147.437927,,,
729601197.637739,0.847421,-2.145937,-15.535221,0.068359,0.021454,1.012344,0.079933,0.024613,-0.062774,67.644638,9.697327,-147.437927,,,
729601197.641091,0.870039,-2.139066,-15.535221,0.068359,0.021454,1.012344,0.079933,0.024613,-0.062774,67.644638,9.697327,-147.437927,,,
729601197.644423,0.891917,-2.13416,-15.552035,0.055878,0.021378,1.005707,0.079933,0.024613,-0.062774,67.644638,9.697327,-147.437927,,,
729601197.64777,0.891917,-2.128903,-15.568614,0.055878,0.021378,1.005707,0.08331,0.017361,-0.061057,67.644638,9.697327,-147.437927,,,
729601197.651128,0.916317,-2.128903,-15.568614,0.055878,0.021378,1.005707,0.08331,0.017361,-0.061057,67.644638,9.697327,-147.437927,,,
729601197.65442,0.93826,-2.12796,-15.584601,0.044571,0.023529,1.003387,0.08331,0.017361,-0.061057,67.644638,9.697327,-147.437927,,,
729601197.657816,0.963122,-2.127448,-15.599559,0.044571,0.023529,1.003387,0.086243,2.2e-05,-0.053756,67.644638,9.697327,-147.437927,,,
729601197.66109,0.963122,-2.127448,-15.599559,0.044571,0.023529,1.003387,0.086243,2.2e-05,-0.053756,67.772766,9.392426,-147.285507,,,
729601197.664425,0.985846,-2.133017,-15.613694,0.038483,0.025909,0.995605,0.086243,2.2e-05,-0.053756,67.772766,9.392426,-147.285507,,,
729601197.66788,1.0103,-2.134116,-15.627108,0.038483,0.025909,0.995605,0.083608,-0.000965,-0.048115,67.772766,9.392426,-147.285507,,,
729601197.671073,1.0103,-2.134116,-15.627108,0.038483,0.025909,0.995605,0.083608,-0.000965,-0.048115,67.772766,9.392426,-147.285507,,,
729601197.67452,1.031659,-2.14156,-15.639454,0.032684,0.028091,0.991409,0.083608,-0.000965,-0.048115,67.772766,9.392426,-147.285507,,,
729601197.677827,1.031659,-2.139036,-15.65154,0.032684,0.028091,0.991409,0.083608,0.014245,-0.044966,67.772766,9.392426,-147.285507,,,
729601197.681091,1.053763,-2.139036,-15.65154,0.032684,0.028091,0.991409,0.072686,0.014245,-0.044966,67.772766,9.392426,-147.285507,,,
729601197.684425,1.071194,-2.14341,-15.662909,0.034485,0.034851,0.990219,0.072686,0.014245,-0.044966,67.772766,9.392426,-147.285507,,,
729601197.687836,1.071194,-2.14341,-15.662909,0.034485,0.034851,0.990219,0.072686,0.014245,-0.044966,67.772766,9.392426,-147.285507,,,
729601197.691085,1.087914,-2.137078,-15.674425,0.034485,0.034851,0.990219,0.053335,0.025319,-0.04404,67.772766,9.392426,-147.285507,,,
729601197.694456,1.100298,-2.139521,-15.686283,0.037857,0.037018,0.984344,0.053335,0.025319,-0.04404,67.772766,9.392426,-147.285507,,,
729601197.697797,1.100298,-2.139521,-15.686283,0.037857,0.037018,0.984344,0.053335,0.025319,-0.04404,67.772766,9.392426,-147.285507,,,
729601197.701175,1.110925,-2.13234,-15.698853,0.037857,0.037018,0.984344,0.031169,0.027807,-0.046891,67.953369,9.167999,-147.160736,,,
729601197.70442,1.119255,-2.134598,-15.711801,0.033112,0.035828,0.980042,0.031169,0.027807,-0.046891,67.953369,9.167999,-147.160736,,,
729601197.707796,1.119255,-2.134598,-15.711801,0.033112,0.035828,0.980042,0.031169,0.027807,-0.046891,67.953369,9.167999,-147.160736,,,
729601197.711077,1.126627,-2.128953,-15.725088,0.033112,0.035828,0.980042,0.022954,0.01714,-0.047737,67.953369,9.167999,-147.160736,,,
729601197.714416,1.134063,-2.134117,-15.737477,0.018417,0.028534,0.981812,0.022954,0.01714,-0.047737,67.953369,9.167999,-147.160736,,,
729601197.717746,1.134063,-2.134117,-15.737477,0.018417,0.028534,0.981812,0.022954,0.01714,-0.047737,67.953369,9.167999,-147.160736,,,
729601197.721095,1.14169,-2.134149,-15.748277,0.018417,0.028534,0.981812,0.028633,-0.0023,-0.035741,67.953369,9.167999,-147.160736,,,
729601197.72442,1.151004,-2.140861,-15.757024,0.004608,0.014648,0.983551,0.028633,-0.0023,-0.035741,67.953369,9.167999,-147.160736,,,
729601197.727825,1.151004,-2.140861,-15.757024,0.004608,0.014648,0.983551,0.028633,-0.0023,-0.035741,67.953369,9.167999,-147.160736,,,
729601197.731089,1.160187,-2.145837,-15.763974,0.004608,0.014648,0.983551,0.032693,-0.016997,-0.022848,67.953369,9.167999,-147.160736,,,
729601197.734421,1.170348,-2.152975,-15.769112,0.002365,0.013611,0.98671,0.032693,-0.016997,-0.022848,67.953369,9.167999,-147.160736,,,
729601197.737804,1.170348,-2.152975,-15.769112,0.002365,0.013611,0.98671,0.032693,-0.016997,-0.022848,67.953369,9.167999,-147.160736,,,
729601197.741117,1.179876,-2.158406,-15.772603,0.002365,0.013611,0.98671,0.034339,-0.013681,-0.011302,67.905273,9.37326,-147.753876,,,
729601197.744438,1.190815,-2.161934,-15.77433,0.006073,0.018509,0.988266,0.034339,-0.013681,-0.011302,67.905273,9.37326,-147.753876,,,
729601197.74789,1.190815,-2.161934,-15.77433,0.006073,0.018509,0.988266,0.034339,-0.013681,-0.011302,67.905273,9.37326,-147.753876,,,
729601197.751044,1.199642,-2.165708,-15.774853,0.006073,0.018509,0.988266,0.027593,-0.011349,-0.002737,67.905273,9.37326,-147.753876,,,
729601197.754427,1.208909,-2.168843,-15.77438,0.007706,0.021774,0.989273,0.027593,-0.011349,-0.002737,67.905273,9.37326,-147.753876,,,
729601197.75777,1.208909,-2.168843,-15.77438,0.007706,0.021774,0.989273,0.027593,-0.011349,-0.002737,67.905273,9.37326,-147.753876,,,
729601197.761147,1.215263,-2.17285,-15.772687,0.007706,0.021774,0.989273,0.019482,-0.009682,0.005897,67.905273,9.37326,-147.753876,,,
729601197.764418,1.222281,-2.175311,-15.769678,0.005615,0.019577,0.986603,0.019482,-0.009682,0.005897,67.905273,9.37326,-147.753876,,,
729601197.767772,1.222281,-2.175311,-15.769678,0.005615,0.019577,0.986603,0.019482,-0.009682,0.005897,67.905273,9.37326,-147.753876,,,
729601197.771088,1.223797,-2.177201,-15.765235,0.005615,0.019577,0.986603,0.002193,-0.002873,0.016473,67.905273,9.37326,-147.753876,,,
729601197.774462,1.227711,-2.178861,-15.759936,0.011292,0.015167,0.986923,0.002193,-0.002873,0.016473,67.905273,9.37326,-147.753876,,,
729601197.777757,1.227711,-2.178861,-15.759936,0.011292,0.015167,0.986923,0.002193,-0.002873,0.016473,67.905273,9.37326,-147.753876,,,
729601197.781183,1.227028,-2.180873,-15.754061,0.011292,0.015167,0.986923,-0.002051,-0.005281,0.020596,67.761963,9.104828,-147.33226,,,
729601197.784405,1.229582,-2.180812,-15.747482,0.022171,0.014374,0.987305,-0.002051,-0.005281,0.020596,67.761963,9.104828,-147.33226,,,
729601197.787871,1.229582,-2.180812,-15.747482,0.022171,0.014374,0.987305,-0.002051,-0.005281,0.020596,67.761963,9.104828,-147.33226,,,
729601197.791096,1.229275,-2.183383,-15.740893,0.022171,0.014374,0.987305,0.002182,-0.004964,0.020108,67.761963,9.104828,-147.33226,,,
729601197.794424,1.229162,-2.178153,-15.735277,0.032745,0.017166,0.989578,0.002182,-0.004964,0.020108,67.761963,9.104828,-147.33226,,,
729601197.797784,1.229162,-2.178153,-15.735277,0.032745,0.017166,0.989578,0.002182,-0.004964,0.020108,67.761963,9.104828,-147.33226,,,
729601197.80116,1.22766,-2.179192,-15.729982,0.032745,0.017166,0.989578,-0.005048,0.002948,0.017031,67.761963,9.104828,-147.33226,,,
729601197.804406,1.222975,-2.169079,-15.725009,0.042496,0.020584,0.988632,-0.005048,0.002948,0.017031,67.761963,9.104828,-147.33226,,,
729601197.807477,1.222975,-2.169079,-15.725009,0.042496,0.020584,0.988632,-0.005048,0.002948,0.017031,67.761963,9.104828,-147.33226,,,
729601197.811148,1.218809,-2.166148,-15.720737,0.042496,0.020584,0.988632,-0.014959,0.015264,0.011162,67.761963,9.104828,-147.33226,,,
729601197.8144,1.212186,-2.154498,-15.718171,0.052277,0.02179,0.988022,-0.014959,0.015264,0.011162,67.761963,9.104828,-147.33226,,,
729601197.817753,1.212186,-2.154498,-15.718171,0.052277,0.02179,0.988022,-0.014959,0.015264,0.011162,67.761963,9.104828,-147.33226,,,
729601197.821074,1.206281,-2.150779,-15.716091,0.052277,0.02179,0.988022,-0.018883,0.01634,0.006761,67.761963,9.104828,-147.33226,,,
729601197.824409,1.200126,-2.140212,-15.715792,0.061844,0.023788,0.985474,-0.018883,0.01634,0.006761,67.871185,9.272934,-147.443069,,,
729601197.827832,1.200126,-2.140212,-15.715792,0.061844,0.023788,0.985474,-0.018883,0.01634,0.006761,67.871185,9.272934,-147.443069,,,
729601197.83108,1.19411,-2.136818,-15.717807,0.061844,0.023788,0.985474,-0.018831,0.015167,-0.010346,67.871185,9.272934,-147.443069,,,
729601197.834418,1.189516,-2.126353,-15.721838,0.066315,0.022903,0.993301,-0.018831,0.015167,-0.010346,67.871185,9.272934,-147.443069,,,
729601197.837757,1.189516,-2.126353,-15.721838,0.066315,0.022903,0.993301,-0.018831,0.015167,-0.010346,67.871185,9.272934,-147.443069,,,
729601197.841162,1.186316,-2.123543,-15.72744,0.066315,0.022903,0.993301,-0.00897,0.011225,-0.022693,67.871185,9.272934,-147.443069,,,
729601197.8444,1.18403,-2.114435,-15.733612,0.061707,0.018967,0.997757,-0.00897,0.011225,-0.022693,67.871185,9.272934,-147.443069,,,
729601197.847756,1.18403,-2.114435,-15.733612,0.061707,0.018967,0.997757,-0.00897,0.011225,-0.022693,67.871185,9.272934,-147.443069,,,
729601197.851091,1.183182,-2.114425,-15.738697,0.061707,0.018967,0.997757,-0.003174,0.000628,-0.01643,67.871185,9.272934,-147.443069,,,
729601197.854412,1.180884,-2.109062,-15.742728,0.052567,0.012711,0.990494,-0.003174,0.000628,-0.01643,67.871185,9.272934,-147.443069,,,
729601197.857753,1.180884,-2.109062,-15.742728,0.052567,0.012711,0.990494,-0.003174,0.000628,-0.01643,67.871185,9.272934,-147.443069,,,
729601197.861085,1.179453,-2.107144,-15.746017,0.052567,0.012711,0.990494,-0.006176,0.010609,-0.011868,67.871185,9.272934,-147.443069,,,
729601197.864408,1.176874,-2.102215,-15.749704,0.051682,0.010025,0.992996,-0.006176,0.010609,-0.011868,67.829636,9.318542,-147.610779,,,
729601197.867841,1.176874,-2.102215,-15.749704,0.051682,0.010025,0.992996,-0.006176,0.010609,-0.011868,67.829636,9.318542,-147.610779,,,
729601197.871073,1.175328,-2.099481,-15.753841,0.051682,0.010025,0.992996,-0.006746,0.012916,-0.015322,67.829636,9.318542,-147.610779,,,
729601197.874407,1.172492,-2.095824,-15.758226,0.055511,0.015564,0.990402,-0.006746,0.012916,-0.015322,67.829636,9.318542,-147.610779,,,
729601197.877749,1.172492,-2.095824,-15.758226,0.055511,0.015564,0.990402,-0.006746,0.012916,-0.015322,67.829636,9.318542,-147.610779,,,
729601197.88113,1.169318,-2.090181,-15.76308,0.055511,0.015564,0.990402,-0.011126,0.025917,-0.018397,67.829636,9.318542,-147.610779,,,
729601197.8844,1.165751,-2.085223,-15.768408,0.053772,0.017883,0.990555,-0.011126,0.025917,-0.018397,67.829636,9.318542,-147.610779,,,
729601197.887741,1.165751,-2.085223,-15.768408,0.053772,0.017883,0.990555,-0.011126,0.025917,-0.018397,67.829636,9.318542,-147.610779,,,
729601197.891114,1.16056,-2.076704,-15.775093,0.053772,0.017883,0.990555,-0.021376,0.0339,-0.027193,67.829636,9.318542,-147.610779,,,
729601197.894405,1.155195,-2.073959,-15.782508,0.052094,0.019257,0.991852,-0.021376,0.0339,-0.027193,67.829636,9.318542,-147.610779,,,
729601197.897761,1.155195,-2.073959,-15.782508,0.052094,0.019257,0.991852,-0.021376,0.0339,-0.027193,67.829636,9.318542,-147.610779,,,
729601197.901093,1.148495,-2.065657,-15.790374,0.052094,0.019257,0.991852,-0.025909,0.030487,-0.029303,67.829636,9.318542,-147.610779,,,
729601197.904406,1.141576,-2.066083,-15.798748,0.049805,0.01738,0.986526,-0.025909,0.030487,-0.029303,67.900909,9.447266,-147.311157,,,
729601197.907791,1.141576,-2.066083,-15.798748,0.049805,0.01738,0.986526,-0.025909,0.030487,-0.029303,67.900909,9.447266,-147.311157,,,
729601197.911085,1.132515,-2.057699,-15.807864,0.049805,0.01738,0.986526,-0.033516,0.032477,-0.032982,67.900909,9.447266,-147.311157,,,
729601197.914406,1.123622,-2.057928,-15.817512,0.046661,0.014999,0.984238,-0.033516,0.032477,-0.032982,67.900909,9.447266,-147.311157,,,
729601197.917749,1.123622,-2.057928,-15.817512,0.046661,0.014999,0.984238,-0.033516,0.032477,-0.032982,67.900909,9.447266,-147.311157,,,
729601197.921128,1.11355,-2.049656,-15.82777,0.046661,0.014999,0.984238,-0.037107,0.032264,-0.035919,67.900909,9.447266,-147.311157,,,
729601197.924406,1.102326,-2.047136,-15.837881,0.04068,0.015274,0.9776,-0.037107,0.032264,-0.035919,67.900909,9.447266,-147.311157,,,
729601197.927752,1.102326,-2.047136,-15.837881,0.04068,0.015274,0.9776,-0.037107,0.032264,-0.035919,67.900909,9.447266,-147.311157,,,
729601197.931111,1.092792,-2.037305,-15.848042,0.04068,0.015274,0.9776,-0.030683,0.0369,-0.035581,67.900909,9.447266,-147.311157,,,
729601197.934418,1.083453,-2.031605,-15.858057,0.044144,0.018631,0.979324,-0.030683,0.0369,-0.035581,67.900909,9.447266,-147.311157,,,
729601197.937744,1.083453,-2.031605,-15.858057,0.044144,0.018631,0.979324,-0.030683,0.0369,-0.035581,67.900909,9.447266,-147.311157,,,
729601197.941092,1.077744,-2.02117,-15.867851,0.044144,0.018631,0.979324,-0.018486,0.038058,-0.033936,67.900909,9.447266,-147.311157,,,
729601197.944408,1.070437,-2.015386,-15.876535,0.036789,0.017975,0.983368,-0.018486,0.038058,-0.033936,67.900909,9.447266,-147.311157,,,
729601197.947839,1.070437,-2.015386,-15.876535,0.036789,0.017975,0.983368,-0.018486,0.038058,-0.033936,67.969879,9.519913,-147.417084,,,
729601197.951096,1.063535,-2.003567,-15.883323,0.036789,0.017975,0.983368,-0.026539,0.047462,-0.019774,67.969879,9.519913,-147.417084,,,
729601197.954414,1.054116,-1.994578,-15.887729,0.021423,0.013107,0.971725,-0.026539,0.047462,-0.019774,67.969879,9.519913,-147.417084,,,
729601197.957783,1.054116,-1.994578,-15.887729,0.021423,0.013107,0.971725,-0.026539,0.047462,-0.019774,67.969879,9.519913,-147.417084,,,
729601197.961158,1.041424,-1.978586,-15.890395,0.021423,0.013107,0.971725,-0.050567,0.061981,-0.006215,67.969879,9.519913,-147.417084,,,
729601197.964406,1.025418,-1.966824,-15.891184,0.011154,0.009583,0.968185,-0.050567,0.061981,-0.006215,67.969879,9.519913,-147.417084,,,
729601197.967766,1.025418,-1.966824,-15.891184,0.011154,0.009583,0.968185,-0.050567,0.061981,-0.006215,67.969879,9.519913,-147.417084,,,
729601197.971109,1.006302,-1.955131,-15.890786,0.011154,0.009583,0.968185,-0.07033,0.034672,0.003201,67.969879,9.519913,-147.417084,,,
729601197.974439,0.984328,-1.950333,-15.889946,0.009628,0.010513,0.960266,-0.07033,0.034672,0.003201,67.969879,9.519913,-147.417084,,,
729601197.977744,0.984328,-1.950333,-15.889946,0.009628,0.010513,0.960266,-0.07033,0.034672,0.003201,67.969879,9.519913,-147.417084,,,
729601197.981102,0.959332,-1.943368,-15.889435,0.009628,0.010513,0.960266,-0.089011,0.028096,0.001879,67.969879,9.519913,-147.417084,,,
729601197.984413,0.931731,-1.938918,-15.889496,0.0047,0.012848,0.967316,-0.089011,0.028096,0.001879,67.969879,9.519913,-147.417084,,,
729601197.987754,0.931731,-1.938918,-15.889496,0.0047,0.012848,0.967316,-0.089011,0.028096,0.001879,68.184204,9.546036,-147.616867,,,
729601197.991104,0.901079,-1.932213,-15.889375,0.0047,0.012848,0.967316,-0.110405,0.024991,0.004164,68.184204,9.546036,-147.616867,,,
729601197.994414,0.868829,-1.929541,-15.888334,0.00856,0.013412,0.976257,-0.110405,0.024991,0.004164,68.184204,9.546036,-147.616867,,,
729601197.997745,0.868829,-1.929541,-15.888334,0.00856,0.013412,0.976257,-0.110405,0.024991,0.004164,68.184204,9.546036,-147.616867,,,
729601198.001112,0.836574,-1.928292,-15.885643,0.00856,0.013412,0.976257,-0.111046,0.003533,0.01584,68.184204,9.546036,-147.616867,,,
729601198.004425,0.805132,-1.929561,-15.880797,0.010284,0.010239,0.978821,-0.111046,0.003533,0.01584,68.184204,9.546036,-147.616867,,,
729601198.007769,0.805132,-1.929561,-15.880797,0.010284,0.010239,0.978821,-0.111046,0.003533,0.01584,68.184204,9.546036,-147.616867,,,
729601198.011156,0.774528,-1.928703,-15.873608,0.010284,0.010239,0.978821,-0.102433,0.009291,0.03204,68.184204,9.546036,-147.616867,,,
729601198.014407,0.746841,-1.92803,-15.864502,0.013596,0.007507,0.997498,-0.102433,0.009291,0.03204,68.184204,9.546036,-147.616867,,,
729601198.017758,0.746841,-1.92803,-15.864502,0.013596,0.007507,0.997498,-0.102433,0.009291,0.03204,68.184204,9.546036,-147.616867,,,
729601198.021082,0.720831,-1.924887,-15.854706,0.013596,0.007507,0.997498,-0.085608,0.015268,0.036449,68.184204,9.546036,-147.616867,,,
729601198.024434,0.697757,-1.92136,-15.84504,0.024628,0.007416,1.006409,-0.085608,0.015268,0.036449,68.184204,9.546036,-147.616867,,,
729601198.027746,0.697757,-1.92136,-15.84504,0.024628,0.007416,1.006409,-0.085608,0.015268,0.036449,68.072083,9.894379,-147.314072,,,
729601198.031162,0.676358,-1.918179,-15.836262,0.024628,0.007416,1.006409,-0.06975,0.013655,0.029719,68.072083,9.894379,-147.314072,,,
729601198.034419,0.655719,-1.91173,-15.828579,0.034668,0.009903,1.007828,-0.06975,0.013655,0.029719,68.072083,9.894379,-147.314072,,,
729601198.037747,0.655719,-1.91173,-15.828579,0.034668,0.009903,1.007828,-0.06975,0.013655,0.029719,68.072083,9.894379,-147.314072,,,
729601198.041107,0.63469,-1.90767,-15.82246,0.034668,0.009903,1.007828,-0.073144,0.017788,0.018644,68.072083,9.894379,-147.314072,,,
729601198.044412,0.612313,-1.899637,-15.81794,0.03627,0.011337,0.999298,-0.073144,0.017788,0.018644,68.072083,9.894379,-147.314072,,,
729601198.047845,0.612313,-1.899637,-15.81794,0.03627,0.011337,0.999298,-0.073144,0.017788,0.018644,68.072083,9.894379,-147.314072,,,
729601198.051089,0.589056,-1.896659,-15.813738,0.03627,0.011337,0.999298,-0.080951,0.010102,0.016403,68.072083,9.894379,-147.314072,,,
729601198.054416,0.56504,-1.890624,-15.809264,0.031052,0.009476,0.996231,-0.080951,0.010102,0.016403,68.072083,9.894379,-147.314072,,,
729601198.057756,0.56504,-1.890624,-15.809264,0.031052,0.009476,0.996231,-0.080951,0.010102,0.016403,68.072083,9.894379,-147.314072,,,
729601198.061142,0.54015,-1.891474,-15.80491,0.031052,0.009476,0.996231,-0.085395,-0.004545,0.015408,68.072083,9.894379,-147.314072,,,
729601198.064399,0.515499,-1.888897,-15.800786,0.02739,0.010056,0.998642,-0.085395,-0.004545,0.015408,68.072083,9.894379,-147.314072,,,
729601198.067737,0.515499,-1.888897,-15.800786,0.02739,0.010056,0.998642,-0.085395,-0.004545,0.015408,68.227646,10.094727,-147.601135,,,
729601198.071074,0.489409,-1.892813,-15.796541,0.02739,0.010056,0.998642,-0.089838,-0.012704,0.016019,68.227646,10.094727,-147.601135,,,
729601198.074408,0.464347,-1.892386,-15.792594,0.030319,0.008347,1.005981,-0.089838,-0.012704,0.016019,68.227646,10.094727,-147.601135,,,
729601198.077758,0.464347,-1.892386,-15.792594,0.030319,0.008347,1.005981,-0.089838,-0.012704,0.016019,68.227646,10.094727,-147.601135,,,
729601198.081095,0.439689,-1.897426,-15.789311,0.030319,0.008347,1.005981,-0.081701,-0.014199,0.010908,68.227646,10.094727,-147.601135,,,
729601198.084409,0.417898,-1.895373,-15.787231,0.033264,0.003403,1.012985,-0.081701,-0.014199,0.010908,68.227646,10.094727,-147.601135,,,
729601198.08774,0.417898,-1.895373,-15.787231,0.033264,0.003403,1.012985,-0.081701,-0.014199,0.010908,68.227646,10.094727,-147.601135,,,
729601198.091096,0.39936,-1.898248,-15.786111,0.033264,0.003403,1.012985,-0.05671,-0.003438,0.003083,68.227646,10.094727,-147.601135,,,
729601198.094481,0.384803,-1.895248,-15.785937,0.03923,-0.000122,1.029556,-0.05671,-0.003438,0.003083,68.227646,10.094727,-147.601135,,,
729601198.097773,0.384803,-1.895248,-15.785937,0.03923,-0.000122,1.029556,-0.05671,-0.003438,0.003083,68.227646,10.094727,-147.601135,,,
729601198.101083,0.374329,-1.89566,-15.786319,0.03923,-0.000122,1.029556,-0.02995,0.003937,-0.001868,68.227646,10.094727,-147.601135,,,
729601198.104442,0.36782,-1.893262,-15.786836,0.041946,-0.001709,1.033585,-0.02995,0.003937,-0.001868,68.227646,10.094727,-147.601135,,,
729601198.107792,0.36782,-1.893262,-15.786836,0.041946,-0.001709,1.033585,-0.02995,0.003937,-0.001868,68.227646,10.094727,-147.601135,,,
729601198.111122,0.364552,-1.890041,-15.787127,0.041946,-0.001709,1.033585,-0.004612,0.018141,-0.001162,68.181274,10.181412,-147.414612,,,
729601198.114433,0.365552,-1.887065,-15.786707,0.037048,-0.003052,1.032394,-0.004612,0.018141,-0.001162,68.181274,10.181412,-147.414612,,,
729601198.117801,0.365552,-1.887065,-15.786707,0.037048,-0.003052,1.032394,-0.004612,0.018141,-0.001162,68.181274,10.181412,-147.414612,,,
729601198.121189,0.36785,-1.883988,-15.785002,0.037048,-0.003052,1.032394,0.01212,0.012411,0.007253,68.181274,10.181412,-147.414612,,,
729601198.124459,0.371711,-1.882346,-15.782068,0.031326,0.000107,1.024521,0.01212,0.012411,0.007253,68.181274,10.181412,-147.414612,,,
729601198.127793,0.371711,-1.882346,-15.782068,0.031326,0.000107,1.024521,0.01212,0.012411,0.007253,68.181274,10.181412,-147.414612,,,
729601198.131098,0.375054,-1.879721,-15.779622,0.031326,0.000107,1.024521,0.013455,0.013954,0.003919,68.181274,10.181412,-147.414612,,,
729601198.134436,0.378377,-1.87541,-15.778578,0.030396,0.001755,1.017105,0.013455,0.013954,0.003919,68.181274,10.181412,-147.414612,,,
729601198.137769,0.378377,-1.87541,-15.778578,0.030396,0.001755,1.017105,0.013455,0.013954,0.003919,68.181274,10.181412,-147.414612,,,
729601198.141089,0.379213,-1.87242,-15.779415,0.030396,0.001755,1.017105,0.001399,0.012803,-0.008787,68.181274,10.181412,-147.414612,,,
729601198.144413,0.379043,-1.868171,-15.782578,0.040115,0.007675,1.012375,0.001399,0.012803,-0.008787,68.181274,10.181412,-147.414612,,,
729601198.147796,0.379043,-1.868171,-15.782578,0.040115,0.007675,1.012375,0.001399,0.012803,-0.008787,68.181274,10.181412,-147.414612,,,
729601198.15107,0.376409,-1.864447,-15.787885,0.040115,0.007675,1.012375,-0.010262,0.019178,-0.023401,68.428284,9.935287,-147.272461,,,
729601198.154408,0.372784,-1.858858,-15.79465,0.040298,0.005096,1.009262,-0.010262,0.019178,-0.023401,68.428284,9.935287,-147.272461,,,
729601198.157763,0.372784,-1.858858,-15.79465,0.040298,0.005096,1.009262,-0.010262,0.019178,-0.023401,68.428284,9.935287,-147.272461,,,
729601198.16112,0.368396,-1.853206,-15.801756,0.040298,0.005096,1.009262,-0.015031,0.022294,-0.025689,68.428284,9.935287,-147.272461,,,
729601198.1644,0.363865,-1.848559,-15.808995,0.037155,-0.000168,1.01149,-0.015031,0.022294,-0.025689,68.428284,9.935287,-147.272461,,,
729601198.167739,0.363865,-1.848559,-15.808995,0.037155,-0.000168,1.01149,-0.015031,0.022294,-0.025689,68.428284,9.935287,-147.272461,,,
729601198.171074,0.361812,-1.843857,-15.816486,0.037155,-0.000168,1.01149,-0.00455,0.019672,-0.027797,68.428284,9.935287,-147.272461,,,
729601198.174406,0.360958,-1.840694,-15.824179,0.037308,-0.006943,1.013596,-0.00455,0.019672,-0.027797,68.428284,9.935287,-147.272461,,,
729601198.177748,0.360958,-1.840694,-15.824179,0.037308,-0.006943,1.013596,-0.00455,0.019672,-0.027797,68.428284,9.935287,-147.272461,,,
729601198.181072,0.36366,-1.836753,-15.83265,0.037308,-0.006943,1.013596,0.01246,0.01421,-0.033683,68.428284,9.935287,-147.272461,,,
729601198.184409,0.367446,-1.835721,-15.842748,0.041397,-0.005661,1.020386,0.01246,0.01421,-0.033683,68.428284,9.935287,-147.272461,,,
729601198.187742,0.367446,-1.835721,-15.842748,0.041397,-0.005661,1.020386,0.01246,0.01421,-0.033683,68.428284,9.935287,-147.272461,,,
729601198.191075,0.375837,-1.834956,-15.854425,0.041397,-0.005661,1.020386,0.03342,0.00257,-0.045334,68.379517,10.000137,-147.096176,,,
729601198.194409,0.385515,-1.83628,-15.866269,0.038696,-0.00325,1.014374,0.03342,0.00257,-0.045334,68.379517,10.000137,-147.096176,,,
729601198.197794,0.385515,-1.83628,-15.866269,0.038696,-0.00325,1.014374,0.03342,0.00257,-0.045334,68.379517,10.000137,-147.096176,,,
729601198.201091,0.397345,-1.838627,-15.877058,0.038696,-0.00325,1.014374,0.040063,-0.007062,-0.038197,68.379517,10.000137,-147.096176,,,
729601198.204412,0.407916,-1.840412,-15.886825,0.030502,-0.002655,1.009079,0.040063,-0.007062,-0.038197,68.379517,10.000137,-147.096176,,,
729601198.207755,0.407916,-1.840412,-15.886825,0.030502,-0.002655,1.009079,0.040063,-0.007062,-0.038197,68.379517,10.000137,-147.096176,,,
729601198.211139,0.419458,-1.840376,-15.894768,0.030502,-0.002655,1.009079,0.040106,0.008505,-0.025462,68.379517,10.000137,-147.096176,,,
729601198.214399,0.430844,-1.837864,-15.900652,0.03186,-0.004898,1.00647,0.040106,0.008505,-0.025462,68.379517,10.000137,-147.096176,,,
729601198.217757,0.430844,-1.837864,-15.900652,0.03186,-0.004898,1.00647,0.040106,0.008505,-0.025462,68.379517,10.000137,-147.096176,,,
729601198.221084,0.44279,-1.832832,-15.906154,0.03186,-0.004898,1.00647,0.041211,0.023711,-0.022795,68.379517,10.000137,-147.096176,,,
729601198.22445,0.455263,-1.826945,-15.911971,0.040649,-0.001694,1.004395,0.041211,0.023711,-0.022795,68.379517,10.000137,-147.096176,,,
729601198.227745,0.455263,-1.826945,-15.911971,0.040649,-0.001694,1.004395,0.041211,0.023711,-0.022795,68.379517,10.000137,-147.096176,,,
729601198.231075,0.468038,-1.817478,-15.917726,0.040649,-0.001694,1.004395,0.042268,0.038214,-0.022237,68.182037,10.104538,-147.789429,,,
729601198.234407,0.47916,-1.808672,-15.923698,0.044083,0.005356,0.999222,0.042268,0.038214,-0.022237,68.182037,10.104538,-147.789429,,,
729601198.237769,0.47916,-1.808672,-15.923698,0.044083,0.005356,0.999222,0.042268,0.038214,-0.022237,68.182037,10.104538,-147.789429,,,
729601198.241069,0.490339,-1.799506,-15.930288,0.044083,0.005356,0.999222,0.038011,0.030952,-0.026318,68.182037,10.104538,-147.789429,,,
729601198.244406,0.497923,-1.792468,-15.936258,0.04216,0.01181,0.989487,0.038011,0.030952,-0.026318,68.182037,10.104538,-147.789429,,,
729601198.247851,0.497923,-1.792468,-15.936258,0.04216,0.01181,0.989487,0.038011,0.030952,-0.026318,68.182037,10.104538,-147.789429,,,
729601198.251099,0.505126,-1.785166,-15.941891,0.04216,0.01181,0.989487,0.020371,0.026672,-0.023348,68.182037,10.104538,-147.789429,,,
729601198.254415,0.505467,-1.780514,-15.947537,0.037262,0.015594,0.978287,0.020371,0.026672,-0.023348,68.182037,10.104538,-147.789429,,,
729601198.257755,0.505467,-1.780514,-15.947537,0.037262,0.015594,0.978287,0.020371,0.026672,-0.023348,68.182037,10.104538,-147.789429,,,
729601198.261155,0.507392,-1.775086,-15.952982,0.037262,0.015594,0.978287,0.003471,0.018733,-0.021279,68.182037,10.104538,-147.789429,,,
729601198.264376,0.504613,-1.774243,-15.959254,0.037933,0.018814,0.971634,0.003471,0.018733,-0.021279,68.182037,10.104538,-147.789429,,,
729601198.267746,0.504613,-1.774243,-15.959254,0.037933,0.018814,0.971634,0.003471,0.018733,-0.021279,68.182037,10.104538,-147.789429,,,
729601198.271084,0.504689,-1.771853,-15.966522,0.037933,0.018814,0.971634,-0.00081,0.009014,-0.027934,68.182037,10.104538,-147.789429,,,
729601198.274414,0.50129,-1.772043,-15.973739,0.037537,0.023636,0.974731,-0.00081,0.009014,-0.027934,68.122086,9.928406,-147.239502,,,
729601198.27774,0.50129,-1.772043,-15.973739,0.037537,0.023636,0.974731,-0.00081,0.009014,-0.027934,68.122086,9.928406,-147.239502,,,
729601198.281103,0.49948,-1.772157,-15.980267,0.037537,0.023636,0.974731,-0.0094,0.000973,-0.022806,68.122086,9.928406,-147.239502,,,
729601198.284415,0.492344,-1.771566,-15.985851,0.03476,0.02301,0.971191,-0.0094,0.000973,-0.022806,68.122086,9.928406,-147.239502,,,
729601198.287743,0.492344,-1.771566,-15.985851,0.03476,0.02301,0.971191,-0.0094,0.000973,-0.022806,68.122086,9.928406,-147.239502,,,
729601198.291094,0.486023,-1.769829,-15.990382,0.03476,0.02301,0.971191,-0.026379,0.012313,-0.015019,68.122086,9.928406,-147.239502,,,
729601198.294404,0.474255,-1.767716,-15.993621,0.028702,0.020325,0.965256,-0.026379,0.012313,-0.015019,68.122086,9.928406,-147.239502,,,
729601198.297817,0.474255,-1.767716,-15.993621,0.028702,0.020325,0.965256,-0.026379,0.012313,-0.015019,68.122086,9.928406,-147.239502,,,
729601198.301078,0.463401,-1.764078,-15.996034,0.028702,0.020325,0.965256,-0.04179,0.013761,-0.008703,68.122086,9.928406,-147.239502,,,
729601198.304408,0.44683,-1.764639,-15.99838,0.027664,0.019638,0.966217,-0.04179,0.013761,-0.008703,68.122086,9.928406,-147.239502,,,
729601198.307864,0.44683,-1.764639,-15.99838,0.027664,0.019638,0.966217,-0.04179,0.013761,-0.008703,68.122086,9.928406,-147.239502,,,
729601198.31113,0.429143,-1.76184,-16.001286,0.027664,0.019638,0.966217,-0.063016,0.013528,-0.011712,68.122086,9.928406,-147.239502,,,
729601198.314402,0.41074,-1.762638,-16.00542,0.027573,0.018784,0.966263,-0.063016,0.013528,-0.011712,68.120392,10.12291,-147.466003,,,
729601198.317757,0.41074,-1.762638,-16.00542,0.027573,0.018784,0.966263,-0.063016,0.013528,-0.011712,68.120392,10.12291,-147.466003,,,
729601198.321099,0.39127,-1.758929,-16.010702,0.027573,0.018784,0.966263,-0.069991,0.016309,-0.019235,68.120392,10.12291,-147.466003,,,
729601198.324406,0.372857,-1.758633,-16.016783,0.022522,0.014359,0.980453,-0.069991,0.016309,-0.019235,68.120392,10.12291,-147.466003,,,
729601198.327763,0.372857,-1.758633,-16.016783,0.022522,0.014359,0.980453,-0.069991,0.016309,-0.019235,68.120392,10.12291,-147.466003,,,
729601198.331085,0.353315,-1.755516,-16.022671,0.022522,0.014359,0.980453,-0.067824,0.016585,-0.017811,68.120392,10.12291,-147.466003,,,
729601198.334404,0.335885,-1.752459,-16.02769,0.015579,0.006531,0.985535,-0.067824,0.016585,-0.017811,68.120392,10.12291,-147.466003,,,
729601198.337746,0.335885,-1.752459,-16.02769,0.015579,0.006531,0.985535,-0.067824,0.016585,-0.017811,68.120392,10.12291,-147.466003,,,
729601198.341072,0.315974,-1.745174,-16.032167,0.015579,0.006531,0.985535,-0.069311,0.03308,-0.013971,68.120392,10.12291,-147.466003,,,
729601198.344407,0.315974,-1.745174,-16.035426,0.014282,0.001633,0.994995,-0.069311,0.03308,-0.013971,68.120392,10.12291,-147.466003,,,
729601198.34781,0.298382,-1.737392,-16.035426,0.014282,0.001633,0.994995,-0.069311,0.03308,-0.013971,68.120392,10.12291,-147.466003,,,
729601198.351078,0.2774,-1.725881,-16.037166,0.014282,0.001633,0.994995,-0.072892,0.046087,-0.003188,68.120392,10.12291,-147.466003,,,
729601198.354406,0.259619,-1.7137,-16.037325,0.009964,0.00238,0.996902,-0.072892,0.046087,-0.003188,68.180756,10.169861,-147.314484,,,
729601198.357757,0.259619,-1.7137,-16.037325,0.009964,0.00238,0.996902,-0.072892,0.046087,-0.003188,68.180756,10.169861,-147.314484,,,
729601198.361103,0.239154,-1.698464,-16.035672,0.009964,0.00238,0.996902,-0.067513,0.057329,0.009278,68.180756,10.169861,-147.314484,,,
729601198.3644,0.239154,-1.698464,-16.035672,0.008377,0.000656,1.000061,-0.067513,0.057329,0.009278,68.180756,10.169861,-147.314484,,,
729601198.367756,0.222739,-1.683022,-16.033009,0.008377,0.000656,1.000061,-0.067513,0.057329,0.009278,68.180756,10.169861,-147.314484,,,
729601198.371104,0.204003,-1.667066,-16.02958,0.008377,0.000656,1.000061,-0.063004,0.056425,0.014428,68.180756,10.169861,-147.314484,,,
729601198.374408,0.204003,-1.667066,-16.02958,0.006958,-0.004456,1.002228,-0.063004,0.056425,0.014428,68.180756,10.169861,-147.314484,,,
