Time (sec),Pitch (deg),Roll (deg),Yaw(deg),X-Acceleration (g),Y-Acceleration (g),Z-Acceleration (g),Pitch Rate (deg/sec),Roll Rate (deg/sec),Yaw Rate (deg/sec),Magnetic Field in X direction (uT),Magnetic Field in Y direction (uT),Magnetic Field in Z Direction (uT),Latitude (deg),Longitude (deg),Altitude (m)
729600816.846407,3.922663,1.137697,-3.494099,-0.010117,0.070557,0.97995,0.003735,-0.031067,0.008435,67.243408,6.472122,-147.27858,,,
729600816.849783,3.918109,1.128565,-3.490744,-0.010452,0.068253,0.978287,0.003748,-0.038484,0.01059,67.243408,6.472122,-147.27858,,,
729600816.853071,3.919212,1.116714,-3.487531,-0.010452,0.068253,0.978287,0.003748,-0.038484,0.01059,67.243408,6.472122,-147.27858,,,
729600816.856382,3.919212,1.116714,-3.487531,-0.010452,0.068253,0.978287,0.003748,-0.038484,0.01059,67.243408,6.472122,-147.27858,,,
729600816.859723,3.915967,1.108141,-3.48476,-0.012421,0.06665,0.98114,0.007375,-0.03419,0.008808,67.243408,6.472122,-147.27858,,,
729600816.863098,3.915967,1.096862,-3.482515,-0.012421,0.06665,0.98114,0.007375,-0.03419,0.008808,67.243408,6.472122,-147.27858,,,
729600816.866391,3.917655,1.096862,-3.482515,-0.012421,0.06665,0.98114,0.007375,-0.03419,0.008808,67.243408,6.472122,-147.27858,,,
729600816.869735,3.915015,1.087379,-3.480807,-0.010254,0.06929,0.984177,0.007805,-0.038965,0.006296,67.243408,6.472122,-147.27858,,,
729600816.873047,3.915015,1.087379,-3.478697,-0.010254,0.06929,0.984177,0.007805,-0.038965,0.006296,67.243408,6.472122,-147.27858,,,
729600816.8765,3.916852,1.075919,-3.478697,-0.010254,0.06929,0.984177,0.007805,-0.038965,0.006296,67.192963,6.623016,-146.67041,,,
729600816.879739,3.91491,1.067913,-3.476892,-0.014648,0.067673,0.984665,0.003535,-0.028676,0.005032,67.192963,6.623016,-146.67041,,,
729600816.883088,3.91491,1.067913,-3.476892,-0.014648,0.067673,0.984665,0.003535,-0.028676,0.005032,67.192963,6.623016,-146.67041,,,
729600816.886383,3.915139,1.058745,-3.474966,-0.014648,0.067673,0.984665,0.003535,-0.028676,0.005032,67.192963,6.623016,-146.67041,,,
729600816.889798,3.912129,1.049308,-3.473214,-0.018051,0.065536,0.983887,-0.00751,-0.033457,0.00381,67.192963,6.623016,-146.67041,,,
729600816.89304,3.912129,1.049308,-3.473214,-0.018051,0.065536,0.983887,-0.00751,-0.033457,0.00381,67.192963,6.623016,-146.67041,,,
729600816.896395,3.908538,1.037899,-3.471582,-0.018051,0.065536,0.983887,-0.00751,-0.033457,0.00381,67.192963,6.623016,-146.67041,,,
729600816.89979,3.902083,1.024779,-3.469998,-0.02034,0.065979,0.979248,-0.023624,-0.040457,0.002825,67.192963,6.623016,-146.67041,,,
729600816.90306,3.902083,1.024779,-3.469998,-0.02034,0.065979,0.979248,-0.023624,-0.040457,0.002825,67.192963,6.623016,-146.67041,,,
729600816.906393,3.894002,1.012107,-3.469034,-0.02034,0.065979,0.979248,-0.023624,-0.040457,0.002825,67.192963,6.623016,-146.67041,,,
729600816.909872,3.885045,0.997715,-3.468808,-0.020538,0.070251,0.984863,-0.0344,-0.043662,-0.00309,67.192963,6.623016,-146.67041,,,
729600816.913135,3.885045,0.997715,-3.468808,-0.020538,0.070251,0.984863,-0.0344,-0.043662,-0.00309,67.192963,6.623016,-146.67041,,,
729600816.916383,3.874537,0.984336,-3.469262,-0.020538,0.070251,0.984863,-0.0344,-0.043662,-0.00309,67.115952,6.42305,-146.787552,,,
729600816.919676,3.864417,0.968997,-3.470042,-0.016647,0.068756,0.990448,-0.037335,-0.045836,-0.006177,67.115952,6.42305,-146.787552,,,
729600816.923064,3.864417,0.968997,-3.470042,-0.016647,0.068756,0.990448,-0.037335,-0.045836,-0.006177,67.115952,6.42305,-146.787552,,,
729600816.92639,3.854514,0.955783,-3.471507,-0.016647,0.068756,0.990448,-0.037335,-0.045836,-0.006177,67.115952,6.42305,-146.787552,,,
729600816.929753,3.847429,0.943171,-3.473429,-0.016724,0.065552,0.997955,-0.019115,-0.035022,-0.009509,67.115952,6.42305,-146.787552,,,
729600816.933047,3.847429,0.943171,-3.473429,-0.016724,0.065552,0.997955,-0.019115,-0.035022,-0.009509,67.115952,6.42305,-146.787552,,,
729600816.936385,3.842628,0.933285,-3.475908,-0.016724,0.065552,0.997955,-0.019115,-0.035022,-0.009509,67.115952,6.42305,-146.787552,,,
729600816.939723,3.840935,0.923461,-3.479082,-0.012329,0.066086,1.005173,8e-05,-0.027193,-0.014503,67.115952,6.42305,-146.787552,,,
729600816.943148,3.840935,0.923461,-3.479082,-0.012329,0.066086,1.005173,8e-05,-0.027193,-0.014503,67.115952,6.42305,-146.787552,,,
729600816.946428,3.842155,0.915946,-3.483122,-0.012329,0.066086,1.005173,8e-05,-0.027193,-0.014503,67.115952,6.42305,-146.787552,,,
729600816.949726,3.847011,0.90872,-3.486987,-0.01091,0.06691,1.002747,0.019782,-0.01683,-0.013608,67.115952,6.42305,-146.787552,,,
729600816.953147,3.847011,0.90872,-3.486987,-0.01091,0.06691,1.002747,0.019782,-0.01683,-0.013608,67.115952,6.42305,-146.787552,,,
729600816.956375,3.853756,0.904038,-3.490514,-0.01091,0.06691,1.002747,0.019782,-0.01683,-0.013608,66.989166,6.504333,-146.899033,,,
729600816.959731,3.863003,0.900561,-3.493515,-0.016342,0.067108,1.002487,0.036351,-0.010489,-0.009585,66.989166,6.504333,-146.899033,,,
729600816.96308,3.863003,0.900561,-3.493515,-0.016342,0.067108,1.002487,0.036351,-0.010489,-0.009585,66.989166,6.504333,-146.899033,,,
729600816.966455,3.873581,0.897119,-3.495673,-0.016342,0.067108,1.002487,0.036351,-0.010489,-0.009585,66.989166,6.504333,-146.899033,,,
729600816.969712,3.884977,0.894864,-3.496881,-0.021988,0.065384,0.995316,0.042378,-0.005879,-0.002641,66.989166,6.504333,-146.899033,,,
729600816.973055,3.884977,0.894864,-3.496881,-0.021988,0.065384,0.995316,0.042378,-0.005879,-0.002641,66.989166,6.504333,-146.899033,,,
729600816.976384,3.896276,0.893276,-3.497512,-0.021988,0.065384,0.995316,0.042378,-0.005879,-0.002641,66.989166,6.504333,-146.899033,,,
729600816.97972,3.906572,0.894566,-3.498188,-0.023041,0.067719,0.991348,0.034183,0.00533,-0.002479,66.989166,6.504333,-146.899033,,,
729600816.983066,3.906572,0.894566,-3.498188,-0.023041,0.067719,0.991348,0.034183,0.00533,-0.002479,66.989166,6.504333,-146.899033,,,
729600816.986439,3.91576,0.895885,-3.498751,-0.023041,0.067719,0.991348,0.034183,0.00533,-0.002479,66.989166,6.504333,-146.899033,,,
729600816.989719,3.924822,0.898719,-3.500009,-0.021515,0.07309,0.989502,0.029131,0.011164,-0.007045,66.989166,6.504333,-146.899033,,,
729600816.993052,3.924822,0.898719,-3.500009,-0.021515,0.07309,0.989502,0.029131,0.011164,-0.007045,66.989166,6.504333,-146.899033,,,
729600816.996403,3.931561,0.901447,-3.502123,-0.021515,0.07309,0.989502,0.029131,0.011164,-0.007045,66.989166,6.504333,-146.899033,,,
729600816.999731,3.936188,0.905012,-3.505076,-0.020905,0.076462,0.989929,0.015173,0.014696,-0.012982,67.057449,6.349365,-147.042892,,,
729600817.003058,3.936188,0.905012,-3.505076,-0.020905,0.076462,0.989929,0.015173,0.014696,-0.012982,67.057449,6.349365,-147.042892,,,
729600817.006395,3.93976,0.90875,-3.508805,-0.020905,0.076462,0.989929,0.015173,0.014696,-0.012982,67.057449,6.349365,-147.042892,,,
729600817.009726,3.942012,0.911879,-3.513551,-0.018402,0.076889,0.991653,0.012063,0.010213,-0.020113,67.057449,6.349365,-147.042892,,,
729600817.013043,3.942012,0.911879,-3.513551,-0.018402,0.076889,0.991653,0.012063,0.010213,-0.020113,67.057449,6.349365,-147.042892,,,
729600817.016405,3.945014,0.913233,-3.518943,-0.018402,0.076889,0.991653,0.012063,0.010213,-0.020113,67.057449,6.349365,-147.042892,,,
729600817.019722,3.948098,0.911038,-3.524189,-0.021896,0.076859,0.993683,0.016702,-0.006055,-0.019606,67.057449,6.349365,-147.042892,,,
729600817.023048,3.948098,0.911038,-3.524189,-0.021896,0.076859,0.993683,0.016702,-0.006055,-0.019606,67.057449,6.349365,-147.042892,,,
729600817.02639,3.953189,0.907292,-3.529591,-0.021896,0.076859,0.993683,0.016702,-0.006055,-0.019606,67.057449,6.349365,-147.042892,,,
729600817.029775,3.95898,0.900866,-3.534688,-0.025391,0.074448,0.995087,0.025353,-0.019053,-0.017777,67.057449,6.349365,-147.042892,,,
729600817.033147,3.95898,0.900866,-3.534688,-0.025391,0.074448,0.995087,0.025353,-0.019053,-0.017777,67.057449,6.349365,-147.042892,,,
729600817.036395,3.966597,0.893474,-3.539346,-0.025391,0.074448,0.995087,0.025353,-0.019053,-0.017777,67.057449,6.349365,-147.042892,,,
729600817.039719,3.975686,0.884812,-3.543617,-0.025055,0.072693,1.000778,0.040271,-0.032947,-0.014528,67.023163,6.531418,-146.860184,,,
729600817.04308,3.975686,0.884812,-3.543617,-0.025055,0.072693,1.000778,0.040271,-0.032947,-0.014528,67.023163,6.531418,-146.860184,,,
729600817.046396,3.987629,0.874335,-3.547276,-0.025055,0.072693,1.000778,0.040271,-0.032947,-0.014528,67.023163,6.531418,-146.860184,,,
729600817.049717,4.000749,0.865532,-3.550603,-0.021667,0.071793,1.000839,0.053223,-0.033684,-0.011182,67.023163,6.531418,-146.860184,,,
729600817.053075,4.000749,0.865532,-3.550603,-0.021667,0.071793,1.000839,0.053223,-0.033684,-0.011182,67.023163,6.531418,-146.860184,,,
729600817.056379,4.016997,0.856438,-3.553319,-0.021667,0.071793,1.000839,0.053223,-0.033684,-0.011182,67.023163,6.531418,-146.860184,,,
729600817.059717,4.035351,0.852335,-3.555785,-0.018967,0.072052,1.003265,0.067921,-0.010255,-0.00839,67.023163,6.531418,-146.860184,,,
729600817.063057,4.035351,0.852335,-3.555785,-0.018967,0.072052,1.003265,0.067921,-0.010255,-0.00839,67.023163,6.531418,-146.860184,,,
729600817.066393,4.055489,0.850843,-3.557877,-0.018967,0.072052,1.003265,0.067921,-0.010255,-0.00839,67.023163,6.531418,-146.860184,,,
729600817.06972,4.078191,0.854659,-3.559263,-0.015961,0.070511,1.008087,0.07844,0.016833,-0.002617,67.023163,6.531418,-146.860184,,,
729600817.073046,4.078191,0.854659,-3.559263,-0.015961,0.070511,1.008087,0.07844,0.016833,-0.002617,67.023163,6.531418,-146.860184,,,
729600817.076395,4.100947,0.860469,-3.559201,-0.015961,0.070511,1.008087,0.07844,0.016833,-0.002617,67.023163,6.531418,-146.860184,,,
729600817.079756,4.125107,0.870697,-3.558282,-0.013046,0.072037,1.003479,0.079716,0.041023,0.003897,67.122711,6.434128,-146.946503,,,
729600817.083059,4.125107,0.870697,-3.558282,-0.013046,0.072037,1.003479,0.079716,0.041023,0.003897,67.122711,6.434128,-146.946503,,,
729600817.086403,4.147622,0.882357,-3.556469,-0.013046,0.072037,1.003479,0.079716,0.041023,0.003897,67.122711,6.434128,-146.946503,,,
729600817.089724,4.170609,0.895778,-3.554004,-0.013672,0.077957,0.995758,0.074197,0.046979,0.008876,67.122711,6.434128,-146.946503,,,
729600817.093071,4.170609,0.895778,-3.554004,-0.013672,0.077957,0.995758,0.074197,0.046979,0.008876,67.122711,6.434128,-146.946503,,,
729600817.096452,4.190174,0.907829,-3.551538,-0.013672,0.077957,0.995758,0.074197,0.046979,0.008876,67.122711,6.434128,-146.946503,,,
729600817.099713,4.207753,0.920417,-3.549785,-0.009064,0.084198,0.981461,0.055702,0.039388,0.004436,67.122711,6.434128,-146.946503,,,
729600817.103063,4.207753,0.920417,-3.549785,-0.009064,0.084198,0.981461,0.055702,0.039388,0.004436,67.122711,6.434128,-146.946503,,,
729600817.106388,4.221594,0.929153,-3.548974,-0.009064,0.084198,0.981461,0.055702,0.039388,0.004436,67.122711,6.434128,-146.946503,,,
729600817.10972,4.231767,0.936829,-3.550164,-0.008743,0.088943,0.970551,0.030302,0.017166,-0.008878,67.122711,6.434128,-146.946503,,,
729600817.113082,4.231767,0.936829,-3.550164,-0.008743,0.088943,0.970551,0.030302,0.017166,-0.008878,67.122711,6.434128,-146.946503,,,
729600817.116404,4.238518,0.939816,-3.55255,-0.008743,0.088943,0.970551,0.030302,0.017166,-0.008878,67.122711,6.434128,-146.946503,,,
729600817.11977,4.242348,0.941289,-3.555252,-0.012573,0.08847,0.966507,0.01262,-0.00413,-0.010593,67.106888,6.278168,-146.729538,,,
729600817.123049,4.242348,0.941289,-3.555252,-0.012573,0.08847,0.966507,0.01262,-0.00413,-0.010593,67.106888,6.278168,-146.729538,,,
729600817.126416,4.245178,0.937885,-3.558044,-0.012573,0.08847,0.966507,0.01262,-0.00413,-0.010593,67.106888,6.278168,-146.729538,,,
729600817.129717,4.246999,0.932968,-3.560608,-0.013275,0.086014,0.972977,0.009714,-0.02191,-0.008514,67.106888,6.278168,-146.729538,,,
729600817.133058,4.246999,0.932968,-3.560608,-0.013275,0.086014,0.972977,0.009714,-0.02191,-0.008514,67.106888,6.278168,-146.729538,,,
729600817.136452,4.249737,0.924713,-3.56277,-0.013275,0.086014,0.972977,0.009714,-0.02191,-0.008514,67.106888,6.278168,-146.729538,,,
729600817.139715,4.252203,0.915654,-3.565595,-0.007751,0.083267,0.982178,0.012225,-0.031573,-0.012829,67.106888,6.278168,-146.729538,,,
729600817.143047,4.252203,0.915654,-3.565595,-0.007751,0.083267,0.982178,0.012225,-0.031573,-0.012829,67.106888,6.278168,-146.729538,,,
729600817.146396,4.255525,0.906328,-3.568919,-0.007751,0.083267,0.982178,0.012225,-0.031573,-0.012829,67.106888,6.278168,-146.729538,,,
729600817.14972,4.257456,0.897617,-3.572467,-0.003601,0.081711,0.988525,0.010019,-0.024423,-0.014669,67.106888,6.278168,-146.729538,,,
729600817.153049,4.257456,0.897617,-3.572467,-0.003601,0.081711,0.988525,0.010019,-0.024423,-0.014669,67.106888,6.278168,-146.729538,,,
729600817.156385,4.259838,0.890756,-3.575948,-0.003601,0.081711,0.988525,0.010019,-0.024423,-0.014669,67.106888,6.278168,-146.729538,,,
729600817.159721,4.261291,0.885061,-3.578672,-0.007965,0.078217,0.990097,0.004645,-0.012169,-0.009786,67.106888,6.278168,-146.729538,,,
729600817.163093,4.261291,0.885061,-3.578672,-0.007965,0.078217,0.990097,0.004645,-0.012169,-0.009786,67.109055,6.199753,-146.799637,,,
729600817.166404,4.26117,0.881305,-3.580445,-0.007965,0.078217,0.990097,0.004645,-0.012169,-0.009786,67.109055,6.199753,-146.799637,,,
729600817.16984,4.261182,0.877795,-3.581107,-0.011658,0.07338,0.989777,-0.004698,-0.005859,-0.002524,67.109055,6.199753,-146.799637,,,
729600817.173043,4.261182,0.877795,-3.581107,-0.011658,0.07338,0.989777,-0.004698,-0.005859,-0.002524,67.109055,6.199753,-146.799637,,,
729600817.176403,4.259593,0.875891,-3.580975,-0.011658,0.07338,0.989777,-0.004698,-0.005859,-0.002524,67.109055,6.199753,-146.799637,,,
729600817.179716,4.26101,0.874587,-3.579913,-0.012527,0.071747,0.990952,-0.004926,0.008468,0.003231,67.109055,6.199753,-146.799637,,,
729600817.183066,4.26101,0.874587,-3.579913,-0.012527,0.071747,0.990952,-0.004926,0.008468,0.003231,67.109055,6.199753,-146.799637,,,
729600817.186467,4.259941,0.877007,-3.578628,-0.012527,0.071747,0.990952,-0.004926,0.008468,0.003231,67.109055,6.199753,-146.799637,,,
729600817.189712,4.263845,0.880895,-3.577682,-0.013367,0.069611,1.001877,0.002393,0.025733,0.000434,67.109055,6.199753,-146.799637,,,
729600817.192777,4.263845,0.880895,-3.577682,-0.013367,0.069611,1.001877,0.002393,0.025733,0.000434,67.109055,6.199753,-146.799637,,,
729600817.196439,4.264327,0.887802,-3.576933,-0.013367,0.069611,1.001877,0.002393,0.025733,0.000434,67.109055,6.199753,-146.799637,,,
729600817.199735,4.267733,0.895424,-3.575838,-0.018173,0.066513,1.003204,-0.001519,0.033251,0.002622,67.109055,6.199753,-146.799637,,,
729600817.203049,4.267733,0.895424,-3.575838,-0.018173,0.066513,1.003204,-0.001519,0.033251,0.002622,67.23555,6.327881,-147.032516,,,
729600817.206431,4.266854,0.904085,-3.574235,-0.018173,0.066513,1.003204,-0.001519,0.033251,0.002622,67.23555,6.327881,-147.032516,,,
729600817.209708,4.267962,0.911648,-3.572119,-0.023987,0.065613,0.997452,-0.004951,0.031756,0.005635,67.23555,6.327881,-147.032516,,,
729600817.213118,4.267962,0.911648,-3.572119,-0.023987,0.065613,0.997452,-0.004951,0.031756,0.005635,67.23555,6.327881,-147.032516,,,
729600817.216397,4.265695,0.919287,-3.570331,-0.023987,0.065613,0.997452,-0.004951,0.031756,0.005635,67.23555,6.327881,-147.032516,,,
729600817.21972,4.264209,0.923149,-3.567766,-0.025772,0.066406,0.993591,-0.013396,0.021807,0.009725,67.23555,6.327881,-147.032516,,,
729600817.223052,4.264209,0.923149,-3.567766,-0.025772,0.066406,0.993591,-0.013396,0.021807,0.009725,67.23555,6.327881,-147.032516,,,
729600817.226452,4.259274,0.92717,-3.564371,-0.025772,0.066406,0.993591,-0.013396,0.021807,0.009725,67.23555,6.327881,-147.032516,,,
729600817.229711,4.254496,0.926488,-3.560183,-0.027161,0.066147,0.987656,-0.02295,0.006034,0.013851,67.23555,6.327881,-147.032516,,,
729600817.233077,4.254496,0.926488,-3.560183,-0.027161,0.066147,0.987656,-0.02295,0.006034,0.013851,67.23555,6.327881,-147.032516,,,
729600817.236384,4.247245,0.925991,-3.555982,-0.027161,0.066147,0.987656,-0.02295,0.006034,0.013851,67.23555,6.327881,-147.032516,,,
729600817.239726,4.239767,0.921941,-3.551782,-0.028763,0.066925,0.98407,-0.028792,-0.008007,0.012945,67.23555,6.327881,-147.032516,,,
729600817.243051,4.239767,0.921941,-3.551782,-0.028763,0.066925,0.98407,-0.028792,-0.008007,0.012945,67.110229,6.494629,-146.930359,,,
729600817.246422,4.230943,0.917812,-3.546999,-0.028763,0.066925,0.98407,-0.028792,-0.008007,0.012945,67.110229,6.494629,-146.930359,,,
729600817.249715,4.221293,0.911611,-3.541843,-0.026779,0.068192,0.98587,-0.033722,-0.016278,0.015071,67.110229,6.494629,-146.930359,,,
729600817.253065,4.221293,0.911611,-3.541843,-0.026779,0.068192,0.98587,-0.033722,-0.016278,0.015071,67.110229,6.494629,-146.930359,,,
729600817.256381,4.211748,0.90536,-3.53675,-0.026779,0.068192,0.98587,-0.033722,-0.016278,0.015071,67.110229,6.494629,-146.930359,,,
729600817.259717,4.20148,0.898068,-3.531827,-0.023987,0.06842,0.985153,-0.035668,-0.019274,0.013552,67.110229,6.494629,-146.930359,,,
729600817.263122,4.20148,0.898068,-3.531827,-0.023987,0.06842,0.985153,-0.035668,-0.019274,0.013552,67.110229,6.494629,-146.930359,,,
729600817.266383,4.190923,0.892391,-3.527286,-0.023987,0.06842,0.985153,-0.035668,-0.019274,0.013552,67.110229,6.494629,-146.930359,,,
729600817.269713,4.178635,0.888247,-3.52274,-0.018356,0.070328,0.984848,-0.040494,-0.006536,0.013352,67.110229,6.494629,-146.930359,,,
729600817.273051,4.178635,0.888247,-3.52274,-0.018356,0.070328,0.984848,-0.040494,-0.006536,0.013352,67.110229,6.494629,-146.930359,,,
729600817.276446,4.165808,0.8868,-3.5181,-0.018356,0.070328,0.984848,-0.040494,-0.006536,0.013352,67.110229,6.494629,-146.930359,,,
729600817.279707,4.150091,0.889135,-3.513082,-0.016083,0.070343,0.986053,-0.049493,0.011581,0.01646,67.110229,6.494629,-146.930359,,,
729600817.28307,4.150091,0.889135,-3.513082,-0.016083,0.070343,0.986053,-0.049493,0.011581,0.01646,67.110229,6.494629,-146.930359,,,
729600817.286376,4.13575,0.891598,-3.507722,-0.016083,0.070343,0.986053,-0.049493,0.011581,0.01646,67.237366,6.489868,-147.008316,,,
729600817.28976,4.119701,0.897241,-3.502283,-0.015839,0.072662,0.985855,-0.052003,0.019577,0.017981,67.237366,6.489868,-147.008316,,,
729600817.29305,4.119701,0.897241,-3.502283,-0.015839,0.072662,0.985855,-0.052003,0.019577,0.017981,67.237366,6.489868,-147.008316,,,
729600817.296402,4.104773,0.901974,-3.496408,-0.015839,0.072662,0.985855,-0.052003,0.019577,0.017981,67.237366,6.489868,-147.008316,,,
729600817.299719,4.089069,0.910247,-3.491309,-0.019073,0.074249,0.985641,-0.050554,0.027047,0.013807,67.237366,6.489868,-147.008316,,,
729600817.303122,4.089069,0.910247,-3.491309,-0.019073,0.074249,0.985641,-0.050554,0.027047,0.013807,67.237366,6.489868,-147.008316,,,
729600817.306384,4.074813,0.916382,-3.487405,-0.019073,0.074249,0.985641,-0.050554,0.027047,0.013807,67.237366,6.489868,-147.008316,,,
729600817.309795,4.060448,0.923674,-3.484535,-0.013931,0.075546,0.989975,-0.04576,0.014924,0.00809,67.237366,6.489868,-147.008316,,,
729600817.31306,4.060448,0.923674,-3.484535,-0.013931,0.075546,0.989975,-0.04576,0.014924,0.00809,67.237366,6.489868,-147.008316,,,
729600817.316249,4.047564,0.92579,-3.482243,-0.013931,0.075546,0.989975,-0.04576,0.014924,0.00809,67.237366,6.489868,-147.008316,,,
729600817.319732,4.034117,0.927962,-3.480497,-0.014267,0.071793,0.986832,-0.046778,-0.002395,0.005482,67.237366,6.489868,-147.008316,,,
729600817.323045,4.034117,0.927962,-3.480497,-0.014267,0.071793,0.986832,-0.046778,-0.002395,0.005482,67.237366,6.489868,-147.008316,,,
729600817.326421,4.020146,0.925992,-3.478041,-0.014267,0.071793,0.986832,-0.046778,-0.002395,0.005482,67.13588,6.623657,-147.125763,,,
729600817.329725,4.006586,0.926089,-3.474839,-0.01944,0.067932,0.987244,-0.043675,-0.003613,0.011816,67.13588,6.623657,-147.125763,,,
729600817.333071,4.006586,0.926089,-3.474839,-0.01944,0.067932,0.987244,-0.043675,-0.003613,0.011816,67.13588,6.623657,-147.125763,,,
729600817.336425,3.994548,0.924192,-3.470527,-0.01944,0.067932,0.987244,-0.043675,-0.003613,0.011816,67.13588,6.623657,-147.125763,,,
729600817.339714,3.983339,0.92372,-3.465885,-0.016617,0.067444,0.995117,-0.037458,-0.002445,0.014843,67.13588,6.623657,-147.125763,,,
729600817.34311,3.983339,0.92372,-3.465885,-0.016617,0.067444,0.995117,-0.037458,-0.002445,0.014843,67.13588,6.623657,-147.125763,,,
729600817.346395,3.972735,0.920907,-3.460829,-0.016617,0.067444,0.995117,-0.037458,-0.002445,0.014843,67.13588,6.623657,-147.125763,,,
729600817.349716,3.962883,0.918278,-3.455462,-0.012054,0.065872,0.994217,-0.035981,-0.00294,0.01712,67.13588,6.623657,-147.125763,,,
729600817.353067,3.962883,0.918278,-3.455462,-0.012054,0.065872,0.994217,-0.035981,-0.00294,0.01712,67.13588,6.623657,-147.125763,,,
729600817.356412,3.952845,0.91705,-3.450026,-0.012054,0.065872,0.994217,-0.035981,-0.00294,0.01712,67.13588,6.623657,-147.125763,,,
729600817.359726,3.943216,0.91824,-3.444953,-0.009857,0.065674,0.992203,-0.03715,0.013303,0.014599,67.13588,6.623657,-147.125763,,,
729600817.36307,3.943216,0.91824,-3.444953,-0.009857,0.065674,0.992203,-0.03715,0.013303,0.014599,67.13588,6.623657,-147.125763,,,
729600817.366374,3.931857,0.92194,-3.440232,-0.009857,0.065674,0.992203,-0.03715,0.013303,0.014599,67.124176,6.517517,-146.985123,,,
729600817.36971,3.920105,0.927797,-3.435683,-0.011261,0.067535,0.994003,-0.04699,0.025853,0.013389,67.124176,6.517517,-146.985123,,,
729600817.373053,3.920105,0.927797,-3.435683,-0.011261,0.067535,0.994003,-0.04699,0.025853,0.013389,67.124176,6.517517,-146.985123,,,
729600817.376381,3.905904,0.934392,-3.430841,-0.011261,0.067535,0.994003,-0.04699,0.025853,0.013389,67.124176,6.517517,-146.985123,,,
729600817.379711,3.892276,0.942086,-3.425099,-0.012085,0.068115,0.988068,-0.054956,0.031473,0.019643,67.124176,6.517517,-146.985123,,,
729600817.383115,3.892276,0.942086,-3.425099,-0.012085,0.068115,0.988068,-0.054956,0.031473,0.019643,67.124176,6.517517,-146.985123,,,
729600817.386384,3.876154,0.949184,-3.419101,-0.012085,0.068115,0.988068,-0.054956,0.031473,0.019643,67.124176,6.517517,-146.985123,,,
729600817.38972,3.86183,0.955059,-3.413423,-0.013443,0.070633,0.985703,-0.054602,0.028669,0.016976,67.124176,6.517517,-146.985123,,,
729600817.393061,3.86183,0.955059,-3.413423,-0.013443,0.070633,0.985703,-0.054602,0.028669,0.016976,67.124176,6.517517,-146.985123,,,
729600817.396416,3.84648,0.962575,-3.408282,-0.013443,0.070633,0.985703,-0.054602,0.028669,0.016976,67.124176,6.517517,-146.985123,,,
729600817.399715,3.83235,0.970765,-3.404503,-0.008423,0.071854,0.993515,-0.051857,0.032332,0.007553,67.124176,6.517517,-146.985123,,,
729600817.403048,3.83235,0.970765,-3.404503,-0.008423,0.071854,0.993515,-0.051857,0.032332,0.007553,67.124176,6.517517,-146.985123,,,
729600817.406389,3.817879,0.978213,-3.402659,-0.008423,0.071854,0.993515,-0.051857,0.032332,0.007553,67.125412,6.580368,-146.929337,,,
729600817.40971,3.804882,0.984563,-3.402656,-0.010071,0.071396,0.995834,-0.0437,0.021639,-0.004992,67.125412,6.580368,-146.929337,,,
729600817.413046,3.804882,0.984563,-3.402656,-0.010071,0.071396,0.995834,-0.0437,0.021639,-0.004992,67.125412,6.580368,-146.929337,,,
729600817.416392,3.792492,0.988901,-3.403851,-0.010071,0.071396,0.995834,-0.0437,0.021639,-0.004992,67.125412,6.580368,-146.929337,,,
729600817.419713,3.780793,0.99053,-3.405537,-0.017075,0.065674,0.992554,-0.040657,0.003896,-0.008444,67.125412,6.580368,-146.929337,,,
729600817.423101,3.780793,0.99053,-3.405537,-0.017075,0.065674,0.992554,-0.040657,0.003896,-0.008444,67.125412,6.580368,-146.929337,,,
729600817.426498,3.769271,0.990085,-3.407219,-0.017075,0.065674,0.992554,-0.040657,0.003896,-0.008444,67.125412,6.580368,-146.929337,,,
729600817.429773,3.75932,0.987334,-3.408844,-0.018784,0.06279,0.994659,-0.029244,-0.002826,-0.008503,67.125412,6.580368,-146.929337,,,
729600817.433059,3.75932,0.987334,-3.408844,-0.018784,0.06279,0.994659,-0.029244,-0.002826,-0.008503,67.125412,6.580368,-146.929337,,,
729600817.436475,3.752122,0.985889,-3.410705,-0.018784,0.06279,0.994659,-0.029244,-0.002826,-0.008503,67.125412,6.580368,-146.929337,,,
729600817.439719,3.747655,0.982876,-3.412143,-0.015884,0.06282,1.005402,-0.012533,-0.00461,-0.005865,67.125412,6.580368,-146.929337,,,
729600817.443072,3.747655,0.982876,-3.412143,-0.015884,0.06282,1.005402,-0.012533,-0.00461,-0.005865,67.125412,6.580368,-146.929337,,,
729600817.446392,3.744668,0.980551,-3.414056,-0.015884,0.06282,1.005402,-0.012533,-0.00461,-0.005865,67.125412,6.580368,-146.929337,,,
729600817.449722,3.743039,0.977675,-3.416823,-0.012558,0.061066,1.006912,-0.006981,0.000591,-0.012321,67.407669,6.710709,-147.340851,,,
729600817.453062,3.743039,0.977675,-3.416823,-0.012558,0.061066,1.006912,-0.006981,0.000591,-0.012321,67.407669,6.710709,-147.340851,,,
729600817.456385,3.741982,0.978293,-3.420202,-0.012558,0.061066,1.006912,-0.006981,0.000591,-0.012321,67.407669,6.710709,-147.340851,,,
729600817.459722,3.742809,0.9808,-3.423862,-0.010239,0.060043,1.006287,-0.000538,0.019522,-0.014574,67.407669,6.710709,-147.340851,,,
729600817.463157,3.742809,0.9808,-3.423862,-0.010239,0.060043,1.006287,-0.000538,0.019522,-0.014574,67.407669,6.710709,-147.340851,,,
729600817.4664,3.742806,0.986488,-3.427494,-0.010239,0.060043,1.006287,-0.000538,0.019522,-0.014574,67.407669,6.710709,-147.340851,,,
729600817.469717,3.744363,0.991694,-3.430732,-0.013657,0.059387,1.004669,0.000355,0.02505,-0.012435,67.407669,6.710709,-147.340851,,,
729600817.473051,3.744363,0.991694,-3.430732,-0.013657,0.059387,1.004669,0.000355,0.02505,-0.012435,67.407669,6.710709,-147.340851,,,
729600817.476388,3.744507,0.998714,-3.433747,-0.013657,0.059387,1.004669,0.000355,0.02505,-0.012435,67.407669,6.710709,-147.340851,,,
729600817.479717,3.746479,1.004712,-3.43601,-0.012619,0.059799,0.999786,0.004088,0.031588,-0.007995,67.407669,6.710709,-147.340851,,,
729600817.483048,3.746479,1.004712,-3.43601,-0.012619,0.059799,0.999786,0.004088,0.031588,-0.007995,67.407669,6.710709,-147.340851,,,
729600817.486386,3.747867,1.013892,-3.437845,-0.012619,0.059799,0.999786,0.004088,0.031588,-0.007995,67.407669,6.710709,-147.340851,,,
729600817.489734,3.750557,1.024025,-3.439874,-0.012512,0.062729,1.000671,0.006859,0.044995,-0.00971,67.196533,6.858246,-147.079865,,,
729600817.49305,3.750557,1.024025,-3.439874,-0.012512,0.062729,1.000671,0.006859,0.044995,-0.00971,67.196533,6.858246,-147.079865,,,
729600817.496409,3.752741,1.036921,-3.442283,-0.012512,0.062729,1.000671,0.006859,0.044995,-0.00971,67.196533,6.858246,-147.079865,,,
729600817.499744,3.755213,1.050525,-3.445072,-0.011826,0.068756,0.998566,0.011492,0.04869,-0.012168,67.196533,6.858246,-147.079865,,,
729600817.50315,3.755213,1.050525,-3.445072,-0.011826,0.068756,0.998566,0.011492,0.04869,-0.012168,67.196533,6.858246,-147.079865,,,
729600817.506376,3.757641,1.063041,-3.448604,-0.011826,0.068756,0.998566,0.011492,0.04869,-0.012168,67.196533,6.858246,-147.079865,,,
729600817.50973,3.759286,1.074077,-3.452573,-0.011429,0.07399,0.992157,0.009292,0.039498,-0.01535,67.196533,6.858246,-147.079865,,,
729600817.513061,3.759286,1.074077,-3.452573,-0.011429,0.07399,0.992157,0.009292,0.039498,-0.01535,67.196533,6.858246,-147.079865,,,
729600817.516446,3.760784,1.08469,-3.457125,-0.011429,0.07399,0.992157,0.009292,0.039498,-0.01535,67.196533,6.858246,-147.079865,,,
729600817.519711,3.760564,1.094023,-3.462543,-0.011917,0.082291,0.987747,0.002984,0.036021,-0.021885,67.196533,6.858246,-147.079865,,,
729600817.523161,3.760564,1.094023,-3.462543,-0.011917,0.082291,0.987747,0.002984,0.036021,-0.021885,67.196533,6.858246,-147.079865,,,
729600817.526379,3.760741,1.102533,-3.468899,-0.011917,0.082291,0.987747,0.002984,0.036021,-0.021885,67.196533,6.858246,-147.079865,,,
729600817.529551,3.760741,1.102533,-3.468899,-0.010696,0.089066,0.987732,0.002872,0.014786,-0.023618,67.407501,6.677277,-146.936966,,,
729600817.533088,3.759648,1.106135,-3.475381,-0.010696,0.089066,0.987732,0.002872,0.014786,-0.023618,67.407501,6.677277,-146.936966,,,
729600817.536374,3.760476,1.10885,-3.481659,-0.010696,0.089066,0.987732,0.002872,0.014786,-0.023618,67.407501,6.677277,-146.936966,,,
729600817.539718,3.760476,1.10885,-3.487227,-0.015671,0.088074,0.992249,0.010007,0.002358,-0.019269,67.407501,6.677277,-146.936966,,,
729600817.543133,3.761072,1.108121,-3.487227,-0.015671,0.088074,0.992249,0.010007,0.002358,-0.019269,67.407501,6.677277,-146.936966,,,
729600817.546394,3.764465,1.107126,-3.491944,-0.015671,0.088074,0.992249,0.010007,0.002358,-0.019269,67.407501,6.677277,-146.936966,,,
729600817.549705,3.764465,1.107126,-3.491944,-0.020203,0.083252,0.999756,0.023836,-0.005973,-0.008134,67.407501,6.677277,-146.936966,,,
729600817.553072,3.768363,1.10375,-3.495037,-0.020203,0.083252,0.999756,0.023836,-0.005973,-0.008134,67.407501,6.677277,-146.936966,,,
729600817.556382,3.775618,1.101587,-3.495896,-0.020203,0.083252,0.999756,0.023836,-0.005973,-0.008134,67.407501,6.677277,-146.936966,,,
729600817.559718,3.775618,1.101587,-3.495896,-0.021225,0.076157,1.006577,0.036209,0.002007,0.006916,67.407501,6.677277,-146.936966,,,
729600817.56307,3.783581,1.0989,-3.494523,-0.021225,0.076157,1.006577,0.036209,0.002007,0.006916,67.407501,6.677277,-146.936966,,,
729600817.566447,3.794817,1.099409,-3.491822,-0.021225,0.076157,1.006577,0.036209,0.002007,0.006916,67.407501,6.677277,-146.936966,,,
729600817.569729,3.794817,1.099409,-3.491822,-0.021225,0.076157,1.006577,0.048694,0.017377,0.019846,67.502472,6.653793,-147.07019,,,
729600817.573055,3.807645,1.100472,-3.487193,-0.018433,0.076599,1.01091,0.048694,0.017377,0.019846,67.502472,6.653793,-147.07019,,,
729600817.576385,3.822163,1.10495,-3.480883,-0.018433,0.076599,1.01091,0.048694,0.017377,0.019846,67.502472,6.653793,-147.07019,,,
729600817.579716,3.822163,1.10495,-3.480883,-0.018326,0.080978,1.007339,0.055914,0.028868,0.026704,67.502472,6.653793,-147.07019,,,
729600817.583125,3.838517,1.109517,-3.473504,-0.018326,0.080978,1.007339,0.055914,0.028868,0.026704,67.502472,6.653793,-147.07019,,,
729600817.586396,3.853888,1.116309,-3.464924,-0.018326,0.080978,1.007339,0.055914,0.028868,0.026704,67.502472,6.653793,-147.07019,,,
729600817.589713,3.853888,1.116309,-3.464924,-0.018326,0.080978,1.007339,0.055914,0.028868,0.03775,67.502472,6.653793,-147.07019,,,
729600817.592829,3.870288,1.120645,-3.454626,-0.022308,0.076385,0.999496,0.047954,0.023411,0.03775,67.502472,6.653793,-147.07019,,,
729600817.596407,3.882417,1.12511,-3.442826,-0.022308,0.076385,0.999496,0.047954,0.023411,0.03775,67.502472,6.653793,-147.07019,,,
729600817.599719,3.882417,1.12511,-3.442826,-0.026917,0.070969,0.982483,0.023964,0.009454,0.048122,67.502472,6.653793,-147.07019,,,
729600817.603063,3.895179,1.125748,-3.429347,-0.026917,0.070969,0.982483,0.023964,0.009454,0.048122,67.502472,6.653793,-147.07019,,,
729600817.606392,3.900513,1.124686,-3.415121,-0.026917,0.070969,0.982483,0.023964,0.009454,0.048122,67.502472,6.653793,-147.07019,,,
729600817.609709,3.900513,1.124686,-3.415121,-0.026917,0.070969,0.982483,0.023964,0.009454,0.048122,67.502472,6.653793,-147.07019,,,
729600817.61306,3.907368,1.119259,-3.400399,-0.025452,0.072342,0.968185,0.001066,-0.010541,0.050388,67.476273,6.572418,-147.145523,,,
729600817.616398,3.905515,1.114321,-3.385971,-0.025452,0.072342,0.968185,0.001066,-0.010541,0.050388,67.476273,6.572418,-147.145523,,,
729600817.619711,3.905515,1.114321,-3.385971,-0.025452,0.072342,0.968185,-0.027638,-0.015858,0.046236,67.476273,6.572418,-147.145523,,,
729600817.62305,3.903415,1.108482,-3.37205,-0.018997,0.078278,0.964554,-0.027638,-0.015858,0.046236,67.476273,6.572418,-147.145523,,,
729600817.626378,3.893217,1.101664,-3.35866,-0.018997,0.078278,0.964554,-0.027638,-0.015858,0.046236,67.476273,6.572418,-147.145523,,,
729600817.629714,3.893217,1.101664,-3.35866,-0.018997,0.078278,0.964554,-0.056868,-0.01652,0.041306,67.476273,6.572418,-147.145523,,,
729600817.633104,3.881384,1.095131,-3.345918,-0.01535,0.081055,0.959183,-0.056868,-0.01652,0.041306,67.476273,6.572418,-147.145523,,,
729600817.636409,3.862022,1.089122,-3.333073,-0.01535,0.081055,0.959183,-0.056868,-0.01652,0.041306,67.476273,6.572418,-147.145523,,,
729600817.639744,3.862022,1.089122,-3.333073,-0.01535,0.081055,0.959183,-0.091954,-0.013341,0.042708,67.476273,6.572418,-147.145523,,,
729600817.64306,3.838976,1.083897,-3.319952,-0.017487,0.082291,0.957458,-0.091954,-0.013341,0.042708,67.476273,6.572418,-147.145523,,,
729600817.646443,3.8106,1.078382,-3.306487,-0.017487,0.082291,0.957458,-0.091954,-0.013341,0.042708,67.476273,6.572418,-147.145523,,,
729600817.649705,3.8106,1.078382,-3.306487,-0.017487,0.082291,0.957458,-0.113928,-0.008181,0.044153,67.476273,6.572418,-147.145523,,,
729600817.653054,3.780937,1.073421,-3.292741,-0.021652,0.080475,0.95816,-0.113928,-0.008181,0.044153,67.389938,6.855515,-147.385239,,,
729600817.656378,3.748564,1.070165,-3.278647,-0.021652,0.080475,0.95816,-0.113928,-0.008181,0.044153,67.389938,6.855515,-147.385239,,,
729600817.659756,3.748564,1.070165,-3.278647,-0.021652,0.080475,0.95816,-0.113928,-0.008181,0.044153,67.389938,6.855515,-147.385239,,,
729600817.663047,3.719284,1.069092,-3.263858,-0.020935,0.075989,0.972305,-0.107794,0.006784,0.049133,67.389938,6.855515,-147.385239,,,
729600817.66639,3.689486,1.069666,-3.248571,-0.020935,0.075989,0.972305,-0.107794,0.006784,0.049133,67.389938,6.855515,-147.385239,,,
729600817.669765,3.689486,1.069666,-3.248571,-0.020935,0.075989,0.972305,-0.107794,0.006784,0.049133,67.389938,6.855515,-147.385239,,,
729600817.67305,3.66317,1.071657,-3.232861,-0.025543,0.068954,0.985687,-0.094199,0.009744,0.052801,67.389938,6.855515,-147.385239,,,
729600817.676386,3.635565,1.072951,-3.21666,-0.025543,0.068954,0.985687,-0.094199,0.009744,0.052801,67.389938,6.855515,-147.385239,,,
729600817.679795,3.635565,1.072951,-3.21666,-0.025543,0.068954,0.985687,-0.094199,0.009744,0.052801,67.389938,6.855515,-147.385239,,,
729600817.683053,3.608389,1.076012,-3.200844,-0.030701,0.065994,0.984299,-0.100757,0.011988,0.050602,67.389938,6.855515,-147.385239,,,
729600817.686376,3.578474,1.077896,-3.185118,-0.030701,0.065994,0.984299,-0.100757,0.011988,0.050602,67.389938,6.855515,-147.385239,,,
729600817.689718,3.578474,1.077896,-3.185118,-0.030701,0.065994,0.984299,-0.100757,0.011988,0.050602,67.389938,6.855515,-147.385239,,,
729600817.693047,3.548654,1.081362,-3.168788,-0.035446,0.067154,0.981781,-0.115631,0.018404,0.054816,67.56575,7.049698,-147.043518,,,
729600817.69638,3.513521,1.084265,-3.151539,-0.035446,0.067154,0.981781,-0.115631,0.018404,0.054816,67.56575,7.049698,-147.043518,,,
729600817.699848,3.513521,1.084265,-3.151539,-0.035446,0.067154,0.981781,-0.115631,0.018404,0.054816,67.56575,7.049698,-147.043518,,,
729600817.703027,3.478059,1.085653,-3.13319,-0.040253,0.066299,0.985321,-0.138178,0.008696,0.062031,67.56575,7.049698,-147.043518,,,
729600817.706381,3.435921,1.084754,-3.113902,-0.040253,0.066299,0.985321,-0.138178,0.008696,0.062031,67.56575,7.049698,-147.043518,,,
729600817.709828,3.435921,1.084754,-3.113902,-0.040253,0.066299,0.985321,-0.138178,0.008696,0.062031,67.56575,7.049698,-147.043518,,,
729600817.713102,3.39243,1.080819,-3.094503,-0.037994,0.059082,0.976913,-0.170489,-0.009647,0.062079,67.56575,7.049698,-147.043518,,,
729600817.716374,3.341663,1.075366,-3.076008,-0.037994,0.059082,0.976913,-0.170489,-0.009647,0.062079,67.56575,7.049698,-147.043518,,,
729600817.719762,3.341663,1.075366,-3.076008,-0.037994,0.059082,0.976913,-0.170489,-0.009647,0.062079,67.56575,7.049698,-147.043518,,,
729600817.723041,3.291489,1.068769,-3.058854,-0.034546,0.054657,0.982803,-0.187089,-0.019549,0.052606,67.56575,7.049698,-147.043518,,,
729600817.726387,3.236823,1.061704,-3.042951,-0.034546,0.054657,0.982803,-0.187089,-0.019549,0.052606,67.56575,7.049698,-147.043518,,,
729600817.729787,3.236823,1.061704,-3.042951,-0.034546,0.054657,0.982803,-0.187089,-0.019549,0.052606,67.56575,7.049698,-147.043518,,,
729600817.733087,3.183611,1.05438,-3.028072,-0.031937,0.048431,0.99649,-0.19621,-0.02489,0.045559,67.253204,7.450562,-147.279694,,,
729600817.736376,3.127858,1.044953,-3.013742,-0.031937,0.048431,0.99649,-0.19621,-0.02489,0.045559,67.253204,7.450562,-147.279694,,,
729600817.739818,3.127858,1.044953,-3.013742,-0.031937,0.048431,0.99649,-0.19621,-0.02489,0.045559,67.253204,7.450562,-147.279694,,,
729600817.743054,3.075233,1.034307,-2.999746,-0.036194,0.038803,1.005936,-0.189068,-0.036723,0.043594,67.253204,7.450562,-147.279694,,,
729600817.74644,3.022123,1.020963,-2.98569,-0.036194,0.038803,1.005936,-0.189068,-0.036723,0.043594,67.253204,7.450562,-147.279694,,,
729600817.749889,3.022123,1.020963,-2.98569,-0.036194,0.038803,1.005936,-0.189068,-0.036723,0.043594,67.253204,7.450562,-147.279694,,,
729600817.753057,2.97439,1.007764,-2.971321,-0.034851,0.030869,1.013962,-0.164522,-0.044028,0.046731,67.253204,7.450562,-147.279694,,,
729600817.756388,2.929901,0.994398,-2.956068,-0.034851,0.030869,1.013962,-0.164522,-0.044028,0.046731,67.253204,7.450562,-147.279694,,,
729600817.759768,2.929901,0.994398,-2.956068,-0.034851,0.030869,1.013962,-0.164522,-0.044028,0.046731,67.253204,7.450562,-147.279694,,,
729600817.763147,2.894497,0.985868,-2.939824,-0.030411,0.025986,1.033478,-0.120121,-0.027683,0.055434,67.253204,7.450562,-147.279694,,,
729600817.766384,2.864321,0.977015,-2.922597,-0.030411,0.025986,1.033478,-0.120121,-0.027683,0.055434,67.253204,7.450562,-147.279694,,,
729600817.769739,2.864321,0.977015,-2.922597,-0.030411,0.025986,1.033478,-0.120121,-0.027683,0.055434,67.253204,7.450562,-147.279694,,,
729600817.77304,2.844272,0.972583,-2.904581,-0.029495,0.022491,1.048187,-0.064857,-0.014258,0.062798,67.253204,7.450562,-147.279694,,,
729600817.776389,2.829133,0.967796,-2.885275,-0.029495,0.022491,1.048187,-0.064857,-0.014258,0.062798,67.220993,7.766144,-147.33493,,,
729600817.779731,2.829133,0.967796,-2.885275,-0.029495,0.022491,1.048187,-0.064857,-0.014258,0.062798,67.220993,7.766144,-147.33493,,,
729600817.783056,2.821982,0.968517,-2.865656,-0.023666,0.020554,1.053253,-0.01943,0.009084,0.066555,67.220993,7.766144,-147.33493,,,
729600817.786388,2.818614,0.971104,-2.846346,-0.023666,0.020554,1.053253,-0.01943,0.009084,0.066555,67.220993,7.766144,-147.33493,,,
729600817.789713,2.818614,0.971104,-2.846346,-0.023666,0.020554,1.053253,-0.01943,0.009084,0.066555,67.220993,7.766144,-147.33493,,,
729600817.793064,2.820076,0.977881,-2.827505,-0.017273,0.023422,1.048294,0.008058,0.024368,0.064509,67.220993,7.766144,-147.33493,,,
729600817.796377,2.823394,0.983382,-2.808874,-0.017273,0.023422,1.048294,0.008058,0.024368,0.064509,67.220993,7.766144,-147.33493,,,
729600817.799735,2.823394,0.983382,-2.808874,-0.017273,0.023422,1.048294,0.008058,0.024368,0.064509,67.220993,7.766144,-147.33493,,,
729600817.803149,2.828359,0.990874,-2.791376,-0.011246,0.029251,1.033005,0.017322,0.026175,0.057421,67.220993,7.766144,-147.33493,,,
729600817.806374,2.833487,0.996244,-2.77488,-0.011246,0.029251,1.033005,0.017322,0.026175,0.057421,67.220993,7.766144,-147.33493,,,
729600817.809736,2.833487,0.996244,-2.77488,-0.011246,0.029251,1.033005,0.017322,0.026175,0.057421,67.220993,7.766144,-147.33493,,,
729600817.813057,2.838438,1.002699,-2.759463,-0.006851,0.036331,1.021317,0.019433,0.02025,0.050605,67.220993,7.766144,-147.33493,,,
729600817.816382,2.843797,1.006621,-2.744716,-0.006851,0.036331,1.021317,0.019433,0.02025,0.050605,67.500565,7.692551,-147.202103,,,
729600817.819706,2.843797,1.006621,-2.744716,-0.006851,0.036331,1.021317,0.019433,0.02025,0.050605,67.500565,7.692551,-147.202103,,,
729600817.823062,2.847424,1.012756,-2.729884,-0.00354,0.044952,1.0159,0.021139,0.017548,0.052174,67.500565,7.692551,-147.202103,,,
729600817.826385,2.853533,1.014642,-2.715554,-0.00354,0.044952,1.0159,0.021139,0.017548,0.052174,67.500565,7.692551,-147.202103,,,
729600817.829801,2.853533,1.014642,-2.715554,-0.00354,0.044952,1.0159,0.021139,0.017548,0.052174,67.500565,7.692551,-147.202103,,,
729600817.833041,2.856164,1.015572,-2.704353,-6.1e-05,0.047409,1.010162,0.018365,-0.004022,0.031041,67.500565,7.692551,-147.202103,,,
729600817.836388,2.861125,1.012719,-2.697914,-6.1e-05,0.047409,1.010162,0.018365,-0.004022,0.031041,67.500565,7.692551,-147.202103,,,
729600817.839714,2.861125,1.012719,-2.697914,-6.1e-05,0.047409,1.010162,0.018365,-0.004022,0.031041,67.500565,7.692551,-147.202103,,,
729600817.843109,2.862449,1.012428,-2.697909,0.022263,0.054428,1.001953,0.019559,6.2e-05,-0.013136,67.500565,7.692551,-147.202103,,,
729600817.846376,2.868652,1.013887,-2.703358,0.022263,0.054428,1.001953,0.019559,6.2e-05,-0.013136,67.500565,7.692551,-147.202103,,,
729600817.84973,2.868652,1.013887,-2.703358,0.022263,0.054428,1.001953,0.019559,6.2e-05,-0.013136,67.500565,7.692551,-147.202103,,,
729600817.853069,2.872443,1.019942,-2.712157,0.024643,0.056396,1.010056,0.027761,0.023155,-0.035936,67.500565,7.692551,-147.202103,,,
729600817.856393,2.880839,1.026017,-2.722574,0.024643,0.056396,1.010056,0.027761,0.023155,-0.035936,67.32515,7.675629,-147.369034,,,
729600817.85972,2.880839,1.026017,-2.722574,0.024643,0.056396,1.010056,0.027761,0.023155,-0.035936,67.32515,7.675629,-147.369034,,,
729600817.86305,2.887773,1.031363,-2.733095,0.007935,0.055603,1.008133,0.041158,0.016405,-0.036347,67.32515,7.675629,-147.369034,,,
729600817.866386,2.901058,1.035151,-2.743296,0.007935,0.055603,1.008133,0.041158,0.016405,-0.036347,67.32515,7.675629,-147.369034,,,
729600817.869774,2.901058,1.035151,-2.743296,0.007935,0.055603,1.008133,0.041158,0.016405,-0.036347,67.32515,7.675629,-147.369034,,,
729600817.873043,2.915635,1.038505,-2.752756,0.001785,0.052032,1.004929,0.068199,0.015929,-0.030805,67.32515,7.675629,-147.369034,,,
729600817.876385,2.936204,1.043094,-2.761243,0.001785,0.052032,1.004929,0.068199,0.015929,-0.030805,67.32515,7.675629,-147.369034,,,
729600817.87972,2.936204,1.043094,-2.761243,0.001785,0.052032,1.004929,0.068199,0.015929,-0.030805,67.32515,7.675629,-147.369034,,,
729600817.883106,2.957227,1.047391,-2.769058,-0.000732,0.049683,1.011597,0.084242,0.019774,-0.026087,67.32515,7.675629,-147.369034,,,
729600817.886375,2.981546,1.053965,-2.777374,-0.000732,0.049683,1.011597,0.084242,0.019774,-0.026087,67.32515,7.675629,-147.369034,,,
729600817.889781,2.981546,1.053965,-2.777374,-0.000732,0.049683,1.011597,0.084242,0.019774,-0.026087,67.32515,7.675629,-147.369034,,,
729600817.893043,3.005337,1.062456,-2.786724,-0.010803,0.049179,1.001434,0.088952,0.041196,-0.033579,67.32515,7.675629,-147.369034,,,
729600817.896367,3.029671,1.075192,-2.796688,-0.010803,0.049179,1.001434,0.088952,0.041196,-0.033579,67.32515,7.675629,-147.369034,,,
729600817.899725,3.029671,1.075192,-2.796688,-0.010803,0.049179,1.001434,0.088952,0.041196,-0.033579,67.368988,7.200226,-147.050903,,,
729600817.903057,3.051332,1.088156,-2.807275,-0.017746,0.053589,0.998291,0.075171,0.052709,-0.038642,67.368988,7.200226,-147.050903,,,
729600817.906382,3.071192,1.102493,-2.818598,-0.017746,0.053589,0.998291,0.075171,0.052709,-0.038642,67.368988,7.200226,-147.050903,,,
729600817.909755,3.071192,1.102493,-2.818598,-0.017746,0.053589,0.998291,0.075171,0.052709,-0.038642,67.368988,7.200226,-147.050903,,,
729600817.913061,3.087048,1.112512,-2.82966,-0.016449,0.061005,0.983032,0.051405,0.043638,-0.038379,67.368988,7.200226,-147.050903,,,
729600817.916379,3.099181,1.12423,-2.840439,-0.016449,0.061005,0.983032,0.051405,0.043638,-0.038379,67.368988,7.200226,-147.050903,,,
729600817.91972,3.099181,1.12423,-2.840439,-0.016449,0.061005,0.983032,0.051405,0.043638,-0.038379,67.368988,7.200226,-147.050903,,,
729600817.923045,3.107226,1.126877,-2.849707,-0.026596,0.062988,0.972473,0.020847,0.033227,-0.031275,67.368988,7.200226,-147.050903,,,
729600817.926382,3.110976,1.134539,-2.858349,-0.026596,0.062988,0.972473,0.020847,0.033227,-0.031275,67.368988,7.200226,-147.050903,,,
729600817.929726,3.110976,1.134539,-2.858349,-0.026596,0.062988,0.972473,0.020847,0.033227,-0.031275,67.368988,7.200226,-147.050903,,,
729600817.93307,3.11092,1.131966,-2.866101,-0.033783,0.062149,0.968567,-0.00733,0.009275,-0.028153,67.368988,7.200226,-147.050903,,,
729600817.93638,3.107289,1.132263,-2.873514,-0.033783,0.062149,0.968567,-0.00733,0.009275,-0.028153,67.368988,7.200226,-147.050903,,,
729600817.939714,3.107289,1.132263,-2.873514,-0.033783,0.062149,0.968567,-0.00733,0.009275,-0.028153,67.357483,7.38916,-146.998322,,,
729600817.943056,3.100693,1.124321,-2.8804,-0.038361,0.058105,0.967484,-0.028876,-0.013521,-0.026753,67.357483,7.38916,-146.998322,,,
729600817.946385,3.091226,1.118451,-2.887043,-0.038361,0.058105,0.967484,-0.028876,-0.013521,-0.026753,67.357483,7.38916,-146.998322,,,
729600817.949721,3.091226,1.118451,-2.887043,-0.038361,0.058105,0.967484,-0.028876,-0.013521,-0.026753,67.357483,7.38916,-146.998322,,,
729600817.952842,3.080008,1.106387,-2.892582,-0.037903,0.054459,0.974213,-0.036249,-0.026015,-0.020783,67.357483,7.38916,-146.998322,,,
729600817.956412,3.069352,1.098329,-2.897288,-0.037903,0.054459,0.974213,-0.036249,-0.026015,-0.020783,67.357483,7.38916,-146.998322,,,
729600817.959747,3.069352,1.098329,-2.897288,-0.037903,0.054459,0.974213,-0.036249,-0.026015,-0.020783,67.357483,7.38916,-146.998322,,,
729600817.963077,3.059583,1.087099,-2.900663,-0.036545,0.053085,0.989822,-0.0237,-0.023168,-0.01262,67.357483,7.38916,-146.998322,,,
729600817.966381,3.054205,1.080096,-2.902875,-0.036545,0.053085,0.989822,-0.0237,-0.023168,-0.01262,67.357483,7.38916,-146.998322,,,
729600817.969735,3.054205,1.080096,-2.902875,-0.036545,0.053085,0.989822,-0.0237,-0.023168,-0.01262,67.357483,7.38916,-146.998322,,,
729600817.973045,3.051194,1.073315,-2.903279,-0.037338,0.046463,1.004272,-0.003776,-0.01646,7.6e-05,67.357483,7.38916,-146.998322,,,
729600817.976379,3.050911,1.068703,-2.901753,-0.037338,0.046463,1.004272,-0.003776,-0.01646,7.6e-05,67.357483,7.38916,-146.998322,,,
729600817.979742,3.050911,1.068703,-2.901753,-0.037338,0.046463,1.004272,-0.003776,-0.01646,7.6e-05,67.345093,7.526169,-147.153244,,,
729600817.983074,3.052652,1.064628,-2.898158,-0.037567,0.043716,1.006119,0.005618,-0.008885,0.014527,67.345093,7.526169,-147.153244,,,
729600817.986389,3.054322,1.06115,-2.892461,-0.037567,0.043716,1.006119,0.005618,-0.008885,0.014527,67.345093,7.526169,-147.153244,,,
729600817.989721,3.054322,1.06115,-2.892461,-0.037567,0.043716,1.006119,0.005618,-0.008885,0.014527,67.345093,7.526169,-147.153244,,,
729600817.993045,3.057689,1.058501,-2.884691,-0.03392,0.045151,1.002304,0.001169,-0.003339,0.02893,67.345093,7.526169,-147.153244,,,
729600817.996377,3.057479,1.056561,-2.875747,-0.03392,0.045151,1.002304,0.001169,-0.003339,0.02893,67.345093,7.526169,-147.153244,,,
729600817.999819,3.057479,1.056561,-2.875747,-0.03392,0.045151,1.002304,0.001169,-0.003339,0.02893,67.345093,7.526169,-147.153244,,,
729600818.003155,3.058251,1.057498,-2.86613,-0.033356,0.048523,0.997498,-0.009422,-0.001909,0.034442,67.345093,7.526169,-147.153244,,,
729600818.006383,3.054967,1.055086,-2.856093,-0.033356,0.048523,0.997498,-0.009422,-0.001909,0.034442,67.345093,7.526169,-147.153244,,,
729600818.009518,3.054967,1.055086,-2.856093,-0.033356,0.048523,0.997498,-0.009422,-0.001909,0.034442,67.345093,7.526169,-147.153244,,,
729600818.01315,3.052809,1.05652,-2.846385,-0.029068,0.04863,0.996307,-0.015046,-0.001854,0.033459,67.345093,7.526169,-147.153244,,,
729600818.016362,3.047617,1.05445,-2.836952,-0.029068,0.04863,0.996307,-0.015046,-0.001854,0.033459,67.345093,7.526169,-147.153244,,,
729600818.019711,3.047617,1.05445,-2.836952,-0.029068,0.04863,0.996307,-0.015046,-0.001854,0.033459,67.294022,7.58374,-147.063477,,,
729600818.023047,3.042019,1.056929,-2.829367,-0.024673,0.046997,0.995789,-0.025099,-0.004119,0.022225,67.294022,7.58374,-147.063477,,,
729600818.026374,3.034958,1.053909,-2.822723,-0.024673,0.046997,0.995789,-0.025099,-0.004119,0.022225,67.294022,7.58374,-147.063477,,,
729600818.029774,3.034958,1.053909,-2.822723,-0.024673,0.046997,0.995789,-0.025099,-0.004119,0.022225,67.294022,7.58374,-147.063477,,,
729600818.033053,3.028512,1.05381,-2.817269,-0.019775,0.047729,0.997345,-0.023189,-0.014464,0.015584,67.294022,7.58374,-147.063477,,,
729600818.036381,3.021774,1.047617,-2.812522,-0.019775,0.047729,0.997345,-0.023189,-0.014464,0.015584,67.294022,7.58374,-147.063477,,,
729600818.039708,3.021774,1.047617,-2.812522,-0.019775,0.047729,0.997345,-0.023189,-0.014464,0.015584,67.294022,7.58374,-147.063477,,,
729600818.043054,3.014467,1.043541,-2.808555,-0.015854,0.048828,0.995514,-0.025548,-0.027679,0.011602,67.294022,7.58374,-147.063477,,,
729600818.046381,3.006803,1.033865,-2.804748,-0.015854,0.048828,0.995514,-0.025548,-0.027679,0.011602,67.294022,7.58374,-147.063477,,,
729600818.049404,3.006803,1.033865,-2.804748,-0.015854,0.048828,0.995514,-0.025548,-0.027679,0.011602,67.294022,7.58374,-147.063477,,,
729600818.053081,2.996414,1.027821,-2.801289,-0.01947,0.050827,0.991638,-0.0318,-0.032391,0.01066,67.294022,7.58374,-147.063477,,,
729600818.056378,2.987323,1.017574,-2.797641,-0.01947,0.050827,0.991638,-0.0318,-0.032391,0.01066,67.294022,7.58374,-147.063477,,,
729600818.059718,2.987323,1.017574,-2.797641,-0.01947,0.050827,0.991638,-0.0318,-0.032391,0.01066,67.294022,7.58374,-147.063477,,,
729600818.063085,2.97673,1.011488,-2.794089,-0.017059,0.050735,0.99408,-0.030724,-0.030194,0.0114,67.383041,7.420303,-147.39476,,,
729600818.066503,2.96912,1.002431,-2.790101,-0.017059,0.050735,0.99408,-0.030724,-0.030194,0.0114,67.383041,7.420303,-147.39476,,,
729600818.069741,2.96912,1.002431,-2.790101,-0.017059,0.050735,0.99408,-0.030724,-0.030194,0.0114,67.383041,7.420303,-147.39476,,,
729600818.073049,2.962853,0.999499,-2.785989,-0.017517,0.048035,1.001358,-0.013227,-0.011566,0.013786,67.383041,7.420303,-147.39476,,,
729600818.076399,2.960755,0.996567,-2.781175,-0.017517,0.048035,1.001358,-0.013227,-0.011566,0.013786,67.383041,7.420303,-147.39476,,,
729600818.079788,2.960755,0.996567,-2.781175,-0.017517,0.048035,1.001358,-0.013227,-0.011566,0.013786,67.383041,7.420303,-147.39476,,,
729600818.083049,2.961773,0.999559,-2.776516,-0.016113,0.043411,1.013962,0.012243,0.008531,0.014233,67.383041,7.420303,-147.39476,,,
729600818.086379,2.965967,1.00192,-2.772173,-0.016113,0.043411,1.013962,0.012243,0.008531,0.014233,67.383041,7.420303,-147.39476,,,
729600818.089741,2.965967,1.00192,-2.772173,-0.016113,0.043411,1.013962,0.012243,0.008531,0.014233,67.383041,7.420303,-147.39476,,,
729600818.093144,2.969953,1.009424,-2.768494,-0.012665,0.041763,1.012344,0.016974,0.028086,0.010557,67.383041,7.420303,-147.39476,,,
729600818.096375,2.974132,1.017001,-2.765529,-0.012665,0.041763,1.012344,0.016974,0.028086,0.010557,67.383041,7.420303,-147.39476,,,
729600818.099766,2.974132,1.017001,-2.765529,-0.012665,0.041763,1.012344,0.016974,0.028086,0.010557,67.383041,7.420303,-147.39476,,,
729600818.10313,2.975725,1.025579,-2.763084,-0.016373,0.046722,1.001389,0.005546,0.02624,0.007177,67.158508,7.51796,-147.49968,,,
729600818.106379,2.975557,1.030856,-2.760529,-0.016373,0.046722,1.001389,0.005546,0.02624,0.007177,67.158508,7.51796,-147.49968,,,
729600818.10974,2.975557,1.030856,-2.760529,-0.016373,0.046722,1.001389,0.005546,0.02624,0.007177,67.158508,7.51796,-147.49968,,,
729600818.11304,2.971319,1.033589,-2.758078,-0.018143,0.050903,0.985901,-0.017948,0.010259,0.005908,67.158508,7.51796,-147.49968,,,
729600818.116371,2.965135,1.034859,-2.755842,-0.018143,0.050903,0.985901,-0.017948,0.010259,0.005908,67.158508,7.51796,-147.49968,,,
729600818.119761,2.965135,1.034859,-2.755842,-0.018143,0.050903,0.985901,-0.017948,0.010259,0.005908,67.158508,7.51796,-147.49968,,,
729600818.123091,2.95733,1.034502,-2.753923,-0.016602,0.052658,0.987442,-0.025246,0.000382,0.003502,67.158508,7.51796,-147.49968,,,
729600818.126418,2.95037,1.032787,-2.753323,-0.016602,0.052658,0.987442,-0.025246,0.000382,0.003502,67.158508,7.51796,-147.49968,,,
729600818.129791,2.95037,1.032787,-2.753323,-0.016602,0.052658,0.987442,-0.025246,0.000382,0.003502,67.158508,7.51796,-147.49968,,,
729600818.133088,2.94445,1.029928,-2.754423,-0.010284,0.05072,0.994354,-0.018043,-0.009547,-0.008128,67.158508,7.51796,-147.49968,,,
729600818.136487,2.939764,1.025853,-2.75606,-0.010284,0.05072,0.994354,-0.018043,-0.009547,-0.008128,67.158508,7.51796,-147.49968,,,
729600818.139714,2.939764,1.025853,-2.75606,-0.010284,0.05072,0.994354,-0.018043,-0.009547,-0.008128,67.158508,7.51796,-147.49968,,,
729600818.143056,2.935776,1.020672,-2.756776,-0.015701,0.043472,0.996552,-0.011025,-0.015225,-0.001726,67.020432,7.538239,-147.404205,,,
729600818.146373,2.93283,1.014538,-2.756568,-0.015701,0.043472,0.996552,-0.011025,-0.015225,-0.001726,67.020432,7.538239,-147.404205,,,
729600818.149719,2.93283,1.014538,-2.756568,-0.015701,0.043472,0.996552,-0.011025,-0.015225,-0.001726,67.020432,7.538239,-147.404205,,,
729600818.153048,2.930119,1.006484,-2.755701,-0.022842,0.043854,0.997406,-0.00174,-0.028852,0.003032,67.020432,7.538239,-147.404205,,,
729600818.156379,2.929756,0.996957,-2.753696,-0.022842,0.043854,0.997406,-0.00174,-0.028852,0.003032,67.020432,7.538239,-147.404205,,,
729600818.159722,2.929756,0.996957,-2.753696,-0.022842,0.043854,0.997406,-0.00174,-0.028852,0.003032,67.020432,7.538239,-147.404205,,,
729600818.163062,2.927649,0.986148,-2.750817,-0.020584,0.045807,0.994781,-0.000112,-0.032524,0.008927,67.020432,7.538239,-147.404205,,,
729600818.16638,2.928175,0.976049,-2.748012,-0.020584,0.045807,0.994781,-0.000112,-0.032524,0.008927,67.020432,7.538239,-147.404205,,,
729600818.169807,2.928175,0.976049,-2.748012,-0.020584,0.045807,0.994781,-0.000112,-0.032524,0.008927,67.020432,7.538239,-147.404205,,,
729600818.173038,2.928286,0.966597,-2.746361,-0.015564,0.050186,0.99469,0.010847,-0.021159,0.000736,67.020432,7.538239,-147.404205,,,
729600818.176374,2.931978,0.960843,-2.746511,-0.015564,0.050186,0.99469,0.010847,-0.021159,0.000736,67.020432,7.538239,-147.404205,,,
729600818.179718,2.931978,0.960843,-2.746511,-0.015564,0.050186,0.99469,0.010847,-0.021159,0.000736,67.020432,7.538239,-147.404205,,,
729600818.183045,2.93619,0.957454,-2.748691,-0.003479,0.053711,1.002762,0.017939,-0.007399,-0.013155,67.193344,7.563919,-147.584488,,,
729600818.186374,2.941402,0.954928,-2.75251,-0.003479,0.053711,1.002762,0.017939,-0.007399,-0.013155,67.193344,7.563919,-147.584488,,,
729600818.189709,2.941402,0.954928,-2.75251,-0.003479,0.053711,1.002762,0.017939,-0.007399,-0.013155,67.193344,7.563919,-147.584488,,,
729600818.193051,2.946687,0.953732,-2.756514,-0.001389,0.053528,1.000992,0.017047,-0.000457,-0.014339,67.193344,7.563919,-147.584488,,,
729600818.196374,2.951662,0.954924,-2.760543,-0.001389,0.053528,1.000992,0.017047,-0.000457,-0.014339,67.193344,7.563919,-147.584488,,,
729600818.199716,2.951662,0.954924,-2.760543,-0.001389,0.053528,1.000992,0.017047,-0.000457,-0.014339,67.193344,7.563919,-147.584488,,,
729600818.203058,2.957054,0.959279,-2.764295,-0.008347,0.052048,0.995926,0.018805,0.023738,-0.012461,67.193344,7.563919,-147.584488,,,
729600818.206374,2.961395,0.965468,-2.766844,-0.008347,0.052048,0.995926,0.018805,0.023738,-0.012461,67.193344,7.563919,-147.584488,,,
729600818.209781,2.961395,0.965468,-2.766844,-0.008347,0.052048,0.995926,0.018805,0.023738,-0.012461,67.193344,7.563919,-147.584488,,,
729600818.213056,2.962806,0.969858,-2.768448,-0.006226,0.055466,0.992523,0.003002,0.021178,-0.006665,67.193344,7.563919,-147.584488,,,
729600818.216374,2.962553,0.974726,-2.76989,-0.006226,0.055466,0.992523,0.003002,0.021178,-0.006665,67.193344,7.563919,-147.584488,,,
729600818.219726,2.962553,0.974726,-2.76989,-0.006226,0.055466,0.992523,0.003002,0.021178,-0.006665,67.193344,7.563919,-147.584488,,,
729600818.223041,2.959165,0.979448,-2.771795,-0.008926,0.061417,0.979462,-0.005954,0.015505,-0.009797,67.193344,7.563919,-147.584488,,,
729600818.22637,2.957025,0.982818,-2.774627,-0.008926,0.061417,0.979462,-0.005954,0.015505,-0.009797,67.161728,7.538895,-147.405869,,,
729600818.229721,2.957025,0.982818,-2.774627,-0.008926,0.061417,0.979462,-0.005954,0.015505,-0.009797,67.161728,7.538895,-147.405869,,,
729600818.233055,2.953741,0.986338,-2.779005,-0.012207,0.061996,0.985107,-0.00451,0.007654,-0.02007,67.161728,7.538895,-147.405869,,,
729600818.236372,2.952501,0.986495,-2.784695,-0.012207,0.061996,0.985107,-0.00451,0.007654,-0.02007,67.161728,7.538895,-147.405869,,,
729600818.239722,2.952501,0.986495,-2.784695,-0.012207,0.061996,0.985107,-0.00451,0.007654,-0.02007,67.161728,7.538895,-147.405869,,,
729600818.243075,2.95075,0.984012,-2.791143,-0.014847,0.058517,0.990448,-0.0013,-0.0145,-0.025171,67.161728,7.538895,-147.405869,,,
729600818.246375,2.9496,0.977823,-2.798255,-0.014847,0.058517,0.990448,-0.0013,-0.0145,-0.025171,67.161728,7.538895,-147.405869,,,
729600818.249776,2.9496,0.977823,-2.798255,-0.014847,0.058517,0.990448,-0.0013,-0.0145,-0.025171,67.161728,7.538895,-147.405869,,,
729600818.253053,2.948,0.967562,-2.805978,-0.018005,0.0569,0.9841,-0.004071,-0.034915,-0.029941,67.161728,7.538895,-147.405869,,,
729600818.256375,2.946487,0.956908,-2.81477,-0.018005,0.0569,0.9841,-0.004071,-0.034915,-0.029941,67.161728,7.538895,-147.405869,,,
729600818.259724,2.946487,0.956908,-2.81477,-0.018005,0.0569,0.9841,-0.004071,-0.034915,-0.029941,67.161728,7.538895,-147.405869,,,
729600818.263103,2.945289,0.942909,-2.824261,-0.017471,0.056961,0.987488,-0.006353,-0.035289,-0.036061,67.161728,7.538895,-147.405869,,,
729600818.266342,2.943401,0.933279,-2.833888,-0.017471,0.056961,0.987488,-0.006353,-0.035289,-0.036061,67.031006,7.454269,-147.241272,,,
729600818.269739,2.943401,0.933279,-2.833888,-0.017471,0.056961,0.987488,-0.006353,-0.035289,-0.036061,67.031006,7.454269,-147.241272,,,
729600818.273051,2.942493,0.923636,-2.84204,-0.016602,0.055008,0.993546,-0.001349,-0.016912,-0.026662,67.031006,7.454269,-147.241272,,,
729600818.276376,2.942168,0.920449,-2.848681,-0.016602,0.055008,0.993546,-0.001349,-0.016912,-0.026662,67.031006,7.454269,-147.241272,,,
729600818.279709,2.942168,0.920449,-2.848681,-0.016602,0.055008,0.993546,-0.001349,-0.016912,-0.026662,67.031006,7.454269,-147.241272,,,
729600818.283054,2.943449,0.919944,-2.853901,-0.020142,0.049927,1.001358,0.007298,0.013838,-0.017228,67.031006,7.454269,-147.241272,,,
729600818.286425,2.946507,0.925038,-2.85753,-0.020142,0.049927,1.001358,0.007298,0.013838,-0.017228,67.031006,7.454269,-147.241272,,,
729600818.289708,2.946507,0.925038,-2.85753,-0.020142,0.049927,1.001358,0.007298,0.013838,-0.017228,67.031006,7.454269,-147.241272,,,
729600818.293047,2.952661,0.930331,-2.859431,-0.01944,0.046539,1.007538,0.016259,0.031102,-0.005863,67.031006,7.454269,-147.241272,,,
729600818.296367,2.95692,0.939461,-2.860194,-0.01944,0.046539,1.007538,0.016259,0.031102,-0.005863,67.031006,7.454269,-147.241272,,,
729600818.299729,2.95692,0.939461,-2.860194,-0.01944,0.046539,1.007538,0.016259,0.031102,-0.005863,67.031006,7.454269,-147.241272,,,
729600818.303106,2.96316,0.949212,-2.859932,-0.024918,0.04892,1.001312,0.012322,0.044053,0.000802,67.031006,7.454269,-147.241272,,,
729600818.306369,2.965337,0.96081,-2.85939,-0.024918,0.04892,1.001312,0.012322,0.044053,0.000802,67.317642,7.445938,-147.301529,,,
729600818.309818,2.965337,0.96081,-2.85939,-0.024918,0.04892,1.001312,0.012322,0.044053,0.000802,67.317642,7.445938,-147.301529,,,
729600818.313067,2.967061,0.97048,-2.858703,-0.028107,0.051208,0.993393,-0.004946,0.036606,0.001235,67.317642,7.445938,-147.301529,,,
729600818.316407,2.964077,0.977847,-2.857974,-0.028107,0.051208,0.993393,-0.004946,0.036606,0.001235,67.317642,7.445938,-147.301529,,,
729600818.319732,2.964077,0.977847,-2.857974,-0.028107,0.051208,0.993393,-0.004946,0.036606,0.001235,67.317642,7.445938,-147.301529,,,
729600818.323048,2.960019,0.981032,-2.857027,-0.026642,0.056549,0.981613,-0.022619,0.00895,0.002372,67.317642,7.445938,-147.301529,,,
729600818.326421,2.951712,0.980829,-2.8561,-0.026642,0.056549,0.981613,-0.022619,0.00895,0.002372,67.317642,7.445938,-147.301529,,,
