Time (sec),Pitch (deg),Roll (deg),Yaw(deg),X-Acceleration (g),Y-Acceleration (g),Z-Acceleration (g),Pitch Rate (deg/sec),Roll Rate (deg/sec),Yaw Rate (deg/sec),Magnetic Field in X direction (uT),Magnetic Field in Y direction (uT),Magnetic Field in Z Direction (uT),Latitude (deg),Longitude (deg),Altitude (m)
729600843.602642,1.296279,1.218633,-4.391648,-0.030563,0.036926,0.981155,-0.018425,0.024835,-0.000883,67.735321,8.564789,-147.551208,,,
729600843.606285,1.291131,1.217278,-4.390673,-0.028275,0.031647,0.993393,-0.013758,0.005575,0.00442,67.735321,8.564789,-147.551208,,,
729600843.60958,1.28763,1.216159,-4.388005,-0.028275,0.031647,0.993393,-0.013758,0.005575,0.00442,67.735321,8.564789,-147.551208,,,
729600843.612916,1.28763,1.216159,-4.388005,-0.028275,0.031647,0.993393,-0.013758,0.005575,0.00442,67.506012,8.726288,-147.833664,,,
729600843.616277,1.284809,1.208615,-4.383648,-0.03038,0.023865,0.990875,-0.004114,-0.015403,0.015854,67.506012,8.726288,-147.833664,,,
729600843.619323,1.284094,1.203149,-4.378139,-0.03038,0.023865,0.990875,-0.004114,-0.015403,0.015854,67.506012,8.726288,-147.833664,,,
729600843.622962,1.284094,1.203149,-4.378139,-0.03038,0.023865,0.990875,-0.004114,-0.015403,0.015854,67.506012,8.726288,-147.833664,,,
729600843.626246,1.284597,1.194768,-4.372629,-0.033325,0.021088,0.996216,0.010931,-0.01237,0.015654,67.506012,8.726288,-147.833664,,,
729600843.629584,1.288876,1.191137,-4.368976,-0.033325,0.021088,0.996216,0.010931,-0.01237,0.015654,67.506012,8.726288,-147.833664,,,
729600843.63291,1.288876,1.191137,-4.368976,-0.033325,0.021088,0.996216,0.010931,-0.01237,0.015654,67.506012,8.726288,-147.833664,,,
729600843.635976,1.295287,1.186691,-4.366472,-0.021378,0.025925,1.006973,0.03133,-0.006833,0.007857,67.506012,8.726288,-147.833664,,,
729600843.63962,1.304926,1.183672,-4.364258,-0.021378,0.025925,1.006973,0.03133,-0.006833,0.007857,67.506012,8.726288,-147.833664,,,
729600843.642917,1.304926,1.183672,-4.364258,-0.021378,0.025925,1.006973,0.03133,-0.006833,0.007857,67.506012,8.726288,-147.833664,,,
729600843.646313,1.316744,1.181907,-4.36168,-0.021667,0.026184,1.001968,0.04234,-0.001368,0.010702,67.506012,8.726288,-147.833664,,,
729600843.649581,1.327592,1.181847,-4.357967,-0.021667,0.026184,1.001968,0.04234,-0.001368,0.010702,67.506012,8.726288,-147.833664,,,
729600843.652635,1.327592,1.181847,-4.357967,-0.021667,0.026184,1.001968,0.04234,-0.001368,0.010702,67.506012,8.726288,-147.833664,,,
729600843.656282,1.338493,1.185933,-4.352733,-0.025833,0.027817,0.995071,0.022366,0.014301,0.021169,67.60643,8.779358,-147.475571,,,
729600843.659572,1.342889,1.18963,-4.345432,-0.025833,0.027817,0.995071,0.022366,0.014301,0.021169,67.60643,8.779358,-147.475571,,,
729600843.662938,1.342889,1.18963,-4.345432,-0.025833,0.027817,0.995071,0.022366,0.014301,0.021169,67.60643,8.779358,-147.475571,,,
729600843.666251,1.346654,1.196589,-4.335874,-0.028229,0.035568,0.988327,-0.007541,0.022423,0.036575,67.60643,8.779358,-147.475571,,,
729600843.669352,1.341748,1.202363,-4.324079,-0.028229,0.035568,0.988327,-0.007541,0.022423,0.036575,67.60643,8.779358,-147.475571,,,
729600843.672965,1.341748,1.202363,-4.324079,-0.028229,0.035568,0.988327,-0.007541,0.022423,0.036575,67.60643,8.779358,-147.475571,,,
729600843.676295,1.334686,1.211747,-4.311164,-0.032227,0.037354,0.980972,-0.041563,0.033543,0.044017,67.60643,8.779358,-147.475571,,,
729600843.679599,1.321222,1.220514,-4.296809,-0.032227,0.037354,0.980972,-0.041563,0.033543,0.044017,67.60643,8.779358,-147.475571,,,
729600843.683002,1.321222,1.220514,-4.296809,-0.032227,0.037354,0.980972,-0.041563,0.033543,0.044017,67.60643,8.779358,-147.475571,,,
729600843.685973,1.306496,1.230929,-4.281554,-0.032394,0.031418,0.986923,-0.058581,0.033908,0.050186,67.60643,8.779358,-147.475571,,,
729600843.689621,1.289611,1.237911,-4.266494,-0.032394,0.031418,0.986923,-0.058581,0.033908,0.050186,67.60643,8.779358,-147.475571,,,
729600843.692907,1.289611,1.237911,-4.266494,-0.032394,0.031418,0.986923,-0.058581,0.033908,0.050186,67.60643,8.779358,-147.475571,,,
729600843.696327,1.272758,1.243966,-4.25107,-0.034592,0.023636,0.992035,-0.057129,0.009998,0.053137,67.617661,8.773453,-147.811829,,,
729600843.699652,1.25708,1.243517,-4.235092,-0.034592,0.023636,0.992035,-0.057129,0.009998,0.053137,67.617661,8.773453,-147.811829,,,
729600843.702649,1.25708,1.243517,-4.235092,-0.034592,0.023636,0.992035,-0.057129,0.009998,0.053137,67.617661,8.773453,-147.811829,,,
729600843.706286,1.244219,1.240244,-4.219075,-0.041199,0.014694,1.000488,-0.038262,-0.020846,0.054041,67.617661,8.773453,-147.811829,,,
729600843.709605,1.234787,1.23045,-4.202736,-0.041199,0.014694,1.000488,-0.038262,-0.020846,0.054041,67.617661,8.773453,-147.811829,,,
729600843.712923,1.234787,1.23045,-4.202736,-0.041199,0.014694,1.000488,-0.038262,-0.020846,0.054041,67.617661,8.773453,-147.811829,,,
729600843.71625,1.228985,1.2153,-4.186505,-0.040207,0.00351,1.012131,-0.021147,-0.055191,0.05365,67.617661,8.773453,-147.811829,,,
729600843.719318,1.228985,1.195418,-4.170536,-0.040207,0.00351,1.012131,-0.021147,-0.055191,0.05365,67.617661,8.773453,-147.811829,,,
729600843.722947,1.223861,1.195418,-4.170536,-0.040207,0.00351,1.012131,-0.021147,-0.055191,0.05365,67.617661,8.773453,-147.811829,,,
729600843.726246,1.222245,1.170377,-4.154091,-0.040771,-0.002533,1.015427,-0.003712,-0.095538,0.057451,67.617661,8.773453,-147.811829,,,
729600843.729598,1.223317,1.139506,-4.137162,-0.040771,-0.002533,1.015427,-0.003712,-0.095538,0.057451,67.617661,8.773453,-147.811829,,,
729600843.732974,1.223317,1.139506,-4.137162,-0.040771,-0.002533,1.015427,-0.003712,-0.095538,0.057451,67.617661,8.773453,-147.811829,,,
729600843.735991,1.231228,1.107209,-4.120637,-0.035751,-0.004501,1.024887,0.028912,-0.117309,0.055559,67.36499,8.986877,-147.122253,,,
729600843.739632,1.242274,1.072647,-4.104624,-0.035751,-0.004501,1.024887,0.028912,-0.117309,0.055559,67.36499,8.986877,-147.122253,,,
729600843.742897,1.242274,1.072647,-4.104624,-0.035751,-0.004501,1.024887,0.028912,-0.117309,0.055559,67.36499,8.986877,-147.122253,,,
729600843.746348,1.26186,1.042003,-4.089703,-0.019348,-0.001999,1.042618,0.064542,-0.107518,0.048975,67.36499,8.986877,-147.122253,,,
729600843.749605,1.281942,1.010619,-4.07653,-0.019348,-0.001999,1.042618,0.064542,-0.107518,0.048975,67.36499,8.986877,-147.122253,,,
729600843.752589,1.281942,1.010619,-4.07653,-0.019348,-0.001999,1.042618,0.064542,-0.107518,0.048975,67.36499,8.986877,-147.122253,,,
729600843.756297,1.30732,0.985117,-4.065103,-0.003082,0.003876,1.042114,0.080109,-0.090524,0.037531,67.36499,8.986877,-147.122253,,,
729600843.759654,1.32931,0.959473,-4.054247,-0.003082,0.003876,1.042114,0.080109,-0.090524,0.037531,67.36499,8.986877,-147.122253,,,
729600843.762921,1.32931,0.959473,-4.054247,-0.003082,0.003876,1.042114,0.080109,-0.090524,0.037531,67.36499,8.986877,-147.122253,,,
729600843.766237,1.350506,0.94074,-4.043969,0.000351,0.009796,1.02977,0.065884,-0.066839,0.03376,67.36499,8.986877,-147.122253,,,
729600843.76925,1.350506,0.94074,-4.043969,0.000351,0.009796,1.02977,0.065884,-0.066839,0.03376,67.36499,8.986877,-147.122253,,,
729600843.772962,1.368148,0.92216,-4.033923,0.000351,0.009796,1.02977,0.065884,-0.066839,0.03376,67.36499,8.986877,-147.122253,,,
729600843.776244,1.383307,0.911378,-4.023718,0.001251,0.01442,1.016098,0.053361,-0.045386,0.03547,67.291702,8.722473,-147.441391,,,
729600843.779586,1.397058,0.898626,-4.013718,0.001251,0.01442,1.016098,0.053361,-0.045386,0.03547,67.291702,8.722473,-147.441391,,,
729600843.782973,1.397058,0.898626,-4.013718,0.001251,0.01442,1.016098,0.053361,-0.045386,0.03547,67.291702,8.722473,-147.441391,,,
729600843.785981,1.405923,0.893518,-4.005074,0.008133,0.019485,1.011444,0.041046,-0.030131,0.026712,67.291702,8.722473,-147.441391,,,
729600843.789614,1.417431,0.884531,-3.998426,0.008133,0.019485,1.011444,0.041046,-0.030131,0.026712,67.291702,8.722473,-147.441391,,,
729600843.79292,1.417431,0.884531,-3.998426,0.008133,0.019485,1.011444,0.041046,-0.030131,0.026712,67.291702,8.722473,-147.441391,,,
729600843.795991,1.423655,0.880927,-3.994102,0.015274,0.021835,1.00824,0.040753,-0.029149,0.011365,67.291702,8.722473,-147.441391,,,
729600843.799633,1.436481,0.871497,-3.991745,0.015274,0.021835,1.00824,0.040753,-0.029149,0.011365,67.291702,8.722473,-147.441391,,,
729600843.802623,1.436481,0.871497,-3.991745,0.015274,0.021835,1.00824,0.040753,-0.029149,0.011365,67.291702,8.722473,-147.441391,,,
729600843.806282,1.445551,0.866849,-3.992713,0.013962,0.022934,1.006638,0.056099,-0.030795,-0.010727,67.291702,8.722473,-147.441391,,,
729600843.80963,1.462706,0.856841,-3.99674,0.013962,0.022934,1.006638,0.056099,-0.030795,-0.010727,67.291702,8.722473,-147.441391,,,
729600843.8129,1.462706,0.856841,-3.99674,0.013962,0.022934,1.006638,0.056099,-0.030795,-0.010727,67.291702,8.722473,-147.441391,,,
729600843.816248,1.477202,0.849803,-4.003009,0.015625,0.024033,1.008591,0.075509,-0.029601,-0.025581,67.291702,8.722473,-147.441391,,,
729600843.819303,1.477202,0.849803,-4.003009,0.015625,0.024033,1.008591,0.075509,-0.029601,-0.025581,67.276184,8.662994,-147.301208,,,
729600843.822945,1.499929,0.840835,-4.011043,0.015625,0.024033,1.008591,0.075509,-0.029601,-0.025581,67.276184,8.662994,-147.301208,,,
729600843.826244,1.520302,0.831784,-4.020314,0.010864,0.025574,1.00679,0.090707,-0.027156,-0.034075,67.276184,8.662994,-147.301208,,,
729600843.829619,1.546542,0.823827,-4.03066,0.010864,0.025574,1.00679,0.090707,-0.027156,-0.034075,67.276184,8.662994,-147.301208,,,
729600843.832995,1.546542,0.823827,-4.03066,0.010864,0.025574,1.00679,0.090707,-0.027156,-0.034075,67.276184,8.662994,-147.301208,,,
729600843.835954,1.569645,0.814707,-4.042369,0.006989,0.025726,1.00174,0.092222,-0.019592,-0.044029,67.276184,8.662994,-147.301208,,,
729600843.83965,1.595311,0.809615,-4.054777,0.006989,0.025726,1.00174,0.092222,-0.019592,-0.044029,67.276184,8.662994,-147.301208,,,
729600843.842899,1.595311,0.809615,-4.054777,0.006989,0.025726,1.00174,0.092222,-0.019592,-0.044029,67.276184,8.662994,-147.301208,,,
729600843.846246,1.616461,0.804154,-4.066948,0.003204,0.029999,0.990311,0.078886,-0.006308,-0.043062,67.276184,8.662994,-147.301208,,,
729600843.849667,1.636972,0.801851,-4.078752,0.003204,0.029999,0.990311,0.078886,-0.006308,-0.043062,67.276184,8.662994,-147.301208,,,
729600843.852619,1.636972,0.801851,-4.078752,0.003204,0.029999,0.990311,0.078886,-0.006308,-0.043062,67.276184,8.662994,-147.301208,,,
729600843.856279,1.651834,0.797234,-4.090235,-0.003021,0.034668,0.979065,0.055497,-0.002333,-0.041739,67.276184,8.662994,-147.301208,,,
729600843.859574,1.651834,0.797234,-4.090235,-0.003021,0.034668,0.979065,0.055497,-0.002333,-0.041739,67.426239,8.26387,-147.713455,,,
729600843.862973,1.666019,0.796994,-4.101838,-0.003021,0.034668,0.979065,0.055497,-0.002333,-0.041739,67.426239,8.26387,-147.713455,,,
729600843.866256,1.676092,0.79396,-4.112435,-0.003632,0.036606,0.977646,0.037846,0.015075,-0.036001,67.426239,8.26387,-147.713455,,,
729600843.869346,1.676092,0.79396,-4.112435,-0.003632,0.036606,0.977646,0.037846,0.015075,-0.036001,67.426239,8.26387,-147.713455,,,
729600843.872945,1.685914,0.797477,-4.122768,-0.003632,0.036606,0.977646,0.037846,0.015075,-0.036001,67.426239,8.26387,-147.713455,,,
729600843.87624,1.69313,0.794743,-4.132522,-0.003342,0.03833,0.981339,0.031078,0.015107,-0.033345,67.426239,8.26387,-147.713455,,,
729600843.879584,1.69313,0.794743,-4.132522,-0.003342,0.03833,0.981339,0.031078,0.015107,-0.033345,67.426239,8.26387,-147.713455,,,
729600843.88293,1.701722,0.798083,-4.141618,-0.003342,0.03833,0.981339,0.031078,0.015107,-0.033345,67.426239,8.26387,-147.713455,,,
729600843.885969,1.709619,0.794706,-4.149956,-0.005966,0.03363,0.979187,0.036062,0.009635,-0.029262,67.426239,8.26387,-147.713455,,,
729600843.889645,1.719162,0.796241,-4.1585,-0.005966,0.03363,0.979187,0.036062,0.009635,-0.029262,67.426239,8.26387,-147.713455,,,
729600843.892897,1.719162,0.796241,-4.1585,-0.005966,0.03363,0.979187,0.036062,0.009635,-0.029262,67.426239,8.26387,-147.713455,,,
729600843.896243,1.726776,0.790107,-4.166785,-0.008026,0.039093,0.979721,0.030546,-0.002894,-0.028781,67.426239,8.26387,-147.713455,,,
729600843.899571,1.726776,0.790107,-4.166785,-0.008026,0.039093,0.979721,0.030546,-0.002894,-0.028781,67.292557,8.411377,-147.305389,,,
729600843.902681,1.733889,0.787058,-4.175518,-0.008026,0.039093,0.979721,0.030546,-0.002894,-0.028781,67.292557,8.411377,-147.305389,,,
729600843.906274,1.737342,0.775974,-4.185034,-0.010681,0.044525,0.971817,0.011658,-0.025539,-0.035492,67.292557,8.411377,-147.305389,,,
729600843.909585,1.737342,0.775974,-4.185034,-0.010681,0.044525,0.971817,0.011658,-0.025539,-0.035492,67.292557,8.411377,-147.305389,,,
729600843.912915,1.739377,0.766606,-4.194934,-0.010681,0.044525,0.971817,0.011658,-0.025539,-0.035492,67.292557,8.411377,-147.305389,,,
729600843.916243,1.738437,0.750171,-4.205305,-0.010529,0.049591,0.966705,-0.003209,-0.04425,-0.039902,67.292557,8.411377,-147.305389,,,
729600843.919301,1.738437,0.750171,-4.205305,-0.010529,0.049591,0.966705,-0.003209,-0.04425,-0.039902,67.292557,8.411377,-147.305389,,,
729600843.922955,1.736394,0.736171,-4.216826,-0.010529,0.049591,0.966705,-0.003209,-0.04425,-0.039902,67.292557,8.411377,-147.305389,,,
729600843.926236,1.733357,0.718485,-4.22873,-0.009003,0.050598,0.970322,-0.013638,-0.049684,-0.043284,67.292557,8.411377,-147.305389,,,
729600843.929639,1.733357,0.718485,-4.22873,-0.009003,0.050598,0.970322,-0.013638,-0.049684,-0.043284,67.292557,8.411377,-147.305389,,,
729600843.932924,1.729091,0.703919,-4.241036,-0.009003,0.050598,0.970322,-0.013638,-0.049684,-0.043284,67.292557,8.411377,-147.305389,,,
729600843.935971,1.726201,0.688674,-4.253443,-0.01123,0.043121,0.980789,-0.011957,-0.043244,-0.044327,67.292557,8.411377,-147.305389,,,
729600843.939609,1.726201,0.688674,-4.253443,-0.01123,0.043121,0.980789,-0.011957,-0.043244,-0.044327,67.249939,8.343155,-147.370895,,,
729600843.942948,1.72217,0.676298,-4.265414,-0.01123,0.043121,0.980789,-0.011957,-0.043244,-0.044327,67.249939,8.343155,-147.370895,,,
729600843.946249,1.719519,0.663939,-4.276883,-0.012619,0.039642,0.990707,-0.013422,-0.0328,-0.041114,67.249939,8.343155,-147.370895,,,
729600843.949596,1.719519,0.663939,-4.276883,-0.012619,0.039642,0.990707,-0.013422,-0.0328,-0.041114,67.249939,8.343155,-147.370895,,,
729600843.952634,1.715083,0.65508,-4.288133,-0.012619,0.039642,0.990707,-0.013422,-0.0328,-0.041114,67.249939,8.343155,-147.370895,,,
729600843.956291,1.711148,0.646909,-4.29917,-0.012924,0.038696,0.994247,-0.017582,-0.019691,-0.03996,67.249939,8.343155,-147.370895,,,
729600843.959585,1.711148,0.646909,-4.29917,-0.012924,0.038696,0.994247,-0.017582,-0.019691,-0.03996,67.249939,8.343155,-147.370895,,,
729600843.962929,1.704745,0.6414,-4.3099,-0.012924,0.038696,0.994247,-0.017582,-0.019691,-0.03996,67.249939,8.343155,-147.370895,,,
729600843.966246,1.697588,0.635637,-4.319434,-0.018219,0.036606,0.994965,-0.029807,-0.016822,-0.031883,67.249939,8.343155,-147.370895,,,
729600843.969395,1.697588,0.635637,-4.319434,-0.018219,0.036606,0.994965,-0.029807,-0.016822,-0.031883,67.249939,8.343155,-147.370895,,,
729600843.972941,1.687684,0.630204,-4.3279,-0.018219,0.036606,0.994965,-0.029807,-0.016822,-0.031883,67.249939,8.343155,-147.370895,,,
729600843.976245,1.678402,0.62419,-4.335,-0.027542,0.032104,0.991394,-0.038604,-0.018739,-0.022524,67.249939,8.343155,-147.370895,,,
729600843.979585,1.678402,0.62419,-4.335,-0.027542,0.032104,0.991394,-0.038604,-0.018739,-0.022524,67.249939,8.343155,-147.370895,,,
729600843.982981,1.66612,0.617531,-4.340123,-0.027542,0.032104,0.991394,-0.038604,-0.018739,-0.022524,67.067413,8.45993,-147.666229,,,
729600843.985961,1.656178,0.610014,-4.343384,-0.037231,0.028793,0.994171,-0.040169,-0.025035,-0.009545,67.067413,8.45993,-147.666229,,,
729600843.989607,1.656178,0.610014,-4.343384,-0.037231,0.028793,0.994171,-0.040169,-0.025035,-0.009545,67.067413,8.45993,-147.666229,,,
729600843.992935,1.645281,0.601665,-4.345034,-0.037231,0.028793,0.994171,-0.040169,-0.025035,-0.009545,67.067413,8.45993,-147.666229,,,
729600843.996243,1.639697,0.593169,-4.345451,-0.038345,0.025894,1.00116,-0.027365,-0.0256,-0.000824,67.067413,8.45993,-147.666229,,,
729600843.999602,1.639697,0.593169,-4.345451,-0.038345,0.025894,1.00116,-0.027365,-0.0256,-0.000824,67.067413,8.45993,-147.666229,,,
729600844.002648,1.633691,0.585689,-4.34494,-0.038345,0.025894,1.00116,-0.027365,-0.0256,-0.000824,67.067413,8.45993,-147.666229,,,
729600844.006291,1.635037,0.579693,-4.34405,-0.034515,0.02356,1.012405,0.000211,-0.014847,0.002049,67.067413,8.45993,-147.666229,,,
729600844.009632,1.635037,0.579693,-4.34405,-0.034515,0.02356,1.012405,0.000211,-0.014847,0.002049,67.067413,8.45993,-147.666229,,,
729600844.012925,1.636044,0.574863,-4.343247,-0.034515,0.02356,1.012405,0.000211,-0.014847,0.002049,67.067413,8.45993,-147.666229,,,
729600844.016244,1.642462,0.570782,-4.342424,-0.030975,0.021774,1.015472,0.01931,-0.012103,0.002394,67.067413,8.45993,-147.666229,,,
729600844.019357,1.642462,0.570782,-4.342424,-0.030975,0.021774,1.015472,0.01931,-0.012103,0.002394,67.067413,8.45993,-147.666229,,,
729600844.022964,1.647602,0.566621,-4.341478,-0.030975,0.021774,1.015472,0.01931,-0.012103,0.002394,67.213562,8.641708,-147.515671,,,
729600844.026241,1.654711,0.563064,-4.34024,-0.034836,0.02066,1.005997,0.017013,-0.011072,0.004512,67.213562,8.641708,-147.515671,,,
729600844.029592,1.654711,0.563064,-4.34024,-0.034836,0.02066,1.005997,0.017013,-0.011072,0.004512,67.213562,8.641708,-147.515671,,,
729600844.03297,1.659443,0.557676,-4.338312,-0.034836,0.02066,1.005997,0.017013,-0.011072,0.004512,67.213562,8.641708,-147.515671,,,
729600844.035959,1.666981,0.551077,-4.335795,-0.037582,0.024094,0.998077,0.022017,-0.02788,0.008852,67.213562,8.641708,-147.515671,,,
729600844.039612,1.666981,0.551077,-4.335795,-0.037582,0.024094,0.998077,0.022017,-0.02788,0.008852,67.213562,8.641708,-147.515671,,,
729600844.042923,1.673299,0.542032,-4.332438,-0.037582,0.024094,0.998077,0.022017,-0.02788,0.008852,67.213562,8.641708,-147.515671,,,
729600844.046241,1.681923,0.535359,-4.328339,-0.036346,0.027405,0.999756,0.02955,-0.029076,0.014602,67.213562,8.641708,-147.515671,,,
729600844.049577,1.681923,0.535359,-4.328339,-0.036346,0.027405,0.999756,0.02955,-0.029076,0.014602,67.213562,8.641708,-147.515671,,,
729600844.052615,1.69044,0.526018,-4.323904,-0.036346,0.027405,0.999756,0.02955,-0.029076,0.014602,67.213562,8.641708,-147.515671,,,
729600844.056281,1.701016,0.52188,-4.319343,-0.028839,0.02713,1.002533,0.040401,-0.027057,0.016584,67.213562,8.641708,-147.515671,,,
729600844.059612,1.701016,0.52188,-4.319343,-0.028839,0.02713,1.002533,0.040401,-0.027057,0.016584,67.213562,8.641708,-147.515671,,,
729600844.062901,1.712852,0.513515,-4.314679,-0.028839,0.02713,1.002533,0.040401,-0.027057,0.016584,67.297165,8.32547,-147.498169,,,
729600844.06624,1.725566,0.51297,-4.310213,-0.016937,0.027954,1.002151,0.049033,-0.018877,0.01668,67.297165,8.32547,-147.498169,,,
729600844.069292,1.725566,0.51297,-4.310213,-0.016937,0.027954,1.002151,0.049033,-0.018877,0.01668,67.297165,8.32547,-147.498169,,,
729600844.072954,1.739736,0.508345,-4.305248,-0.016937,0.027954,1.002151,0.049033,-0.018877,0.01668,67.297165,8.32547,-147.498169,,,
729600844.076236,1.752825,0.513189,-4.30047,-0.008118,0.033783,1.000229,0.049994,0.005425,0.016683,67.297165,8.32547,-147.498169,,,
729600844.079584,1.752825,0.513189,-4.30047,-0.008118,0.033783,1.000229,0.049994,0.005425,0.016683,67.297165,8.32547,-147.498169,,,
729600844.082963,1.76663,0.515388,-4.295192,-0.008118,0.033783,1.000229,0.049994,0.005425,0.016683,67.297165,8.32547,-147.498169,,,
729600844.08596,1.778522,0.525454,-4.288883,-0.006165,0.03389,0.996658,0.047703,0.026165,0.024911,67.297165,8.32547,-147.498169,,,
729600844.08961,1.778522,0.525454,-4.288883,-0.006165,0.03389,0.996658,0.047703,0.026165,0.024911,67.297165,8.32547,-147.498169,,,
729600844.092925,1.791417,0.532994,-4.281479,-0.006165,0.03389,0.996658,0.047703,0.026165,0.024911,67.297165,8.32547,-147.498169,,,
729600844.096238,1.801178,0.547794,-4.274026,-0.001923,0.038864,0.991226,0.04074,0.044552,0.026252,67.297165,8.32547,-147.498169,,,
729600844.099584,1.801178,0.547794,-4.274026,-0.001923,0.038864,0.991226,0.04074,0.044552,0.026252,67.297165,8.32547,-147.498169,,,
729600844.102655,1.813139,0.560909,-4.266091,-0.001923,0.038864,0.991226,0.04074,0.044552,0.026252,67.297165,8.32547,-147.498169,,,
729600844.106285,1.824084,0.582461,-4.258651,0.002945,0.042648,0.994064,0.048698,0.063018,0.024213,67.169128,8.335739,-147.392105,,,
729600844.109599,1.824084,0.582461,-4.258651,0.002945,0.042648,0.994064,0.048698,0.063018,0.024213,67.169128,8.335739,-147.392105,,,
729600844.112952,1.838554,0.599294,-4.251728,0.002945,0.042648,0.994064,0.048698,0.063018,0.024213,67.169128,8.335739,-147.392105,,,
729600844.116235,1.853259,0.621889,-4.24618,0.006943,0.042282,0.997528,0.060059,0.062127,0.016099,67.169128,8.335739,-147.392105,,,
729600844.119269,1.853259,0.621889,-4.24618,0.006943,0.042282,0.997528,0.060059,0.062127,0.016099,67.169128,8.335739,-147.392105,,,
729600844.122947,1.871167,0.639025,-4.241938,0.006943,0.042282,0.997528,0.060059,0.062127,0.016099,67.169128,8.335739,-147.392105,,,
729600844.126235,1.888395,0.660929,-4.239834,0.006424,0.039429,0.998215,0.064203,0.060642,0.00245,67.169128,8.335739,-147.392105,,,
729600844.129583,1.888395,0.660929,-4.239834,0.006424,0.039429,0.998215,0.064203,0.060642,0.00245,67.169128,8.335739,-147.392105,,,
729600844.13299,1.906458,0.677006,-4.239534,0.006424,0.039429,0.998215,0.064203,0.060642,0.00245,67.169128,8.335739,-147.392105,,,
729600844.135952,1.922593,0.694057,-4.240857,0.003967,0.040802,0.994125,0.061665,0.047541,-0.008221,67.169128,8.335739,-147.392105,,,
729600844.139609,1.922593,0.694057,-4.240857,0.003967,0.040802,0.994125,0.061665,0.047541,-0.008221,67.169128,8.335739,-147.392105,,,
729600844.14292,1.938517,0.704989,-4.243113,0.003967,0.040802,0.994125,0.061665,0.047541,-0.008221,67.169128,8.335739,-147.392105,,,
729600844.146239,1.951388,0.711651,-4.246236,-0.000259,0.042419,0.984665,0.045701,0.016875,-0.014456,67.415131,7.921204,-147.298752,,,
729600844.14959,1.951388,0.711651,-4.246236,-0.000259,0.042419,0.984665,0.045701,0.016875,-0.014456,67.415131,7.921204,-147.298752,,,
729600844.152613,1.962749,0.714015,-4.250292,-0.000259,0.042419,0.984665,0.045701,0.016875,-0.014456,67.415131,7.921204,-147.298752,,,
729600844.156284,1.971098,0.712577,-4.255461,-0.001373,0.037766,0.980377,0.025743,-0.001166,-0.022769,67.415131,7.921204,-147.298752,,,
729600844.159631,1.971098,0.712577,-4.255461,-0.001373,0.037766,0.980377,0.025743,-0.001166,-0.022769,67.415131,7.921204,-147.298752,,,
729600844.162913,1.97733,0.71059,-4.261722,-0.001373,0.037766,0.980377,0.025743,-0.001166,-0.022769,67.415131,7.921204,-147.298752,,,
729600844.166237,1.981512,0.705744,-4.268588,-0.004288,0.03569,0.983978,0.00996,-0.009352,-0.027581,67.415131,7.921204,-147.298752,,,
729600844.16928,1.981512,0.705744,-4.268588,-0.004288,0.03569,0.983978,0.00996,-0.009352,-0.027581,67.415131,7.921204,-147.298752,,,
729600844.172964,1.983419,0.701915,-4.276364,-0.004288,0.03569,0.983978,0.00996,-0.009352,-0.027581,67.415131,7.921204,-147.298752,,,
729600844.176236,1.985583,0.695353,-4.284452,-0.007263,0.033798,0.986938,0.002059,-0.009522,-0.030476,67.415131,7.921204,-147.298752,,,
729600844.179574,1.985583,0.695353,-4.284452,-0.007263,0.033798,0.986938,0.002059,-0.009522,-0.030476,67.415131,7.921204,-147.298752,,,
729600844.182955,1.985935,0.69321,-4.292547,-0.007263,0.033798,0.986938,0.002059,-0.009522,-0.030476,67.415131,7.921204,-147.298752,,,
729600844.185951,1.9876,0.690655,-4.299928,-0.007721,0.032272,0.993927,-0.001536,0.010934,-0.026352,67.366196,7.89328,-147.387634,,,
729600844.189656,1.9876,0.690655,-4.299928,-0.007721,0.032272,0.993927,-0.001536,0.010934,-0.026352,67.366196,7.89328,-147.387634,,,
729600844.192915,1.986741,0.694404,-4.306365,-0.007721,0.032272,0.993927,-0.001536,0.010934,-0.026352,67.366196,7.89328,-147.387634,,,
729600844.196249,1.987192,0.696196,-4.310602,-0.009003,0.032181,0.996506,-0.002225,0.028128,-0.012056,67.366196,7.89328,-147.387634,,,
729600844.19959,1.987192,0.696196,-4.310602,-0.009003,0.032181,0.996506,-0.002225,0.028128,-0.012056,67.366196,7.89328,-147.387634,,,
729600844.202618,1.985922,0.704724,-4.31279,-0.009003,0.032181,0.996506,-0.002225,0.028128,-0.012056,67.366196,7.89328,-147.387634,,,
729600844.206278,1.985922,0.711443,-4.312777,-0.013504,0.032135,0.9935,-0.000156,0.042586,0.002384,67.366196,7.89328,-147.387634,,,
729600844.209625,1.985922,0.711443,-4.312777,-0.013504,0.032135,0.9935,-0.000156,0.042586,0.002384,67.366196,7.89328,-147.387634,,,
729600844.212932,1.986606,0.723782,-4.311353,-0.013504,0.032135,0.9935,-0.000156,0.042586,0.002384,67.366196,7.89328,-147.387634,,,
729600844.216244,1.990829,0.734551,-4.3091,-0.012375,0.030762,1.000717,0.011857,0.055492,0.007504,67.366196,7.89328,-147.387634,,,
729600844.219358,1.990829,0.734551,-4.3091,-0.012375,0.030762,1.000717,0.011857,0.055492,0.007504,67.366196,7.89328,-147.387634,,,
729600844.222944,1.996093,0.74995,-4.306067,-0.012375,0.030762,1.000717,0.011857,0.055492,0.007504,67.366196,7.89328,-147.387634,,,
729600844.226243,2.005986,0.763336,-4.302765,-0.012238,0.030884,1.007614,0.033513,0.060271,0.008944,67.517761,7.849655,-147.584946,,,
729600844.229592,2.005986,0.763336,-4.302765,-0.012238,0.030884,1.007614,0.033513,0.060271,0.008944,67.517761,7.849655,-147.584946,,,
729600844.232979,2.017067,0.77907,-4.300409,-0.012238,0.030884,1.007614,0.033513,0.060271,0.008944,67.517761,7.849655,-147.584946,,,
729600844.235959,2.030555,0.790001,-4.2991,-0.013123,0.032486,1.006836,0.047427,0.04312,0.001236,67.517761,7.849655,-147.584946,,,
729600844.239611,2.030555,0.790001,-4.2991,-0.013123,0.032486,1.006836,0.047427,0.04312,0.001236,67.517761,7.849655,-147.584946,,,
729600844.242929,2.043215,0.799713,-4.299141,-0.013123,0.032486,1.006836,0.047427,0.04312,0.001236,67.517761,7.849655,-147.584946,,,
729600844.246245,2.05312,0.803871,-4.300491,-0.013397,0.037933,0.994278,0.027858,0.017984,-0.008608,67.517761,7.849655,-147.584946,,,
729600844.24959,2.05312,0.803871,-4.300491,-0.013397,0.037933,0.994278,0.027858,0.017984,-0.008608,67.517761,7.849655,-147.584946,,,
729600844.252619,2.059343,0.80623,-4.303428,-0.013397,0.037933,0.994278,0.027858,0.017984,-0.008608,67.517761,7.849655,-147.584946,,,
729600844.256295,2.061416,0.803157,-4.307499,-0.016647,0.041641,0.984131,0.003041,-0.01102,-0.017148,67.517761,7.849655,-147.584946,,,
729600844.259634,2.061416,0.803157,-4.307499,-0.016647,0.041641,0.984131,0.003041,-0.01102,-0.017148,67.517761,7.849655,-147.584946,,,
729600844.262929,2.059958,0.797632,-4.312635,-0.016647,0.041641,0.984131,0.003041,-0.01102,-0.017148,67.517761,7.849655,-147.584946,,,
729600844.266244,2.053702,0.787892,-4.317811,-0.02095,0.039139,0.979858,-0.025848,-0.031437,-0.018127,67.637253,7.889832,-147.5,,,
729600844.269301,2.053702,0.787892,-4.317811,-0.02095,0.039139,0.979858,-0.025848,-0.031437,-0.018127,67.637253,7.889832,-147.5,,,
729600844.272952,2.045415,0.776989,-4.322561,-0.02095,0.039139,0.979858,-0.025848,-0.031437,-0.018127,67.637253,7.889832,-147.5,,,
729600844.276243,2.03488,0.764301,-4.327392,-0.023056,0.033737,0.983566,-0.035326,-0.040021,-0.018944,67.637253,7.889832,-147.5,,,
729600844.279592,2.03488,0.764301,-4.327392,-0.023056,0.033737,0.983566,-0.035326,-0.040021,-0.018944,67.637253,7.889832,-147.5,,,
729600844.282978,2.024472,0.75257,-4.33159,-0.023056,0.033737,0.983566,-0.035326,-0.040021,-0.018944,67.637253,7.889832,-147.5,,,
729600844.285958,2.01335,0.742698,-4.334722,-0.01947,0.032104,0.99527,-0.03479,-0.026857,-0.011511,67.637253,7.889832,-147.5,,,
729600844.28962,2.01335,0.742698,-4.334722,-0.01947,0.032104,0.99527,-0.03479,-0.026857,-0.011511,67.637253,7.889832,-147.5,,,
729600844.292998,2.004331,0.736111,-4.336203,-0.01947,0.032104,0.99527,-0.03479,-0.026857,-0.011511,67.637253,7.889832,-147.5,,,
729600844.296238,1.996649,0.733182,-4.335584,-0.018799,0.026489,1.006836,-0.019946,0.00118,0.003243,67.637253,7.889832,-147.5,,,
729600844.29959,1.996649,0.733182,-4.335584,-0.018799,0.026489,1.006836,-0.019946,0.00118,0.003243,67.637253,7.889832,-147.5,,,
729600844.302634,1.99123,0.73434,-4.333563,-0.018799,0.026489,1.006836,-0.019946,0.00118,0.003243,67.637253,7.889832,-147.5,,,
729600844.306286,1.986188,0.738303,-4.329816,-0.021286,0.024094,1.00882,-0.009513,0.021578,0.015392,67.637253,7.889832,-147.5,,,
729600844.309572,1.986188,0.738303,-4.329816,-0.021286,0.024094,1.00882,-0.009513,0.021578,0.015392,67.476135,7.855652,-147.348984,,,
729600844.312934,1.983824,0.744818,-4.324015,-0.021286,0.024094,1.00882,-0.009513,0.021578,0.015392,67.476135,7.855652,-147.348984,,,
729600844.316242,1.982629,0.753992,-4.317099,-0.020203,0.025238,1.004913,0.000323,0.040008,0.023312,67.476135,7.855652,-147.348984,,,
729600844.319362,1.982629,0.753992,-4.317099,-0.020203,0.025238,1.004913,0.000323,0.040008,0.023312,67.476135,7.855652,-147.348984,,,
729600844.322938,1.983067,0.764571,-4.310421,-0.020203,0.025238,1.004913,0.000323,0.040008,0.023312,67.476135,7.855652,-147.348984,,,
729600844.326236,1.985152,0.774916,-4.304248,-0.017105,0.026978,1.005646,0.003626,0.036145,0.019951,67.476135,7.855652,-147.348984,,,
729600844.329655,1.985152,0.774916,-4.304248,-0.017105,0.026978,1.005646,0.003626,0.036145,0.019951,67.476135,7.855652,-147.348984,,,
729600844.332894,1.985168,0.783174,-4.298769,-0.017105,0.026978,1.005646,0.003626,0.036145,0.019951,67.476135,7.855652,-147.348984,,,
729600844.335952,1.985759,0.790835,-4.294119,-0.01799,0.027603,0.995636,-0.003657,0.024845,0.014339,67.476135,7.855652,-147.348984,,,
729600844.339609,1.985759,0.790835,-4.294119,-0.01799,0.027603,0.995636,-0.003657,0.024845,0.014339,67.476135,7.855652,-147.348984,,,
729600844.34293,1.983235,0.795822,-4.28985,-0.01799,0.027603,0.995636,-0.003657,0.024845,0.014339,67.476135,7.855652,-147.348984,,,
729600844.346245,1.978025,0.800195,-4.285759,-0.0224,0.031067,0.990189,-0.025739,0.006879,0.013242,67.476135,7.855652,-147.348984,,,
729600844.349579,1.978025,0.800195,-4.285759,-0.0224,0.031067,0.990189,-0.025739,0.006879,0.013242,67.466385,7.909637,-147.75293,,,
729600844.352621,1.968824,0.799807,-4.281613,-0.0224,0.031067,0.990189,-0.025739,0.006879,0.013242,67.466385,7.909637,-147.75293,,,
729600844.356281,1.956478,0.798066,-4.27776,-0.017654,0.032654,0.983643,-0.046326,-0.014343,0.011262,67.466385,7.909637,-147.75293,,,
729600844.35971,1.956478,0.798066,-4.27776,-0.017654,0.032654,0.983643,-0.046326,-0.014343,0.011262,67.466385,7.909637,-147.75293,,,
729600844.36294,1.942398,0.791495,-4.274099,-0.017654,0.032654,0.983643,-0.046326,-0.014343,0.011262,67.466385,7.909637,-147.75293,,,
729600844.366248,1.92681,0.783121,-4.270774,-0.016113,0.034821,0.985275,-0.050551,-0.034499,0.009152,67.466385,7.909637,-147.75293,,,
729600844.369341,1.92681,0.783121,-4.270774,-0.016113,0.034821,0.985275,-0.050551,-0.034499,0.009152,67.466385,7.909637,-147.75293,,,
729600844.372982,1.911997,0.771989,-4.268353,-0.016113,0.034821,0.985275,-0.050551,-0.034499,0.009152,67.466385,7.909637,-147.75293,,,
729600844.376241,1.895695,0.761682,-4.267011,-0.013412,0.030563,0.99675,-0.04859,-0.038738,0.002005,67.466385,7.909637,-147.75293,,,
729600844.379594,1.895695,0.761682,-4.267011,-0.013412,0.030563,0.99675,-0.04859,-0.038738,0.002005,67.466385,7.909637,-147.75293,,,
729600844.38299,1.882655,0.749357,-4.265617,-0.013412,0.030563,0.99675,-0.04859,-0.038738,0.002005,67.466385,7.909637,-147.75293,,,
729600844.385934,1.882655,0.749357,-4.265617,-0.012054,0.024918,1.000656,-0.032076,-0.045532,0.00027,67.466385,7.909637,-147.75293,,,
729600844.389648,1.870025,0.737751,-4.264564,-0.012054,0.024918,1.000656,-0.032076,-0.045532,0.00027,67.33194,8.249451,-147.555084,,,
729600844.392904,1.861576,0.723919,-4.263958,-0.012054,0.024918,1.000656,-0.032076,-0.045532,0.00027,67.33194,8.249451,-147.555084,,,
729600844.39624,1.853705,0.712086,-4.263589,-0.005707,0.025955,1.004517,-0.017617,-0.040837,-0.000864,67.33194,8.249451,-147.555084,,,
729600844.39959,1.853705,0.712086,-4.263589,-0.005707,0.025955,1.004517,-0.017617,-0.040837,-0.000864,67.33194,8.249451,-147.555084,,,
729600844.402612,1.849132,0.700569,-4.26318,-0.005707,0.025955,1.004517,-0.017617,-0.040837,-0.000864,67.33194,8.249451,-147.555084,,,
729600844.406279,1.843847,0.692274,-4.262017,-0.003143,0.027893,1.008163,-0.014528,-0.024135,0.00463,67.33194,8.249451,-147.555084,,,
729600844.409653,1.843847,0.692274,-4.262017,-0.003143,0.027893,1.008163,-0.014528,-0.024135,0.00463,67.33194,8.249451,-147.555084,,,
729600844.412923,1.839378,0.686561,-4.25952,-0.003143,0.027893,1.008163,-0.014528,-0.024135,0.00463,67.33194,8.249451,-147.555084,,,
729600844.416249,1.833755,0.686037,-4.256221,-0.004501,0.02713,1.006058,-0.018299,-0.000875,0.010597,67.33194,8.249451,-147.555084,,,
729600844.419307,1.833755,0.686037,-4.256221,-0.004501,0.02713,1.006058,-0.018299,-0.000875,0.010597,67.33194,8.249451,-147.555084,,,
729600844.422965,1.827423,0.686833,-4.252451,-0.004501,0.02713,1.006058,-0.018299,-0.000875,0.010597,67.33194,8.249451,-147.555084,,,
729600844.426238,1.819598,0.692784,-4.249247,0.000717,0.031189,0.999863,-0.028512,0.021954,0.006943,67.33194,8.249451,-147.555084,,,
729600844.429622,1.819598,0.692784,-4.249247,0.000717,0.031189,0.999863,-0.028512,0.021954,0.006943,67.33194,8.249451,-147.555084,,,
729600844.432909,1.809632,0.69896,-4.246935,0.000717,0.031189,0.999863,-0.028512,0.021954,0.006943,67.338547,7.94635,-147.44313,,,
729600844.435989,1.809632,0.69896,-4.246935,0.00116,0.033035,0.991928,-0.045643,0.029004,0.003955,67.338547,7.94635,-147.44313,,,
729600844.439285,1.797846,0.707343,-4.245056,0.00116,0.033035,0.991928,-0.045643,0.029004,0.003955,67.338547,7.94635,-147.44313,,,
729600844.442944,1.783292,0.713923,-4.244124,0.00116,0.033035,0.991928,-0.045643,0.029004,0.003955,67.338547,7.94635,-147.44313,,,
729600844.446238,1.767942,0.718812,-4.24442,-0.004929,0.032852,0.984497,-0.054701,0.013716,-0.004625,67.338547,7.94635,-147.44313,,,
729600844.44962,1.767942,0.718812,-4.24442,-0.004929,0.032852,0.984497,-0.054701,0.013716,-0.004625,67.338547,7.94635,-147.44313,,,
729600844.452619,1.751272,0.719858,-4.245904,-0.004929,0.032852,0.984497,-0.054701,0.013716,-0.004625,67.338547,7.94635,-147.44313,,,
729600844.456277,1.732815,0.717062,-4.248398,-0.007767,0.033646,0.982269,-0.063337,-0.013125,-0.011767,67.338547,7.94635,-147.44313,,,
729600844.459568,1.732815,0.717062,-4.248398,-0.007767,0.033646,0.982269,-0.063337,-0.013125,-0.011767,67.338547,7.94635,-147.44313,,,
729600844.463007,1.714626,0.710172,-4.251873,-0.007767,0.033646,0.982269,-0.063337,-0.013125,-0.011767,67.338547,7.94635,-147.44313,,,
729600844.466241,1.695282,0.69863,-4.256308,-0.008591,0.033691,0.9814,-0.062228,-0.043418,-0.018497,67.338547,7.94635,-147.44313,,,
729600844.469305,1.695282,0.69863,-4.256308,-0.008591,0.033691,0.9814,-0.062228,-0.043418,-0.018497,67.338547,7.94635,-147.44313,,,
729600844.472957,1.677433,0.683821,-4.26164,-0.008591,0.033691,0.9814,-0.062228,-0.043418,-0.018497,67.279663,8.239563,-147.516495,,,
729600844.476242,1.659661,0.665233,-4.267873,-0.010422,0.030075,0.987,-0.058482,-0.056242,-0.025089,67.279663,8.239563,-147.516495,,,
729600844.479597,1.659661,0.665233,-4.267873,-0.010422,0.030075,0.987,-0.058482,-0.056242,-0.025089,67.279663,8.239563,-147.516495,,,
729600844.482923,1.642884,0.648756,-4.275081,-0.010422,0.030075,0.987,-0.058482,-0.056242,-0.025089,67.279663,8.239563,-147.516495,,,
729600844.48596,1.642884,0.648756,-4.275081,-0.010422,0.030075,0.987,-0.058482,-0.056242,-0.025089,67.279663,8.239563,-147.516495,,,
729600844.489624,1.626511,0.631341,-4.282853,-0.007996,0.030197,0.993454,-0.051659,-0.052501,-0.029203,67.279663,8.239563,-147.516495,,,
729600844.492903,1.611609,0.615874,-4.290988,-0.007996,0.030197,0.993454,-0.051659,-0.052501,-0.029203,67.279663,8.239563,-147.516495,,,
729600844.496245,1.596846,0.600543,-4.299517,-0.000687,0.031662,0.995255,-0.050739,-0.039555,-0.032225,67.279663,8.239563,-147.516495,,,
729600844.499572,1.596846,0.600543,-4.299517,-0.000687,0.031662,0.995255,-0.050739,-0.039555,-0.032225,67.279663,8.239563,-147.516495,,,
729600844.502616,1.582255,0.590387,-4.308504,-0.000687,0.031662,0.995255,-0.050739,-0.039555,-0.032225,67.279663,8.239563,-147.516495,,,
729600844.506327,1.568085,0.581083,-4.317243,0.002472,0.030762,0.997665,-0.055415,-0.016733,-0.030936,67.279663,8.239563,-147.516495,,,
729600844.509579,1.568085,0.581083,-4.317243,0.002472,0.030762,0.997665,-0.055415,-0.016733,-0.030936,67.279663,8.239563,-147.516495,,,
729600844.512974,1.551557,0.576376,-4.325139,0.002472,0.030762,0.997665,-0.055415,-0.016733,-0.030936,67.161575,8.259628,-147.898407,,,
729600844.51624,1.551557,0.576376,-4.325139,-0.002884,0.031586,0.993378,-0.054378,-0.002479,-0.022253,67.161575,8.259628,-147.898407,,,
729600844.519305,1.536589,0.571691,-4.331738,-0.002884,0.031586,0.993378,-0.054378,-0.002479,-0.022253,67.161575,8.259628,-147.898407,,,
729600844.522944,1.521914,0.571494,-4.336659,-0.002884,0.031586,0.993378,-0.054378,-0.002479,-0.022253,67.161575,8.259628,-147.898407,,,
729600844.526231,1.510673,0.574058,-4.340779,-0.006073,0.028625,1.001007,-0.039846,0.021315,-0.016642,67.161575,8.259628,-147.898407,,,
729600844.529609,1.510673,0.574058,-4.340779,-0.006073,0.028625,1.001007,-0.039846,0.021315,-0.016642,67.161575,8.259628,-147.898407,,,
729600844.532935,1.50065,0.580365,-4.345395,-0.006073,0.028625,1.001007,-0.039846,0.021315,-0.016642,67.161575,8.259628,-147.898407,,,
729600844.535955,1.50065,0.580365,-4.345395,-0.006073,0.028625,1.001007,-0.039846,0.021315,-0.016642,67.161575,8.259628,-147.898407,,,
729600844.539613,1.495488,0.58618,-4.350313,-0.001602,0.027573,1.011856,-0.0188,0.021874,-0.018628,67.161575,8.259628,-147.898407,,,
729600844.542927,1.491826,0.592876,-4.355593,-0.001602,0.027573,1.011856,-0.0188,0.021874,-0.018628,67.161575,8.259628,-147.898407,,,
729600844.546251,1.491826,0.592876,-4.355593,-0.005524,0.025223,1.009842,0.012461,0.034259,-0.023201,67.161575,8.259628,-147.898407,,,
729600844.549579,1.494074,0.601295,-4.36157,-0.005524,0.025223,1.009842,0.012461,0.034259,-0.023201,67.161575,8.259628,-147.898407,,,
729600844.552614,1.498348,0.610822,-4.36839,-0.005524,0.025223,1.009842,0.012461,0.034259,-0.023201,67.44606,8.267715,-147.367844,,,
729600844.556271,1.498348,0.610822,-4.36839,-0.013916,0.022354,1.018417,0.028254,0.031055,-0.025499,67.44606,8.267715,-147.367844,,,
729600844.559369,1.505766,0.619908,-4.375559,-0.013916,0.022354,1.018417,0.028254,0.031055,-0.025499,67.44606,8.267715,-147.367844,,,
729600844.562933,1.513849,0.627644,-4.382523,-0.013916,0.022354,1.018417,0.028254,0.031055,-0.025499,67.44606,8.267715,-147.367844,,,
729600844.566272,1.513849,0.627644,-4.382523,-0.019638,0.021286,1.006577,0.032949,0.024661,-0.021142,67.44606,8.267715,-147.367844,,,
729600844.569296,1.523536,0.633185,-4.388835,-0.019638,0.021286,1.006577,0.032949,0.024661,-0.021142,67.44606,8.267715,-147.367844,,,
729600844.572948,1.53211,0.638953,-4.394473,-0.019638,0.021286,1.006577,0.032949,0.024661,-0.021142,67.44606,8.267715,-147.367844,,,
729600844.576234,1.53211,0.638953,-4.394473,-0.023697,0.026993,0.996735,0.024673,0.017436,-0.02224,67.44606,8.267715,-147.367844,,,
729600844.579642,1.54034,0.641065,-4.400182,-0.023697,0.026993,0.996735,0.024673,0.017436,-0.02224,67.44606,8.267715,-147.367844,,,
729600844.582915,1.546919,0.645003,-4.406543,-0.023697,0.026993,0.996735,0.024673,0.017436,-0.02224,67.44606,8.267715,-147.367844,,,
729600844.586237,1.546919,0.645003,-4.406543,-0.019241,0.030884,0.99472,0.018001,0.011876,-0.027992,67.44606,8.267715,-147.367844,,,
729600844.589576,1.553439,0.645486,-4.41365,-0.019241,0.030884,0.99472,0.018001,0.011876,-0.027992,67.44606,8.267715,-147.367844,,,
729600844.592913,1.55769,0.646669,-4.421777,-0.019241,0.030884,0.99472,0.018001,0.011876,-0.027992,67.44606,8.267715,-147.367844,,,
729600844.596227,1.55769,0.646669,-4.421777,-0.019241,0.030884,0.99472,0.010151,-0.00638,-0.029663,67.358673,8.24646,-147.730881,,,
729600844.599591,1.56165,0.644082,-4.430108,-0.022385,0.028259,0.990753,0.010151,-0.00638,-0.029663,67.358673,8.24646,-147.730881,,,
729600844.602614,1.56342,0.640795,-4.43825,-0.022385,0.028259,0.990753,0.010151,-0.00638,-0.029663,67.358673,8.24646,-147.730881,,,
729600844.606331,1.56342,0.640795,-4.43825,-0.025543,0.026382,0.989151,0.001172,-0.017454,-0.027329,67.358673,8.24646,-147.730881,,,
729600844.609585,1.563953,0.634344,-4.446005,-0.025543,0.026382,0.989151,0.001172,-0.017454,-0.027329,67.358673,8.24646,-147.730881,,,
729600844.612936,1.56363,0.6284,-4.453511,-0.025543,0.026382,0.989151,0.001172,-0.017454,-0.027329,67.358673,8.24646,-147.730881,,,
729600844.616293,1.56363,0.6284,-4.453511,-0.020462,0.027359,0.991348,0.000748,-0.012032,-0.028839,67.358673,8.24646,-147.730881,,,
729600844.61931,1.563133,0.621281,-4.461183,-0.020462,0.027359,0.991348,0.000748,-0.012032,-0.028839,67.358673,8.24646,-147.730881,,,
729600844.622949,1.56377,0.618577,-4.469549,-0.020462,0.027359,0.991348,0.000748,-0.012032,-0.028839,67.358673,8.24646,-147.730881,,,
729600844.626239,1.56377,0.618577,-4.469549,-0.020462,0.027359,0.991348,0.000748,-0.012032,-0.028839,67.358673,8.24646,-147.730881,,,
729600844.62965,1.565155,0.617871,-4.478552,-0.012497,0.027496,1.000671,0.012062,0.004391,-0.033157,67.358673,8.24646,-147.730881,,,
729600844.632913,1.569033,0.619844,-4.487421,-0.012497,0.027496,1.000671,0.012062,0.004391,-0.033157,67.358673,8.24646,-147.730881,,,
729600844.63592,1.569033,0.619844,-4.487421,-0.012497,0.027496,1.000671,0.012062,0.004391,-0.033157,67.445969,8.236832,-147.952515,,,
729600844.639622,1.572476,0.625743,-4.495314,-0.011246,0.027878,1.000336,0.017797,0.025212,-0.026132,67.445969,8.236832,-147.952515,,,
729600844.642901,1.577893,0.633485,-4.501292,-0.011246,0.027878,1.000336,0.017797,0.025212,-0.026132,67.445969,8.236832,-147.952515,,,
729600844.646272,1.577893,0.633485,-4.501292,-0.011246,0.027878,1.000336,0.017797,0.025212,-0.026132,67.445969,8.236832,-147.952515,,,
729600844.649591,1.582998,0.646248,-4.505406,-0.019394,0.027206,0.997772,0.022869,0.043831,-0.012674,67.445969,8.236832,-147.952515,,,
729600844.652623,1.589179,0.65859,-4.507793,-0.019394,0.027206,0.997772,0.022869,0.043831,-0.012674,67.445969,8.236832,-147.952515,,,
729600844.656389,1.589179,0.65859,-4.507793,-0.019394,0.027206,0.997772,0.0185,0.04957,0.000491,67.445969,8.236832,-147.952515,,,
729600844.659573,1.595228,0.674044,-4.50835,-0.020996,0.029434,0.991302,0.0185,0.04957,0.000491,67.445969,8.236832,-147.952515,,,
729600844.662913,1.600547,0.68802,-4.507444,-0.020996,0.029434,0.991302,0.0185,0.04957,0.000491,67.445969,8.236832,-147.952515,,,
729600844.666351,1.600547,0.68802,-4.507444,-0.020996,0.029434,0.991302,0.0185,0.04957,0.000491,67.445969,8.236832,-147.952515,,,
729600844.669313,1.606765,0.704245,-4.505209,-0.021988,0.032547,0.986282,0.020441,0.053975,0.010064,67.445969,8.236832,-147.952515,,,
729600844.672966,1.612593,0.717853,-4.502245,-0.021988,0.032547,0.986282,0.020441,0.053975,0.010064,67.445969,8.236832,-147.952515,,,
729600844.676285,1.612593,0.717853,-4.502245,-0.021988,0.032547,0.986282,0.020441,0.053975,0.010064,67.626083,8.202911,-147.544846,,,
729600844.679633,1.618306,0.732247,-4.499907,-0.019882,0.034393,0.98848,0.020593,0.040865,0.006228,67.626083,8.202911,-147.544846,,,
729600844.682914,1.623826,0.741537,-4.498288,-0.019882,0.034393,0.98848,0.020593,0.040865,0.006228,67.626083,8.202911,-147.544846,,,
729600844.686057,1.623826,0.741537,-4.498288,-0.019882,0.034393,0.98848,0.020593,0.040865,0.006228,67.626083,8.202911,-147.544846,,,
729600844.68967,1.628618,0.750524,-4.497488,-0.015549,0.037888,0.987167,0.017823,0.0215,0.001008,67.626083,8.202911,-147.544846,,,
729600844.692907,1.63277,0.754137,-4.497075,-0.015549,0.037888,0.987167,0.017823,0.0215,0.001008,67.626083,8.202911,-147.544846,,,
729600844.696333,1.63277,0.754137,-4.497075,-0.015549,0.037888,0.987167,0.017823,0.0215,0.001008,67.626083,8.202911,-147.544846,,,
729600844.699599,1.635051,0.756314,-4.496938,-0.019775,0.040421,0.984772,0.007024,0.004971,-0.000892,67.626083,8.202911,-147.544846,,,
729600844.702641,1.635125,0.755812,-4.496371,-0.019775,0.040421,0.984772,0.007024,0.004971,-0.000892,67.626083,8.202911,-147.544846,,,
729600844.706318,1.635125,0.755812,-4.496371,-0.019775,0.040421,0.984772,0.007024,0.004971,-0.000892,67.626083,8.202911,-147.544846,,,
729600844.709581,1.632136,0.752772,-4.495027,-0.019989,0.045502,0.97937,-0.012717,-0.009432,0.004157,67.626083,8.202911,-147.544846,,,
729600844.712911,1.627015,0.748276,-4.492919,-0.019989,0.045502,0.97937,-0.012717,-0.009432,0.004157,67.626083,8.202911,-147.544846,,,
729600844.716253,1.627015,0.748276,-4.492919,-0.019989,0.045502,0.97937,-0.012717,-0.009432,0.004157,67.638824,8.180298,-147.545242,,,
729600844.719297,1.619252,0.74248,-4.48976,-0.01358,0.045975,0.978317,-0.030542,-0.019155,0.011248,67.638824,8.180298,-147.545242,,,
729600844.722951,1.609282,0.736176,-4.486344,-0.01358,0.045975,0.978317,-0.030542,-0.019155,0.011248,67.638824,8.180298,-147.545242,,,
729600844.726295,1.609282,0.736176,-4.486344,-0.01358,0.045975,0.978317,-0.030542,-0.019155,0.011248,67.638824,8.180298,-147.545242,,,
729600844.729638,1.597168,0.731697,-4.483757,-0.003189,0.047302,0.983185,-0.042963,-0.017911,0.005626,67.638824,8.180298,-147.545242,,,
729600844.732904,1.58451,0.726636,-4.482028,-0.003189,0.047302,0.983185,-0.042963,-0.017911,0.005626,67.638824,8.180298,-147.545242,,,
729600844.735966,1.58451,0.726636,-4.482028,-0.003189,0.047302,0.983185,-0.042963,-0.017911,0.005626,67.638824,8.180298,-147.545242,,,
729600844.739613,1.573089,0.725224,-4.481658,0.001846,0.044678,0.989899,-0.040369,-0.004613,-0.003507,67.638824,8.180298,-147.545242,,,
729600844.742907,1.562158,0.722868,-4.481927,0.001846,0.044678,0.989899,-0.040369,-0.004613,-0.003507,67.638824,8.180298,-147.545242,,,
729600844.746275,1.562158,0.722868,-4.481927,0.001846,0.044678,0.989899,-0.040369,-0.004613,-0.003507,67.638824,8.180298,-147.545242,,,
729600844.74958,1.554168,0.723336,-4.481935,-0.000443,0.038559,1.002441,-0.029556,0.000221,-0.00116,67.638824,8.180298,-147.545242,,,
729600844.752624,1.54661,0.723136,-4.480936,-0.000443,0.038559,1.002441,-0.029556,0.000221,-0.00116,67.638824,8.180298,-147.545242,,,
729600844.7563,1.54661,0.723136,-4.480936,-0.000443,0.038559,1.002441,-0.029556,0.000221,-0.00116,67.638824,8.180298,-147.545242,,,
729600844.759574,1.544096,0.725548,-4.478349,-0.00882,0.028122,1.00914,-0.007069,0.01235,0.01036,67.491669,8.252808,-147.644867,,,
729600844.762909,1.542874,0.729216,-4.474057,-0.00882,0.028122,1.00914,-0.007069,0.01235,0.01036,67.491669,8.252808,-147.644867,,,
729600844.766382,1.542874,0.729216,-4.474057,-0.00882,0.028122,1.00914,-0.007069,0.01235,0.01036,67.491669,8.252808,-147.644867,,,
729600844.769301,1.546934,0.735342,-4.468472,-0.010956,0.020676,1.023193,0.01059,0.022894,0.019796,67.491669,8.252808,-147.644867,,,
729600844.772946,1.550902,0.742345,-4.461671,-0.010956,0.020676,1.023193,0.01059,0.022894,0.019796,67.491669,8.252808,-147.644867,,,
729600844.776314,1.550902,0.742345,-4.461671,-0.010956,0.020676,1.023193,0.01059,0.022894,0.019796,67.491669,8.252808,-147.644867,,,
729600844.77958,1.56026,0.752977,-4.454174,-0.013931,0.018204,1.024368,0.023745,0.037686,0.025119,67.491669,8.252808,-147.644867,,,
729600844.782915,1.566596,0.76348,-4.446497,-0.013931,0.018204,1.024368,0.023745,0.037686,0.025119,67.491669,8.252808,-147.644867,,,
729600844.785971,1.566596,0.76348,-4.446497,-0.013931,0.018204,1.024368,0.023745,0.037686,0.025119,67.491669,8.252808,-147.644867,,,
729600844.789639,1.577308,0.775428,-4.438775,-0.017853,0.019974,1.023438,0.024818,0.040493,0.025661,67.491669,8.252808,-147.644867,,,
729600844.792898,1.583959,0.785198,-4.43187,-0.017853,0.019974,1.023438,0.024818,0.040493,0.025661,67.491669,8.252808,-147.644867,,,
729600844.796245,1.583959,0.785198,-4.43187,-0.017853,0.019974,1.023438,0.024818,0.040493,0.025661,67.491669,8.252808,-147.644867,,,
729600844.799578,1.594402,0.792014,-4.425659,-0.017303,0.021347,1.016205,0.022732,0.025019,0.020662,67.543747,8.325806,-147.72998,,,
729600844.802627,1.601707,0.796962,-4.41962,-0.017303,0.021347,1.016205,0.022732,0.025019,0.020662,67.543747,8.325806,-147.72998,,,
729600844.806298,1.601707,0.796962,-4.41962,-0.017303,0.021347,1.016205,0.022732,0.025019,0.020662,67.543747,8.325806,-147.72998,,,
729600844.80957,1.615556,0.796799,-4.414094,-0.024048,0.019989,1.014374,0.039315,0.009339,0.016734,67.543747,8.325806,-147.72998,,,
729600844.812904,1.627922,0.797095,-4.408902,-0.024048,0.019989,1.014374,0.039315,0.009339,0.016734,67.543747,8.325806,-147.72998,,,
729600844.816334,1.627922,0.797095,-4.408902,-0.024048,0.019989,1.014374,0.039315,0.009339,0.016734,67.543747,8.325806,-147.72998,,,
729600844.819279,1.645879,0.791758,-4.4039,-0.02417,0.019211,1.018219,0.056289,-0.006699,0.014903,67.543747,8.325806,-147.72998,,,
729600844.82295,1.662502,0.788174,-4.399299,-0.02417,0.019211,1.018219,0.056289,-0.006699,0.014903,67.543747,8.325806,-147.72998,,,
729600844.826255,1.662502,0.788174,-4.399299,-0.02417,0.019211,1.018219,0.056289,-0.006699,0.014903,67.543747,8.325806,-147.72998,,,
729600844.829649,1.681418,0.782276,-4.394646,-0.01889,0.021622,1.016174,0.064084,-0.008413,0.015003,67.543747,8.325806,-147.72998,,,
729600844.832903,1.699761,0.779969,-4.390465,-0.01889,0.021622,1.016174,0.064084,-0.008413,0.015003,67.543747,8.325806,-147.72998,,,
729600844.83593,1.699761,0.779969,-4.390465,-0.01889,0.021622,1.016174,0.064084,-0.008413,0.015003,67.543747,8.325806,-147.72998,,,
729600844.839613,1.717351,0.779096,-4.38657,-0.017715,0.024704,1.013351,0.066761,0.006046,0.012927,67.326202,8.293961,-147.532578,,,
729600844.842902,1.736482,0.781433,-4.3823,-0.017715,0.024704,1.013351,0.066761,0.006046,0.012927,67.326202,8.293961,-147.532578,,,
729600844.846271,1.736482,0.781433,-4.3823,-0.017715,0.024704,1.013351,0.066761,0.006046,0.012927,67.326202,8.293961,-147.532578,,,
729600844.849593,1.753494,0.78613,-4.376758,-0.017197,0.026154,1.009506,0.06744,0.026734,0.021672,67.326202,8.293961,-147.532578,,,
729600844.852619,1.773144,0.79392,-4.369443,-0.017197,0.026154,1.009506,0.06744,0.026734,0.021672,67.326202,8.293961,-147.532578,,,
729600844.856275,1.773144,0.79392,-4.369443,-0.017197,0.026154,1.009506,0.06744,0.026734,0.021672,67.326202,8.293961,-147.532578,,,
729600844.859586,1.791523,0.804044,-4.360767,-0.020035,0.024368,1.00853,0.077025,0.039307,0.031452,67.326202,8.293961,-147.532578,,,
729600844.862901,1.813997,0.814272,-4.351286,-0.020035,0.024368,1.00853,0.077025,0.039307,0.031452,67.326202,8.293961,-147.532578,,,
729600844.866322,1.813997,0.814272,-4.351286,-0.020035,0.024368,1.00853,0.077025,0.039307,0.031452,67.326202,8.293961,-147.532578,,,
729600844.869565,1.834767,0.825394,-4.341491,-0.01564,0.02504,1.002899,0.08158,0.04208,0.033858,67.326202,8.293961,-147.532578,,,
729600844.872904,1.857855,0.836191,-4.332032,-0.01564,0.02504,1.002899,0.08158,0.04208,0.033858,67.326202,8.293961,-147.532578,,,
729600844.876073,1.857855,0.836191,-4.332032,-0.01564,0.02504,1.002899,0.08158,0.04208,0.033858,67.326202,8.293961,-147.532578,,,
729600844.879604,1.876925,0.847032,-4.322991,-0.014252,0.030151,0.99205,0.069732,0.035704,0.031011,67.446762,8.092438,-147.291534,,,
729600844.882908,1.895585,0.855636,-4.314223,-0.014252,0.030151,0.99205,0.069732,0.035704,0.031011,67.446762,8.092438,-147.291534,,,
729600844.886005,1.895585,0.855636,-4.314223,-0.014252,0.030151,0.99205,0.069732,0.035704,0.031011,67.446762,8.092438,-147.291534,,,
729600844.889609,1.907918,0.865549,-4.305827,-0.016876,0.034897,0.981033,0.046697,0.03003,0.028662,67.446762,8.092438,-147.291534,,,
729600844.892906,1.919928,0.871481,-4.297416,-0.016876,0.034897,0.981033,0.046697,0.03003,0.028662,67.446762,8.092438,-147.291534,,,
729600844.896244,1.919928,0.871481,-4.297416,-0.016876,0.034897,0.981033,0.046697,0.03003,0.028662,67.446762,8.092438,-147.291534,,,
729600844.899572,1.926045,0.87617,-4.288548,-0.016815,0.03627,0.972107,0.025115,0.011391,0.031863,67.446762,8.092438,-147.291534,,,
729600844.902614,1.932104,0.877429,-4.279013,-0.016815,0.03627,0.972107,0.025115,0.011391,0.031863,67.446762,8.092438,-147.291534,,,
729600844.906306,1.932104,0.877429,-4.279013,-0.016815,0.03627,0.972107,0.025115,0.011391,0.031863,67.446762,8.092438,-147.291534,,,
729600844.909574,1.933863,0.876925,-4.269328,-0.015045,0.037216,0.97049,0.012084,-0.005474,0.032852,67.446762,8.092438,-147.291534,,,
729600844.912876,1.936684,0.873874,-4.259791,-0.015045,0.037216,0.97049,0.012084,-0.005474,0.032852,67.446762,8.092438,-147.291534,,,
729600844.916314,1.936684,0.873874,-4.259791,-0.015045,0.037216,0.97049,0.012084,-0.005474,0.032852,67.446762,8.092438,-147.291534,,,
729600844.919292,1.936381,0.870347,-4.251087,-0.006866,0.040619,0.97374,0.0013,-0.011935,0.026982,67.446762,8.092438,-147.291534,,,
729600844.922673,1.935622,0.865903,-4.243512,-0.006866,0.040619,0.97374,0.0013,-0.011935,0.026982,67.564819,8.107254,-147.508545,,,
729600844.926298,1.935622,0.865903,-4.243512,-0.006866,0.040619,0.97374,0.0013,-0.011935,0.026982,67.564819,8.107254,-147.508545,,,
729600844.929667,1.931828,0.86149,-4.237268,-0.002304,0.04155,0.973633,-0.006963,-0.017206,0.017767,67.564819,8.107254,-147.508545,,,
729600844.932908,1.930016,0.855453,-4.231969,-0.002304,0.04155,0.973633,-0.006963,-0.017206,0.017767,67.564819,8.107254,-147.508545,,,
729600844.935979,1.930016,0.855453,-4.231969,-0.002304,0.04155,0.973633,-0.006963,-0.017206,0.017767,67.564819,8.107254,-147.508545,,,
729600844.939616,1.928063,0.851078,-4.227619,-0.004807,0.039902,0.979156,0.00574,-0.011162,0.011545,67.564819,8.107254,-147.508545,,,
729600844.942908,1.931016,0.847555,-4.224046,-0.004807,0.039902,0.979156,0.00574,-0.011162,0.011545,67.564819,8.107254,-147.508545,,,
729600844.946238,1.931016,0.847555,-4.224046,-0.004807,0.039902,0.979156,0.00574,-0.011162,0.011545,67.564819,8.107254,-147.508545,,,
729600844.949599,1.934108,0.845051,-4.220814,-0.000504,0.036423,0.992355,0.017114,-0.003245,0.009258,67.564819,8.107254,-147.508545,,,
729600844.952623,1.938744,0.843061,-4.21783,-0.000504,0.036423,0.992355,0.017114,-0.003245,0.009258,67.564819,8.107254,-147.508545,,,
729600844.956277,1.938744,0.843061,-4.21783,-0.000504,0.036423,0.992355,0.017114,-0.003245,0.009258,67.564819,8.107254,-147.508545,,,
729600844.959594,1.942911,0.842052,-4.214052,-0.002792,0.035568,0.986755,0.014707,0.002794,0.014789,67.564819,8.107254,-147.508545,,,
729600844.962916,1.94603,0.843403,-4.209485,-0.002792,0.035568,0.986755,0.014707,0.002794,0.014789,67.502289,8.012299,-148.025208,,,
729600844.966307,1.94603,0.843403,-4.209485,-0.002792,0.035568,0.986755,0.014707,0.002794,0.014789,67.502289,8.012299,-148.025208,,,
729600844.969321,1.948454,0.848158,-4.204811,-0.006607,0.036682,0.985535,0.006967,0.023079,0.015567,67.502289,8.012299,-148.025208,,,
729600844.972945,1.949911,0.855517,-4.199606,-0.006607,0.036682,0.985535,0.006967,0.023079,0.015567,67.502289,8.012299,-148.025208,,,
729600844.976252,1.949911,0.855517,-4.199606,-0.006607,0.036682,0.985535,0.006967,0.023079,0.015567,67.502289,8.012299,-148.025208,,,
729600844.979645,1.951297,0.866623,-4.194294,-0.001724,0.03598,0.994171,0.000912,0.045268,0.01633,67.502289,8.012299,-148.025208,,,
729600844.982896,1.95119,0.878883,-4.189383,-0.001724,0.03598,0.994171,0.000912,0.045268,0.01633,67.502289,8.012299,-148.025208,,,
729600844.985969,1.95119,0.878883,-4.189383,-0.001724,0.03598,0.994171,0.000912,0.045268,0.01633,67.502289,8.012299,-148.025208,,,
729600844.98961,1.951278,0.89119,-4.184792,-0.00354,0.032959,0.995865,-0.005829,0.049255,0.013838,67.502289,8.012299,-148.025208,,,
729600844.992905,1.94817,0.903993,-4.180508,-0.00354,0.032959,0.995865,-0.005829,0.049255,0.013838,67.502289,8.012299,-148.025208,,,
729600844.996255,1.94817,0.903993,-4.180508,-0.00354,0.032959,0.995865,-0.005829,0.049255,0.013838,67.502289,8.012299,-148.025208,,,
729600844.999584,1.943595,0.912942,-4.176498,-0.009232,0.033371,0.991425,-0.024834,0.037465,0.011118,67.502289,8.012299,-148.025208,,,
729600845.002636,1.934893,0.920695,-4.173366,-0.009232,0.033371,0.991425,-0.024834,0.037465,0.011118,67.592377,8.222748,-147.841293,,,
729600845.006314,1.934893,0.920695,-4.173366,-0.009232,0.033371,0.991425,-0.024834,0.037465,0.011118,67.592377,8.222748,-147.841293,,,
729600845.009576,1.926168,0.921564,-4.170691,-0.012756,0.033737,0.985748,-0.035125,0.003418,0.007308,67.592377,8.222748,-147.841293,,,
729600845.012908,1.915409,0.919071,-4.168251,-0.012756,0.033737,0.985748,-0.035125,0.003418,0.007308,67.592377,8.222748,-147.841293,,,
729600845.01634,1.915409,0.919071,-4.168251,-0.012756,0.033737,0.985748,-0.035125,0.003418,0.007308,67.592377,8.222748,-147.841293,,,
729600845.019286,1.904998,0.910974,-4.166678,-0.013657,0.034912,0.987274,-0.037999,-0.023765,0.000906,67.592377,8.222748,-147.841293,,,
729600845.022947,1.894354,0.901878,-4.166483,-0.013657,0.034912,0.987274,-0.037999,-0.023765,0.000906,67.592377,8.222748,-147.841293,,,
729600845.026231,1.894354,0.901878,-4.166483,-0.013657,0.034912,0.987274,-0.037999,-0.023765,0.000906,67.592377,8.222748,-147.841293,,,
729600845.029652,1.885093,0.888629,-4.167673,-0.01062,0.033722,0.996338,-0.031022,-0.036908,-0.009152,67.592377,8.222748,-147.841293,,,
729600845.032896,1.876159,0.876589,-4.170312,-0.01062,0.033722,0.996338,-0.031022,-0.036908,-0.009152,67.592377,8.222748,-147.841293,,,
729600845.035926,1.876159,0.876589,-4.170312,-0.01062,0.033722,0.996338,-0.031022,-0.036908,-0.009152,67.592377,8.222748,-147.841293,,,
729600845.039612,1.868654,0.862541,-4.173656,-0.00705,0.032837,1.000305,-0.024741,-0.041057,-0.014289,67.592377,8.222748,-147.841293,,,
729600845.042904,1.861654,0.85111,-4.17714,-0.00705,0.032837,1.000305,-0.024741,-0.041057,-0.014289,67.592377,8.222748,-147.841293,,,
729600845.046254,1.861654,0.85111,-4.17714,-0.00705,0.032837,1.000305,-0.024741,-0.041057,-0.014289,67.583466,8.146652,-147.752151,,,
729600845.049577,1.856472,0.839737,-4.180021,-0.006836,0.030487,1.004654,-0.018356,-0.027931,-0.010368,67.583466,8.146652,-147.752151,,,
729600845.05262,1.851758,0.832399,-4.181958,-0.006836,0.030487,1.004654,-0.018356,-0.027931,-0.010368,67.583466,8.146652,-147.752151,,,
729600845.056277,1.851758,0.832399,-4.181958,-0.006836,0.030487,1.004654,-0.018356,-0.027931,-0.010368,67.583466,8.146652,-147.752151,,,
729600845.059582,1.849169,0.825777,-4.182739,-0.008698,0.027802,1.01268,-0.007559,-0.00335,-0.00278,67.583466,8.146652,-147.752151,,,
729600845.062915,1.847811,0.824974,-4.182654,-0.008698,0.027802,1.01268,-0.007559,-0.00335,-0.00278,67.583466,8.146652,-147.752151,,,
729600845.066277,1.847811,0.824974,-4.182654,-0.008698,0.027802,1.01268,-0.007559,-0.00335,-0.00278,67.583466,8.146652,-147.752151,,,
729600845.069338,1.848455,0.824024,-4.181832,-0.010391,0.025726,1.016342,0.003768,0.008286,0.002128,67.583466,8.146652,-147.752151,,,
729600845.072952,1.849503,0.825742,-4.180578,-0.010391,0.025726,1.016342,0.003768,0.008286,0.002128,67.583466,8.146652,-147.752151,,,
729600845.076258,1.849503,0.825742,-4.180578,-0.010391,0.025726,1.016342,0.003768,0.008286,0.002128,67.583466,8.146652,-147.752151,,,
729600845.079669,1.850909,0.827639,-4.179295,-0.01329,0.027893,1.013168,0.005673,0.014086,0.002206,67.583466,8.146652,-147.752151,,,
729600845.082898,1.852357,0.831267,-4.178751,-0.01329,0.027893,1.013168,0.005673,0.014086,0.002206,67.583466,8.146652,-147.752151,,,
729600845.085925,1.852357,0.831267,-4.178751,-0.01329,0.027893,1.013168,0.005673,0.014086,0.002206,67.460388,8.242401,-147.937927,,,
729600845.089615,1.854088,0.834217,-4.178972,-0.013931,0.032333,1.011139,0.003899,0.010521,-0.003185,67.460388,8.242401,-147.937927,,,
