Time (sec),Pitch (deg),Roll (deg),Yaw(deg),X-Acceleration (g),Y-Acceleration (g),Z-Acceleration (g),Pitch Rate (deg/sec),Roll Rate (deg/sec),Yaw Rate (deg/sec),Magnetic Field in X direction (uT),Magnetic Field in Y direction (uT),Magnetic Field in Z Direction (uT),Latitude (deg),Longitude (deg),Altitude (m)
729608464.346974,0.797281,-1.936477,55.661722,0.035294,0.024368,0.98114,0.0502,-0.001708,-0.013375,61.932556,22.642532,-147.08284,,,
729608464.350185,0.810541,-1.936846,55.661722,0.035294,0.024368,0.98114,0.0502,-0.001708,-0.013375,61.932556,22.642532,-147.08284,,,
729608464.353523,0.823762,-1.937009,55.659093,0.040344,0.024277,0.98996,0.041012,0.020331,-0.011801,61.932556,22.642532,-147.08284,,,
729608464.356852,0.823762,-1.937009,55.659093,0.040344,0.024277,0.98996,0.041012,0.020331,-0.011801,61.705658,22.446121,-147.411423,,,
729608464.360243,0.835411,-1.931683,55.656994,0.040344,0.024277,0.98996,0.041012,0.020331,-0.011801,61.705658,22.446121,-147.411423,,,
729608464.36351,0.845612,-1.923414,55.655091,0.042313,0.024734,0.982574,0.034647,0.038801,-0.010796,61.705658,22.446121,-147.411423,,,
729608464.366844,0.845612,-1.923414,55.655091,0.042313,0.024734,0.982574,0.034647,0.038801,-0.010796,61.705658,22.446121,-147.411423,,,
729608464.370198,0.854563,-1.912853,55.653049,0.042313,0.024734,0.982574,0.034647,0.038801,-0.010796,61.705658,22.446121,-147.411423,,,
729608464.373528,0.85974,-1.895704,55.649867,0.044571,0.027939,0.98558,0.017123,0.053996,-0.017135,61.705658,22.446121,-147.411423,,,
729608464.376858,0.85974,-1.895704,55.649867,0.044571,0.027939,0.98558,0.017123,0.053996,-0.017135,61.705658,22.446121,-147.411423,,,
729608464.380196,0.863229,-1.880697,55.644835,0.044571,0.027939,0.98558,0.017123,0.053996,-0.017135,61.705658,22.446121,-147.411423,,,
729608464.38351,0.861879,-1.857833,55.638757,0.040497,0.027542,0.983643,-0.008213,0.066209,-0.02216,61.705658,22.446121,-147.411423,,,
729608464.386906,0.861879,-1.857833,55.638757,0.040497,0.027542,0.983643,-0.008213,0.066209,-0.02216,61.705658,22.446121,-147.411423,,,
729608464.390193,0.85929,-1.838739,55.632596,0.040497,0.027542,0.983643,-0.008213,0.066209,-0.02216,61.705658,22.446121,-147.411423,,,
729608464.393513,0.855015,-1.812796,55.626475,0.03154,0.023193,0.987518,-0.017908,0.078602,-0.020811,61.705658,22.446121,-147.411423,,,
729608464.396843,0.855015,-1.812796,55.626475,0.03154,0.023193,0.987518,-0.017908,0.078602,-0.020811,61.860809,22.399796,-147.0793,,,
729608464.40024,0.850093,-1.79115,55.62092,0.03154,0.023193,0.987518,-0.017908,0.078602,-0.020811,61.860809,22.399796,-147.0793,,,
729608464.403506,0.847277,-1.765647,55.61636,0.02327,0.016068,0.998276,-0.013563,0.078878,-0.01242,61.860809,22.399796,-147.0793,,,
729608464.406843,0.847277,-1.765647,55.61636,0.02327,0.016068,0.998276,-0.013563,0.078878,-0.01242,61.860809,22.399796,-147.0793,,,
729608464.410193,0.844025,-1.744791,55.613897,0.02327,0.016068,0.998276,-0.013563,0.078878,-0.01242,61.860809,22.399796,-147.0793,,,
729608464.413512,0.844792,-1.72474,55.61388,0.014084,0.003922,1.006409,0.004457,0.064483,0.002365,61.860809,22.399796,-147.0793,,,
729608464.416859,0.844792,-1.72474,55.61388,0.014084,0.003922,1.006409,0.004457,0.064483,0.002365,61.860809,22.399796,-147.0793,,,
729608464.420191,0.845565,-1.708214,55.616136,0.014084,0.003922,1.006409,0.004457,0.064483,0.002365,61.860809,22.399796,-147.0793,,,
729608464.423512,0.850811,-1.695206,55.620762,0.00296,-0.0056,1.009552,0.017196,0.042334,0.019231,61.860809,22.399796,-147.0793,,,
729608464.426932,0.850811,-1.695206,55.620762,0.00296,-0.0056,1.009552,0.017196,0.042334,0.019231,61.860809,22.399796,-147.0793,,,
729608464.430185,0.856173,-1.684937,55.627369,0.00296,-0.0056,1.009552,0.017196,0.042334,0.019231,61.860809,22.399796,-147.0793,,,
729608464.433509,0.865646,-1.681237,55.63505,0.00531,0.000259,1.010681,0.028209,0.020359,0.023557,61.860809,22.399796,-147.0793,,,
729608464.436837,0.865646,-1.681237,55.63505,0.00531,0.000259,1.010681,0.028209,0.020359,0.023557,62.029556,22.430481,-147.252686,,,
729608464.440256,0.873623,-1.677846,55.642834,0.00531,0.000259,1.010681,0.028209,0.020359,0.023557,62.029556,22.430481,-147.252686,,,
729608464.4435,0.883436,-1.67977,55.650555,0.016678,0.011627,1.005997,0.024569,0.004041,0.024662,62.029556,22.430481,-147.252686,,,
729608464.446865,0.883436,-1.67977,55.650555,0.016678,0.011627,1.005997,0.024569,0.004041,0.024662,62.029556,22.430481,-147.252686,,,
729608464.450196,0.890435,-1.679308,55.658409,0.016678,0.011627,1.005997,0.024569,0.004041,0.024662,62.029556,22.430481,-147.252686,,,
729608464.453507,0.900147,-1.683989,55.666339,0.025757,0.016953,1.003983,0.022909,-0.000643,0.028004,62.029556,22.430481,-147.252686,,,
729608464.456853,0.900147,-1.683989,55.666339,0.025757,0.016953,1.003983,0.022909,-0.000643,0.028004,62.029556,22.430481,-147.252686,,,
729608464.460195,0.90588,-1.685709,55.674651,0.025757,0.016953,1.003983,0.022909,-0.000643,0.028004,62.029556,22.430481,-147.252686,,,
729608464.463514,0.913537,-1.691851,55.683342,0.035583,0.015793,1.002014,0.014764,-0.003809,0.028808,62.029556,22.430481,-147.252686,,,
729608464.46689,0.913537,-1.691851,55.683342,0.035583,0.015793,1.002014,0.014764,-0.003809,0.028808,62.029556,22.430481,-147.252686,,,
729608464.470182,0.916415,-1.69347,55.69147,0.035583,0.015793,1.002014,0.014764,-0.003809,0.028808,62.029556,22.430481,-147.252686,,,
729608464.473522,0.920008,-1.695235,55.699027,0.044586,0.020294,0.998337,-0.001496,0.007897,0.022211,62.029556,22.430481,-147.252686,,,
729608464.476861,0.920008,-1.695235,55.699027,0.044586,0.020294,0.998337,-0.001496,0.007897,0.022211,62.029556,22.430481,-147.252686,,,
729608464.480241,0.918439,-1.693545,55.705763,0.044586,0.020294,0.998337,-0.001496,0.007897,0.022211,62.032883,22.321152,-147.49202,,,
729608464.483506,0.91507,-1.690258,55.712035,0.050003,0.026062,0.994308,-0.018181,0.014262,0.022782,62.032883,22.321152,-147.49202,,,
729608464.486853,0.91507,-1.690258,55.712035,0.050003,0.026062,0.994308,-0.018181,0.014262,0.022782,62.032883,22.321152,-147.49202,,,
729608464.490176,0.908559,-1.687107,55.718334,0.050003,0.026062,0.994308,-0.018181,0.014262,0.022782,62.032883,22.321152,-147.49202,,,
729608464.493512,0.898859,-1.67908,55.724873,0.046173,0.025284,0.995392,-0.031234,0.026481,0.022914,62.032883,22.321152,-147.49202,,,
729608464.496851,0.898859,-1.67908,55.724873,0.046173,0.025284,0.995392,-0.031234,0.026481,0.022914,62.032883,22.321152,-147.49202,,,
729608464.500195,0.889714,-1.672212,55.731635,0.046173,0.025284,0.995392,-0.031234,0.026481,0.022914,62.032883,22.321152,-147.49202,,,
729608464.50351,0.874845,-1.657612,55.737901,0.043381,0.022232,1.000687,-0.038857,0.034323,0.020061,62.032883,22.321152,-147.49202,,,
729608464.506912,0.874845,-1.657612,55.737901,0.043381,0.022232,1.000687,-0.038857,0.034323,0.020061,62.032883,22.321152,-147.49202,,,
729608464.510184,0.863664,-1.64908,55.743955,0.043381,0.022232,1.000687,-0.038857,0.034323,0.020061,62.032883,22.321152,-147.49202,,,
729608464.513514,0.845648,-1.634273,55.749588,0.03627,0.021973,0.993286,-0.049491,0.026261,0.021494,62.032883,22.321152,-147.49202,,,
729608464.516854,0.845648,-1.634273,55.749588,0.03627,0.021973,0.993286,-0.049491,0.026261,0.021494,62.032883,22.321152,-147.49202,,,
729608464.520239,0.830301,-1.628221,55.755619,0.03627,0.021973,0.993286,-0.049491,0.026261,0.021494,62.13591,22.481827,-147.717224,,,
729608464.523504,0.811613,-1.619897,55.762594,0.026947,0.018951,0.987686,-0.062026,0.010034,0.029046,62.13591,22.481827,-147.717224,,,
729608464.526848,0.811613,-1.619897,55.762594,0.026947,0.018951,0.987686,-0.062026,0.010034,0.029046,62.13591,22.481827,-147.717224,,,
729608464.530201,0.79348,-1.617367,55.770772,0.026947,0.018951,0.987686,-0.062026,0.010034,0.029046,62.13591,22.481827,-147.717224,,,
729608464.53351,0.773847,-1.614388,55.78002,0.020294,0.017075,0.989609,-0.078108,-0.002072,0.036018,62.13591,22.481827,-147.717224,,,
729608464.536849,0.773847,-1.614388,55.78002,0.020294,0.017075,0.989609,-0.078108,-0.002072,0.036018,62.13591,22.481827,-147.717224,,,
729608464.540204,0.75044,-1.616664,55.790384,0.020294,0.017075,0.989609,-0.078108,-0.002072,0.036018,62.13591,22.481827,-147.717224,,,
729608464.54351,0.725398,-1.624146,55.801719,0.018234,0.01683,0.986496,-0.092768,-0.025554,0.039882,62.13591,22.481827,-147.717224,,,
729608464.546908,0.725398,-1.624146,55.801719,0.018234,0.01683,0.986496,-0.092768,-0.025554,0.039882,62.13591,22.481827,-147.717224,,,
729608464.550184,0.698385,-1.634511,55.812814,0.018234,0.01683,0.986496,-0.092768,-0.025554,0.039882,62.13591,22.481827,-147.717224,,,
729608464.553517,0.672584,-1.65259,55.823128,0.018051,0.014572,0.994049,-0.089512,-0.057476,0.037415,62.13591,22.481827,-147.717224,,,
729608464.556888,0.672584,-1.65259,55.823128,0.018051,0.014572,0.994049,-0.089512,-0.057476,0.037415,62.13591,22.481827,-147.717224,,,
729608464.560244,0.64589,-1.67095,55.833276,0.018051,0.014572,0.994049,-0.089512,-0.057476,0.037415,62.122345,22.533905,-147.12381,,,
729608464.563503,0.622914,-1.697835,55.843768,0.019943,0.012177,1.007034,-0.087574,-0.076655,0.037098,62.122345,22.533905,-147.12381,,,
729608464.566856,0.622914,-1.697835,55.843768,0.019943,0.012177,1.007034,-0.087574,-0.076655,0.037098,62.122345,22.533905,-147.12381,,,
729608464.57019,0.596919,-1.720873,55.854106,0.019943,0.012177,1.007034,-0.087574,-0.076655,0.037098,62.122345,22.533905,-147.12381,,,
729608464.573312,0.575899,-1.749184,55.864848,0.024017,0.009644,1.0159,-0.081524,-0.076174,0.039979,62.122345,22.533905,-147.12381,,,
729608464.576879,0.575899,-1.749184,55.864848,0.024017,0.009644,1.0159,-0.081524,-0.076174,0.039979,62.122345,22.533905,-147.12381,,,
729608464.580193,0.552786,-1.771504,55.876265,0.024017,0.009644,1.0159,-0.081524,-0.076174,0.039979,62.122345,22.533905,-147.12381,,,
729608464.583515,0.535552,-1.795102,55.888388,0.029846,0.005798,1.02565,-0.066225,-0.059744,0.041893,62.122345,22.533905,-147.12381,,,
729608464.586863,0.535552,-1.795102,55.888388,0.029846,0.005798,1.02565,-0.066225,-0.059744,0.041893,62.122345,22.533905,-147.12381,,,
729608464.590197,0.517048,-1.811633,55.90062,0.029846,0.005798,1.02565,-0.066225,-0.059744,0.041893,62.122345,22.533905,-147.12381,,,
729608464.593511,0.503134,-1.826215,55.912406,0.035645,0.00415,1.032928,-0.053284,-0.02681,0.042674,62.122345,22.533905,-147.12381,,,
729608464.59684,0.503134,-1.826215,55.912406,0.035645,0.00415,1.032928,-0.053284,-0.02681,0.042674,62.122345,22.533905,-147.12381,,,
729608464.600223,0.487335,-1.833871,55.92435,0.035645,0.00415,1.032928,-0.053284,-0.02681,0.042674,61.924393,22.881958,-147.149109,,,
729608464.603537,0.47659,-1.837516,55.93702,0.036942,0.002945,1.034866,-0.042632,-0.00507,0.04613,61.924393,22.881958,-147.149109,,,
729608464.606877,0.47659,-1.837516,55.93702,0.036942,0.002945,1.034866,-0.042632,-0.00507,0.04613,61.924393,22.881958,-147.149109,,,
729608464.610275,0.464701,-1.839134,55.950181,0.036942,0.002945,1.034866,-0.042632,-0.00507,0.04613,61.924393,22.881958,-147.149109,,,
729608464.613624,0.456998,-1.836447,55.963459,0.03685,0.000473,1.033585,-0.03178,0.004877,0.047795,61.924393,22.881958,-147.149109,,,
729608464.616861,0.456998,-1.836447,55.963459,0.03685,0.000473,1.033585,-0.03178,0.004877,0.047795,61.924393,22.881958,-147.149109,,,
729608464.620195,0.447916,-1.836326,55.977225,0.03685,0.000473,1.033585,-0.03178,0.004877,0.047795,61.924393,22.881958,-147.149109,,,
729608464.623517,0.442687,-1.834446,55.990864,0.035736,0.003128,1.024994,-0.020936,-0.009313,0.042676,61.924393,22.881958,-147.149109,,,
729608464.626918,0.442687,-1.834446,55.990864,0.035736,0.003128,1.024994,-0.020936,-0.009313,0.042676,61.924393,22.881958,-147.149109,,,
729608464.630247,0.436279,-1.83914,56.003032,0.035736,0.003128,1.024994,-0.020936,-0.009313,0.042676,61.924393,22.881958,-147.149109,,,
729608464.633507,0.433371,-1.843051,56.012796,0.037872,0.009995,1.023087,-0.011696,-0.033578,0.027495,61.924393,22.881958,-147.149109,,,
729608464.636945,0.433371,-1.843051,56.012796,0.037872,0.009995,1.023087,-0.011696,-0.033578,0.027495,61.924393,22.881958,-147.149109,,,
729608464.64019,0.429823,-1.854845,56.020508,0.037872,0.009995,1.023087,-0.011696,-0.033578,0.027495,61.924393,22.881958,-147.149109,,,
729608464.643513,0.428665,-1.866046,56.026194,0.044312,0.013351,1.018219,-0.004772,-0.056803,0.01445,61.933975,22.877365,-147.247742,,,
729608464.646858,0.428665,-1.866046,56.026194,0.044312,0.013351,1.018219,-0.004772,-0.056803,0.01445,61.933975,22.877365,-147.247742,,,
729608464.650197,0.427065,-1.883446,56.030216,0.044312,0.013351,1.018219,-0.004772,-0.056803,0.01445,61.933975,22.877365,-147.247742,,,
729608464.653514,0.427244,-1.901052,56.033486,0.045776,0.01178,1.014236,0.000541,-0.071254,0.007793,61.933975,22.877365,-147.247742,,,
729608464.656924,0.427244,-1.901052,56.033486,0.045776,0.01178,1.014236,0.000541,-0.071254,0.007793,61.933975,22.877365,-147.247742,,,
729608464.660178,0.427339,-1.922671,56.036157,0.045776,0.01178,1.014236,0.000541,-0.071254,0.007793,61.933975,22.877365,-147.247742,,,
729608464.66351,0.427939,-1.942269,56.038088,0.048584,0.007095,1.009079,0.003341,-0.067665,0.005908,61.933975,22.877365,-147.247742,,,
729608464.666855,0.427939,-1.942269,56.038088,0.048584,0.007095,1.009079,0.003341,-0.067665,0.005908,61.933975,22.877365,-147.247742,,,
729608464.670194,0.428882,-1.962327,56.039883,0.048584,0.007095,1.009079,0.003341,-0.067665,0.005908,61.933975,22.877365,-147.247742,,,
729608464.673536,0.430109,-1.982013,56.042034,0.049622,0.004288,1.011703,0.011074,-0.062279,0.005388,61.933975,22.877365,-147.247742,,,
729608464.676924,0.430109,-1.982013,56.042034,0.049622,0.004288,1.011703,0.011074,-0.062279,0.005388,61.933975,22.877365,-147.247742,,,
729608464.680188,0.432993,-2.001088,56.04441,0.049622,0.004288,1.011703,0.011074,-0.062279,0.005388,61.933975,22.877365,-147.247742,,,
729608464.683515,0.436668,-2.018859,56.047108,0.049377,0.001404,1.009567,0.019548,-0.055927,0.005276,61.753021,22.924545,-147.011551,,,
729608464.686854,0.436668,-2.018859,56.047108,0.049377,0.001404,1.009567,0.019548,-0.055927,0.005276,61.753021,22.924545,-147.011551,,,
729608464.690243,0.442221,-2.035603,56.049761,0.049377,0.001404,1.009567,0.019548,-0.055927,0.005276,61.753021,22.924545,-147.011551,,,
729608464.6935,0.447492,-2.052149,56.051756,0.051315,0.001083,1.005783,0.024511,-0.052778,0.001707,61.753021,22.924545,-147.011551,,,
729608464.696856,0.447492,-2.052149,56.051756,0.051315,0.001083,1.005783,0.024511,-0.052778,0.001707,61.753021,22.924545,-147.011551,,,
729608464.700192,0.454152,-2.068325,56.052386,0.051315,0.001083,1.005783,0.024511,-0.052778,0.001707,61.753021,22.924545,-147.011551,,,
729608464.703504,0.459592,-2.082762,56.051873,0.052551,0.008011,1.002304,0.023144,-0.04474,-0.005398,61.753021,22.924545,-147.011551,,,
729608464.706843,0.459592,-2.082762,56.051873,0.052551,0.008011,1.002304,0.023144,-0.04474,-0.005398,61.753021,22.924545,-147.011551,,,
729608464.710186,0.465609,-2.096005,56.050799,0.052551,0.008011,1.002304,0.023144,-0.04474,-0.005398,61.753021,22.924545,-147.011551,,,
729608464.713504,0.470731,-2.107495,56.048807,0.052048,0.010483,1.000366,0.016895,-0.030265,-0.008282,61.753021,22.924545,-147.011551,,,
729608464.71692,0.470731,-2.107495,56.048807,0.052048,0.010483,1.000366,0.016895,-0.030265,-0.008282,61.753021,22.924545,-147.011551,,,
729608464.720188,0.475184,-2.117129,56.046088,0.052048,0.010483,1.000366,0.016895,-0.030265,-0.008282,61.753021,22.924545,-147.011551,,,
729608464.723514,0.479564,-2.12493,56.042896,0.048279,0.013565,1.000153,0.011359,-0.013731,-0.019969,61.623459,22.934662,-147.072083,,,
729608464.726848,0.479564,-2.12493,56.042896,0.048279,0.013565,1.000153,0.011359,-0.013731,-0.019969,61.623459,22.934662,-147.072083,,,
729608464.730241,0.482879,-2.129687,56.037828,0.048279,0.013565,1.000153,0.011359,-0.013731,-0.019969,61.623459,22.934662,-147.072083,,,
729608464.733494,0.485873,-2.134938,56.030392,0.047318,0.01506,0.996902,0.004326,-0.010554,-0.029708,61.623459,22.934662,-147.072083,,,
729608464.73685,0.485873,-2.134938,56.030392,0.047318,0.01506,0.996902,0.004326,-0.010554,-0.029708,61.623459,22.934662,-147.072083,,,
729608464.740188,0.48691,-2.139407,56.022275,0.047318,0.01506,0.996902,0.004326,-0.010554,-0.029708,61.623459,22.934662,-147.072083,,,
729608464.74351,0.486955,-2.146541,56.014358,0.040649,0.012604,0.986542,0.000102,-0.02229,-0.027947,61.623459,22.934662,-147.072083,,,
729608464.746837,0.486955,-2.146541,56.014358,0.040649,0.012604,0.986542,0.000102,-0.02229,-0.027947,61.623459,22.934662,-147.072083,,,
729608464.750196,0.486421,-2.154352,56.007378,0.040649,0.012604,0.986542,0.000102,-0.02229,-0.027947,61.623459,22.934662,-147.072083,,,
729608464.75351,0.485061,-2.167292,56.001254,0.031342,0.008545,0.98175,-0.001563,-0.04073,-0.019449,61.623459,22.934662,-147.072083,,,
729608464.756896,0.485061,-2.167292,56.001254,0.031342,0.008545,0.98175,-0.001563,-0.04073,-0.019449,61.623459,22.934662,-147.072083,,,
729608464.760175,0.485092,-2.180668,55.995399,0.031342,0.008545,0.98175,-0.001563,-0.04073,-0.019449,61.623459,22.934662,-147.072083,,,
729608464.76351,0.485584,-2.200222,55.990542,0.028595,0.006592,0.983627,0.014657,-0.063779,-0.013076,61.402908,22.843109,-147.132187,,,
729608464.766847,0.485584,-2.200222,55.990542,0.028595,0.006592,0.983627,0.014657,-0.063779,-0.013076,61.402908,22.843109,-147.132187,,,
729608464.770205,0.490815,-2.220105,55.987418,0.028595,0.006592,0.983627,0.014657,-0.063779,-0.013076,61.402908,22.843109,-147.132187,,,
729608464.77352,0.496108,-2.246042,55.985187,0.022949,0.002457,0.986206,0.028373,-0.083167,-0.008086,61.402908,22.843109,-147.132187,,,
729608464.776869,0.496108,-2.246042,55.985187,0.022949,0.002457,0.986206,0.028373,-0.083167,-0.008086,61.402908,22.843109,-147.132187,,,
729608464.780259,0.504007,-2.270396,55.983886,0.022949,0.002457,0.986206,0.028373,-0.083167,-0.008086,61.402908,22.843109,-147.132187,,,
729608464.783505,0.510322,-2.297664,55.983302,0.024307,0.004578,0.984955,0.02218,-0.070698,-0.005225,61.402908,22.843109,-147.132187,,,
729608464.786867,0.510322,-2.297664,55.983302,0.024307,0.004578,0.984955,0.02218,-0.070698,-0.005225,61.402908,22.843109,-147.132187,,,
729608464.790198,0.515726,-2.318574,55.98229,0.024307,0.004578,0.984955,0.02218,-0.070698,-0.005225,61.402908,22.843109,-147.132187,,,
729608464.793505,0.519125,-2.339752,55.980946,0.031387,0.010666,0.98909,0.006713,-0.050708,-0.005774,61.402908,22.843109,-147.132187,,,
729608464.796856,0.519125,-2.339752,55.980946,0.031387,0.010666,0.98909,0.006713,-0.050708,-0.005774,61.402908,22.843109,-147.132187,,,
729608464.800178,0.52065,-2.354381,55.979739,0.031387,0.010666,0.98909,0.006713,-0.050708,-0.005774,61.402908,22.843109,-147.132187,,,
729608464.803514,0.522057,-2.369957,55.979734,0.032257,0.015137,0.991135,-0.002345,-0.041259,0.000222,61.402908,22.843109,-147.132187,,,
729608464.806919,0.522057,-2.369957,55.979734,0.032257,0.015137,0.991135,-0.002345,-0.041259,0.000222,61.296463,22.759323,-147.303558,,,
729608464.81017,0.520499,-2.382225,55.980498,0.032257,0.015137,0.991135,-0.002345,-0.041259,0.000222,61.296463,22.759323,-147.303558,,,
729608464.813511,0.518233,-2.394898,55.981938,0.027985,0.009872,0.992279,-0.015242,-0.030924,0.005839,61.296463,22.759323,-147.303558,,,
729608464.81685,0.518233,-2.394898,55.981938,0.027985,0.009872,0.992279,-0.015242,-0.030924,0.005839,61.296463,22.759323,-147.303558,,,
729608464.820239,0.513559,-2.404606,55.983944,0.027985,0.009872,0.992279,-0.015242,-0.030924,0.005839,61.296463,22.759323,-147.303558,,,
729608464.823498,0.509818,-2.414653,55.986394,0.030746,0.007904,0.994293,-0.012955,-0.032035,0.009364,61.296463,22.759323,-147.303558,,,
729608464.826868,0.509818,-2.414653,55.986394,0.030746,0.007904,0.994293,-0.012955,-0.032035,0.009364,61.296463,22.759323,-147.303558,,,
729608464.830185,0.505813,-2.425237,55.989618,0.030746,0.007904,0.994293,-0.012955,-0.032035,0.009364,61.296463,22.759323,-147.303558,,,
729608464.833579,0.504369,-2.435488,55.993141,0.034088,0.0065,0.995178,-0.001562,-0.04472,0.01011,61.296463,22.759323,-147.303558,,,
729608464.83685,0.504369,-2.435488,55.993141,0.034088,0.0065,0.995178,-0.001562,-0.04472,0.01011,61.296463,22.759323,-147.303558,,,
729608464.840169,0.5044,-2.449422,55.996317,0.034088,0.0065,0.995178,-0.001562,-0.04472,0.01011,61.296463,22.759323,-147.303558,,,
729608464.843505,0.506023,-2.461135,55.998662,0.038513,0.00647,0.993317,0.012616,-0.051761,0.00464,61.296463,22.759323,-147.303558,,,
729608464.84668,0.506023,-2.461135,55.998662,0.038513,0.00647,0.993317,0.012616,-0.051761,0.00464,61.268707,22.888336,-147.226364,,,
729608464.850218,0.510078,-2.476804,56.000271,0.038513,0.00647,0.993317,0.012616,-0.051761,0.00464,61.268707,22.888336,-147.226364,,,
729608464.853513,0.513729,-2.487305,56.001708,0.041534,0.011093,0.992706,0.018338,-0.048845,0.002507,61.268707,22.888336,-147.226364,,,
729608464.856841,0.513729,-2.487305,56.001708,0.041534,0.011093,0.992706,0.018338,-0.048845,0.002507,61.268707,22.888336,-147.226364,,,
729608464.86018,0.518654,-2.501674,56.003464,0.041534,0.011093,0.992706,0.018338,-0.048845,0.002507,61.268707,22.888336,-147.226364,,,
729608464.863516,0.521508,-2.508991,56.006298,0.040573,0.011093,0.990982,0.010433,-0.041538,0.008692,61.268707,22.888336,-147.226364,,,
729608464.866843,0.521508,-2.508991,56.006298,0.040573,0.011093,0.990982,0.010433,-0.041538,0.008692,61.268707,22.888336,-147.226364,,,
729608464.870243,0.524313,-2.520636,56.01037,0.040573,0.011093,0.990982,0.010433,-0.041538,0.008692,61.268707,22.888336,-147.226364,,,
729608464.873506,0.525513,-2.526479,56.013978,0.037842,0.010452,0.988739,0.003212,-0.025875,0.009123,61.268707,22.888336,-147.226364,,,
729608464.876848,0.525513,-2.526479,56.013978,0.037842,0.010452,0.988739,0.003212,-0.025875,0.009123,61.268707,22.888336,-147.226364,,,
729608464.880177,0.526099,-2.534039,56.017137,0.037842,0.010452,0.988739,0.003212,-0.025875,0.009123,61.268707,22.888336,-147.226364,,,
729608464.88352,0.52731,-2.536887,56.020436,0.040482,0.012924,0.988235,-0.003402,-0.01551,0.006178,61.268707,22.888336,-147.226364,,,
729608464.886841,0.52731,-2.536887,56.020436,0.040482,0.012924,0.988235,-0.003402,-0.01551,0.006178,61.015274,23.017395,-147.286804,,,
729608464.890176,0.525546,-2.542386,56.023641,0.040482,0.012924,0.988235,-0.003402,-0.01551,0.006178,61.015274,23.017395,-147.286804,,,
729608464.893514,0.524374,-2.542672,56.028058,0.038956,0.0103,0.990677,-0.006119,-0.006946,0.020282,61.015274,23.017395,-147.286804,,,
729608464.896918,0.524374,-2.542672,56.028058,0.038956,0.0103,0.990677,-0.006119,-0.006946,0.020282,61.015274,23.017395,-147.286804,,,
729608464.900183,0.523329,-2.545493,56.034208,0.038956,0.0103,0.990677,-0.006119,-0.006946,0.020282,61.015274,23.017395,-147.286804,,,
729608464.903511,0.523829,-2.543337,56.040719,0.037933,0.003494,0.999329,0.010725,-0.002939,0.022811,61.015274,23.017395,-147.286804,,,
729608464.906848,0.523829,-2.543337,56.040719,0.037933,0.003494,0.999329,0.010725,-0.002939,0.022811,61.015274,23.017395,-147.286804,,,
729608464.910288,0.526323,-2.54537,56.047056,0.037933,0.003494,0.999329,0.010725,-0.002939,0.022811,61.015274,23.017395,-147.286804,,,
729608464.913507,0.529589,-2.545538,56.052378,0.042191,0.007324,0.99649,0.017965,-0.010121,0.011642,61.015274,23.017395,-147.286804,,,
729608464.916864,0.529589,-2.545538,56.052378,0.042191,0.007324,0.99649,0.017965,-0.010121,0.011642,61.015274,23.017395,-147.286804,,,
729608464.920175,0.534584,-2.549908,56.056205,0.042191,0.007324,0.99649,0.017965,-0.010121,0.011642,61.015274,23.017395,-147.286804,,,
729608464.923507,0.538783,-2.552568,56.058969,0.044418,0.012009,0.992386,0.021963,-0.011198,0.005199,61.015274,23.017395,-147.286804,,,
729608464.926837,0.538783,-2.552568,56.058969,0.044418,0.012009,0.992386,0.021963,-0.011198,0.005199,60.999847,22.996689,-147.188065,,,
729608464.93019,0.54446,-2.556157,56.061976,0.044418,0.012009,0.992386,0.021963,-0.011198,0.005199,60.999847,22.996689,-147.188065,,,
729608464.933506,0.55048,-2.556775,56.065498,0.041412,0.014084,0.995499,0.01985,-0.000899,0.009193,60.999847,22.996689,-147.188065,,,
729608464.936919,0.55048,-2.556775,56.065498,0.041412,0.014084,0.995499,0.01985,-0.000899,0.009193,60.999847,22.996689,-147.188065,,,
729608464.940185,0.555635,-2.558183,56.069546,0.041412,0.014084,0.995499,0.01985,-0.000899,0.009193,60.999847,22.996689,-147.188065,,,
729608464.943505,0.560153,-2.5594,56.073953,0.044998,0.0103,0.989105,0.011372,-0.005897,0.011749,60.999847,22.996689,-147.188065,,,
729608464.946859,0.560153,-2.5594,56.073953,0.044998,0.0103,0.989105,0.011372,-0.005897,0.011749,60.999847,22.996689,-147.188065,,,
729608464.950252,0.562318,-2.561673,56.078253,0.044998,0.0103,0.989105,0.011372,-0.005897,0.011749,60.999847,22.996689,-147.188065,,,
729608464.953505,0.563678,-2.561896,56.081621,0.049545,0.011719,0.983154,0.005539,-0.001252,0.008582,60.999847,22.996689,-147.188065,,,
729608464.956855,0.563678,-2.561896,56.081621,0.049545,0.011719,0.983154,0.005539,-0.001252,0.008582,60.999847,22.996689,-147.188065,,,
729608464.960182,0.564176,-2.562741,56.08381,0.049545,0.011719,0.983154,0.005539,-0.001252,0.008582,60.999847,22.996689,-147.188065,,,
729608464.963507,0.564278,-2.562236,56.085775,0.049088,0.015671,0.993088,-0.000234,-0.003866,0.005033,60.999847,22.996689,-147.188065,,,
729608464.966837,0.564278,-2.562236,56.085775,0.049088,0.015671,0.993088,-0.000234,-0.003866,0.005033,60.999847,22.996689,-147.188065,,,
729608464.970165,0.563952,-2.564894,56.087566,0.049088,0.015671,0.993088,-0.000234,-0.003866,0.005033,61.026489,23.164246,-146.85347,,,
729608464.973513,0.563869,-2.568781,56.08908,0.04776,0.014359,0.984055,-0.005207,-0.022102,0.006915,61.026489,23.164246,-146.85347,,,
729608464.97664,0.563869,-2.568781,56.08908,0.04776,0.014359,0.984055,-0.005207,-0.022102,0.006915,61.026489,23.164246,-146.85347,,,
729608464.980205,0.562074,-2.575071,56.091107,0.04776,0.014359,0.984055,-0.005207,-0.022102,0.006915,61.026489,23.164246,-146.85347,,,
729608464.983538,0.557962,-2.579924,56.093631,0.045197,0.011551,0.984009,-0.014728,-0.020014,0.008537,61.026489,23.164246,-146.85347,,,
729608464.986851,0.557962,-2.579924,56.093631,0.045197,0.011551,0.984009,-0.014728,-0.020014,0.008537,61.026489,23.164246,-146.85347,,,
729608464.990253,0.553593,-2.587136,56.096692,0.045197,0.011551,0.984009,-0.014728,-0.020014,0.008537,61.026489,23.164246,-146.85347,,,
729608464.993501,0.553593,-2.587136,56.096692,0.04126,0.008286,0.985107,-0.016875,-0.027676,0.019595,61.026489,23.164246,-146.85347,,,
729608464.996872,0.546923,-2.593847,56.100998,0.04126,0.008286,0.985107,-0.016875,-0.027676,0.019595,61.026489,23.164246,-146.85347,,,
729608465.00019,0.541576,-2.603276,56.106612,0.04126,0.008286,0.985107,-0.016875,-0.027676,0.019595,61.026489,23.164246,-146.85347,,,
729608465.003627,0.537161,-2.613632,56.112692,0.043213,0.007431,0.985001,-0.012695,-0.039427,0.020867,61.026489,23.164246,-146.85347,,,
729608465.006843,0.537161,-2.613632,56.112692,0.043213,0.007431,0.985001,-0.012695,-0.039427,0.020867,61.026489,23.164246,-146.85347,,,
729608465.010109,0.533292,-2.625848,56.11852,0.043213,0.007431,0.985001,-0.012695,-0.039427,0.020867,60.967575,23.041794,-147.115662,,,
729608465.013524,0.533292,-2.625848,56.11852,0.048569,0.006546,0.994431,-0.006043,-0.042352,0.010347,60.967575,23.041794,-147.115662,,,
729608465.016837,0.531646,-2.638191,56.123393,0.048569,0.006546,0.994431,-0.006043,-0.042352,0.010347,60.967575,23.041794,-147.115662,,,
729608465.020171,0.529294,-2.651021,56.126216,0.048569,0.006546,0.994431,-0.006043,-0.042352,0.010347,60.967575,23.041794,-147.115662,,,
729608465.023536,0.529294,-2.651021,56.126216,0.048569,0.006546,0.994431,-0.001893,-0.031077,-0.00065,60.967575,23.041794,-147.115662,,,
729608465.026912,0.528124,-2.661745,56.126989,0.057358,0.010254,0.997437,-0.001893,-0.031077,-0.00065,60.967575,23.041794,-147.115662,,,
729608465.030166,0.526682,-2.670948,56.12678,0.057358,0.010254,0.997437,-0.001893,-0.031077,-0.00065,60.967575,23.041794,-147.115662,,,
729608465.033507,0.526682,-2.670948,56.12678,0.059326,0.011078,1.000519,-0.008306,-0.009857,-0.000318,60.967575,23.041794,-147.115662,,,
729608465.036859,0.525187,-2.677342,56.126729,0.059326,0.011078,1.000519,-0.008306,-0.009857,-0.000318,60.967575,23.041794,-147.115662,,,
729608465.040174,0.523122,-2.679366,56.127056,0.059326,0.011078,1.000519,-0.008306,-0.009857,-0.000318,60.967575,23.041794,-147.115662,,,
729608465.043586,0.523122,-2.679366,56.127056,0.059326,0.011078,1.000519,-0.008306,-0.009857,-0.000318,60.967575,23.041794,-147.115662,,,
729608465.046854,0.52206,-2.678998,56.127904,0.056549,0.00824,1.002884,-0.004562,0.013716,0.003318,60.967575,23.041794,-147.115662,,,
729608465.050167,0.520096,-2.675183,56.129174,0.056549,0.00824,1.002884,-0.004562,0.013716,0.003318,60.947159,23.158203,-147.199127,,,
729608465.053552,0.520096,-2.675183,56.129174,0.056549,0.00824,1.002884,-0.000897,0.024804,-0.004367,60.947159,23.158203,-147.199127,,,
729608465.056848,0.52062,-2.670628,56.129406,0.055222,0.005676,1.003235,-0.000897,0.024804,-0.004367,60.947159,23.158203,-147.199127,,,
729608465.060182,0.520574,-2.66515,56.12818,0.055222,0.005676,1.003235,-0.000897,0.024804,-0.004367,60.947159,23.158203,-147.199127,,,
729608465.063565,0.520574,-2.66515,56.12818,0.055222,0.005676,1.003235,-0.000897,0.024804,-0.004367,60.947159,23.158203,-147.199127,,,
729608465.066837,0.522371,-2.660526,56.125719,0.055313,0.007751,1.001541,0.004313,0.017482,-0.01921,60.947159,23.158203,-147.199127,,,
729608465.070178,0.523299,-2.656316,56.121872,0.055313,0.007751,1.001541,0.004313,0.017482,-0.01921,60.947159,23.158203,-147.199127,,,
729608465.073549,0.523299,-2.656316,56.121872,0.055313,0.007751,1.001541,0.004313,0.017482,-0.01921,60.947159,23.158203,-147.199127,,,
729608465.076849,0.524495,-2.652562,56.116674,0.050262,0.007629,0.99855,0.004801,0.007541,-0.019429,60.947159,23.158203,-147.199127,,,
729608465.080166,0.525377,-2.651384,56.111165,0.050262,0.007629,0.99855,0.004801,0.007541,-0.019429,60.947159,23.158203,-147.199127,,,
729608465.083557,0.525377,-2.651384,56.111165,0.050262,0.007629,0.99855,0.004801,0.007541,-0.019429,60.947159,23.158203,-147.199127,,,
729608465.086916,0.52526,-2.650647,56.10661,0.043915,0.00531,0.992538,0.0029,-0.004046,-0.014486,60.947159,23.158203,-147.199127,,,
729608465.090214,0.525968,-2.65285,56.102692,0.043915,0.00531,0.992538,0.0029,-0.004046,-0.014486,61.175903,22.942017,-147.346024,,,
729608465.093564,0.525968,-2.65285,56.102692,0.043915,0.00531,0.992538,0.0029,-0.004046,-0.014486,61.175903,22.942017,-147.346024,,,
729608465.096882,0.526844,-2.656669,56.098794,0.04187,0.003738,0.991852,0.006891,-0.011809,-0.014194,61.175903,22.942017,-147.346024,,,
729608465.100177,0.528963,-2.660468,56.094992,0.04187,0.003738,0.991852,0.006891,-0.011809,-0.014194,61.175903,22.942017,-147.346024,,,
729608465.103575,0.528963,-2.660468,56.094992,0.04187,0.003738,0.991852,0.006891,-0.011809,-0.014194,61.175903,22.942017,-147.346024,,,
729608465.106845,0.531489,-2.664796,56.092156,0.042892,0.003677,0.995621,0.01326,0.002358,-0.008222,61.175903,22.942017,-147.346024,,,
729608465.110178,0.534977,-2.664853,56.091124,0.042892,0.003677,0.995621,0.01326,0.002358,-0.008222,61.175903,22.942017,-147.346024,,,
729608465.11361,0.534977,-2.664853,56.091124,0.042892,0.003677,0.995621,0.01326,0.002358,-0.008222,61.175903,22.942017,-147.346024,,,
729608465.116845,0.540067,-2.666712,56.092661,0.03804,0.001221,1.000214,0.017892,0.010812,0.008794,61.175903,22.942017,-147.346024,,,
729608465.12017,0.545338,-2.664353,56.096131,0.03804,0.001221,1.000214,0.017892,0.010812,0.008794,61.175903,22.942017,-147.346024,,,
729608465.123617,0.545338,-2.664353,56.096131,0.03804,0.001221,1.000214,0.017892,0.010812,0.008794,61.175903,22.942017,-147.346024,,,
729608465.126884,0.551762,-2.664561,56.09987,0.041351,0.000946,0.994537,0.027521,0.01359,0.007421,61.175903,22.942017,-147.346024,,,
729608465.130187,0.558873,-2.660998,56.102227,0.041351,0.000946,0.994537,0.027521,0.01359,0.007421,61.175903,22.942017,-147.346024,,,
729608465.133545,0.558873,-2.660998,56.102227,0.041351,0.000946,0.994537,0.027521,0.01359,0.007421,61.211655,23.060883,-147.360062,,,
729608465.136864,0.563848,-2.658614,56.102404,0.047806,0.009155,0.995834,0.017214,0.021836,-0.007273,61.211655,23.060883,-147.360062,,,
729608465.140164,0.567828,-2.653205,56.100681,0.047806,0.009155,0.995834,0.017214,0.021836,-0.007273,61.211655,23.060883,-147.360062,,,
729608465.143552,0.567828,-2.653205,56.100681,0.047806,0.009155,0.995834,0.017214,0.021836,-0.007273,61.211655,23.060883,-147.360062,,,
729608465.146838,0.569159,-2.649979,56.098274,0.048279,0.018127,0.986847,0.000802,0.021728,-0.009915,61.211655,23.060883,-147.360062,,,
729608465.150166,0.569021,-2.64499,56.096208,0.048279,0.018127,0.986847,0.000802,0.021728,-0.009915,61.211655,23.060883,-147.360062,,,
729608465.153627,0.569021,-2.64499,56.096208,0.048279,0.018127,0.986847,0.000802,0.021728,-0.009915,61.211655,23.060883,-147.360062,,,
729608465.156841,0.565942,-2.642833,56.095199,0.038055,0.017197,0.985336,-0.011538,0.01474,-0.001358,61.211655,23.060883,-147.360062,,,
729608465.160175,0.56169,-2.640093,56.095525,0.038055,0.017197,0.985336,-0.011538,0.01474,-0.001358,61.211655,23.060883,-147.360062,,,
729608465.163514,0.56169,-2.640093,56.095525,0.038055,0.017197,0.985336,-0.011538,0.01474,-0.001358,61.211655,23.060883,-147.360062,,,
729608465.166895,0.556129,-2.639449,56.095888,0.035812,0.011703,0.987869,-0.012825,-0.003729,-0.000952,61.211655,23.060883,-147.360062,,,
729608465.170167,0.551935,-2.641573,56.095299,0.035812,0.011703,0.987869,-0.012825,-0.003729,-0.000952,61.211655,23.060883,-147.360062,,,
729608465.173502,0.551935,-2.641573,56.095299,0.035812,0.011703,0.987869,-0.012825,-0.003729,-0.000952,61.33374,22.896118,-147.310593,,,
729608465.176831,0.546687,-2.644938,56.094683,0.042984,0.01178,0.990936,-0.013153,-0.014304,-0.000736,61.33374,22.896118,-147.310593,,,
729608465.180239,0.54264,-2.649751,56.094822,0.042984,0.01178,0.990936,-0.013153,-0.014304,-0.000736,61.33374,22.896118,-147.310593,,,
729608465.183495,0.54264,-2.649751,56.094822,0.042984,0.01178,0.990936,-0.013153,-0.014304,-0.000736,61.33374,22.896118,-147.310593,,,
729608465.186862,0.536863,-2.653793,56.095281,0.044617,0.014099,0.995239,-0.012888,-0.014233,-0.001078,61.33374,22.896118,-147.310593,,,
729608465.190174,0.532545,-2.65908,56.096413,0.044617,0.014099,0.995239,-0.012888,-0.014233,-0.001078,61.33374,22.896118,-147.310593,,,
729608465.193649,0.532545,-2.65908,56.096413,0.044617,0.014099,0.995239,-0.012888,-0.014233,-0.001078,61.33374,22.896118,-147.310593,,,
729608465.196837,0.527238,-2.662256,56.099015,0.045563,0.010452,0.997375,-0.0116,-0.011873,0.010877,61.33374,22.896118,-147.310593,,,
729608465.200169,0.524071,-2.667035,56.102632,0.045563,0.010452,0.997375,-0.0116,-0.011873,0.010877,61.33374,22.896118,-147.310593,,,
729608465.203518,0.524071,-2.667035,56.102632,0.045563,0.010452,0.997375,-0.0116,-0.011873,0.010877,61.33374,22.896118,-147.310593,,,
729608465.206904,0.518673,-2.66988,56.106509,0.046387,0.005234,0.994812,-0.010222,-0.013237,0.013116,61.33374,22.896118,-147.310593,,,
729608465.210165,0.515237,-2.675147,56.109687,0.046387,0.005234,0.994812,-0.010222,-0.013237,0.013116,61.33374,22.896118,-147.310593,,,
729608465.213502,0.515237,-2.675147,56.109687,0.046387,0.005234,0.994812,-0.010222,-0.013237,0.013116,61.191147,23.084366,-147.338745,,,
729608465.216853,0.510137,-2.680231,56.111899,0.047928,0.006668,0.993134,-0.014189,-0.015404,0.00768,61.191147,23.084366,-147.338745,,,
729608465.220189,0.505428,-2.685893,56.113804,0.047928,0.006668,0.993134,-0.014189,-0.015404,0.00768,61.191147,23.084366,-147.338745,,,
729608465.223509,0.505428,-2.685893,56.113804,0.047928,0.006668,0.993134,-0.014189,-0.015404,0.00768,61.191147,23.084366,-147.338745,,,
729608465.226855,0.501673,-2.692174,56.115416,0.049728,0.012177,0.994431,-0.020495,-0.018226,0.005915,61.191147,23.084366,-147.338745,,,
729608465.230175,0.494725,-2.697909,56.117416,0.049728,0.012177,0.994431,-0.020495,-0.018226,0.005915,61.191147,23.084366,-147.338745,,,
729608465.233601,0.494725,-2.697909,56.117416,0.049728,0.012177,0.994431,-0.020495,-0.018226,0.005915,61.191147,23.084366,-147.338745,,,
729608465.236852,0.488702,-2.703341,56.12,0.040817,0.006882,0.996323,-0.026933,-0.020754,0.01108,61.191147,23.084366,-147.338745,,,
729608465.240194,0.479915,-2.709634,56.123854,0.040817,0.006882,0.996323,-0.026933,-0.020754,0.01108,61.191147,23.084366,-147.338745,,,
729608465.243519,0.479915,-2.709634,56.123854,0.040817,0.006882,0.996323,-0.026933,-0.020754,0.01108,61.191147,23.084366,-147.338745,,,
729608465.246916,0.472978,-2.712293,56.12928,0.036774,-0.000473,1.001038,-0.022571,-0.020063,0.022825,61.191147,23.084366,-147.338745,,,
729608465.250165,0.466065,-2.718766,56.135231,0.036774,-0.000473,1.001038,-0.022571,-0.020063,0.022825,61.191147,23.084366,-147.338745,,,
729608465.253518,0.466065,-2.718766,56.135231,0.036774,-0.000473,1.001038,-0.022571,-0.020063,0.022825,61.191147,23.084366,-147.338745,,,
729608465.25686,0.46148,-2.723932,56.140472,0.046021,0.000732,1.006805,-0.015287,-0.021225,0.014557,61.285126,22.921921,-147.278549,,,
729608465.260163,0.457778,-2.731125,56.143899,0.046021,0.000732,1.006805,-0.015287,-0.021225,0.014557,61.285126,22.921921,-147.278549,,,
729608465.263515,0.457778,-2.731125,56.143899,0.046021,0.000732,1.006805,-0.015287,-0.021225,0.014557,61.285126,22.921921,-147.278549,,,
729608465.266883,0.456874,-2.736935,56.144848,0.057159,0.008698,1.005432,-0.005883,-0.01649,-0.004128,61.285126,22.921921,-147.278549,,,
729608465.270201,0.456098,-2.74217,56.143401,0.057159,0.008698,1.005432,-0.005883,-0.01649,-0.004128,61.285126,22.921921,-147.278549,,,
729608465.273518,0.456098,-2.74217,56.143401,0.057159,0.008698,1.005432,-0.005883,-0.01649,-0.004128,61.285126,22.921921,-147.278549,,,
729608465.276847,0.457102,-2.744217,56.140298,0.062332,0.013123,1.00502,-0.000359,0.001573,-0.017938,61.285126,22.921921,-147.278549,,,
729608465.280168,0.457403,-2.743479,56.135843,0.062332,0.013123,1.00502,-0.000359,0.001573,-0.017938,61.285126,22.921921,-147.278549,,,
729608465.283564,0.457403,-2.743479,56.135843,0.062332,0.013123,1.00502,-0.000359,0.001573,-0.017938,61.285126,22.921921,-147.278549,,,
729608465.286849,0.458611,-2.738669,56.130744,0.062363,0.013138,1.004456,0.011511,0.024812,-0.017331,61.285126,22.921921,-147.278549,,,
729608465.290171,0.461659,-2.73253,56.126281,0.062363,0.013138,1.004456,0.011511,0.024812,-0.017331,61.285126,22.921921,-147.278549,,,
729608465.293519,0.461659,-2.73253,56.126281,0.062363,0.013138,1.004456,0.011511,0.024812,-0.017331,61.285126,22.921921,-147.278549,,,
729608465.29689,0.464945,-2.725246,56.123034,0.055206,0.006622,0.999741,0.019127,0.030611,-0.010273,61.236984,23.042664,-147.207809,,,
729608465.300166,0.470194,-2.716508,56.120769,0.055206,0.006622,0.999741,0.019127,0.030611,-0.010273,61.236984,23.042664,-147.207809,,,
729608465.30351,0.470194,-2.716508,56.120769,0.055206,0.006622,0.999741,0.019127,0.030611,-0.010273,61.236984,23.042664,-147.207809,,,
729608465.30686,0.477032,-2.707734,56.118493,0.047836,0.003296,0.99707,0.021579,0.035533,-0.012675,61.236984,23.042664,-147.207809,,,
729608465.310164,0.483694,-2.698886,56.115478,0.047836,0.003296,0.99707,0.021579,0.035533,-0.012675,61.236984,23.042664,-147.207809,,,
729608465.313526,0.483694,-2.698886,56.115478,0.047836,0.003296,0.99707,0.021579,0.035533,-0.012675,61.236984,23.042664,-147.207809,,,
729608465.316849,0.490886,-2.689929,56.110911,0.049515,0.010513,0.989563,0.02437,0.029849,-0.025103,61.236984,23.042664,-147.207809,,,
729608465.320175,0.497641,-2.682026,56.104286,0.049515,0.010513,0.989563,0.02437,0.029849,-0.025103,61.236984,23.042664,-147.207809,,,
729608465.323571,0.497641,-2.682026,56.104286,0.049515,0.010513,0.989563,0.02437,0.029849,-0.025103,61.236984,23.042664,-147.207809,,,
729608465.326829,0.502693,-2.67284,56.095915,0.050797,0.017914,0.989365,0.023856,0.020761,-0.032839,61.236984,23.042664,-147.207809,,,
729608465.330176,0.510255,-2.667781,56.086533,0.050797,0.017914,0.989365,0.023856,0.020761,-0.032839,61.236984,23.042664,-147.207809,,,
729608465.333515,0.510255,-2.667781,56.086533,0.050797,0.017914,0.989365,0.023856,0.020761,-0.032839,61.236984,23.042664,-147.207809,,,
729608465.336939,0.5157,-2.661404,56.077009,0.04718,0.01178,0.986359,0.02644,0.021544,-0.036633,61.170242,22.827209,-147.296799,,,
729608465.340169,0.523802,-2.655296,56.067232,0.04718,0.01178,0.986359,0.02644,0.021544,-0.036633,61.170242,22.827209,-147.296799,,,
729608465.343527,0.523802,-2.655296,56.067232,0.04718,0.01178,0.986359,0.02644,0.021544,-0.036633,61.170242,22.827209,-147.296799,,,
729608465.346876,0.531552,-2.649774,56.057122,0.047958,0.006592,0.991364,0.033087,0.034945,-0.038587,61.170242,22.827209,-147.296799,,,
729608465.350175,0.541501,-2.640514,56.046626,0.047958,0.006592,0.991364,0.033087,0.034945,-0.038587,61.170242,22.827209,-147.296799,,,
729608465.353524,0.541501,-2.640514,56.046626,0.047958,0.006592,0.991364,0.033087,0.034945,-0.038587,61.170242,22.827209,-147.296799,,,
729608465.356865,0.553554,-2.633345,56.03557,0.053406,0.004883,0.994278,0.042827,0.042696,-0.041361,61.170242,22.827209,-147.296799,,,
729608465.360177,0.566265,-2.620911,56.025199,0.053406,0.004883,0.994278,0.042827,0.042696,-0.041361,61.170242,22.827209,-147.296799,,,
729608465.363568,0.566265,-2.620911,56.025199,0.053406,0.004883,0.994278,0.042827,0.042696,-0.041361,61.170242,22.827209,-147.296799,,,
729608465.366873,0.581223,-2.61127,56.015917,0.047089,0.004623,0.989899,0.051282,0.058749,-0.033183,61.170242,22.827209,-147.296799,,,
729608465.370184,0.595391,-2.594642,56.007657,0.047089,0.004623,0.989899,0.051282,0.058749,-0.033183,61.170242,22.827209,-147.296799,,,
729608465.37353,0.595391,-2.594642,56.007657,0.047089,0.004623,0.989899,0.051282,0.058749,-0.033183,61.170242,22.827209,-147.296799,,,
729608465.376845,0.608625,-2.579324,56.000787,0.042084,0.005829,0.987152,0.042674,0.073608,-0.0249,61.367722,22.638916,-147.534073,,,
729608465.380177,0.620941,-2.558016,55.994813,0.042084,0.005829,0.987152,0.042674,0.073608,-0.0249,61.367722,22.638916,-147.534073,,,
729608465.383519,0.620941,-2.558016,55.994813,0.042084,0.005829,0.987152,0.042674,0.073608,-0.0249,61.367722,22.638916,-147.534073,,,
729608465.386867,0.630768,-2.535085,55.990639,0.040207,0.008453,0.9832,0.041404,0.092482,-0.014264,61.367722,22.638916,-147.534073,,,
729608465.390176,0.642303,-2.508418,55.988468,0.040207,0.008453,0.9832,0.041404,0.092482,-0.014264,61.367722,22.638916,-147.534073,,,
729608465.393518,0.642303,-2.508418,55.988468,0.040207,0.008453,0.9832,0.041404,0.092482,-0.014264,61.367722,22.638916,-147.534073,,,
729608465.396859,0.652045,-2.481544,55.987643,0.036163,0.008835,0.986496,0.036597,0.106989,-0.0013,61.367722,22.638916,-147.534073,,,
729608465.400176,0.661872,-2.451293,55.987767,0.036163,0.008835,0.986496,0.036597,0.106989,-0.0013,61.367722,22.638916,-147.534073,,,
729608465.403566,0.661872,-2.451293,55.987767,0.036163,0.008835,0.986496,0.036597,0.106989,-0.0013,61.367722,22.638916,-147.534073,,,
729608465.406865,0.67141,-2.421519,55.988396,0.033966,0.010529,0.984894,0.025501,0.116989,-0.000368,61.367722,22.638916,-147.534073,,,
729608465.410171,0.67813,-2.387978,55.988685,0.033966,0.010529,0.984894,0.025501,0.116989,-0.000368,61.367722,22.638916,-147.534073,,,
729608465.413537,0.67813,-2.387978,55.988685,0.033966,0.010529,0.984894,0.025501,0.116989,-0.000368,61.367722,22.638916,-147.534073,,,
729608465.416929,0.68378,-2.356868,55.988816,0.033783,0.018372,0.981232,0.011571,0.114682,-0.000328,61.367722,22.638916,-147.534073,,,
729608465.420157,0.687148,-2.326046,55.989861,0.033783,0.018372,0.981232,0.011571,0.114682,-0.000328,61.30864,22.80571,-147.32962,,,
729608465.423522,0.687148,-2.326046,55.989861,0.033783,0.018372,0.981232,0.011571,0.114682,-0.000328,61.30864,22.80571,-147.32962,,,
729608465.426861,0.688059,-2.300695,55.992415,0.025085,0.020584,0.974686,0.002831,0.084698,0.011945,61.30864,22.80571,-147.32962,,,
729608465.430173,0.68856,-2.278309,55.995907,0.025085,0.020584,0.974686,0.002831,0.084698,0.011945,61.30864,22.80571,-147.32962,,,
729608465.433508,0.68856,-2.278309,55.995907,0.025085,0.020584,0.974686,0.002831,0.084698,0.011945,61.30864,22.80571,-147.32962,,,
729608465.436861,0.686485,-2.264205,55.99996,0.019958,0.01503,0.970963,-0.001041,0.052393,0.013327,61.30864,22.80571,-147.32962,,,
729608465.44017,0.685428,-2.251283,56.004292,0.019958,0.01503,0.970963,-0.001041,0.052393,0.013327,61.30864,22.80571,-147.32962,,,
729608465.443571,0.685428,-2.251283,56.004292,0.019958,0.01503,0.970963,-0.001041,0.052393,0.013327,61.30864,22.80571,-147.32962,,,
729608465.446859,0.682322,-2.245484,56.00861,0.022781,0.015137,0.969269,-0.009297,0.023298,0.010134,61.30864,22.80571,-147.32962,,,
729608465.450175,0.678727,-2.241009,56.012395,0.022781,0.015137,0.969269,-0.009297,0.023298,0.010134,61.30864,22.80571,-147.32962,,,
729608465.453524,0.678727,-2.241009,56.012395,0.022781,0.015137,0.969269,-0.009297,0.023298,0.010134,61.30864,22.80571,-147.32962,,,
729608465.456915,0.671714,-2.240124,56.015822,0.026215,0.018478,0.967712,-0.024216,0.007423,0.013353,61.30864,22.80571,-147.32962,,,
729608465.460169,0.663238,-2.238733,56.019187,0.026215,0.018478,0.967712,-0.024216,0.007423,0.013353,61.529221,22.818481,-147.544983,,,
729608465.463521,0.663238,-2.238733,56.019187,0.026215,0.018478,0.967712,-0.024216,0.007423,0.013353,61.529221,22.818481,-147.544983,,,
729608465.466868,0.651244,-2.237044,56.022754,0.030991,0.018372,0.970703,-0.045382,0.011272,0.011138,61.529221,22.818481,-147.544983,,,
729608465.470173,0.637328,-2.235345,56.026687,0.030991,0.018372,0.970703,-0.045382,0.011272,0.011138,61.529221,22.818481,-147.544983,,,
729608465.473521,0.637328,-2.235345,56.026687,0.030991,0.018372,0.970703,-0.045382,0.011272,0.011138,61.529221,22.818481,-147.544983,,,
729608465.476875,0.620583,-2.233674,56.030315,0.032913,0.015411,0.97464,-0.060751,0.010059,0.013003,61.529221,22.818481,-147.544983,,,
729608465.480172,0.602041,-2.231579,56.03377,0.032913,0.015411,0.97464,-0.060751,0.010059,0.013003,61.529221,22.818481,-147.544983,,,
729608465.483583,0.602041,-2.231579,56.03377,0.032913,0.015411,0.97464,-0.060751,0.010059,0.013003,61.529221,22.818481,-147.544983,,,
729608465.486848,0.582133,-2.228038,56.03723,0.037781,0.011185,0.98732,-0.069158,0.015337,0.014889,61.529221,22.818481,-147.544983,,,
729608465.490173,0.562196,-2.223743,56.040524,0.037781,0.011185,0.98732,-0.069158,0.015337,0.014889,61.529221,22.818481,-147.544983,,,
729608465.493501,0.562196,-2.223743,56.040524,0.037781,0.011185,0.98732,-0.069158,0.015337,0.014889,61.529221,22.818481,-147.544983,,,
729608465.496913,0.543109,-2.218003,56.044105,0.035553,0.006866,1.002975,-0.067853,0.023192,0.015515,61.529221,22.818481,-147.544983,,,
729608465.500165,0.524181,-2.212404,56.048693,0.035553,0.006866,1.002975,-0.067853,0.023192,0.015515,61.77092,22.712387,-147.422775,,,
729608465.503525,0.524181,-2.212404,56.048693,0.035553,0.006866,1.002975,-0.067853,0.023192,0.015515,61.77092,22.712387,-147.422775,,,
729608465.506853,0.509147,-2.204947,56.053738,0.034637,0.004272,1.014633,-0.051932,0.023232,0.015277,61.77092,22.712387,-147.422775,,,
729608465.510163,0.494561,-2.198649,56.058328,0.034637,0.004272,1.014633,-0.051932,0.023232,0.015277,61.77092,22.712387,-147.422775,,,
729608465.513501,0.494561,-2.198649,56.058328,0.034637,0.004272,1.014633,-0.051932,0.023232,0.015277,61.77092,22.712387,-147.422775,,,
729608465.516835,0.483676,-2.189511,56.062362,0.041718,0.004242,1.022018,-0.034342,0.023769,0.011918,61.77092,22.712387,-147.422775,,,
729608465.520177,0.473494,-2.183441,56.06571,0.041718,0.004242,1.022018,-0.034342,0.023769,0.011918,61.77092,22.712387,-147.422775,,,
729608465.523563,0.473494,-2.183441,56.06571,0.041718,0.004242,1.022018,-0.034342,0.023769,0.011918,61.77092,22.712387,-147.422775,,,
729608465.52685,0.466864,-2.172862,56.068339,0.04953,0.005081,1.024658,-0.022626,0.029592,0.008517,61.77092,22.712387,-147.422775,,,
729608465.530167,0.460647,-2.164875,56.070369,0.04953,0.005081,1.024658,-0.022626,0.029592,0.008517,61.77092,22.712387,-147.422775,,,
729608465.533512,0.460647,-2.164875,56.070369,0.04953,0.005081,1.024658,-0.022626,0.029592,0.008517,61.77092,22.712387,-147.422775,,,
729608465.536921,0.458021,-2.153177,56.071455,0.055481,0.008286,1.020538,-0.013665,0.035315,0.002445,61.77092,22.712387,-147.422775,,,
729608465.540169,0.45373,-2.143895,56.071673,0.055481,0.008286,1.020538,-0.013665,0.035315,0.002445,61.461884,23.029327,-147.476974,,,
729608465.543529,0.45373,-2.143895,56.071673,0.055481,0.008286,1.020538,-0.013665,0.035315,0.002445,61.461884,23.029327,-147.476974,,,
729608465.546862,0.453089,-2.132612,56.071743,0.055786,0.009155,1.015198,-0.007543,0.033091,-0.001182,61.461884,23.029327,-147.476974,,,
729608465.550172,0.449578,-2.124097,56.071484,0.055786,0.009155,1.015198,-0.007543,0.033091,-0.001182,61.461884,23.029327,-147.476974,,,
729608465.55352,0.449578,-2.124097,56.071484,0.055786,0.009155,1.015198,-0.007543,0.033091,-0.001182,61.461884,23.029327,-147.476974,,,
729608465.556896,0.448036,-2.116014,56.070789,0.049744,0.009567,1.011444,-0.014059,0.018717,-0.003238,61.461884,23.029327,-147.476974,,,
729608465.560171,0.444201,-2.111462,56.069932,0.049744,0.009567,1.011444,-0.014059,0.018717,-0.003238,61.461884,23.029327,-147.476974,,,
729608465.563569,0.444201,-2.111462,56.069932,0.049744,0.009567,1.011444,-0.014059,0.018717,-0.003238,61.461884,23.029327,-147.476974,,,
729608465.566854,0.442109,-2.109584,56.068828,0.045837,0.009079,1.006989,-0.010732,0.00174,-0.007735,61.461884,23.029327,-147.476974,,,
729608465.570194,0.439623,-2.110343,56.067119,0.045837,0.009079,1.006989,-0.010732,0.00174,-0.007735,61.461884,23.029327,-147.476974,,,
729608465.573498,0.439623,-2.110343,56.067119,0.045837,0.009079,1.006989,-0.010732,0.00174,-0.007735,61.461884,23.029327,-147.476974,,,
729608465.576921,0.437766,-2.113353,56.064746,0.047562,0.011688,1.011322,-0.00357,-0.01324,-0.012696,61.461884,23.029327,-147.476974,,,
729608465.580167,0.436121,-2.11803,56.061604,0.047562,0.011688,1.011322,-0.00357,-0.01324,-0.012696,61.461884,23.029327,-147.476974,,,
729608465.583532,0.436121,-2.11803,56.061604,0.047562,0.011688,1.011322,-0.00357,-0.01324,-0.012696,61.58519,23.096024,-147.286224,,,
729608465.586866,0.433529,-2.121603,56.057221,0.050476,0.014969,1.012711,-0.009669,-0.008016,-0.018363,61.58519,23.096024,-147.286224,,,
729608465.590172,0.430502,-2.124534,56.051865,0.050476,0.014969,1.012711,-0.009669,-0.008016,-0.018363,61.58519,23.096024,-147.286224,,,
729608465.593527,0.430502,-2.124534,56.051865,0.050476,0.014969,1.012711,-0.009669,-0.008016,-0.018363,61.58519,23.096024,-147.286224,,,
729608465.596857,0.425706,-2.126152,56.045684,0.048981,0.016098,1.01651,-0.013827,0.002998,-0.023352,61.58519,23.096024,-147.286224,,,
729608465.600173,0.421652,-2.12599,56.039542,0.048981,0.016098,1.01651,-0.013827,0.002998,-0.023352,61.58519,23.096024,-147.286224,,,
729608465.603566,0.421652,-2.12599,56.039542,0.048981,0.016098,1.01651,-0.013827,0.002998,-0.023352,61.58519,23.096024,-147.286224,,,
729608465.606859,0.416909,-2.126988,56.034209,0.042877,0.012161,1.014709,-0.013526,0.009808,-0.019686,61.58519,23.096024,-147.286224,,,
729608465.610172,0.412961,-2.124645,56.029274,0.042877,0.012161,1.014709,-0.013526,0.009808,-0.019686,61.58519,23.096024,-147.286224,,,
729608465.613521,0.412961,-2.124645,56.029274,0.042877,0.012161,1.014709,-0.013526,0.009808,-0.019686,61.58519,23.096024,-147.286224,,,
729608465.616932,0.409103,-2.125823,56.02499,0.038071,0.007538,1.012512,-0.017439,0.015994,-0.013724,61.58519,23.096024,-147.286224,,,
729608465.620169,0.404717,-2.121868,56.02149,0.038071,0.007538,1.012512,-0.017439,0.015994,-0.013724,61.58519,23.096024,-147.286224,,,
729608465.623474,0.404717,-2.121868,56.02149,0.038071,0.007538,1.012512,-0.017439,0.015994,-0.013724,61.728073,22.768524,-147.317429,,,
729608465.626863,0.399964,-2.1221,56.018603,0.036362,0.007599,1.011383,-0.017505,0.019873,-0.009249,61.728073,22.768524,-147.317429,,,
729608465.630168,0.395267,-2.117403,56.016096,0.036362,0.007599,1.011383,-0.017505,0.019873,-0.009249,61.728073,22.768524,-147.317429,,,
729608465.633521,0.395267,-2.117403,56.016096,0.036362,0.007599,1.011383,-0.017505,0.019873,-0.009249,61.728073,22.768524,-147.317429,,,
729608465.636848,0.39295,-2.117603,56.014902,0.030685,0.006592,1.010529,-0.005604,0.007764,-0.00043,61.728073,22.768524,-147.317429,,,
729608465.640165,0.392474,-2.116963,56.01561,0.030685,0.006592,1.010529,-0.005604,0.007764,-0.00043,61.728073,22.768524,-147.317429,,,
729608465.643586,0.392474,-2.116963,56.01561,0.030685,0.006592,1.010529,-0.005604,0.007764,-0.00043,61.728073,22.768524,-147.317429,,,
729608465.64685,0.39381,-2.120087,56.017961,0.022888,-0.000473,1.009583,0.00803,-0.005651,0.010266,61.728073,22.768524,-147.317429,,,
729608465.650176,0.395676,-2.122516,56.021501,0.022888,-0.000473,1.009583,0.00803,-0.005651,0.010266,61.728073,22.768524,-147.317429,,,
729608465.653519,0.395676,-2.122516,56.021501,0.022888,-0.000473,1.009583,0.00803,-0.005651,0.010266,61.728073,22.768524,-147.317429,,,
729608465.656907,0.399365,-2.126314,56.025532,0.024811,-0.000351,1.007935,0.013793,-0.002609,0.012271,61.728073,22.768524,-147.317429,,,
729608465.660169,0.403467,-2.128082,56.029811,0.024811,-0.000351,1.007935,0.013793,-0.002609,0.012271,61.728073,22.768524,-147.317429,,,
729608465.663512,0.403467,-2.128082,56.029811,0.024811,-0.000351,1.007935,0.013793,-0.002609,0.012271,61.765869,22.657684,-147.201584,,,
729608465.666846,0.40969,-2.13227,56.033973,0.027435,0.004669,1.008987,0.020852,-0.007113,0.01118,61.765869,22.657684,-147.201584,,,
729608465.670169,0.414932,-2.134877,56.038222,0.027435,0.004669,1.008987,0.020852,-0.007113,0.01118,61.765869,22.657684,-147.201584,,,
729608465.673528,0.414932,-2.134877,56.038222,0.027435,0.004669,1.008987,0.020852,-0.007113,0.01118,61.765869,22.657684,-147.201584,,,
729608465.676862,0.421038,-2.140218,56.043105,0.026855,0.006393,1.000809,0.014439,-0.005556,0.018039,61.765869,22.657684,-147.201584,,,
729608465.680174,0.424302,-2.14322,56.048869,0.026855,0.006393,1.000809,0.014439,-0.005556,0.018039,61.765869,22.657684,-147.201584,,,
729608465.683525,0.424302,-2.14322,56.048869,0.026855,0.006393,1.000809,0.014439,-0.005556,0.018039,61.765869,22.657684,-147.201584,,,
729608465.686846,0.426853,-2.148541,56.05559,0.029449,0.005096,0.991974,0.001511,-0.012533,0.023361,61.765869,22.657684,-147.201584,,,
729608465.690179,0.426605,-2.153604,56.062397,0.029449,0.005096,0.991974,0.001511,-0.012533,0.023361,61.765869,22.657684,-147.201584,,,
729608465.693567,0.426605,-2.153604,56.062397,0.029449,0.005096,0.991974,0.001511,-0.012533,0.023361,61.765869,22.657684,-147.201584,,,
729608465.696862,0.42505,-2.161257,56.068512,0.036743,0.008499,0.984116,-0.008828,-0.029447,0.017873,61.765869,22.657684,-147.201584,,,
729608465.700171,0.421243,-2.170928,56.073535,0.036743,0.008499,0.984116,-0.008828,-0.029447,0.017873,61.765869,22.657684,-147.201584,,,
729608465.703507,0.421243,-2.170928,56.073535,0.036743,0.008499,0.984116,-0.008828,-0.029447,0.017873,61.625916,22.944687,-147.063339,,,
729608465.706912,0.415545,-2.18246,56.077174,0.045715,0.013702,0.978333,-0.02278,-0.045402,0.010369,61.625916,22.944687,-147.063339,,,
729608465.71016,0.408335,-2.195787,56.079967,0.045715,0.013702,0.978333,-0.02278,-0.045402,0.010369,61.625916,22.944687,-147.063339,,,
729608465.713528,0.408335,-2.195787,56.079967,0.045715,0.013702,0.978333,-0.02278,-0.045402,0.010369,61.625916,22.944687,-147.063339,,,
729608465.716856,0.400569,-2.208677,56.08266,0.048553,0.01062,0.981125,-0.027513,-0.046403,0.010162,61.625916,22.944687,-147.063339,,,
729608465.720173,0.392777,-2.222977,56.085677,0.048553,0.01062,0.981125,-0.027513,-0.046403,0.010162,61.625916,22.944687,-147.063339,,,
729608465.723513,0.392777,-2.222977,56.085677,0.048553,0.01062,0.981125,-0.027513,-0.046403,0.010162,61.625916,22.944687,-147.063339,,,
729608465.726851,0.383948,-2.231771,56.088959,0.050613,0.005341,0.990692,-0.026292,-0.034625,0.009903,61.625916,22.944687,-147.063339,,,
729608465.730165,0.376772,-2.241637,56.091891,0.050613,0.005341,0.990692,-0.026292,-0.034625,0.009903,61.625916,22.944687,-147.063339,,,
729608465.733578,0.376772,-2.241637,56.091891,0.050613,0.005341,0.990692,-0.026292,-0.034625,0.009903,61.625916,22.944687,-147.063339,,,
729608465.736842,0.368123,-2.243327,56.093309,0.055328,0.003998,0.999527,-0.020315,-0.005911,-0.002861,61.625916,22.944687,-147.063339,,,
729608465.740165,0.361957,-2.244666,56.092347,0.055328,0.003998,0.999527,-0.020315,-0.005911,-0.002861,61.625916,22.944687,-147.063339,,,
729608465.743519,0.361957,-2.244666,56.092347,0.055328,0.003998,0.999527,-0.020315,-0.005911,-0.002861,61.625916,22.944687,-147.063339,,,
729608465.746915,0.354765,-2.238093,56.089264,0.059097,0.006531,1.004837,-0.025228,0.025221,-0.01313,61.451614,22.960663,-147.357254,,,
729608465.750154,0.348083,-2.231718,56.08544,0.059097,0.006531,1.004837,-0.025228,0.025221,-0.01313,61.451614,22.960663,-147.357254,,,
729608465.753515,0.348083,-2.231718,56.08544,0.059097,0.006531,1.004837,-0.025228,0.025221,-0.01313,61.451614,22.960663,-147.357254,,,
729608465.756854,0.340934,-2.220037,56.081542,0.053116,0.009277,1.003342,-0.028789,0.034053,-0.013555,61.451614,22.960663,-147.357254,,,
729608465.760209,0.333142,-2.211247,56.078215,0.053116,0.009277,1.003342,-0.028789,0.034053,-0.013555,61.451614,22.960663,-147.357254,,,
729608465.763516,0.333142,-2.211247,56.078215,0.053116,0.009277,1.003342,-0.028789,0.034053,-0.013555,61.451614,22.960663,-147.357254,,,
729608465.766851,0.325691,-2.201704,56.075742,0.039566,0.001495,0.999649,-0.025093,0.016695,-0.006254,61.451614,22.960663,-147.357254,,,
729608465.77017,0.318894,-2.199058,56.073924,0.039566,0.001495,0.999649,-0.025093,0.016695,-0.006254,61.451614,22.960663,-147.357254,,,
729608465.773568,0.318894,-2.199058,56.073924,0.039566,0.001495,0.999649,-0.025093,0.016695,-0.006254,61.451614,22.960663,-147.357254,,,
729608465.776845,0.313499,-2.200015,56.072805,0.029755,-0.005585,0.998947,-0.01492,-0.017979,-0.00158,61.451614,22.960663,-147.357254,,,
729608465.780169,0.309418,-2.207657,56.072589,0.029755,-0.005585,0.998947,-0.01492,-0.017979,-0.00158,61.451614,22.960663,-147.357254,,,
729608465.783515,0.309418,-2.207657,56.072589,0.029755,-0.005585,0.998947,-0.01492,-0.017979,-0.00158,61.451614,22.960663,-147.357254,,,
729608465.786837,0.309454,-2.221681,56.073395,0.026443,-0.007111,1.001923,-0.002148,-0.050074,0.004844,61.649994,22.934982,-147.470551,,,
729608465.790158,0.308906,-2.237334,56.075465,0.026443,-0.007111,1.001923,-0.002148,-0.050074,0.004844,61.649994,22.934982,-147.470551,,,
729608465.793514,0.308906,-2.237334,56.075465,0.026443,-0.007111,1.001923,-0.002148,-0.050074,0.004844,61.649994,22.934982,-147.470551,,,
729608465.796865,0.311126,-2.256368,56.078746,0.028595,-0.002045,1.006042,0.004501,-0.05256,0.011745,61.649994,22.934982,-147.470551,,,
729608465.800093,0.312149,-2.272246,56.082703,0.028595,-0.002045,1.006042,0.004501,-0.05256,0.011745,61.649994,22.934982,-147.470551,,,
729608465.803522,0.312149,-2.272246,56.082703,0.028595,-0.002045,1.006042,0.004501,-0.05256,0.011745,61.649994,22.934982,-147.470551,,,
729608465.806852,0.313578,-2.28896,56.086319,0.038757,0.00354,1.010956,2.2e-05,-0.036614,0.008252,61.649994,22.934982,-147.470551,,,
729608465.810186,0.314019,-2.30048,56.088935,0.038757,0.00354,1.010956,2.2e-05,-0.036614,0.008252,61.649994,22.934982,-147.470551,,,
729608465.813564,0.314019,-2.30048,56.088935,0.038757,0.00354,1.010956,2.2e-05,-0.036614,0.008252,61.649994,22.934982,-147.470551,,,
