Time (sec),Pitch (deg),Roll (deg),Yaw(deg),X-Acceleration (g),Y-Acceleration (g),Z-Acceleration (g),Pitch Rate (deg/sec),Roll Rate (deg/sec),Yaw Rate (deg/sec),Magnetic Field in X direction (uT),Magnetic Field in Y direction (uT),Magnetic Field in Z Direction (uT),Latitude (deg),Longitude (deg),Altitude (m)
729601035.921929,1.27908,-3.821411,-8.81598,0.082138,0.023697,1.017715,0.020852,-0.034771,0.009339,64.816925,8.601868,-146.822159,,,
729601035.92525,1.28593,-3.831818,-8.813159,0.082138,0.023697,1.017715,0.020852,-0.034771,0.009339,64.401657,8.749893,-146.791595,,,
729601035.92862,1.28593,-3.831818,-8.813159,0.082138,0.023697,1.017715,0.020852,-0.034771,0.009339,64.401657,8.749893,-146.791595,,,
729601035.931959,1.295331,-3.842864,-8.811535,0.080566,0.026596,1.011673,0.036268,-0.035356,-0.00018,64.401657,8.749893,-146.791595,,,
729601035.93525,1.306158,-3.854776,-8.811005,0.080566,0.026596,1.011673,0.036268,-0.035356,-0.00018,64.401657,8.749893,-146.791595,,,
729601035.93858,1.306158,-3.854776,-8.811005,0.080566,0.026596,1.011673,0.036268,-0.035356,-0.00018,64.401657,8.749893,-146.791595,,,
729601035.941954,1.317887,-3.869289,-8.81184,0.082489,0.027542,0.999069,0.045168,-0.045524,-0.010553,64.401657,8.749893,-146.791595,,,
729601035.945249,1.330391,-3.883697,-8.814012,0.082489,0.027542,0.999069,0.045168,-0.045524,-0.010553,64.401657,8.749893,-146.791595,,,
729601035.948628,1.330391,-3.883697,-8.814012,0.082489,0.027542,0.999069,0.045168,-0.045524,-0.010553,64.401657,8.749893,-146.791595,,,
729601035.95191,1.342094,-3.900213,-8.817392,0.084152,0.026245,0.986435,0.045086,-0.050455,-0.019245,64.401657,8.749893,-146.791595,,,
729601035.955251,1.355269,-3.914293,-8.821829,0.084152,0.026245,0.986435,0.045086,-0.050455,-0.019245,64.401657,8.749893,-146.791595,,,
729601035.958588,1.355269,-3.914293,-8.821829,0.084152,0.026245,0.986435,0.045086,-0.050455,-0.019245,64.401657,8.749893,-146.791595,,,
729601035.961972,1.367486,-3.928639,-8.82697,0.082703,0.026688,0.985382,0.045124,-0.038515,-0.024499,64.401657,8.749893,-146.791595,,,
729601035.965304,1.380411,-3.939285,-8.832987,0.082703,0.026688,0.985382,0.045124,-0.038515,-0.024499,64.401657,8.749893,-146.791595,,,
729601035.968582,1.380411,-3.939285,-8.832987,0.082703,0.026688,0.985382,0.045124,-0.038515,-0.024499,64.259155,8.597717,-146.47496,,,
729601035.971915,1.391045,-3.949344,-8.838926,0.084656,0.030853,0.985275,0.038652,-0.019325,-0.023878,64.259155,8.597717,-146.47496,,,
729601035.975243,1.401811,-3.95375,-8.844459,0.084656,0.030853,0.985275,0.038652,-0.019325,-0.023878,64.259155,8.597717,-146.47496,,,
729601035.978578,1.401811,-3.95375,-8.844459,0.084656,0.030853,0.985275,0.038652,-0.019325,-0.023878,64.259155,8.597717,-146.47496,,,
729601035.981978,1.410061,-3.956897,-8.849097,0.080246,0.033524,0.982162,0.031226,0.003771,-0.017508,64.259155,8.597717,-146.47496,,,
729601035.985249,1.418292,-3.955438,-8.85242,0.080246,0.033524,0.982162,0.031226,0.003771,-0.017508,64.259155,8.597717,-146.47496,,,
729601035.988579,1.418292,-3.955438,-8.85242,0.080246,0.033524,0.982162,0.031226,0.003771,-0.017508,64.259155,8.597717,-146.47496,,,
729601035.991936,1.423952,-3.955147,-8.853382,0.074631,0.033676,0.978256,0.02122,0.01236,-0.000722,64.259155,8.597717,-146.47496,,,
729601035.995244,1.429029,-3.953918,-8.852159,0.074631,0.033676,0.978256,0.02122,0.01236,-0.000722,64.259155,8.597717,-146.47496,,,
729601035.998638,1.429029,-3.953918,-8.852159,0.074631,0.033676,0.978256,0.02122,0.01236,-0.000722,64.259155,8.597717,-146.47496,,,
729601036.002015,1.432387,-3.958106,-8.849469,0.068329,0.031189,0.970444,0.010084,-0.010987,0.009911,64.259155,8.597717,-146.47496,,,
729601036.005324,1.434034,-3.964125,-8.845511,0.068329,0.031189,0.970444,0.010084,-0.010987,0.009911,64.259155,8.597717,-146.47496,,,
729601036.008591,1.434034,-3.964125,-8.845511,0.068329,0.031189,0.970444,0.010084,-0.010987,0.009911,64.493271,8.384644,-146.395081,,,
729601036.011935,1.434462,-3.975266,-8.841219,0.065674,0.031265,0.968674,-0.000777,-0.033464,0.012642,64.493271,8.384644,-146.395081,,,
729601036.015407,1.433032,-3.987747,-8.838274,0.065674,0.031265,0.968674,-0.000777,-0.033464,0.012642,64.493271,8.384644,-146.395081,,,
729601036.018709,1.433032,-3.987747,-8.838274,0.065674,0.031265,0.968674,-0.000777,-0.033464,0.012642,64.493271,8.384644,-146.395081,,,
729601036.021899,1.43058,-4.005911,-8.837463,0.069977,0.034943,0.972977,-0.011911,-0.057415,-0.001874,64.493271,8.384644,-146.395081,,,
729601036.025247,1.426555,-4.024452,-8.839305,0.069977,0.034943,0.972977,-0.011911,-0.057415,-0.001874,64.493271,8.384644,-146.395081,,,
729601036.028535,1.426555,-4.024452,-8.839305,0.069977,0.034943,0.972977,-0.011911,-0.057415,-0.001874,64.493271,8.384644,-146.395081,,,
729601036.031932,1.422697,-4.047843,-8.843677,0.076691,0.036545,0.976669,-0.013657,-0.07239,-0.019849,64.493271,8.384644,-146.395081,,,
729601036.035191,1.419646,-4.069979,-8.849749,0.076691,0.036545,0.976669,-0.013657,-0.07239,-0.019849,64.493271,8.384644,-146.395081,,,
729601036.038514,1.419646,-4.069979,-8.849749,0.076691,0.036545,0.976669,-0.013657,-0.07239,-0.019849,64.493271,8.384644,-146.395081,,,
729601036.041899,1.418789,-4.095448,-8.855648,0.078995,0.029327,0.987381,-0.003834,-0.073235,-0.019853,64.493271,8.384644,-146.395081,,,
729601036.045268,1.418289,-4.116396,-8.860241,0.078995,0.029327,0.987381,-0.003834,-0.073235,-0.019853,64.493271,8.384644,-146.395081,,,
729601036.048519,1.418289,-4.116396,-8.860241,0.078995,0.029327,0.987381,-0.003834,-0.073235,-0.019853,64.18277,8.703415,-146.694336,,,
729601036.051932,1.421164,-4.138622,-8.863027,0.070786,0.020111,0.9953,0.00502,-0.058177,-0.008501,64.18277,8.703415,-146.694336,,,
729601036.055265,1.422375,-4.155345,-8.863892,0.070786,0.020111,0.9953,0.00502,-0.058177,-0.008501,64.18277,8.703415,-146.694336,,,
729601036.058305,1.422375,-4.155345,-8.863892,0.070786,0.020111,0.9953,0.00502,-0.058177,-0.008501,64.18277,8.703415,-146.694336,,,
729601036.061965,1.425415,-4.172297,-8.863397,0.070786,0.016632,0.998276,0.001042,-0.046216,0.000995,64.18277,8.703415,-146.694336,,,
729601036.065327,1.425702,-4.185497,-8.862086,0.070786,0.016632,0.998276,0.001042,-0.046216,0.000995,64.18277,8.703415,-146.694336,,,
729601036.068594,1.425702,-4.185497,-8.862086,0.070786,0.016632,0.998276,0.001042,-0.046216,0.000995,64.18277,8.703415,-146.694336,,,
729601036.071937,1.428202,-4.196896,-8.860133,0.071564,0.020737,0.99913,0.001172,-0.033397,0.005453,64.18277,8.703415,-146.694336,,,
729601036.075262,1.428668,-4.206851,-8.857921,0.071564,0.020737,0.99913,0.001172,-0.033397,0.005453,64.18277,8.703415,-146.694336,,,
729601036.078597,1.428668,-4.206851,-8.857921,0.071564,0.020737,0.99913,0.001172,-0.033397,0.005453,64.18277,8.703415,-146.694336,,,
729601036.082024,1.430835,-4.214392,-8.855865,0.067749,0.022842,1.00412,-0.000446,-0.024523,0.004638,64.18277,8.703415,-146.694336,,,
729601036.085275,1.430667,-4.221563,-8.853786,0.067749,0.022842,1.00412,-0.000446,-0.024523,0.004638,64.18277,8.703415,-146.694336,,,
729601036.088591,1.430667,-4.221563,-8.853786,0.067749,0.022842,1.00412,-0.000446,-0.024523,0.004638,64.350693,8.525284,-146.715118,,,
729601036.092083,1.432627,-4.226052,-8.851998,0.065033,0.021652,1.003159,-0.000311,-0.015432,0.002833,64.350693,8.525284,-146.715118,,,
729601036.095302,1.431888,-4.230926,-8.85148,0.065033,0.021652,1.003159,-0.000311,-0.015432,0.002833,64.350693,8.525284,-146.715118,,,
729601036.09867,1.431888,-4.230926,-8.85148,0.065033,0.021652,1.003159,-0.000311,-0.015432,0.002833,64.350693,8.525284,-146.715118,,,
729601036.101937,1.433689,-4.234783,-8.852705,0.068985,0.02179,1.001801,-0.005297,-0.008722,-0.008955,64.350693,8.525284,-146.715118,,,
729601036.105269,1.431551,-4.238278,-8.855273,0.068985,0.02179,1.001801,-0.005297,-0.008722,-0.008955,64.350693,8.525284,-146.715118,,,
729601036.108594,1.431551,-4.238278,-8.855273,0.068985,0.02179,1.001801,-0.005297,-0.008722,-0.008955,64.350693,8.525284,-146.715118,,,
729601036.111926,1.431402,-4.244205,-8.858013,0.074036,0.02066,1.001968,-0.008226,-0.013583,-0.010247,64.350693,8.525284,-146.715118,,,
729601036.115312,1.429875,-4.249694,-8.861045,0.074036,0.02066,1.001968,-0.008226,-0.013583,-0.010247,64.350693,8.525284,-146.715118,,,
729601036.118588,1.429875,-4.249694,-8.861045,0.074036,0.02066,1.001968,-0.008226,-0.013583,-0.010247,64.350693,8.525284,-146.715118,,,
729601036.121933,1.430539,-4.257316,-8.864629,0.075378,0.018158,1.003525,0.00502,-0.023652,-0.01515,64.350693,8.525284,-146.715118,,,
729601036.125257,1.434034,-4.265531,-8.868881,0.075378,0.018158,1.003525,0.00502,-0.023652,-0.01515,64.350693,8.525284,-146.715118,,,
729601036.128589,1.434034,-4.265531,-8.868881,0.075378,0.018158,1.003525,0.00502,-0.023652,-0.01515,64.350693,8.525284,-146.715118,,,
729601036.131993,1.438623,-4.274311,-8.873886,0.072647,0.01828,1.009827,0.026041,-0.037463,-0.021737,64.004272,8.432465,-146.236847,,,
729601036.135278,1.447734,-4.286527,-8.879583,0.072647,0.01828,1.009827,0.026041,-0.037463,-0.021737,64.004272,8.432465,-146.236847,,,
729601036.138595,1.447734,-4.286527,-8.879583,0.072647,0.01828,1.009827,0.026041,-0.037463,-0.021737,64.004272,8.432465,-146.236847,,,
729601036.14193,1.457131,-4.29961,-8.885906,0.072983,0.016708,1.008026,0.042415,-0.050564,-0.027188,64.004272,8.432465,-146.236847,,,
729601036.145284,1.470373,-4.314949,-8.892831,0.072983,0.016708,1.008026,0.042415,-0.050564,-0.027188,64.004272,8.432465,-146.236847,,,
729601036.148616,1.470373,-4.314949,-8.892831,0.072983,0.016708,1.008026,0.042415,-0.050564,-0.027188,64.004272,8.432465,-146.236847,,,
729601036.151929,1.483644,-4.329285,-8.899947,0.07373,0.016281,1.003494,0.049617,-0.052888,-0.02889,64.004272,8.432465,-146.236847,,,
729601036.15527,1.498687,-4.344919,-8.906935,0.07373,0.016281,1.003494,0.049617,-0.052888,-0.02889,64.004272,8.432465,-146.236847,,,
729601036.158579,1.498687,-4.344919,-8.906935,0.07373,0.016281,1.003494,0.049617,-0.052888,-0.02889,64.004272,8.432465,-146.236847,,,
729601036.161929,1.513529,-4.357455,-8.914088,0.072052,0.015839,1.005829,0.054763,-0.048698,-0.029966,64.004272,8.432465,-146.236847,,,
729601036.16529,1.529623,-4.370476,-8.920744,0.072052,0.015839,1.005829,0.054763,-0.048698,-0.029966,64.004272,8.432465,-146.236847,,,
729601036.168533,1.529623,-4.370476,-8.920744,0.072052,0.015839,1.005829,0.054763,-0.048698,-0.029966,64.004272,8.432465,-146.236847,,,
729601036.171863,1.544485,-4.377305,-8.926929,0.07428,0.01886,1.005646,0.055772,-0.024887,-0.026239,64.231735,8.607712,-146.500488,,,
729601036.175181,1.560474,-4.383411,-8.933408,0.07428,0.01886,1.005646,0.055772,-0.024887,-0.026239,64.231735,8.607712,-146.500488,,,
729601036.178388,1.560474,-4.383411,-8.933408,0.07428,0.01886,1.005646,0.055772,-0.024887,-0.026239,64.231735,8.607712,-146.500488,,,
729601036.181892,1.574371,-4.384312,-8.940422,0.077042,0.022491,1.009201,0.051944,0.000839,-0.029443,64.231735,8.607712,-146.500488,,,
729601036.185212,1.589417,-4.383532,-8.947394,0.077042,0.022491,1.009201,0.051944,0.000839,-0.029443,64.231735,8.607712,-146.500488,,,
729601036.188538,1.589417,-4.383532,-8.947394,0.077042,0.022491,1.009201,0.051944,0.000839,-0.029443,64.231735,8.607712,-146.500488,,,
729601036.191913,1.601834,-4.380455,-8.954186,0.078842,0.02359,1.001602,0.049612,0.012852,-0.027948,64.231735,8.607712,-146.500488,,,
729601036.195183,1.6162,-4.376369,-8.960822,0.078842,0.02359,1.001602,0.049612,0.012852,-0.027948,64.231735,8.607712,-146.500488,,,
729601036.198563,1.6162,-4.376369,-8.960822,0.078842,0.02359,1.001602,0.049612,0.012852,-0.027948,64.231735,8.607712,-146.500488,,,
729601036.20197,1.6162,-4.376369,-8.960822,0.078842,0.02359,1.001602,0.049612,0.012852,-0.027948,64.231735,8.607712,-146.500488,,,
729601036.205173,1.643969,-4.364276,-8.972211,0.074142,0.021149,0.996735,0.053956,0.022498,-0.024884,64.231735,8.607712,-146.500488,,,
729601036.208642,1.643969,-4.364276,-8.972211,0.074142,0.021149,0.996735,0.053956,0.022498,-0.024884,64.231735,8.607712,-146.500488,,,
729601036.211936,1.656313,-4.357641,-8.976795,0.065506,0.019592,0.990875,0.053656,0.019404,-0.020197,64.255325,8.494553,-146.362701,,,
729601036.215345,1.672306,-4.352762,-8.980704,0.065506,0.019592,0.990875,0.053656,0.019404,-0.020197,64.255325,8.494553,-146.362701,,,
729601036.21869,1.672306,-4.352762,-8.980704,0.065506,0.019592,0.990875,0.053656,0.019404,-0.020197,64.255325,8.494553,-146.362701,,,
729601036.222037,1.686019,-4.347545,-8.984853,0.062759,0.020859,0.981186,0.060737,0.01616,-0.0222,64.255325,8.494553,-146.362701,,,
729601036.225304,1.704298,-4.343833,-8.990064,0.062759,0.020859,0.981186,0.060737,0.01616,-0.0222,64.255325,8.494553,-146.362701,,,
729601036.228621,1.704298,-4.343833,-8.990064,0.062759,0.020859,0.981186,0.060737,0.01616,-0.0222,64.255325,8.494553,-146.362701,,,
729601036.231991,1.719196,-4.339902,-8.997006,0.069641,0.027283,0.973343,0.061654,0.010287,-0.034114,64.255325,8.494553,-146.362701,,,
729601036.235318,1.737301,-4.338177,-9.005777,0.069641,0.027283,0.973343,0.061654,0.010287,-0.034114,64.255325,8.494553,-146.362701,,,
729601036.238616,1.737301,-4.338177,-9.005777,0.069641,0.027283,0.973343,0.061654,0.010287,-0.034114,64.255325,8.494553,-146.362701,,,
729601036.241901,1.751691,-4.335961,-9.016547,0.075882,0.030869,0.963776,0.059673,0.007859,-0.047759,64.255325,8.494553,-146.362701,,,
729601036.245197,1.769069,-4.334304,-9.02524,0.075882,0.030869,0.963776,0.059673,0.007859,-0.047759,64.255325,8.494553,-146.362701,,,
729601036.248557,1.769069,-4.334304,-9.02524,0.075882,0.030869,0.963776,0.059673,0.007859,-0.047759,64.255325,8.494553,-146.362701,,,
729601036.251886,1.782001,-4.332112,-9.025861,0.077087,0.031067,0.961288,0.052796,0.011625,0.009232,64.246002,8.184616,-146.375534,,,
729601036.255206,1.797087,-4.330192,-9.033549,0.077087,0.031067,0.961288,0.052796,0.011625,0.009232,64.246002,8.184616,-146.375534,,,
729601036.258529,1.797087,-4.330192,-9.033549,0.077087,0.031067,0.961288,0.052796,0.011625,0.009232,64.246002,8.184616,-146.375534,,,
729601036.261858,1.809661,-4.327965,-9.058069,0.078064,0.029922,0.957703,0.041624,0.013,-0.107472,64.246002,8.184616,-146.375534,,,
729601036.265223,1.821801,-4.322183,-9.076178,0.078064,0.029922,0.957703,0.041624,0.013,-0.107472,64.246002,8.184616,-146.375534,,,
729601036.268566,1.821801,-4.322183,-9.076178,0.078064,0.029922,0.957703,0.041624,0.013,-0.107472,64.246002,8.184616,-146.375534,,,
729601036.271752,1.828931,-4.313268,-9.077788,0.080307,0.028137,0.964081,0.030901,0.043432,0.008401,64.246002,8.184616,-146.375534,,,
729601036.275193,1.837416,-4.30083,-9.085375,0.080307,0.028137,0.964081,0.030901,0.043432,0.008401,64.246002,8.184616,-146.375534,,,
729601036.278508,1.837416,-4.30083,-9.085375,0.080307,0.028137,0.964081,0.030901,0.043432,0.008401,64.246002,8.184616,-146.375534,,,
729601036.281627,1.843354,-4.283793,-9.10838,0.079727,0.029007,0.974564,0.02736,0.064005,-0.098689,64.246002,8.184616,-146.375534,,,
729601036.285253,1.852399,-4.262824,-9.123175,0.079727,0.029007,0.974564,0.02736,0.064005,-0.098689,64.246002,8.184616,-146.375534,,,
729601036.28852,1.852399,-4.262824,-9.123175,0.079727,0.029007,0.974564,0.02736,0.064005,-0.098689,64.246002,8.184616,-146.375534,,,
729601036.291849,1.858849,-4.235383,-9.118195,0.070786,0.023148,0.983337,0.038979,0.097896,0.039122,64.246002,8.184616,-146.375534,,,
729601036.295183,1.869271,-4.20795,-9.115854,0.070786,0.023148,0.983337,0.038979,0.097896,0.039122,64.238327,8.165344,-146.470169,,,
729601036.298526,1.869271,-4.20795,-9.115854,0.070786,0.023148,0.983337,0.038979,0.097896,0.039122,64.238327,8.165344,-146.470169,,,
729601036.301896,1.878243,-4.177672,-9.128235,0.063858,0.019928,0.983429,0.035378,0.104408,-0.063045,64.238327,8.165344,-146.470169,,,
729601036.305171,1.887911,-4.147814,-9.133247,0.063858,0.019928,0.983429,0.035378,0.104408,-0.063045,64.238327,8.165344,-146.470169,,,
729601036.30853,1.887911,-4.147814,-9.133247,0.063858,0.019928,0.983429,0.035378,0.104408,-0.063045,64.238327,8.165344,-146.470169,,,
729601036.311841,1.893622,-4.119972,-9.120027,0.061462,0.02713,0.972412,0.021016,0.097653,0.065244,64.238327,8.165344,-146.470169,,,
729601036.315065,1.897552,-4.096306,-9.111208,0.061462,0.02713,0.972412,0.021016,0.097653,0.065244,64.238327,8.165344,-146.470169,,,
729601036.318561,1.897552,-4.096306,-9.111208,0.061462,0.02713,0.972412,0.021016,0.097653,0.065244,64.238327,8.165344,-146.470169,,,
729601036.321838,1.90079,-4.079948,-9.120014,0.06189,0.037888,0.964188,0.007539,0.049959,-0.057026,64.238327,8.165344,-146.470169,,,
729601036.325191,1.901674,-4.068784,-9.125582,0.06189,0.037888,0.964188,0.007539,0.049959,-0.057026,64.238327,8.165344,-146.470169,,,
729601036.32851,1.901674,-4.068784,-9.125582,0.06189,0.037888,0.964188,0.007539,0.049959,-0.057026,64.238327,8.165344,-146.470169,,,
729601036.331867,1.899982,-4.064188,-9.115224,0.066895,0.045593,0.961273,-0.002639,0.015034,0.054707,64.238327,8.165344,-146.470169,,,
729601036.3352,1.897973,-4.063812,-9.111277,0.066895,0.045593,0.961273,-0.002639,0.015034,0.054707,64.620529,8.177902,-146.45874,,,
729601036.338505,1.897973,-4.063812,-9.111277,0.066895,0.045593,0.961273,-0.002639,0.015034,0.054707,64.620529,8.177902,-146.45874,,,
729601036.341846,1.89555,-4.067709,-9.127917,0.072968,0.050781,0.969193,-0.013025,-0.012253,-0.088448,64.620529,8.177902,-146.45874,,,
729601036.345176,1.892469,-4.071065,-9.14331,0.072968,0.050781,0.969193,-0.013025,-0.012253,-0.088448,64.620529,8.177902,-146.45874,,,
729601036.34852,1.892469,-4.071065,-9.14331,0.072968,0.050781,0.969193,-0.013025,-0.012253,-0.088448,64.620529,8.177902,-146.45874,,,
729601036.351902,1.887618,-4.075341,-9.141875,0.081482,0.0466,0.983002,-0.014763,-0.006431,0.02886,64.620529,8.177902,-146.45874,,,
729601036.35517,1.883278,-4.07753,-9.143542,0.081482,0.0466,0.983002,-0.014763,-0.006431,0.02886,64.620529,8.177902,-146.45874,,,
729601036.358511,1.883278,-4.07753,-9.143542,0.081482,0.0466,0.983002,-0.014763,-0.006431,0.02886,64.620529,8.177902,-146.45874,,,
729601036.36185,1.879215,-4.077445,-9.161664,0.081085,0.039612,0.995483,-0.017598,0.010488,-0.085938,64.620529,8.177902,-146.45874,,,
729601036.365193,1.875146,-4.071375,-9.175592,0.081085,0.039612,0.995483,-0.017598,0.010488,-0.085938,64.620529,8.177902,-146.45874,,,
729601036.368569,1.875146,-4.071375,-9.175592,0.081085,0.039612,0.995483,-0.017598,0.010488,-0.085938,64.620529,8.177902,-146.45874,,,
729601036.371892,1.86893,-4.059369,-9.171183,0.080612,0.032318,1.006409,-0.015337,0.053964,0.041944,64.620529,8.177902,-146.45874,,,
729601036.37519,1.863963,-4.043781,-9.168824,0.080612,0.032318,1.006409,-0.015337,0.053964,0.041944,64.352509,8.244247,-146.307144,,,
729601036.378595,1.863963,-4.043781,-9.168824,0.080612,0.032318,1.006409,-0.015337,0.053964,0.041944,64.352509,8.244247,-146.307144,,,
729601036.382009,1.858967,-4.025006,-9.184232,0.080826,0.037292,1.006226,-0.015508,0.066227,-0.081904,64.352509,8.244247,-146.307144,,,
729601036.3852,1.855999,-4.005014,-9.198067,0.080826,0.037292,1.006226,-0.015508,0.066227,-0.081904,64.352509,8.244247,-146.307144,,,
729601036.388677,1.855999,-4.005014,-9.198067,0.080826,0.037292,1.006226,-0.015508,0.066227,-0.081904,64.352509,8.244247,-146.307144,,,
729601036.39192,1.853226,-3.982875,-9.194783,0.080048,0.038956,1.003265,-0.005772,0.078432,0.037123,64.352509,8.244247,-146.307144,,,
729601036.395245,1.852568,-3.962692,-9.19414,0.080048,0.038956,1.003265,-0.005772,0.078432,0.037123,64.352509,8.244247,-146.307144,,,
729601036.398583,1.852568,-3.962692,-9.19414,0.080048,0.038956,1.003265,-0.005772,0.078432,0.037123,64.352509,8.244247,-146.307144,,,
729601036.402039,1.856872,-3.94389,-9.211481,0.066956,0.033417,1.007324,0.008755,0.060496,-0.089242,64.352509,8.244247,-146.307144,,,
729601036.405378,1.861405,-3.927841,-9.226373,0.066956,0.033417,1.007324,0.008755,0.060496,-0.089242,64.352509,8.244247,-146.307144,,,
729601036.408684,1.861405,-3.927841,-9.226373,0.066956,0.033417,1.007324,0.008755,0.060496,-0.089242,64.352509,8.244247,-146.307144,,,
729601036.411966,1.870867,-3.915835,-9.222454,0.057877,0.021591,1.008316,0.024251,0.040065,0.04086,64.352509,8.244247,-146.307144,,,
729601036.415362,1.877994,-3.907695,-9.21883,0.057877,0.021591,1.008316,0.024251,0.040065,0.04086,64.570541,7.828369,-145.968353,,,
729601036.41869,1.877994,-3.907695,-9.21883,0.057877,0.021591,1.008316,0.024251,0.040065,0.04086,64.570541,7.828369,-145.968353,,,
729601036.422016,1.891299,-3.905141,-9.232449,0.053421,0.01561,1.00354,0.025449,0.016595,-0.080226,64.570541,7.828369,-145.968353,,,
729601036.425345,1.899713,-3.90059,-9.245214,0.053421,0.01561,1.00354,0.025449,0.016595,-0.080226,64.570541,7.828369,-145.968353,,,
729601036.428652,1.899713,-3.90059,-9.245214,0.053421,0.01561,1.00354,0.025449,0.016595,-0.080226,64.570541,7.828369,-145.968353,,,
729601036.431974,1.910374,-3.900828,-9.240046,0.062057,0.020264,1.004211,0.028591,0.013412,0.043894,64.570541,7.828369,-145.968353,,,
729601036.43537,1.917747,-3.899667,-9.236151,0.062057,0.020264,1.004211,0.028591,0.013412,0.043894,64.570541,7.828369,-145.968353,,,
729601036.438624,1.917747,-3.899667,-9.236151,0.062057,0.020264,1.004211,0.028591,0.013412,0.043894,64.570541,7.828369,-145.968353,,,
729601036.441962,1.926704,-3.903619,-9.250829,0.068481,0.028,1.001251,0.025102,-0.003748,-0.086298,64.570541,7.828369,-145.968353,,,
729601036.445331,1.933594,-3.903962,-9.265941,0.068481,0.028,1.001251,0.025102,-0.003748,-0.086298,64.570541,7.828369,-145.968353,,,
729601036.44862,1.933594,-3.903962,-9.265941,0.068481,0.028,1.001251,0.025102,-0.003748,-0.086298,64.570541,7.828369,-145.968353,,,
729601036.452021,1.937448,-3.905184,-9.262983,0.069244,0.035156,0.999939,0.013781,0.01551,0.039873,64.570541,7.828369,-145.968353,,,
729601036.455337,1.939487,-3.901121,-9.260672,0.069244,0.035156,0.999939,0.013781,0.01551,0.039873,64.570541,7.828369,-145.968353,,,
729601036.458623,1.939487,-3.901121,-9.260672,0.069244,0.035156,0.999939,0.013781,0.01551,0.039873,64.650162,8.025116,-146.394562,,,
729601036.462005,1.941432,-3.899495,-9.276355,0.069138,0.040756,0.998993,-0.005812,0.018231,-0.08511,64.650162,8.025116,-146.394562,,,
729601036.465292,1.939678,-3.894057,-9.292019,0.069138,0.040756,0.998993,-0.005812,0.018231,-0.08511,64.650162,8.025116,-146.394562,,,
729601036.46868,1.939678,-3.894057,-9.292019,0.069138,0.040756,0.998993,-0.005812,0.018231,-0.08511,64.650162,8.025116,-146.394562,,,
729601036.471936,1.936262,-3.890265,-9.289797,0.072937,0.040771,0.991821,-0.015888,0.023678,0.039995,64.650162,8.025116,-146.394562,,,
729601036.475342,1.930785,-3.884777,-9.286774,0.072937,0.040771,0.991821,-0.015888,0.023678,0.039995,64.650162,8.025116,-146.394562,,,
729601036.478591,1.930785,-3.884777,-9.286774,0.072937,0.040771,0.991821,-0.015888,0.023678,0.039995,64.650162,8.025116,-146.394562,,,
729601036.482031,1.924121,-3.877762,-9.301199,0.07251,0.041122,0.991226,-0.023057,0.019111,-0.080959,64.650162,8.025116,-146.394562,,,
729601036.485375,1.918484,-3.871913,-9.316057,0.07251,0.041122,0.991226,-0.023057,0.019111,-0.080959,64.650162,8.025116,-146.394562,,,
729601036.488617,1.918484,-3.871913,-9.316057,0.07251,0.041122,0.991226,-0.023057,0.019111,-0.080959,64.650162,8.025116,-146.394562,,,
729601036.49193,1.908456,-3.862632,-9.312419,0.069092,0.038879,0.995407,-0.015875,0.023495,0.048446,64.650162,8.025116,-146.394562,,,
729601036.495379,1.903333,-3.859454,-9.305973,0.069092,0.038879,0.995407,-0.015875,0.023495,0.048446,64.650162,8.025116,-146.394562,,,
729601036.498607,1.903333,-3.859454,-9.305973,0.069092,0.038879,0.995407,-0.015875,0.023495,0.048446,64.715866,8.075974,-146.390045,,,
729601036.502035,1.895134,-3.856661,-9.316782,0.065079,0.034683,0.996078,-0.01507,-0.004545,-0.071366,64.715866,8.075974,-146.390045,,,
729601036.505325,1.891566,-3.858946,-9.328405,0.065079,0.034683,0.996078,-0.01507,-0.004545,-0.071366,64.715866,8.075974,-146.390045,,,
729601036.508617,1.891566,-3.858946,-9.328405,0.065079,0.034683,0.996078,-0.01507,-0.004545,-0.071366,64.715866,8.075974,-146.390045,,,
729601036.511941,1.884031,-3.862253,-9.321241,0.062485,0.032501,0.996994,-0.014338,-0.009231,0.059774,64.715866,8.075974,-146.390045,,,
729601036.515314,1.87813,-3.867663,-9.311733,0.062485,0.032501,0.996994,-0.014338,-0.009231,0.059774,64.715866,8.075974,-146.390045,,,
729601036.518641,1.87813,-3.867663,-9.311733,0.062485,0.032501,0.996994,-0.014338,-0.009231,0.059774,64.715866,8.075974,-146.390045,,,
729601036.521956,1.871158,-3.875655,-9.320767,0.066788,0.035309,0.995728,-0.025454,-0.029462,-0.068905,64.715866,8.075974,-146.390045,,,
729601036.525257,1.871158,-3.875655,-9.320767,0.066788,0.035309,0.995728,-0.025454,-0.029462,-0.068905,64.715866,8.075974,-146.390045,,,
729601036.528649,1.864135,-3.88457,-9.334096,0.066788,0.035309,0.995728,-0.025454,-0.029462,-0.068905,64.715866,8.075974,-146.390045,,,
729601036.532019,1.856388,-3.8945,-9.331339,0.071777,0.041229,0.997421,-0.030639,-0.030475,0.043586,64.715866,8.075974,-146.390045,,,
729601036.535326,1.856388,-3.904917,-9.32684,0.071777,0.041229,0.997421,-0.030639,-0.030475,0.043586,64.715866,8.075974,-146.390045,,,
729601036.538647,1.847464,-3.904917,-9.32684,0.071777,0.041229,0.997421,-0.030639,-0.030475,0.043586,64.6427,8.111252,-146.321304,,,
729601036.541937,1.841482,-3.915973,-9.340819,0.076569,0.041962,0.999786,-0.035994,-0.035675,-0.085086,64.6427,8.111252,-146.321304,,,
729601036.545332,1.841482,-3.915973,-9.340819,0.076569,0.041962,0.999786,-0.035994,-0.035675,-0.085086,64.6427,8.111252,-146.321304,,,
729601036.548704,1.832576,-3.925264,-9.358532,0.076569,0.041962,0.999786,-0.035994,-0.035675,-0.085086,64.6427,8.111252,-146.321304,,,
729601036.551977,1.825225,-3.934186,-9.358106,0.071854,0.033463,1.004288,-0.032687,-0.017772,0.040938,64.6427,8.111252,-146.321304,,,
729601036.555292,1.825225,-3.934186,-9.358106,0.071854,0.033463,1.004288,-0.032687,-0.017772,0.040938,64.6427,8.111252,-146.321304,,,
729601036.558595,1.816394,-3.940172,-9.352649,0.071854,0.033463,1.004288,-0.032687,-0.017772,0.040938,64.6427,8.111252,-146.321304,,,
729601036.561977,1.81237,-3.946219,-9.363249,0.067963,0.026535,1.007767,-0.024219,-0.016254,-0.071906,64.6427,8.111252,-146.321304,,,
729601036.565367,1.81237,-3.949514,-9.376412,0.067963,0.026535,1.007767,-0.024219,-0.016254,-0.071906,64.6427,8.111252,-146.321304,,,
729601036.568699,1.80739,-3.949514,-9.376412,0.067963,0.026535,1.007767,-0.024219,-0.016254,-0.071906,64.6427,8.111252,-146.321304,,,
729601036.571952,1.805005,-3.949562,-9.370783,0.066025,0.024139,1.010651,-0.00729,0.007598,0.058174,64.6427,8.111252,-146.321304,,,
729601036.575377,1.803078,-3.948189,-9.359796,0.066025,0.024139,1.010651,-0.00729,0.007598,0.058174,64.6427,8.111252,-146.321304,,,
729601036.578631,1.803078,-3.948189,-9.359796,0.066025,0.024139,1.010651,-0.00729,0.007598,0.058174,64.6427,8.111252,-146.321304,,,
729601036.581972,1.80489,-3.944134,-9.3647,0.065353,0.024277,1.015854,0.008467,0.014619,-0.053563,64.442551,8.075409,-146.285202,,,
729601036.585316,1.80489,-3.944134,-9.3647,0.065353,0.024277,1.015854,0.008467,0.014619,-0.053563,64.442551,8.075409,-146.285202,,,
729601036.588613,1.807878,-3.938638,-9.373385,0.065353,0.024277,1.015854,0.008467,0.014619,-0.053563,64.442551,8.075409,-146.285202,,,
729601036.591928,1.810725,-3.929181,-9.365022,0.065399,0.026062,1.009811,0.012986,0.036743,0.065426,64.442551,8.075409,-146.285202,,,
729601036.595318,1.810725,-3.929181,-9.365022,0.065399,0.026062,1.009811,0.012986,0.036743,0.065426,64.442551,8.075409,-146.285202,,,
729601036.598646,1.814534,-3.920389,-9.352319,0.065399,0.026062,1.009811,0.012986,0.036743,0.065426,64.442551,8.075409,-146.285202,,,
729601036.60198,1.821381,-3.912606,-9.359141,0.070221,0.03154,1.001862,0.012533,0.025075,-0.070831,64.442551,8.075409,-146.285202,,,
729601036.60528,1.821381,-3.912606,-9.359141,0.070221,0.03154,1.001862,0.012533,0.025075,-0.070831,64.442551,8.075409,-146.285202,,,
729601036.608622,1.82536,-3.906019,-9.373836,0.070221,0.03154,1.001862,0.012533,0.025075,-0.070831,64.442551,8.075409,-146.285202,,,
729601036.611882,1.831049,-3.902764,-9.372522,0.068573,0.034729,0.991562,0.013366,0.01634,0.040514,64.442551,8.075409,-146.285202,,,
729601036.615274,1.831049,-3.902764,-9.372522,0.068573,0.034729,0.991562,0.013366,0.01634,0.040514,64.442551,8.075409,-146.285202,,,
729601036.618725,1.834212,-3.90174,-9.366656,0.068573,0.034729,0.991562,0.013366,0.01634,0.040514,64.442551,8.075409,-146.285202,,,
729601036.622,1.839998,-3.906569,-9.377603,0.06459,0.03299,0.985092,0.010454,-0.016337,-0.077037,64.477707,8.078964,-146.171585,,,
729601036.625295,1.839998,-3.906569,-9.377603,0.06459,0.03299,0.985092,0.010454,-0.016337,-0.077037,64.477707,8.078964,-146.171585,,,
729601036.628659,1.843272,-3.912547,-9.393051,0.06459,0.03299,0.985092,0.010454,-0.016337,-0.077037,64.477707,8.078964,-146.171585,,,
729601036.631963,1.84423,-3.920319,-9.399725,0.061386,0.033493,0.97908,0.002723,-0.025255,-0.015327,64.477707,8.078964,-146.171585,,,
729601036.635367,1.84423,-3.920319,-9.399725,0.061386,0.033493,0.97908,0.002723,-0.025255,-0.015327,64.477707,8.078964,-146.171585,,,
729601036.638621,1.844149,-3.929503,-9.404231,0.061386,0.033493,0.97908,0.002723,-0.025255,-0.015327,64.477707,8.078964,-146.171585,,,
729601036.64194,1.83989,-3.939856,-9.409687,0.061295,0.035568,0.975739,-0.014575,-0.038432,-0.020655,64.477707,8.078964,-146.171585,,,
729601036.645276,1.83989,-3.939856,-9.409687,0.061295,0.035568,0.975739,-0.014575,-0.038432,-0.020655,64.477707,8.078964,-146.171585,,,
729601036.648699,1.835342,-3.952031,-9.414717,0.061295,0.035568,0.975739,-0.014575,-0.038432,-0.020655,64.477707,8.078964,-146.171585,,,
729601036.652036,1.827272,-3.96262,-9.418215,0.062027,0.032639,0.975235,-0.022341,-0.036272,-0.009078,64.477707,8.078964,-146.171585,,,
729601036.655273,1.827272,-3.96262,-9.418215,0.062027,0.032639,0.975235,-0.022341,-0.036272,-0.009078,64.477707,8.078964,-146.171585,,,
729601036.658597,1.820194,-3.972472,-9.420301,0.062027,0.032639,0.975235,-0.022341,-0.036272,-0.009078,64.477707,8.078964,-146.171585,,,
729601036.662021,1.809531,-3.978285,-9.421695,0.064667,0.030228,0.982834,-0.03316,-0.017159,-0.003196,64.416138,8.077179,-146.136719,,,
729601036.665347,1.809531,-3.978285,-9.421695,0.064667,0.030228,0.982834,-0.03316,-0.017159,-0.003196,64.416138,8.077179,-146.136719,,,
729601036.668657,1.800737,-3.982895,-9.422626,0.064667,0.030228,0.982834,-0.03316,-0.017159,-0.003196,64.416138,8.077179,-146.136719,,,
729601036.671971,1.792128,-3.984013,-9.422815,0.07103,0.030777,0.989944,-0.024763,0.001543,0.001557,64.416138,8.077179,-146.136719,,,
729601036.675264,1.792128,-3.984013,-9.422815,0.07103,0.030777,0.989944,-0.024763,0.001543,0.001557,64.416138,8.077179,-146.136719,,,
729601036.678612,1.785092,-3.983473,-9.422204,0.07103,0.030777,0.989944,-0.024763,0.001543,0.001557,64.416138,8.077179,-146.136719,,,
729601036.682066,1.779604,-3.980844,-9.421336,0.07489,0.028259,0.993729,-0.018805,0.01857,0.002851,64.416138,8.077179,-146.136719,,,
729601036.685364,1.779604,-3.980844,-9.421336,0.07489,0.028259,0.993729,-0.018805,0.01857,0.002851,64.416138,8.077179,-146.136719,,,
729601036.688648,1.774884,-3.975462,-9.420339,0.07489,0.028259,0.993729,-0.018805,0.01857,0.002851,64.416138,8.077179,-146.136719,,,
729601036.691932,1.77206,-3.967849,-9.419104,0.075607,0.024124,0.995209,-0.010568,0.030602,0.004031,64.416138,8.077179,-146.136719,,,
729601036.695289,1.77206,-3.967849,-9.419104,0.075607,0.024124,0.995209,-0.010568,0.030602,0.004031,64.416138,8.077179,-146.136719,,,
729601036.698653,1.769139,-3.959622,-9.418447,0.075607,0.024124,0.995209,-0.010568,0.030602,0.004031,64.416138,8.077179,-146.136719,,,
729601036.701981,1.766979,-3.950248,-9.418709,0.074448,0.02562,0.992767,-0.009823,0.029335,-0.002168,64.451813,8.119537,-146.142029,,,
729601036.705301,1.766979,-3.950248,-9.418709,0.074448,0.02562,0.992767,-0.009823,0.029335,-0.002168,64.451813,8.119537,-146.142029,,,
729601036.708712,1.763819,-3.943345,-9.419513,0.074448,0.02562,0.992767,-0.009823,0.029335,-0.002168,64.451813,8.119537,-146.142029,,,
729601036.711976,1.761188,-3.935925,-9.421212,0.073288,0.029175,0.985168,-0.013858,0.020058,-0.007765,64.451813,8.119537,-146.142029,,,
729601036.715284,1.761188,-3.935925,-9.421212,0.073288,0.029175,0.985168,-0.013858,0.020058,-0.007765,64.451813,8.119537,-146.142029,,,
729601036.718707,1.756501,-3.932075,-9.42325,0.073288,0.029175,0.985168,-0.013858,0.020058,-0.007765,64.451813,8.119537,-146.142029,,,
729601036.721857,1.752004,-3.929222,-9.425854,0.069565,0.030823,0.981888,-0.020912,0.003008,-0.010932,64.451813,8.119537,-146.142029,,,
729601036.725113,1.752004,-3.929222,-9.425854,0.069565,0.030823,0.981888,-0.020912,0.003008,-0.010932,64.451813,8.119537,-146.142029,,,
729601036.728359,1.745636,-3.931032,-9.429185,0.069565,0.030823,0.981888,-0.020912,0.003008,-0.010932,64.451813,8.119537,-146.142029,,,
729601036.731966,1.739214,-3.935209,-9.432593,0.067429,0.03302,0.981461,-0.024736,-0.02242,-0.010993,64.451813,8.119537,-146.142029,,,
729601036.735243,1.739214,-3.935209,-9.432593,0.067429,0.03302,0.981461,-0.024736,-0.02242,-0.010993,64.451813,8.119537,-146.142029,,,
729601036.738565,1.731883,-3.942855,-9.436015,0.067429,0.03302,0.981461,-0.024736,-0.02242,-0.010993,64.451813,8.119537,-146.142029,,,
729601036.741867,1.724142,-3.951106,-9.43943,0.066879,0.034042,0.986862,-0.027895,-0.027852,-0.010665,64.451813,8.119537,-146.142029,,,
729601036.745332,1.724142,-3.951106,-9.43943,0.066879,0.034042,0.986862,-0.027895,-0.027852,-0.010665,64.651825,8.494888,-146.443222,,,
729601036.748711,1.715659,-3.959522,-9.442656,0.066879,0.034042,0.986862,-0.027895,-0.027852,-0.010665,64.651825,8.494888,-146.443222,,,
729601036.75199,1.706708,-3.968562,-9.445906,0.068405,0.034241,0.996231,-0.03225,-0.024465,-0.010715,64.651825,8.494888,-146.443222,,,
729601036.75526,1.706708,-3.968562,-9.445906,0.068405,0.034241,0.996231,-0.03225,-0.024465,-0.010715,64.651825,8.494888,-146.443222,,,
729601036.758685,1.706708,-3.968562,-9.445906,0.068405,0.034241,0.996231,-0.03225,-0.024465,-0.010715,64.651825,8.494888,-146.443222,,,
729601036.762007,1.688098,-3.981858,-9.45413,0.07576,0.033157,1.001373,-0.032748,-0.00837,-0.015317,64.651825,8.494888,-146.443222,,,
729601036.765304,1.688098,-3.981858,-9.45413,0.07576,0.033157,1.001373,-0.032748,-0.00837,-0.015317,64.651825,8.494888,-146.443222,,,
729601036.768672,1.678679,-3.983053,-9.459518,0.07576,0.033157,1.001373,-0.032748,-0.00837,-0.015317,64.651825,8.494888,-146.443222,,,
729601036.771959,1.668304,-3.982334,-9.465698,0.080811,0.029785,1.009903,-0.029768,0.01616,-0.021446,64.651825,8.494888,-146.443222,,,
729601036.775378,1.668304,-3.982334,-9.465698,0.080811,0.029785,1.009903,-0.029768,0.01616,-0.021446,64.651825,8.494888,-146.443222,,,
729601036.778603,1.660156,-3.977197,-9.472362,0.080811,0.029785,1.009903,-0.029768,0.01616,-0.021446,64.651825,8.494888,-146.443222,,,
729601036.781996,1.651836,-3.971761,-9.478626,0.07962,0.023315,1.010864,-0.02739,0.027012,-0.019126,64.651825,8.494888,-146.443222,,,
729601036.785416,1.651836,-3.971761,-9.478626,0.07962,0.023315,1.010864,-0.02739,0.027012,-0.019126,64.587311,8.352402,-146.295975,,,
729601036.788647,1.645498,-3.964552,-9.484096,0.07962,0.023315,1.010864,-0.02739,0.027012,-0.019126,64.587311,8.352402,-146.295975,,,
729601036.791998,1.641745,-3.958064,-9.489154,0.074478,0.022934,1.006607,-0.01222,0.029756,-0.017558,64.587311,8.352402,-146.295975,,,
729601036.795274,1.641745,-3.958064,-9.489154,0.074478,0.022934,1.006607,-0.01222,0.029756,-0.017558,64.587311,8.352402,-146.295975,,,
729601036.798656,1.639905,-3.951111,-9.493683,0.074478,0.022934,1.006607,-0.01222,0.029756,-0.017558,64.587311,8.352402,-146.295975,,,
729601036.802006,1.642033,-3.945608,-9.498002,0.068527,0.024948,1.010239,0.009117,0.019698,-0.017602,64.587311,8.352402,-146.295975,,,
729601036.805403,1.642033,-3.945608,-9.498002,0.068527,0.024948,1.010239,0.009117,0.019698,-0.017602,64.587311,8.352402,-146.295975,,,
729601036.808532,1.6452,-3.941641,-9.502064,0.068527,0.024948,1.010239,0.009117,0.019698,-0.017602,64.587311,8.352402,-146.295975,,,
729601036.811979,1.651088,-3.940022,-9.505155,0.065018,0.027527,1.00827,0.018811,0.003172,-0.011522,64.587311,8.352402,-146.295975,,,
729601036.815316,1.651088,-3.940022,-9.505155,0.065018,0.027527,1.00827,0.018811,0.003172,-0.011522,64.587311,8.352402,-146.295975,,,
729601036.818689,1.656288,-3.940456,-9.507013,0.065018,0.027527,1.00827,0.018811,0.003172,-0.011522,64.587311,8.352402,-146.295975,,,
729601036.821974,1.662368,-3.940925,-9.507549,0.06192,0.024658,1.00415,0.01511,-0.000498,-0.001902,64.587311,8.352402,-146.295975,,,
729601036.825215,1.662368,-3.940925,-9.507549,0.06192,0.024658,1.00415,0.01511,-0.000498,-0.001902,64.800903,8.356949,-146.13179,,,
729601036.828623,1.665709,-3.941759,-9.50713,0.06192,0.024658,1.00415,0.01511,-0.000498,-0.001902,64.800903,8.356949,-146.13179,,,
729601036.831916,1.668402,-3.943489,-9.506733,0.060684,0.025467,1.001022,0.002205,-0.000897,-0.001315,64.800903,8.356949,-146.13179,,,
729601036.835478,1.668402,-3.943489,-9.506733,0.060684,0.025467,1.001022,0.002205,-0.000897,-0.001315,64.800903,8.356949,-146.13179,,,
729601036.83857,1.667788,-3.944395,-9.507003,0.060684,0.025467,1.001022,0.002205,-0.000897,-0.001315,64.800903,8.356949,-146.13179,,,
729601036.84196,1.665681,-3.947382,-9.508034,0.068222,0.03154,0.994034,-0.012879,-2.7e-05,-0.006026,64.800903,8.356949,-146.13179,,,
729601036.845264,1.665681,-3.947382,-9.508034,0.068222,0.03154,0.994034,-0.012879,-2.7e-05,-0.006026,64.800903,8.356949,-146.13179,,,
729601036.84864,1.661755,-3.947807,-9.51002,0.068222,0.03154,0.994034,-0.012879,-2.7e-05,-0.006026,64.800903,8.356949,-146.13179,,,
729601036.851964,1.656136,-3.950029,-9.512588,0.06958,0.035294,0.995148,-0.021205,0.006699,-0.010074,64.800903,8.356949,-146.13179,,,
729601036.855255,1.656136,-3.950029,-9.512588,0.06958,0.035294,0.995148,-0.021205,0.006699,-0.010074,64.800903,8.356949,-146.13179,,,
729601036.858589,1.649428,-3.948953,-9.515078,0.06958,0.035294,0.995148,-0.021205,0.006699,-0.010074,64.800903,8.356949,-146.13179,,,
729601036.861914,1.640658,-3.950657,-9.517118,0.068741,0.035004,0.99324,-0.024842,0.00188,-0.00707,64.800903,8.356949,-146.13179,,,
729601036.865303,1.640658,-3.950657,-9.517118,0.068741,0.035004,0.99324,-0.024842,0.00188,-0.00707,64.634979,8.246002,-146.528915,,,
729601036.86863,1.633306,-3.951634,-9.519028,0.068741,0.035004,0.99324,-0.024842,0.00188,-0.00707,64.634979,8.246002,-146.528915,,,
729601036.871933,1.624788,-3.955105,-9.520842,0.067215,0.033569,0.993469,-0.023225,-0.010107,-0.00667,64.634979,8.246002,-146.528915,,,
729601036.875281,1.624788,-3.955105,-9.520842,0.067215,0.033569,0.993469,-0.023225,-0.010107,-0.00667,64.634979,8.246002,-146.528915,,,
729601036.878638,1.617749,-3.959786,-9.522465,0.067215,0.033569,0.993469,-0.023225,-0.010107,-0.00667,64.634979,8.246002,-146.528915,,,
729601036.881957,1.610963,-3.965661,-9.523862,0.067505,0.032166,0.993698,-0.018154,-0.024175,-0.005306,64.634979,8.246002,-146.528915,,,
729601036.885279,1.610963,-3.965661,-9.523862,0.067505,0.032166,0.993698,-0.018154,-0.024175,-0.005306,64.634979,8.246002,-146.528915,,,
729601036.888653,1.60589,-3.974143,-9.525719,0.067505,0.032166,0.993698,-0.018154,-0.024175,-0.005306,64.634979,8.246002,-146.528915,,,
729601036.891912,1.60141,-3.982592,-9.528083,0.07222,0.030029,0.997543,-0.012787,-0.034594,-0.008936,64.634979,8.246002,-146.528915,,,
729601036.895245,1.60141,-3.982592,-9.528083,0.07222,0.030029,0.997543,-0.012787,-0.034594,-0.008936,64.634979,8.246002,-146.528915,,,
729601036.898696,1.598289,-3.993556,-9.530228,0.07222,0.030029,0.997543,-0.012787,-0.034594,-0.008936,64.634979,8.246002,-146.528915,,,
729601036.901924,1.595312,-4.002202,-9.531969,0.071869,0.02359,1.002319,-0.003406,-0.036258,-0.006283,64.634979,8.246002,-146.528915,,,
729601036.905275,1.595312,-4.002202,-9.531969,0.071869,0.02359,1.002319,-0.003406,-0.036258,-0.006283,64.634979,8.246002,-146.528915,,,
729601036.908708,1.594815,-4.01265,-9.533275,0.071869,0.02359,1.002319,-0.003406,-0.036258,-0.006283,64.531525,8.257202,-146.535553,,,
729601036.911918,1.595256,-4.01956,-9.534349,0.069931,0.022751,1.009933,0.003708,-0.023606,-0.004866,64.531525,8.257202,-146.535553,,,
729601036.915273,1.595256,-4.01956,-9.534349,0.069931,0.022751,1.009933,0.003708,-0.023606,-0.004866,64.531525,8.257202,-146.535553,,,
729601036.91869,1.59679,-4.025444,-9.53565,0.069931,0.022751,1.009933,0.003708,-0.023606,-0.004866,64.531525,8.257202,-146.535553,,,
729601036.921952,1.600624,-4.027988,-9.537028,0.071777,0.024185,1.010696,0.008644,-0.001528,-0.005712,64.531525,8.257202,-146.535553,,,
729601036.925266,1.600624,-4.027988,-9.537028,0.071777,0.024185,1.010696,0.008644,-0.001528,-0.005712,64.531525,8.257202,-146.535553,,,
729601036.928616,1.602774,-4.0281,-9.53812,0.071777,0.024185,1.010696,0.008644,-0.001528,-0.005712,64.531525,8.257202,-146.535553,,,
729601036.931979,1.606468,-4.025486,-9.538872,0.074982,0.025772,1.010803,0.006025,0.016257,-0.003065,64.531525,8.257202,-146.535553,,,
729601036.935239,1.606468,-4.025486,-9.538872,0.074982,0.025772,1.010803,0.006025,0.016257,-0.003065,64.531525,8.257202,-146.535553,,,
729601036.938592,1.608208,-4.020583,-9.538905,0.074982,0.025772,1.010803,0.006025,0.016257,-0.003065,64.531525,8.257202,-146.535553,,,
729601036.941917,1.611436,-4.013745,-9.537985,0.074341,0.026047,1.002502,0.00404,0.027085,0.003835,64.531525,8.257202,-146.535553,,,
729601036.945264,1.611436,-4.013745,-9.537985,0.074341,0.026047,1.002502,0.00404,0.027085,0.003835,64.531525,8.257202,-146.535553,,,
729601036.948597,1.612259,-4.007363,-9.536093,0.074341,0.026047,1.002502,0.00404,0.027085,0.003835,64.648254,8.2677,-146.314575,,,
729601036.952035,1.614225,-4.001825,-9.534272,0.070312,0.02832,0.99614,0.004466,0.016535,0.003379,64.648254,8.2677,-146.314575,,,
729601036.955356,1.614225,-4.001825,-9.534272,0.070312,0.02832,0.99614,0.004466,0.016535,0.003379,64.648254,8.2677,-146.314575,,,
729601036.958596,1.61598,-3.999787,-9.532591,0.070312,0.02832,0.99614,0.004466,0.016535,0.003379,64.648254,8.2677,-146.314575,,,
729601036.961707,1.61908,-4.001102,-9.530852,0.067123,0.03302,0.988205,0.006689,-0.008013,0.003639,64.648254,8.2677,-146.314575,,,
729601036.965328,1.61908,-4.001102,-9.530852,0.067123,0.03302,0.988205,0.006689,-0.008013,0.003639,64.648254,8.2677,-146.314575,,,
729601036.968585,1.621353,-4.005575,-9.529301,0.067123,0.03302,0.988205,0.006689,-0.008013,0.003639,64.648254,8.2677,-146.314575,,,
729601036.971924,1.62466,-4.01334,-9.527792,0.06604,0.031647,0.982544,0.014246,-0.025941,0.002754,64.648254,8.2677,-146.314575,,,
729601036.975294,1.62466,-4.01334,-9.527792,0.06604,0.031647,0.982544,0.014246,-0.025941,0.002754,64.648254,8.2677,-146.314575,,,
729601036.978705,1.62921,-4.022446,-9.526731,0.06604,0.031647,0.982544,0.014246,-0.025941,0.002754,64.648254,8.2677,-146.314575,,,
729601036.981926,1.632773,-4.032295,-9.526571,0.070572,0.032181,0.985672,0.017048,-0.031404,-0.003762,64.648254,8.2677,-146.314575,,,
729601036.98526,1.632773,-4.032295,-9.526571,0.070572,0.032181,0.985672,0.017048,-0.031404,-0.003762,64.648254,8.2677,-146.314575,,,
729601036.988605,1.637605,-4.042307,-9.527469,0.070572,0.032181,0.985672,0.017048,-0.031404,-0.003762,64.557068,8.162064,-146.45932,,,
729601036.991997,1.640592,-4.051472,-9.529378,0.077469,0.033615,0.987595,0.014368,-0.028379,-0.010603,64.557068,8.162064,-146.45932,,,
729601036.995348,1.640592,-4.051472,-9.529378,0.077469,0.033615,0.987595,0.014368,-0.028379,-0.010603,64.557068,8.162064,-146.45932,,,
729601036.998654,1.643359,-4.059647,-9.532223,0.077469,0.033615,0.987595,0.014368,-0.028379,-0.010603,64.557068,8.162064,-146.45932,,,
729601037.001862,1.642886,-4.066374,-9.53507,0.078827,0.035248,0.985474,0.000524,-0.015143,-0.009759,64.557068,8.162064,-146.45932,,,
729601037.005378,1.642886,-4.066374,-9.53507,0.078827,0.035248,0.985474,0.000524,-0.015143,-0.009759,64.557068,8.162064,-146.45932,,,
729601037.008669,1.641553,-4.07035,-9.537649,0.078827,0.035248,0.985474,0.000524,-0.015143,-0.009759,64.557068,8.162064,-146.45932,,,
729601037.011915,1.636951,-4.073237,-9.539521,0.074814,0.034973,0.985489,-0.016823,-0.001293,-0.003806,64.557068,8.162064,-146.45932,,,
729601037.015367,1.636951,-4.073237,-9.539521,0.074814,0.034973,0.985489,-0.016823,-0.001293,-0.003806,64.557068,8.162064,-146.45932,,,
729601037.018609,1.630534,-4.073782,-9.541088,0.074814,0.034973,0.985489,-0.016823,-0.001293,-0.003806,64.557068,8.162064,-146.45932,,,
729601037.02196,1.62248,-4.073757,-9.542476,0.072403,0.034515,0.982254,-0.025156,0.003827,-0.001979,64.557068,8.162064,-146.45932,,,
729601037.02527,1.62248,-4.073757,-9.542476,0.072403,0.034515,0.982254,-0.025156,0.003827,-0.001979,64.557068,8.162064,-146.45932,,,
729601037.02864,1.614685,-4.073228,-9.543184,0.072403,0.034515,0.982254,-0.025156,0.003827,-0.001979,64.557068,8.162064,-146.45932,,,
729601037.031969,1.60664,-4.073094,-9.542991,0.070572,0.032394,0.985962,-0.029648,-0.001919,0.004763,64.68074,8.294739,-146.266678,,,
729601037.035282,1.60664,-4.073094,-9.542991,0.070572,0.032394,0.985962,-0.029648,-0.001919,0.004763,64.68074,8.294739,-146.266678,,,
729601037.038694,1.597587,-4.075317,-9.541768,0.070572,0.032394,0.985962,-0.029648,-0.001919,0.004763,64.68074,8.294739,-146.266678,,,
729601037.041941,1.589451,-4.077641,-9.540383,0.06752,0.026428,0.985123,-0.033847,-0.009457,0.006362,64.68074,8.294739,-146.266678,,,
729601037.04537,1.589451,-4.077641,-9.540383,0.06752,0.026428,0.985123,-0.033847,-0.009457,0.006362,64.68074,8.294739,-146.266678,,,
729601037.048668,1.579359,-4.081666,-9.538794,0.06752,0.026428,0.985123,-0.033847,-0.009457,0.006362,64.68074,8.294739,-146.266678,,,
729601037.051982,1.569641,-4.085763,-9.537037,0.064545,0.024185,0.989319,-0.038368,-0.016295,0.008069,64.68074,8.294739,-146.266678,,,
729601037.055085,1.569641,-4.085763,-9.537037,0.064545,0.024185,0.989319,-0.038368,-0.016295,0.008069,64.68074,8.294739,-146.266678,,,
729601037.058603,1.558618,-4.092652,-9.535134,0.064545,0.024185,0.989319,-0.038368,-0.016295,0.008069,64.68074,8.294739,-146.266678,,,
729601037.061882,1.549062,-4.101887,-9.532897,0.063507,0.021011,0.993362,-0.038575,-0.026815,0.010267,64.68074,8.294739,-146.266678,,,
729601037.065206,1.549062,-4.101887,-9.532897,0.063507,0.021011,0.993362,-0.038575,-0.026815,0.010267,64.68074,8.294739,-146.266678,,,
729601037.068556,1.538163,-4.111349,-9.53064,0.063507,0.021011,0.993362,-0.038575,-0.026815,0.010267,64.68074,8.294739,-146.266678,,,
729601037.071888,1.530039,-4.123356,-9.528892,0.066437,0.019897,0.99527,-0.033252,-0.031706,0.005932,64.542145,8.154312,-146.180588,,,
729601037.075184,1.530039,-4.123356,-9.528892,0.066437,0.019897,0.99527,-0.033252,-0.031706,0.005932,64.542145,8.154312,-146.180588,,,
729601037.07856,1.519917,-4.133281,-9.527768,0.066437,0.019897,0.99527,-0.033252,-0.031706,0.005932,64.542145,8.154312,-146.180588,,,
729601037.08186,1.512157,-4.145102,-9.526628,0.069199,0.022018,1.003052,-0.032676,-0.033137,0.00569,64.542145,8.154312,-146.180588,,,
729601037.08523,1.512157,-4.145102,-9.526628,0.069199,0.022018,1.003052,-0.032676,-0.033137,0.00569,64.542145,8.154312,-146.180588,,,
729601037.088557,1.502375,-4.155239,-9.526142,0.069199,0.022018,1.003052,-0.032676,-0.033137,0.00569,64.542145,8.154312,-146.180588,,,
729601037.091955,1.494731,-4.165238,-9.526667,0.07225,0.023254,1.001053,-0.032821,-0.028355,-0.001452,64.542145,8.154312,-146.180588,,,
729601037.09522,1.494731,-4.165238,-9.526667,0.07225,0.023254,1.001053,-0.032821,-0.028355,-0.001452,64.542145,8.154312,-146.180588,,,
729601037.098578,1.485713,-4.174033,-9.527706,0.07225,0.023254,1.001053,-0.032821,-0.028355,-0.001452,64.542145,8.154312,-146.180588,,,
729601037.101833,1.480102,-4.183215,-9.528949,0.076553,0.02507,1.007828,-0.024809,-0.029524,-0.003526,64.542145,8.154312,-146.180588,,,
729601037.105176,1.480102,-4.183215,-9.528949,0.076553,0.02507,1.007828,-0.024809,-0.029524,-0.003526,64.542145,8.154312,-146.180588,,,
729601037.108509,1.473959,-4.192606,-9.530235,0.076553,0.02507,1.007828,-0.024809,-0.029524,-0.003526,64.542145,8.154312,-146.180588,,,
729601037.111846,1.471318,-4.201255,-9.531912,0.078751,0.024261,1.009125,-0.008839,-0.031201,-0.00721,64.440887,8.202454,-146.185608,,,
729601037.115172,1.471318,-4.201255,-9.531912,0.078751,0.024261,1.009125,-0.008839,-0.031201,-0.00721,64.440887,8.202454,-146.185608,,,
729601037.118339,1.468675,-4.210505,-9.533816,0.078751,0.024261,1.009125,-0.008839,-0.031201,-0.00721,64.440887,8.202454,-146.185608,,,
729601037.12186,1.46688,-4.217289,-9.535914,0.079727,0.023712,1.009094,-0.0025,-0.024095,-0.008788,64.440887,8.202454,-146.185608,,,
729601037.125168,1.46688,-4.217289,-9.535914,0.079727,0.023712,1.009094,-0.0025,-0.024095,-0.008788,64.440887,8.202454,-146.185608,,,
729601037.128529,1.466541,-4.224192,-9.537567,0.079727,0.023712,1.009094,-0.0025,-0.024095,-0.008788,64.440887,8.202454,-146.185608,,,
729601037.131834,1.467085,-4.227026,-9.538805,0.079575,0.02301,1.012772,0.007841,-0.014319,-0.006206,64.440887,8.202454,-146.185608,,,
729601037.135165,1.467085,-4.227026,-9.538805,0.079575,0.02301,1.012772,0.007841,-0.014319,-0.006206,64.440887,8.202454,-146.185608,,,
729601037.138512,1.469022,-4.23148,-9.54029,0.079575,0.02301,1.012772,0.007841,-0.014319,-0.006206,64.440887,8.202454,-146.185608,,,
729601037.141836,1.470162,-4.231983,-9.541686,0.082474,0.026016,1.008286,0.012112,-0.003017,-0.005456,64.440887,8.202454,-146.185608,,,
729601037.145169,1.470162,-4.231983,-9.541686,0.082474,0.026016,1.008286,0.012112,-0.003017,-0.005456,64.440887,8.202454,-146.185608,,,
729601037.148509,1.473871,-4.232409,-9.543092,0.082474,0.026016,1.008286,0.012112,-0.003017,-0.005456,64.440887,8.202454,-146.185608,,,
729601037.151842,1.477159,-4.228318,-9.545258,0.08136,0.027008,1.008896,0.017798,0.016391,-0.010943,64.417282,8.263458,-146.002945,,,
729601037.155166,1.477159,-4.228318,-9.545258,0.08136,0.027008,1.008896,0.017798,0.016391,-0.010943,64.417282,8.263458,-146.002945,,,
729601037.158505,1.482796,-4.223176,-9.547496,0.08136,0.027008,1.008896,0.017798,0.016391,-0.010943,64.417282,8.263458,-146.002945,,,
729601037.161666,1.482796,-4.223176,-9.547496,0.077393,0.026566,1.011322,0.029602,0.033996,-0.017664,64.417282,8.263458,-146.002945,,,
729601037.165192,1.489296,-4.214665,-9.550593,0.077393,0.026566,1.011322,0.029602,0.033996,-0.017664,64.417282,8.263458,-146.002945,,,
729601037.168504,1.498859,-4.205772,-9.55497,0.077393,0.026566,1.011322,0.029602,0.033996,-0.017664,64.417282,8.263458,-146.002945,,,
729601037.17186,1.509141,-4.19751,-9.559785,0.070007,0.026062,1.009583,0.038658,0.029712,-0.021369,64.417282,8.263458,-146.002945,,,
729601037.175169,1.509141,-4.19751,-9.559785,0.070007,0.026062,1.009583,0.038658,0.029712,-0.021369,64.417282,8.263458,-146.002945,,,
729601037.178502,1.521077,-4.190348,-9.564965,0.070007,0.026062,1.009583,0.038658,0.029712,-0.021369,64.417282,8.263458,-146.002945,,,
729601037.181839,1.521077,-4.190348,-9.564965,0.065048,0.026062,0.99794,0.044276,0.016586,-0.022946,64.417282,8.263458,-146.002945,,,
729601037.185173,1.533263,-4.186076,-9.570285,0.065048,0.026062,0.99794,0.044276,0.016586,-0.022946,64.417282,8.263458,-146.002945,,,
729601037.188506,1.546356,-4.183529,-9.574663,0.065048,0.026062,0.99794,0.044276,0.016586,-0.022946,64.417282,8.263458,-146.002945,,,
729601037.191844,1.558403,-4.185219,-9.57751,0.059311,0.025589,0.991745,0.044014,-0.003915,-0.012496,64.417282,8.263458,-146.002945,,,
729601037.195172,1.558403,-4.185219,-9.57751,0.059311,0.025589,0.991745,0.044014,-0.003915,-0.012496,64.587677,8.321014,-146.3125,,,
729601037.198512,1.571314,-4.188271,-9.579386,0.059311,0.025589,0.991745,0.044014,-0.003915,-0.012496,64.587677,8.321014,-146.3125,,,
729601037.201839,1.571314,-4.194747,-9.580106,0.054245,0.025055,0.98349,0.049744,-0.017002,-0.005165,64.587677,8.321014,-146.3125,,,
729601037.205171,1.583728,-4.194747,-9.580106,0.054245,0.025055,0.98349,0.049744,-0.017002,-0.005165,64.587677,8.321014,-146.3125,,,
729601037.208506,1.598048,-4.200928,-9.57998,0.054245,0.025055,0.98349,0.049744,-0.017002,-0.005165,64.587677,8.321014,-146.3125,,,
729601037.211929,1.611723,-4.209257,-9.579526,0.056976,0.029663,0.984741,0.052063,-0.020845,-0.003365,64.587677,8.321014,-146.3125,,,
729601037.215205,1.611723,-4.209257,-9.579526,0.056976,0.029663,0.984741,0.052063,-0.020845,-0.003365,64.587677,8.321014,-146.3125,,,
729601037.218503,1.62628,-4.216538,-9.578925,0.056976,0.029663,0.984741,0.052063,-0.020845,-0.003365,64.587677,8.321014,-146.3125,,,
729601037.221846,1.62628,-4.216538,-9.578925,0.063736,0.035736,0.982162,0.047416,-0.020871,-0.008553,64.587677,8.321014,-146.3125,,,
729601037.225208,1.639696,-4.225857,-9.579061,0.063736,0.035736,0.982162,0.047416,-0.020871,-0.008553,64.587677,8.321014,-146.3125,,,
729601037.228569,1.652354,-4.232514,-9.579819,0.063736,0.035736,0.982162,0.047416,-0.020871,-0.008553,64.587677,8.321014,-146.3125,,,
729601037.231882,1.652354,-4.23986,-9.580637,0.073898,0.039169,0.977386,0.032233,-0.01685,-0.008103,64.587677,8.321014,-146.3125,,,
729601037.2352,1.662059,-4.23986,-9.580637,0.073898,0.039169,0.977386,0.032233,-0.01685,-0.008103,64.543457,8.009506,-146.116028,,,
729601037.238459,1.670246,-4.244572,-9.582137,0.073898,0.039169,0.977386,0.032233,-0.01685,-0.008103,64.543457,8.009506,-146.116028,,,
729601037.241962,1.67502,-4.24783,-9.583405,0.074814,0.03833,0.972626,0.013566,-0.006201,-0.005157,64.543457,8.009506,-146.116028,,,
729601037.245199,1.67502,-4.24783,-9.583405,0.074814,0.03833,0.972626,0.013566,-0.006201,-0.005157,64.543457,8.009506,-146.116028,,,
729601037.248624,1.677789,-4.250076,-9.583848,0.074814,0.03833,0.972626,0.013566,-0.006201,-0.005157,64.543457,8.009506,-146.116028,,,
729601037.25166,1.677789,-4.250076,-9.583848,0.074814,0.03833,0.972626,0.013566,-0.006201,-0.005157,64.543457,8.009506,-146.116028,,,
729601037.255256,1.677732,-4.249841,-9.583336,0.07341,0.037231,0.97348,0.001244,-0.000785,0.002768,64.543457,8.009506,-146.116028,,,
729601037.258519,1.677836,-4.250794,-9.581131,0.07341,0.037231,0.97348,0.001244,-0.000785,0.002768,64.543457,8.009506,-146.116028,,,
729601037.26205,1.677836,-4.248792,-9.57748,0.073944,0.03331,0.98024,2.3e-05,-0.000988,0.013569,64.543457,8.009506,-146.116028,,,
729601037.265253,1.67679,-4.248792,-9.57748,0.073944,0.03331,0.98024,2.3e-05,-0.000988,0.013569,64.543457,8.009506,-146.116028,,,
729601037.268609,1.675733,-4.250199,-9.573124,0.073944,0.03331,0.98024,2.3e-05,-0.000988,0.013569,64.543457,8.009506,-146.116028,,,
729601037.271992,1.675733,-4.247607,-9.568912,0.076279,0.030411,0.984482,-0.00328,-0.001833,0.013677,64.543457,8.009506,-146.116028,,,
729601037.275328,1.673135,-4.247607,-9.568912,0.076279,0.030411,0.984482,-0.00328,-0.001833,0.013677,64.416199,8.212936,-146.181229,,,
729601037.278648,1.671759,-4.249378,-9.564422,0.076279,0.030411,0.984482,-0.00328,-0.001833,0.013677,64.416199,8.212936,-146.181229,,,
729601037.281996,1.671759,-4.249378,-9.564422,0.081711,0.028,0.989166,-0.004338,-0.003154,0.011808,64.416199,8.212936,-146.181229,,,
729601037.285237,1.669648,-4.24648,-9.560356,0.081711,0.028,0.989166,-0.004338,-0.003154,0.011808,64.416199,8.212936,-146.181229,,,
729601037.288584,1.66789,-4.247716,-9.556793,0.081711,0.028,0.989166,-0.004338,-0.003154,0.011808,64.416199,8.212936,-146.181229,,,
729601037.291963,1.66789,-4.247716,-9.556793,0.081345,0.027527,0.993179,-0.004335,0.003241,0.008048,64.416199,8.212936,-146.181229,,,
729601037.295239,1.667086,-4.244294,-9.553867,0.081345,0.027527,0.993179,-0.004335,0.003241,0.008048,64.416199,8.212936,-146.181229,,,
729601037.298586,1.665378,-4.243424,-9.551063,0.081345,0.027527,0.993179,-0.004335,0.003241,0.008048,64.416199,8.212936,-146.181229,,,
729601037.30201,1.665378,-4.243424,-9.551063,0.078461,0.023651,0.995575,-0.004015,0.009792,0.008099,64.416199,8.212936,-146.181229,,,
729601037.305155,1.665975,-4.240616,-9.548284,0.078461,0.023651,0.995575,-0.004015,0.009792,0.008099,64.416199,8.212936,-146.181229,,,
729601037.308599,1.664572,-4.238985,-9.54545,0.078461,0.023651,0.995575,-0.004015,0.009792,0.008099,64.416199,8.212936,-146.181229,,,
729601037.311929,1.664572,-4.238985,-9.54545,0.078461,0.023651,0.995575,-0.004577,0.00585,0.006868,64.416199,8.212936,-146.181229,,,
729601037.315245,1.665879,-4.238749,-9.542776,0.077118,0.023651,0.998825,-0.004577,0.00585,0.006868,64.45932,7.926971,-146.50827,,,
729601037.318581,1.663708,-4.238618,-9.541152,0.077118,0.023651,0.998825,-0.004577,0.00585,0.006868,64.45932,7.926971,-146.50827,,,
729601037.322002,1.663708,-4.238618,-9.541152,0.079163,0.026657,0.995026,-0.00608,-0.005559,0.002259,64.45932,7.926971,-146.50827,,,
729601037.325334,1.663962,-4.240913,-9.540174,0.079163,0.026657,0.995026,-0.00608,-0.005559,0.002259,64.45932,7.926971,-146.50827,,,
729601037.328576,1.661584,-4.24429,-9.540291,0.079163,0.026657,0.995026,-0.00608,-0.005559,0.002259,64.45932,7.926971,-146.50827,,,
729601037.332003,1.661584,-4.24429,-9.540291,0.079163,0.026657,0.995026,-0.00608,-0.005559,0.002259,64.45932,7.926971,-146.50827,,,
729601037.335234,1.660716,-4.249901,-9.541517,0.078323,0.028976,0.995178,-0.008831,-0.021365,-0.00525,64.45932,7.926971,-146.50827,,,
729601037.338583,1.658133,-4.257431,-9.543038,0.078323,0.028976,0.995178,-0.008831,-0.021365,-0.00525,64.45932,7.926971,-146.50827,,,
729601037.34199,1.658133,-4.257431,-9.543038,0.078323,0.028976,0.995178,-0.008831,-0.021365,-0.00525,64.45932,7.926971,-146.50827,,,
729601037.345236,1.656705,-4.265836,-9.544449,0.077682,0.026901,0.996368,-0.006157,-0.025081,-0.004764,64.45932,7.926971,-146.50827,,,
729601037.348591,1.654764,-4.273949,-9.545689,0.077682,0.026901,0.996368,-0.006157,-0.025081,-0.004764,64.45932,7.926971,-146.50827,,,
729601037.352015,1.654764,-4.273949,-9.545689,0.077682,0.026901,0.996368,-0.006157,-0.025081,-0.004764,64.45932,7.926971,-146.50827,,,
729601037.355076,1.652971,-4.283237,-9.546773,0.076416,0.023422,0.998215,-0.005921,-0.024567,-0.003937,64.45932,7.926971,-146.50827,,,
729601037.358656,1.651457,-4.290689,-9.547144,0.076416,0.023422,0.998215,-0.005921,-0.024567,-0.003937,64.122925,8.218735,-146.137268,,,
729601037.361909,1.651457,-4.290689,-9.547144,0.076416,0.023422,0.998215,-0.005921,-0.024567,-0.003937,64.122925,8.218735,-146.137268,,,
729601037.365324,1.650062,-4.298973,-9.547555,0.079788,0.023819,0.998291,-0.004704,-0.015839,-0.004723,64.122925,8.218735,-146.137268,,,
729601037.368573,1.648329,-4.303855,-9.548077,0.079788,0.023819,0.998291,-0.004704,-0.015839,-0.004723,64.122925,8.218735,-146.137268,,,
729601037.372004,1.648329,-4.303855,-9.548077,0.079788,0.023819,0.998291,-0.004704,-0.015839,-0.004723,64.122925,8.218735,-146.137268,,,
729601037.375238,1.645516,-4.309172,-9.548391,0.082535,0.026047,0.996658,-0.008,-0.010582,-0.00326,64.122925,8.218735,-146.137268,,,
729601037.378589,1.642564,-4.312342,-9.549304,0.082535,0.026047,0.996658,-0.008,-0.010582,-0.00326,64.122925,8.218735,-146.137268,,,
729601037.381966,1.642564,-4.312342,-9.549304,0.082535,0.026047,0.996658,-0.008,-0.010582,-0.00326,64.122925,8.218735,-146.137268,,,
729601037.385232,1.637452,-4.315146,-9.55047,0.08374,0.028595,0.994965,-0.012426,-0.002789,-0.004867,64.122925,8.218735,-146.137268,,,
729601037.388592,1.633765,-4.316875,-9.55209,0.08374,0.028595,0.994965,-0.012426,-0.002789,-0.004867,64.122925,8.218735,-146.137268,,,
729601037.391964,1.633765,-4.316875,-9.55209,0.08374,0.028595,0.994965,-0.012426,-0.002789,-0.004867,64.122925,8.218735,-146.137268,,,
729601037.395242,1.628698,-4.319337,-9.554601,0.083267,0.030411,0.993469,-0.01665,-0.003421,-0.010867,64.122925,8.218735,-146.137268,,,
729601037.398608,1.623847,-4.320581,-9.558126,0.083267,0.030411,0.993469,-0.01665,-0.003421,-0.010867,64.137344,8.457947,-146.26918,,,
