Time (sec),Pitch (deg),Roll (deg),Yaw(deg),X-Acceleration (g),Y-Acceleration (g),Z-Acceleration (g),Pitch Rate (deg/sec),Roll Rate (deg/sec),Yaw Rate (deg/sec),Magnetic Field in X direction (uT),Magnetic Field in Y direction (uT),Magnetic Field in Z Direction (uT),Latitude (deg),Longitude (deg),Altitude (m)
729608142.400923,-0.917733,1.364601,53.973287,-0.016479,-0.008545,1.01384,-0.008752,-0.052294,-0.05174,64.31012,24.068115,-149.040543,,,
729608142.404166,-0.920124,1.348101,53.958836,-0.016479,-0.008545,1.01384,-0.008752,-0.052294,-0.05174,64.638962,24.078384,-149.252747,,,
729608142.407457,-0.920891,1.328712,53.946156,-0.02063,-0.015228,1.011276,0.004259,-0.055707,-0.044816,64.638962,24.078384,-149.252747,,,
729608142.410758,-0.920891,1.328712,53.946156,-0.02063,-0.015228,1.011276,0.004259,-0.055707,-0.044816,64.638962,24.078384,-149.252747,,,
729608142.414084,-0.92031,1.312787,53.9344,-0.02063,-0.015228,1.011276,0.004259,-0.055707,-0.044816,64.638962,24.078384,-149.252747,,,
729608142.417428,-0.918857,1.298089,53.92328,-0.018021,-0.012955,1.021606,0.005119,-0.032317,-0.038346,64.638962,24.078384,-149.252747,,,
729608142.420798,-0.918857,1.298089,53.92328,-0.018021,-0.012955,1.021606,0.005119,-0.032317,-0.038346,64.638962,24.078384,-149.252747,,,
729608142.42415,-0.91733,1.288215,53.912854,-0.018021,-0.012955,1.021606,0.005119,-0.032317,-0.038346,64.638962,24.078384,-149.252747,,,
729608142.427466,-0.915993,1.280078,53.902193,-0.015671,-0.009491,1.021454,0.005094,-0.010258,-0.039533,64.638962,24.078384,-149.252747,,,
729608142.430823,-0.915993,1.280078,53.902193,-0.015671,-0.009491,1.021454,0.005094,-0.010258,-0.039533,64.638962,24.078384,-149.252747,,,
729608142.434226,-0.915408,1.27686,53.891138,-0.015671,-0.009491,1.021454,0.005094,-0.010258,-0.039533,64.638962,24.078384,-149.252747,,,
729608142.437448,-0.913919,1.276364,53.880041,-0.013824,-0.003189,1.017303,0.007726,0.015887,-0.039538,64.638962,24.078384,-149.252747,,,
729608142.440861,-0.913919,1.276364,53.880041,-0.013824,-0.003189,1.017303,0.007726,0.015887,-0.039538,64.638962,24.078384,-149.252747,,,
729608142.444131,-0.911226,1.279812,53.869367,-0.013824,-0.003189,1.017303,0.007726,0.015887,-0.039538,64.387405,23.928101,-149.000717,,,
729608142.447441,-0.905126,1.2837,53.858415,-0.016525,-0.009476,1.022705,0.024897,0.017474,-0.038506,64.387405,23.928101,-149.000717,,,
729608142.450829,-0.905126,1.2837,53.858415,-0.016525,-0.009476,1.022705,0.024897,0.017474,-0.038506,64.387405,23.928101,-149.000717,,,
729608142.454103,-0.896519,1.287358,53.847227,-0.016525,-0.009476,1.022705,0.024897,0.017474,-0.038506,64.387405,23.928101,-149.000717,,,
729608142.457441,-0.884842,1.287967,53.835633,-0.022339,-0.017044,1.018311,0.04233,0.004636,-0.044028,64.387405,23.928101,-149.000717,,,
729608142.460797,-0.884842,1.287967,53.835633,-0.022339,-0.017044,1.018311,0.04233,0.004636,-0.044028,64.387405,23.928101,-149.000717,,,
729608142.464188,-0.873313,1.28782,53.822865,-0.022339,-0.017044,1.018311,0.04233,0.004636,-0.044028,64.387405,23.928101,-149.000717,,,
729608142.467428,-0.861758,1.285131,53.808964,-0.029053,-0.014221,1.006424,0.037666,-0.005416,-0.051087,64.387405,23.928101,-149.000717,,,
729608142.470773,-0.861758,1.285131,53.808964,-0.029053,-0.014221,1.006424,0.037666,-0.005416,-0.051087,64.387405,23.928101,-149.000717,,,
729608142.474108,-0.852641,1.281946,53.793368,-0.029053,-0.014221,1.006424,0.037666,-0.005416,-0.051087,64.387405,23.928101,-149.000717,,,
729608142.477428,-0.84448,1.275533,53.77684,-0.032532,-0.006653,0.997513,0.022663,-0.021605,-0.057038,64.387405,23.928101,-149.000717,,,
729608142.480788,-0.84448,1.275533,53.77684,-0.032532,-0.006653,0.997513,0.022663,-0.021605,-0.057038,64.387405,23.928101,-149.000717,,,
729608142.484149,-0.83864,1.267372,53.760491,-0.032532,-0.006653,0.997513,0.022663,-0.021605,-0.057038,64.387405,23.928101,-149.000717,,,
729608142.487445,-0.833143,1.256909,53.74439,-0.034836,-0.010468,0.9944,0.019576,-0.03643,-0.052258,64.557236,23.873688,-148.847519,,,
729608142.490853,-0.833143,1.256909,53.74439,-0.034836,-0.010468,0.9944,0.019576,-0.03643,-0.052258,64.557236,23.873688,-148.847519,,,
729608142.494164,-0.827705,1.245306,53.728887,-0.034836,-0.010468,0.9944,0.019576,-0.03643,-0.052258,64.557236,23.873688,-148.847519,,,
729608142.497457,-0.820224,1.232222,53.714602,-0.035721,-0.019531,1.00415,0.037705,-0.042494,-0.043931,64.557236,23.873688,-148.847519,,,
729608142.500772,-0.820224,1.232222,53.714602,-0.035721,-0.019531,1.00415,0.037705,-0.042494,-0.043931,64.557236,23.873688,-148.847519,,,
729608142.504106,-0.809033,1.219573,53.702014,-0.035721,-0.019531,1.00415,0.037705,-0.042494,-0.043931,64.557236,23.873688,-148.847519,,,
729608142.507438,-0.794641,1.207013,53.69075,-0.036728,-0.027359,1.011414,0.05665,-0.032662,-0.035978,64.557236,23.873688,-148.847519,,,
729608142.510787,-0.794641,1.207013,53.69075,-0.036728,-0.027359,1.011414,0.05665,-0.032662,-0.035978,64.557236,23.873688,-148.847519,,,
729608142.514192,-0.778569,1.197529,53.680524,-0.036728,-0.027359,1.011414,0.05665,-0.032662,-0.035978,64.557236,23.873688,-148.847519,,,
729608142.517483,-0.759992,1.1903,53.670872,-0.032547,-0.027084,1.014191,0.062013,-0.009151,-0.031171,64.557236,23.873688,-148.847519,,,
729608142.520788,-0.759992,1.1903,53.670872,-0.032547,-0.027084,1.014191,0.062013,-0.009151,-0.031171,64.557236,23.873688,-148.847519,,,
729608142.524119,-0.743513,1.187534,53.661551,-0.032547,-0.027084,1.014191,0.062013,-0.009151,-0.031171,64.557236,23.873688,-148.847519,,,
729608142.527436,-0.72725,1.186484,53.652848,-0.027878,-0.020157,1.004959,0.047951,0.009353,-0.028418,64.513474,23.619705,-148.934769,,,
729608142.530782,-0.72725,1.186484,53.652848,-0.027878,-0.020157,1.004959,0.047951,0.009353,-0.028418,64.513474,23.619705,-148.934769,,,
729608142.534101,-0.714291,1.188473,53.645178,-0.027878,-0.020157,1.004959,0.047951,0.009353,-0.028418,64.513474,23.619705,-148.934769,,,
729608142.537433,-0.714291,1.188473,53.645178,-0.027878,-0.020157,1.004959,0.047951,0.009353,-0.028418,64.513474,23.619705,-148.934769,,,
729608142.540836,-0.70445,1.190742,53.638538,-0.025558,-0.014343,0.992676,0.033867,0.01393,-0.021465,64.513474,23.619705,-148.934769,,,
729608142.544089,-0.695898,1.193008,53.632783,-0.025558,-0.014343,0.992676,0.033867,0.01393,-0.021465,64.513474,23.619705,-148.934769,,,
729608142.547467,-0.689051,1.195327,53.627122,-0.024521,-0.012772,0.986893,0.027737,0.000883,-0.023209,64.513474,23.619705,-148.934769,,,
729608142.550806,-0.689051,1.195327,53.627122,-0.024521,-0.012772,0.986893,0.027737,0.000883,-0.023209,64.513474,23.619705,-148.934769,,,
729608142.554109,-0.681505,1.193942,53.62063,-0.024521,-0.012772,0.986893,0.027737,0.000883,-0.023209,64.513474,23.619705,-148.934769,,,
729608142.559721,-0.673225,1.192138,53.612973,-0.023636,-0.010452,0.98822,0.029626,-0.017376,-0.028694,64.513474,23.619705,-148.934769,,,
729608142.560521,-0.673225,1.192138,53.612973,-0.023636,-0.010452,0.98822,0.029626,-0.017376,-0.028694,64.513474,23.619705,-148.934769,,,
729608142.564107,-0.664848,1.184996,53.604228,-0.023636,-0.010452,0.98822,0.029626,-0.017376,-0.028694,64.513474,23.619705,-148.934769,,,
729608142.567377,-0.664848,1.184996,53.604228,-0.024918,-0.01091,0.988358,0.033828,-0.035909,-0.033461,64.536194,23.680908,-149.018066,,,
729608142.570713,-0.654899,1.178143,53.59486,-0.024918,-0.01091,0.988358,0.033828,-0.035909,-0.033461,64.536194,23.680908,-149.018066,,,
729608142.57404,-0.645499,1.166153,53.58499,-0.024918,-0.01091,0.988358,0.033828,-0.035909,-0.033461,64.536194,23.680908,-149.018066,,,
729608142.577376,-0.645499,1.166153,53.58499,-0.02977,-0.01149,0.987823,0.026782,-0.051788,-0.036223,64.536194,23.680908,-149.018066,,,
729608142.580756,-0.637563,1.154956,53.574438,-0.02977,-0.01149,0.987823,0.026782,-0.051788,-0.036223,64.536194,23.680908,-149.018066,,,
729608142.584067,-0.630372,1.138514,53.563574,-0.02977,-0.01149,0.987823,0.026782,-0.051788,-0.036223,64.536194,23.680908,-149.018066,,,
729608142.587383,-0.630372,1.124472,53.553567,-0.025436,-0.010834,0.984344,0.018056,-0.062416,-0.033421,64.536194,23.680908,-149.018066,,,
729608142.59075,-0.627595,1.124472,53.553567,-0.025436,-0.010834,0.984344,0.018056,-0.062416,-0.033421,64.536194,23.680908,-149.018066,,,
729608142.594084,-0.62255,1.105846,53.544177,-0.025436,-0.010834,0.984344,0.018056,-0.062416,-0.033421,64.536194,23.680908,-149.018066,,,
729608142.597437,-0.62255,1.105846,53.544177,-0.025436,-0.010834,0.984344,0.018056,-0.062416,-0.033421,64.536194,23.680908,-149.018066,,,
729608142.600754,-0.620456,1.090097,53.535171,-0.022766,-0.012482,0.986328,0.0181,-0.064751,-0.030387,64.536194,23.680908,-149.018066,,,
729608142.604088,-0.614293,1.0707,53.526626,-0.022766,-0.012482,0.986328,0.0181,-0.064751,-0.030387,64.536194,23.680908,-149.018066,,,
729608142.607446,-0.614293,1.0707,53.526626,-0.022766,-0.012482,0.986328,0.0181,-0.064751,-0.030387,64.536194,23.680908,-149.018066,,,
729608142.610772,-0.608932,1.054296,53.517587,-0.018631,-0.013519,0.989899,0.033949,-0.054811,-0.033419,64.334564,23.636673,-149.015182,,,
729608142.61412,-0.598879,1.038368,53.507696,-0.018631,-0.013519,0.989899,0.033949,-0.054811,-0.033419,64.334564,23.636673,-149.015182,,,
729608142.617469,-0.598879,1.038368,53.507696,-0.018631,-0.013519,0.989899,0.033949,-0.054811,-0.033419,64.334564,23.636673,-149.015182,,,
729608142.620764,-0.587266,1.028826,53.497761,-0.011414,-0.011627,1.000336,0.051684,-0.020888,-0.038573,64.334564,23.636673,-149.015182,,,
729608142.624098,-0.573078,1.023449,53.487258,-0.011414,-0.011627,1.000336,0.051684,-0.020888,-0.038573,64.334564,23.636673,-149.015182,,,
729608142.627501,-0.573078,1.023449,53.487258,-0.011414,-0.011627,1.000336,0.051684,-0.020888,-0.038573,64.334564,23.636673,-149.015182,,,
729608142.630774,-0.558984,1.026444,53.476966,-0.006973,-0.010178,1.004944,0.051415,0.02576,-0.033964,64.334564,23.636673,-149.015182,,,
729608142.634187,-0.544323,1.034437,53.467426,-0.006973,-0.010178,1.004944,0.051415,0.02576,-0.033964,64.334564,23.636673,-149.015182,,,
729608142.637517,-0.544323,1.034437,53.467426,-0.006973,-0.010178,1.004944,0.051415,0.02576,-0.033964,64.334564,23.636673,-149.015182,,,
729608142.640842,-0.531443,1.049243,53.458077,-0.009613,-0.002075,0.999741,0.044811,0.061206,-0.033368,64.334564,23.636673,-149.015182,,,
729608142.644108,-0.520669,1.066198,53.448989,-0.009613,-0.002075,0.999741,0.044811,0.061206,-0.033368,64.334564,23.636673,-149.015182,,,
729608142.647508,-0.520669,1.066198,53.448989,-0.009613,-0.002075,0.999741,0.044811,0.061206,-0.033368,64.334564,23.636673,-149.015182,,,
729608142.650788,-0.512687,1.086097,53.439599,-0.013931,0.004974,0.989273,0.02485,0.069704,-0.035734,64.466385,23.663239,-149.047852,,,
729608142.654113,-0.506025,1.104516,53.429461,-0.013931,0.004974,0.989273,0.02485,0.069704,-0.035734,64.466385,23.663239,-149.047852,,,
729608142.657532,-0.506025,1.104516,53.429461,-0.013931,0.004974,0.989273,0.022583,0.04794,-0.043569,64.466385,23.663239,-149.047852,,,
729608142.660776,-0.500232,1.122314,53.418503,-0.016953,0.006378,0.985123,0.022583,0.04794,-0.043569,64.466385,23.663239,-149.047852,,,
729608142.664099,-0.492972,1.132912,53.406216,-0.016953,0.006378,0.985123,0.022583,0.04794,-0.043569,64.466385,23.663239,-149.047852,,,
729608142.667562,-0.492972,1.132912,53.406216,-0.016953,0.006378,0.985123,0.022583,0.04794,-0.043569,64.466385,23.663239,-149.047852,,,
729608142.670776,-0.484833,1.138373,53.393355,-0.024902,0.00267,0.986435,0.032332,-0.003408,-0.044204,64.466385,23.663239,-149.047852,,,
729608142.674103,-0.47564,1.134627,53.380819,-0.024902,0.00267,0.986435,0.032332,-0.003408,-0.044204,64.466385,23.663239,-149.047852,,,
729608142.677542,-0.47564,1.134627,53.380819,-0.024902,0.00267,0.986435,0.032332,-0.003408,-0.044204,64.466385,23.663239,-149.047852,,,
729608142.680769,-0.4671,1.125164,53.368186,-0.034912,-0.000977,0.987549,0.034828,-0.049188,-0.043286,64.466385,23.663239,-149.047852,,,
729608142.684112,-0.457647,1.109059,53.355637,-0.034912,-0.000977,0.987549,0.034828,-0.049188,-0.043286,64.466385,23.663239,-149.047852,,,
729608142.687506,-0.457647,1.109059,53.355637,-0.034912,-0.000977,0.987549,0.034828,-0.049188,-0.043286,64.466385,23.663239,-149.047852,,,
729608142.690842,-0.448991,1.088919,53.344096,-0.036591,-0.003891,0.994293,0.037218,-0.075945,-0.037402,64.428299,23.522064,-149.233688,,,
729608142.694098,-0.439529,1.064904,53.333634,-0.036591,-0.003891,0.994293,0.037218,-0.075945,-0.037402,64.428299,23.522064,-149.233688,,,
729608142.697508,-0.439529,1.064904,53.333634,-0.036591,-0.003891,0.994293,0.037218,-0.075945,-0.037402,64.428299,23.522064,-149.233688,,,
729608142.70078,-0.43123,1.037087,53.324238,-0.034363,-0.00441,0.999573,0.03215,-0.09572,-0.027998,64.428299,23.522064,-149.233688,,,
729608142.704095,-0.422461,1.009093,53.316058,-0.034363,-0.00441,0.999573,0.03215,-0.09572,-0.027998,64.428299,23.522064,-149.233688,,,
729608142.707514,-0.422461,1.009093,53.316058,-0.034363,-0.00441,0.999573,0.03215,-0.09572,-0.027998,64.428299,23.522064,-149.233688,,,
729608142.710773,-0.415766,0.980205,53.308593,-0.028107,-0.00441,1.005051,0.023849,-0.082631,-0.026389,64.428299,23.522064,-149.233688,,,
729608142.714101,-0.40951,0.956596,53.301507,-0.028107,-0.00441,1.005051,0.023849,-0.082631,-0.026389,64.428299,23.522064,-149.233688,,,
729608142.717452,-0.40951,0.956596,53.301507,-0.028107,-0.00441,1.005051,0.023849,-0.082631,-0.026389,64.428299,23.522064,-149.233688,,,
729608142.720797,-0.40278,0.934826,53.294866,-0.019531,-0.002975,1.014099,0.025242,-0.05756,-0.020286,64.428299,23.522064,-149.233688,,,
729608142.724097,-0.396333,0.919017,53.288745,-0.019531,-0.002975,1.014099,0.025242,-0.05756,-0.020286,64.428299,23.522064,-149.233688,,,
729608142.727512,-0.396333,0.919017,53.288745,-0.019531,-0.002975,1.014099,0.025242,-0.05756,-0.020286,64.428299,23.522064,-149.233688,,,
729608142.730757,-0.388155,0.906517,53.283845,-0.019653,-0.006149,1.011719,0.022199,-0.02913,-0.012831,64.479858,23.351807,-149.280457,,,
729608142.734099,-0.382478,0.898963,53.280272,-0.019653,-0.006149,1.011719,0.022199,-0.02913,-0.012831,64.479858,23.351807,-149.280457,,,
729608142.737441,-0.382478,0.898963,53.280272,-0.019653,-0.006149,1.011719,0.022199,-0.02913,-0.012831,64.479858,23.351807,-149.280457,,,
729608142.74077,-0.375902,0.895735,53.277639,-0.02037,-0.007095,1.007355,0.011454,0.001127,-0.00779,64.479858,23.351807,-149.280457,,,
729608142.744095,-0.372842,0.895738,53.276567,-0.02037,-0.007095,1.007355,0.011454,0.001127,-0.00779,64.479858,23.351807,-149.280457,,,
729608142.747435,-0.372842,0.895738,53.276567,-0.02037,-0.007095,1.007355,0.011454,0.001127,-0.00779,64.479858,23.351807,-149.280457,,,
729608142.750766,-0.36843,0.898432,53.277337,-0.020187,-0.007355,1.002548,0.005556,0.004916,0.006898,64.479858,23.351807,-149.280457,,,
729608142.754095,-0.366732,0.898681,53.280045,-0.020187,-0.007355,1.002548,0.005556,0.004916,0.006898,64.479858,23.351807,-149.280457,,,
729608142.757515,-0.366732,0.898681,53.280045,-0.020187,-0.007355,1.002548,0.005556,0.004916,0.006898,64.479858,23.351807,-149.280457,,,
729608142.760779,-0.365349,0.900679,53.284532,-0.024826,-0.012527,0.992233,-0.004815,-0.007402,0.016498,64.479858,23.351807,-149.280457,,,
729608142.764095,-0.367211,0.897163,53.289848,-0.024826,-0.012527,0.992233,-0.004815,-0.007402,0.016498,64.479858,23.351807,-149.280457,,,
729608142.767432,-0.367211,0.897163,53.289848,-0.024826,-0.012527,0.992233,-0.004815,-0.007402,0.016498,64.479858,23.351807,-149.280457,,,
729608142.77085,-0.370704,0.895747,53.294662,-0.022354,-0.007645,0.982559,-0.01948,-0.025283,0.011012,64.479858,23.351807,-149.280457,,,
729608142.774095,-0.376952,0.886322,53.29806,-0.022354,-0.007645,0.982559,-0.01948,-0.025283,0.011012,64.227844,23.31778,-149.011536,,,
729608142.777453,-0.376952,0.886322,53.29806,-0.022354,-0.007645,0.982559,-0.01948,-0.025283,0.011012,64.227844,23.31778,-149.011536,,,
729608142.780801,-0.384099,0.877066,53.299548,-0.018692,-0.001831,0.979599,-0.029736,-0.052716,-0.003302,64.227844,23.31778,-149.011536,,,
729608142.784117,-0.392347,0.859208,53.298508,-0.018692,-0.001831,0.979599,-0.029736,-0.052716,-0.003302,64.227844,23.31778,-149.011536,,,
729608142.787429,-0.392347,0.859208,53.298508,-0.018692,-0.001831,0.979599,-0.029736,-0.052716,-0.003302,64.227844,23.31778,-149.011536,,,
729608142.790787,-0.400293,0.841299,53.295753,-0.016998,-0.004898,0.983246,-0.025121,-0.080861,-0.012009,64.227844,23.31778,-149.011536,,,
729608142.7941,-0.407957,0.817222,53.292262,-0.016998,-0.004898,0.983246,-0.025121,-0.080861,-0.012009,64.227844,23.31778,-149.011536,,,
729608142.797524,-0.407957,0.817222,53.292262,-0.016998,-0.004898,0.983246,-0.025121,-0.080861,-0.012009,64.227844,23.31778,-149.011536,,,
729608142.800828,-0.413865,0.793115,53.289404,-0.018738,-0.012482,0.988007,-0.020989,-0.086316,-0.00837,64.227844,23.31778,-149.011536,,,
729608142.804093,-0.419454,0.767588,53.288107,-0.018738,-0.012482,0.988007,-0.020989,-0.086316,-0.00837,64.227844,23.31778,-149.011536,,,
729608142.807445,-0.419454,0.767588,53.288107,-0.018738,-0.012482,0.988007,-0.020989,-0.086316,-0.00837,64.227844,23.31778,-149.011536,,,
729608142.810839,-0.42421,0.743951,53.288681,-0.024857,-0.020569,0.992294,-0.015931,-0.080557,0.008544,64.227844,23.31778,-149.011536,,,
729608142.814098,-0.429224,0.72043,53.291523,-0.024857,-0.020569,0.992294,-0.015931,-0.080557,0.008544,64.037277,23.359329,-149.175858,,,
729608142.81743,-0.429224,0.72043,53.291523,-0.024857,-0.020569,0.992294,-0.015931,-0.080557,0.008544,64.037277,23.359329,-149.175858,,,
729608142.8208,-0.433949,0.701854,53.296622,-0.023956,-0.024551,0.99585,-0.016977,-0.055862,0.023486,64.037277,23.359329,-149.175858,,,
729608142.824183,-0.438808,0.686704,53.304177,-0.023956,-0.024551,0.99585,-0.016977,-0.055862,0.023486,64.037277,23.359329,-149.175858,,,
729608142.827466,-0.438808,0.686704,53.304177,-0.023956,-0.024551,0.99585,-0.016977,-0.055862,0.023486,64.037277,23.359329,-149.175858,,,
729608142.830795,-0.444146,0.678528,53.313019,-0.019043,-0.020828,1.000336,-0.021148,-0.015112,0.030505,64.037277,23.359329,-149.175858,,,
729608142.834097,-0.450458,0.673946,53.321593,-0.019043,-0.020828,1.000336,-0.021148,-0.015112,0.030505,64.037277,23.359329,-149.175858,,,
729608142.837545,-0.450458,0.673946,53.321593,-0.019043,-0.020828,1.000336,-0.021148,-0.015112,0.030505,64.037277,23.359329,-149.175858,,,
729608142.840792,-0.457884,0.675302,53.330073,-0.008331,-0.016098,0.998489,-0.022848,0.005903,0.028119,64.037277,23.359329,-149.175858,,,
729608142.843949,-0.465217,0.676043,53.338165,-0.008331,-0.016098,0.998489,-0.022848,0.005903,0.028119,64.037277,23.359329,-149.175858,,,
729608142.847475,-0.465217,0.676043,53.338165,-0.008331,-0.016098,0.998489,-0.022848,0.005903,0.028119,64.037277,23.359329,-149.175858,,,
729608142.850769,-0.473083,0.679912,53.345832,-0.007874,-0.012497,0.990646,-0.023907,0.007867,0.025498,64.037277,23.359329,-149.175858,,,
729608142.854098,-0.48043,0.681206,53.353078,-0.007874,-0.012497,0.990646,-0.023907,0.007867,0.025498,63.914993,23.39621,-149.027908,,,
729608142.857456,-0.48043,0.681206,53.353078,-0.007874,-0.012497,0.990646,-0.023907,0.007867,0.025498,63.914993,23.39621,-149.027908,,,
729608142.860856,-0.487284,0.684536,53.359382,-0.008224,-0.00943,0.983566,-0.028828,0.009445,0.019663,63.914993,23.39621,-149.027908,,,
729608142.864101,-0.495315,0.686198,53.365749,-0.008224,-0.00943,0.983566,-0.028828,0.009445,0.019663,63.914993,23.39621,-149.027908,,,
729608142.867435,-0.495315,0.686198,53.365749,-0.008224,-0.00943,0.983566,-0.028828,0.009445,0.019663,63.914993,23.39621,-149.027908,,,
729608142.870802,-0.502629,0.68942,53.373582,-0.011169,-0.011292,0.984543,-0.030286,0.009122,0.030469,63.914993,23.39621,-149.027908,,,
729608142.874104,-0.510705,0.691123,53.382945,-0.011169,-0.011292,0.984543,-0.030286,0.009122,0.030469,63.914993,23.39621,-149.027908,,,
729608142.87745,-0.510705,0.691123,53.382945,-0.011169,-0.011292,0.984543,-0.030286,0.009122,0.030469,63.914993,23.39621,-149.027908,,,
729608142.88078,-0.517494,0.693054,53.393833,-0.015427,-0.013168,0.985733,-0.022702,0.004854,0.039864,63.914993,23.39621,-149.027908,,,
729608142.884105,-0.522931,0.692849,53.405437,-0.015427,-0.013168,0.985733,-0.022702,0.004854,0.039864,63.914993,23.39621,-149.027908,,,
729608142.887432,-0.522931,0.692849,53.405437,-0.015427,-0.013168,0.985733,-0.022702,0.004854,0.039864,63.914993,23.39621,-149.027908,,,
729608142.890788,-0.529148,0.694164,53.416615,-0.007462,-0.009918,0.989105,-0.010927,-0.003253,0.034823,63.914993,23.39621,-149.027908,,,
729608142.894123,-0.533006,0.692893,53.426284,-0.007462,-0.009918,0.989105,-0.010927,-0.003253,0.034823,63.831619,23.432404,-149.025711,,,
729608142.897448,-0.533006,0.692893,53.426284,-0.007462,-0.009918,0.989105,-0.010927,-0.003253,0.034823,63.831619,23.432404,-149.025711,,,
729608142.900772,-0.538887,0.694146,53.434869,-0.007645,-0.004471,0.986862,-0.008795,-0.002348,0.026568,63.831619,23.432404,-149.025711,,,
729608142.904101,-0.541884,0.692402,53.443053,-0.007645,-0.004471,0.986862,-0.008795,-0.002348,0.026568,63.831619,23.432404,-149.025711,,,
729608142.907444,-0.541884,0.692402,53.443053,-0.007645,-0.004471,0.986862,-0.008795,-0.002348,0.026568,63.831619,23.432404,-149.025711,,,
729608142.910848,-0.547526,0.691894,53.450453,-0.003464,0.000671,0.983643,-0.010645,-0.008189,0.023717,63.831619,23.432404,-149.025711,,,
729608142.914094,-0.550786,0.688783,53.457174,-0.003464,0.000671,0.983643,-0.010645,-0.008189,0.023717,63.831619,23.432404,-149.025711,,,
729608142.917433,-0.550786,0.688783,53.457174,-0.003464,0.000671,0.983643,-0.010645,-0.008189,0.023717,63.831619,23.432404,-149.025711,,,
729608142.920779,-0.554396,0.685113,53.463346,-0.003036,0.000198,0.985291,-0.005441,-0.011583,0.019027,63.831619,23.432404,-149.025711,,,
729608142.92409,-0.555459,0.680865,53.469045,-0.003036,0.000198,0.985291,-0.005441,-0.011583,0.019027,63.831619,23.432404,-149.025711,,,
729608142.927443,-0.555459,0.680865,53.469045,-0.003036,0.000198,0.985291,-0.005441,-0.011583,0.019027,63.831619,23.432404,-149.025711,,,
729608142.930783,-0.556051,0.675201,53.473778,-0.000214,-0.004425,0.993759,0.004647,-0.014682,0.012355,63.831619,23.432404,-149.025711,,,
729608142.934103,-0.553983,0.670608,53.477016,-0.000214,-0.004425,0.993759,0.004647,-0.014682,0.012355,63.831619,23.432404,-149.025711,,,
729608142.937433,-0.553983,0.670608,53.477016,-0.000214,-0.004425,0.993759,0.004647,-0.014682,0.012355,63.799637,23.524017,-148.934998,,,
729608142.940792,-0.54967,0.666001,53.478392,-0.00148,-0.005249,0.997955,0.023476,-0.011036,-0.001369,63.799637,23.524017,-148.934998,,,
729608142.944094,-0.543025,0.6622,53.477594,-0.00148,-0.005249,0.997955,0.023476,-0.011036,-0.001369,63.799637,23.524017,-148.934998,,,
729608142.947534,-0.543025,0.6622,53.477594,-0.00148,-0.005249,0.997955,0.023476,-0.011036,-0.001369,63.799637,23.524017,-148.934998,,,
729608142.950764,-0.534982,0.657464,53.475913,-0.000839,-0.006668,1.001709,0.034851,-0.008428,-0.0087,63.799637,23.524017,-148.934998,,,
729608142.954095,-0.52568,0.654782,53.47384,-0.000839,-0.006668,1.001709,0.034851,-0.008428,-0.0087,63.799637,23.524017,-148.934998,,,
729608142.957437,-0.52568,0.654782,53.47384,-0.000839,-0.006668,1.001709,0.034851,-0.008428,-0.0087,63.799637,23.524017,-148.934998,,,
729608142.960829,-0.517064,0.656307,53.471948,-0.001205,-0.007446,0.998123,0.032012,0.017244,-0.007824,63.799637,23.524017,-148.934998,,,
729608142.964096,-0.508794,0.660464,53.470654,-0.001205,-0.007446,0.998123,0.032012,0.017244,-0.007824,63.799637,23.524017,-148.934998,,,
729608142.967434,-0.508794,0.660464,53.470654,-0.001205,-0.007446,0.998123,0.032012,0.017244,-0.007824,63.799637,23.524017,-148.934998,,,
729608142.970766,-0.502877,0.667297,53.469797,-0.002151,-0.008148,0.997696,0.018238,0.037323,-0.001234,63.799637,23.524017,-148.934998,,,
729608142.974097,-0.498746,0.677774,53.469611,-0.002151,-0.008148,0.997696,0.018238,0.037323,-0.001234,63.799637,23.524017,-148.934998,,,
729608142.977439,-0.498746,0.677774,53.469611,-0.002151,-0.008148,0.997696,0.018238,0.037323,-0.001234,63.769745,23.4534,-148.742188,,,
729608142.980779,-0.496612,0.691049,53.469429,0.003815,-0.003967,0.99054,0.0015,0.061046,0.000663,63.769745,23.4534,-148.742188,,,
729608142.984096,-0.4962,0.708874,53.469341,0.003815,-0.003967,0.99054,0.0015,0.061046,0.000663,63.769745,23.4534,-148.742188,,,
729608142.987494,-0.4962,0.708874,53.469341,0.003815,-0.003967,0.99054,0.0015,0.061046,0.000663,63.769745,23.4534,-148.742188,,,
729608142.990777,-0.494789,0.72793,53.4693,-0.00061,-0.002716,0.993744,0.000712,0.07685,-0.001899,63.769745,23.4534,-148.742188,,,
729608142.994101,-0.494244,0.749103,53.469027,-0.00061,-0.002716,0.993744,0.000712,0.07685,-0.001899,63.769745,23.4534,-148.742188,,,
729608142.997436,-0.494244,0.749103,53.469027,-0.00061,-0.002716,0.993744,0.000712,0.07685,-0.001899,63.769745,23.4534,-148.742188,,,
729608143.000842,-0.490118,0.765947,53.468585,-0.003677,-0.006714,0.998398,0.01645,0.062788,-0.002321,63.769745,23.4534,-148.742188,,,
729608143.004087,-0.485437,0.782226,53.467798,-0.003677,-0.006714,0.998398,0.01645,0.062788,-0.002321,63.769745,23.4534,-148.742188,,,
729608143.007451,-0.485437,0.782226,53.467798,-0.003677,-0.006714,0.998398,0.01645,0.062788,-0.002321,63.769745,23.4534,-148.742188,,,
729608143.010776,-0.477654,0.793738,53.466473,-0.0103,-0.010239,0.997681,0.028404,0.04706,-0.006563,63.769745,23.4534,-148.742188,,,
729608143.014092,-0.46951,0.805757,53.464983,-0.0103,-0.010239,0.997681,0.028404,0.04706,-0.006563,63.769745,23.4534,-148.742188,,,
729608143.017439,-0.46951,0.805757,53.464983,-0.0103,-0.010239,0.997681,0.028404,0.04706,-0.006563,63.802872,23.340698,-148.740982,,,
729608143.020784,-0.460673,0.8139,53.46396,-0.012527,-0.008957,1.0,0.027827,0.039698,-0.002604,63.802872,23.340698,-148.740982,,,
729608143.024102,-0.453111,0.824049,53.463723,-0.012527,-0.008957,1.0,0.027827,0.039698,-0.002604,63.802872,23.340698,-148.740982,,,
729608143.027494,-0.453111,0.824049,53.463723,-0.012527,-0.008957,1.0,0.027827,0.039698,-0.002604,63.802872,23.340698,-148.740982,,,
729608143.030774,-0.445694,0.830139,53.46379,-0.012955,-0.007645,0.99382,0.024122,0.028991,-0.001142,63.802872,23.340698,-148.740982,,,
729608143.034098,-0.438811,0.837441,53.464023,-0.012955,-0.007645,0.99382,0.024122,0.028991,-0.001142,63.802872,23.340698,-148.740982,,,
729608143.037433,-0.438811,0.837441,53.464023,-0.012955,-0.007645,0.99382,0.024122,0.028991,-0.001142,63.802872,23.340698,-148.740982,,,
729608143.040775,-0.43311,0.839939,53.464074,-0.011749,-0.003082,0.994522,0.017022,0.017629,-0.00644,63.802872,23.340698,-148.740982,,,
729608143.044095,-0.429135,0.844008,53.462852,-0.011749,-0.003082,0.994522,0.017022,0.017629,-0.00644,63.802872,23.340698,-148.740982,,,
729608143.04745,-0.429135,0.844008,53.462852,-0.011749,-0.003082,0.994522,0.017022,0.017629,-0.00644,63.802872,23.340698,-148.740982,,,
729608143.050833,-0.426447,0.843614,53.460159,-0.009872,-0.000305,0.992615,0.009099,0.003928,-0.01196,63.802872,23.340698,-148.740982,,,
729608143.054089,-0.424928,0.843532,53.45698,-0.009872,-0.000305,0.992615,0.009099,0.003928,-0.01196,63.802872,23.340698,-148.740982,,,
729608143.057434,-0.424928,0.843532,53.45698,-0.009872,-0.000305,0.992615,0.009099,0.003928,-0.01196,63.939133,23.179047,-149.112213,,,
729608143.060782,-0.423614,0.837906,53.454177,-0.014938,-0.004532,0.995178,0.003465,-0.00876,-0.008359,63.939133,23.179047,-149.112213,,,
729608143.064097,-0.422665,0.834636,53.452744,-0.014938,-0.004532,0.995178,0.003465,-0.00876,-0.008359,63.939133,23.179047,-149.112213,,,
729608143.067431,-0.422665,0.834636,53.452744,-0.014938,-0.004532,0.995178,0.003465,-0.00876,-0.008359,63.939133,23.179047,-149.112213,,,
729608143.070775,-0.420875,0.828363,53.453499,-0.018158,-0.008926,1.002441,0.001713,-0.00387,0.008126,63.939133,23.179047,-149.112213,,,
729608143.074092,-0.41977,0.826658,53.456952,-0.018158,-0.008926,1.002441,0.001713,-0.00387,0.008126,63.939133,23.179047,-149.112213,,,
729608143.077455,-0.41977,0.826658,53.456952,-0.018158,-0.008926,1.002441,0.001713,-0.00387,0.008126,63.939133,23.179047,-149.112213,,,
729608143.080864,-0.417332,0.823266,53.462468,-0.019638,-0.012161,1.010513,0.009635,0.000661,0.021751,63.939133,23.179047,-149.112213,,,
729608143.084088,-0.414198,0.821982,53.468718,-0.019638,-0.012161,1.010513,0.009635,0.000661,0.021751,63.939133,23.179047,-149.112213,,,
729608143.087455,-0.414198,0.821982,53.468718,-0.019638,-0.012161,1.010513,0.009635,0.000661,0.021751,63.939133,23.179047,-149.112213,,,
729608143.090779,-0.410238,0.819112,53.474867,-0.016617,-0.007233,1.014725,0.019857,0.000972,0.01854,63.939133,23.179047,-149.112213,,,
729608143.094095,-0.405434,0.819238,53.480192,-0.016617,-0.007233,1.014725,0.019857,0.000972,0.01854,63.939133,23.179047,-149.112213,,,
729608143.097443,-0.405434,0.819238,53.480192,-0.016617,-0.007233,1.014725,0.019857,0.000972,0.01854,63.939133,23.179047,-149.112213,,,
729608143.100767,-0.401516,0.821139,53.48542,-0.015121,-0.000534,1.011841,0.013761,0.016496,0.01553,63.912704,23.211487,-149.082458,,,
729608143.104199,-0.397935,0.825518,53.490525,-0.015121,-0.000534,1.011841,0.013761,0.016496,0.01553,63.912704,23.211487,-149.082458,,,
729608143.107516,-0.397935,0.825518,53.490525,-0.015121,-0.000534,1.011841,0.013761,0.016496,0.01553,63.912704,23.211487,-149.082458,,,
729608143.11078,-0.395143,0.831316,53.495104,-0.017563,0.001373,1.009613,0.01272,0.026498,0.016967,63.912704,23.211487,-149.082458,,,
729608143.114103,-0.391732,0.837977,53.500677,-0.017563,0.001373,1.009613,0.01272,0.026498,0.016967,63.912704,23.211487,-149.082458,,,
729608143.117433,-0.391732,0.837977,53.500677,-0.017563,0.001373,1.009613,0.01272,0.026498,0.016967,63.912704,23.211487,-149.082458,,,
729608143.120837,-0.387233,0.843274,53.507558,-0.018066,-0.003555,1.008301,0.019732,0.018036,0.021615,63.912704,23.211487,-149.082458,,,
729608143.124097,-0.382104,0.846908,53.5148,-0.018066,-0.003555,1.008301,0.019732,0.018036,0.021615,63.912704,23.211487,-149.082458,,,
729608143.127442,-0.382104,0.846908,53.5148,-0.018066,-0.003555,1.008301,0.019732,0.018036,0.021615,63.912704,23.211487,-149.082458,,,
729608143.130783,-0.37591,0.847825,53.521897,-0.024109,-0.008102,1.00061,0.017251,0.007093,0.023003,63.912704,23.211487,-149.082458,,,
729608143.134097,-0.370847,0.84833,53.529006,-0.024109,-0.008102,1.00061,0.017251,0.007093,0.023003,63.912704,23.211487,-149.082458,,,
729608143.137446,-0.370847,0.84833,53.529006,-0.024109,-0.008102,1.00061,0.017251,0.007093,0.023003,63.912704,23.211487,-149.082458,,,
729608143.140774,-0.363914,0.847012,53.535187,-0.024292,-0.007492,1.002991,0.026069,-0.006807,0.016456,63.872803,23.085083,-149.175262,,,
729608143.144102,-0.356577,0.843276,53.540365,-0.024292,-0.007492,1.002991,0.026069,-0.006807,0.016456,63.872803,23.085083,-149.175262,,,
729608143.147433,-0.356577,0.843276,53.540365,-0.024292,-0.007492,1.002991,0.026069,-0.006807,0.016456,63.872803,23.085083,-149.175262,,,
729608143.150786,-0.348662,0.836768,53.544888,-0.021469,-0.009079,1.001663,0.030542,-0.026377,0.012802,63.872803,23.085083,-149.175262,,,
729608143.154117,-0.339983,0.827939,53.548991,-0.021469,-0.009079,1.001663,0.030542,-0.026377,0.012802,63.872803,23.085083,-149.175262,,,
729608143.157496,-0.339983,0.827939,53.548991,-0.021469,-0.009079,1.001663,0.030542,-0.026377,0.012802,63.872803,23.085083,-149.175262,,,
729608143.160771,-0.332581,0.819985,53.552521,-0.022858,-0.008957,0.99794,0.0268,-0.024794,0.009917,63.872803,23.085083,-149.175262,,,
729608143.164094,-0.324908,0.812482,53.555417,-0.022858,-0.008957,0.99794,0.0268,-0.024794,0.009917,63.872803,23.085083,-149.175262,,,
729608143.16743,-0.324908,0.812482,53.555417,-0.022858,-0.008957,0.99794,0.0268,-0.024794,0.009917,63.872803,23.085083,-149.175262,,,
729608143.170861,-0.319225,0.806976,53.558622,-0.019028,-0.00795,1.000336,0.020584,-0.015365,0.014019,63.872803,23.085083,-149.175262,,,
729608143.174098,-0.314464,0.801213,53.56244,-0.019028,-0.00795,1.000336,0.020584,-0.015365,0.014019,63.872803,23.085083,-149.175262,,,
729608143.177452,-0.314464,0.801213,53.56244,-0.019028,-0.00795,1.000336,0.020584,-0.015365,0.014019,63.872803,23.085083,-149.175262,,,
729608143.180775,-0.310753,0.79704,53.566237,-0.017197,-0.010391,0.992996,0.006821,-0.005967,0.012571,63.8759,23.140625,-148.941956,,,
729608143.184107,-0.308889,0.794278,53.569998,-0.017197,-0.010391,0.992996,0.006821,-0.005967,0.012571,63.8759,23.140625,-148.941956,,,
729608143.187441,-0.308889,0.794278,53.569998,-0.017197,-0.010391,0.992996,0.006821,-0.005967,0.012571,63.8759,23.140625,-148.941956,,,
729608143.190789,-0.306391,0.792606,53.573052,-0.013611,-0.008636,0.991913,0.004392,-0.005246,0.00553,63.8759,23.140625,-148.941956,,,
729608143.194107,-0.305195,0.789651,53.574281,-0.013611,-0.008636,0.991913,0.004392,-0.005246,0.00553,63.8759,23.140625,-148.941956,,,
729608143.197516,-0.305195,0.789651,53.574281,-0.013611,-0.008636,0.991913,0.004392,-0.005246,0.00553,63.8759,23.140625,-148.941956,,,
729608143.20078,-0.302419,0.786623,53.57414,-0.01442,-0.004913,0.993332,0.013308,-0.013809,-0.004636,63.8759,23.140625,-148.941956,,,
729608143.204108,-0.299134,0.780627,53.573201,-0.01442,-0.004913,0.993332,0.013308,-0.013809,-0.004636,63.8759,23.140625,-148.941956,,,
729608143.207455,-0.299134,0.780627,53.573201,-0.01442,-0.004913,0.993332,0.013308,-0.013809,-0.004636,63.8759,23.140625,-148.941956,,,
729608143.210839,-0.294915,0.773869,53.570786,-0.01593,-0.005692,0.993561,0.020171,-0.029886,-0.016505,63.8759,23.140625,-148.941956,,,
729608143.214097,-0.289266,0.764159,53.566476,-0.01593,-0.005692,0.993561,0.020171,-0.029886,-0.016505,63.8759,23.140625,-148.941956,,,
729608143.217434,-0.289266,0.764159,53.566476,-0.01593,-0.005692,0.993561,0.020171,-0.029886,-0.016505,63.8759,23.140625,-148.941956,,,
729608143.220771,-0.283846,0.756901,53.560924,-0.01033,-0.00383,0.995728,0.021466,-0.026684,-0.023378,63.825775,23.097504,-149.06575,,,
729608143.22411,-0.278649,0.748177,53.554519,-0.01033,-0.00383,0.995728,0.021466,-0.026684,-0.023378,63.825775,23.097504,-149.06575,,,
729608143.227453,-0.278649,0.748177,53.554519,-0.01033,-0.00383,0.995728,0.021466,-0.026684,-0.023378,63.825775,23.097504,-149.06575,,,
729608143.230786,-0.275418,0.742705,53.548094,-0.009613,-0.004532,0.993103,0.00768,-0.017242,-0.023177,63.825775,23.097504,-149.06575,,,
729608143.234105,-0.273743,0.737482,53.541464,-0.009613,-0.004532,0.993103,0.00768,-0.017242,-0.023177,63.825775,23.097504,-149.06575,,,
729608143.237501,-0.273743,0.737482,53.541464,-0.009613,-0.004532,0.993103,0.00768,-0.017242,-0.023177,63.825775,23.097504,-149.06575,,,
729608143.240773,-0.275818,0.737191,53.534479,-0.011429,-0.004883,0.986816,-0.012354,0.002393,-0.025908,63.825775,23.097504,-149.06575,,,
729608143.244181,-0.279336,0.737692,53.527802,-0.011429,-0.004883,0.986816,-0.012354,0.002393,-0.025908,63.825775,23.097504,-149.06575,,,
729608143.24745,-0.279336,0.737692,53.527802,-0.011429,-0.004883,0.986816,-0.012354,0.002393,-0.025908,63.825775,23.097504,-149.06575,,,
729608143.250778,-0.28484,0.741858,53.521601,-0.010635,-0.008194,0.992233,-0.015599,0.016652,-0.023842,63.825775,23.097504,-149.06575,,,
729608143.254098,-0.289511,0.745714,53.515917,-0.010635,-0.008194,0.992233,-0.015599,0.016652,-0.023842,63.825775,23.097504,-149.06575,,,
729608143.257462,-0.289511,0.745714,53.515917,-0.010635,-0.008194,0.992233,-0.015599,0.016652,-0.023842,63.825775,23.097504,-149.06575,,,
729608143.260779,-0.293412,0.750888,53.511325,-0.009949,-0.009903,0.993423,-0.004533,0.015356,-0.017748,63.825775,23.097504,-149.06575,,,
729608143.26411,-0.294353,0.754937,53.507417,-0.009949,-0.009903,0.993423,-0.004533,0.015356,-0.017748,63.888412,23.168442,-149.178223,,,
729608143.267433,-0.294353,0.754937,53.507417,-0.009949,-0.009903,0.993423,-0.004533,0.015356,-0.017748,63.888412,23.168442,-149.178223,,,
729608143.270779,-0.294692,0.759748,53.503728,-0.008957,-0.014679,0.995804,0.004649,0.020534,-0.012843,63.888412,23.168442,-149.178223,,,
729608143.2741,-0.293346,0.764398,53.500456,-0.008957,-0.014679,0.995804,0.004649,0.020534,-0.012843,63.888412,23.168442,-149.178223,,,
729608143.277517,-0.293346,0.764398,53.500456,-0.008957,-0.014679,0.995804,0.004649,0.020534,-0.012843,63.888412,23.168442,-149.178223,,,
729608143.280779,-0.291783,0.769202,53.498099,-0.009811,-0.01239,0.993118,0.005244,0.020082,-0.006519,63.888412,23.168442,-149.178223,,,
729608143.284105,-0.291041,0.773042,53.496817,-0.009811,-0.01239,0.993118,0.005244,0.020082,-0.006519,63.888412,23.168442,-149.178223,,,
729608143.287452,-0.291041,0.773042,53.496817,-0.009811,-0.01239,0.993118,0.005244,0.020082,-0.006519,63.888412,23.168442,-149.178223,,,
729608143.290837,-0.292352,0.776968,53.496284,-0.010406,-0.005615,0.985077,-0.011631,0.013472,0.001353,63.888412,23.168442,-149.178223,,,
729608143.294083,-0.296791,0.779872,53.496875,-0.010406,-0.005615,0.985077,-0.011631,0.013472,0.001353,63.888412,23.168442,-149.178223,,,
729608143.297454,-0.296791,0.779872,53.496875,-0.010406,-0.005615,0.985077,-0.011631,0.013472,0.001353,63.888412,23.168442,-149.178223,,,
729608143.300768,-0.304741,0.782005,53.497595,-0.012817,-0.003799,0.978012,-0.032716,0.011485,-0.001805,63.888412,23.168442,-149.178223,,,
729608143.304103,-0.314309,0.783657,53.497437,-0.012817,-0.003799,0.978012,-0.032716,0.011485,-0.001805,63.796768,23.177719,-149.211609,,,
729608143.307425,-0.314309,0.783657,53.497437,-0.012817,-0.003799,0.978012,-0.032716,0.011485,-0.001805,63.796768,23.177719,-149.211609,,,
729608143.310784,-0.323206,0.781972,53.497318,-0.011673,-0.002823,0.987061,-0.027257,-0.009627,0.00104,63.796768,23.177719,-149.211609,,,
729608143.314093,-0.331092,0.777291,53.497635,-0.011673,-0.002823,0.987061,-0.027257,-0.009627,0.00104,63.796768,23.177719,-149.211609,,,
729608143.317437,-0.331092,0.777291,53.497635,-0.011673,-0.002823,0.987061,-0.027257,-0.009627,0.00104,63.796768,23.177719,-149.211609,,,
729608143.320774,-0.337953,0.768652,53.498086,-0.010941,-0.005692,0.991592,-0.024761,-0.032885,-0.002292,63.796768,23.177719,-149.211609,,,
729608143.324092,-0.344832,0.758805,53.497972,-0.010941,-0.005692,0.991592,-0.024761,-0.032885,-0.002292,63.796768,23.177719,-149.211609,,,
729608143.32748,-0.344832,0.758805,53.497972,-0.010941,-0.005692,0.991592,-0.024761,-0.032885,-0.002292,63.796768,23.177719,-149.211609,,,
729608143.330778,-0.352436,0.748717,53.497074,-0.014481,-0.005219,0.993256,-0.028719,-0.029063,-0.002554,63.796768,23.177719,-149.211609,,,
729608143.334093,-0.360797,0.740109,53.497072,-0.014481,-0.005219,0.993256,-0.028719,-0.029063,-0.002554,63.796768,23.177719,-149.211609,,,
729608143.337444,-0.360797,0.740109,53.497072,-0.014481,-0.005219,0.993256,-0.028719,-0.029063,-0.002554,63.796768,23.177719,-149.211609,,,
729608143.340858,-0.37086,0.731723,53.498433,-0.011871,-0.002487,0.993408,-0.0384,-0.021467,0.006911,63.796768,23.177719,-149.211609,,,
729608143.344087,-0.381993,0.725317,53.501451,-0.011871,-0.002487,0.993408,-0.0384,-0.021467,0.006911,63.947906,23.34079,-149.277115,,,
729608143.347443,-0.381993,0.725317,53.501451,-0.011871,-0.002487,0.993408,-0.0384,-0.021467,0.006911,63.947906,23.34079,-149.277115,,,
729608143.35077,-0.395961,0.720954,53.50669,-0.014755,-0.00914,0.99585,-0.046764,-0.001896,0.021459,63.947906,23.34079,-149.277115,,,
729608143.354203,-0.409746,0.720354,53.513322,-0.014755,-0.00914,0.99585,-0.046764,-0.001896,0.021459,63.947906,23.34079,-149.277115,,,
729608143.357452,-0.409746,0.720354,53.513322,-0.014755,-0.00914,0.99585,-0.046764,-0.001896,0.021459,63.947906,23.34079,-149.277115,,,
729608143.360786,-0.424112,0.721187,53.519927,-0.011887,-0.009598,1.001709,-0.041298,0.011347,0.019933,63.947906,23.34079,-149.277115,,,
729608143.3641,-0.435223,0.722617,53.526157,-0.011887,-0.009598,1.001709,-0.041298,0.011347,0.019933,63.947906,23.34079,-149.277115,,,
729608143.367456,-0.435223,0.722617,53.526157,-0.011887,-0.009598,1.001709,-0.041298,0.011347,0.019933,63.947906,23.34079,-149.277115,,,
729608143.370769,-0.443158,0.72221,53.531973,-0.010696,-0.01236,1.00618,-0.018243,-0.003486,0.016708,63.947906,23.34079,-149.277115,,,
729608143.374107,-0.447372,0.720141,53.536804,-0.010696,-0.01236,1.00618,-0.018243,-0.003486,0.016708,63.947906,23.34079,-149.277115,,,
729608143.377496,-0.447372,0.720141,53.536804,-0.010696,-0.01236,1.00618,-0.018243,-0.003486,0.016708,63.947906,23.34079,-149.277115,,,
729608143.380795,-0.448677,0.715073,53.540956,-0.010803,-0.011551,1.003265,-0.002239,-0.018809,0.010894,63.947906,23.34079,-149.277115,,,
729608143.384164,-0.449628,0.708367,53.544095,-0.010803,-0.011551,1.003265,-0.002239,-0.018809,0.010894,63.947906,23.34079,-149.277115,,,
729608143.387462,-0.449628,0.708367,53.544095,-0.010803,-0.011551,1.003265,-0.002239,-0.018809,0.010894,63.862503,23.507309,-149.181824,,,
729608143.390781,-0.448648,0.700971,53.545943,-0.00766,-0.010345,1.002777,0.004319,-0.024247,0.000527,63.862503,23.507309,-149.181824,,,
729608143.394129,-0.448339,0.691601,53.546114,-0.00766,-0.010345,1.002777,0.004319,-0.024247,0.000527,63.862503,23.507309,-149.181824,,,
729608143.397447,-0.448339,0.691601,53.546114,-0.00766,-0.010345,1.002777,0.004319,-0.024247,0.000527,63.862503,23.507309,-149.181824,,,
729608143.400771,-0.447073,0.678722,53.543783,0.001984,-0.004715,0.997742,0.004434,-0.049413,-0.01748,63.862503,23.507309,-149.181824,,,
729608143.404183,-0.446289,0.662493,53.538849,0.001984,-0.004715,0.997742,0.004434,-0.049413,-0.01748,63.862503,23.507309,-149.181824,,,
729608143.407456,-0.446289,0.662493,53.538849,0.001984,-0.004715,0.997742,0.004434,-0.049413,-0.01748,63.862503,23.507309,-149.181824,,,
729608143.410784,-0.445599,0.643677,53.531654,0.005493,-0.00325,0.991867,0.005624,-0.070576,-0.034891,63.862503,23.507309,-149.181824,,,
729608143.41413,-0.444309,0.622293,53.522367,0.005493,-0.00325,0.991867,0.005624,-0.070576,-0.034891,63.862503,23.507309,-149.181824,,,
729608143.417471,-0.444309,0.622293,53.522367,0.005493,-0.00325,0.991867,0.005624,-0.070576,-0.034891,63.862503,23.507309,-149.181824,,,
729608143.420761,-0.440875,0.59949,53.511228,0.004135,-0.00563,0.99617,0.013663,-0.079721,-0.043069,63.862503,23.507309,-149.181824,,,
729608143.424103,-0.437647,0.574644,53.498491,0.004135,-0.00563,0.99617,0.013663,-0.079721,-0.043069,63.862503,23.507309,-149.181824,,,
729608143.42746,-0.437647,0.574644,53.498491,0.004135,-0.00563,0.99617,0.013663,-0.079721,-0.043069,63.768127,23.214172,-148.900406,,,
729608143.430809,-0.433331,0.550023,53.484975,0.009888,-0.011032,1.000931,0.021095,-0.081497,-0.049677,63.768127,23.214172,-148.900406,,,
729608143.434132,-0.427845,0.525929,53.471139,0.009888,-0.011032,1.000931,0.021095,-0.081497,-0.049677,63.768127,23.214172,-148.900406,,,
729608143.437431,-0.427845,0.525929,53.471139,0.009888,-0.011032,1.000931,0.021095,-0.081497,-0.049677,63.768127,23.214172,-148.900406,,,
729608143.440815,-0.421598,0.505206,53.457438,0.015137,-0.015076,1.002777,0.028334,-0.062374,-0.048431,63.768127,23.214172,-148.900406,,,
729608143.444142,-0.413173,0.487144,53.444702,0.015137,-0.015076,1.002777,0.028334,-0.062374,-0.048431,63.768127,23.214172,-148.900406,,,
729608143.447445,-0.413173,0.487144,53.444702,0.015137,-0.015076,1.002777,0.028334,-0.062374,-0.048431,63.768127,23.214172,-148.900406,,,
729608143.450771,-0.403458,0.472852,53.433043,0.014236,-0.017792,1.009491,0.043114,-0.040844,-0.040552,63.768127,23.214172,-148.900406,,,
729608143.454161,-0.391484,0.460796,53.421911,0.014236,-0.017792,1.009491,0.043114,-0.040844,-0.040552,63.768127,23.214172,-148.900406,,,
729608143.457455,-0.391484,0.460796,53.421911,0.014236,-0.017792,1.009491,0.043114,-0.040844,-0.040552,63.768127,23.214172,-148.900406,,,
729608143.460769,-0.379216,0.451391,53.410784,0.010941,-0.016998,1.009506,0.047525,-0.025531,-0.042702,63.768127,23.214172,-148.900406,,,
729608143.464145,-0.365437,0.443542,53.399445,0.010941,-0.016998,1.009506,0.047525,-0.025531,-0.042702,63.768127,23.214172,-148.900406,,,
729608143.467431,-0.365437,0.443542,53.399445,0.010941,-0.016998,1.009506,0.047525,-0.025531,-0.042702,63.82402,23.14502,-149.103088,,,
729608143.470765,-0.353556,0.438725,53.387627,0.011658,-0.010422,1.002701,0.04059,-0.005619,-0.044145,63.82402,23.14502,-149.103088,,,
729608143.474095,-0.353556,0.436026,53.375874,0.011658,-0.010422,1.002701,0.04059,-0.005619,-0.044145,63.82402,23.14502,-149.103088,,,
729608143.477442,-0.34329,0.436026,53.375874,0.011658,-0.010422,1.002701,0.04059,-0.005619,-0.044145,63.82402,23.14502,-149.103088,,,
729608143.480768,-0.335149,0.433888,53.364993,0.012817,-0.009445,0.998566,0.026451,0.004268,-0.03607,63.82402,23.14502,-149.103088,,,
729608143.484107,-0.335149,0.433888,53.354491,0.012817,-0.009445,0.998566,0.026451,0.004268,-0.03607,63.82402,23.14502,-149.103088,,,
729608143.487444,-0.328825,0.434584,53.354491,0.012817,-0.009445,0.998566,0.026451,0.004268,-0.03607,63.82402,23.14502,-149.103088,,,
729608143.490877,-0.323914,0.43516,53.34347,0.010544,-0.009689,0.996964,0.013899,0.021066,-0.043009,63.82402,23.14502,-149.103088,,,
729608143.494116,-0.323914,0.43516,53.34347,0.010544,-0.009689,0.996964,0.013899,0.021066,-0.043009,63.82402,23.14502,-149.103088,,,
729608143.497441,-0.321249,0.440667,53.331492,0.010544,-0.009689,0.996964,0.013899,0.021066,-0.043009,63.82402,23.14502,-149.103088,,,
729608143.50078,-0.319645,0.445751,53.318078,0.009628,-0.008591,0.999451,0.005594,0.034581,-0.050994,63.82402,23.14502,-149.103088,,,
729608143.50422,-0.317772,0.454922,53.303543,0.009628,-0.008591,0.999451,0.005594,0.034581,-0.050994,63.82402,23.14502,-149.103088,,,
729608143.507426,-0.317772,0.454922,53.303543,0.009628,-0.008591,0.999451,0.005594,0.034581,-0.050994,63.911972,23.140808,-148.926285,,,
729608143.510667,-0.316005,0.463104,53.287898,0.009949,-0.007568,1.006149,0.007212,0.048524,-0.057374,63.911972,23.140808,-148.926285,,,
729608143.514134,-0.316005,0.463104,53.287898,0.009949,-0.007568,1.006149,0.007212,0.048524,-0.057374,63.911972,23.140808,-148.926285,,,
729608143.51745,-0.313186,0.476048,53.272023,0.009949,-0.007568,1.006149,0.007212,0.048524,-0.057374,63.911972,23.140808,-148.926285,,,
729608143.520771,-0.309954,0.485466,53.256246,0.005417,-0.009979,1.006454,0.019275,0.053434,-0.058359,63.911972,23.140808,-148.926285,,,
729608143.524121,-0.309954,0.485466,53.256246,0.005417,-0.009979,1.006454,0.019275,0.053434,-0.058359,63.911972,23.140808,-148.926285,,,
729608143.527448,-0.303532,0.499847,53.239988,0.005417,-0.009979,1.006454,0.019275,0.053434,-0.058359,63.911972,23.140808,-148.926285,,,
729608143.530765,-0.298463,0.509419,53.224106,-0.003098,-0.01207,1.000259,0.026937,0.055797,-0.055991,63.911972,23.140808,-148.926285,,,
729608143.534102,-0.298463,0.509419,53.224106,-0.003098,-0.01207,1.000259,0.026937,0.055797,-0.055991,63.911972,23.140808,-148.926285,,,
729608143.537464,-0.291658,0.524329,53.208149,-0.003098,-0.01207,1.000259,0.026937,0.055797,-0.055991,63.911972,23.140808,-148.926285,,,
729608143.540768,-0.28783,0.534583,53.191805,-0.011093,-0.009781,0.992065,0.019838,0.05271,-0.056044,63.911972,23.140808,-148.926285,,,
729608143.544162,-0.28783,0.534583,53.191805,-0.011093,-0.009781,0.992065,0.019838,0.05271,-0.056044,63.911972,23.140808,-148.926285,,,
729608143.547443,-0.283239,0.548178,53.176105,-0.011093,-0.009781,0.992065,0.019838,0.05271,-0.056044,63.911972,23.140808,-148.926285,,,
729608143.550772,-0.28176,0.555758,53.160731,-0.016205,-0.007172,0.98645,0.007475,0.041306,-0.051514,64.036133,22.748016,-149.055252,,,
729608143.554109,-0.28176,0.555758,53.160731,-0.016205,-0.007172,0.98645,0.007475,0.041306,-0.051514,64.036133,22.748016,-149.055252,,,
729608143.557449,-0.280271,0.565441,53.145949,-0.016205,-0.007172,0.98645,0.007475,0.041306,-0.051514,64.036133,22.748016,-149.055252,,,
729608143.560768,-0.280514,0.56823,53.131739,-0.018112,-0.006836,0.98201,-0.000671,0.02209,-0.04942,64.036133,22.748016,-149.055252,,,
729608143.564107,-0.280514,0.56823,53.131739,-0.018112,-0.006836,0.98201,-0.000671,0.02209,-0.04942,64.036133,22.748016,-149.055252,,,
729608143.567435,-0.280948,0.572944,53.11785,-0.018112,-0.006836,0.98201,-0.000671,0.02209,-0.04942,64.036133,22.748016,-149.055252,,,
729608143.57077,-0.281988,0.570582,53.103869,-0.022141,-0.006317,0.984299,0.004416,0.004948,-0.051703,64.036133,22.748016,-149.055252,,,
729608143.574101,-0.281988,0.570582,53.103869,-0.022141,-0.006317,0.984299,0.004416,0.004948,-0.051703,64.036133,22.748016,-149.055252,,,
729608143.577431,-0.280648,0.570859,53.089388,-0.022141,-0.006317,0.984299,0.004416,0.004948,-0.051703,64.036133,22.748016,-149.055252,,,
729608143.580766,-0.278136,0.564522,53.075152,-0.020981,-0.004395,0.993835,0.01829,-0.012665,-0.048856,64.036133,22.748016,-149.055252,,,
729608143.584096,-0.278136,0.564522,53.075152,-0.020981,-0.004395,0.993835,0.01829,-0.012665,-0.048856,64.036133,22.748016,-149.055252,,,
729608143.587438,-0.273508,0.559999,53.061903,-0.020981,-0.004395,0.993835,0.01829,-0.012665,-0.048856,64.036133,22.748016,-149.055252,,,
729608143.590803,-0.269361,0.550693,53.050541,-0.025497,-0.007233,0.993423,0.017333,-0.014731,-0.037592,64.179443,22.952713,-149.262375,,,
729608143.594107,-0.269361,0.550693,53.050541,-0.025497,-0.007233,0.993423,0.017333,-0.014731,-0.037592,64.179443,22.952713,-149.262375,,,
729608143.597495,-0.265064,0.545215,53.040913,-0.025497,-0.007233,0.993423,0.017333,-0.014731,-0.037592,64.179443,22.952713,-149.262375,,,
729608143.600759,-0.261362,0.535854,53.032228,-0.027832,-0.005936,0.995361,0.017969,-0.01836,-0.02649,64.179443,22.952713,-149.262375,,,
729608143.604116,-0.261362,0.535854,53.032228,-0.027832,-0.005936,0.995361,0.017969,-0.01836,-0.02649,64.179443,22.952713,-149.262375,,,
729608143.607448,-0.256479,0.52997,53.025066,-0.027832,-0.005936,0.995361,0.017969,-0.01836,-0.02649,64.179443,22.952713,-149.262375,,,
729608143.610771,-0.252054,0.522746,53.019522,-0.02475,-0.006531,0.998322,0.024005,-0.015327,-0.017542,64.179443,22.952713,-149.262375,,,
729608143.614144,-0.252054,0.522746,53.019522,-0.02475,-0.006531,0.998322,0.024005,-0.015327,-0.017542,64.179443,22.952713,-149.262375,,,
729608143.61743,-0.245359,0.518549,53.01462,-0.02475,-0.006531,0.998322,0.024005,-0.015327,-0.017542,64.179443,22.952713,-149.262375,,,
729608143.620771,-0.238027,0.514791,53.00944,-0.016266,-0.004669,1.004944,0.033264,-0.008709,-0.019936,64.179443,22.952713,-149.262375,,,
729608143.62421,-0.238027,0.514791,53.00944,-0.016266,-0.004669,1.004944,0.033264,-0.008709,-0.019936,64.179443,22.952713,-149.262375,,,
729608143.627459,-0.227999,0.511218,53.003437,-0.016266,-0.004669,1.004944,0.033264,-0.008709,-0.019936,64.179443,22.952713,-149.262375,,,
729608143.630781,-0.217704,0.509668,52.995886,-0.011627,0.001236,1.004745,0.046383,-0.003829,-0.031861,64.208389,23.132355,-149.083328,,,
729608143.634179,-0.217704,0.509668,52.995886,-0.011627,0.001236,1.004745,0.046383,-0.003829,-0.031861,64.208389,23.132355,-149.083328,,,
729608143.637508,-0.204395,0.508995,52.986875,-0.011627,0.001236,1.004745,0.046383,-0.003829,-0.031861,64.208389,23.132355,-149.083328,,,
729608143.64077,-0.189385,0.512336,52.97687,-0.011215,0.006058,1.010529,0.058619,0.013944,-0.037192,64.208389,23.132355,-149.083328,,,
729608143.644121,-0.189385,0.512336,52.97687,-0.011215,0.006058,1.010529,0.058619,0.013944,-0.037192,64.208389,23.132355,-149.083328,,,
729608143.647451,-0.173224,0.516316,52.966997,-0.011215,0.006058,1.010529,0.058619,0.013944,-0.037192,64.208389,23.132355,-149.083328,,,
729608143.650783,-0.157707,0.525228,52.958226,-0.017792,0.004318,1.004883,0.052178,0.030158,-0.029038,64.208389,23.132355,-149.083328,,,
729608143.654115,-0.157707,0.525228,52.958226,-0.017792,0.004318,1.004883,0.052178,0.030158,-0.029038,64.208389,23.132355,-149.083328,,,
729608143.657442,-0.142913,0.533488,52.950831,-0.017792,0.004318,1.004883,0.052178,0.030158,-0.029038,64.208389,23.132355,-149.083328,,,
729608143.660774,-0.130906,0.544518,52.945014,-0.021255,0.001648,0.99472,0.038846,0.029521,-0.015284,64.208389,23.132355,-149.083328,,,
729608143.664108,-0.130906,0.544518,52.945014,-0.021255,0.001648,0.99472,0.038846,0.029521,-0.015284,64.208389,23.132355,-149.083328,,,
729608143.66744,-0.121263,0.551523,52.940724,-0.021255,0.001648,0.99472,0.038846,0.029521,-0.015284,64.208389,23.132355,-149.083328,,,
729608143.670782,-0.115654,0.558082,52.937443,-0.023758,0.00354,0.980728,0.01397,0.005781,-0.012649,64.239105,22.913635,-148.962921,,,
729608143.674181,-0.115654,0.558082,52.937443,-0.023758,0.00354,0.980728,0.01397,0.005781,-0.012649,64.239105,22.913635,-148.962921,,,
729608143.677443,-0.112607,0.558343,52.935115,-0.023758,0.00354,0.980728,0.01397,0.005781,-0.012649,64.239105,22.913635,-148.962921,,,
729608143.68078,-0.113976,0.559839,52.933062,-0.025375,0.006577,0.968353,-0.007269,-0.011185,-0.007796,64.239105,22.913635,-148.962921,,,
729608143.684118,-0.113976,0.559839,52.933062,-0.025375,0.006577,0.968353,-0.007269,-0.011185,-0.007796,64.239105,22.913635,-148.962921,,,
729608143.68743,-0.116649,0.555643,52.930715,-0.025375,0.006577,0.968353,-0.007269,-0.011185,-0.007796,64.239105,22.913635,-148.962921,,,
729608143.690792,-0.120952,0.552888,52.928831,-0.018219,0.009094,0.976624,-0.011852,-0.022734,-0.008351,64.239105,22.913635,-148.962921,,,
729608143.694123,-0.120952,0.552888,52.928831,-0.018219,0.009094,0.976624,-0.011852,-0.022734,-0.008351,64.239105,22.913635,-148.962921,,,
729608143.697528,-0.123777,0.544282,52.927021,-0.018219,0.009094,0.976624,-0.011852,-0.022734,-0.008351,64.239105,22.913635,-148.962921,,,
729608143.700786,-0.125295,0.535851,52.92488,-0.012512,0.006531,0.982544,0.001422,-0.033419,-0.009545,64.239105,22.913635,-148.962921,,,
729608143.704119,-0.125295,0.535851,52.92488,-0.012512,0.006531,0.982544,0.001422,-0.033419,-0.009545,64.239105,22.913635,-148.962921,,,
729608143.70743,-0.124633,0.524953,52.922588,-0.012512,0.006531,0.982544,0.001422,-0.033419,-0.009545,64.239105,22.913635,-148.962921,,,
729608143.710799,-0.12175,0.516458,52.920725,-0.008575,0.002121,0.986588,0.015737,-0.023105,-0.008158,64.239105,22.913635,-148.962921,,,
729608143.714113,-0.12175,0.516458,52.920725,-0.008575,0.002121,0.986588,0.015737,-0.023105,-0.008158,64.160065,22.64151,-149.463943,,,
729608143.717436,-0.117315,0.51031,52.919723,-0.008575,0.002121,0.986588,0.015737,-0.023105,-0.008158,64.160065,22.64151,-149.463943,,,
729608143.720776,-0.11106,0.508082,52.919526,-0.009064,0.002518,0.984161,0.019563,0.005638,0.000216,64.160065,22.64151,-149.463943,,,
729608143.724171,-0.11106,0.508082,52.919526,-0.009064,0.002518,0.984161,0.019563,0.005638,0.000216,64.160065,22.64151,-149.463943,,,
729608143.727443,-0.105721,0.510381,52.920325,-0.009064,0.002518,0.984161,0.019563,0.005638,0.000216,64.160065,22.64151,-149.463943,,,
729608143.730773,-0.099204,0.518739,52.922349,-0.003204,0.002762,0.980225,0.017509,0.040824,0.007583,64.160065,22.64151,-149.463943,,,
729608143.734099,-0.099204,0.518739,52.922349,-0.003204,0.002762,0.980225,0.017509,0.040824,0.007583,64.160065,22.64151,-149.463943,,,
729608143.737431,-0.094523,0.530943,52.925252,-0.003204,0.002762,0.980225,0.017509,0.040824,0.007583,64.160065,22.64151,-149.463943,,,
729608143.740766,-0.09031,0.551343,52.928271,0.00209,0.003311,0.982864,0.010644,0.082411,0.008989,64.160065,22.64151,-149.463943,,,
729608143.744114,-0.09031,0.551343,52.928271,0.00209,0.003311,0.982864,0.010644,0.082411,0.008989,64.160065,22.64151,-149.463943,,,
729608143.747489,-0.087962,0.574846,52.931531,0.00209,0.003311,0.982864,0.010644,0.082411,0.008989,64.160065,22.64151,-149.463943,,,
729608143.750763,-0.085115,0.604488,52.934821,0.000107,0.005417,0.976883,0.006774,0.101192,0.005491,64.160065,22.64151,-149.463943,,,
729608143.7541,-0.085115,0.604488,52.934821,0.000107,0.005417,0.976883,0.006774,0.101192,0.005491,64.071426,22.951675,-149.0858,,,
729608143.757441,-0.082403,0.633111,52.936796,0.000107,0.005417,0.976883,0.006774,0.101192,0.005491,64.071426,22.951675,-149.0858,,,
729608143.760768,-0.077717,0.664915,52.938139,-0.00737,0.002899,0.980591,0.016297,0.101529,0.00099,64.071426,22.951675,-149.0858,,,
729608143.764106,-0.077717,0.664915,52.938139,-0.00737,0.002899,0.980591,0.016297,0.101529,0.00099,64.071426,22.951675,-149.0858,,,
729608143.767465,-0.073406,0.693313,52.939442,-0.00737,0.002899,0.980591,0.016297,0.101529,0.00099,64.071426,22.951675,-149.0858,,,
729608143.770766,-0.068342,0.722662,52.940787,-0.020203,-0.004807,0.980103,0.010728,0.098739,0.007132,64.071426,22.951675,-149.0858,,,
729608143.774174,-0.068342,0.722662,52.940787,-0.020203,-0.004807,0.980103,0.010728,0.098739,0.007132,64.071426,22.951675,-149.0858,,,
729608143.777441,-0.066065,0.749012,52.942879,-0.020203,-0.004807,0.980103,0.010728,0.098739,0.007132,64.071426,22.951675,-149.0858,,,
729608143.780775,-0.063752,0.772613,52.945362,-0.028931,-0.006287,0.974762,0.001688,0.077541,0.008906,64.071426,22.951675,-149.0858,,,
729608143.784119,-0.063752,0.772613,52.945362,-0.028931,-0.006287,0.974762,0.001688,0.077541,0.008906,64.071426,22.951675,-149.0858,,,
729608143.787498,-0.064272,0.792365,52.948261,-0.028931,-0.006287,0.974762,0.001688,0.077541,0.008906,64.071426,22.951675,-149.0858,,,
729608143.79077,-0.065912,0.807623,52.951786,-0.032837,-0.008698,0.975067,-0.011386,0.048161,0.011577,64.071426,22.951675,-149.0858,,,
729608143.7941,-0.065912,0.807623,52.951786,-0.032837,-0.008698,0.975067,-0.011386,0.048161,0.011577,64.469543,22.824127,-149.082443,,,
729608143.797452,-0.06992,0.81894,52.955014,-0.032837,-0.008698,0.975067,-0.011386,0.048161,0.011577,64.469543,22.824127,-149.082443,,,
729608143.800767,-0.074421,0.825035,52.957858,-0.030151,-0.005768,0.978851,-0.018265,0.01534,0.008852,64.469543,22.824127,-149.082443,,,
729608143.804132,-0.074421,0.825035,52.957858,-0.030151,-0.005768,0.978851,-0.018265,0.01534,0.008852,64.469543,22.824127,-149.082443,,,
729608143.807443,-0.079993,0.827406,52.960047,-0.030151,-0.005768,0.978851,-0.018265,0.01534,0.008852,64.469543,22.824127,-149.082443,,,
729608143.810768,-0.08642,0.825261,52.960506,-0.02272,-0.004593,0.984314,-0.027798,-0.013373,-0.005623,64.469543,22.824127,-149.082443,,,
729608143.814173,-0.08642,0.825261,52.960506,-0.02272,-0.004593,0.984314,-0.027798,-0.013373,-0.005623,64.469543,22.824127,-149.082443,,,
729608143.817445,-0.094949,0.820707,52.959082,-0.02272,-0.004593,0.984314,-0.027798,-0.013373,-0.005623,64.469543,22.824127,-149.082443,,,
729608143.820774,-0.105236,0.81262,52.955581,-0.014969,-0.001068,0.984726,-0.040658,-0.024237,-0.020581,64.469543,22.824127,-149.082443,,,
729608143.824115,-0.105236,0.81262,52.955581,-0.014969,-0.001068,0.984726,-0.040658,-0.024237,-0.020581,64.469543,22.824127,-149.082443,,,
729608143.827529,-0.11795,0.805088,52.950457,-0.014969,-0.001068,0.984726,-0.040658,-0.024237,-0.020581,64.469543,22.824127,-149.082443,,,
729608143.830773,-0.132461,0.796716,52.944417,-0.011765,-7.6e-05,0.989227,-0.060276,-0.014853,-0.024403,64.469543,22.824127,-149.082443,,,
729608143.834113,-0.132461,0.796716,52.944417,-0.011765,-7.6e-05,0.989227,-0.060276,-0.014853,-0.024403,64.221771,22.927338,-148.839127,,,
729608143.837464,-0.149958,0.791735,52.937974,-0.011765,-7.6e-05,0.989227,-0.060276,-0.014853,-0.024403,64.221771,22.927338,-148.839127,,,
729608143.840777,-0.169442,0.78947,52.931164,-0.00795,-0.001053,0.990662,-0.080515,0.009781,-0.027396,64.221771,22.927338,-148.839127,,,
729608143.844168,-0.169442,0.78947,52.931164,-0.00795,-0.001053,0.990662,-0.080515,0.009781,-0.027396,64.221771,22.927338,-148.839127,,,
729608143.847446,-0.192227,0.793706,52.924599,-0.00795,-0.001053,0.990662,-0.080515,0.009781,-0.027396,64.221771,22.927338,-148.839127,,,
729608143.850768,-0.215604,0.80433,52.919525,-0.008545,-0.00415,1.002945,-0.08062,0.054934,-0.016568,64.221771,22.927338,-148.839127,,,
