Time (sec),Pitch (deg),Roll (deg),Yaw(deg),X-Acceleration (g),Y-Acceleration (g),Z-Acceleration (g),Pitch Rate (deg/sec),Roll Rate (deg/sec),Yaw Rate (deg/sec),Magnetic Field in X direction (uT),Magnetic Field in Y direction (uT),Magnetic Field in Z Direction (uT),Latitude (deg),Longitude (deg),Altitude (m)
729605540.790754,-2.123091,1.762365,44.490208,-0.01416,-0.023987,0.990646,-0.05766,0.012745,-0.105939,63.784714,22.394012,-147.524551,,,
729605540.794045,-2.141709,1.762085,44.457585,-0.017075,-0.029327,0.992905,-0.061003,0.004614,-0.118603,63.784714,22.394012,-147.524551,,,
729605540.797475,-2.141709,1.762085,44.457585,-0.017075,-0.029327,0.992905,-0.061003,0.004614,-0.118603,63.784714,22.394012,-147.524551,,,
729605540.800731,-2.160227,1.757771,44.423983,-0.017075,-0.029327,0.992905,-0.061003,0.004614,-0.118603,63.784714,22.394012,-147.524551,,,
729605540.80407,-2.176852,1.755917,44.389946,-0.027405,-0.038391,0.995071,-0.051939,0.001907,-0.12302,63.784714,22.394012,-147.524551,,,
729605540.80746,-2.176852,1.755917,44.389946,-0.027405,-0.038391,0.995071,-0.051939,0.001907,-0.12302,63.992599,22.241028,-147.631882,,,
729605540.810786,-2.192396,1.751762,44.356339,-0.027405,-0.038391,0.995071,-0.051939,0.001907,-0.12302,63.992599,22.241028,-147.631882,,,
729605540.81404,-2.206564,1.75271,44.324785,-0.039505,-0.041382,1.000015,-0.04345,0.010551,-0.110717,63.992599,22.241028,-147.631882,,,
729605540.817394,-2.206564,1.75271,44.324785,-0.039505,-0.041382,1.000015,-0.04345,0.010551,-0.110717,63.992599,22.241028,-147.631882,,,
729605540.820868,-2.219568,1.752429,44.295034,-0.039505,-0.041382,1.000015,-0.04345,0.010551,-0.110717,63.992599,22.241028,-147.631882,,,
729605540.824076,-2.230754,1.758306,44.267632,-0.047867,-0.044647,1.002762,-0.034344,0.03012,-0.098416,63.992599,22.241028,-147.631882,,,
729605540.8274,-2.230754,1.758306,44.267632,-0.047867,-0.044647,1.002762,-0.034344,0.03012,-0.098416,63.992599,22.241028,-147.631882,,,
729605540.830727,-2.240548,1.763368,44.241808,-0.047867,-0.044647,1.002762,-0.034344,0.03012,-0.098416,63.992599,22.241028,-147.631882,,,
729605540.834049,-2.246247,1.771927,44.217212,-0.049469,-0.041855,1.009659,-0.014977,0.037273,-0.083942,63.992599,22.241028,-147.631882,,,
729605540.837392,-2.246247,1.771927,44.217212,-0.049469,-0.041855,1.009659,-0.014977,0.037273,-0.083942,63.992599,22.241028,-147.631882,,,
729605540.840773,-2.249498,1.778133,44.194291,-0.049469,-0.041855,1.009659,-0.014977,0.037273,-0.083942,63.992599,22.241028,-147.631882,,,
729605540.844046,-2.250215,1.787271,44.173446,-0.05069,-0.036697,1.008072,-0.001479,0.040946,-0.072244,63.992599,22.241028,-147.631882,,,
729605540.84738,-2.250215,1.787271,44.173446,-0.05069,-0.036697,1.008072,-0.001479,0.040946,-0.072244,64.019379,22.353699,-147.790649,,,
729605540.850717,-2.248417,1.794598,44.154332,-0.05069,-0.036697,1.008072,-0.001479,0.040946,-0.072244,64.019379,22.353699,-147.790649,,,
729605540.854159,-2.247007,1.805229,44.136352,-0.05336,-0.037628,1.004059,0.00742,0.044005,-0.063557,64.019379,22.353699,-147.790649,,,
729605540.857453,-2.247007,1.805229,44.136352,-0.05336,-0.037628,1.004059,0.00742,0.044005,-0.063557,64.019379,22.353699,-147.790649,,,
729605540.860728,-2.243631,1.812646,44.118797,-0.05336,-0.037628,1.004059,0.00742,0.044005,-0.063557,64.019379,22.353699,-147.790649,,,
729605540.864099,-2.243119,1.822035,44.102218,-0.053574,-0.036682,1.003143,0.009209,0.036273,-0.056772,64.019379,22.353699,-147.790649,,,
729605540.867325,-2.243119,1.822035,44.102218,-0.053574,-0.036682,1.003143,0.009209,0.036273,-0.056772,64.019379,22.353699,-147.790649,,,
729605540.870748,-2.239629,1.82526,44.086065,-0.053574,-0.036682,1.003143,0.009209,0.036273,-0.056772,64.019379,22.353699,-147.790649,,,
729605540.874104,-2.239664,1.828605,44.069634,-0.053513,-0.035782,0.999176,0.002383,0.016065,-0.060556,64.019379,22.353699,-147.790649,,,
729605540.877407,-2.239664,1.828605,44.069634,-0.053513,-0.035782,0.999176,0.002383,0.016065,-0.060556,64.019379,22.353699,-147.790649,,,
729605540.880747,-2.239593,1.826505,44.05211,-0.053513,-0.035782,0.999176,0.002383,0.016065,-0.060556,64.019379,22.353699,-147.790649,,,
729605540.884051,-2.242178,1.824158,44.033489,-0.049622,-0.030472,0.997498,-0.006373,-0.005559,-0.067823,64.019379,22.353699,-147.790649,,,
729605540.887401,-2.242178,1.824158,44.033489,-0.049622,-0.030472,0.997498,-0.006373,-0.005559,-0.067823,64.05542,22.466049,-147.809753,,,
729605540.890779,-2.246836,1.819916,44.013291,-0.049622,-0.030472,0.997498,-0.006373,-0.005559,-0.067823,64.05542,22.466049,-147.809753,,,
729605540.894099,-2.252977,1.814284,43.992273,-0.047043,-0.026245,0.998016,-0.015828,-0.016234,-0.078659,64.05542,22.466049,-147.809753,,,
729605540.897114,-2.252977,1.814284,43.992273,-0.047043,-0.026245,0.998016,-0.015828,-0.016234,-0.078659,64.05542,22.466049,-147.809753,,,
729605540.900883,-2.261062,1.809621,43.971047,-0.047043,-0.026245,0.998016,-0.015828,-0.016234,-0.078659,64.05542,22.466049,-147.809753,,,
729605540.904125,-2.268823,1.801666,43.949678,-0.047729,-0.024933,0.999252,-0.027658,-0.019909,-0.07567,64.05542,22.466049,-147.809753,,,
729605540.907423,-2.268823,1.801666,43.949678,-0.047729,-0.024933,0.999252,-0.027658,-0.019909,-0.07567,64.05542,22.466049,-147.809753,,,
729605540.910717,-2.277578,1.796333,43.929387,-0.047729,-0.024933,0.999252,-0.027658,-0.019909,-0.07567,64.05542,22.466049,-147.809753,,,
729605540.913863,-2.277578,1.786923,43.911386,-0.047729,-0.024933,0.999252,-0.027658,-0.019909,-0.07567,64.05542,22.466049,-147.809753,,,
729605540.91741,-2.284955,1.786923,43.911386,-0.047058,-0.030304,1.001678,-0.024327,-0.027953,-0.06312,64.05542,22.466049,-147.809753,,,
729605540.920749,-2.290744,1.781371,43.896115,-0.047058,-0.030304,1.001678,-0.024327,-0.027953,-0.06312,64.05542,22.466049,-147.809753,,,
729605540.924098,-2.295027,1.772978,43.883009,-0.046082,-0.035904,1.00769,-0.012131,-0.025538,-0.045037,64.05542,22.466049,-147.809753,,,
729605540.927401,-2.295027,1.772978,43.883009,-0.046082,-0.035904,1.00769,-0.012131,-0.025538,-0.045037,64.05542,22.466049,-147.809753,,,
729605540.930718,-2.2959,1.768746,43.873154,-0.046082,-0.035904,1.00769,-0.012131,-0.025538,-0.045037,63.869965,22.374527,-147.560699,,,
729605540.934105,-2.293326,1.760388,43.866174,-0.048035,-0.041489,1.014816,0.01466,-0.026593,-0.022607,63.869965,22.374527,-147.560699,,,
729605540.937379,-2.293326,1.760388,43.866174,-0.048035,-0.041489,1.014816,0.01466,-0.026593,-0.022607,63.869965,22.374527,-147.560699,,,
729605540.940767,-2.28614,1.756789,43.861663,-0.048035,-0.041489,1.014816,0.01466,-0.026593,-0.022607,63.869965,22.374527,-147.560699,,,
729605540.944034,-2.276537,1.749849,43.858536,-0.048035,-0.041489,1.014816,0.03953,-0.019461,-0.009207,63.869965,22.374527,-147.560699,,,
729605540.947401,-2.276537,1.749849,43.858536,-0.048538,-0.046204,1.020752,0.03953,-0.019461,-0.009207,63.869965,22.374527,-147.560699,,,
729605540.950783,-2.264621,1.747956,43.856407,-0.048538,-0.046204,1.020752,0.03953,-0.019461,-0.009207,63.869965,22.374527,-147.560699,,,
729605540.954069,-2.252609,1.741534,43.854066,-0.03714,-0.042755,1.019531,0.042693,-0.018858,-0.007412,63.869965,22.374527,-147.560699,,,
729605540.957431,-2.252609,1.741534,43.854066,-0.03714,-0.042755,1.019531,0.042693,-0.018858,-0.007412,63.869965,22.374527,-147.560699,,,
729605540.960739,-2.240281,1.739687,43.851762,-0.03714,-0.042755,1.019531,0.042693,-0.018858,-0.007412,63.869965,22.374527,-147.560699,,,
729605540.963996,-2.240281,1.739687,43.851762,-0.03714,-0.042755,1.019531,0.033336,-0.018081,-0.009672,63.869965,22.374527,-147.560699,,,
729605540.967405,-2.230468,1.733441,43.849211,-0.030609,-0.03569,1.009277,0.033336,-0.018081,-0.009672,63.869965,22.374527,-147.560699,,,
729605540.970728,-2.220325,1.730487,43.846206,-0.030609,-0.03569,1.009277,0.033336,-0.018081,-0.009672,63.985046,22.203949,-147.325165,,,
729605540.974097,-2.220325,1.723929,43.84257,-0.028809,-0.031723,1.00444,0.023588,-0.019216,-0.013634,63.985046,22.203949,-147.325165,,,
729605540.977394,-2.213973,1.723929,43.84257,-0.028809,-0.031723,1.00444,0.023588,-0.019216,-0.013634,63.985046,22.203949,-147.325165,,,
729605540.980735,-2.206624,1.720178,43.838501,-0.028809,-0.031723,1.00444,0.023588,-0.019216,-0.013634,63.985046,22.203949,-147.325165,,,
729605540.984092,-2.206624,1.712463,43.833514,-0.02713,-0.032639,1.001221,0.016335,-0.023709,-0.018332,63.985046,22.203949,-147.325165,,,
729605540.987475,-2.202186,1.712463,43.833514,-0.02713,-0.032639,1.001221,0.016335,-0.023709,-0.018332,63.985046,22.203949,-147.325165,,,
729605540.99075,-2.194242,1.706909,43.827963,-0.02713,-0.032639,1.001221,0.016335,-0.023709,-0.018332,63.985046,22.203949,-147.325165,,,
729605540.994038,-2.194242,1.706909,43.827963,-0.02713,-0.032639,1.001221,0.016335,-0.023709,-0.018332,63.985046,22.203949,-147.325165,,,
729605540.997385,-2.187411,1.696698,43.821189,-0.020447,-0.03479,1.005081,0.025231,-0.031655,-0.02644,63.985046,22.203949,-147.325165,,,
729605541.000796,-2.177984,1.688158,43.813193,-0.020447,-0.03479,1.005081,0.025231,-0.031655,-0.02644,63.985046,22.203949,-147.325165,,,
729605541.004035,-2.177984,1.688158,43.813193,-0.020447,-0.03479,1.005081,0.03499,-0.043708,-0.032691,63.985046,22.203949,-147.325165,,,
729605541.007463,-2.168072,1.67477,43.804198,-0.019226,-0.034485,1.008713,0.03499,-0.043708,-0.032691,63.985046,22.203949,-147.325165,,,
729605541.010703,-2.157354,1.663593,43.793874,-0.019226,-0.034485,1.008713,0.03499,-0.043708,-0.032691,63.82135,22.147598,-147.577469,,,
729605541.014073,-2.157354,1.663593,43.793874,-0.019226,-0.034485,1.008713,0.042833,-0.049307,-0.042192,63.82135,22.147598,-147.577469,,,
729605541.017396,-2.145689,1.648391,43.781686,-0.018875,-0.034241,1.005722,0.042833,-0.049307,-0.042192,63.82135,22.147598,-147.577469,,,
729605541.02072,-2.133954,1.637167,43.768664,-0.018875,-0.034241,1.005722,0.042833,-0.049307,-0.042192,63.82135,22.147598,-147.577469,,,
729605541.024085,-2.133954,1.637167,43.768664,-0.018875,-0.034241,1.005722,0.048602,-0.045415,-0.047844,63.82135,22.147598,-147.577469,,,
729605541.027443,-2.12039,1.622846,43.754897,-0.018463,-0.034439,1.003891,0.048602,-0.045415,-0.047844,63.82135,22.147598,-147.577469,,,
729605541.030706,-2.107657,1.612554,43.74072,-0.018463,-0.034439,1.003891,0.048602,-0.045415,-0.047844,63.82135,22.147598,-147.577469,,,
729605541.034076,-2.107657,1.612554,43.74072,-0.018463,-0.034439,1.003891,0.052186,-0.035414,-0.048618,63.82135,22.147598,-147.577469,,,
729605541.037402,-2.093293,1.600643,43.726278,-0.018509,-0.037201,1.002243,0.052186,-0.035414,-0.048618,63.82135,22.147598,-147.577469,,,
729605541.040783,-2.079344,1.592269,43.712246,-0.018509,-0.037201,1.002243,0.052186,-0.035414,-0.048618,63.82135,22.147598,-147.577469,,,
729605541.044166,-2.079344,1.592269,43.712246,-0.018509,-0.037201,1.002243,0.052186,-0.035414,-0.048618,63.82135,22.147598,-147.577469,,,
729605541.047394,-2.065074,1.58627,43.698759,-0.017441,-0.04158,1.005157,0.053189,-0.013169,-0.048914,63.82135,22.147598,-147.577469,,,
729605541.05079,-2.051247,1.584263,43.685929,-0.017441,-0.04158,1.005157,0.053189,-0.013169,-0.048914,63.681793,22.094864,-148.031937,,,
729605541.054098,-2.051247,1.584263,43.685929,-0.017441,-0.04158,1.005157,0.053189,-0.013169,-0.048914,63.681793,22.094864,-148.031937,,,
729605541.05742,-2.038532,1.584355,43.674206,-0.021179,-0.045456,1.00502,0.047576,0.004167,-0.040669,63.681793,22.094864,-148.031937,,,
729605541.060743,-2.026012,1.585817,43.663958,-0.021179,-0.045456,1.00502,0.047576,0.004167,-0.040669,63.681793,22.094864,-148.031937,,,
729605541.064181,-2.026012,1.585817,43.663958,-0.021179,-0.045456,1.00502,0.047576,0.004167,-0.040669,63.681793,22.094864,-148.031937,,,
729605541.067379,-2.015506,1.588037,43.654801,-0.02887,-0.05098,0.997223,0.036993,0.012282,-0.03279,63.681793,22.094864,-148.031937,,,
729605541.070711,-2.005331,1.590512,43.646154,-0.02887,-0.05098,0.997223,0.036993,0.012282,-0.03279,63.681793,22.094864,-148.031937,,,
729605541.074101,-2.005331,1.590512,43.646154,-0.02887,-0.05098,0.997223,0.036993,0.012282,-0.03279,63.681793,22.094864,-148.031937,,,
729605541.077458,-1.995623,1.594615,43.637061,-0.031677,-0.050323,0.99942,0.035811,0.017886,-0.031613,63.681793,22.094864,-148.031937,,,
729605541.080737,-1.984921,1.596679,43.627003,-0.031677,-0.050323,0.99942,0.035811,0.017886,-0.031613,63.681793,22.094864,-148.031937,,,
729605541.0841,-1.984921,1.596679,43.627003,-0.031677,-0.050323,0.99942,0.035811,0.017886,-0.031613,63.681793,22.094864,-148.031937,,,
729605541.087398,-1.9742,1.599654,43.616564,-0.032288,-0.048721,1.007706,0.039566,0.015664,-0.038224,63.681793,22.094864,-148.031937,,,
729605541.090765,-1.96346,1.599967,43.605838,-0.032288,-0.048721,1.007706,0.039566,0.015664,-0.038224,63.681793,22.094864,-148.031937,,,
729605541.094111,-1.96346,1.599967,43.605838,-0.032288,-0.048721,1.007706,0.039566,0.015664,-0.038224,63.930832,21.859146,-147.553741,,,
729605541.097398,-1.952546,1.600427,43.59494,-0.035065,-0.048981,1.002731,0.039739,0.00497,-0.036765,63.930832,21.859146,-147.553741,,,
729605541.10072,-1.942601,1.597515,43.583963,-0.035065,-0.048981,1.002731,0.039739,0.00497,-0.036765,63.930832,21.859146,-147.553741,,,
729605541.104109,-1.942601,1.597515,43.583963,-0.035065,-0.048981,1.002731,0.039739,0.00497,-0.036765,63.930832,21.859146,-147.553741,,,
729605541.10742,-1.933742,1.59511,43.572673,-0.037537,-0.049591,0.997986,0.031501,-0.004997,-0.041268,63.930832,21.859146,-147.553741,,,
729605541.110719,-1.926572,1.589376,43.560242,-0.037537,-0.049591,0.997986,0.031501,-0.004997,-0.041268,63.930832,21.859146,-147.553741,,,
729605541.114168,-1.926572,1.589376,43.560242,-0.037537,-0.049591,0.997986,0.031501,-0.004997,-0.041268,63.930832,21.859146,-147.553741,,,
729605541.117368,-1.920377,1.583537,43.546885,-0.037537,-0.046768,0.992264,0.02484,-0.018606,-0.046548,63.930832,21.859146,-147.553741,,,
729605541.120727,-1.916186,1.573659,43.532997,-0.037537,-0.046768,0.992264,0.02484,-0.018606,-0.046548,63.930832,21.859146,-147.553741,,,
729605541.124113,-1.916186,1.573659,43.532997,-0.037537,-0.046768,0.992264,0.02484,-0.018606,-0.046548,63.930832,21.859146,-147.553741,,,
729605541.127367,-1.911407,1.564697,43.518806,-0.037109,-0.044067,0.987762,0.021389,-0.027763,-0.051358,63.930832,21.859146,-147.553741,,,
729605541.130776,-1.907886,1.554427,43.504746,-0.037109,-0.044067,0.987762,0.021389,-0.027763,-0.051358,63.930832,21.859146,-147.553741,,,
729605541.134036,-1.907886,1.554427,43.504746,-0.037109,-0.044067,0.987762,0.021389,-0.027763,-0.051358,63.823593,21.873627,-147.555069,,,
729605541.1374,-1.902062,1.547013,43.491059,-0.037384,-0.040222,0.993637,0.023241,-0.019136,-0.047679,63.823593,21.873627,-147.555069,,,
729605541.14077,-1.898189,1.539566,43.478648,-0.037384,-0.040222,0.993637,0.023241,-0.019136,-0.047679,63.823593,21.873627,-147.555069,,,
729605541.144115,-1.898189,1.539566,43.478648,-0.037384,-0.040222,0.993637,0.023241,-0.019136,-0.047679,63.823593,21.873627,-147.555069,,,
729605541.147375,-1.890903,1.532854,43.468781,-0.035339,-0.04097,0.991699,0.02533,-0.017892,-0.034372,63.823593,21.873627,-147.555069,,,
729605541.150719,-1.885184,1.526726,43.461603,-0.035339,-0.04097,0.991699,0.02533,-0.017892,-0.034372,63.823593,21.873627,-147.555069,,,
729605541.15404,-1.885184,1.526726,43.461603,-0.035339,-0.04097,0.991699,0.02533,-0.017892,-0.034372,63.823593,21.873627,-147.555069,,,
729605541.157451,-1.873367,1.519543,43.456854,-0.03772,-0.039963,0.99173,0.04542,-0.021147,-0.015471,63.823593,21.873627,-147.555069,,,
729605541.160709,-1.861837,1.513893,43.454314,-0.03772,-0.039963,0.99173,0.04542,-0.021147,-0.015471,63.823593,21.873627,-147.555069,,,
729605541.164044,-1.861837,1.513893,43.454314,-0.03772,-0.039963,0.99173,0.04542,-0.021147,-0.015471,63.823593,21.873627,-147.555069,,,
729605541.167386,-1.844302,1.508253,43.453373,-0.034454,-0.038147,1.000031,0.064982,-0.013679,-0.004246,63.823593,21.873627,-147.555069,,,
729605541.170738,-1.827975,1.50502,43.453431,-0.034454,-0.038147,1.000031,0.064982,-0.013679,-0.004246,63.823593,21.873627,-147.555069,,,
729605541.174103,-1.827975,1.50502,43.453431,-0.034454,-0.038147,1.000031,0.064982,-0.013679,-0.004246,63.746323,21.710251,-147.490372,,,
729605541.177436,-1.80804,1.501313,43.454616,-0.034439,-0.0327,0.992081,0.071346,-0.011234,0.005585,63.746323,21.710251,-147.490372,,,
729605541.180822,-1.791858,1.499967,43.457134,-0.034439,-0.0327,0.992081,0.071346,-0.011234,0.005585,63.746323,21.710251,-147.490372,,,
729605541.184066,-1.791858,1.499967,43.457134,-0.034439,-0.0327,0.992081,0.071346,-0.011234,0.005585,63.746323,21.710251,-147.490372,,,
729605541.187419,-1.773206,1.497671,43.461018,-0.035477,-0.031525,0.986008,0.0627,-0.004789,0.015795,63.746323,21.710251,-147.490372,,,
729605541.190755,-1.760172,1.498834,43.465924,-0.035477,-0.031525,0.986008,0.0627,-0.004789,0.015795,63.746323,21.710251,-147.490372,,,
729605541.194116,-1.760172,1.498834,43.465924,-0.035477,-0.031525,0.986008,0.0627,-0.004789,0.015795,63.746323,21.710251,-147.490372,,,
729605541.19737,-1.746971,1.498361,43.470458,-0.034042,-0.025726,0.977005,0.046171,-0.000172,0.015648,63.746323,21.710251,-147.490372,,,
729605541.200745,-1.73977,1.499377,43.473612,-0.034042,-0.025726,0.977005,0.046171,-0.000172,0.015648,63.746323,21.710251,-147.490372,,,
729605541.204055,-1.73977,1.499377,43.473612,-0.034042,-0.025726,0.977005,0.046171,-0.000172,0.015648,63.746323,21.710251,-147.490372,,,
729605541.207484,-1.733606,1.496383,43.47459,-0.020828,-0.014847,0.966751,0.017615,-0.00869,0.001758,63.746323,21.710251,-147.490372,,,
729605541.210721,-1.733504,1.494702,43.473014,-0.020828,-0.014847,0.966751,0.017615,-0.00869,0.001758,63.746323,21.710251,-147.490372,,,
729605541.214087,-1.733504,1.494702,43.473014,-0.020828,-0.014847,0.966751,0.017615,-0.00869,0.001758,63.746323,21.710251,-147.490372,,,
729605541.217397,-1.734056,1.490311,43.468464,-0.020264,-0.009491,0.968475,-0.003221,-0.010155,-0.01856,63.711792,21.648376,-147.409225,,,
729605541.220792,-1.738854,1.486558,43.461171,-0.020264,-0.009491,0.968475,-0.003221,-0.010155,-0.01856,63.711792,21.648376,-147.409225,,,
729605541.224079,-1.738854,1.486558,43.461171,-0.020264,-0.009491,0.968475,-0.003221,-0.010155,-0.01856,63.711792,21.648376,-147.409225,,,
729605541.227374,-1.743959,1.479046,43.451393,-0.021378,-0.00766,0.972168,-0.017695,-0.024968,-0.037069,63.711792,21.648376,-147.409225,,,
729605541.230727,-1.752623,1.471609,43.440324,-0.021378,-0.00766,0.972168,-0.017695,-0.024968,-0.037069,63.711792,21.648376,-147.409225,,,
729605541.234125,-1.752623,1.471609,43.440324,-0.021378,-0.00766,0.972168,-0.017695,-0.024968,-0.037069,63.711792,21.648376,-147.409225,,,
729605541.237392,-1.760406,1.460585,43.428645,-0.026581,-0.012863,0.974121,-0.024939,-0.034478,-0.043534,63.711792,21.648376,-147.409225,,,
729605541.240746,-1.770616,1.450672,43.416814,-0.026581,-0.012863,0.974121,-0.024939,-0.034478,-0.043534,63.711792,21.648376,-147.409225,,,
729605541.244052,-1.770616,1.450672,43.416814,-0.026581,-0.012863,0.974121,-0.024939,-0.034478,-0.043534,63.711792,21.648376,-147.409225,,,
729605541.247441,-1.78042,1.439031,43.404892,-0.026718,-0.017776,0.981232,-0.033695,-0.036146,-0.043397,63.711792,21.648376,-147.409225,,,
729605541.250715,-1.79157,1.429164,43.39295,-0.026718,-0.017776,0.981232,-0.033695,-0.036146,-0.043397,63.711792,21.648376,-147.409225,,,
729605541.254054,-1.79157,1.429164,43.39295,-0.026718,-0.017776,0.981232,-0.033695,-0.036146,-0.043397,63.711792,21.648376,-147.409225,,,
729605541.257415,-1.802999,1.418859,43.381962,-0.027313,-0.019943,0.98526,-0.040618,-0.032033,-0.038665,63.686462,21.631287,-147.617752,,,
729605541.260787,-1.815103,1.410728,43.372942,-0.027313,-0.019943,0.98526,-0.040618,-0.032033,-0.038665,63.686462,21.631287,-147.617752,,,
729605541.264065,-1.815103,1.410728,43.372942,-0.027313,-0.019943,0.98526,-0.040618,-0.032033,-0.038665,63.686462,21.631287,-147.617752,,,
729605541.267399,-1.827625,1.401986,43.365925,-0.03418,-0.024597,0.986359,-0.044492,-0.02481,-0.024926,63.686462,21.631287,-147.617752,,,
729605541.270704,-1.840211,1.395716,43.360762,-0.03418,-0.024597,0.986359,-0.044492,-0.02481,-0.024926,63.686462,21.631287,-147.617752,,,
729605541.274091,-1.840211,1.395716,43.360762,-0.03418,-0.024597,0.986359,-0.044492,-0.02481,-0.024926,63.686462,21.631287,-147.617752,,,
729605541.277418,-1.852605,1.38902,43.356661,-0.033752,-0.025223,0.991547,-0.039941,-0.021144,-0.017051,63.686462,21.631287,-147.617752,,,
729605541.280716,-1.862639,1.384296,43.352827,-0.033752,-0.025223,0.991547,-0.039941,-0.021144,-0.017051,63.686462,21.631287,-147.617752,,,
729605541.284059,-1.862639,1.384296,43.352827,-0.033752,-0.025223,0.991547,-0.039941,-0.021144,-0.017051,63.686462,21.631287,-147.617752,,,
729605541.287464,-1.871732,1.37964,43.348888,-0.026688,-0.022888,1.0009,-0.027704,-0.011176,-0.01713,63.686462,21.631287,-147.617752,,,
729605541.290753,-1.875341,1.37623,43.344893,-0.026688,-0.022888,1.0009,-0.027704,-0.011176,-0.01713,63.686462,21.631287,-147.617752,,,
729605541.294054,-1.875341,1.37623,43.344893,-0.026688,-0.022888,1.0009,-0.027704,-0.011176,-0.01713,63.686462,21.631287,-147.617752,,,
729605541.297405,-1.878138,1.375655,43.341165,-0.027771,-0.025269,1.011749,-0.002436,0.002594,-0.014533,63.572037,21.947739,-147.413239,,,
729605541.300776,-1.873144,1.37588,43.338211,-0.027771,-0.025269,1.011749,-0.002436,0.002594,-0.014533,63.572037,21.947739,-147.413239,,,
729605541.304053,-1.873144,1.37588,43.338211,-0.027771,-0.025269,1.011749,-0.002436,0.002594,-0.014533,63.572037,21.947739,-147.413239,,,
729605541.307454,-1.868504,1.376582,43.336237,-0.02858,-0.026672,1.020203,0.016207,0.008429,-0.009939,63.572037,21.947739,-147.413239,,,
729605541.31072,-1.859026,1.377208,43.334861,-0.02858,-0.026672,1.020203,0.016207,0.008429,-0.009939,63.572037,21.947739,-147.413239,,,
729605541.314152,-1.859026,1.377208,43.334861,-0.02858,-0.026672,1.020203,0.016207,0.008429,-0.009939,63.572037,21.947739,-147.413239,,,
729605541.317393,-1.854138,1.37865,43.33355,-0.024384,-0.030228,1.005783,0.016892,0.006957,-0.003722,63.572037,21.947739,-147.413239,,,
729605541.320728,-1.847331,1.381847,43.33229,-0.024384,-0.030228,1.005783,0.016892,0.006957,-0.003722,63.572037,21.947739,-147.413239,,,
729605541.324087,-1.847331,1.381847,43.33229,-0.024384,-0.030228,1.005783,0.016892,0.006957,-0.003722,63.572037,21.947739,-147.413239,,,
729605541.327451,-1.845355,1.384532,43.330674,-0.020004,-0.025528,1.001587,0.005565,0.011286,-0.007236,63.572037,21.947739,-147.413239,,,
729605541.330722,-1.84309,1.387033,43.328427,-0.020004,-0.025528,1.001587,0.005565,0.011286,-0.007236,63.572037,21.947739,-147.413239,,,
729605541.334052,-1.84309,1.387033,43.328427,-0.020004,-0.025528,1.001587,0.005565,0.011286,-0.007236,63.572037,21.947739,-147.413239,,,
729605541.337387,-1.845385,1.387514,43.325515,-0.019913,-0.02124,1.000275,-0.008381,0.000675,-0.012598,63.557938,21.693069,-147.398407,,,
729605541.340768,-1.847725,1.387298,43.322438,-0.019913,-0.02124,1.000275,-0.008381,0.000675,-0.012598,63.557938,21.693069,-147.398407,,,
729605541.344054,-1.847725,1.387298,43.322438,-0.019913,-0.02124,1.000275,-0.008381,0.000675,-0.012598,63.557938,21.693069,-147.398407,,,
729605541.347392,-1.853396,1.385024,43.319388,-0.02536,-0.025238,1.000854,-0.018001,-0.005533,-0.012714,63.557938,21.693069,-147.398407,,,
729605541.350723,-1.85852,1.384564,43.316021,-0.02536,-0.025238,1.000854,-0.018001,-0.005533,-0.012714,63.557938,21.693069,-147.398407,,,
729605541.354126,-1.85852,1.384564,43.316021,-0.02536,-0.025238,1.000854,-0.018001,-0.005533,-0.012714,63.557938,21.693069,-147.398407,,,
729605541.357417,-1.864492,1.381217,43.311303,-0.02269,-0.030106,1.009201,-0.017062,-0.008509,-0.019693,63.557938,21.693069,-147.398407,,,
729605541.360715,-1.867151,1.378875,43.305104,-0.02269,-0.030106,1.009201,-0.017062,-0.008509,-0.019693,63.557938,21.693069,-147.398407,,,
729605541.364066,-1.867151,1.378875,43.305104,-0.02269,-0.030106,1.009201,-0.017062,-0.008509,-0.019693,63.557938,21.693069,-147.398407,,,
729605541.367381,-1.868612,1.374721,43.297317,-0.012634,-0.027725,1.014252,-0.002102,-0.008822,-0.031379,63.557938,21.693069,-147.398407,,,
729605541.370718,-1.865012,1.37073,43.288198,-0.012634,-0.027725,1.014252,-0.002102,-0.008822,-0.031379,63.557938,21.693069,-147.398407,,,
729605541.374112,-1.865012,1.37073,43.288198,-0.012634,-0.027725,1.014252,-0.002102,-0.008822,-0.031379,63.557938,21.693069,-147.398407,,,
729605541.377397,-1.859291,1.36506,43.278653,-0.019638,-0.028076,1.019547,0.025277,-0.01656,-0.032931,63.557938,21.693069,-147.398407,,,
729605541.38079,-1.848242,1.358396,43.269795,-0.019638,-0.028076,1.019547,0.025277,-0.01656,-0.032931,63.75502,21.929779,-147.364014,,,
729605541.384048,-1.848242,1.358396,43.269795,-0.019638,-0.028076,1.019547,0.025277,-0.01656,-0.032931,63.75502,21.929779,-147.364014,,,
729605541.3874,-1.834512,1.350013,43.262131,-0.027191,-0.03598,1.015579,0.052067,-0.025325,-0.026028,63.75502,21.929779,-147.364014,,,
729605541.390789,-1.8153,1.341944,43.25537,-0.027191,-0.03598,1.015579,0.052067,-0.025325,-0.026028,63.75502,21.929779,-147.364014,,,
729605541.3941,-1.8153,1.341944,43.25537,-0.027191,-0.03598,1.015579,0.052067,-0.025325,-0.026028,63.75502,21.929779,-147.364014,,,
729605541.397392,-1.79256,1.333798,43.25002,-0.023743,-0.036591,1.018341,0.082674,-0.024006,-0.015447,63.75502,21.929779,-147.364014,,,
729605541.400722,-1.76685,1.327202,43.246123,-0.023743,-0.036591,1.018341,0.082674,-0.024006,-0.015447,63.75502,21.929779,-147.364014,,,
729605541.40404,-1.76685,1.327202,43.246123,-0.023743,-0.036591,1.018341,0.082674,-0.024006,-0.015447,63.75502,21.929779,-147.364014,,,
729605541.407471,-1.740392,1.322394,43.243426,-0.022934,-0.035553,1.018509,0.094468,-0.013132,-0.007187,63.75502,21.929779,-147.364014,,,
729605541.410722,-1.713869,1.318419,43.242173,-0.022934,-0.035553,1.018509,0.094468,-0.013132,-0.007187,63.75502,21.929779,-147.364014,,,
729605541.414048,-1.713869,1.318419,43.242173,-0.022934,-0.035553,1.018509,0.094468,-0.013132,-0.007187,63.75502,21.929779,-147.364014,,,
729605541.417393,-1.690948,1.31732,43.242223,-0.020691,-0.0289,1.001984,0.077316,0.000203,0.002625,63.75502,21.929779,-147.364014,,,
729605541.420795,-1.669417,1.31904,43.242633,-0.020691,-0.0289,1.001984,0.077316,0.000203,0.002625,63.463821,21.726883,-147.483749,,,
729605541.424081,-1.669417,1.31904,43.242633,-0.020691,-0.0289,1.001984,0.077316,0.000203,0.002625,63.463821,21.726883,-147.483749,,,
729605541.427401,-1.65233,1.323678,43.242219,-0.015762,-0.0224,1.000366,0.058329,0.021809,-0.001294,63.463821,21.726883,-147.483749,,,
729605541.430719,-1.637517,1.330334,43.240281,-0.015762,-0.0224,1.000366,0.058329,0.021809,-0.001294,63.463821,21.726883,-147.483749,,,
729605541.434116,-1.637517,1.330334,43.240281,-0.015762,-0.0224,1.000366,0.058329,0.021809,-0.001294,63.463821,21.726883,-147.483749,,,
729605541.437377,-1.624988,1.336342,43.23642,-0.012405,-0.016418,1.00206,0.040664,0.024888,-0.016109,63.463821,21.726883,-147.483749,,,
729605541.440756,-1.615165,1.34008,43.230782,-0.012405,-0.016418,1.00206,0.040664,0.024888,-0.016109,63.463821,21.726883,-147.483749,,,
729605541.44405,-1.615165,1.34008,43.230782,-0.012405,-0.016418,1.00206,0.040664,0.024888,-0.016109,63.463821,21.726883,-147.483749,,,
729605541.447426,-1.606615,1.343213,43.224721,-0.017868,-0.015747,0.995041,0.03172,0.013505,-0.017826,63.463821,21.726883,-147.483749,,,
729605541.45071,-1.597603,1.341365,43.218964,-0.017868,-0.015747,0.995041,0.03172,0.013505,-0.017826,63.463821,21.726883,-147.483749,,,
729605541.454048,-1.597603,1.341365,43.218964,-0.017868,-0.015747,0.995041,0.03172,0.013505,-0.017826,63.463821,21.726883,-147.483749,,,
729605541.457445,-1.589086,1.337144,43.213655,-0.028305,-0.019943,0.992737,0.031453,-0.016939,-0.017928,63.463821,21.726883,-147.483749,,,
729605541.460706,-1.580888,1.32827,43.209807,-0.028305,-0.019943,0.992737,0.031453,-0.016939,-0.017928,63.741211,21.457458,-147.32576,,,
729605541.464042,-1.580888,1.32827,43.209807,-0.028305,-0.019943,0.992737,0.031453,-0.016939,-0.017928,63.741211,21.457458,-147.32576,,,
729605541.467392,-1.571389,1.31532,43.207337,-0.026108,-0.020966,0.989105,0.031129,-0.044904,-0.006054,63.741211,21.457458,-147.32576,,,
729605541.470769,-1.564045,1.29919,43.206434,-0.026108,-0.020966,0.989105,0.031129,-0.044904,-0.006054,63.741211,21.457458,-147.32576,,,
729605541.474079,-1.564045,1.29919,43.206434,-0.026108,-0.020966,0.989105,0.031129,-0.044904,-0.006054,63.741211,21.457458,-147.32576,,,
729605541.477385,-1.556048,1.280412,43.208016,-0.027069,-0.023666,0.984818,0.028255,-0.065286,0.00792,63.741211,21.457458,-147.32576,,,
729605541.480706,-1.549883,1.261921,43.212074,-0.027069,-0.023666,0.984818,0.028255,-0.065286,0.00792,63.741211,21.457458,-147.32576,,,
729605541.484099,-1.549883,1.261921,43.212074,-0.027069,-0.023666,0.984818,0.028255,-0.065286,0.00792,63.741211,21.457458,-147.32576,,,
729605541.48737,-1.540525,1.244139,43.218008,-0.027313,-0.027451,0.986526,0.0347,-0.056737,0.022126,63.741211,21.457458,-147.32576,,,
729605541.490798,-1.52958,1.226496,43.224677,-0.027313,-0.027451,0.986526,0.0347,-0.056737,0.022126,63.741211,21.457458,-147.32576,,,
729605541.494096,-1.52958,1.226496,43.224677,-0.027313,-0.027451,0.986526,0.0347,-0.056737,0.022126,63.741211,21.457458,-147.32576,,,
729605541.497431,-1.516782,1.210602,43.230102,-0.018326,-0.027512,1.006409,0.045379,-0.052363,0.016439,63.741211,21.457458,-147.32576,,,
729605541.500718,-1.504496,1.198843,43.231962,-0.018326,-0.027512,1.006409,0.045379,-0.052363,0.016439,63.53421,21.416153,-147.522461,,,
729605541.504073,-1.504496,1.198843,43.231962,-0.018326,-0.027512,1.006409,0.045379,-0.052363,0.016439,63.53421,21.416153,-147.522461,,,
729605541.507445,-1.492489,1.193203,43.230178,0.002167,-0.015747,1.005112,0.039692,-0.009413,-0.010808,63.53421,21.416153,-147.522461,,,
729605541.510776,-1.480042,1.190422,43.225916,0.002167,-0.015747,1.005112,0.039692,-0.009413,-0.010808,63.53421,21.416153,-147.522461,,,
729605541.51405,-1.480042,1.190422,43.225916,0.002167,-0.015747,1.005112,0.039692,-0.009413,-0.010808,63.53421,21.416153,-147.522461,,,
729605541.51738,-1.47095,1.191821,43.220503,-0.00647,-0.016586,1.006638,0.030693,0.010676,-0.019692,63.53421,21.416153,-147.522461,,,
729605541.520715,-1.462518,1.194005,43.21498,-0.00647,-0.016586,1.006638,0.030693,0.010676,-0.019692,63.53421,21.416153,-147.522461,,,
729605541.524137,-1.462518,1.194005,43.21498,-0.00647,-0.016586,1.006638,0.030693,0.010676,-0.019692,63.53421,21.416153,-147.522461,,,
729605541.527393,-1.457429,1.199111,43.210187,-0.020035,-0.022537,0.997894,0.018938,0.022323,-0.017553,63.53421,21.416153,-147.522461,,,
729605541.530711,-1.452285,1.205025,43.205526,-0.020035,-0.022537,0.997894,0.018938,0.022323,-0.017553,63.53421,21.416153,-147.522461,,,
729605541.534066,-1.452285,1.205025,43.205526,-0.020035,-0.022537,0.997894,0.018938,0.022323,-0.017553,63.53421,21.416153,-147.522461,,,
729605541.537458,-1.450361,1.209787,43.200729,-0.019989,-0.022842,0.996964,0.00426,0.018318,-0.018457,63.53421,21.416153,-147.522461,,,
729605541.540754,-1.449484,1.214025,43.196361,-0.019989,-0.022842,0.996964,0.00426,0.018318,-0.018457,63.53421,21.416153,-147.522461,,,
729605541.544061,-1.449484,1.214025,43.196361,-0.019989,-0.022842,0.996964,0.00426,0.018318,-0.018457,63.548721,21.417358,-147.83754,,,
729605541.547382,-1.451393,1.214883,43.191818,-0.023193,-0.026382,0.991776,-0.007879,0.004771,-0.019037,63.548721,21.417358,-147.83754,,,
729605541.550783,-1.453237,1.214701,43.186348,-0.023193,-0.026382,0.991776,-0.007879,0.004771,-0.019037,63.548721,21.417358,-147.83754,,,
729605541.55404,-1.453237,1.214701,43.186348,-0.023193,-0.026382,0.991776,-0.007879,0.004771,-0.019037,63.548721,21.417358,-147.83754,,,
729605541.557419,-1.455407,1.211846,43.179112,-0.026825,-0.028275,0.992371,-0.005782,-0.006591,-0.027682,63.548721,21.417358,-147.83754,,,
729605541.560722,-1.457643,1.208446,43.170126,-0.026825,-0.028275,0.992371,-0.005782,-0.006591,-0.027682,63.548721,21.417358,-147.83754,,,
729605541.564103,-1.457643,1.208446,43.170126,-0.026825,-0.028275,0.992371,-0.005782,-0.006591,-0.027682,63.548721,21.417358,-147.83754,,,
729605541.567389,-1.459835,1.201289,43.160152,-0.022995,-0.028473,0.994354,-0.004675,-0.019878,-0.036904,63.548721,21.417358,-147.83754,,,
729605541.570723,-1.462718,1.193061,43.150528,-0.022995,-0.028473,0.994354,-0.004675,-0.019878,-0.036904,63.548721,21.417358,-147.83754,,,
729605541.574079,-1.462718,1.193061,43.150528,-0.022995,-0.028473,0.994354,-0.004675,-0.019878,-0.036904,63.548721,21.417358,-147.83754,,,
729605541.577371,-1.464468,1.182442,43.142484,-0.026505,-0.030411,0.989914,-0.004261,-0.033692,-0.028971,63.548721,21.417358,-147.83754,,,
729605541.580734,-1.464136,1.168232,43.136456,-0.026505,-0.030411,0.989914,-0.004261,-0.033692,-0.028971,63.548721,21.417358,-147.83754,,,
729605541.58405,-1.464136,1.168232,43.136456,-0.026505,-0.030411,0.989914,-0.004261,-0.033692,-0.028971,63.566376,21.581955,-147.888397,,,
729605541.587373,-1.461118,1.155277,43.132175,-0.035156,-0.03688,0.997269,0.0151,-0.042349,-0.015614,63.566376,21.581955,-147.888397,,,
729605541.590754,-1.451611,1.136782,43.129053,-0.035156,-0.03688,0.997269,0.0151,-0.042349,-0.015614,63.566376,21.581955,-147.888397,,,
729605541.594052,-1.451611,1.136782,43.129053,-0.035156,-0.03688,0.997269,0.0151,-0.042349,-0.015614,63.566376,21.581955,-147.888397,,,
729605541.597383,-1.441015,1.120386,43.126586,-0.029083,-0.038055,1.010239,0.039793,-0.057291,-0.010252,63.566376,21.581955,-147.888397,,,
729605541.600721,-1.426585,1.101021,43.123394,-0.029083,-0.038055,1.010239,0.039793,-0.057291,-0.010252,63.566376,21.581955,-147.888397,,,
729605541.6041,-1.426585,1.101021,43.123394,-0.029083,-0.038055,1.010239,0.039793,-0.057291,-0.010252,63.566376,21.581955,-147.888397,,,
729605541.60742,-1.409765,1.083275,43.119777,-0.025116,-0.037094,1.007523,0.059954,-0.057716,-0.0119,63.566376,21.581955,-147.888397,,,
729605541.610749,-1.39065,1.069791,43.115957,-0.025116,-0.037094,1.007523,0.059954,-0.057716,-0.0119,63.566376,21.581955,-147.888397,,,
729605541.614048,-1.39065,1.069791,43.115957,-0.025116,-0.037094,1.007523,0.059954,-0.057716,-0.0119,63.566376,21.581955,-147.888397,,,
729605541.617432,-1.372294,1.06108,43.111885,-0.026962,-0.037262,1.016129,0.06463,-0.020762,-0.012406,63.566376,21.581955,-147.888397,,,
729605541.620699,-1.354679,1.056826,43.108907,-0.026962,-0.037262,1.016129,0.06463,-0.020762,-0.012406,63.566376,21.581955,-147.888397,,,
729605541.624091,-1.354679,1.056826,43.108907,-0.026962,-0.037262,1.016129,0.06463,-0.020762,-0.012406,63.433105,21.359085,-148.023193,,,
729605541.627368,-1.337691,1.055627,43.107753,-0.024887,-0.034531,1.003708,0.060245,0.002825,-0.003222,63.433105,21.359085,-148.023193,,,
729605541.630759,-1.322108,1.059161,43.108402,-0.024887,-0.034531,1.003708,0.060245,0.002825,-0.003222,63.433105,21.359085,-148.023193,,,
729605541.634044,-1.322108,1.059161,43.108402,-0.024887,-0.034531,1.003708,0.060245,0.002825,-0.003222,63.433105,21.359085,-148.023193,,,
729605541.637394,-1.306451,1.063654,43.11046,-0.022202,-0.029831,0.993317,0.053412,0.023191,0.008695,63.433105,21.359085,-148.023193,,,
729605541.64075,-1.293688,1.071601,43.113386,-0.022202,-0.029831,0.993317,0.053412,0.023191,0.008695,63.433105,21.359085,-148.023193,,,
729605541.644112,-1.293688,1.071601,43.113386,-0.022202,-0.029831,0.993317,0.053412,0.023191,0.008695,63.433105,21.359085,-148.023193,,,
729605541.647382,-1.282151,1.080091,43.116179,-0.017776,-0.022903,0.986404,0.0406,0.033952,0.00984,63.433105,21.359085,-148.023193,,,
729605541.650714,-1.273071,1.090103,43.118203,-0.017776,-0.022903,0.986404,0.0406,0.033952,0.00984,63.433105,21.359085,-148.023193,,,
729605541.654049,-1.273071,1.090103,43.118203,-0.017776,-0.022903,0.986404,0.0406,0.033952,0.00984,63.433105,21.359085,-148.023193,,,
729605541.657423,-1.26377,1.098742,43.119492,-0.018555,-0.0159,0.979172,0.030518,0.030454,0.00279,63.433105,21.359085,-148.023193,,,
729605541.660721,-1.257013,1.107054,43.119529,-0.018555,-0.0159,0.979172,0.030518,0.030454,0.00279,63.433105,21.359085,-148.023193,,,
729605541.664041,-1.257013,1.107054,43.119529,-0.018555,-0.0159,0.979172,0.030518,0.030454,0.00279,63.232529,21.308228,-147.774445,,,
729605541.667395,-1.246276,1.107336,43.117652,-0.021622,-0.01506,0.973831,0.039965,-0.00275,-0.007679,63.232529,21.308228,-147.774445,,,
729605541.670754,-1.234418,1.102603,43.114278,-0.021622,-0.01506,0.973831,0.039965,-0.00275,-0.007679,63.232529,21.308228,-147.774445,,,
729605541.674135,-1.234418,1.102603,43.114278,-0.021622,-0.01506,0.973831,0.039965,-0.00275,-0.007679,63.232529,21.308228,-147.774445,,,
729605541.67738,-1.213435,1.08657,43.108995,-0.022186,-0.016953,0.982864,0.078725,-0.057902,-0.024358,63.232529,21.308228,-147.774445,,,
729605541.680726,-1.187342,1.06386,43.100615,-0.022186,-0.016953,0.982864,0.078725,-0.057902,-0.024358,63.232529,21.308228,-147.774445,,,
729605541.684113,-1.187342,1.06386,43.100615,-0.022186,-0.016953,0.982864,0.078725,-0.057902,-0.024358,63.232529,21.308228,-147.774445,,,
729605541.687369,-1.149458,1.03383,43.088965,-0.019135,-0.017517,1.003235,0.141663,-0.105182,-0.041772,63.232529,21.308228,-147.774445,,,
729605541.690762,-1.106706,1.00045,43.075383,-0.019135,-0.017517,1.003235,0.141663,-0.105182,-0.041772,63.232529,21.308228,-147.774445,,,
729605541.694054,-1.106706,1.00045,43.075383,-0.019135,-0.017517,1.003235,0.141663,-0.105182,-0.041772,63.232529,21.308228,-147.774445,,,
729605541.697447,-1.054361,0.962617,43.060527,-0.016418,-0.018921,1.016724,0.190462,-0.128932,-0.051329,63.232529,21.308228,-147.774445,,,
729605541.700711,-1.000982,0.928058,43.045766,-0.016418,-0.018921,1.016724,0.190462,-0.128932,-0.051329,63.232529,21.308228,-147.774445,,,
729605541.704049,-1.000982,0.928058,43.045766,-0.016418,-0.018921,1.016724,0.190462,-0.128932,-0.051329,63.232529,21.308228,-147.774445,,,
729605541.707431,-0.943071,0.896573,43.033128,-0.01944,-0.019272,1.020218,0.201926,-0.100586,-0.043036,63.331406,20.960892,-147.760025,,,
729605541.71079,-0.889635,0.872159,43.023737,-0.01944,-0.019272,1.020218,0.201926,-0.100586,-0.043036,63.331406,20.960892,-147.760025,,,
729605541.714048,-0.889635,0.872159,43.023737,-0.01944,-0.019272,1.020218,0.201926,-0.100586,-0.043036,63.331406,20.960892,-147.760025,,,
729605541.717389,-0.837133,0.852288,43.017676,-0.017181,-0.019257,1.007996,0.18011,-0.059957,-0.016218,63.331406,20.960892,-147.760025,,,
729605541.720719,-0.792751,0.84088,43.015259,-0.017181,-0.019257,1.007996,0.18011,-0.059957,-0.016218,63.331406,20.960892,-147.760025,,,
729605541.724093,-0.792751,0.84088,43.015259,-0.017181,-0.019257,1.007996,0.18011,-0.059957,-0.016218,63.331406,20.960892,-147.760025,,,
729605541.727388,-0.752019,0.836587,43.016138,-0.013092,-0.014969,0.996216,0.13655,-0.00484,0.0068,63.331406,20.960892,-147.760025,,,
729605541.730721,-0.718762,0.841268,43.019858,-0.013092,-0.014969,0.996216,0.13655,-0.00484,0.0068,63.331406,20.960892,-147.760025,,,
729605541.734043,-0.718762,0.841268,43.019858,-0.013092,-0.014969,0.996216,0.13655,-0.00484,0.0068,63.331406,20.960892,-147.760025,,,
729605541.73745,-0.689876,0.852705,43.025818,-0.011154,-0.012466,0.998215,0.096564,0.050542,0.022348,63.331406,20.960892,-147.760025,,,
729605541.740749,-0.666206,0.869654,43.03292,-0.011154,-0.012466,0.998215,0.096564,0.050542,0.022348,63.331406,20.960892,-147.760025,,,
729605541.74405,-0.666206,0.869654,43.03292,-0.011154,-0.012466,0.998215,0.096564,0.050542,0.022348,63.331406,20.960892,-147.760025,,,
729605541.747385,-0.645692,0.886986,43.040415,-0.012375,-0.00676,0.990387,0.067382,0.064498,0.02643,63.176773,20.904663,-147.549362,,,
729605541.750764,-0.628514,0.904627,43.047353,-0.012375,-0.00676,0.990387,0.067382,0.064498,0.02643,63.176773,20.904663,-147.549362,,,
729605541.754058,-0.628514,0.904627,43.047353,-0.012375,-0.00676,0.990387,0.067382,0.064498,0.02643,63.176773,20.904663,-147.549362,,,
729605541.757411,-0.612649,0.918242,43.053092,-0.016602,0.001251,0.981476,0.052941,0.049301,0.016722,63.176773,20.904663,-147.549362,,,
729605541.760721,-0.599197,0.929202,43.056412,-0.016602,0.001251,0.981476,0.052941,0.049301,0.016722,63.176773,20.904663,-147.549362,,,
729605541.764108,-0.599197,0.929202,43.056412,-0.016602,0.001251,0.981476,0.052941,0.049301,0.016722,63.176773,20.904663,-147.549362,,,
729605541.767369,-0.58277,0.932692,43.056832,-0.017059,0.003922,0.982437,0.057193,0.011749,-0.001635,63.176773,20.904663,-147.549362,,,
729605541.770723,-0.58277,0.928437,43.054617,-0.017059,0.003922,0.982437,0.057193,0.011749,-0.001635,63.176773,20.904663,-147.549362,,,
729605541.77409,-0.563625,0.928437,43.054617,-0.017059,0.003922,0.982437,0.057193,0.011749,-0.001635,63.176773,20.904663,-147.549362,,,
729605541.777429,-0.53792,0.916528,43.050264,-0.013504,0.004898,0.99263,0.093773,-0.044497,-0.017704,63.176773,20.904663,-147.549362,,,
729605541.780716,-0.509874,0.898369,43.044078,-0.013504,0.004898,0.99263,0.093773,-0.044497,-0.017704,63.176773,20.904663,-147.549362,,,
729605541.784058,-0.509874,0.898369,43.044078,-0.013504,0.004898,0.99263,0.093773,-0.044497,-0.017704,63.176773,20.904663,-147.549362,,,
729605541.787378,-0.477559,0.874715,43.036119,-0.015762,0.003281,0.993271,0.114221,-0.085806,-0.028266,63.189926,20.731339,-147.339981,,,
729605541.790756,-0.477559,0.848551,43.028235,-0.015762,0.003281,0.993271,0.114221,-0.085806,-0.028266,63.189926,20.731339,-147.339981,,,
729605541.794049,-0.445617,0.848551,43.028235,-0.015762,0.003281,0.993271,0.114221,-0.085806,-0.028266,63.189926,20.731339,-147.339981,,,
729605541.797381,-0.411577,0.821409,43.021621,-0.01976,-0.001572,0.991638,0.11945,-0.089723,-0.021373,63.189926,20.731339,-147.339981,,,
729605541.800726,-0.382274,0.797022,43.016159,-0.01976,-0.001572,0.991638,0.11945,-0.089723,-0.021373,63.189926,20.731339,-147.339981,,,
729605541.804129,-0.382274,0.797022,43.016159,-0.01976,-0.001572,0.991638,0.11945,-0.089723,-0.021373,63.189926,20.731339,-147.339981,,,
729605541.807408,-0.355409,0.776219,43.01248,-0.015305,-0.001862,0.993591,0.089356,-0.067095,-0.012384,63.189926,20.731339,-147.339981,,,
729605541.810714,-0.355409,0.776219,43.01248,-0.015305,-0.001862,0.993591,0.089356,-0.067095,-0.012384,63.189926,20.731339,-147.339981,,,
729605541.814102,-0.33533,0.759361,43.010661,-0.015305,-0.001862,0.993591,0.089356,-0.067095,-0.012384,63.189926,20.731339,-147.339981,,,
729605541.817502,-0.319811,0.747423,43.010003,-0.008881,0.00058,0.981812,0.049383,-0.036004,-0.001395,63.189926,20.731339,-147.339981,,,
729605541.820751,-0.319811,0.739911,43.01071,-0.008881,0.00058,0.981812,0.049383,-0.036004,-0.001395,63.189926,20.731339,-147.339981,,,
729605541.824112,-0.311183,0.739911,43.01071,-0.008881,0.00058,0.981812,0.049383,-0.036004,-0.001395,63.189926,20.731339,-147.339981,,,
729605541.827397,-0.306707,0.738308,43.012319,-0.005402,0.002747,0.982742,0.01177,0.002381,0.006119,63.031738,20.648819,-147.727676,,,
729605541.830789,-0.306707,0.738308,43.012319,-0.005402,0.002747,0.982742,0.01177,0.002381,0.006119,63.031738,20.648819,-147.727676,,,
729605541.834052,-0.305973,0.741881,43.013482,-0.005402,0.002747,0.982742,0.01177,0.002381,0.006119,63.031738,20.648819,-147.727676,,,
729605541.837384,-0.30852,0.748279,43.014296,-0.003799,0.007553,0.987564,-0.010278,0.026875,0.004384,63.031738,20.648819,-147.727676,,,
729605541.840753,-0.30852,0.748279,43.014296,-0.003799,0.007553,0.987564,-0.010278,0.026875,0.004384,63.031738,20.648819,-147.727676,,,
729605541.84411,-0.311271,0.756864,43.015114,-0.003799,0.007553,0.987564,-0.010278,0.026875,0.004384,63.031738,20.648819,-147.727676,,,
729605541.847376,-0.315966,0.76338,43.015522,-0.005844,0.005844,0.990097,-0.015071,0.02511,-0.002825,63.031738,20.648819,-147.727676,,,
729605541.850714,-0.315966,0.76338,43.015522,-0.005844,0.005844,0.990097,-0.015071,0.02511,-0.002825,63.031738,20.648819,-147.727676,,,
729605541.854049,-0.318587,0.767324,43.015725,-0.005844,0.005844,0.990097,-0.015071,0.02511,-0.002825,63.031738,20.648819,-147.727676,,,
729605541.857415,-0.323183,0.76762,43.015716,-0.014404,0.000183,0.986877,-0.010048,0.002587,-0.001789,63.031738,20.648819,-147.727676,,,
729605541.86072,-0.323183,0.76762,43.015716,-0.014404,0.000183,0.986877,-0.010048,0.002587,-0.001789,63.031738,20.648819,-147.727676,,,
729605541.864055,-0.324384,0.766117,43.014782,-0.014404,0.000183,0.986877,-0.010048,0.002587,-0.001789,63.031738,20.648819,-147.727676,,,
729605541.867382,-0.325162,0.762475,43.012788,-0.016357,-0.003769,0.994705,-0.000606,-0.011447,-0.009217,63.031738,20.648819,-147.727676,,,
729605541.870712,-0.325162,0.762475,43.012788,-0.016357,-0.003769,0.994705,-0.000606,-0.011447,-0.009217,62.929245,20.623398,-147.760529,,,
729605541.874108,-0.322616,0.755716,43.010044,-0.016357,-0.003769,0.994705,-0.000606,-0.011447,-0.009217,62.929245,20.623398,-147.760529,,,
729605541.877372,-0.319332,0.743313,43.006999,-0.01683,-0.00412,0.998291,0.012117,-0.044942,-0.011698,62.929245,20.623398,-147.760529,,,
729605541.88079,-0.319332,0.743313,43.006999,-0.01683,-0.00412,0.998291,0.012117,-0.044942,-0.011698,62.929245,20.623398,-147.760529,,,
729605541.884051,-0.314019,0.729218,43.004326,-0.01683,-0.00412,0.998291,0.012117,-0.044942,-0.011698,62.929245,20.623398,-147.760529,,,
729605541.887379,-0.308188,0.712658,43.002069,-0.020615,-0.007797,0.996521,0.023827,-0.057336,-0.009343,62.929245,20.623398,-147.760529,,,
729605541.890751,-0.308188,0.712658,43.002069,-0.020615,-0.007797,0.996521,0.023827,-0.057336,-0.009343,62.929245,20.623398,-147.760529,,,
729605541.894114,-0.300611,0.69659,42.99987,-0.020615,-0.007797,0.996521,0.023827,-0.057336,-0.009343,62.929245,20.623398,-147.760529,,,
729605541.89737,-0.293793,0.681379,42.998255,-0.015137,-0.005554,1.002808,0.023787,-0.049046,-0.009562,62.929245,20.623398,-147.760529,,,
729605541.900719,-0.293793,0.681379,42.998255,-0.015137,-0.005554,1.002808,0.023787,-0.049046,-0.009562,62.929245,20.623398,-147.760529,,,
729605541.904047,-0.286862,0.666691,42.997561,-0.015137,-0.005554,1.002808,0.023787,-0.049046,-0.009562,62.929245,20.623398,-147.760529,,,
729605541.907416,-0.282018,0.655529,42.997628,-0.011322,-0.003983,0.997208,0.019691,-0.033325,-0.001286,62.929245,20.623398,-147.760529,,,
729605541.910733,-0.282018,0.655529,42.997628,-0.011322,-0.003983,0.997208,0.019691,-0.033325,-0.001286,62.864426,20.417358,-147.352982,,,
729605541.914058,-0.276894,0.647294,42.998446,-0.011322,-0.003983,0.997208,0.019691,-0.033325,-0.001286,62.864426,20.417358,-147.352982,,,
729605541.917381,-0.275264,0.644867,42.999902,-0.009918,-0.006165,1.003571,0.007018,0.000337,0.003359,62.864426,20.417358,-147.352982,,,
729605541.920775,-0.275264,0.644867,42.999902,-0.009918,-0.006165,1.003571,0.007018,0.000337,0.003359,62.864426,20.417358,-147.352982,,,
729605541.924084,-0.272751,0.644382,43.001781,-0.009918,-0.006165,1.003571,0.007018,0.000337,0.003359,62.864426,20.417358,-147.352982,,,
729605541.927377,-0.274132,0.64817,43.002999,-0.002396,-0.004486,1.00177,-0.00611,0.019979,0.001436,62.864426,20.417358,-147.352982,,,
729605541.930748,-0.274132,0.64817,43.002999,-0.002396,-0.004486,1.00177,-0.00611,0.019979,0.001436,62.864426,20.417358,-147.352982,,,
729605541.934114,-0.27505,0.653449,43.003422,-0.002396,-0.004486,1.00177,-0.00611,0.019979,0.001436,62.864426,20.417358,-147.352982,,,
729605541.937366,-0.277719,0.660526,43.003752,-0.00705,-0.007767,0.999573,-0.006757,0.028636,-0.000353,62.864426,20.417358,-147.352982,,,
729605541.94075,-0.277719,0.660526,43.003752,-0.00705,-0.007767,0.999573,-0.006757,0.028636,-0.000353,62.864426,20.417358,-147.352982,,,
729605541.944047,-0.279334,0.668707,43.003581,-0.00705,-0.007767,0.999573,-0.006757,0.028636,-0.000353,62.864426,20.417358,-147.352982,,,
729605541.9474,-0.280821,0.674481,43.002882,-0.01178,-0.004089,0.998718,0.000462,0.020661,-0.004427,62.864426,20.417358,-147.352982,,,
729605541.950711,-0.280821,0.674481,43.002882,-0.01178,-0.004089,0.998718,0.000462,0.020661,-0.004427,62.972061,20.339859,-147.556213,,,
729605541.954044,-0.281676,0.678779,43.001965,-0.01178,-0.004089,0.998718,0.000462,0.020661,-0.004427,62.972061,20.339859,-147.556213,,,
729605541.957475,-0.282133,0.679589,43.00069,-0.011719,-0.003616,0.992905,-0.000178,0.001856,-0.005193,62.972061,20.339859,-147.556213,,,
729605541.960717,-0.282133,0.679589,43.00069,-0.011719,-0.003616,0.992905,-0.000178,0.001856,-0.005193,62.972061,20.339859,-147.556213,,,
729605541.964053,-0.283129,0.678655,42.99919,-0.011719,-0.003616,0.992905,-0.000178,0.001856,-0.005193,62.972061,20.339859,-147.556213,,,
729605541.967382,-0.284571,0.674017,42.997651,-0.010513,-0.00502,0.987015,-0.002826,-0.014262,-0.008358,62.972061,20.339859,-147.556213,,,
729605541.970777,-0.284571,0.674017,42.997651,-0.010513,-0.00502,0.987015,-0.002826,-0.014262,-0.008358,62.972061,20.339859,-147.556213,,,
729605541.974093,-0.285799,0.668938,42.996009,-0.010513,-0.00502,0.987015,-0.002826,-0.014262,-0.008358,62.972061,20.339859,-147.556213,,,
729605541.977376,-0.284595,0.660584,42.994976,-0.008636,-0.008896,0.98642,0.006527,-0.029111,-0.005634,62.972061,20.339859,-147.556213,,,
729605541.980721,-0.284595,0.660584,42.994976,-0.008636,-0.008896,0.98642,0.006527,-0.029111,-0.005634,62.972061,20.339859,-147.556213,,,
729605541.984104,-0.281371,0.651071,42.994234,-0.008636,-0.008896,0.98642,0.006527,-0.029111,-0.005634,62.972061,20.339859,-147.556213,,,
729605541.987373,-0.27667,0.641718,42.992631,-0.007599,-0.007568,0.991684,0.018586,-0.027706,-0.007007,62.972061,20.339859,-147.556213,,,
729605541.990801,-0.27667,0.641718,42.992631,-0.007599,-0.007568,0.991684,0.018586,-0.027706,-0.007007,62.831436,20.359268,-147.419388,,,
729605541.994046,-0.270532,0.633813,42.990825,-0.007599,-0.007568,0.991684,0.018586,-0.027706,-0.007007,62.831436,20.359268,-147.419388,,,
729605541.997378,-0.263857,0.627663,42.989384,-0.003143,-0.004211,0.998428,0.023448,-0.015219,-0.005497,62.831436,20.359268,-147.419388,,,
729605542.000724,-0.263857,0.627663,42.989384,-0.003143,-0.004211,0.998428,0.023448,-0.015219,-0.005497,62.831436,20.359268,-147.419388,,,
729605542.004053,-0.257816,0.6231,42.988489,-0.003143,-0.004211,0.998428,0.023448,-0.015219,-0.005497,62.831436,20.359268,-147.419388,,,
729605542.007449,-0.252689,0.62196,42.988412,-0.005829,-0.00705,0.993469,0.016322,0.002811,-0.001817,62.831436,20.359268,-147.419388,,,
729605542.0107,-0.252689,0.62196,42.988412,-0.005829,-0.00705,0.993469,0.016322,0.002811,-0.001817,62.831436,20.359268,-147.419388,,,
729605542.01406,-0.249439,0.622829,42.988734,-0.005829,-0.00705,0.993469,0.016322,0.002811,-0.001817,62.831436,20.359268,-147.419388,,,
729605542.017386,-0.247338,0.628053,42.988338,-0.004013,-0.009903,0.999161,0.010024,0.021973,-0.003971,62.831436,20.359268,-147.419388,,,
729605542.020767,-0.247338,0.628053,42.988338,-0.004013,-0.009903,0.999161,0.010024,0.021973,-0.003971,62.831436,20.359268,-147.419388,,,
729605542.024092,-0.246687,0.634297,42.986518,-0.004013,-0.009903,0.999161,0.010024,0.021973,-0.003971,62.831436,20.359268,-147.419388,,,
729605542.027373,-0.248134,0.641107,42.983238,-0.001053,-0.006165,0.996185,-0.006091,0.026727,-0.01275,62.831436,20.359268,-147.419388,,,
729605542.030508,-0.248134,0.641107,42.983238,-0.001053,-0.006165,0.996185,-0.006091,0.026727,-0.01275,62.831436,20.359268,-147.419388,,,
729605542.034063,-0.251271,0.647386,42.978749,-0.001053,-0.006165,0.996185,-0.006091,0.026727,-0.01275,62.975708,20.495163,-147.556427,,,
729605542.03737,-0.25487,0.65274,42.97393,-0.005661,-0.005295,0.990158,-0.012748,0.023336,-0.020157,62.975708,20.495163,-147.556427,,,
729605542.040801,-0.25487,0.65274,42.97393,-0.005661,-0.005295,0.990158,-0.012748,0.023336,-0.020157,62.975708,20.495163,-147.556427,,,
729605542.044045,-0.258477,0.657356,42.968807,-0.005661,-0.005295,0.990158,-0.012748,0.023336,-0.020157,62.975708,20.495163,-147.556427,,,
729605542.047429,-0.261401,0.660518,42.963233,-0.012665,-0.005966,0.995163,-0.008993,0.012724,-0.019913,62.975708,20.495163,-147.556427,,,
729605542.050737,-0.261401,0.660518,42.963233,-0.012665,-0.005966,0.995163,-0.008993,0.012724,-0.019913,62.975708,20.495163,-147.556427,,,
729605542.054045,-0.263851,0.660565,42.958115,-0.012665,-0.005966,0.995163,-0.008993,0.012724,-0.019913,62.975708,20.495163,-147.556427,,,
729605542.05742,-0.26499,0.657128,42.953542,-0.011963,-0.008636,0.995361,-0.001889,-0.014387,-0.016246,62.975708,20.495163,-147.556427,,,
729605542.060764,-0.26499,0.657128,42.953542,-0.011963,-0.008636,0.995361,-0.001889,-0.014387,-0.016246,62.975708,20.495163,-147.556427,,,
729605542.06404,-0.265112,0.650309,42.949506,-0.011963,-0.008636,0.995361,-0.001889,-0.014387,-0.016246,62.975708,20.495163,-147.556427,,,
729605542.067378,-0.262819,0.643303,42.946202,-0.013916,-0.01207,0.99826,0.010799,-0.01996,-0.013765,62.975708,20.495163,-147.556427,,,
729605542.070708,-0.262819,0.643303,42.946202,-0.013916,-0.01207,0.99826,0.010799,-0.01996,-0.013765,62.975708,20.495163,-147.556427,,,
729605542.074133,-0.26012,0.636865,42.943955,-0.013916,-0.01207,0.99826,0.010799,-0.01996,-0.013765,62.781952,20.309982,-147.633987,,,
729605542.077381,-0.257447,0.633263,42.942744,-0.013138,-0.011459,1.003128,0.010845,-0.007785,-0.006959,62.781952,20.309982,-147.633987,,,
729605542.080706,-0.257447,0.633263,42.942744,-0.013138,-0.011459,1.003128,0.010845,-0.007785,-0.006959,62.781952,20.309982,-147.633987,,,
729605542.084059,-0.255809,0.629602,42.941771,-0.013138,-0.011459,1.003128,0.010845,-0.007785,-0.006959,62.781952,20.309982,-147.633987,,,
729605542.087372,-0.256961,0.628695,42.940864,-0.005814,-0.004745,0.996109,-0.004556,0.001374,-0.003095,62.781952,20.309982,-147.633987,,,
729605542.090765,-0.256961,0.628695,42.940864,-0.005814,-0.004745,0.996109,-0.004556,0.001374,-0.003095,62.781952,20.309982,-147.633987,,,
729605542.094046,-0.262015,0.629206,42.940416,-0.005814,-0.004745,0.996109,-0.004556,0.001374,-0.003095,62.781952,20.309982,-147.633987,,,
729605542.097369,-0.268778,0.633317,42.939618,-0.00386,-0.001328,0.989334,-0.024849,0.016676,-0.004852,62.781952,20.309982,-147.633987,,,
729605542.10079,-0.268778,0.633317,42.939618,-0.00386,-0.001328,0.989334,-0.024849,0.016676,-0.004852,62.781952,20.309982,-147.633987,,,
729605542.104058,-0.277142,0.637522,42.938421,-0.00386,-0.001328,0.989334,-0.024849,0.016676,-0.004852,62.781952,20.309982,-147.633987,,,
729605542.107412,-0.284278,0.644658,42.936914,-0.001663,-0.003052,0.999191,-0.024703,0.030324,-0.00744,62.781952,20.309982,-147.633987,,,
729605542.110768,-0.284278,0.644658,42.936914,-0.001663,-0.003052,0.999191,-0.024703,0.030324,-0.00744,62.781952,20.309982,-147.633987,,,
729605542.114036,-0.290564,0.650688,42.934216,-0.001663,-0.003052,0.999191,-0.024703,0.030324,-0.00744,62.812759,20.373444,-147.669388,,,
729605542.117379,-0.295231,0.657195,42.930858,-0.002075,-0.003906,1.005203,-0.016209,0.024677,-0.013604,62.812759,20.373444,-147.669388,,,
729605542.120702,-0.295231,0.657195,42.930858,-0.002075,-0.003906,1.005203,-0.016209,0.024677,-0.013604,62.812759,20.373444,-147.669388,,,
729605542.124084,-0.299384,0.662115,42.926916,-0.002075,-0.003906,1.005203,-0.016209,0.024677,-0.013604,62.812759,20.373444,-147.669388,,,
729605542.127373,-0.302828,0.666154,42.922556,-0.008606,-0.005463,1.001541,-0.008263,0.014782,-0.019421,62.812759,20.373444,-147.669388,,,
729605542.13073,-0.302828,0.666154,42.922556,-0.008606,-0.005463,1.001541,-0.008263,0.014782,-0.019421,62.812759,20.373444,-147.669388,,,
729605542.134053,-0.305393,0.66908,42.917983,-0.008606,-0.005463,1.001541,-0.008263,0.014782,-0.019421,62.812759,20.373444,-147.669388,,,
729605542.137374,-0.307253,0.671068,42.912569,-0.011047,-0.004745,0.998657,-0.004178,0.009955,-0.022621,62.812759,20.373444,-147.669388,,,
729605542.140511,-0.307253,0.671068,42.912569,-0.011047,-0.004745,0.998657,-0.004178,0.009955,-0.022621,62.812759,20.373444,-147.669388,,,
729605542.144078,-0.309707,0.671555,42.906387,-0.011047,-0.004745,0.998657,-0.004178,0.009955,-0.022621,62.812759,20.373444,-147.669388,,,
729605542.147368,-0.310451,0.669164,42.899992,-0.00798,-1.5e-05,0.997742,-0.002529,-0.008598,-0.023152,62.812759,20.373444,-147.669388,,,
729605542.150781,-0.310451,0.669164,42.899992,-0.00798,-1.5e-05,0.997742,-0.002529,-0.008598,-0.023152,62.812759,20.373444,-147.669388,,,
729605542.154035,-0.311792,0.664264,42.894062,-0.00798,-1.5e-05,0.997742,-0.002529,-0.008598,-0.023152,62.812759,20.373444,-147.669388,,,
729605542.157432,-0.310426,0.656687,42.88881,-0.013962,-0.002823,0.997269,0.007207,-0.022196,-0.022655,62.595428,20.484818,-147.784256,,,
729605542.160711,-0.310426,0.656687,42.88881,-0.013962,-0.002823,0.997269,0.007207,-0.022196,-0.022655,62.595428,20.484818,-147.784256,,,
729605542.164045,-0.308074,0.648737,42.884237,-0.013962,-0.002823,0.997269,0.007207,-0.022196,-0.022655,62.595428,20.484818,-147.784256,,,
729605542.167379,-0.303757,0.642033,42.879974,-0.019135,-0.006348,1.004364,0.01581,-0.018167,-0.015964,62.595428,20.484818,-147.784256,,,
729605542.170725,-0.303757,0.642033,42.879974,-0.019135,-0.006348,1.004364,0.01581,-0.018167,-0.015964,62.595428,20.484818,-147.784256,,,
729605542.174161,-0.298906,0.633802,42.875409,-0.019135,-0.006348,1.004364,0.01581,-0.018167,-0.015964,62.595428,20.484818,-147.784256,,,
729605542.177369,-0.296076,0.626437,42.871006,-0.013901,-0.003479,0.999542,0.011324,-0.022975,-0.017042,62.595428,20.484818,-147.784256,,,
729605542.180704,-0.296076,0.626437,42.871006,-0.013901,-0.003479,0.999542,0.011324,-0.022975,-0.017042,62.595428,20.484818,-147.784256,,,
729605542.184043,-0.294736,0.619179,42.867066,-0.013901,-0.003479,0.999542,0.011324,-0.022975,-0.017042,62.595428,20.484818,-147.784256,,,
729605542.18738,-0.295608,0.617246,42.863875,-0.016373,-0.000656,0.995819,-0.005021,0.002209,-0.010818,62.595428,20.484818,-147.784256,,,
729605542.190757,-0.295608,0.617246,42.863875,-0.016373,-0.000656,0.995819,-0.005021,0.002209,-0.010818,62.595428,20.484818,-147.784256,,,
729605542.194055,-0.29835,0.618042,42.861531,-0.016373,-0.000656,0.995819,-0.005021,0.002209,-0.010818,62.595428,20.484818,-147.784256,,,
729605542.197377,-0.303282,0.623345,42.859864,-0.017883,-0.003571,1.002121,-0.014612,0.022926,-0.005047,62.937576,20.229889,-147.899567,,,
729605542.200736,-0.303282,0.623345,42.859864,-0.017883,-0.003571,1.002121,-0.014612,0.022926,-0.005047,62.937576,20.229889,-147.899567,,,
729605542.204056,-0.308623,0.62927,42.859139,-0.017883,-0.003571,1.002121,-0.014612,0.022926,-0.005047,62.937576,20.229889,-147.899567,,,
729605542.207454,-0.314467,0.637453,42.85836,-0.012024,-0.004959,0.997208,-0.020926,0.033347,-0.005181,62.937576,20.229889,-147.899567,,,
729605542.21078,-0.314467,0.637453,42.85836,-0.012024,-0.004959,0.997208,-0.020926,0.033347,-0.005181,62.937576,20.229889,-147.899567,,,
729605542.214054,-0.320943,0.645242,42.856696,-0.012024,-0.004959,0.997208,-0.020926,0.033347,-0.005181,62.937576,20.229889,-147.899567,,,
729605542.217372,-0.32661,0.652489,42.854804,-0.008926,-0.003006,0.998978,-0.018551,0.029607,-0.007314,62.937576,20.229889,-147.899567,,,
729605542.22071,-0.32661,0.652489,42.854804,-0.008926,-0.003006,0.998978,-0.018551,0.029607,-0.007314,62.937576,20.229889,-147.899567,,,
729605542.224039,-0.330118,0.658039,42.852033,-0.008926,-0.003006,0.998978,-0.018551,0.029607,-0.007314,62.937576,20.229889,-147.899567,,,
729605542.227369,-0.332172,0.66208,42.848087,-0.010544,-0.003281,1.002777,-0.003169,0.013702,-0.014886,62.937576,20.229889,-147.899567,,,
729605542.230734,-0.332172,0.66208,42.848087,-0.010544,-0.003281,1.002777,-0.003169,0.013702,-0.014886,62.937576,20.229889,-147.899567,,,
729605542.234128,-0.330608,0.663441,42.843623,-0.010544,-0.003281,1.002777,-0.003169,0.013702,-0.014886,62.937576,20.229889,-147.899567,,,
