Time (sec),Pitch (deg),Roll (deg),Yaw(deg),X-Acceleration (g),Y-Acceleration (g),Z-Acceleration (g),Pitch Rate (deg/sec),Roll Rate (deg/sec),Yaw Rate (deg/sec),Magnetic Field in X direction (uT),Magnetic Field in Y direction (uT),Magnetic Field in Z Direction (uT),Latitude (deg),Longitude (deg),Altitude (m)
729605472.811152,-0.834077,-4.083757,46.93484,0.078979,0.005203,0.968307,-0.022531,0.062676,-0.027983,58.320709,21.667816,-148.540741,,,
729605472.814493,-0.834077,-4.083757,46.93484,0.078979,0.005203,0.968307,-0.022531,0.062676,-0.027983,58.320709,21.667816,-148.540741,,,
729605472.81784,-0.842661,-4.06835,46.925902,0.067398,0.003723,0.972931,-0.022531,0.062676,-0.027983,58.320709,21.667816,-148.540741,,,
729605472.821149,-0.851165,-4.058884,46.91622,0.067398,0.003723,0.972931,-0.0402,0.042867,-0.031683,58.320709,21.667816,-148.540741,,,
729605472.824498,-0.851165,-4.058884,46.91622,0.067398,0.003723,0.972931,-0.0402,0.042867,-0.031683,58.320709,21.667816,-148.540741,,,
729605472.827832,-0.863545,-4.051096,46.905005,0.065659,-0.001114,0.982224,-0.0402,0.042867,-0.031683,58.320709,21.667816,-148.540741,,,
729605472.831145,-0.874294,-4.047699,46.891986,0.065659,-0.001114,0.982224,-0.043747,0.019216,-0.044289,58.320709,21.667816,-148.540741,,,
729605472.834295,-0.874294,-4.047699,46.891986,0.065659,-0.001114,0.982224,-0.043747,0.019216,-0.044289,58.369965,21.622009,-148.978119,,,
729605472.837851,-0.88567,-4.044421,46.878296,0.066574,-0.000992,0.992233,-0.043747,0.019216,-0.044289,58.369965,21.622009,-148.978119,,,
729605472.841146,-0.895976,-4.042182,46.864645,0.066574,-0.000992,0.992233,-0.037612,0.011343,-0.044718,58.369965,21.622009,-148.978119,,,
729605472.844527,-0.895976,-4.042182,46.864645,0.066574,-0.000992,0.992233,-0.037612,0.011343,-0.044718,58.369965,21.622009,-148.978119,,,
729605472.847824,-0.905566,-4.041318,46.851809,0.061325,-0.002686,0.999176,-0.037612,0.011343,-0.044718,58.369965,21.622009,-148.978119,,,
729605472.851154,-0.913226,-4.041825,46.840213,0.061325,-0.002686,0.999176,-0.019042,-0.001522,-0.041007,58.369965,21.622009,-148.978119,,,
729605472.854474,-0.913226,-4.041825,46.840213,0.061325,-0.002686,0.999176,-0.019042,-0.001522,-0.041007,58.369965,21.622009,-148.978119,,,
729605472.857887,-0.915731,-4.043825,46.830238,0.056625,-0.009216,1.00499,-0.019042,-0.001522,-0.041007,58.369965,21.622009,-148.978119,,,
729605472.861139,-0.914913,-4.045377,46.822858,0.056625,-0.009216,1.00499,0.008097,-6e-06,-0.025558,58.369965,21.622009,-148.978119,,,
729605472.864488,-0.914913,-4.045377,46.822858,0.056625,-0.009216,1.00499,0.008097,-6e-06,-0.025558,58.369965,21.622009,-148.978119,,,
729605472.86763,-0.910283,-4.046373,46.817805,0.057861,-0.015167,1.012909,0.008097,-6e-06,-0.025558,58.369965,21.622009,-148.978119,,,
729605472.871174,-0.903245,-4.048128,46.814676,0.057861,-0.015167,1.012909,0.023226,0.003569,-0.011687,58.369965,21.622009,-148.978119,,,
729605472.874499,-0.903245,-4.048128,46.814676,0.057861,-0.015167,1.012909,0.023226,0.003569,-0.011687,58.288055,21.702469,-148.750214,,,
729605472.877815,-0.896954,-4.047313,46.814197,0.061737,-0.018326,1.006653,0.023226,0.003569,-0.011687,58.288055,21.702469,-148.750214,,,
729605472.881188,-0.887576,-4.04691,46.816157,0.061737,-0.018326,1.006653,0.022885,0.015242,0.006415,58.288055,21.702469,-148.750214,,,
729605472.884491,-0.887576,-4.04691,46.816157,0.061737,-0.018326,1.006653,0.022885,0.015242,0.006415,58.288055,21.702469,-148.750214,,,
729605472.887816,-0.881693,-4.040195,46.820795,0.05603,-0.022797,1.003357,0.022885,0.015242,0.006415,58.288055,21.702469,-148.750214,,,
729605472.89115,-0.87154,-4.030404,46.828101,0.05603,-0.022797,1.003357,0.024676,0.044843,0.023825,58.288055,21.702469,-148.750214,,,
729605472.894573,-0.87154,-4.030404,46.828101,0.05603,-0.022797,1.003357,0.024676,0.044843,0.023825,58.288055,21.702469,-148.750214,,,
729605472.897891,-0.864324,-4.016925,46.836874,0.058731,-0.024048,1.018906,0.024676,0.044843,0.023825,58.288055,21.702469,-148.750214,,,
729605472.90114,-0.854066,-4.002439,46.846405,0.058731,-0.024048,1.018906,0.02952,0.052818,0.032617,58.288055,21.702469,-148.750214,,,
729605472.904474,-0.854066,-4.002439,46.846405,0.058731,-0.024048,1.018906,0.02952,0.052818,0.032617,58.288055,21.702469,-148.750214,,,
729605472.907881,-0.847415,-3.988934,46.856503,0.067566,-0.017776,1.010208,0.02952,0.052818,0.032617,58.288055,21.702469,-148.750214,,,
729605472.911224,-0.840632,-3.975097,46.865603,0.067566,-0.017776,1.010208,0.013973,0.05113,0.026947,58.288055,21.702469,-148.750214,,,
729605472.91447,-0.840632,-3.975097,46.865603,0.067566,-0.017776,1.010208,0.013973,0.05113,0.026947,58.448822,21.679993,-149.402481,,,
729605472.917833,-0.838853,-3.960926,46.872645,0.068024,-0.00769,0.998001,0.013973,0.05113,0.026947,58.448822,21.679993,-149.402481,,,
729605472.921145,-0.837331,-3.945739,46.877346,0.068024,-0.00769,0.998001,-0.004464,0.056657,0.012911,58.448822,21.679993,-149.402481,,,
729605472.924475,-0.837331,-3.945739,46.877346,0.068024,-0.00769,0.998001,-0.004464,0.056657,0.012911,58.448822,21.679993,-149.402481,,,
729605472.927817,-0.841193,-3.932933,46.879698,0.07225,-0.000687,0.996277,-0.004464,0.056657,0.012911,58.448822,21.679993,-149.402481,,,
729605472.931141,-0.845471,-3.92154,46.879823,0.07225,-0.000687,0.996277,-0.023485,0.035496,0.000814,58.448822,21.679993,-149.402481,,,
729605472.934322,-0.845471,-3.92154,46.879823,0.07225,-0.000687,0.996277,-0.023485,0.035496,0.000814,58.448822,21.679993,-149.402481,,,
729605472.93784,-0.853392,-3.915805,46.878101,0.074692,-0.00061,0.986206,-0.023485,0.035496,0.000814,58.448822,21.679993,-149.402481,,,
729605472.941137,-0.861516,-3.912658,46.875548,0.074692,-0.00061,0.986206,-0.029503,0.000894,-0.008557,58.448822,21.679993,-149.402481,,,
729605472.944479,-0.861516,-3.912658,46.875548,0.074692,-0.00061,0.986206,-0.029503,0.000894,-0.008557,58.448822,21.679993,-149.402481,,,
729605472.947868,-0.86998,-3.916553,46.872225,0.072708,-0.007156,0.985596,-0.029503,0.000894,-0.008557,58.448822,21.679993,-149.402481,,,
729605472.951135,-0.878056,-3.922373,46.868597,0.072708,-0.007156,0.985596,-0.027739,-0.024267,-0.013025,58.448822,21.679993,-149.402481,,,
729605472.954478,-0.878056,-3.922373,46.868597,0.072708,-0.007156,0.985596,-0.027739,-0.024267,-0.013025,58.448822,21.679993,-149.402481,,,
729605472.957811,-0.884324,-3.93129,46.865236,0.069321,-0.013901,0.994858,-0.027739,-0.024267,-0.013025,58.392868,21.74881,-148.840485,,,
729605472.96114,-0.888727,-3.939058,46.862146,0.069321,-0.013901,0.994858,-0.010689,-0.028185,-0.012075,58.392868,21.74881,-148.840485,,,
729605472.964493,-0.888727,-3.939058,46.862146,0.069321,-0.013901,0.994858,-0.010689,-0.028185,-0.012075,58.392868,21.74881,-148.840485,,,
729605472.967623,-0.889079,-3.947754,46.860046,0.064758,-0.021255,1.003403,-0.010689,-0.028185,-0.012075,58.392868,21.74881,-148.840485,,,
729605472.971166,-0.887753,-3.953711,46.859773,0.064758,-0.021255,1.003403,0.010591,-0.025637,-0.002385,58.392868,21.74881,-148.840485,,,
729605472.974535,-0.887753,-3.953711,46.859773,0.064758,-0.021255,1.003403,0.010591,-0.025637,-0.002385,58.392868,21.74881,-148.840485,,,
729605472.977811,-0.882428,-3.960849,46.861278,0.065948,-0.024643,1.011398,0.010591,-0.025637,-0.002385,58.392868,21.74881,-148.840485,,,
729605472.981149,-0.876305,-3.964761,46.864527,0.065948,-0.024643,1.011398,0.027959,-0.0139,0.008514,58.392868,21.74881,-148.840485,,,
729605472.984481,-0.876305,-3.964761,46.864527,0.065948,-0.024643,1.011398,0.027959,-0.0139,0.008514,58.392868,21.74881,-148.840485,,,
729605472.987807,-0.868636,-3.967771,46.869028,0.072098,-0.024323,1.010803,0.027959,-0.0139,0.008514,58.392868,21.74881,-148.840485,,,
729605472.991142,-0.861878,-3.966967,46.873825,0.072098,-0.024323,1.010803,0.022363,0.00824,0.013278,58.392868,21.74881,-148.840485,,,
729605472.994485,-0.861878,-3.966967,46.873825,0.072098,-0.024323,1.010803,0.022363,0.00824,0.013278,58.392868,21.74881,-148.840485,,,
729605472.997857,-0.857006,-3.962539,46.87783,0.078903,-0.019348,1.004089,0.022363,0.00824,0.013278,58.275772,21.917328,-148.973679,,,
729605473.000958,-0.857006,-3.962539,46.87783,0.078903,-0.019348,1.004089,0.010042,0.033464,0.007172,58.275772,21.917328,-148.973679,,,
729605473.004516,-0.85185,-3.954946,46.880627,0.078903,-0.019348,1.004089,0.010042,0.033464,0.007172,58.275772,21.917328,-148.973679,,,
729605473.007822,-0.85027,-3.944709,46.881689,0.084656,-0.013123,0.998703,0.010042,0.033464,0.007172,58.275772,21.917328,-148.973679,,,
729605473.011141,-0.85027,-3.93348,46.880917,0.084656,-0.013123,0.998703,0.001459,0.048781,-0.006856,58.275772,21.917328,-148.973679,,,
729605473.014492,-0.847143,-3.93348,46.880917,0.084656,-0.013123,0.998703,0.001459,0.048781,-0.006856,58.275772,21.917328,-148.973679,,,
729605473.017822,-0.846412,-3.920209,46.879298,0.08374,-0.009613,0.996628,0.001459,0.048781,-0.006856,58.275772,21.917328,-148.973679,,,
729605473.021138,-0.843276,-3.907871,46.877058,0.08374,-0.009613,0.996628,0.003457,0.051716,-0.011043,58.275772,21.917328,-148.973679,,,
729605473.02455,-0.843276,-3.907871,46.877058,0.08374,-0.009613,0.996628,0.003457,0.051716,-0.011043,58.275772,21.917328,-148.973679,,,
729605473.027814,-0.841921,-3.895846,46.874611,0.078003,-0.012085,0.99588,0.003457,0.051716,-0.011043,58.275772,21.917328,-148.973679,,,
729605473.031138,-0.841921,-3.895846,46.874611,0.078003,-0.012085,0.99588,0.006856,0.03088,-0.008505,58.275772,21.917328,-148.973679,,,
729605473.034288,-0.839017,-3.888222,46.87274,0.078003,-0.012085,0.99588,0.006856,0.03088,-0.008505,58.275772,21.917328,-148.973679,,,
729605473.037833,-0.837055,-3.883432,46.871209,0.074875,-0.014648,0.985779,0.006856,0.03088,-0.008505,58.259979,21.687851,-149.002823,,,
729605473.041136,-0.836181,-3.880364,46.869364,0.074875,-0.014648,0.985779,0.000869,0.014108,-0.009835,58.259979,21.687851,-149.002823,,,
729605473.044498,-0.836181,-3.880364,46.869364,0.074875,-0.014648,0.985779,0.000869,0.014108,-0.009835,58.259979,21.687851,-149.002823,,,
729605473.047894,-0.835156,-3.878381,46.866668,0.076904,-0.015884,0.984039,0.000869,0.014108,-0.009835,58.259979,21.687851,-149.002823,,,
729605473.051135,-0.835156,-3.878381,46.866668,0.076904,-0.015884,0.984039,0.001251,0.006127,-0.014575,58.259979,21.687851,-149.002823,,,
729605473.05449,-0.836808,-3.876696,46.862974,0.076904,-0.015884,0.984039,0.001251,0.006127,-0.014575,58.259979,21.687851,-149.002823,,,
729605473.057811,-0.837964,-3.876411,46.858458,0.081848,-0.012848,0.984818,0.001251,0.006127,-0.014575,58.259979,21.687851,-149.002823,,,
729605473.061134,-0.837964,-3.876411,46.858458,0.081848,-0.012848,0.984818,-0.004295,0.000216,-0.02177,58.259979,21.687851,-149.002823,,,
729605473.064481,-0.840817,-3.87713,46.85301,0.081848,-0.012848,0.984818,-0.004295,0.000216,-0.02177,58.259979,21.687851,-149.002823,,,
729605473.067629,-0.841855,-3.878796,46.846476,0.07695,-0.015335,0.985733,-0.004295,0.000216,-0.02177,58.259979,21.687851,-149.002823,,,
729605473.071211,-0.841855,-3.878796,46.846476,0.07695,-0.015335,0.985733,-0.005613,-0.002349,-0.026557,58.259979,21.687851,-149.002823,,,
729605473.074549,-0.844239,-3.881571,46.839095,0.07695,-0.015335,0.985733,-0.005613,-0.002349,-0.026557,58.259979,21.687851,-149.002823,,,
729605473.077801,-0.844058,-3.882963,46.830913,0.077698,-0.015198,0.990555,-0.005613,-0.002349,-0.026557,58.408463,21.638397,-148.927475,,,
729605473.081141,-0.844058,-3.882963,46.830913,0.077698,-0.015198,0.990555,0.007281,0.001078,-0.032044,58.408463,21.638397,-148.927475,,,
729605473.084492,-0.842716,-3.885836,46.821897,0.077698,-0.015198,0.990555,0.007281,0.001078,-0.032044,58.408463,21.638397,-148.927475,,,
729605473.087882,-0.838861,-3.885717,46.812538,0.077896,-0.014908,0.996017,0.007281,0.001078,-0.032044,58.408463,21.638397,-148.927475,,,
729605473.091153,-0.838861,-3.885717,46.812538,0.077896,-0.014908,0.996017,0.020796,0.008556,-0.034318,58.408463,21.638397,-148.927475,,,
729605473.094503,-0.83227,-3.88777,46.803857,0.077896,-0.014908,0.996017,0.020796,0.008556,-0.034318,58.408463,21.638397,-148.927475,,,
729605473.097837,-0.826041,-3.884672,46.796072,0.070755,-0.0177,1.000092,0.020796,0.008556,-0.034318,58.408463,21.638397,-148.927475,,,
729605473.101077,-0.826041,-3.884672,46.796072,0.070755,-0.0177,1.000092,0.01561,0.025579,-0.021348,58.408463,21.638397,-148.927475,,,
729605473.104509,-0.820157,-3.881226,46.79026,0.070755,-0.0177,1.000092,0.01561,0.025579,-0.021348,58.408463,21.638397,-148.927475,,,
729605473.107812,-0.816409,-3.873453,46.787732,0.060257,-0.020752,0.994492,0.01561,0.025579,-0.021348,58.408463,21.638397,-148.927475,,,
729605473.111141,-0.816409,-3.873453,46.787732,0.060257,-0.020752,0.994492,0.002285,0.035696,0.000533,58.408463,21.638397,-148.927475,,,
729605473.114541,-0.815076,-3.86597,46.788261,0.060257,-0.020752,0.994492,0.002285,0.035696,0.000533,58.408463,21.638397,-148.927475,,,
729605473.117815,-0.816484,-3.855948,46.791065,0.055939,-0.023499,0.986969,0.002285,0.035696,0.000533,58.408463,21.638397,-148.927475,,,
729605473.121148,-0.816484,-3.855948,46.791065,0.055939,-0.023499,0.986969,-0.014007,0.043591,0.013377,58.565018,21.416763,-148.959503,,,
729605473.124491,-0.819965,-3.846521,46.794765,0.055939,-0.023499,0.986969,-0.014007,0.043591,0.013377,58.565018,21.416763,-148.959503,,,
729605473.127872,-0.825532,-3.836296,46.797972,0.061432,-0.016998,0.986893,-0.014007,0.043591,0.013377,58.565018,21.416763,-148.959503,,,
729605473.131145,-0.825532,-3.836296,46.797972,0.061432,-0.016998,0.986893,-0.027061,0.027056,0.006204,58.565018,21.416763,-148.959503,,,
729605473.13429,-0.833645,-3.83072,46.799458,0.061432,-0.016998,0.986893,-0.027061,0.027056,0.006204,58.565018,21.416763,-148.959503,,,
729605473.13783,-0.842612,-3.825554,46.799275,0.067825,-0.006317,0.98288,-0.027061,0.027056,0.006204,58.565018,21.416763,-148.959503,,,
729605473.141215,-0.842612,-3.825554,46.799275,0.067825,-0.006317,0.98288,-0.036038,0.008176,-0.01045,58.565018,21.416763,-148.959503,,,
729605473.144477,-0.852681,-3.825772,46.796716,0.067825,-0.006317,0.98288,-0.036038,0.008176,-0.01045,58.565018,21.416763,-148.959503,,,
729605473.147807,-0.863264,-3.8262,46.791313,0.068558,-0.003632,0.985992,-0.036038,0.008176,-0.01045,58.565018,21.416763,-148.959503,,,
729605473.151154,-0.863264,-3.8262,46.791313,0.068558,-0.003632,0.985992,-0.034154,-0.012897,-0.028019,58.565018,21.416763,-148.959503,,,
729605473.154536,-0.873417,-3.831661,46.78339,0.068558,-0.003632,0.985992,-0.034154,-0.012897,-0.028019,58.565018,21.416763,-148.959503,,,
729605473.157819,-0.883463,-3.838329,46.774229,0.069031,-0.007065,0.988953,-0.034154,-0.012897,-0.028019,58.565018,21.416763,-148.959503,,,
729605473.161256,-0.883463,-3.838329,46.774229,0.069031,-0.007065,0.988953,-0.034154,-0.012897,-0.028019,58.566696,21.737122,-149.048813,,,
729605473.164566,-0.894288,-3.8488,46.764044,0.069031,-0.007065,0.988953,-0.04102,-0.026364,-0.035135,58.566696,21.737122,-149.048813,,,
729605473.167637,-0.905274,-3.858176,46.75348,0.065552,-0.012924,0.988785,-0.04102,-0.026364,-0.035135,58.566696,21.737122,-149.048813,,,
729605473.171236,-0.905274,-3.858176,46.75348,0.065552,-0.012924,0.988785,-0.04102,-0.026364,-0.035135,58.566696,21.737122,-149.048813,,,
729605473.174487,-0.915418,-3.868868,46.743421,0.065552,-0.012924,0.988785,-0.035875,-0.028647,-0.033016,58.566696,21.737122,-149.048813,,,
729605473.177827,-0.923785,-3.876358,46.733818,0.065475,-0.017792,0.996445,-0.035875,-0.028647,-0.033016,58.566696,21.737122,-149.048813,,,
729605473.181142,-0.923785,-3.876358,46.733818,0.065475,-0.017792,0.996445,-0.035875,-0.028647,-0.033016,58.566696,21.737122,-149.048813,,,
729605473.184508,-0.929296,-3.879862,46.724974,0.065475,-0.017792,0.996445,-0.01559,-0.007226,-0.029044,58.566696,21.737122,-149.048813,,,
729605473.187808,-0.930715,-3.879267,46.717566,0.065033,-0.017471,1.013428,-0.01559,-0.007226,-0.029044,58.566696,21.737122,-149.048813,,,
729605473.191212,-0.930715,-3.879267,46.717566,0.065033,-0.017471,1.013428,-0.01559,-0.007226,-0.029044,58.566696,21.737122,-149.048813,,,
729605473.194487,-0.930427,-3.873402,46.712508,0.065033,-0.017471,1.013428,0.007404,0.019664,-0.016781,58.566696,21.737122,-149.048813,,,
729605473.197815,-0.926145,-3.866349,46.709999,0.059967,-0.016922,1.015015,0.007404,0.019664,-0.016781,58.566696,21.737122,-149.048813,,,
729605473.20097,-0.926145,-3.866349,46.709999,0.059967,-0.016922,1.015015,0.007404,0.019664,-0.016781,58.586914,21.471405,-148.881531,,,
729605473.204599,-0.920088,-3.854141,46.70994,0.059967,-0.016922,1.015015,0.026398,0.043121,-0.00067,58.586914,21.471405,-148.881531,,,
729605473.20781,-0.911297,-3.839554,46.711421,0.052994,-0.019165,1.013168,0.026398,0.043121,-0.00067,58.586914,21.471405,-148.881531,,,
729605473.211201,-0.911297,-3.839554,46.711421,0.052994,-0.019165,1.013168,0.026398,0.043121,-0.00067,58.586914,21.471405,-148.881531,,,
729605473.214478,-0.901652,-3.821829,46.713649,0.052994,-0.019165,1.013168,0.03406,0.064107,0.004816,58.586914,21.471405,-148.881531,,,
729605473.217812,-0.893321,-3.803443,46.716681,0.054199,-0.017883,1.007401,0.03406,0.064107,0.004816,58.586914,21.471405,-148.881531,,,
729605473.221185,-0.893321,-3.803443,46.716681,0.054199,-0.017883,1.007401,0.03406,0.064107,0.004816,58.586914,21.471405,-148.881531,,,
729605473.224486,-0.885027,-3.786688,46.720042,0.054199,-0.017883,1.007401,0.023201,0.061484,0.009438,58.586914,21.471405,-148.881531,,,
729605473.227815,-0.881067,-3.771476,46.722969,0.057053,-0.01265,0.987686,0.023201,0.061484,0.009438,58.586914,21.471405,-148.881531,,,
729605473.231173,-0.881067,-3.771476,46.722969,0.057053,-0.01265,0.987686,0.023201,0.061484,0.009438,58.586914,21.471405,-148.881531,,,
729605473.234294,-0.877712,-3.759045,46.724604,0.057053,-0.01265,0.987686,0.004042,0.047894,0.001365,58.586914,21.471405,-148.881531,,,
729605473.237857,-0.878874,-3.748864,46.724437,0.058945,-0.006271,0.984238,0.004042,0.047894,0.001365,58.586914,21.471405,-148.881531,,,
729605473.241179,-0.878874,-3.748864,46.724437,0.058945,-0.006271,0.984238,0.004042,0.047894,0.001365,58.531006,21.799179,-148.862335,,,
729605473.244529,-0.881752,-3.742432,46.722131,0.058945,-0.006271,0.984238,-0.013143,0.022767,-0.009634,58.531006,21.799179,-148.862335,,,
729605473.247802,-0.887256,-3.738653,46.717539,0.054886,-0.00531,0.984146,-0.013143,0.022767,-0.009634,58.531006,21.799179,-148.862335,,,
729605473.251201,-0.887256,-3.738653,46.717539,0.054886,-0.00531,0.984146,-0.013143,0.022767,-0.009634,58.531006,21.799179,-148.862335,,,
729605473.254489,-0.893478,-3.738095,46.710817,0.054886,-0.00531,0.984146,-0.025389,0.002751,-0.023986,58.531006,21.799179,-148.862335,,,
729605473.257803,-0.900206,-3.740431,46.702611,0.054794,-0.007919,0.990387,-0.025389,0.002751,-0.023986,58.531006,21.799179,-148.862335,,,
729605473.261152,-0.900206,-3.740431,46.702611,0.054794,-0.007919,0.990387,-0.025389,0.002751,-0.023986,58.531006,21.799179,-148.862335,,,
729605473.264488,-0.906609,-3.745789,46.693921,0.054794,-0.007919,0.990387,-0.023324,-0.018648,-0.029884,58.531006,21.799179,-148.862335,,,
729605473.26761,-0.91149,-3.754068,46.685124,0.055969,-0.011887,0.993011,-0.023324,-0.018648,-0.029884,58.531006,21.799179,-148.862335,,,
729605473.271168,-0.91149,-3.754068,46.685124,0.055969,-0.011887,0.993011,-0.023324,-0.018648,-0.029884,58.531006,21.799179,-148.862335,,,
729605473.274485,-0.91532,-3.763697,46.676574,0.055969,-0.011887,0.993011,-0.013518,-0.032117,-0.029168,58.531006,21.799179,-148.862335,,,
729605473.277813,-0.916831,-3.773936,46.669135,0.061523,-0.015198,0.995193,-0.013518,-0.032117,-0.029168,58.531006,21.799179,-148.862335,,,
729605473.281143,-0.916831,-3.773936,46.669135,0.061523,-0.015198,0.995193,-0.013518,-0.032117,-0.029168,58.531006,21.799179,-148.862335,,,
729605473.284492,-0.915178,-3.781729,46.663322,0.061523,-0.015198,0.995193,0.011092,-0.028467,-0.020912,58.576782,21.672546,-148.670029,,,
729605473.287814,-0.909441,-3.78898,46.659503,0.065353,-0.016937,1.006134,0.011092,-0.028467,-0.020912,58.576782,21.672546,-148.670029,,,
729605473.291147,-0.909441,-3.78898,46.659503,0.065353,-0.016937,1.006134,0.011092,-0.028467,-0.020912,58.576782,21.672546,-148.670029,,,
729605473.29456,-0.900494,-3.791148,46.657939,0.065353,-0.016937,1.006134,0.034941,-0.011077,-0.006826,58.576782,21.672546,-148.670029,,,
729605473.297828,-0.888055,-3.792315,46.659113,0.06543,-0.019119,1.012695,0.034941,-0.011077,-0.006826,58.576782,21.672546,-148.670029,,,
729605473.300953,-0.888055,-3.792315,46.659113,0.06543,-0.019119,1.012695,0.034941,-0.011077,-0.006826,58.576782,21.672546,-148.670029,,,
729605473.30454,-0.874145,-3.788499,46.663839,0.06543,-0.019119,1.012695,0.052912,0.012998,0.017189,58.576782,21.672546,-148.670029,,,
729605473.307806,-0.859613,-3.783064,46.671922,0.06546,-0.02626,1.008804,0.052912,0.012998,0.017189,58.576782,21.672546,-148.670029,,,
729605473.311174,-0.859613,-3.783064,46.671922,0.06546,-0.02626,1.008804,0.052912,0.012998,0.017189,58.576782,21.672546,-148.670029,,,
729605473.314492,-0.844339,-3.772515,46.682115,0.06546,-0.02626,1.008804,0.051015,0.035526,0.032039,58.576782,21.672546,-148.670029,,,
729605473.317816,-0.832319,-3.759714,46.692233,0.069778,-0.025558,1.002716,0.051015,0.035526,0.032039,58.576782,21.672546,-148.670029,,,
729605473.321142,-0.832319,-3.759714,46.692233,0.069778,-0.025558,1.002716,0.051015,0.035526,0.032039,58.576782,21.672546,-148.670029,,,
729605473.324482,-0.822066,-3.742958,46.701158,0.069778,-0.025558,1.002716,0.02816,0.058739,0.025781,58.640884,21.693375,-148.727676,,,
729605473.327809,-0.817636,-3.725429,46.708131,0.077774,-0.015045,0.99501,0.02816,0.058739,0.025781,58.640884,21.693375,-148.727676,,,
729605473.331218,-0.817636,-3.725429,46.708131,0.077774,-0.015045,0.99501,0.02816,0.058739,0.025781,58.640884,21.693375,-148.727676,,,
729605473.334305,-0.815997,-3.705529,46.712555,0.077774,-0.015045,0.99501,-0.003482,0.063844,0.012689,58.640884,21.693375,-148.727676,,,
729605473.337835,-0.819818,-3.689157,46.713776,0.075623,-0.005661,0.983231,-0.003482,0.063844,0.012689,58.640884,21.693375,-148.727676,,,
729605473.341166,-0.819818,-3.689157,46.713776,0.075623,-0.005661,0.983231,-0.003482,0.063844,0.012689,58.640884,21.693375,-148.727676,,,
729605473.344532,-0.826825,-3.67432,46.711999,0.075623,-0.005661,0.983231,-0.029733,0.04561,-0.008978,58.640884,21.693375,-148.727676,,,
729605473.347809,-0.838037,-3.664886,46.707487,0.072647,-0.001892,0.974426,-0.029733,0.04561,-0.008978,58.640884,21.693375,-148.727676,,,
729605473.351157,-0.838037,-3.664886,46.707487,0.072647,-0.001892,0.974426,-0.029733,0.04561,-0.008978,58.640884,21.693375,-148.727676,,,
729605473.35449,-0.851254,-3.658046,46.700854,0.072647,-0.001892,0.974426,-0.051368,0.022212,-0.024717,58.640884,21.693375,-148.727676,,,
729605473.357813,-0.86674,-3.656266,46.693121,0.070618,-0.005783,0.97612,-0.051368,0.022212,-0.024717,58.640884,21.693375,-148.727676,,,
729605473.361153,-0.86674,-3.656266,46.693121,0.070618,-0.005783,0.97612,-0.051368,0.022212,-0.024717,58.640884,21.693375,-148.727676,,,
729605473.364481,-0.882443,-3.658959,46.685118,0.070618,-0.005783,0.97612,-0.055449,-0.009923,-0.025274,58.710938,21.945908,-148.621704,,,
729605473.367656,-0.895927,-3.666023,46.678261,0.064865,-0.015381,0.980286,-0.055449,-0.009923,-0.025274,58.710938,21.945908,-148.621704,,,
729605473.371186,-0.895927,-3.666023,46.678261,0.064865,-0.015381,0.980286,-0.055449,-0.009923,-0.025274,58.710938,21.945908,-148.621704,,,
729605473.374495,-0.905583,-3.675153,46.672883,0.064865,-0.015381,0.980286,-0.027796,-0.027458,-0.018039,58.710938,21.945908,-148.621704,,,
729605473.377821,-0.910095,-3.683748,46.66877,0.062943,-0.02211,0.999313,-0.027796,-0.027458,-0.018039,58.710938,21.945908,-148.621704,,,
729605473.381206,-0.910095,-3.683748,46.66877,0.062943,-0.02211,0.999313,-0.027796,-0.027458,-0.018039,58.710938,21.945908,-148.621704,,,
729605473.384486,-0.911359,-3.69197,46.667281,0.062943,-0.02211,0.999313,0.006241,-0.024766,-0.001452,58.710938,21.945908,-148.621704,,,
729605473.387817,-0.90866,-3.699617,46.669168,0.056931,-0.027802,1.011459,0.006241,-0.024766,-0.001452,58.710938,21.945908,-148.621704,,,
729605473.391139,-0.90866,-3.699617,46.669168,0.056931,-0.027802,1.011459,0.006241,-0.024766,-0.001452,58.710938,21.945908,-148.621704,,,
729605473.394562,-0.906501,-3.705256,46.673844,0.056931,-0.027802,1.011459,0.018782,-0.013485,0.018015,58.710938,21.945908,-148.621704,,,
729605473.397806,-0.902263,-3.706267,46.680015,0.058334,-0.028946,1.002853,0.018782,-0.013485,0.018015,58.710938,21.945908,-148.621704,,,
729605473.400988,-0.902263,-3.706267,46.680015,0.058334,-0.028946,1.002853,0.018782,-0.013485,0.018015,58.710938,21.945908,-148.621704,,,
729605473.404536,-0.900662,-3.702856,46.685795,0.058334,-0.028946,1.002853,0.010225,0.027004,0.018454,58.710938,21.945908,-148.621704,,,
729605473.4078,-0.9005,-3.692784,46.690217,0.071121,-0.017532,1.006042,0.010225,0.027004,0.018454,58.413132,21.780319,-148.838348,,,
729605473.41116,-0.9005,-3.692784,46.690217,0.071121,-0.017532,1.006042,0.010225,0.027004,0.018454,58.413132,21.780319,-148.838348,,,
729605473.414501,-0.902474,-3.681652,46.693114,0.071121,-0.017532,1.006042,-0.009192,0.049781,0.008771,58.413132,21.780319,-148.838348,,,
729605473.417813,-0.908352,-3.666063,46.694372,0.075043,-0.010803,0.992172,-0.009192,0.049781,0.008771,58.413132,21.780319,-148.838348,,,
729605473.421142,-0.908352,-3.666063,46.694372,0.075043,-0.010803,0.992172,-0.009192,0.049781,0.008771,58.413132,21.780319,-148.838348,,,
729605473.424479,-0.915157,-3.651956,46.694037,0.075043,-0.010803,0.992172,-0.034078,0.058123,-0.001037,58.413132,21.780319,-148.838348,,,
729605473.427808,-0.926986,-3.637625,46.69289,0.073547,-0.008606,0.984558,-0.034078,0.058123,-0.001037,58.413132,21.780319,-148.838348,,,
729605473.431229,-0.926986,-3.637625,46.69289,0.073547,-0.008606,0.984558,-0.034078,0.058123,-0.001037,58.413132,21.780319,-148.838348,,,
729605473.434292,-0.939151,-3.627553,46.690644,0.073547,-0.008606,0.984558,-0.054753,0.042736,-0.006379,58.413132,21.780319,-148.838348,,,
729605473.43783,-0.956351,-3.618977,46.686388,0.072021,-0.009338,0.977386,-0.054753,0.042736,-0.006379,58.413132,21.780319,-148.838348,,,
729605473.441132,-0.956351,-3.618977,46.686388,0.072021,-0.009338,0.977386,-0.054753,0.042736,-0.006379,58.413132,21.780319,-148.838348,,,
729605473.44453,-0.974484,-3.615864,46.68021,0.072021,-0.009338,0.977386,-0.070986,0.016803,-0.019099,58.413132,21.780319,-148.838348,,,
729605473.447799,-0.995376,-3.615704,46.672063,0.069656,-0.015045,0.976608,-0.070986,0.016803,-0.019099,58.619019,21.812469,-148.735458,,,
729605473.451148,-0.995376,-3.615704,46.672063,0.069656,-0.015045,0.976608,-0.070986,0.016803,-0.019099,58.619019,21.812469,-148.735458,,,
729605473.454504,-1.017144,-3.619759,46.661756,0.069656,-0.015045,0.976608,-0.079065,-0.013308,-0.034287,58.619019,21.812469,-148.735458,,,
729605473.4578,-1.038824,-3.626747,46.649711,0.071228,-0.016525,0.981384,-0.079065,-0.013308,-0.034287,58.619019,21.812469,-148.735458,,,
729605473.461157,-1.038824,-3.626747,46.649711,0.071228,-0.016525,0.981384,-0.079065,-0.013308,-0.034287,58.619019,21.812469,-148.735458,,,
729605473.464495,-1.060688,-3.63441,46.636438,0.071228,-0.016525,0.981384,-0.072821,-0.022975,-0.043955,58.619019,21.812469,-148.735458,,,
729605473.46761,-1.078759,-3.641479,46.623373,0.071426,-0.017242,0.996826,-0.072821,-0.022975,-0.043955,58.619019,21.812469,-148.735458,,,
729605473.471162,-1.078759,-3.641479,46.623373,0.071426,-0.017242,0.996826,-0.072821,-0.022975,-0.043955,58.619019,21.812469,-148.735458,,,
729605473.474487,-1.094997,-3.645851,46.611868,0.071426,-0.017242,0.996826,-0.050094,-0.014326,-0.038885,58.619019,21.812469,-148.735458,,,
729605473.477814,-1.106589,-3.651634,46.602415,0.066284,-0.024628,1.007126,-0.050094,-0.014326,-0.038885,58.619019,21.812469,-148.735458,,,
729605473.48121,-1.106589,-3.651634,46.602415,0.066284,-0.024628,1.007126,-0.050094,-0.014326,-0.038885,58.619019,21.812469,-148.735458,,,
729605473.48448,-1.117221,-3.656516,46.594965,0.066284,-0.024628,1.007126,-0.030377,-0.013014,-0.02162,58.619019,21.812469,-148.735458,,,
729605473.487828,-1.124957,-3.659073,46.589015,0.062729,-0.031082,1.006104,-0.030377,-0.013014,-0.02162,58.877228,21.909866,-148.74469,,,
729605473.491235,-1.124957,-3.659073,46.589015,0.062729,-0.031082,1.006104,-0.030377,-0.013014,-0.02162,58.877228,21.909866,-148.74469,,,
729605473.494504,-1.131024,-3.659317,46.583587,0.062729,-0.031082,1.006104,-0.0234,0.010902,-0.017025,58.877228,21.909866,-148.74469,,,
729605473.497821,-1.138341,-3.65279,46.577475,0.064468,-0.02887,1.010559,-0.0234,0.010902,-0.017025,58.877228,21.909866,-148.74469,,,
729605473.50098,-1.138341,-3.65279,46.577475,0.064468,-0.02887,1.010559,-0.0234,0.010902,-0.017025,58.877228,21.909866,-148.74469,,,
729605473.504597,-1.144288,-3.643888,46.570077,0.064468,-0.02887,1.010559,-0.026798,0.044279,-0.025119,58.877228,21.909866,-148.74469,,,
729605473.507802,-1.15283,-3.630388,46.561954,0.060516,-0.024017,1.006851,-0.026798,0.044279,-0.025119,58.877228,21.909866,-148.74469,,,
729605473.511158,-1.15283,-3.630388,46.561954,0.060516,-0.024017,1.006851,-0.026798,0.044279,-0.025119,58.877228,21.909866,-148.74469,,,
729605473.514508,-1.159496,-3.617037,46.55364,0.060516,-0.024017,1.006851,-0.031397,0.058588,-0.02718,58.877228,21.909866,-148.74469,,,
729605473.517874,-1.167346,-3.600183,46.545404,0.055771,-0.024475,0.995651,-0.031397,0.058588,-0.02718,58.877228,21.909866,-148.74469,,,
729605473.521179,-1.167346,-3.600183,46.545404,0.055771,-0.024475,0.995651,-0.031397,0.058588,-0.02718,58.877228,21.909866,-148.74469,,,
729605473.524505,-1.171587,-3.583243,46.537305,0.055771,-0.024475,0.995651,-0.019435,0.070124,-0.028106,58.877228,21.909866,-148.74469,,,
729605473.52781,-1.17456,-3.564359,46.529277,0.054245,-0.02417,1.006882,-0.019435,0.070124,-0.028106,58.969498,21.864716,-148.582001,,,
729605473.531241,-1.17456,-3.564359,46.529277,0.054245,-0.02417,1.006882,-0.019435,0.070124,-0.028106,58.969498,21.864716,-148.582001,,,
729605473.534302,-1.175326,-3.549461,46.521722,0.054245,-0.02417,1.006882,-0.005391,0.056392,-0.026521,58.969498,21.864716,-148.582001,,,
729605473.537833,-1.176741,-3.537354,46.514869,0.051743,-0.022385,0.995438,-0.005391,0.056392,-0.026521,58.969498,21.864716,-148.582001,,,
729605473.541136,-1.176741,-3.537354,46.514869,0.051743,-0.022385,0.995438,-0.005391,0.056392,-0.026521,58.969498,21.864716,-148.582001,,,
729605473.544529,-1.177164,-3.53129,46.508194,0.051743,-0.022385,0.995438,-0.00584,0.028595,-0.024503,58.969498,21.864716,-148.582001,,,
729605473.547799,-1.179159,-3.525998,46.501516,0.044861,-0.020157,0.982864,-0.00584,0.028595,-0.024503,58.969498,21.864716,-148.582001,,,
729605473.55116,-1.179159,-3.525998,46.501516,0.044861,-0.020157,0.982864,-0.00584,0.028595,-0.024503,58.969498,21.864716,-148.582001,,,
729605473.554487,-1.182829,-3.523252,46.493904,0.044861,-0.020157,0.982864,-0.015345,0.013818,-0.027063,58.969498,21.864716,-148.582001,,,
729605473.557806,-1.188007,-3.521353,46.484834,0.049835,-0.014664,0.98381,-0.015345,0.013818,-0.027063,58.969498,21.864716,-148.582001,,,
729605473.561153,-1.188007,-3.521353,46.484834,0.049835,-0.014664,0.98381,-0.015345,0.013818,-0.027063,58.969498,21.864716,-148.582001,,,
729605473.564499,-1.194931,-3.522913,46.474992,0.049835,-0.014664,0.98381,-0.022844,-0.00259,-0.032702,58.969498,21.864716,-148.582001,,,
729605473.567602,-1.200641,-3.527358,46.464681,0.055008,-0.014923,0.983414,-0.022844,-0.00259,-0.032702,58.969498,21.864716,-148.582001,,,
729605473.57124,-1.200641,-3.527358,46.464681,0.055008,-0.014923,0.983414,-0.022844,-0.00259,-0.032702,59.011948,21.928482,-148.94516,,,
729605473.574475,-1.20781,-3.535982,46.454164,0.055008,-0.014923,0.983414,-0.020611,-0.028407,-0.037491,59.011948,21.928482,-148.94516,,,
729605473.577804,-1.213414,-3.547494,46.443819,0.051453,-0.016159,0.982666,-0.020611,-0.028407,-0.037491,59.011948,21.928482,-148.94516,,,
729605473.581153,-1.213414,-3.547494,46.443819,0.051453,-0.016159,0.982666,-0.020611,-0.028407,-0.037491,59.011948,21.928482,-148.94516,,,
729605473.584531,-1.219849,-3.560167,46.4335,0.051453,-0.016159,0.982666,-0.02102,-0.039988,-0.035793,59.011948,21.928482,-148.94516,,,
729605473.5878,-1.225291,-3.572584,46.423423,0.051483,-0.015625,0.987946,-0.02102,-0.039988,-0.035793,59.011948,21.928482,-148.94516,,,
729605473.591136,-1.225291,-3.572584,46.423423,0.051483,-0.015625,0.987946,-0.02102,-0.039988,-0.035793,59.011948,21.928482,-148.94516,,,
729605473.594494,-1.231169,-3.583481,46.413506,0.051483,-0.015625,0.987946,-0.020448,-0.034372,-0.034592,59.011948,21.928482,-148.94516,,,
729605473.597801,-1.237018,-3.592179,46.403605,0.058304,-0.014145,0.994629,-0.020448,-0.034372,-0.034592,59.011948,21.928482,-148.94516,,,
729605473.601016,-1.237018,-3.592179,46.403605,0.058304,-0.014145,0.994629,-0.020448,-0.034372,-0.034592,59.011948,21.928482,-148.94516,,,
729605473.604506,-1.244117,-3.594654,46.393881,0.058304,-0.014145,0.994629,-0.023901,-0.007575,-0.031548,59.011948,21.928482,-148.94516,,,
729605473.607804,-1.251338,-3.594473,46.385054,0.061142,-0.017105,0.998917,-0.023901,-0.007575,-0.031548,59.011948,21.928482,-148.94516,,,
729605473.61118,-1.251338,-3.594473,46.385054,0.061142,-0.017105,0.998917,-0.023901,-0.007575,-0.031548,58.965698,21.822739,-149.073059,,,
729605473.614474,-1.25962,-3.590346,46.377738,0.061142,-0.017105,0.998917,-0.026954,0.015775,-0.022075,58.965698,21.822739,-149.073059,,,
729605473.617804,-1.267053,-3.585924,46.371426,0.058929,-0.018539,0.988724,-0.026954,0.015775,-0.022075,58.965698,21.822739,-149.073059,,,
729605473.621138,-1.267053,-3.585924,46.371426,0.058929,-0.018539,0.988724,-0.026954,0.015775,-0.022075,58.965698,21.822739,-149.073059,,,
729605473.624486,-1.272382,-3.575425,46.364838,0.058929,-0.018539,0.988724,-0.017808,0.038396,-0.024301,58.965698,21.822739,-149.073059,,,
729605473.627804,-1.274864,-3.560763,46.357044,0.066635,-0.014435,1.005508,-0.017808,0.038396,-0.024301,58.965698,21.822739,-149.073059,,,
729605473.631153,-1.274864,-3.560763,46.357044,0.066635,-0.014435,1.005508,-0.017808,0.038396,-0.024301,58.965698,21.822739,-149.073059,,,
729605473.634316,-1.273799,-3.53997,46.348302,0.066635,-0.014435,1.005508,0.001901,0.070582,-0.03457,58.965698,21.822739,-149.073059,,,
729605473.637843,-1.271358,-3.52368,46.339135,0.067337,-0.013428,1.015869,0.001901,0.070582,-0.03457,58.965698,21.822739,-149.073059,,,
729605473.641148,-1.271358,-3.52368,46.339135,0.067337,-0.013428,1.015869,0.001901,0.070582,-0.03457,58.965698,21.822739,-149.073059,,,
729605473.644488,-1.266651,-3.510669,46.331075,0.067337,-0.013428,1.015869,0.010272,0.041421,-0.029231,58.965698,21.822739,-149.073059,,,
729605473.647816,-1.263849,-3.502021,46.324491,0.050522,-0.022247,0.989838,0.010272,0.041421,-0.029231,58.965698,21.822739,-149.073059,,,
729605473.651145,-1.263849,-3.502021,46.324491,0.050522,-0.022247,0.989838,0.010272,0.041421,-0.029231,59.061295,21.893356,-148.756485,,,
729605473.654496,-1.261281,-3.492716,46.318724,0.050522,-0.022247,0.989838,0.001839,0.032774,-0.02198,59.061295,21.893356,-148.756485,,,
729605473.657808,-1.260382,-3.483831,46.312519,0.048477,-0.023605,0.998459,0.001839,0.032774,-0.02198,59.061295,21.893356,-148.756485,,,
729605473.661219,-1.260382,-3.483831,46.312519,0.048477,-0.023605,0.998459,0.001839,0.032774,-0.02198,59.061295,21.893356,-148.756485,,,
729605473.664496,-1.259602,-3.473912,46.305671,0.048477,-0.023605,0.998459,-0.002906,0.030946,-0.025135,59.061295,21.893356,-148.756485,,,
729605473.667618,-1.26088,-3.467664,46.298022,0.056366,-0.018539,0.995743,-0.002906,0.030946,-0.025135,59.061295,21.893356,-148.756485,,,
729605473.671187,-1.26088,-3.467664,46.298022,0.056366,-0.018539,0.995743,-0.002906,0.030946,-0.025135,59.061295,21.893356,-148.756485,,,
729605473.674541,-1.261667,-3.461589,46.289629,0.056366,-0.018539,0.995743,-0.009292,0.020382,-0.030688,59.061295,21.893356,-148.756485,,,
729605473.6778,-1.263539,-3.456214,46.280265,0.055893,-0.017105,0.99733,-0.009292,0.020382,-0.030688,59.061295,21.893356,-148.756485,,,
729605473.681159,-1.263539,-3.456214,46.280265,0.055893,-0.017105,0.99733,-0.009292,0.020382,-0.030688,59.061295,21.893356,-148.756485,,,
729605473.684487,-1.263972,-3.449883,46.269999,0.055893,-0.017105,0.99733,-0.005816,0.027756,-0.034641,59.061295,21.893356,-148.756485,,,
729605473.687812,-1.265293,-3.442273,46.259934,0.057541,-0.017624,1.004974,-0.005816,0.027756,-0.034641,59.061295,21.893356,-148.756485,,,
729605473.691147,-1.265293,-3.442273,46.259934,0.057541,-0.017624,1.004974,-0.005816,0.027756,-0.034641,58.947235,21.968994,-148.927994,,,
729605473.694495,-1.265902,-3.432957,46.250355,0.057541,-0.017624,1.004974,-0.005293,0.042011,-0.03417,58.947235,21.968994,-148.927994,,,
729605473.697805,-1.268049,-3.42158,46.242272,0.057114,-0.02182,1.000107,-0.005293,0.042011,-0.03417,58.947235,21.968994,-148.927994,,,
729605473.701011,-1.268049,-3.42158,46.242272,0.057114,-0.02182,1.000107,-0.005293,0.042011,-0.03417,58.947235,21.968994,-148.927994,,,
729605473.704509,-1.270697,-3.409061,46.236078,0.057114,-0.02182,1.000107,-0.013634,0.045994,-0.022361,58.947235,21.968994,-148.927994,,,
729605473.7078,-1.274323,-3.397206,46.232243,0.048477,-0.025665,0.997208,-0.013634,0.045994,-0.022361,58.947235,21.968994,-148.927994,,,
729605473.711154,-1.274323,-3.397206,46.232243,0.048477,-0.025665,0.997208,-0.013634,0.045994,-0.022361,58.947235,21.968994,-148.927994,,,
729605473.714559,-1.275905,-3.38912,46.230976,0.048477,-0.025665,0.997208,-0.00954,0.036308,-0.00418,58.947235,21.968994,-148.927994,,,
729605473.717796,-1.278021,-3.380881,46.231298,0.046448,-0.026398,1.00029,-0.00954,0.036308,-0.00418,58.947235,21.968994,-148.927994,,,
729605473.721144,-1.278021,-3.380881,46.231298,0.046448,-0.026398,1.00029,-0.00954,0.036308,-0.00418,58.947235,21.968994,-148.927994,,,
729605473.724491,-1.277674,-3.372947,46.232591,0.046448,-0.026398,1.00029,-0.001085,0.032309,0.001717,58.947235,21.968994,-148.927994,,,
729605473.727801,-1.277617,-3.364686,46.234856,0.049728,-0.022888,1.006134,-0.001085,0.032309,0.001717,58.947235,21.968994,-148.927994,,,
729605473.731142,-1.277617,-3.364686,46.234856,0.049728,-0.022888,1.006134,-0.001085,0.032309,0.001717,58.947235,21.968994,-148.927994,,,
729605473.734284,-1.278253,-3.355203,46.237772,0.049728,-0.022888,1.006134,0.002789,0.029485,0.009178,58.990219,21.931259,-148.843353,,,
729605473.737827,-1.278891,-3.34821,46.240784,0.048523,-0.021423,1.002411,0.002789,0.029485,0.009178,58.990219,21.931259,-148.843353,,,
729605473.741206,-1.278891,-3.34821,46.240784,0.048523,-0.021423,1.002411,0.002789,0.029485,0.009178,58.990219,21.931259,-148.843353,,,
729605473.744464,-1.279077,-3.339768,46.243761,0.048523,-0.021423,1.002411,0.000777,0.028977,0.008052,58.990219,21.931259,-148.843353,,,
729605473.747813,-1.278566,-3.331464,46.246535,0.054077,-0.023651,1.004242,0.000777,0.028977,0.008052,58.990219,21.931259,-148.843353,,,
729605473.751151,-1.278566,-3.331464,46.246535,0.054077,-0.023651,1.004242,0.000777,0.028977,0.008052,58.990219,21.931259,-148.843353,,,
729605473.754544,-1.277249,-3.32252,46.249842,0.054077,-0.023651,1.004242,0.002959,0.032946,0.010493,58.990219,21.931259,-148.843353,,,
729605473.757798,-1.277262,-3.3147,46.253867,0.057617,-0.023758,1.003906,0.002959,0.032946,0.010493,58.990219,21.931259,-148.843353,,,
729605473.761156,-1.277262,-3.3147,46.253867,0.057617,-0.023758,1.003906,0.002959,0.032946,0.010493,58.990219,21.931259,-148.843353,,,
729605473.764485,-1.277571,-3.307907,46.258837,0.057617,-0.023758,1.003906,-0.004528,0.023488,0.017092,58.990219,21.931259,-148.843353,,,
729605473.767586,-1.280348,-3.302109,46.264637,0.058136,-0.022705,0.991638,-0.004528,0.023488,0.017092,58.990219,21.931259,-148.843353,,,
729605473.771191,-1.280348,-3.302109,46.264637,0.058136,-0.022705,0.991638,-0.004528,0.023488,0.017092,58.990219,21.931259,-148.843353,,,
729605473.774495,-1.28438,-3.295741,46.270085,0.058136,-0.022705,0.991638,-0.016538,0.027672,0.017803,59.019119,22.157013,-149.128906,,,
729605473.777821,-1.290001,-3.287644,46.27493,0.062073,-0.018433,0.990341,-0.016538,0.027672,0.017803,59.019119,22.157013,-149.128906,,,
729605473.781216,-1.290001,-3.287644,46.27493,0.062073,-0.018433,0.990341,-0.016538,0.027672,0.017803,59.019119,22.157013,-149.128906,,,
729605473.784495,-1.296779,-3.279085,46.279087,0.062073,-0.018433,0.990341,-0.022463,0.030141,0.014399,59.019119,22.157013,-149.128906,,,
729605473.787824,-1.303971,-3.272223,46.282413,0.065186,-0.015366,0.99295,-0.022463,0.030141,0.014399,59.019119,22.157013,-149.128906,,,
729605473.791145,-1.303971,-3.272223,46.282413,0.065186,-0.015366,0.99295,-0.022463,0.030141,0.014399,59.019119,22.157013,-149.128906,,,
729605473.79455,-1.31112,-3.265298,46.285331,0.065186,-0.015366,0.99295,-0.0195,0.019192,0.009245,59.019119,22.157013,-149.128906,,,
729605473.797868,-1.316949,-3.26304,46.287786,0.06752,-0.017181,0.989044,-0.0195,0.019192,0.009245,59.019119,22.157013,-149.128906,,,
729605473.800915,-1.316949,-3.26304,46.287786,0.06752,-0.017181,0.989044,-0.0195,0.019192,0.009245,59.019119,22.157013,-149.128906,,,
729605473.804534,-1.322855,-3.262058,46.289287,0.06752,-0.017181,0.989044,-0.016975,-0.001177,0.004241,59.019119,22.157013,-149.128906,,,
729605473.807854,-1.328034,-3.263945,46.289761,0.070801,-0.014908,0.98851,-0.016975,-0.001177,0.004241,59.019119,22.157013,-149.128906,,,
729605473.81115,-1.328034,-3.263945,46.289761,0.070801,-0.014908,0.98851,-0.016975,-0.001177,0.004241,59.019119,22.157013,-149.128906,,,
729605473.814479,-1.332981,-3.265441,46.289526,0.070801,-0.014908,0.98851,-0.016654,-0.007474,-0.001588,59.284454,21.979675,-148.821625,,,
729605473.817875,-1.338838,-3.269036,46.288483,0.073822,-0.011154,0.991501,-0.016654,-0.007474,-0.001588,59.284454,21.979675,-148.821625,,,
729605473.821137,-1.338838,-3.269036,46.288483,0.073822,-0.011154,0.991501,-0.016654,-0.007474,-0.001588,59.284454,21.979675,-148.821625,,,
729605473.82448,-1.346029,-3.271388,46.287227,0.073822,-0.011154,0.991501,-0.026157,-0.008024,-0.003882,59.284454,21.979675,-148.821625,,,
729605473.827877,-1.35445,-3.274279,46.286709,0.074158,-0.01239,0.989243,-0.026157,-0.008024,-0.003882,59.284454,21.979675,-148.821625,,,
729605473.831209,-1.35445,-3.274279,46.286709,0.074158,-0.01239,0.989243,-0.026157,-0.008024,-0.003882,59.284454,21.979675,-148.821625,,,
729605473.834298,-1.36357,-3.275055,46.287297,0.074158,-0.01239,0.989243,-0.030503,0.000902,0.002422,59.284454,21.979675,-148.821625,,,
729605473.837905,-1.37217,-3.2726,46.288817,0.067184,-0.018494,0.998779,-0.030503,0.000902,0.002422,59.284454,21.979675,-148.821625,,,
729605473.841166,-1.37217,-3.2726,46.288817,0.067184,-0.018494,0.998779,-0.030503,0.000902,0.002422,59.284454,21.979675,-148.821625,,,
729605473.844541,-1.379535,-3.26607,46.291379,0.067184,-0.018494,0.998779,-0.023553,0.027983,0.008531,59.284454,21.979675,-148.821625,,,
729605473.847798,-1.385924,-3.257437,46.294594,0.069046,-0.019623,1.01091,-0.023553,0.027983,0.008531,59.284454,21.979675,-148.821625,,,
729605473.851152,-1.385924,-3.257437,46.294594,0.069046,-0.019623,1.01091,-0.023553,0.027983,0.008531,59.284454,21.979675,-148.821625,,,
729605473.85447,-1.39269,-3.249169,46.297987,0.069046,-0.019623,1.01091,-0.023884,0.032682,0.012807,59.189346,22.247726,-148.812531,,,
729605473.857806,-1.400922,-3.240936,46.301702,0.063583,-0.021713,1.001144,-0.023884,0.032682,0.012807,59.189346,22.247726,-148.812531,,,
729605473.861165,-1.400922,-3.240936,46.301702,0.063583,-0.021713,1.001144,-0.023884,0.032682,0.012807,59.189346,22.247726,-148.812531,,,
729605473.864482,-1.407834,-3.234217,46.306555,0.063583,-0.021713,1.001144,-0.027123,0.029517,0.020154,59.189346,22.247726,-148.812531,,,
729605473.867628,-1.407834,-3.234217,46.306555,0.050781,-0.027924,0.999771,-0.027123,0.029517,0.020154,59.189346,22.247726,-148.812531,,,
729605473.871227,-1.415989,-3.226859,46.312485,0.050781,-0.027924,0.999771,-0.027123,0.029517,0.020154,59.189346,22.247726,-148.812531,,,
729605473.874467,-1.422401,-3.222565,46.318234,0.050781,-0.027924,0.999771,-0.022347,0.022737,0.020435,59.189346,22.247726,-148.812531,,,
729605473.87781,-1.429274,-3.21893,46.323143,0.048172,-0.028854,1.006424,-0.022347,0.022737,0.020435,59.189346,22.247726,-148.812531,,,
729605473.881152,-1.429274,-3.21893,46.323143,0.048172,-0.028854,1.006424,-0.022347,0.022737,0.020435,59.189346,22.247726,-148.812531,,,
729605473.884471,-1.434014,-3.221255,46.326685,0.048172,-0.028854,1.006424,-0.017219,-0.004502,0.011566,59.189346,22.247726,-148.812531,,,
729605473.887847,-1.439425,-3.225488,46.329378,0.054596,-0.026932,1.001587,-0.017219,-0.004502,0.011566,59.189346,22.247726,-148.812531,,,
729605473.891159,-1.439425,-3.225488,46.329378,0.054596,-0.026932,1.001587,-0.017219,-0.004502,0.011566,59.189346,22.247726,-148.812531,,,
729605473.894553,-1.442748,-3.235606,46.331593,0.054596,-0.026932,1.001587,-0.015969,-0.024775,0.006339,59.189346,22.247726,-148.812531,,,
729605473.897848,-1.448363,-3.244645,46.332989,0.053879,-0.024185,1.002136,-0.015969,-0.024775,0.006339,59.300949,22.178986,-149.057144,,,
729605473.901136,-1.448363,-3.244645,46.332989,0.053879,-0.024185,1.002136,-0.015969,-0.024775,0.006339,59.300949,22.178986,-149.057144,,,
729605473.90447,-1.45103,-3.257604,46.333673,0.053879,-0.024185,1.002136,-0.014883,-0.032218,0.002327,59.300949,22.178986,-149.057144,,,
729605473.907846,-1.455138,-3.268346,46.334344,0.055389,-0.022369,1.008972,-0.014883,-0.032218,0.002327,59.300949,22.178986,-149.057144,,,
729605473.911151,-1.455138,-3.268346,46.334344,0.055389,-0.022369,1.008972,-0.014883,-0.032218,0.002327,59.300949,22.178986,-149.057144,,,
729605473.914493,-1.45704,-3.281009,46.335148,0.055389,-0.022369,1.008972,-0.014358,-0.031463,0.0023,59.300949,22.178986,-149.057144,,,
729605473.91783,-1.460372,-3.289876,46.336705,0.061813,-0.027298,1.01326,-0.014358,-0.031463,0.0023,59.300949,22.178986,-149.057144,,,
729605473.921136,-1.460372,-3.289876,46.336705,0.061813,-0.027298,1.01326,-0.014358,-0.031463,0.0023,59.300949,22.178986,-149.057144,,,
729605473.92447,-1.461195,-3.299145,46.339567,0.061813,-0.027298,1.01326,-0.00257,-0.023351,0.012419,59.300949,22.178986,-149.057144,,,
729605473.927825,-1.460858,-3.305135,46.344057,0.056946,-0.030548,1.016602,-0.00257,-0.023351,0.012419,59.300949,22.178986,-149.057144,,,
729605473.931213,-1.460858,-3.305135,46.344057,0.056946,-0.030548,1.016602,-0.00257,-0.023351,0.012419,59.300949,22.178986,-149.057144,,,
729605473.934274,-1.457535,-3.31142,46.349239,0.056946,-0.030548,1.016602,0.010942,-0.012757,0.013669,59.300949,22.178986,-149.057144,,,
729605473.93786,-1.457535,-3.314749,46.354613,0.057617,-0.029984,1.012512,0.010942,-0.012757,0.013669,59.256439,21.973679,-149.051682,,,
729605473.941185,-1.454181,-3.314749,46.354613,0.057617,-0.029984,1.012512,0.010942,-0.012757,0.013669,59.256439,21.973679,-149.051682,,,
729605473.944524,-1.450848,-3.316247,46.360524,0.057617,-0.029984,1.012512,0.011619,-6.8e-05,0.016835,59.256439,21.973679,-149.051682,,,
729605473.947825,-1.450848,-3.316247,46.360524,0.057617,-0.029984,1.012512,0.011619,-6.8e-05,0.016835,59.256439,21.973679,-149.051682,,,
729605473.951151,-1.448412,-3.315548,46.36691,0.057404,-0.029343,1.005981,0.011619,-6.8e-05,0.016835,59.256439,21.973679,-149.051682,,,
729605473.95448,-1.448416,-3.311907,46.374161,0.057404,-0.029343,1.005981,0.003726,0.010196,0.026308,59.256439,21.973679,-149.051682,,,
729605473.957906,-1.450014,-3.310872,46.382494,0.057404,-0.029343,1.005981,0.003726,0.010196,0.026308,59.256439,21.973679,-149.051682,,,
729605473.961154,-1.450014,-3.310872,46.382494,0.053238,-0.030396,0.992889,0.003726,0.010196,0.026308,59.256439,21.973679,-149.051682,,,
729605473.964487,-1.454628,-3.311534,46.392025,0.053238,-0.030396,0.992889,-0.015084,-0.007951,0.03187,59.256439,21.973679,-149.051682,,,
729605473.96757,-1.454628,-3.311534,46.392025,0.053238,-0.030396,0.992889,-0.015084,-0.007951,0.03187,59.256439,21.973679,-149.051682,,,
729605473.971235,-1.461368,-3.31721,46.402737,0.048798,-0.031952,0.980682,-0.015084,-0.007951,0.03187,59.256439,21.973679,-149.051682,,,
729605473.974466,-1.469988,-3.325248,46.413709,0.048798,-0.031952,0.980682,-0.027909,-0.03121,0.039019,59.256439,21.973679,-149.051682,,,
729605473.977814,-1.469988,-3.325248,46.413709,0.048798,-0.031952,0.980682,-0.027909,-0.03121,0.039019,59.323746,22.019424,-148.904083,,,
729605473.981151,-1.479802,-3.335728,46.424235,0.049789,-0.031876,0.983597,-0.027909,-0.03121,0.039019,59.323746,22.019424,-148.904083,,,
729605473.984478,-1.489133,-3.347869,46.434696,0.049789,-0.031876,0.983597,-0.030181,-0.045814,0.038159,59.323746,22.019424,-148.904083,,,
729605473.987891,-1.489133,-3.347869,46.446249,0.049789,-0.031876,0.983597,-0.030181,-0.045814,0.038159,59.323746,22.019424,-148.904083,,,
729605473.991149,-1.498135,-3.364649,46.446249,0.054749,-0.030869,0.984818,-0.030181,-0.045814,0.038159,59.323746,22.019424,-148.904083,,,
729605473.994538,-1.505571,-3.384433,46.458836,0.054749,-0.030869,0.984818,-0.020943,-0.070574,0.041798,59.323746,22.019424,-148.904083,,,
729605473.997804,-1.505571,-3.384433,46.458836,0.054749,-0.030869,0.984818,-0.020943,-0.070574,0.041798,59.323746,22.019424,-148.904083,,,
729605474.000946,-1.512173,-3.405574,46.471731,0.056335,-0.032898,0.988861,-0.020943,-0.070574,0.041798,59.323746,22.019424,-148.904083,,,
729605474.004496,-1.518842,-3.42661,46.485567,0.056335,-0.032898,0.988861,-0.019883,-0.073004,0.050054,59.323746,22.019424,-148.904083,,,
729605474.007879,-1.518842,-3.42661,46.485567,0.056335,-0.032898,0.988861,-0.019883,-0.073004,0.050054,59.323746,22.019424,-148.904083,,,
729605474.01114,-1.52642,-3.44718,46.50004,0.064758,-0.03212,0.996078,-0.019883,-0.073004,0.050054,59.323746,22.019424,-148.904083,,,
729605474.014487,-1.537071,-3.466402,46.514893,0.064758,-0.03212,0.996078,-0.036928,-0.066379,0.051723,59.323746,22.019424,-148.904083,,,
729605474.017893,-1.537071,-3.466402,46.514893,0.064758,-0.03212,0.996078,-0.036928,-0.066379,0.051723,58.974716,22.295731,-148.847778,,,
729605474.021148,-1.549922,-3.48474,46.529291,0.070297,-0.027985,0.985168,-0.036928,-0.066379,0.051723,58.974716,22.295731,-148.847778,,,
729605474.024476,-1.566458,-3.500686,46.542555,0.070297,-0.027985,0.985168,-0.056702,-0.053109,0.048905,58.974716,22.295731,-148.847778,,,
729605474.027861,-1.566458,-3.500686,46.542555,0.070297,-0.027985,0.985168,-0.056702,-0.053109,0.048905,58.974716,22.295731,-148.847778,,,
729605474.031205,-1.585646,-3.516017,46.554628,0.074539,-0.023544,0.988632,-0.056702,-0.053109,0.048905,58.974716,22.295731,-148.847778,,,
729605474.034285,-1.607131,-3.529774,46.564864,0.074539,-0.023544,0.988632,-0.073715,-0.048313,0.037245,58.974716,22.295731,-148.847778,,,
729605474.037886,-1.607131,-3.529774,46.564864,0.074539,-0.023544,0.988632,-0.073715,-0.048313,0.037245,58.974716,22.295731,-148.847778,,,
729605474.041134,-1.62964,-3.544371,46.572868,0.073929,-0.022827,0.992752,-0.073715,-0.048313,0.037245,58.974716,22.295731,-148.847778,,,
729605474.044476,-1.6529,-3.557119,46.578396,0.073929,-0.022827,0.992752,-0.078144,-0.044622,0.019102,58.974716,22.295731,-148.847778,,,
729605474.047849,-1.6529,-3.557119,46.578396,0.073929,-0.022827,0.992752,-0.078144,-0.044622,0.019102,58.974716,22.295731,-148.847778,,,
729605474.051154,-1.675238,-3.572253,46.581669,0.070801,-0.025864,0.994629,-0.078144,-0.044622,0.019102,58.974716,22.295731,-148.847778,,,
729605474.054474,-1.696359,-3.586943,46.583293,0.070801,-0.025864,0.994629,-0.067886,-0.055996,0.009305,58.974716,22.295731,-148.847778,,,
729605474.057905,-1.696359,-3.586943,46.583293,0.070801,-0.025864,0.994629,-0.067886,-0.055996,0.009305,58.974716,22.295731,-148.847778,,,
729605474.06115,-1.714847,-3.605689,46.583621,0.066498,-0.033401,0.999313,-0.067886,-0.055996,0.009305,58.805984,22.363113,-149.027191,,,
729605474.064473,-1.731869,-3.622783,46.58356,0.066498,-0.033401,0.999313,-0.057136,-0.062387,0.000921,58.805984,22.363113,-149.027191,,,
729605474.06766,-1.731869,-3.622783,46.58356,0.066498,-0.033401,0.999313,-0.057136,-0.062387,0.000921,58.805984,22.363113,-149.027191,,,
729605474.071239,-1.746973,-3.639332,46.583138,0.063812,-0.035919,1.005539,-0.057136,-0.062387,0.000921,58.805984,22.363113,-149.027191,,,
729605474.07448,-1.761596,-3.651262,46.582305,0.063812,-0.035919,1.005539,-0.04655,-0.040256,-7.3e-05,58.805984,22.363113,-149.027191,,,
729605474.07782,-1.761596,-3.651262,46.582305,0.063812,-0.035919,1.005539,-0.04655,-0.040256,-7.3e-05,58.805984,22.363113,-149.027191,,,
729605474.081156,-1.775123,-3.661439,46.581955,0.060913,-0.035995,1.007599,-0.04655,-0.040256,-7.3e-05,58.805984,22.363113,-149.027191,,,
729605474.08448,-1.787506,-3.6692,46.583013,0.060913,-0.035995,1.007599,-0.03702,-0.024842,0.005613,58.805984,22.363113,-149.027191,,,
729605474.087728,-1.787506,-3.6692,46.583013,0.060913,-0.035995,1.007599,-0.03702,-0.024842,0.005613,58.805984,22.363113,-149.027191,,,
729605474.091173,-1.797842,-3.676984,46.585201,0.057892,-0.038208,1.005203,-0.03702,-0.024842,0.005613,58.805984,22.363113,-149.027191,,,
729605474.094504,-1.806406,-3.685552,46.588254,0.057892,-0.038208,1.005203,-0.026951,-0.024014,0.011119,58.805984,22.363113,-149.027191,,,
729605474.097832,-1.806406,-3.685552,46.588254,0.057892,-0.038208,1.005203,-0.026951,-0.024014,0.011119,58.805984,22.363113,-149.027191,,,
729605474.101048,-1.813046,-3.693103,46.591589,0.059799,-0.037933,0.999542,-0.026951,-0.024014,0.011119,58.877838,22.449997,-149.211807,,,
729605474.10452,-1.816625,-3.700308,46.594833,0.059799,-0.037933,0.999542,-0.013058,-0.015128,0.011202,58.877838,22.449997,-149.211807,,,
729605474.107881,-1.816625,-3.700308,46.594833,0.059799,-0.037933,0.999542,-0.013058,-0.015128,0.011202,58.877838,22.449997,-149.211807,,,
729605474.111149,-1.817856,-3.70489,46.598444,0.060638,-0.035858,1.002335,-0.013058,-0.015128,0.011202,58.877838,22.449997,-149.211807,,,
729605474.114481,-1.814628,-3.71186,46.602023,0.060638,-0.035858,1.002335,0.007894,-0.015045,0.012183,58.877838,22.449997,-149.211807,,,
729605474.117819,-1.814628,-3.71186,46.602023,0.060638,-0.035858,1.002335,0.007894,-0.015045,0.012183,58.877838,22.449997,-149.211807,,,
729605474.121222,-1.812059,-3.7196,46.60564,0.059418,-0.033798,0.999908,0.007894,-0.015045,0.012183,58.877838,22.449997,-149.211807,,,
729605474.124464,-1.80809,-3.73147,46.609043,0.059418,-0.033798,0.999908,0.011073,-0.037084,0.010434,58.877838,22.449997,-149.211807,,,
729605474.127828,-1.80809,-3.73147,46.609043,0.059418,-0.033798,0.999908,0.011073,-0.037084,0.010434,58.877838,22.449997,-149.211807,,,
729605474.131164,-1.807654,-3.743753,46.611893,0.061172,-0.032272,0.979614,0.011073,-0.037084,0.010434,58.877838,22.449997,-149.211807,,,
729605474.134313,-1.809767,-3.75689,46.614436,0.061172,-0.032272,0.979614,-0.008119,-0.040155,0.008259,58.877838,22.449997,-149.211807,,,
729605474.137843,-1.809767,-3.75689,46.614436,0.061172,-0.032272,0.979614,-0.008119,-0.040155,0.008259,58.877838,22.449997,-149.211807,,,
729605474.141135,-1.814407,-3.768595,46.616149,0.062393,-0.030609,0.979706,-0.008119,-0.040155,0.008259,58.703094,22.394241,-148.97522,,,
729605474.144477,-1.82116,-3.779105,46.616417,0.062393,-0.030609,0.979706,-0.021473,-0.032172,-0.001078,58.703094,22.394241,-148.97522,,,
729605474.147892,-1.82116,-3.779105,46.616417,0.062393,-0.030609,0.979706,-0.021473,-0.032172,-0.001078,58.703094,22.394241,-148.97522,,,
729605474.151148,-1.828672,-3.789314,46.615637,0.070831,-0.028625,0.984192,-0.021473,-0.032172,-0.001078,58.703094,22.394241,-148.97522,,,
729605474.154471,-1.837768,-3.799116,46.614196,0.070831,-0.028625,0.984192,-0.03358,-0.03077,-0.005851,58.703094,22.394241,-148.97522,,,
729605474.157929,-1.837768,-3.799116,46.614196,0.070831,-0.028625,0.984192,-0.03358,-0.03077,-0.005851,58.703094,22.394241,-148.97522,,,
729605474.161172,-1.847221,-3.808877,46.612129,0.076797,-0.029068,0.984787,-0.03358,-0.03077,-0.005851,58.703094,22.394241,-148.97522,,,
729605474.164474,-1.85705,-3.815735,46.60958,0.076797,-0.029068,0.984787,-0.02903,-0.023447,-0.009784,58.703094,22.394241,-148.97522,,,
729605474.167826,-1.85705,-3.815735,46.60958,0.076797,-0.029068,0.984787,-0.02903,-0.023447,-0.009784,58.703094,22.394241,-148.97522,,,
729605474.171136,-1.864357,-3.821294,46.606647,0.07225,-0.029312,0.994232,-0.02903,-0.023447,-0.009784,58.703094,22.394241,-148.97522,,,
729605474.17448,-1.870151,-3.822507,46.603511,0.07225,-0.029312,0.994232,-0.014725,-0.002107,-0.012061,58.703094,22.394241,-148.97522,,,
729605474.177829,-1.870151,-3.822507,46.603511,0.07225,-0.029312,0.994232,-0.014725,-0.002107,-0.012061,58.703094,22.394241,-148.97522,,,
729605474.181133,-1.872517,-3.823344,46.600417,0.069214,-0.033554,1.005417,-0.014725,-0.002107,-0.012061,58.703094,22.394241,-148.97522,,,
729605474.184468,-1.874498,-3.822243,46.598078,0.069214,-0.033554,1.005417,-0.004168,0.004774,-0.008327,58.664413,22.410278,-149.153854,,,
729605474.187802,-1.874498,-3.822243,46.598078,0.069214,-0.033554,1.005417,-0.004168,0.004774,-0.008327,58.664413,22.410278,-149.153854,,,
729605474.191149,-1.876278,-3.821174,46.596319,0.061829,-0.039169,0.994583,-0.004168,0.004774,-0.008327,58.664413,22.410278,-149.153854,,,
729605474.194477,-1.878913,-3.81787,46.594882,0.061829,-0.039169,0.994583,-0.005994,0.013385,-0.006943,58.664413,22.410278,-149.153854,,,
729605474.197906,-1.878913,-3.81787,46.594882,0.061829,-0.039169,0.994583,-0.005994,0.013385,-0.006943,58.664413,22.410278,-149.153854,,,
729605474.201152,-1.880755,-3.815445,46.593679,0.055725,-0.03685,0.990356,-0.005994,0.013385,-0.006943,58.664413,22.410278,-149.153854,,,
729605474.204479,-1.883002,-3.812574,46.592415,0.055725,-0.03685,0.990356,-0.008293,0.009254,-0.005313,58.664413,22.410278,-149.153854,,,
729605474.20782,-1.883002,-3.812574,46.592415,0.055725,-0.03685,0.990356,-0.008293,0.009254,-0.005313,58.664413,22.410278,-149.153854,,,
729605474.211241,-1.885498,-3.81135,46.591087,0.05986,-0.032837,0.989624,-0.008293,0.009254,-0.005313,58.664413,22.410278,-149.153854,,,
729605474.214471,-1.887206,-3.810045,46.590278,0.05986,-0.032837,0.989624,-0.004603,0.005529,-0.00457,58.664413,22.410278,-149.153854,,,
729605474.217824,-1.887206,-3.810045,46.590278,0.05986,-0.032837,0.989624,-0.004603,0.005529,-0.00457,58.664413,22.410278,-149.153854,,,
729605474.22115,-1.887368,-3.809596,46.589772,0.057968,-0.033524,0.991669,-0.004603,0.005529,-0.00457,58.664413,22.410278,-149.153854,,,
729605474.224469,-1.884967,-3.809955,46.589523,0.057968,-0.033524,0.991669,0.007292,0.001366,-0.005854,58.8078,22.50473,-148.968338,,,
729605474.227821,-1.884967,-3.809955,46.589523,0.057968,-0.033524,0.991669,0.007292,0.001366,-0.005854,58.8078,22.50473,-148.968338,,,
729605474.23115,-1.881641,-3.812091,46.589087,0.06105,-0.031097,0.99704,0.007292,0.001366,-0.005854,58.8078,22.50473,-148.968338,,,
729605474.234467,-1.876863,-3.816954,46.58835,0.06105,-0.031097,0.99704,0.016267,-0.008104,-0.004155,58.8078,22.50473,-148.968338,,,
729605474.237802,-1.876863,-3.816954,46.58835,0.06105,-0.031097,0.99704,0.016267,-0.008104,-0.004155,58.8078,22.50473,-148.968338,,,
729605474.241165,-1.871888,-3.819401,46.588453,0.063797,-0.033401,0.994141,0.016267,-0.008104,-0.004155,58.8078,22.50473,-148.968338,,,
729605474.244473,-1.866393,-3.820439,46.589539,0.063797,-0.033401,0.994141,0.017621,0.005988,0.003786,58.8078,22.50473,-148.968338,,,
729605474.247856,-1.866393,-3.820439,46.589539,0.063797,-0.033401,0.994141,0.017621,0.005988,0.003786,58.8078,22.50473,-148.968338,,,
729605474.251134,-1.862191,-3.817561,46.591415,0.062271,-0.037094,1.001221,0.017621,0.005988,0.003786,58.8078,22.50473,-148.968338,,,
729605474.254469,-1.85851,-3.814926,46.593807,0.062271,-0.037094,1.001221,0.013748,0.016336,0.007837,58.8078,22.50473,-148.968338,,,
