Time (sec),Pitch (deg),Roll (deg),Yaw(deg),X-Acceleration (g),Y-Acceleration (g),Z-Acceleration (g),Pitch Rate (deg/sec),Roll Rate (deg/sec),Yaw Rate (deg/sec),Magnetic Field in X direction (uT),Magnetic Field in Y direction (uT),Magnetic Field in Z Direction (uT),Latitude (deg),Longitude (deg),Altitude (m)
729608238.814461,1.850494,0.23916,58.199455,-0.01387,0.03244,0.996506,0.009435,-0.007948,-0.015351,61.073898,22.558884,-148.682434,,,
729608238.817787,1.852033,0.235484,58.196901,-0.013977,0.031418,0.995331,0.006863,-0.018592,-0.008678,61.073898,22.558884,-148.682434,,,
729608238.821113,1.852033,0.235484,58.196901,-0.013977,0.031418,0.995331,0.006863,-0.018592,-0.008678,61.073898,22.558884,-148.682434,,,
729608238.824481,1.85386,0.2293,58.194795,-0.013977,0.031418,0.995331,0.006863,-0.018592,-0.008678,61.073898,22.558884,-148.682434,,,
729608238.827775,1.855518,0.224279,58.193545,-0.012238,0.034027,0.994827,0.004617,-0.022248,-0.004686,61.073898,22.558884,-148.682434,,,
729608238.831184,1.855518,0.224279,58.193545,-0.012238,0.034027,0.994827,0.004617,-0.022248,-0.004686,61.073898,22.558884,-148.682434,,,
729608238.834453,1.857485,0.21682,58.193265,-0.012238,0.034027,0.994827,0.004617,-0.022248,-0.004686,61.12735,22.692688,-148.511047,,,
729608238.837786,1.859838,0.21039,58.193345,-0.00528,0.034348,0.99617,0.012452,-0.025371,-0.000386,61.12735,22.692688,-148.511047,,,
729608238.841127,1.859838,0.21039,58.193345,-0.00528,0.034348,0.99617,0.012452,-0.025371,-0.000386,61.12735,22.692688,-148.511047,,,
729608238.844529,1.864376,0.202774,58.193581,-0.00528,0.034348,0.99617,0.012452,-0.025371,-0.000386,61.12735,22.692688,-148.511047,,,
729608238.847774,1.870753,0.199171,58.194234,-0.004776,0.030457,1.001755,0.028622,-0.013147,0.005976,61.12735,22.692688,-148.511047,,,
729608238.851123,1.870753,0.199171,58.194234,-0.004776,0.030457,1.001755,0.028622,-0.013147,0.005976,61.12735,22.692688,-148.511047,,,
729608238.854332,1.880176,0.195898,58.196164,-0.004776,0.030457,1.001755,0.028622,-0.013147,0.005976,61.12735,22.692688,-148.511047,,,
729608238.857819,1.894364,0.197841,58.199064,-0.001968,0.028732,1.01355,0.055622,0.011317,0.010187,61.12735,22.692688,-148.511047,,,
729608238.861126,1.894364,0.197841,58.199064,-0.001968,0.028732,1.01355,0.055622,0.011317,0.010187,61.12735,22.692688,-148.511047,,,
729608238.864452,1.910319,0.200741,58.202505,-0.001968,0.028732,1.01355,0.055622,0.011317,0.010187,61.12735,22.692688,-148.511047,,,
729608238.867792,1.930731,0.207527,58.206636,0.001724,0.028641,1.013062,0.063137,0.023378,0.015753,61.12735,22.692688,-148.511047,,,
729608238.87111,1.930731,0.207527,58.206636,0.001724,0.028641,1.013062,0.063137,0.023378,0.015753,61.12735,22.692688,-148.511047,,,
729608238.874462,1.948579,0.214088,58.211582,0.001724,0.028641,1.013062,0.063137,0.023378,0.015753,61.337509,22.583054,-148.232834,,,
729608238.877783,1.966873,0.224825,58.21606,-0.001465,0.032516,0.998886,0.047674,0.037115,0.012794,61.337509,22.583054,-148.232834,,,
729608238.881165,1.966873,0.224825,58.21606,-0.001465,0.032516,0.998886,0.047674,0.037115,0.012794,61.337509,22.583054,-148.232834,,,
729608238.884455,1.979166,0.235115,58.220192,-0.001465,0.032516,0.998886,0.047674,0.037115,0.012794,61.337509,22.583054,-148.232834,,,
729608238.887764,1.987445,0.249038,58.224501,-0.001785,0.041534,0.990692,0.020399,0.044484,0.011697,61.337509,22.583054,-148.232834,,,
729608238.89113,1.987445,0.249038,58.224501,-0.001785,0.041534,0.990692,0.020399,0.044484,0.011697,61.337509,22.583054,-148.232834,,,
729608238.894544,1.991605,0.25951,58.228342,-0.001785,0.041534,0.990692,0.020399,0.044484,0.011697,61.337509,22.583054,-148.232834,,,
729608238.897772,1.991625,0.268704,58.230727,-0.000183,0.047302,0.980347,-0.000362,0.016345,0.006521,61.337509,22.583054,-148.232834,,,
729608238.901127,1.991625,0.268704,58.230727,-0.000183,0.047302,0.980347,-0.000362,0.016345,0.006521,61.337509,22.583054,-148.232834,,,
729608238.904451,1.990293,0.270917,58.231897,-0.000183,0.047302,0.980347,-0.000362,0.016345,0.006521,61.337509,22.583054,-148.232834,,,
729608238.907778,1.987637,0.270245,58.231187,0.001129,0.049011,0.972733,-0.009411,-0.020413,-0.010855,61.337509,22.583054,-148.232834,,,
729608238.911118,1.987637,0.270245,58.231187,0.001129,0.049011,0.972733,-0.009411,-0.020413,-0.010855,61.337509,22.583054,-148.232834,,,
729608238.914452,1.984311,0.262474,58.227588,0.001129,0.049011,0.972733,-0.009411,-0.020413,-0.010855,61.184937,22.510895,-148.077179,,,
729608238.917779,1.98021,0.250748,58.222226,0.00441,0.04393,0.975281,-0.013032,-0.051149,-0.019363,61.184937,22.510895,-148.077179,,,
729608238.92114,1.98021,0.250748,58.222226,0.00441,0.04393,0.975281,-0.013032,-0.051149,-0.019363,61.184937,22.510895,-148.077179,,,
729608238.924454,1.975143,0.235714,58.217077,0.00441,0.04393,0.975281,-0.013032,-0.051149,-0.019363,61.184937,22.510895,-148.077179,,,
729608238.927789,1.968798,0.221163,58.213479,0.003525,0.031982,0.980164,-0.019695,-0.040014,-0.008578,61.184937,22.510895,-148.077179,,,
729608238.931183,1.968798,0.221163,58.213479,0.003525,0.031982,0.980164,-0.019695,-0.040014,-0.008578,61.184937,22.510895,-148.077179,,,
729608238.934469,1.963033,0.210031,58.212411,0.003525,0.031982,0.980164,-0.019695,-0.040014,-0.008578,61.184937,22.510895,-148.077179,,,
729608238.937793,1.957038,0.203376,58.212714,0.003769,0.025085,0.996201,-0.013135,-0.011265,0.001714,61.184937,22.510895,-148.077179,,,
729608238.94113,1.957038,0.203376,58.212714,0.003769,0.025085,0.996201,-0.013135,-0.011265,0.001714,61.184937,22.510895,-148.077179,,,
729608238.944536,1.953553,0.200635,58.213894,0.003769,0.025085,0.996201,-0.013135,-0.011265,0.001714,61.184937,22.510895,-148.077179,,,
729608238.947814,1.953553,0.200635,58.213894,0.003769,0.025085,0.996201,-0.013135,-0.011265,0.001714,61.184937,22.510895,-148.077179,,,
729608238.951124,1.950906,0.200488,58.215442,0.011581,0.027145,1.004913,0.002043,0.015677,0.001645,61.184937,22.510895,-148.077179,,,
729608238.954511,1.952033,0.204887,58.215986,0.011581,0.027145,1.004913,0.002043,0.015677,0.001645,61.184937,22.510895,-148.077179,,,
729608238.957777,1.954348,0.210938,58.216062,0.012848,0.031464,1.002914,0.016947,0.03318,-0.004588,61.103836,22.426422,-148.197937,,,
729608238.961137,1.954348,0.210938,58.216062,0.012848,0.031464,1.002914,0.016947,0.03318,-0.004588,61.103836,22.426422,-148.197937,,,
729608238.964461,1.958805,0.220363,58.215487,0.012848,0.031464,1.002914,0.016947,0.03318,-0.004588,61.103836,22.426422,-148.197937,,,
729608238.967772,1.964502,0.231674,58.214178,0.011337,0.035538,0.995071,0.01593,0.046803,-0.004225,61.103836,22.426422,-148.197937,,,
729608238.971113,1.964502,0.231674,58.214178,0.011337,0.035538,0.995071,0.01593,0.046803,-0.004225,61.103836,22.426422,-148.197937,,,
729608238.974471,1.967982,0.244612,58.213099,0.011337,0.035538,0.995071,0.01593,0.046803,-0.004225,61.103836,22.426422,-148.197937,,,
729608238.977775,1.972443,0.257365,58.212546,0.012009,0.043213,0.988571,0.002376,0.048151,-0.005492,61.103836,22.426422,-148.197937,,,
729608238.98121,1.972443,0.257365,58.212546,0.012009,0.043213,0.988571,0.002376,0.048151,-0.005492,61.103836,22.426422,-148.197937,,,
729608238.984456,1.971873,0.269832,58.211802,0.012009,0.043213,0.988571,0.002376,0.048151,-0.005492,61.103836,22.426422,-148.197937,,,
729608238.98779,1.970661,0.278801,58.21035,0.006989,0.048935,0.974457,-0.024835,0.030494,-0.007423,61.103836,22.426422,-148.197937,,,
729608238.991156,1.970661,0.278801,58.21035,0.006989,0.048935,0.974457,-0.024835,0.030494,-0.007423,61.103836,22.426422,-148.197937,,,
729608238.994505,1.962078,0.286002,58.207393,0.006989,0.048935,0.974457,-0.024835,0.030494,-0.007423,61.103836,22.426422,-148.197937,,,
729608238.997772,1.952433,0.286843,58.202969,0.000305,0.049377,0.966705,-0.051384,-0.002239,-0.021798,61.117401,22.442429,-148.522766,,,
729608239.001136,1.952433,0.286843,58.202969,0.000305,0.049377,0.966705,-0.051384,-0.002239,-0.021798,61.117401,22.442429,-148.522766,,,
729608239.004458,1.936046,0.284625,58.19769,0.000305,0.049377,0.966705,-0.051384,-0.002239,-0.021798,61.117401,22.442429,-148.522766,,,
729608239.007774,1.916671,0.274567,58.191942,0.000122,0.046432,0.964264,-0.078856,-0.037258,-0.02293,61.117401,22.442429,-148.522766,,,
729608239.011121,1.916671,0.274567,58.191942,0.000122,0.046432,0.964264,-0.078856,-0.037258,-0.02293,61.117401,22.442429,-148.522766,,,
729608239.014462,1.89305,0.261821,58.18544,0.000122,0.046432,0.964264,-0.078856,-0.037258,-0.02293,61.117401,22.442429,-148.522766,,,
729608239.017778,1.864896,0.244007,58.178637,-0.001617,0.041611,0.967514,-0.101398,-0.06185,-0.024567,61.117401,22.442429,-148.522766,,,
729608239.021111,1.864896,0.244007,58.178637,-0.001617,0.041611,0.967514,-0.101398,-0.06185,-0.024567,61.117401,22.442429,-148.522766,,,
729608239.024493,1.834441,0.22545,58.171967,-0.001617,0.041611,0.967514,-0.101398,-0.06185,-0.024567,61.117401,22.442429,-148.522766,,,
729608239.027809,1.800236,0.203603,58.165977,-0.004318,0.036621,0.975143,-0.122208,-0.066835,-0.019441,61.117401,22.442429,-148.522766,,,
729608239.031217,1.800236,0.203603,58.165977,-0.004318,0.036621,0.975143,-0.122208,-0.066835,-0.019441,61.117401,22.442429,-148.522766,,,
729608239.034466,1.764251,0.183774,58.161394,-0.004318,0.036621,0.975143,-0.122208,-0.066835,-0.019441,61.117401,22.442429,-148.522766,,,
729608239.037791,1.726639,0.163637,58.158347,-0.005493,0.031311,0.98468,-0.13023,-0.056187,-0.010704,61.032211,22.571716,-148.066116,,,
729608239.041123,1.726639,0.163637,58.158347,-0.005493,0.031311,0.98468,-0.13023,-0.056187,-0.010704,61.032211,22.571716,-148.066116,,,
729608239.044518,1.689332,0.146297,58.156361,-0.005493,0.031311,0.98468,-0.13023,-0.056187,-0.010704,61.032211,22.571716,-148.066116,,,
729608239.047783,1.654061,0.126733,58.15588,-0.00354,0.02449,0.998917,-0.11873,-0.058936,-0.000316,61.032211,22.571716,-148.066116,,,
729608239.051126,1.654061,0.126733,58.15588,-0.00354,0.02449,0.998917,-0.11873,-0.058936,-0.000316,61.032211,22.571716,-148.066116,,,
729608239.054536,1.620411,0.109,58.156254,-0.00354,0.02449,0.998917,-0.11873,-0.058936,-0.000316,61.032211,22.571716,-148.066116,,,
729608239.05778,1.5908,0.090319,58.156839,-0.00354,0.021988,1.004654,-0.094901,-0.05379,-0.000383,61.032211,22.571716,-148.066116,,,
729608239.061132,1.5908,0.090319,58.156839,-0.00354,0.021988,1.004654,-0.094901,-0.05379,-0.000383,61.032211,22.571716,-148.066116,,,
729608239.064454,1.563566,0.074543,58.157479,-0.00354,0.021988,1.004654,-0.094901,-0.05379,-0.000383,61.032211,22.571716,-148.066116,,,
729608239.067787,1.543794,0.058388,58.158432,-0.005798,0.02327,1.016739,-0.065608,-0.043162,0.002546,61.032211,22.571716,-148.066116,,,
729608239.071116,1.543794,0.058388,58.158432,-0.005798,0.02327,1.016739,-0.065608,-0.043162,0.002546,61.032211,22.571716,-148.066116,,,
729608239.074465,1.52482,0.046295,58.159389,-0.005798,0.02327,1.016739,-0.065608,-0.043162,0.002546,61.032211,22.571716,-148.066116,,,
729608239.077841,1.52482,0.046295,58.159389,-0.006317,0.025375,1.030228,-0.039958,-0.018712,0.001296,61.04451,22.801132,-148.46727,,,
729608239.08119,1.515373,0.036152,58.160203,-0.006317,0.025375,1.030228,-0.039958,-0.018712,0.001296,61.04451,22.801132,-148.46727,,,
729608239.084458,1.504193,0.031052,58.161007,-0.006317,0.025375,1.030228,-0.039958,-0.018712,0.001296,61.04451,22.801132,-148.46727,,,
729608239.087788,1.500196,0.031047,58.160972,-0.005814,0.026367,1.032715,-0.027362,0.016988,-0.002659,61.04451,22.801132,-148.46727,,,
729608239.091121,1.500196,0.031047,58.160972,-0.005814,0.026367,1.032715,-0.027362,0.016988,-0.002659,61.04451,22.801132,-148.46727,,,
729608239.094525,1.493096,0.035264,58.159988,-0.005814,0.026367,1.032715,-0.027362,0.016988,-0.002659,61.04451,22.801132,-148.46727,,,
729608239.097775,1.490537,0.042704,58.159174,-0.007385,0.023941,1.027359,-0.020912,0.038104,-0.005598,61.04451,22.801132,-148.46727,,,
729608239.101127,1.490537,0.042704,58.159174,-0.007385,0.023941,1.027359,-0.020912,0.038104,-0.005598,61.04451,22.801132,-148.46727,,,
729608239.104443,1.484813,0.051664,58.158806,-0.007385,0.023941,1.027359,-0.020912,0.038104,-0.005598,61.04451,22.801132,-148.46727,,,
729608239.10778,1.481134,0.060545,58.158999,-0.014008,0.019379,1.016891,-0.021474,0.028719,0.001189,61.04451,22.801132,-148.46727,,,
729608239.111112,1.481134,0.060545,58.158999,-0.014008,0.019379,1.016891,-0.021474,0.028719,0.001189,61.04451,22.801132,-148.46727,,,
729608239.114444,1.474811,0.067455,58.159968,-0.014008,0.019379,1.016891,-0.021474,0.028719,0.001189,61.04451,22.801132,-148.46727,,,
729608239.117835,1.469451,0.07372,58.16161,-0.018005,0.020645,1.006241,-0.024158,0.019212,0.003935,61.04451,22.801132,-148.46727,,,
729608239.121106,1.469451,0.07372,58.16161,-0.018005,0.020645,1.006241,-0.024158,0.019212,0.003935,61.010315,22.790375,-148.066788,,,
729608239.124446,1.462564,0.07727,58.164188,-0.018005,0.020645,1.006241,-0.024158,0.019212,0.003935,61.010315,22.790375,-148.066788,,,
729608239.127783,1.45587,0.07947,58.16737,-0.015366,0.018463,1.003952,-0.024957,0.005941,0.008118,61.010315,22.790375,-148.066788,,,
729608239.131167,1.45587,0.07947,58.16737,-0.015366,0.018463,1.003952,-0.024957,0.005941,0.008118,61.010315,22.790375,-148.066788,,,
729608239.134449,1.449241,0.079522,58.170693,-0.015366,0.018463,1.003952,-0.024957,0.005941,0.008118,61.010315,22.790375,-148.066788,,,
729608239.137789,1.443247,0.077619,58.17476,-0.013336,0.019226,0.999573,-0.01579,-0.00973,0.014425,61.010315,22.790375,-148.066788,,,
729608239.141119,1.443247,0.077619,58.17476,-0.013336,0.019226,0.999573,-0.01579,-0.00973,0.014425,61.010315,22.790375,-148.066788,,,
729608239.144532,1.438743,0.073085,58.179948,-0.013336,0.019226,0.999573,-0.01579,-0.00973,0.014425,61.010315,22.790375,-148.066788,,,
729608239.147775,1.434672,0.067938,58.185801,-0.012939,0.015579,0.999451,-0.007642,-0.021217,0.02315,61.010315,22.790375,-148.066788,,,
729608239.151133,1.434672,0.067938,58.185801,-0.012939,0.015579,0.999451,-0.007642,-0.021217,0.02315,61.010315,22.790375,-148.066788,,,
729608239.154449,1.432872,0.060966,58.192747,-0.012939,0.015579,0.999451,-0.007642,-0.021217,0.02315,61.010315,22.790375,-148.066788,,,
729608239.157788,1.433463,0.053023,58.201385,-0.009689,0.011978,1.000381,0.01406,-0.034554,0.033831,61.010315,22.790375,-148.066788,,,
729608239.161211,1.433463,0.053023,58.201385,-0.009689,0.011978,1.000381,0.01406,-0.034554,0.033831,60.798676,22.928497,-148.090195,,,
729608239.164451,1.438176,0.04102,58.210963,-0.009689,0.011978,1.000381,0.01406,-0.034554,0.033831,60.798676,22.928497,-148.090195,,,
729608239.167784,1.447278,0.027724,58.220149,-0.000244,0.012131,1.000549,0.041541,-0.048694,0.026713,60.798676,22.928497,-148.090195,,,
729608239.171112,1.447278,0.027724,58.220149,-0.000244,0.012131,1.000549,0.041541,-0.048694,0.026713,60.798676,22.928497,-148.090195,,,
729608239.174442,1.459558,0.012057,58.227877,-0.000244,0.012131,1.000549,0.041541,-0.048694,0.026713,60.798676,22.928497,-148.090195,,,
729608239.177776,1.474289,-0.001953,58.23379,0.009644,0.021362,0.998932,0.05612,-0.047019,0.013094,60.798676,22.928497,-148.090195,,,
729608239.181212,1.474289,-0.001953,58.23379,0.009644,0.021362,0.998932,0.05612,-0.047019,0.013094,60.798676,22.928497,-148.090195,,,
729608239.184464,1.490539,-0.015268,58.238024,0.009644,0.021362,0.998932,0.05612,-0.047019,0.013094,60.798676,22.928497,-148.090195,,,
729608239.187787,1.50542,-0.021435,58.240764,0.016129,0.029129,0.998901,0.056915,-0.015783,0.006922,60.798676,22.928497,-148.090195,,,
729608239.191185,1.50542,-0.021435,58.240764,0.016129,0.029129,0.998901,0.056915,-0.015783,0.006922,60.798676,22.928497,-148.090195,,,
729608239.194509,1.52097,-0.025613,58.243367,0.016129,0.029129,0.998901,0.056915,-0.015783,0.006922,60.798676,22.928497,-148.090195,,,
729608239.197821,1.533936,-0.021701,58.246518,0.020126,0.032806,0.99585,0.046409,0.016032,0.010736,60.798676,22.928497,-148.090195,,,
729608239.201114,1.533936,-0.021701,58.246518,0.020126,0.032806,0.99585,0.046409,0.016032,0.010736,60.808014,22.768219,-148.293716,,,
729608239.204446,1.54643,-0.017431,58.250617,0.020126,0.032806,0.99585,0.046409,0.016032,0.010736,60.808014,22.768219,-148.293716,,,
729608239.20778,1.553799,-0.004565,58.255302,0.015701,0.030807,0.985321,0.023473,0.045365,0.017446,60.808014,22.768219,-148.293716,,,
729608239.211141,1.553799,-0.004565,58.255302,0.015701,0.030807,0.985321,0.023473,0.045365,0.017446,60.808014,22.768219,-148.293716,,,
729608239.214449,1.559287,0.008284,58.260715,0.015701,0.030807,0.985321,0.023473,0.045365,0.017446,60.808014,22.768219,-148.293716,,,
729608239.217772,1.559287,0.008284,58.260715,0.01207,0.035431,0.978989,-0.001639,0.063552,0.013797,60.808014,22.768219,-148.293716,,,
729608239.221178,1.559268,0.027812,58.265714,0.01207,0.035431,0.978989,-0.001639,0.063552,0.013797,60.808014,22.768219,-148.293716,,,
729608239.224434,1.557456,0.045444,58.270551,0.01207,0.035431,0.978989,-0.001639,0.063552,0.013797,60.808014,22.768219,-148.293716,,,
729608239.2278,1.557456,0.045444,58.275531,0.008087,0.038712,0.974304,-0.021711,0.057614,0.016441,60.808014,22.768219,-148.293716,,,
729608239.231195,1.55117,0.065024,58.275531,0.008087,0.038712,0.974304,-0.021711,0.057614,0.016441,60.808014,22.768219,-148.293716,,,
729608239.234469,1.545175,0.079926,58.280883,0.008087,0.038712,0.974304,-0.021711,0.057614,0.016441,60.808014,22.768219,-148.293716,,,
729608239.237887,1.535862,0.094131,58.286986,-0.000839,0.034393,0.973343,-0.02286,0.030475,0.0214,60.808014,22.768219,-148.293716,,,
729608239.241102,1.535862,0.094131,58.286986,-0.000839,0.034393,0.973343,-0.02286,0.030475,0.0214,61.046997,22.819656,-148.063278,,,
729608239.244512,1.530476,0.100867,58.293367,-0.000839,0.034393,0.973343,-0.02286,0.030475,0.0214,61.046997,22.819656,-148.063278,,,
729608239.24778,1.530476,0.100867,58.293367,-0.000839,0.028366,0.975632,-0.00413,-0.013459,0.017307,61.046997,22.819656,-148.063278,,,
729608239.251125,1.523487,0.101965,58.299319,-0.002701,0.028366,0.975632,-0.00413,-0.013459,0.017307,61.046997,22.819656,-148.063278,,,
729608239.254444,1.522933,0.095532,58.304681,-0.002701,0.028366,0.975632,-0.00413,-0.013459,0.017307,61.046997,22.819656,-148.063278,,,
729608239.25786,1.522933,0.095532,58.304681,-0.002701,0.028366,0.975632,0.016902,-0.046014,0.013689,61.046997,22.819656,-148.063278,,,
729608239.261184,1.523455,0.082041,58.30939,-0.003372,0.022537,0.979446,0.016902,-0.046014,0.013689,61.046997,22.819656,-148.063278,,,
729608239.264463,1.528548,0.067778,58.312888,-0.003372,0.022537,0.979446,0.016902,-0.046014,0.013689,61.046997,22.819656,-148.063278,,,
729608239.267781,1.528548,0.067778,58.312888,-0.003372,0.022537,0.979446,0.016902,-0.046014,0.013689,61.046997,22.819656,-148.063278,,,
729608239.271114,1.536739,0.048725,58.315251,0.00705,0.024063,0.988205,0.036977,-0.051899,0.004713,61.046997,22.819656,-148.063278,,,
729608239.274444,1.547474,0.033463,58.317285,0.00705,0.024063,0.988205,0.036977,-0.051899,0.004713,61.046997,22.819656,-148.063278,,,
729608239.277827,1.547474,0.033463,58.317285,0.00705,0.024063,0.988205,0.036977,-0.051899,0.004713,61.046997,22.819656,-148.063278,,,
729608239.281128,1.561579,0.016014,58.319501,0.012207,0.025421,0.996048,0.046432,-0.030476,0.007012,61.046997,22.819656,-148.063278,,,
729608239.284444,1.575071,0.007963,58.321709,0.012207,0.025421,0.996048,0.046432,-0.030476,0.007012,60.812469,22.777237,-148.095764,,,
729608239.28783,1.575071,0.007963,58.321709,0.012207,0.025421,0.996048,0.046432,-0.030476,0.007012,60.812469,22.777237,-148.095764,,,
729608239.291121,1.588196,0.002702,58.324834,0.014313,0.028046,0.995209,0.040996,0.02089,0.011996,60.812469,22.777237,-148.095764,,,
729608239.294466,1.598918,0.009642,58.328994,0.014313,0.028046,0.995209,0.040996,0.02089,0.011996,60.812469,22.777237,-148.095764,,,
729608239.297865,1.598918,0.009642,58.328994,0.014313,0.028046,0.995209,0.040996,0.02089,0.011996,60.812469,22.777237,-148.095764,,,
729608239.301124,1.60842,0.02167,58.3334,0.01738,0.033875,0.998825,0.022923,0.074887,0.014292,60.812469,22.777237,-148.095764,,,
729608239.304445,1.613832,0.043188,58.337585,0.01738,0.033875,0.998825,0.022923,0.074887,0.014292,60.812469,22.777237,-148.095764,,,
729608239.30782,1.613832,0.043188,58.337585,0.01738,0.033875,0.998825,0.005852,0.09485,0.013768,60.812469,22.777237,-148.095764,,,
729608239.311176,1.61929,0.065257,58.342124,0.014816,0.039764,0.99025,0.005852,0.09485,0.013768,60.812469,22.777237,-148.095764,,,
729608239.314459,1.620164,0.091572,58.346108,0.014816,0.039764,0.99025,0.005852,0.09485,0.013768,60.812469,22.777237,-148.095764,,,
729608239.317821,1.620164,0.091572,58.346108,0.014816,0.039764,0.99025,0.005852,0.09485,0.013768,60.812469,22.777237,-148.095764,,,
729608239.321108,1.62016,0.117341,58.348721,0.011551,0.041962,0.982346,-0.011946,0.092653,0.000532,60.812469,22.777237,-148.095764,,,
729608239.324478,1.615828,0.142167,58.34959,0.011551,0.041962,0.982346,-0.011946,0.092653,0.000532,60.904388,22.790848,-148.35408,,,
729608239.327819,1.615828,0.142167,58.34959,0.011551,0.041962,0.982346,-0.011946,0.092653,0.000532,60.904388,22.790848,-148.35408,,,
729608239.331126,1.609176,0.163701,58.348149,0.006485,0.042816,0.975586,-0.029521,0.067312,-0.012654,60.904388,22.790848,-148.35408,,,
729608239.334441,1.599215,0.180858,58.345006,0.006485,0.042816,0.975586,-0.029521,0.067312,-0.012654,60.904388,22.790848,-148.35408,,,
729608239.33784,1.599215,0.180858,58.345006,0.006485,0.042816,0.975586,-0.029521,0.067312,-0.012654,60.904388,22.790848,-148.35408,,,
729608239.341139,1.587001,0.193224,58.340545,0.001572,0.038818,0.972076,-0.042306,0.032384,-0.020717,60.904388,22.790848,-148.35408,,,
729608239.34444,1.574444,0.200816,58.334879,0.001572,0.038818,0.972076,-0.042306,0.032384,-0.020717,60.904388,22.790848,-148.35408,,,
729608239.347825,1.574444,0.200816,58.334879,0.001572,0.038818,0.972076,-0.042306,0.032384,-0.020717,60.904388,22.790848,-148.35408,,,
729608239.351121,1.562094,0.203007,58.329287,-0.001511,0.033447,0.976608,-0.033794,0.002986,-0.02111,60.904388,22.790848,-148.35408,,,
729608239.354441,1.552604,0.202378,58.324448,-0.001511,0.033447,0.976608,-0.033794,0.002986,-0.02111,60.904388,22.790848,-148.35408,,,
729608239.357842,1.552604,0.202378,58.324448,-0.001511,0.033447,0.976608,-0.033794,0.002986,-0.02111,60.904388,22.790848,-148.35408,,,
729608239.361205,1.546844,0.196936,58.321036,-0.005905,0.024567,0.993637,-0.005828,-0.014162,-0.010113,60.904388,22.790848,-148.35408,,,
729608239.364447,1.546453,0.191972,58.318951,-0.005905,0.024567,0.993637,-0.005828,-0.014162,-0.010113,60.818527,22.813797,-148.151657,,,
729608239.367841,1.546453,0.191972,58.318951,-0.005905,0.024567,0.993637,-0.005828,-0.014162,-0.010113,60.818527,22.813797,-148.151657,,,
729608239.37111,1.551057,0.183802,58.318908,-0.007156,0.012772,1.013138,0.027338,-0.017317,0.005981,60.818527,22.813797,-148.151657,,,
729608239.374474,1.559555,0.177829,58.321345,-0.007156,0.012772,1.013138,0.027338,-0.017317,0.005981,60.818527,22.813797,-148.151657,,,
729608239.377832,1.559555,0.177829,58.321345,-0.007156,0.012772,1.013138,0.027338,-0.017317,0.005981,60.818527,22.813797,-148.151657,,,
729608239.381118,1.570603,0.169934,58.32506,-0.00238,0.009476,1.016006,0.037641,-0.002007,0.012038,60.818527,22.813797,-148.151657,,,
729608239.384447,1.581442,0.169108,58.328498,-0.00238,0.009476,1.016006,0.037641,-0.002007,0.012038,60.818527,22.813797,-148.151657,,,
729608239.387826,1.581442,0.169108,58.328498,-0.00238,0.009476,1.016006,0.037641,-0.002007,0.012038,60.818527,22.813797,-148.151657,,,
729608239.391115,1.593188,0.168076,58.331081,0.006241,0.022614,1.011765,0.027947,0.025243,0.003038,60.818527,22.813797,-148.151657,,,
729608239.394449,1.600416,0.17474,58.331795,0.006241,0.022614,1.011765,0.027947,0.025243,0.003038,60.818527,22.813797,-148.151657,,,
729608239.397876,1.600416,0.17474,58.331795,0.006241,0.022614,1.011765,0.027947,0.025243,0.003038,60.818527,22.813797,-148.151657,,,
729608239.401125,1.608316,0.180463,58.331015,0.012817,0.034805,1.009995,0.009151,0.044146,-0.010983,60.818527,22.813797,-148.151657,,,
729608239.404442,1.610178,0.192825,58.328231,0.012817,0.034805,1.009995,0.009151,0.044146,-0.010983,60.911697,22.758362,-148.109268,,,
729608239.407829,1.610178,0.192825,58.328231,0.012817,0.034805,1.009995,0.009151,0.044146,-0.010983,60.911697,22.758362,-148.109268,,,
729608239.411167,1.611907,0.205718,58.323459,0.009094,0.035355,1.005524,-0.015288,0.067817,-0.024772,60.911697,22.758362,-148.109268,,,
729608239.414443,1.606875,0.224431,58.31734,0.009094,0.035355,1.005524,-0.015288,0.067817,-0.024772,60.911697,22.758362,-148.109268,,,
729608239.417791,1.606875,0.224431,58.31734,0.009094,0.035355,1.005524,-0.015288,0.067817,-0.024772,60.911697,22.758362,-148.109268,,,
729608239.421129,1.601817,0.2426,58.310875,0.00499,0.030777,1.005295,-0.034467,0.073559,-0.025204,60.911697,22.758362,-148.109268,,,
729608239.424445,1.591263,0.261464,58.304178,0.00499,0.030777,1.005295,-0.034467,0.073559,-0.025204,60.911697,22.758362,-148.109268,,,
729608239.427799,1.591263,0.261464,58.304178,0.00499,0.030777,1.005295,-0.034467,0.073559,-0.025204,60.911697,22.758362,-148.109268,,,
729608239.431158,1.581295,0.276832,58.297486,-0.004501,0.025269,0.999588,-0.044903,0.05163,-0.022816,60.911697,22.758362,-148.109268,,,
729608239.434509,1.568882,0.290004,58.291206,-0.004501,0.025269,0.999588,-0.044903,0.05163,-0.022816,60.911697,22.758362,-148.109268,,,
729608239.437786,1.568882,0.290004,58.291206,-0.004501,0.025269,0.999588,-0.044903,0.05163,-0.022816,60.911697,22.758362,-148.109268,,,
729608239.44113,1.557307,0.299754,58.284852,-0.011002,0.019913,1.003769,-0.035343,0.0289,-0.022369,60.911697,22.758362,-148.109268,,,
729608239.444454,1.5469,0.306388,58.278381,-0.011002,0.019913,1.003769,-0.035343,0.0289,-0.022369,60.911697,22.758362,-148.109268,,,
729608239.447846,1.5469,0.306388,58.278381,-0.011002,0.019913,1.003769,-0.035343,0.0289,-0.022369,60.792191,22.920288,-147.994247,,,
729608239.45115,1.537662,0.310139,58.272808,-0.013916,0.011002,1.007278,-0.01086,0.006398,-0.015065,60.792191,22.920288,-147.994247,,,
729608239.454449,1.535666,0.310654,58.268899,-0.013916,0.011002,1.007278,-0.01086,0.006398,-0.015065,60.792191,22.920288,-147.994247,,,
729608239.457795,1.535666,0.310654,58.268899,-0.013916,0.011002,1.007278,-0.01086,0.006398,-0.015065,60.792191,22.920288,-147.994247,,,
729608239.461187,1.535571,0.308468,58.266485,-0.016968,0.002136,1.016754,0.03004,-0.009151,-0.006743,60.792191,22.920288,-147.994247,,,
729608239.464457,1.544947,0.304534,58.26501,-0.016968,0.002136,1.016754,0.03004,-0.009151,-0.006743,60.792191,22.920288,-147.994247,,,
729608239.467801,1.544947,0.304534,58.26501,-0.016968,0.002136,1.016754,0.03004,-0.009151,-0.006743,60.792191,22.920288,-147.994247,,,
729608239.471156,1.556178,0.29776,58.26372,-0.00856,-9.2e-05,1.020554,0.055044,-0.015972,-0.009511,60.792191,22.920288,-147.994247,,,
729608239.474439,1.571443,0.293315,58.261409,-0.00856,-9.2e-05,1.020554,0.055044,-0.015972,-0.009511,60.792191,22.920288,-147.994247,,,
729608239.477788,1.571443,0.293315,58.261409,-0.00856,-9.2e-05,1.020554,0.055044,-0.015972,-0.009511,60.792191,22.920288,-147.994247,,,
729608239.48113,1.588204,0.287083,58.257319,-0.000275,0.013031,1.008331,0.055071,0.00273,-0.020608,60.792191,22.920288,-147.994247,,,
729608239.484443,1.603274,0.287922,58.251643,-0.000275,0.013031,1.008331,0.055071,0.00273,-0.020608,60.792191,22.920288,-147.994247,,,
729608239.487786,1.603274,0.287922,58.251643,-0.000275,0.013031,1.008331,0.055071,0.00273,-0.020608,60.765823,22.816757,-148.314987,,,
729608239.491132,1.617986,0.287828,58.245329,0.008438,0.027786,0.99884,0.03674,0.02066,-0.02491,60.765823,22.816757,-148.314987,,,
729608239.49444,1.627453,0.293188,58.2387,0.008438,0.027786,0.99884,0.03674,0.02066,-0.02491,60.765823,22.816757,-148.314987,,,
729608239.497835,1.627453,0.293188,58.2387,0.008438,0.027786,0.99884,0.03674,0.02066,-0.02491,60.765823,22.816757,-148.314987,,,
729608239.50112,1.633679,0.297526,58.2328,0.011887,0.031845,0.982986,0.009471,0.031428,-0.023187,60.765823,22.816757,-148.314987,,,
729608239.504455,1.634362,0.306455,58.226653,0.011887,0.031845,0.982986,0.009471,0.031428,-0.023187,60.765823,22.816757,-148.314987,,,
729608239.507798,1.634362,0.306455,58.226653,0.011887,0.031845,0.982986,0.009471,0.031428,-0.023187,60.765823,22.816757,-148.314987,,,
729608239.511178,1.63029,0.315413,58.219557,0.013809,0.034119,0.972687,-0.021902,0.037734,-0.028131,60.765823,22.816757,-148.314987,,,
729608239.514448,1.623008,0.325712,58.211137,0.013809,0.034119,0.972687,-0.021902,0.037734,-0.028131,60.765823,22.816757,-148.314987,,,
729608239.517804,1.623008,0.325712,58.211137,0.013809,0.034119,0.972687,-0.021902,0.037734,-0.028131,60.765823,22.816757,-148.314987,,,
729608239.521114,1.611476,0.336753,58.20186,0.015915,0.040253,0.971695,-0.041742,0.035424,-0.035867,60.765823,22.816757,-148.314987,,,
729608239.524455,1.598944,0.346135,58.192414,0.015915,0.040253,0.971695,-0.041742,0.035424,-0.035867,60.765823,22.816757,-148.314987,,,
729608239.527777,1.598944,0.346135,58.192414,0.015915,0.040253,0.971695,-0.041742,0.035424,-0.035867,60.842041,22.791245,-147.956757,,,
729608239.531125,1.583505,0.356325,58.183301,0.007202,0.034897,0.972794,-0.043201,0.028831,-0.030698,60.842041,22.791245,-147.956757,,,
729608239.534441,1.57118,0.363357,58.175583,0.007202,0.034897,0.972794,-0.043201,0.028831,-0.030698,60.842041,22.791245,-147.956757,,,
729608239.537781,1.57118,0.363357,58.175583,0.007202,0.034897,0.972794,-0.043201,0.028831,-0.030698,60.842041,22.791245,-147.956757,,,
729608239.541124,1.554618,0.371494,58.169009,0.004715,0.025375,0.979904,-0.041478,0.023233,-0.022417,60.842041,22.791245,-147.956757,,,
729608239.544445,1.54329,0.377038,58.163546,0.004715,0.025375,0.979904,-0.041478,0.023233,-0.022417,60.842041,22.791245,-147.956757,,,
729608239.547885,1.54329,0.377038,58.163546,0.004715,0.025375,0.979904,-0.041478,0.023233,-0.022417,60.842041,22.791245,-147.956757,,,
729608239.551129,1.526931,0.383697,58.1596,0.006897,0.025406,0.987976,-0.033603,0.018577,-0.010556,60.842041,22.791245,-147.956757,,,
729608239.554455,1.517463,0.387941,58.157282,0.006897,0.025406,0.987976,-0.033603,0.018577,-0.010556,60.842041,22.791245,-147.956757,,,
729608239.557798,1.517463,0.387941,58.157282,0.006897,0.025406,0.987976,-0.033603,0.018577,-0.010556,60.842041,22.791245,-147.956757,,,
729608239.561188,1.50468,0.388588,58.156072,0.004639,0.027786,0.989441,-0.027104,-9.1e-05,-0.002038,60.842041,22.791245,-147.956757,,,
729608239.56444,1.496461,0.386232,58.155955,0.004639,0.027786,0.989441,-0.027104,-9.1e-05,-0.002038,60.842041,22.791245,-147.956757,,,
729608239.567781,1.496461,0.386232,58.155955,0.004639,0.027786,0.989441,-0.027104,-9.1e-05,-0.002038,61.092224,22.893585,-148.055527,,,
729608239.571142,1.48754,0.376196,58.156221,0.001083,0.03215,0.990143,-0.030505,-0.032045,-0.003,61.092224,22.893585,-148.055527,,,
729608239.574449,1.478405,0.364796,58.155305,0.001083,0.03215,0.990143,-0.030505,-0.032045,-0.003,61.092224,22.893585,-148.055527,,,
729608239.577793,1.478405,0.364796,58.155305,0.001083,0.03215,0.990143,-0.030505,-0.032045,-0.003,61.092224,22.893585,-148.055527,,,
729608239.581207,1.469101,0.345794,58.152609,0.006546,0.040085,0.990555,-0.037939,-0.061304,-0.015968,61.092224,22.893585,-148.055527,,,
729608239.584448,1.457331,0.327475,58.147531,0.006546,0.040085,0.990555,-0.037939,-0.061304,-0.015968,61.092224,22.893585,-148.055527,,,
729608239.587805,1.457331,0.327475,58.147531,0.006546,0.040085,0.990555,-0.037939,-0.061304,-0.015968,61.092224,22.893585,-148.055527,,,
729608239.591147,1.446046,0.301573,58.140307,0.011581,0.044388,0.99617,-0.045827,-0.079638,-0.032706,61.092224,22.893585,-148.055527,,,
729608239.59445,1.432335,0.277193,58.130788,0.011581,0.044388,0.99617,-0.045827,-0.079638,-0.032706,61.092224,22.893585,-148.055527,,,
729608239.59778,1.432335,0.277193,58.130788,0.011581,0.044388,0.99617,-0.045827,-0.079638,-0.032706,61.092224,22.893585,-148.055527,,,
729608239.601141,1.421794,0.248274,58.11995,0.013443,0.04158,1.004578,-0.048769,-0.073969,-0.041144,61.092224,22.893585,-148.055527,,,
729608239.604448,1.408147,0.227357,58.108227,0.013443,0.04158,1.004578,-0.048769,-0.073969,-0.041144,61.092224,22.893585,-148.055527,,,
729608239.607796,1.408147,0.227357,58.108227,0.013443,0.04158,1.004578,-0.048769,-0.073969,-0.041144,61.092224,22.893585,-148.055527,,,
729608239.611177,1.397591,0.207372,58.096331,0.01062,0.035538,1.01561,-0.046054,-0.037302,-0.046352,61.070084,22.683136,-148.392136,,,
729608239.614442,1.384491,0.197335,58.08368,0.01062,0.035538,1.01561,-0.046054,-0.037302,-0.046352,61.070084,22.683136,-148.392136,,,
729608239.617793,1.384491,0.197335,58.08368,0.01062,0.035538,1.01561,-0.046054,-0.037302,-0.046352,61.070084,22.683136,-148.392136,,,
729608239.621116,1.374045,0.194726,58.070005,0.015228,0.031204,1.023804,-0.034866,0.025017,-0.051062,61.070084,22.683136,-148.392136,,,
729608239.624447,1.36465,0.204229,58.055486,0.015228,0.031204,1.023804,-0.034866,0.025017,-0.051062,61.070084,22.683136,-148.392136,,,
729608239.627792,1.36465,0.204229,58.055486,0.015228,0.031204,1.023804,-0.034866,0.025017,-0.051062,61.070084,22.683136,-148.392136,,,
729608239.631136,1.358233,0.220292,58.04079,0.01619,0.027115,1.031082,-0.011638,0.085981,-0.052041,61.070084,22.683136,-148.392136,,,
729608239.634451,1.355972,0.245434,58.027276,0.01619,0.027115,1.031082,-0.011638,0.085981,-0.052041,61.070084,22.683136,-148.392136,,,
729608239.63786,1.355972,0.245434,58.027276,0.01619,0.027115,1.031082,-0.011638,0.085981,-0.052041,61.070084,22.683136,-148.392136,,,
729608239.641116,1.359288,0.272951,58.015268,0.00238,0.015518,1.032043,0.021388,0.114411,-0.040368,61.070084,22.683136,-148.392136,,,
729608239.644462,1.365917,0.305525,58.004176,0.00238,0.015518,1.032043,0.021388,0.114411,-0.040368,61.070084,22.683136,-148.392136,,,
729608239.647781,1.365917,0.305525,58.004176,0.00238,0.015518,1.032043,0.021388,0.114411,-0.040368,61.070084,22.683136,-148.392136,,,
729608239.651137,1.376966,0.337524,57.994044,-0.01384,0.005859,1.023056,0.042996,0.117913,-0.033893,61.091156,22.657883,-148.325623,,,
729608239.654443,1.389093,0.370348,57.984592,-0.01384,0.005859,1.023056,0.042996,0.117913,-0.033893,61.091156,22.657883,-148.325623,,,
729608239.657797,1.389093,0.370348,57.984592,-0.01384,0.005859,1.023056,0.042996,0.117913,-0.033893,61.091156,22.657883,-148.325623,,,
729608239.661181,1.405035,0.398093,57.975408,-0.021561,0.01033,1.008286,0.046806,0.100095,-0.032547,61.091156,22.657883,-148.325623,,,
729608239.664445,1.417733,0.424308,57.966502,-0.021561,0.01033,1.008286,0.046806,0.100095,-0.032547,61.091156,22.657883,-148.325623,,,
729608239.667795,1.417733,0.424308,57.966502,-0.021561,0.01033,1.008286,0.046806,0.100095,-0.032547,61.091156,22.657883,-148.325623,,,
729608239.671116,1.433024,0.442022,57.957992,-0.030319,0.017715,0.990479,0.034954,0.065748,-0.029822,61.091156,22.657883,-148.325623,,,
729608239.674443,1.442365,0.45921,57.948915,-0.030319,0.017715,0.990479,0.034954,0.065748,-0.029822,61.091156,22.657883,-148.325623,,,
729608239.67781,1.442365,0.45921,57.948915,-0.030319,0.017715,0.990479,0.034954,0.065748,-0.029822,61.091156,22.657883,-148.325623,,,
729608239.68114,1.452503,0.468404,57.938957,-0.030029,0.02565,0.981476,0.012329,0.045893,-0.040651,61.091156,22.657883,-148.325623,,,
729608239.684451,1.455767,0.480764,57.927351,-0.030029,0.02565,0.981476,0.012329,0.045893,-0.040651,61.091156,22.657883,-148.325623,,,
729608239.687781,1.455767,0.480764,57.927351,-0.030029,0.02565,0.981476,0.012329,0.045893,-0.040651,61.091156,22.657883,-148.325623,,,
729608239.69113,1.458672,0.487327,57.915231,-0.027512,0.029404,0.98024,-0.00197,0.036475,-0.042811,61.431839,22.655045,-148.445099,,,
729608239.694449,1.457219,0.496918,57.903921,-0.027512,0.029404,0.98024,-0.00197,0.036475,-0.042811,61.431839,22.655045,-148.445099,,,
729608239.697843,1.457219,0.496918,57.903921,-0.027512,0.029404,0.98024,-0.00197,0.036475,-0.042811,61.431839,22.655045,-148.445099,,,
729608239.701122,1.456033,0.499262,57.893838,-0.030319,0.022995,0.979324,-0.013093,0.016874,-0.03388,61.431839,22.655045,-148.445099,,,
729608239.70445,1.451964,0.503163,57.884601,-0.030319,0.022995,0.979324,-0.013093,0.016874,-0.03388,61.431839,22.655045,-148.445099,,,
729608239.707793,1.451964,0.503163,57.884601,-0.030319,0.022995,0.979324,-0.013093,0.016874,-0.03388,61.431839,22.655045,-148.445099,,,
729608239.711208,1.447849,0.49757,57.875894,-0.026657,0.017914,0.976837,-0.016422,-0.006864,-0.033123,61.431839,22.655045,-148.445099,,,
729608239.714446,1.443581,0.494204,57.866731,-0.026657,0.017914,0.976837,-0.016422,-0.006864,-0.033123,61.431839,22.655045,-148.445099,,,
729608239.717808,1.443581,0.494204,57.866731,-0.026657,0.017914,0.976837,-0.016422,-0.006864,-0.033123,61.431839,22.655045,-148.445099,,,
729608239.721131,1.439717,0.485192,57.857384,-0.019684,0.020126,0.979279,-0.001427,-0.016344,-0.034847,61.431839,22.655045,-148.445099,,,
729608239.724487,1.439703,0.480045,57.847456,-0.019684,0.020126,0.979279,-0.001427,-0.016344,-0.034847,61.431839,22.655045,-148.445099,,,
729608239.727794,1.439703,0.480045,57.847456,-0.019684,0.020126,0.979279,-0.001427,-0.016344,-0.034847,61.431839,22.655045,-148.445099,,,
729608239.731138,1.439565,0.475069,57.837719,-0.017838,0.014252,0.9935,0.020514,-0.012733,-0.032631,61.431839,22.655045,-148.445099,,,
729608239.734453,1.446245,0.47158,57.829266,-0.017838,0.014252,0.9935,0.020514,-0.012733,-0.032631,61.481018,22.90509,-148.48378,,,
729608239.73783,1.446245,0.47158,57.829266,-0.017838,0.014252,0.9935,0.020514,-0.012733,-0.032631,61.481018,22.90509,-148.48378,,,
729608239.741144,1.452483,0.474336,57.822229,-0.02095,0.006851,0.999725,0.042973,0.018133,-0.021774,61.481018,22.90509,-148.48378,,,
729608239.744445,1.46513,0.480537,57.81667,-0.02095,0.006851,0.999725,0.042973,0.018133,-0.021774,61.481018,22.90509,-148.48378,,,
729608239.747895,1.46513,0.480537,57.81667,-0.02095,0.006851,0.999725,0.042973,0.018133,-0.021774,61.481018,22.90509,-148.48378,,,
729608239.751134,1.476771,0.498026,57.812402,-0.018784,0.007278,1.009293,0.04673,0.069006,-0.014369,61.481018,22.90509,-148.48378,,,
729608239.754457,1.489178,0.518167,57.809496,-0.018784,0.007278,1.009293,0.04673,0.069006,-0.014369,61.481018,22.90509,-148.48378,,,
729608239.757801,1.489178,0.518167,57.809496,-0.018784,0.007278,1.009293,0.04673,0.069006,-0.014369,61.481018,22.90509,-148.48378,,,
729608239.761185,1.497969,0.54952,57.807285,-0.013138,0.013107,1.000488,0.023959,0.104382,-0.0047,61.481018,22.90509,-148.48378,,,
729608239.764467,1.503646,0.579921,57.805646,-0.013138,0.013107,1.000488,0.023959,0.104382,-0.0047,61.481018,22.90509,-148.48378,,,
729608239.767813,1.503646,0.579921,57.805646,-0.013138,0.013107,1.000488,0.023959,0.104382,-0.0047,61.481018,22.90509,-148.48378,,,
729608239.771131,1.505827,0.616891,57.804286,-0.018188,0.02301,0.987091,-0.00527,0.117548,-0.006818,61.481018,22.90509,-148.48378,,,
729608239.774498,1.503265,0.649316,57.803052,-0.018188,0.02301,0.987091,-0.00527,0.117548,-0.006818,61.658463,22.88768,-148.408142,,,
729608239.777792,1.503265,0.649316,57.803052,-0.018188,0.02301,0.987091,-0.00527,0.117548,-0.006818,61.658463,22.88768,-148.408142,,,
729608239.781139,1.496654,0.683058,57.801293,-0.019653,0.03125,0.976532,-0.033221,0.09389,-0.011742,61.658463,22.88768,-148.408142,,,
729608239.784453,1.486211,0.707629,57.79889,-0.019653,0.03125,0.976532,-0.033221,0.09389,-0.011742,61.658463,22.88768,-148.408142,,,
729608239.787783,1.486211,0.707629,57.79889,-0.019653,0.03125,0.976532,-0.033221,0.09389,-0.011742,61.658463,22.88768,-148.408142,,,
729608239.791143,1.47233,0.729204,57.795715,-0.020264,0.029755,0.969391,-0.047497,0.040729,-0.015164,61.658463,22.88768,-148.408142,,,
729608239.794452,1.458449,0.737865,57.791704,-0.020264,0.029755,0.969391,-0.047497,0.040729,-0.015164,61.658463,22.88768,-148.408142,,,
729608239.79785,1.458449,0.737865,57.791704,-0.020264,0.029755,0.969391,-0.047497,0.040729,-0.015164,61.658463,22.88768,-148.408142,,,
729608239.801117,1.442336,0.739592,57.785984,-0.020233,0.027039,0.967743,-0.047714,-0.020154,-0.025956,61.658463,22.88768,-148.408142,,,
729608239.804456,1.426857,0.730689,57.779351,-0.020233,0.027039,0.967743,-0.047714,-0.020154,-0.025956,61.658463,22.88768,-148.408142,,,
729608239.807795,1.426857,0.730689,57.779351,-0.020233,0.027039,0.967743,-0.047714,-0.020154,-0.025956,61.658463,22.88768,-148.408142,,,
729608239.811184,1.410854,0.715222,57.772531,-0.018005,0.025406,0.971268,-0.047878,-0.068415,-0.027106,61.658463,22.88768,-148.408142,,,
729608239.814444,1.396868,0.693676,57.766094,-0.018005,0.025406,0.971268,-0.047878,-0.068415,-0.027106,61.839554,22.640091,-148.434372,,,
729608239.817797,1.396868,0.693676,57.766094,-0.018005,0.025406,0.971268,-0.047878,-0.068415,-0.027106,61.839554,22.640091,-148.434372,,,
729608239.821121,1.381289,0.670203,57.760182,-0.016373,0.020096,0.979248,-0.045038,-0.086665,-0.02092,61.839554,22.640091,-148.434372,,,
729608239.824453,1.368024,0.645573,57.754932,-0.016373,0.020096,0.979248,-0.045038,-0.086665,-0.02092,61.839554,22.640091,-148.434372,,,
729608239.827793,1.368024,0.645573,57.754932,-0.016373,0.020096,0.979248,-0.045038,-0.086665,-0.02092,61.839554,22.640091,-148.434372,,,
729608239.831146,1.35323,0.625201,57.750195,-0.001999,0.019791,0.987946,-0.044808,-0.060142,-0.018862,61.839554,22.640091,-148.434372,,,
729608239.834455,1.340541,0.609072,57.745013,-0.001999,0.019791,0.987946,-0.044808,-0.060142,-0.018862,61.839554,22.640091,-148.434372,,,
729608239.837786,1.340541,0.609072,57.745013,-0.001999,0.019791,0.987946,-0.044808,-0.060142,-0.018862,61.839554,22.640091,-148.434372,,,
729608239.841141,1.325208,0.602017,57.738712,0.011307,0.024384,1.000427,-0.048679,0.001287,-0.027062,61.839554,22.640091,-148.434372,,,
729608239.844452,1.31134,0.604761,57.731666,0.011307,0.024384,1.000427,-0.048679,0.001287,-0.027062,61.839554,22.640091,-148.434372,,,
729608239.847866,1.31134,0.604761,57.731666,0.011307,0.024384,1.000427,-0.048679,0.001287,-0.027062,61.839554,22.640091,-148.434372,,,
729608239.851123,1.29741,0.618447,57.724412,0.014755,0.029358,1.014206,-0.043425,0.070027,-0.026971,61.839554,22.640091,-148.434372,,,
729608239.854446,1.284857,0.638934,57.717259,0.014755,0.029358,1.014206,-0.043425,0.070027,-0.026971,61.84108,22.760742,-148.151352,,,
729608239.857794,1.284857,0.638934,57.717259,0.014755,0.029358,1.014206,-0.043425,0.070027,-0.026971,61.84108,22.760742,-148.151352,,,
729608239.861197,1.275479,0.667415,57.710509,0.008987,0.025726,1.018387,-0.032487,0.108138,-0.025021,61.84108,22.760742,-148.151352,,,
729608239.864443,1.266158,0.699013,57.703669,0.008987,0.025726,1.018387,-0.032487,0.108138,-0.025021,61.84108,22.760742,-148.151352,,,
729608239.867797,1.266158,0.699013,57.703669,0.008987,0.025726,1.018387,-0.032487,0.108138,-0.025021,61.84108,22.760742,-148.151352,,,
729608239.871126,1.259673,0.735931,57.695931,-0.000458,0.022873,1.01506,-0.026598,0.127939,-0.031332,61.84108,22.760742,-148.151352,,,
729608239.874453,1.252132,0.771815,57.687064,-0.000458,0.022873,1.01506,-0.026598,0.127939,-0.031332,61.84108,22.760742,-148.151352,,,
729608239.877799,1.252132,0.771815,57.687064,-0.000458,0.022873,1.01506,-0.026598,0.127939,-0.031332,61.84108,22.760742,-148.151352,,,
729608239.881139,1.247068,0.806849,57.677301,-0.006729,0.028076,1.008041,-0.014654,0.104195,-0.03961,61.84108,22.760742,-148.151352,,,
729608239.884449,1.242374,0.835108,57.666959,-0.006729,0.028076,1.008041,-0.014654,0.104195,-0.03961,61.84108,22.760742,-148.151352,,,
729608239.887781,1.242374,0.835108,57.666959,-0.006729,0.028076,1.008041,-0.014654,0.104195,-0.03961,61.84108,22.760742,-148.151352,,,
729608239.891118,1.240747,0.858205,57.656254,-0.021439,0.027817,0.997879,-0.002212,0.058808,-0.036266,61.84108,22.760742,-148.151352,,,
729608239.894452,1.240393,0.872361,57.646082,-0.021439,0.027817,0.997879,-0.002212,0.058808,-0.036266,61.84108,22.760742,-148.151352,,,
729608239.897855,1.240393,0.872361,57.646082,-0.021439,0.027817,0.997879,-0.002212,0.058808,-0.036266,62.267166,22.852432,-148.322189,,,
729608239.901126,1.24231,0.879712,57.636275,-0.029449,0.021408,0.994171,0.01317,0.006791,-0.03289,62.267166,22.852432,-148.322189,,,
729608239.904446,1.246623,0.879037,57.627451,-0.029449,0.021408,0.994171,0.01317,0.006791,-0.03289,62.267166,22.852432,-148.322189,,,
729608239.907795,1.246623,0.879037,57.627451,-0.029449,0.021408,0.994171,0.01317,0.006791,-0.03289,62.267166,22.852432,-148.322189,,,
729608239.911197,1.253635,0.869963,57.62013,-0.030029,0.014999,0.993484,0.03308,-0.035921,-0.024401,62.267166,22.852432,-148.322189,,,
729608239.914444,1.264011,0.857534,57.61351,-0.030029,0.014999,0.993484,0.03308,-0.035921,-0.024401,62.267166,22.852432,-148.322189,,,
729608239.917793,1.264011,0.857534,57.61351,-0.030029,0.014999,0.993484,0.03308,-0.035921,-0.024401,62.267166,22.852432,-148.322189,,,
729608239.921124,1.276431,0.836575,57.607522,-0.022415,0.011108,0.993286,0.04767,-0.05862,-0.021103,62.267166,22.852432,-148.322189,,,
729608239.924498,1.289973,0.820244,57.602247,-0.022415,0.011108,0.993286,0.04767,-0.05862,-0.021103,62.267166,22.852432,-148.322189,,,
729608239.927799,1.289973,0.820244,57.602247,-0.022415,0.011108,0.993286,0.04767,-0.05862,-0.021103,62.267166,22.852432,-148.322189,,,
729608239.93113,1.305537,0.800376,57.598502,-0.016296,0.01651,0.998489,0.052798,-0.032084,-0.012695,62.267166,22.852432,-148.322189,,,
729608239.934453,1.320847,0.791566,57.595967,-0.016296,0.01651,0.998489,0.052798,-0.032084,-0.012695,62.267166,22.852432,-148.322189,,,
729608239.937792,1.320847,0.791566,57.595967,-0.016296,0.01651,0.998489,0.052798,-0.032084,-0.012695,62.285904,22.592972,-148.520538,,,
729608239.941122,1.337896,0.782638,57.594537,-0.011292,0.019623,1.014191,0.057879,0.01104,-0.005451,62.285904,22.592972,-148.520538,,,
729608239.944452,1.35457,0.786341,57.593292,-0.011292,0.019623,1.014191,0.057879,0.01104,-0.005451,62.285904,22.592972,-148.520538,,,
729608239.947833,1.35457,0.786341,57.593292,-0.011292,0.019623,1.014191,0.057879,0.01104,-0.005451,62.285904,22.592972,-148.520538,,,
729608239.951126,1.371949,0.79152,57.592113,-0.005203,0.020447,1.016174,0.066239,0.042431,-0.004169,62.285904,22.592972,-148.520538,,,
729608239.954462,1.390835,0.803301,57.590711,-0.005203,0.020447,1.016174,0.066239,0.042431,-0.004169,62.285904,22.592972,-148.520538,,,
729608239.95779,1.390835,0.803301,57.590711,-0.005203,0.020447,1.016174,0.066239,0.042431,-0.004169,62.285904,22.592972,-148.520538,,,
729608239.961176,1.410301,0.815525,57.588719,-0.002914,0.023407,1.005203,0.066548,0.062267,-0.009934,62.285904,22.592972,-148.520538,,,
729608239.964442,1.42875,0.833901,57.585533,-0.002914,0.023407,1.005203,0.066548,0.062267,-0.009934,62.285904,22.592972,-148.520538,,,
729608239.967812,1.42875,0.833901,57.585533,-0.002914,0.023407,1.005203,0.066548,0.062267,-0.009934,62.285904,22.592972,-148.520538,,,
729608239.971119,1.446273,0.855801,57.580806,-0.004929,0.031509,0.999756,0.054696,0.085745,-0.020273,62.285904,22.592972,-148.520538,,,
729608239.974455,1.460675,0.879612,57.575162,-0.004929,0.031509,0.999756,0.054696,0.085745,-0.020273,62.285904,22.592972,-148.520538,,,
729608239.97779,1.460675,0.879612,57.575162,-0.004929,0.031509,0.999756,0.054696,0.085745,-0.020273,62.200378,22.432205,-148.332779,,,
729608239.981118,1.471827,0.907298,57.568908,-0.001877,0.036057,0.992172,0.031664,0.086385,-0.023195,62.200378,22.432205,-148.332779,,,
729608239.984482,1.480108,0.930882,57.562334,-0.001877,0.036057,0.992172,0.031664,0.086385,-0.023195,62.200378,22.432205,-148.332779,,,
729608239.987784,1.480108,0.930882,57.562334,-0.001877,0.036057,0.992172,0.031664,0.086385,-0.023195,62.200378,22.432205,-148.332779,,,
729608239.991123,1.484724,0.954445,57.55536,-0.011703,0.031128,0.984314,0.018368,0.06413,-0.025211,62.200378,22.432205,-148.332779,,,
729608239.994464,1.489793,0.970558,57.54812,-0.011703,0.031128,0.984314,0.018368,0.06413,-0.025211,62.200378,22.432205,-148.332779,,,
729608239.997836,1.489793,0.970558,57.54812,-0.011703,0.031128,0.984314,0.018368,0.06413,-0.025211,62.200378,22.432205,-148.332779,,,
729608240.001122,1.490668,0.983803,57.540618,-0.019775,0.026718,0.983139,0.011321,0.02607,-0.029214,62.200378,22.432205,-148.332779,,,
729608240.004464,1.493989,0.989736,57.532878,-0.019775,0.026718,0.983139,0.011321,0.02607,-0.029214,62.200378,22.432205,-148.332779,,,
729608240.007806,1.493989,0.989736,57.532878,-0.019775,0.026718,0.983139,0.011321,0.02607,-0.029214,62.200378,22.432205,-148.332779,,,
729608240.011165,1.494641,0.990861,57.525184,-0.022766,0.021652,0.980057,0.010386,-0.004051,-0.028666,62.200378,22.432205,-148.332779,,,
729608240.014458,1.498081,0.987601,57.517875,-0.022766,0.021652,0.980057,0.010386,-0.004051,-0.028666,62.200378,22.432205,-148.332779,,,
729608240.017792,1.498081,0.987601,57.517875,-0.022766,0.021652,0.980057,0.010386,-0.004051,-0.028666,62.164261,22.582443,-148.278702,,,
729608240.021155,1.501374,0.980466,57.5108,-0.024536,0.020584,0.987793,0.021176,-0.023239,-0.026038,62.164261,22.582443,-148.278702,,,
729608240.024504,1.507336,0.972743,57.504122,-0.024536,0.020584,0.987793,0.021176,-0.023239,-0.026038,62.164261,22.582443,-148.278702,,,
729608240.027806,1.507336,0.972743,57.504122,-0.024536,0.020584,0.987793,0.021176,-0.023239,-0.026038,62.164261,22.582443,-148.278702,,,
729608240.03113,1.513056,0.964121,57.498569,-0.019241,0.021439,0.995712,0.030512,-0.015072,-0.017007,62.164261,22.582443,-148.278702,,,
729608240.034444,1.521037,0.960597,57.494292,-0.019241,0.021439,0.995712,0.030512,-0.015072,-0.017007,62.164261,22.582443,-148.278702,,,
729608240.037782,1.521037,0.960597,57.494292,-0.019241,0.021439,0.995712,0.030512,-0.015072,-0.017007,62.164261,22.582443,-148.278702,,,
729608240.04114,1.528663,0.957777,57.490511,-0.014206,0.020294,1.002426,0.033114,0.015863,-0.015048,62.164261,22.582443,-148.278702,,,
729608240.044453,1.536531,0.962021,57.48608,-0.014206,0.020294,1.002426,0.033114,0.015863,-0.015048,62.164261,22.582443,-148.278702,,,
729608240.047836,1.536531,0.962021,57.48608,-0.014206,0.020294,1.002426,0.033114,0.015863,-0.015048,62.164261,22.582443,-148.278702,,,
729608240.051114,1.543772,0.966525,57.481151,-0.008301,0.025452,1.004517,0.019858,0.035192,-0.020537,62.164261,22.582443,-148.278702,,,
729608240.05452,1.548581,0.97689,57.475482,-0.008301,0.025452,1.004517,0.019858,0.035192,-0.020537,62.164261,22.582443,-148.278702,,,
729608240.057794,1.548581,0.97689,57.475482,-0.008301,0.025452,1.004517,0.019858,0.035192,-0.020537,62.164261,22.582443,-148.278702,,,
729608240.061181,1.551448,0.987246,57.469125,-0.008499,0.032028,0.996307,-0.00554,0.05777,-0.025287,62.110657,22.388336,-148.073059,,,
729608240.06449,1.5485,1.003789,57.461699,-0.008499,0.032028,0.996307,-0.00554,0.05777,-0.025287,62.110657,22.388336,-148.073059,,,
729608240.067801,1.5485,1.003789,57.461699,-0.008499,0.032028,0.996307,-0.00554,0.05777,-0.025287,62.110657,22.388336,-148.073059,,,
729608240.071143,1.542606,1.019704,57.452684,-0.009384,0.039627,0.991028,-0.033318,0.0671,-0.036525,62.110657,22.388336,-148.073059,,,
729608240.074269,1.542606,1.019704,57.452684,-0.009384,0.039627,0.991028,-0.033318,0.0671,-0.036525,62.110657,22.388336,-148.073059,,,
729608240.077828,1.531899,1.038958,57.442156,-0.009384,0.039627,0.991028,-0.033318,0.0671,-0.036525,62.110657,22.388336,-148.073059,,,
729608240.081141,1.517656,1.058417,57.431237,-0.015686,0.041275,0.989456,-0.057886,0.069525,-0.039997,62.110657,22.388336,-148.073059,,,
729608240.08445,1.499832,1.077031,57.420266,-0.015686,0.041275,0.989456,-0.057886,0.069525,-0.039997,62.110657,22.388336,-148.073059,,,
729608240.087785,1.499832,1.077031,57.420266,-0.015686,0.041275,0.989456,-0.057886,0.069525,-0.039997,62.110657,22.388336,-148.073059,,,
729608240.091125,1.48031,1.094443,57.409179,-0.025848,0.034546,0.990402,-0.066765,0.051218,-0.041045,62.110657,22.388336,-148.073059,,,
729608240.094547,1.461186,1.106581,57.397979,-0.025848,0.034546,0.990402,-0.066765,0.051218,-0.041045,62.110657,22.388336,-148.073059,,,
729608240.097849,1.461186,1.106581,57.397979,-0.025848,0.034546,0.990402,-0.066765,0.051218,-0.041045,62.110657,22.388336,-148.073059,,,
729608240.101135,1.442548,1.114648,57.386631,-0.030731,0.029129,0.990585,-0.055293,0.010951,-0.043011,62.367401,22.376709,-148.357819,,,
729608240.104483,1.427283,1.116246,57.375103,-0.030731,0.029129,0.990585,-0.055293,0.010951,-0.043011,62.367401,22.376709,-148.357819,,,
729608240.107787,1.427283,1.116246,57.375103,-0.030731,0.029129,0.990585,-0.055293,0.010951,-0.043011,62.367401,22.376709,-148.357819,,,
729608240.110866,1.414023,1.113381,57.36284,-0.034546,0.023056,0.998322,-0.033412,-0.022832,-0.043659,62.367401,22.376709,-148.357819,,,
729608240.114514,1.403879,1.104815,57.351085,-0.034546,0.023056,0.998322,-0.033412,-0.022832,-0.043659,62.367401,22.376709,-148.357819,,,
729608240.117782,1.403879,1.104815,57.351085,-0.034546,0.023056,0.998322,-0.033412,-0.022832,-0.043659,62.367401,22.376709,-148.357819,,,
729608240.121117,1.394873,1.09111,57.34047,-0.0383,0.017258,1.003235,-0.020763,-0.048843,-0.03522,62.367401,22.376709,-148.357819,,,
729608240.124532,1.388047,1.07661,57.331165,-0.0383,0.017258,1.003235,-0.020763,-0.048843,-0.03522,62.367401,22.376709,-148.357819,,,
729608240.127784,1.388047,1.07661,57.331165,-0.0383,0.017258,1.003235,-0.020763,-0.048843,-0.03522,62.367401,22.376709,-148.357819,,,
729608240.131135,1.381286,1.061532,57.323913,-0.037354,0.014587,1.004654,-0.02243,-0.038511,-0.020154,62.367401,22.376709,-148.357819,,,
729608240.1345,1.374714,1.051226,57.318463,-0.037354,0.014587,1.004654,-0.02243,-0.038511,-0.020154,62.367401,22.376709,-148.357819,,,
729608240.137774,1.374714,1.051226,57.318463,-0.037354,0.014587,1.004654,-0.02243,-0.038511,-0.020154,62.367401,22.376709,-148.357819,,,
729608240.141115,1.369383,1.041251,57.314926,-0.030121,0.019379,1.01355,-0.020152,-0.015707,-0.015079,62.14537,22.782898,-148.163391,,,
729608240.144495,1.363754,1.037009,57.312082,-0.030121,0.019379,1.01355,-0.020152,-0.015707,-0.015079,62.14537,22.782898,-148.163391,,,
729608240.14786,1.363754,1.037009,57.312082,-0.030121,0.019379,1.01355,-0.020152,-0.015707,-0.015079,62.14537,22.782898,-148.163391,,,
729608240.151128,1.362047,1.034255,57.309852,-0.024368,0.021118,1.015366,-0.016126,0.01044,-0.010862,62.14537,22.782898,-148.163391,,,
729608240.154513,1.362047,1.037387,57.307276,-0.024368,0.021118,1.015366,-0.016126,0.01044,-0.010862,62.14537,22.782898,-148.163391,,,
729608240.157806,1.357898,1.037387,57.307276,-0.024368,0.021118,1.015366,-0.016126,0.01044,-0.010862,62.14537,22.782898,-148.163391,,,
729608240.161158,1.358029,1.043083,57.303768,-0.022964,0.023468,1.016586,-0.012916,0.035838,-0.013453,62.14537,22.782898,-148.163391,,,
729608240.16451,1.358029,1.052927,57.300345,-0.022964,0.023468,1.016586,-0.012916,0.035838,-0.013453,62.14537,22.782898,-148.163391,,,
729608240.167789,1.354367,1.052927,57.300345,-0.022964,0.023468,1.016586,-0.012916,0.035838,-0.013453,62.14537,22.782898,-148.163391,,,
729608240.171142,1.353965,1.064908,57.297315,-0.021927,0.025528,1.013214,-0.009168,0.040387,-0.010586,62.14537,22.782898,-148.163391,,,
729608240.174562,1.350535,1.075971,57.295162,-0.021927,0.025528,1.013214,-0.009168,0.040387,-0.010586,62.14537,22.782898,-148.163391,,,
729608240.177791,1.350535,1.075971,57.295162,-0.021927,0.025528,1.013214,-0.009168,0.040387,-0.010586,62.14537,22.782898,-148.163391,,,
729608240.181128,1.347504,1.08872,57.293069,-0.02803,0.02475,1.002182,-0.018035,0.032836,-0.009041,62.255798,22.539627,-148.31395,,,
729608240.18447,1.347504,1.08872,57.293069,-0.02803,0.02475,1.002182,-0.018035,0.032836,-0.009041,62.255798,22.539627,-148.31395,,,
729608240.187783,1.341687,1.097112,57.290381,-0.02803,0.02475,1.002182,-0.018035,0.032836,-0.009041,62.255798,22.539627,-148.31395,,,
729608240.19119,1.335698,1.104465,57.286965,-0.027069,0.028458,0.995041,-0.019417,-0.00052,-0.014303,62.255798,22.539627,-148.31395,,,
729608240.194469,1.335698,1.104465,57.286965,-0.027069,0.028458,0.995041,-0.019417,-0.00052,-0.014303,62.255798,22.539627,-148.31395,,,
729608240.197872,1.330079,1.102016,57.282987,-0.027069,0.028458,0.995041,-0.019417,-0.00052,-0.014303,62.255798,22.539627,-148.31395,,,
729608240.201112,1.324183,1.096155,57.278263,-0.025345,0.029419,0.990036,-0.015911,-0.049274,-0.020298,62.255798,22.539627,-148.31395,,,
729608240.204453,1.324183,1.096155,57.278263,-0.025345,0.029419,0.990036,-0.015911,-0.049274,-0.020298,62.255798,22.539627,-148.31395,,,
729608240.207798,1.319945,1.079701,57.27302,-0.025345,0.029419,0.990036,-0.015911,-0.049274,-0.020298,62.255798,22.539627,-148.31395,,,
729608240.211118,1.315809,1.063324,57.267235,-0.021957,0.025787,0.992874,-0.005347,-0.075851,-0.020541,62.255798,22.539627,-148.31395,,,
729608240.214467,1.315809,1.063324,57.267235,-0.021957,0.025787,0.992874,-0.005347,-0.075851,-0.020541,62.255798,22.539627,-148.31395,,,
729608240.217813,1.314736,1.040564,57.261931,-0.021957,0.025787,0.992874,-0.005347,-0.075851,-0.020541,62.255798,22.539627,-148.31395,,,
729608240.221114,1.314174,1.021233,57.257228,-0.018097,0.020416,1.005859,0.010795,-0.072531,-0.014725,62.255798,22.539627,-148.31395,,,
729608240.224444,1.314174,1.021233,57.257228,-0.018097,0.020416,1.005859,0.010795,-0.072531,-0.014725,62.009995,22.692444,-148.40976,,,
729608240.227801,1.317414,1.001769,57.253629,-0.018097,0.020416,1.005859,0.010795,-0.072531,-0.014725,62.009995,22.692444,-148.40976,,,
729608240.231115,1.323316,0.990544,57.251966,-0.01152,0.018265,1.017288,0.028968,-0.017316,-0.003671,62.009995,22.692444,-148.40976,,,
729608240.234534,1.323316,0.990544,57.251966,-0.01152,0.018265,1.017288,0.028968,-0.017316,-0.003671,62.009995,22.692444,-148.40976,,,
729608240.237774,1.331967,0.987374,57.25182,-0.01152,0.018265,1.017288,0.028968,-0.017316,-0.003671,62.009995,22.692444,-148.40976,,,
729608240.241118,1.340966,0.996573,57.252063,-0.004227,0.02034,1.029541,0.034288,0.056674,0.000529,62.009995,22.692444,-148.40976,,,
729608240.244444,1.340966,0.996573,57.252063,-0.004227,0.02034,1.029541,0.034288,0.056674,0.000529,62.009995,22.692444,-148.40976,,,
729608240.247865,1.350308,1.013861,57.252498,-0.004227,0.02034,1.029541,0.034288,0.056674,0.000529,62.009995,22.692444,-148.40976,,,
729608240.251114,1.359188,1.039915,57.252689,0.000504,0.030334,1.017456,0.026978,0.11065,-0.003508,62.009995,22.692444,-148.40976,,,
729608240.254451,1.359188,1.039915,57.252689,0.000504,0.030334,1.017456,0.026978,0.11065,-0.003508,62.009995,22.692444,-148.40976,,,
729608240.257806,1.365954,1.072248,57.251475,0.000504,0.030334,1.017456,0.026978,0.11065,-0.003508,62.009995,22.692444,-148.40976,,,
729608240.261123,1.370354,1.111069,57.248662,-0.001526,0.041,1.008377,0.011044,0.135837,-0.0128,62.009995,22.692444,-148.40976,,,
729608240.264475,1.370354,1.111069,57.248662,-0.001526,0.041,1.008377,0.011044,0.135837,-0.0128,62.036133,22.62941,-148.192596,,,
729608240.267812,1.372747,1.149059,57.245524,-0.001526,0.041,1.008377,0.011044,0.135837,-0.0128,62.036133,22.62941,-148.192596,,,
729608240.271122,1.373847,1.186475,57.242697,-0.016083,0.040268,0.994156,0.00125,0.11367,-0.009031,62.036133,22.62941,-148.192596,,,
729608240.274534,1.373847,1.186475,57.242697,-0.016083,0.040268,0.994156,0.00125,0.11367,-0.009031,62.036133,22.62941,-148.192596,,,
729608240.277791,1.373075,1.216759,57.240795,-0.016083,0.040268,0.994156,0.00125,0.11367,-0.009031,62.036133,22.62941,-148.192596,,,
729608240.280969,1.373185,1.24128,57.240475,-0.031708,0.028625,0.980988,-0.005213,0.065057,0.000529,62.036133,22.62941,-148.192596,,,
729608240.284483,1.373185,1.24128,57.240475,-0.031708,0.028625,0.980988,-0.005213,0.065057,0.000529,62.036133,22.62941,-148.192596,,,
