Time (sec),Pitch (deg),Roll (deg),Yaw(deg),X-Acceleration (g),Y-Acceleration (g),Z-Acceleration (g),Pitch Rate (deg/sec),Roll Rate (deg/sec),Yaw Rate (deg/sec),Magnetic Field in X direction (uT),Magnetic Field in Y direction (uT),Magnetic Field in Z Direction (uT),Latitude (deg),Longitude (deg),Altitude (m)
729608185.530976,0.278076,-2.538325,57.750244,0.02861,0.006317,1.01091,-0.039314,0.057676,0.004766,60.099014,24.005447,-147.993118,,,
729608185.534277,0.26681,-2.52157,57.751712,0.02861,0.006317,1.01091,-0.039314,0.057676,0.004766,60.099014,24.005447,-147.993118,,,
729608185.537642,0.260986,-2.502801,57.753895,0.024948,-0.002579,1.014313,-0.012744,0.057783,0.006876,60.099014,24.005447,-147.993118,,,
729608185.540962,0.260986,-2.502801,57.753895,0.024948,-0.002579,1.014313,-0.012744,0.057783,0.006876,60.099014,24.005447,-147.993118,,,
729608185.544345,0.256436,-2.4864,57.756474,0.024948,-0.002579,1.014313,-0.012744,0.057783,0.006876,60.099014,24.005447,-147.993118,,,
729608185.54759,0.254484,-2.467374,57.758571,0.025375,-0.00209,1.002213,-0.013156,0.057702,0.004508,60.099014,24.005447,-147.993118,,,
729608185.550922,0.254484,-2.467374,57.758571,0.025375,-0.00209,1.002213,-0.013156,0.057702,0.004508,60.099014,24.005447,-147.993118,,,
729608185.554286,0.249956,-2.451404,57.760597,0.025375,-0.00209,1.002213,-0.013156,0.057702,0.004508,60.099014,24.005447,-147.993118,,,
729608185.557588,0.247614,-2.430897,57.762855,0.022751,0.009567,0.995255,-0.020717,0.058369,0.007531,60.099014,24.005447,-147.993118,,,
729608185.561011,0.247614,-2.430897,57.762855,0.022751,0.009567,0.995255,-0.020717,0.058369,0.007531,60.099014,24.005447,-147.993118,,,
729608185.564263,0.241344,-2.414959,57.765803,0.022751,0.009567,0.995255,-0.020717,0.058369,0.007531,60.099014,24.005447,-147.993118,,,
729608185.567589,0.235883,-2.394982,57.770132,0.020996,0.008743,0.991119,-0.035938,0.060041,0.017908,60.099014,24.005447,-147.993118,,,
729608185.570991,0.235883,-2.394982,57.770132,0.020996,0.008743,0.991119,-0.035938,0.060041,0.017908,60.192535,23.95697,-148.117599,,,
729608185.574282,0.224575,-2.377413,57.775183,0.020996,0.008743,0.991119,-0.035938,0.060041,0.017908,60.192535,23.95697,-148.117599,,,
729608185.577644,0.212951,-2.354097,57.779562,0.02536,0.008316,0.988785,-0.056144,0.074201,0.014704,60.192535,23.95697,-148.117599,,,
729608185.58093,0.212951,-2.354097,57.779562,0.02536,0.008316,0.988785,-0.056144,0.074201,0.014704,60.192535,23.95697,-148.117599,,,
729608185.584292,0.1953,-2.334079,57.783425,0.02536,0.008316,0.988785,-0.056144,0.074201,0.014704,60.192535,23.95697,-148.117599,,,
729608185.58759,0.176459,-2.309353,57.787032,0.024292,0.009689,0.98436,-0.080297,0.069471,0.015655,60.192535,23.95697,-148.117599,,,
729608185.590931,0.176459,-2.309353,57.787032,0.024292,0.009689,0.98436,-0.080297,0.069471,0.015655,60.192535,23.95697,-148.117599,,,
729608185.594322,0.153102,-2.290814,57.79024,0.024292,0.009689,0.98436,-0.080297,0.069471,0.015655,60.192535,23.95697,-148.117599,,,
729608185.597592,0.13052,-2.271052,57.793812,0.021606,0.010925,0.981064,-0.088045,0.055692,0.016571,60.192535,23.95697,-148.117599,,,
729608185.600914,0.13052,-2.271052,57.793812,0.021606,0.010925,0.981064,-0.088045,0.055692,0.016571,60.192535,23.95697,-148.117599,,,
729608185.604308,0.104681,-2.256315,57.797696,0.021606,0.010925,0.981064,-0.088045,0.055692,0.016571,60.192535,23.95697,-148.117599,,,
729608185.607592,0.081858,-2.241318,57.802372,0.017197,0.00502,0.991638,-0.069768,0.039783,0.022756,60.192535,23.95697,-148.117599,,,
729608185.612781,0.061653,-2.231595,57.80917,0.017197,0.00502,0.991638,-0.069768,0.039783,0.022756,60.205872,24.0952,-147.917725,,,
729608185.614029,0.061653,-2.231595,57.80917,0.017197,0.00502,0.991638,-0.069768,0.039783,0.022756,60.205872,24.0952,-147.917725,,,
729608185.617625,0.04739,-2.221732,57.818703,0.017456,-0.013962,1.009949,-0.028838,0.015316,0.040759,60.205872,24.0952,-147.917725,,,
729608185.620992,0.04739,-2.221732,57.818703,0.017456,-0.013962,1.009949,-0.028838,0.015316,0.040759,60.205872,24.0952,-147.917725,,,
729608185.624267,0.040003,-2.218227,57.831268,0.017456,-0.013962,1.009949,-0.028838,0.015316,0.040759,60.205872,24.0952,-147.917725,,,
729608185.627641,0.037938,-2.214449,57.846092,0.019562,-0.024887,1.01358,0.01399,0.002678,0.052877,60.205872,24.0952,-147.917725,,,
729608185.630912,0.037938,-2.214449,57.846092,0.019562,-0.024887,1.01358,0.01399,0.002678,0.052877,60.205872,24.0952,-147.917725,,,
729608185.634327,0.042092,-2.214529,57.862077,0.019562,-0.024887,1.01358,0.01399,0.002678,0.052877,60.205872,24.0952,-147.917725,,,
729608185.63768,0.050287,-2.209297,57.877915,0.026245,-0.013733,1.018021,0.030888,0.019073,0.051019,60.205872,24.0952,-147.917725,,,
729608185.640942,0.050287,-2.209297,57.877915,0.026245,-0.013733,1.018021,0.030888,0.019073,0.051019,60.205872,24.0952,-147.917725,,,
729608185.644264,0.057976,-2.203659,57.89349,0.026245,-0.013733,1.018021,0.030888,0.019073,0.051019,60.205872,24.0952,-147.917725,,,
729608185.6476,0.065792,-2.189869,57.909462,0.039963,0.004654,1.015228,0.016284,0.045352,0.054558,60.205872,24.0952,-147.917725,,,
729608185.650921,0.065792,-2.189869,57.909462,0.039963,0.004654,1.015228,0.016284,0.045352,0.054558,60.382828,24.118515,-148.09314,,,
729608185.65427,0.068933,-2.176422,57.92555,0.039963,0.004654,1.015228,0.016284,0.045352,0.054558,60.382828,24.118515,-148.09314,,,
729608185.657586,0.070254,-2.15692,57.94045,0.045029,0.015549,0.998688,-0.010197,0.067712,0.045511,60.382828,24.118515,-148.09314,,,
729608185.661067,0.070254,-2.15692,57.94045,0.045029,0.015549,0.998688,-0.010197,0.067712,0.045511,60.382828,24.118515,-148.09314,,,
729608185.664269,0.06685,-2.138393,57.953189,0.045029,0.015549,0.998688,-0.010197,0.067712,0.045511,60.382828,24.118515,-148.09314,,,
729608185.667597,0.061738,-2.11666,57.963408,0.046677,0.023392,0.993134,-0.031523,0.065344,0.027202,60.382828,24.118515,-148.09314,,,
729608185.670932,0.061738,-2.11666,57.963408,0.046677,0.023392,0.993134,-0.031523,0.065344,0.027202,60.382828,24.118515,-148.09314,,,
729608185.674322,0.051534,-2.09981,57.970986,0.046677,0.023392,0.993134,-0.031523,0.065344,0.027202,60.382828,24.118515,-148.09314,,,
729608185.677628,0.040647,-2.083977,57.97575,0.045959,0.023468,0.987793,-0.048357,0.034235,0.010147,60.382828,24.118515,-148.09314,,,
729608185.680781,0.040647,-2.083977,57.97575,0.045959,0.023468,0.987793,-0.048357,0.034235,0.010147,60.382828,24.118515,-148.09314,,,
729608185.684303,0.026523,-2.076967,57.978026,0.045959,0.023468,0.987793,-0.048357,0.034235,0.010147,60.382828,24.118515,-148.09314,,,
729608185.687585,0.013784,-2.071824,57.978649,0.043167,0.018661,0.986862,-0.050168,-0.007545,0.001072,60.382828,24.118515,-148.09314,,,
729608185.690914,0.013784,-2.071824,57.978649,0.043167,0.018661,0.986862,-0.050168,-0.007545,0.001072,60.448486,24.092697,-147.867416,,,
729608185.694312,-0.000561,-2.075487,57.97819,0.043167,0.018661,0.986862,-0.050168,-0.007545,0.001072,60.448486,24.092697,-147.867416,,,
729608185.697581,-0.014651,-2.078375,57.978065,0.04248,0.009293,1.002808,-0.034881,-0.030921,0.002702,60.448486,24.092697,-147.867416,,,
729608185.701007,-0.014651,-2.078375,57.978065,0.04248,0.009293,1.002808,-0.034881,-0.030921,0.002702,60.448486,24.092697,-147.867416,,,
729608185.704256,-0.025138,-2.088165,57.979032,0.04248,0.009293,1.002808,-0.034881,-0.030921,0.002702,60.448486,24.092697,-147.867416,,,
729608185.707588,-0.03728,-2.094857,57.981871,0.040588,-0.001175,1.016403,-0.01657,-0.036836,0.015864,60.448486,24.092697,-147.867416,,,
729608185.710979,-0.03728,-2.094857,57.981871,0.040588,-0.001175,1.016403,-0.01657,-0.036836,0.015864,60.448486,24.092697,-147.867416,,,
729608185.714306,-0.04129,-2.106404,57.987585,0.040588,-0.001175,1.016403,-0.01657,-0.036836,0.015864,60.448486,24.092697,-147.867416,,,
729608185.717581,-0.045514,-2.114789,57.995906,0.038422,-0.009476,1.026321,0.007114,-0.036266,0.035839,60.448486,24.092697,-147.867416,,,
729608185.720936,-0.045514,-2.114789,57.995906,0.038422,-0.009476,1.026321,0.007114,-0.036266,0.035839,60.448486,24.092697,-147.867416,,,
729608185.724273,-0.042778,-2.126444,58.00704,0.038422,-0.009476,1.026321,0.007114,-0.036266,0.035839,60.448486,24.092697,-147.867416,,,
729608185.727624,-0.038301,-2.136398,58.022506,0.036285,-0.010803,1.031708,0.022363,-0.029697,0.064274,60.448486,24.092697,-147.867416,,,
729608185.730928,-0.038301,-2.136398,58.022506,0.036285,-0.010803,1.031708,0.022363,-0.029697,0.064274,60.448486,24.092697,-147.867416,,,
729608185.73426,-0.032382,-2.14459,58.043555,0.036285,-0.010803,1.031708,0.022363,-0.029697,0.064274,60.324615,24.120667,-148.165802,,,
729608185.737592,-0.024107,-2.151084,58.071522,0.020111,-0.020767,1.029587,0.020778,-0.006032,0.114476,60.324615,24.120667,-148.165802,,,
729608185.740992,-0.024107,-2.151084,58.071522,0.020111,-0.020767,1.029587,0.020778,-0.006032,0.114476,60.324615,24.120667,-148.165802,,,
729608185.744308,-0.019963,-2.152387,58.106632,0.020111,-0.020767,1.029587,0.020778,-0.006032,0.114476,60.324615,24.120667,-148.165802,,,
729608185.747582,-0.013103,-2.149955,58.148086,0.012314,-0.026688,1.028214,0.00955,0.044998,0.159627,60.324615,24.120667,-148.165802,,,
729608185.750918,-0.013103,-2.149955,58.148086,0.012314,-0.026688,1.028214,0.00955,0.044998,0.159627,60.324615,24.120667,-148.165802,,,
729608185.754274,-0.013158,-2.135735,58.195114,0.012314,-0.026688,1.028214,0.00955,0.044998,0.159627,60.324615,24.120667,-148.165802,,,
729608185.757582,-0.010651,-2.119201,58.247303,0.014099,-0.01973,1.042419,0.000359,0.054105,0.192711,60.324615,24.120667,-148.165802,,,
729608185.760975,-0.010651,-2.119201,58.247303,0.014099,-0.01973,1.042419,0.000359,0.054105,0.192711,60.324615,24.120667,-148.165802,,,
729608185.764321,-0.012183,-2.107109,58.303737,0.014099,-0.01973,1.042419,0.000359,0.054105,0.192711,60.324615,24.120667,-148.165802,,,
729608185.767582,-0.00862,-2.102514,58.362128,0.009399,-0.013748,0.997665,0.015617,0.020799,0.203833,60.324615,24.120667,-148.165802,,,
729608185.770933,-0.00862,-2.102514,58.362128,0.009399,-0.013748,0.997665,0.015617,0.020799,0.203833,60.324615,24.120667,-148.165802,,,
729608185.774268,-0.006235,-2.096005,58.421171,0.009399,-0.013748,0.997665,0.015617,0.020799,0.203833,60.386993,24.191803,-147.891968,,,
729608185.777638,6.5e-05,-2.089115,58.479716,0.018372,-0.014511,1.015671,0.02671,0.025788,0.199743,60.386993,24.191803,-147.891968,,,
729608185.780932,6.5e-05,-2.089115,58.479716,0.018372,-0.014511,1.015671,0.02671,0.025788,0.199743,60.386993,24.191803,-147.891968,,,
729608185.784252,0.006435,-2.082543,58.536306,0.018372,-0.014511,1.015671,0.02671,0.025788,0.199743,60.386993,24.191803,-147.891968,,,
729608185.787536,0.017185,-2.076526,58.587794,0.031128,-0.007355,1.012527,0.054237,0.031301,0.151926,60.386993,24.191803,-147.891968,,,
729608185.791037,0.017185,-2.076526,58.587794,0.031128,-0.007355,1.012527,0.054237,0.031301,0.151926,60.386993,24.191803,-147.891968,,,
729608185.794325,0.032316,-2.069511,58.629756,0.031128,-0.007355,1.012527,0.054237,0.031301,0.151926,60.386993,24.191803,-147.891968,,,
729608185.79759,0.050073,-2.06688,58.66064,0.057571,0.021469,1.011826,0.081721,-0.002384,0.072378,60.386993,24.191803,-147.891968,,,
729608185.80094,0.050073,-2.06688,58.66064,0.057571,0.021469,1.011826,0.081721,-0.002384,0.072378,60.386993,24.191803,-147.891968,,,
729608185.804365,0.07298,-2.069703,58.68032,0.057571,0.021469,1.011826,0.081721,-0.002384,0.072378,60.386993,24.191803,-147.891968,,,
729608185.807582,0.097387,-2.075844,58.689469,0.065994,0.022095,0.996231,0.101015,-0.020035,0.005353,60.386993,24.191803,-147.891968,,,
729608185.81103,0.097387,-2.075844,58.689469,0.065994,0.022095,0.996231,0.101015,-0.020035,0.005353,60.386993,24.191803,-147.891968,,,
729608185.814254,0.125358,-2.081739,58.690323,0.065994,0.022095,0.996231,0.101015,-0.020035,0.005353,60.302643,24.228073,-148.222473,,,
729608185.817599,0.15112,-2.08477,58.685223,0.059998,0.008728,0.997574,0.103192,-0.015047,-0.034407,60.302643,24.228073,-148.222473,,,
729608185.820959,0.15112,-2.08477,58.685223,0.059998,0.008728,0.997574,0.103192,-0.015047,-0.034407,60.302643,24.228073,-148.222473,,,
729608185.824319,0.180131,-2.089205,58.6766,0.059998,0.008728,0.997574,0.103192,-0.015047,-0.034407,60.302643,24.228073,-148.222473,,,
729608185.827629,0.203242,-2.087788,58.665966,0.057419,0.002304,0.998276,0.091304,-0.004668,-0.046267,60.302643,24.228073,-148.222473,,,
729608185.831008,0.203242,-2.087788,58.665966,0.057419,0.002304,0.998276,0.091304,-0.004668,-0.046267,60.302643,24.228073,-148.222473,,,
729608185.834269,0.228952,-2.090836,58.654549,0.057419,0.002304,0.998276,0.091304,-0.004668,-0.046267,60.302643,24.228073,-148.222473,,,
729608185.837594,0.247506,-2.092778,58.642871,0.052673,0.001724,0.981461,0.069548,-0.03096,-0.047695,60.302643,24.228073,-148.222473,,,
729608185.840918,0.247506,-2.092778,58.642871,0.052673,0.001724,0.981461,0.069548,-0.03096,-0.047695,60.302643,24.228073,-148.222473,,,
729608185.844347,0.266745,-2.104726,58.630099,0.052673,0.001724,0.981461,0.069548,-0.03096,-0.047695,60.302643,24.228073,-148.222473,,,
729608185.847676,0.277266,-2.117148,58.614993,0.043625,0.006622,0.955154,0.034635,-0.076575,-0.063461,60.302643,24.228073,-148.222473,,,
729608185.850929,0.277266,-2.117148,58.614993,0.043625,0.006622,0.955154,0.034635,-0.076575,-0.063461,60.302643,24.228073,-148.222473,,,
729608185.854319,0.286587,-2.141707,58.596573,0.043625,0.006622,0.955154,0.034635,-0.076575,-0.063461,60.302643,24.228073,-148.222473,,,
729608185.857584,0.287679,-2.168489,58.573796,0.044952,0.01593,0.944824,-0.006021,-0.12393,-0.094616,60.273224,23.755661,-148.078033,,,
729608185.860978,0.287679,-2.168489,58.573796,0.044952,0.01593,0.944824,-0.006021,-0.12393,-0.094616,60.273224,23.755661,-148.078033,,,
729608185.86428,0.285996,-2.205926,58.546009,0.044952,0.01593,0.944824,-0.006021,-0.12393,-0.094616,60.273224,23.755661,-148.078033,,,
729608185.867594,0.276992,-2.247702,58.51417,0.054047,0.019562,0.937988,-0.039808,-0.15905,-0.115587,60.273224,23.755661,-148.078033,,,
729608185.87099,0.276992,-2.247702,58.51417,0.054047,0.019562,0.937988,-0.039808,-0.15905,-0.115587,60.273224,23.755661,-148.078033,,,
729608185.874262,0.266075,-2.294321,58.480853,0.054047,0.019562,0.937988,-0.039808,-0.15905,-0.115587,60.273224,23.755661,-148.078033,,,
729608185.877638,0.253901,-2.339807,58.448786,0.050995,0.005966,0.951965,-0.055838,-0.134838,-0.106142,60.273224,23.755661,-148.078033,,,
729608185.880924,0.253901,-2.339807,58.448786,0.050995,0.005966,0.951965,-0.055838,-0.134838,-0.106142,60.273224,23.755661,-148.078033,,,
729608185.884339,0.238783,-2.375325,58.419576,0.050995,0.005966,0.951965,-0.055838,-0.134838,-0.106142,60.273224,23.755661,-148.078033,,,
729608185.887595,0.222992,-2.39784,58.395348,0.052872,-0.018417,0.985672,-0.06717,-0.022937,-0.065549,60.273224,23.755661,-148.078033,,,
729608185.890929,0.222992,-2.39784,58.395348,0.052872,-0.018417,0.985672,-0.06717,-0.022937,-0.065549,60.273224,23.755661,-148.078033,,,
729608185.894308,0.203824,-2.401479,58.377687,0.052872,-0.018417,0.985672,-0.06717,-0.022937,-0.065549,60.273224,23.755661,-148.078033,,,
729608185.897589,0.18525,-2.393937,58.366932,0.058334,-0.030746,1.003677,-0.067403,0.066021,-0.019203,60.077515,24.086517,-147.843674,,,
729608185.900939,0.18525,-2.393937,58.366932,0.058334,-0.030746,1.003677,-0.067403,0.066021,-0.019203,60.077515,24.086517,-147.843674,,,
729608185.904289,0.165817,-2.374593,58.361982,0.058334,-0.030746,1.003677,-0.067403,0.066021,-0.019203,60.077515,24.086517,-147.843674,,,
729608185.907576,0.146676,-2.351056,58.359227,0.057617,-0.025986,0.991074,-0.067002,0.105573,-0.005134,60.077515,24.086517,-147.843674,,,
729608185.911046,0.146676,-2.351056,58.359227,0.057617,-0.025986,0.991074,-0.067002,0.105573,-0.005134,60.077515,24.086517,-147.843674,,,
729608185.914261,0.127256,-2.322476,58.355995,0.057617,-0.025986,0.991074,-0.067002,0.105573,-0.005134,60.077515,24.086517,-147.843674,,,
729608185.917591,0.106842,-2.296619,58.350485,0.059219,-0.005295,0.982559,-0.075527,0.095634,-0.026875,60.077515,24.086517,-147.843674,,,
729608185.920932,0.106842,-2.296619,58.350485,0.059219,-0.005295,0.982559,-0.075527,0.095634,-0.026875,60.077515,24.086517,-147.843674,,,
729608185.924315,0.085144,-2.272041,58.34221,0.059219,-0.005295,0.982559,-0.075527,0.095634,-0.026875,60.077515,24.086517,-147.843674,,,
729608185.927635,0.062375,-2.253655,58.33159,0.051987,0.006317,0.968475,-0.086736,0.056235,-0.038839,60.077515,24.086517,-147.843674,,,
729608185.930933,0.062375,-2.253655,58.33159,0.051987,0.006317,0.968475,-0.086736,0.056235,-0.038839,60.077515,24.086517,-147.843674,,,
729608185.934281,0.037925,-2.239779,58.319589,0.051987,0.006317,0.968475,-0.086736,0.056235,-0.038839,60.077515,24.086517,-147.843674,,,
729608185.937589,0.013221,-2.233128,58.307376,0.037613,0.001938,0.96701,-0.093273,0.012306,-0.042576,60.207428,24.193939,-147.82962,,,
729608185.940959,0.013221,-2.233128,58.307376,0.037613,0.001938,0.96701,-0.093273,0.012306,-0.042576,60.207428,24.193939,-147.82962,,,
729608185.944309,-0.013606,-2.231352,58.295099,0.037613,0.001938,0.96701,-0.093273,0.012306,-0.042576,60.207428,24.193939,-147.82962,,,
729608185.947578,-0.013606,-2.234433,58.284309,0.032578,-0.007111,0.976151,-0.094511,-0.003536,-0.029574,60.207428,24.193939,-147.82962,,,
729608185.950924,-0.038531,-2.234433,58.284309,0.032578,-0.007111,0.976151,-0.094511,-0.003536,-0.029574,60.207428,24.193939,-147.82962,,,
729608185.954272,-0.065703,-2.236022,58.27624,0.032578,-0.007111,0.976151,-0.094511,-0.003536,-0.029574,60.207428,24.193939,-147.82962,,,
729608185.957595,-0.090278,-2.238583,58.270638,0.031174,-0.017105,0.993912,-0.086363,-0.000101,-0.012651,60.207428,24.193939,-147.82962,,,
729608185.961038,-0.090278,-2.238583,58.270638,0.031174,-0.017105,0.993912,-0.086363,-0.000101,-0.012651,60.207428,24.193939,-147.82962,,,
729608185.964263,-0.114312,-2.238962,58.266463,0.031174,-0.017105,0.993912,-0.086363,-0.000101,-0.012651,60.207428,24.193939,-147.82962,,,
729608185.967618,-0.114312,-2.240167,58.262376,0.040955,-0.016891,1.003189,-0.073374,0.003441,-0.018531,60.207428,24.193939,-147.82962,,,
729608185.970918,-0.137536,-2.240167,58.262376,0.040955,-0.016891,1.003189,-0.073374,0.003441,-0.018531,60.207428,24.193939,-147.82962,,,
729608185.974358,-0.158179,-2.239909,58.256268,0.040955,-0.016891,1.003189,-0.073374,0.003441,-0.018531,60.207428,24.193939,-147.82962,,,
729608185.977636,-0.180094,-2.241936,58.246256,0.048492,-0.002426,1.002319,-0.069348,0.002589,-0.045317,60.21199,24.309891,-147.897186,,,
729608185.980925,-0.180094,-2.241936,58.246256,0.048492,-0.002426,1.002319,-0.069348,0.002589,-0.045317,60.21199,24.309891,-147.897186,,,
729608185.984259,-0.199647,-2.241622,58.231925,0.048492,-0.002426,1.002319,-0.069348,0.002589,-0.045317,60.21199,24.309891,-147.897186,,,
729608185.987644,-0.199647,-2.240466,58.214742,0.054916,0.006088,1.003067,-0.069568,0.017168,-0.05906,60.21199,24.309891,-147.897186,,,
729608185.990944,-0.221738,-2.240466,58.214742,0.054916,0.006088,1.003067,-0.069568,0.017168,-0.05906,60.21199,24.309891,-147.897186,,,
729608185.99432,-0.241445,-2.235283,58.197134,0.054916,0.006088,1.003067,-0.069568,0.017168,-0.05906,60.21199,24.309891,-147.897186,,,
729608185.99762,-0.241445,-2.235283,58.197134,0.050842,-0.001663,1.007568,-0.062559,0.043803,-0.051038,60.21199,24.309891,-147.897186,,,
729608186.000995,-0.260806,-2.229159,58.180917,0.050842,-0.001663,1.007568,-0.062559,0.043803,-0.051038,60.21199,24.309891,-147.897186,,,
729608186.004273,-0.278116,-2.216631,58.166961,0.050842,-0.001663,1.007568,-0.062559,0.043803,-0.051038,60.21199,24.309891,-147.897186,,,
729608186.007587,-0.278116,-2.216631,58.166961,0.050842,-0.001663,1.007568,-0.062559,0.043803,-0.044177,60.21199,24.309891,-147.897186,,,
729608186.010987,-0.29289,-2.202145,58.15427,0.050186,-0.009186,1.0159,-0.053758,0.073655,-0.044177,60.21199,24.309891,-147.897186,,,
729608186.014319,-0.307119,-2.180063,58.141417,0.050186,-0.009186,1.0159,-0.053758,0.073655,-0.044177,60.21199,24.309891,-147.897186,,,
729608186.017634,-0.307119,-2.180063,58.141417,0.05397,-0.006393,1.015457,-0.042794,0.106504,-0.04271,60.21199,24.309891,-147.897186,,,
729608186.020934,-0.318821,-2.154455,58.128588,0.05397,-0.006393,1.015457,-0.042794,0.106504,-0.04271,60.425629,24.364716,-147.787949,,,
729608186.02428,-0.331911,-2.123589,58.116172,0.05397,-0.006393,1.015457,-0.042794,0.106504,-0.04271,60.425629,24.364716,-147.787949,,,
729608186.027644,-0.331911,-2.123589,58.116172,0.05397,-0.006393,1.015457,-0.042794,0.106504,-0.04271,60.425629,24.364716,-147.787949,,,
729608186.030927,-0.344606,-2.088593,58.103756,0.052628,0.00032,1.010681,-0.04973,0.128804,-0.042567,60.425629,24.364716,-147.787949,,,
729608186.034256,-0.358838,-2.052251,58.091784,0.052628,0.00032,1.010681,-0.04973,0.128804,-0.042567,60.425629,24.364716,-147.787949,,,
729608186.037594,-0.358838,-2.052251,58.091784,0.052628,0.00032,1.010681,-0.062035,0.133868,-0.039361,60.425629,24.364716,-147.787949,,,
729608186.041002,-0.376641,-2.01431,58.080418,0.050385,0.006775,1.000565,-0.062035,0.133868,-0.039361,60.425629,24.364716,-147.787949,,,
729608186.044315,-0.394215,-1.979185,58.069009,0.050385,0.006775,1.000565,-0.062035,0.133868,-0.039361,60.425629,24.364716,-147.787949,,,
729608186.047633,-0.394215,-1.979185,58.069009,0.050385,0.006775,1.000565,-0.062035,0.133868,-0.039361,60.425629,24.364716,-147.787949,,,
729608186.050934,-0.414985,-1.947891,58.057322,0.048431,0.009247,0.992676,-0.064283,0.103566,-0.041569,60.425629,24.364716,-147.787949,,,
729608186.054326,-0.433715,-1.920643,58.044622,0.048431,0.009247,0.992676,-0.064283,0.103566,-0.041569,60.425629,24.364716,-147.787949,,,
729608186.057598,-0.433715,-1.920643,58.044622,0.048431,0.009247,0.992676,-0.068361,0.065857,-0.049533,60.425629,24.364716,-147.787949,,,
729608186.060982,-0.452951,-1.901875,58.030696,0.044937,0.008957,0.988739,-0.068361,0.065857,-0.049533,60.573303,24.47142,-147.825119,,,
729608186.064276,-0.471245,-1.885611,58.015243,0.044937,0.008957,0.988739,-0.068361,0.065857,-0.049533,60.573303,24.47142,-147.825119,,,
729608186.06758,-0.471245,-1.885611,58.015243,0.044937,0.008957,0.988739,-0.068361,0.065857,-0.049533,60.573303,24.47142,-147.825119,,,
729608186.070932,-0.485404,-1.879952,57.998595,0.045975,0.011612,0.986938,-0.055387,0.025569,-0.056627,60.573303,24.47142,-147.825119,,,
729608186.074258,-0.500159,-1.874879,57.98206,0.045975,0.011612,0.986938,-0.055387,0.025569,-0.056627,60.573303,24.47142,-147.825119,,,
729608186.077662,-0.500159,-1.874879,57.98206,0.045975,0.011612,0.986938,-0.031609,0.001067,-0.048658,60.573303,24.47142,-147.825119,,,
729608186.080965,-0.509292,-1.878535,57.966147,0.0392,0.004898,0.997162,-0.031609,0.001067,-0.048658,60.573303,24.47142,-147.825119,,,
729608186.084253,-0.516848,-1.879418,57.952641,0.0392,0.004898,0.997162,-0.031609,0.001067,-0.048658,60.573303,24.47142,-147.825119,,,
729608186.08759,-0.516848,-1.879418,57.952641,0.0392,0.004898,0.997162,-0.031609,0.001067,-0.048658,60.573303,24.47142,-147.825119,,,
729608186.090919,-0.520031,-1.882893,57.942931,0.029144,-0.006088,1.013794,-0.004436,0.015401,-0.02488,60.573303,24.47142,-147.825119,,,
729608186.094336,-0.519949,-1.877473,57.937571,0.029144,-0.006088,1.013794,-0.004436,0.015401,-0.02488,60.573303,24.47142,-147.825119,,,
729608186.097655,-0.519949,-1.877473,57.937571,0.029144,-0.006088,1.013794,-0.004436,0.015401,-0.02488,60.573303,24.47142,-147.825119,,,
729608186.100926,-0.516031,-1.869597,57.936377,0.020126,-0.015076,1.031204,0.029079,0.064032,0.004015,60.67157,24.510605,-147.816864,,,
729608186.104257,-0.507769,-1.851067,57.938951,0.020126,-0.015076,1.031204,0.029079,0.064032,0.004015,60.67157,24.510605,-147.816864,,,
729608186.107669,-0.507769,-1.851067,57.938951,0.020126,-0.015076,1.031204,0.029079,0.064032,0.004015,60.67157,24.510605,-147.816864,,,
729608186.110966,-0.494277,-1.832365,57.945084,0.018906,-0.0121,1.036942,0.052235,0.096033,0.026327,60.67157,24.510605,-147.816864,,,
729608186.114256,-0.479408,-1.804404,57.955152,0.018906,-0.0121,1.036942,0.052235,0.096033,0.026327,60.67157,24.510605,-147.816864,,,
729608186.117666,-0.479408,-1.804404,57.955152,0.018906,-0.0121,1.036942,0.052235,0.096033,0.026327,60.67157,24.510605,-147.816864,,,
729608186.120973,-0.460565,-1.77773,57.968787,0.005798,-0.010361,1.025208,0.059696,0.115835,0.049814,60.67157,24.510605,-147.816864,,,
729608186.124244,-0.444797,-1.744617,57.98427,0.005798,-0.010361,1.025208,0.059696,0.115835,0.049814,60.67157,24.510605,-147.816864,,,
729608186.127685,-0.444797,-1.744617,57.98427,0.005798,-0.010361,1.025208,0.059696,0.115835,0.049814,60.67157,24.510605,-147.816864,,,
729608186.130938,-0.427353,-1.716264,57.999867,-0.000137,-0.000626,1.009109,0.044532,0.110172,0.049076,60.67157,24.510605,-147.816864,,,
729608186.134253,-0.415198,-1.686508,58.014429,-0.000137,-0.000626,1.009109,0.044532,0.110172,0.049076,60.67157,24.510605,-147.816864,,,
729608186.137662,-0.415198,-1.686508,58.014429,-0.000137,-0.000626,1.009109,0.044532,0.110172,0.049076,60.67157,24.510605,-147.816864,,,
729608186.14091,-0.401308,-1.665934,58.026168,0.00174,0.014145,0.988434,0.034679,0.068241,0.031391,60.93103,24.331696,-147.845856,,,
729608186.144343,-0.392623,-1.649037,58.035117,0.00174,0.014145,0.988434,0.034679,0.068241,0.031391,60.93103,24.331696,-147.845856,,,
729608186.147724,-0.392623,-1.649037,58.035117,0.00174,0.014145,0.988434,0.034679,0.068241,0.031391,60.93103,24.331696,-147.845856,,,
729608186.15092,-0.382259,-1.645825,58.042029,-0.007477,0.016953,0.97731,0.0169,-0.001296,0.019089,60.93103,24.331696,-147.845856,,,
729608186.154254,-0.377957,-1.648972,58.048227,-0.007477,0.016953,0.97731,0.0169,-0.001296,0.019089,60.93103,24.331696,-147.845856,,,
729608186.157644,-0.377957,-1.648972,58.048227,-0.007477,0.016953,0.97731,0.0169,-0.001296,0.019089,60.93103,24.331696,-147.845856,,,
729608186.16102,-0.374793,-1.663628,58.055459,-0.018112,0.00708,0.964218,-0.005012,-0.058399,0.030859,60.93103,24.331696,-147.845856,,,
729608186.164249,-0.378565,-1.682097,58.065047,-0.018112,0.00708,0.964218,-0.005012,-0.058399,0.030859,60.93103,24.331696,-147.845856,,,
729608186.167584,-0.378565,-1.682097,58.065047,-0.018112,0.00708,0.964218,-0.005012,-0.058399,0.030859,60.93103,24.331696,-147.845856,,,
729608186.170957,-0.386463,-1.706384,58.078555,-0.019302,0.000824,0.966461,-0.040971,-0.092139,0.057193,60.93103,24.331696,-147.845856,,,
729608186.17425,-0.400274,-1.734738,58.095984,-0.019302,0.000824,0.966461,-0.040971,-0.092139,0.057193,60.93103,24.331696,-147.845856,,,
729608186.177696,-0.400274,-1.734738,58.095984,-0.019302,0.000824,0.966461,-0.040971,-0.092139,0.057193,60.93103,24.331696,-147.845856,,,
729608186.180926,-0.419414,-1.766366,58.116388,-0.011688,0.002335,0.968506,-0.068343,-0.124599,0.078089,60.93103,24.331696,-147.845856,,,
729608186.184253,-0.441034,-1.803448,58.139343,-0.011688,0.002335,0.968506,-0.068343,-0.124599,0.078089,60.661774,24.47554,-147.823181,,,
729608186.187584,-0.441034,-1.803448,58.139343,-0.011688,0.002335,0.968506,-0.068343,-0.124599,0.078089,60.661774,24.47554,-147.823181,,,
729608186.190944,-0.464675,-1.841301,58.164459,-0.003052,0.003738,0.975037,-0.078699,-0.139504,0.092494,60.661774,24.47554,-147.823181,,,
729608186.194291,-0.487796,-1.882443,58.190616,-0.003052,0.003738,0.975037,-0.078699,-0.139504,0.092494,60.661774,24.47554,-147.823181,,,
729608186.1977,-0.487796,-1.882443,58.190616,-0.003052,0.003738,0.975037,-0.078699,-0.139504,0.092494,60.661774,24.47554,-147.823181,,,
729608186.200936,-0.509718,-1.921562,58.216782,0.012695,0.004715,0.98732,-0.066666,-0.155212,0.092006,60.661774,24.47554,-147.823181,,,
729608186.204262,-0.528752,-1.967087,58.242988,0.012695,0.004715,0.98732,-0.066666,-0.155212,0.092006,60.661774,24.47554,-147.823181,,,
729608186.207603,-0.528752,-1.967087,58.242988,0.012695,0.004715,0.98732,-0.066666,-0.155212,0.092006,60.661774,24.47554,-147.823181,,,
729608186.211039,-0.544407,-2.007674,58.269303,0.024948,0.003922,0.997223,-0.043637,-0.163583,0.094798,60.661774,24.47554,-147.823181,,,
729608186.214249,-0.557088,-2.055014,58.295927,0.024948,0.003922,0.997223,-0.043637,-0.163583,0.094798,60.661774,24.47554,-147.823181,,,
729608186.21761,-0.557088,-2.055014,58.295927,0.024948,0.003922,0.997223,-0.043637,-0.163583,0.094798,60.661774,24.47554,-147.823181,,,
729608186.220935,-0.563566,-2.094613,58.323581,0.029373,-0.001312,1.005371,-0.026568,-0.151051,0.099127,60.661774,24.47554,-147.823181,,,
729608186.22426,-0.572207,-2.136843,58.352803,0.029373,-0.001312,1.005371,-0.026568,-0.151051,0.099127,60.558777,24.650223,-147.674393,,,
729608186.227647,-0.572207,-2.136843,58.352803,0.029373,-0.001312,1.005371,-0.026568,-0.151051,0.099127,60.558777,24.650223,-147.674393,,,
729608186.230938,-0.57579,-2.163999,58.383976,0.036102,-0.001404,1.00766,-0.023109,-0.097834,0.113623,60.558777,24.650223,-147.674393,,,
729608186.234258,-0.583902,-2.190394,58.417137,0.036102,-0.001404,1.00766,-0.023109,-0.097834,0.113623,60.558777,24.650223,-147.674393,,,
729608186.237587,-0.583902,-2.190394,58.417137,0.036102,-0.001404,1.00766,-0.023109,-0.097834,0.113623,60.558777,24.650223,-147.674393,,,
729608186.240945,-0.588944,-2.199682,58.452688,0.047226,0.005096,1.011932,-0.027673,-0.045266,0.129848,60.558777,24.650223,-147.674393,,,
729608186.244308,-0.598744,-2.210907,58.489542,0.047226,0.005096,1.011932,-0.027673,-0.045266,0.129848,60.558777,24.650223,-147.674393,,,
729608186.247646,-0.598744,-2.210907,58.489542,0.047226,0.005096,1.011932,-0.027673,-0.045266,0.129848,60.558777,24.650223,-147.674393,,,
729608186.250926,-0.60637,-2.201777,58.526434,0.056564,0.008591,1.011871,-0.020183,0.016816,0.127213,60.558777,24.650223,-147.674393,,,
729608186.254258,-0.613651,-2.195646,58.561719,0.056564,0.008591,1.011871,-0.020183,0.016816,0.127213,60.558777,24.650223,-147.674393,,,
729608186.257607,-0.613651,-2.195646,58.561719,0.056564,0.008591,1.011871,-0.020183,0.016816,0.127213,60.558777,24.650223,-147.674393,,,
729608186.261039,-0.616393,-2.174672,58.594666,0.061905,0.013382,1.020935,-0.004233,0.054573,0.104435,60.558777,24.650223,-147.674393,,,
729608186.264249,-0.618799,-2.158732,58.624387,0.061905,0.013382,1.020935,-0.004233,0.054573,0.104435,60.260025,24.746246,-147.62233,,,
729608186.267604,-0.618799,-2.158732,58.624387,0.061905,0.013382,1.020935,-0.004233,0.054573,0.104435,60.260025,24.746246,-147.62233,,,
729608186.270945,-0.617785,-2.134925,58.651205,0.058762,0.010269,1.013901,0.00268,0.068052,0.084867,60.260025,24.746246,-147.62233,,,
729608186.274257,-0.617707,-2.115264,58.675674,0.058762,0.010269,1.013901,0.00268,0.068052,0.084867,60.260025,24.746246,-147.62233,,,
729608186.277641,-0.617707,-2.115264,58.675674,0.058762,0.010269,1.013901,0.00268,0.068052,0.084867,60.260025,24.746246,-147.62233,,,
729608186.280948,-0.61684,-2.089917,58.69867,0.050186,0.003876,1.006042,-0.001954,0.079411,0.077667,60.260025,24.746246,-147.62233,,,
729608186.284256,-0.618792,-2.067469,58.721485,0.050186,0.003876,1.006042,-0.001954,0.079411,0.077667,60.260025,24.746246,-147.62233,,,
729608186.287589,-0.618792,-2.067469,58.721485,0.050186,0.003876,1.006042,-0.001954,0.079411,0.077667,60.260025,24.746246,-147.62233,,,
729608186.290942,-0.61898,-2.043576,58.74506,0.038849,-0.001389,1.004883,-0.001422,0.076608,0.080324,60.260025,24.746246,-147.62233,,,
729608186.294302,-0.620118,-2.023451,58.769002,0.038849,-0.001389,1.004883,-0.001422,0.076608,0.080324,60.260025,24.746246,-147.62233,,,
729608186.297667,-0.620118,-2.023451,58.769002,0.038849,-0.001389,1.004883,-0.001422,0.076608,0.080324,60.260025,24.746246,-147.62233,,,
729608186.300948,-0.618791,-2.006937,58.791993,0.033997,-0.011154,1.001907,0.012643,0.041046,0.072774,60.260025,24.746246,-147.62233,,,
729608186.304258,-0.615844,-1.997627,58.812867,0.033997,-0.011154,1.001907,0.012643,0.041046,0.072774,60.559448,24.814636,-147.79277,,,
729608186.307609,-0.615844,-1.997627,58.812867,0.033997,-0.011154,1.001907,0.012643,0.041046,0.072774,60.559448,24.814636,-147.79277,,,
729608186.311003,-0.608291,-1.994082,58.831419,0.034653,-0.014297,1.003052,0.035755,0.000487,0.055631,60.559448,24.814636,-147.79277,,,
729608186.314245,-0.597714,-1.995797,58.847948,0.034653,-0.014297,1.003052,0.035755,0.000487,0.055631,60.559448,24.814636,-147.79277,,,
729608186.317617,-0.597714,-1.995797,58.847948,0.034653,-0.014297,1.003052,0.035755,0.000487,0.055631,60.559448,24.814636,-147.79277,,,
729608186.320946,-0.580922,-2.003167,58.863577,0.034424,-0.017487,1.011429,0.065631,-0.030976,0.051666,60.559448,24.814636,-147.79277,,,
729608186.324256,-0.56223,-2.013713,58.879886,0.034424,-0.017487,1.011429,0.065631,-0.030976,0.051666,60.559448,24.814636,-147.79277,,,
729608186.327643,-0.56223,-2.013713,58.879886,0.034424,-0.017487,1.011429,0.065631,-0.030976,0.051666,60.559448,24.814636,-147.79277,,,
729608186.330942,-0.537619,-2.030908,58.897724,0.036301,-0.026215,1.010971,0.081597,-0.04903,0.063295,60.559448,24.814636,-147.79277,,,
729608186.334253,-0.514828,-2.045171,58.917378,0.036301,-0.026215,1.010971,0.081597,-0.04903,0.063295,60.559448,24.814636,-147.79277,,,
729608186.337589,-0.514828,-2.045171,58.917378,0.036301,-0.026215,1.010971,0.081597,-0.04903,0.063295,60.559448,24.814636,-147.79277,,,
729608186.340959,-0.486593,-2.065023,58.939288,0.038849,-0.02951,1.014236,0.089637,-0.042409,0.076355,60.559448,24.814636,-147.79277,,,
729608186.344316,-0.461469,-2.078231,58.963477,0.038849,-0.02951,1.014236,0.089637,-0.042409,0.076355,60.559448,24.814636,-147.79277,,,
729608186.347679,-0.461469,-2.078231,58.963477,0.038849,-0.02951,1.014236,0.089637,-0.042409,0.076355,60.360886,24.796417,-147.441376,,,
729608186.350916,-0.431719,-2.096104,58.989048,0.043396,-0.026688,1.015427,0.094239,-0.038971,0.08592,60.360886,24.796417,-147.441376,,,
729608186.354266,-0.406759,-2.108215,59.014817,0.043396,-0.026688,1.015427,0.094239,-0.038971,0.08592,60.360886,24.796417,-147.441376,,,
729608186.357689,-0.406759,-2.108215,59.014817,0.043396,-0.026688,1.015427,0.094239,-0.038971,0.08592,60.360886,24.796417,-147.441376,,,
729608186.361031,-0.380274,-2.124608,59.038695,0.052231,-0.018082,1.006393,0.082019,-0.043457,0.073105,60.360886,24.796417,-147.441376,,,
729608186.364246,-0.357708,-2.137829,59.059597,0.052231,-0.018082,1.006393,0.082019,-0.043457,0.073105,60.360886,24.796417,-147.441376,,,
729608186.36761,-0.357708,-2.137829,59.059597,0.052231,-0.018082,1.006393,0.082019,-0.043457,0.073105,60.360886,24.796417,-147.441376,,,
729608186.370944,-0.336219,-2.151141,59.07711,0.06337,-0.004654,1.001663,0.06681,-0.031194,0.046459,60.360886,24.796417,-147.441376,,,
729608186.374251,-0.319083,-2.159445,59.091197,0.06337,-0.004654,1.001663,0.06681,-0.031194,0.046459,60.360886,24.796417,-147.441376,,,
729608186.377651,-0.319083,-2.159445,59.091197,0.06337,-0.004654,1.001663,0.06681,-0.031194,0.046459,60.360886,24.796417,-147.441376,,,
729608186.380936,-0.305152,-2.162669,59.102882,0.069412,0.001938,0.999664,0.047903,0.000329,0.032219,60.360886,24.796417,-147.441376,,,
729608186.384261,-0.292967,-2.163443,59.112438,0.069412,0.001938,0.999664,0.047903,0.000329,0.032219,60.360886,24.796417,-147.441376,,,
729608186.387584,-0.292967,-2.163443,59.112438,0.069412,0.001938,0.999664,0.047903,0.000329,0.032219,60.477692,24.682236,-147.68866,,,
729608186.390939,-0.283234,-2.161301,59.119713,0.073196,-0.002502,1.001282,0.041119,0.012837,0.017214,60.477692,24.682236,-147.68866,,,
729608186.394294,-0.271739,-2.158086,59.124192,0.073196,-0.002502,1.001282,0.041119,0.012837,0.017214,60.477692,24.682236,-147.68866,,,
729608186.397648,-0.271739,-2.158086,59.124192,0.073196,-0.002502,1.001282,0.041119,0.012837,0.017214,60.477692,24.682236,-147.68866,,,
729608186.400928,-0.261404,-2.152385,59.126307,0.071289,-0.007828,1.000488,0.050021,0.018507,0.000703,60.477692,24.682236,-147.68866,,,
729608186.404331,-0.246404,-2.147766,59.127086,0.071289,-0.007828,1.000488,0.050021,0.018507,0.000703,60.477692,24.682236,-147.68866,,,
729608186.407608,-0.246404,-2.147766,59.127086,0.071289,-0.007828,1.000488,0.050021,0.018507,0.000703,60.477692,24.682236,-147.68866,,,
729608186.411079,-0.230709,-2.142584,59.127185,0.061951,-0.016434,1.007019,0.085125,0.015051,-0.005491,60.477692,24.682236,-147.68866,,,
729608186.414247,-0.205892,-2.138357,59.12767,0.061951,-0.016434,1.007019,0.085125,0.015051,-0.005491,60.477692,24.682236,-147.68866,,,
729608186.417614,-0.205892,-2.138357,59.12767,0.061951,-0.016434,1.007019,0.085125,0.015051,-0.005491,60.477692,24.682236,-147.68866,,,
729608186.420946,-0.181757,-2.134468,59.12947,0.049057,-0.026794,1.011322,0.113884,0.022316,0.00605,60.477692,24.682236,-147.68866,,,
729608186.424263,-0.149961,-2.127932,59.133273,0.049057,-0.026794,1.011322,0.113884,0.022316,0.00605,60.477692,24.682236,-147.68866,,,
729608186.427642,-0.149961,-2.127932,59.133273,0.049057,-0.026794,1.011322,0.113884,0.022316,0.00605,60.617981,24.314911,-147.612137,,,
729608186.430938,-0.122312,-2.117732,59.138886,0.041275,-0.029205,1.007263,0.114461,0.053364,0.016473,60.617981,24.314911,-147.612137,,,
729608186.434262,-0.08934,-2.103345,59.14543,0.041275,-0.029205,1.007263,0.114461,0.053364,0.016473,60.617981,24.314911,-147.612137,,,
729608186.437601,-0.08934,-2.103345,59.14543,0.041275,-0.029205,1.007263,0.114461,0.053364,0.016473,60.617981,24.314911,-147.612137,,,
729608186.440949,-0.060963,-2.090177,59.152025,0.04274,-0.017715,0.998749,0.109649,0.060463,0.01786,60.617981,24.314911,-147.612137,,,
729608186.444303,-0.030279,-2.074537,59.158476,0.04274,-0.017715,0.998749,0.109649,0.060463,0.01786,60.617981,24.314911,-147.612137,,,
729608186.447666,-0.030279,-2.074537,59.158476,0.04274,-0.017715,0.998749,0.109649,0.060463,0.01786,60.617981,24.314911,-147.612137,,,
729608186.450927,-0.004536,-2.06501,59.16334,0.04274,-0.006668,0.980042,0.085839,0.051389,0.005989,60.617981,24.314911,-147.612137,,,
729608186.454279,0.0188,-2.050914,59.16509,0.04274,-0.006668,0.980042,0.085839,0.051389,0.005989,60.617981,24.314911,-147.612137,,,
729608186.457598,0.0188,-2.050914,59.16509,0.04274,-0.006668,0.980042,0.085839,0.051389,0.005989,60.617981,24.314911,-147.612137,,,
729608186.461003,0.037869,-2.045804,59.16426,0.041733,0.006485,0.959854,0.054891,0.04357,-0.010407,60.617981,24.314911,-147.612137,,,
729608186.464264,0.053072,-2.035315,59.161785,0.041733,0.006485,0.959854,0.054891,0.04357,-0.010407,60.617981,24.314911,-147.612137,,,
729608186.467605,0.053072,-2.035315,59.161785,0.041733,0.006485,0.959854,0.054891,0.04357,-0.010407,60.584595,24.088928,-148.034195,,,
729608186.470952,0.065269,-2.035817,59.158466,0.040039,0.012589,0.95784,0.039192,0.023101,-0.015149,60.584595,24.088928,-148.034195,,,
729608186.474265,0.07618,-2.031479,59.154759,0.040039,0.012589,0.95784,0.039192,0.023101,-0.015149,60.584595,24.088928,-148.034195,,,
729608186.477663,0.07618,-2.031479,59.154759,0.040039,0.012589,0.95784,0.039192,0.023101,-0.015149,60.584595,24.088928,-148.034195,,,
729608186.480929,0.084449,-2.036986,59.15122,0.032898,0.004089,0.962952,0.034442,0.01877,-0.015085,60.584595,24.088928,-148.034195,,,
729608186.484298,0.093481,-2.031256,59.148625,0.032898,0.004089,0.962952,0.034442,0.01877,-0.015085,60.584595,24.088928,-148.034195,,,
729608186.487649,0.093481,-2.031256,59.148625,0.032898,0.004089,0.962952,0.034442,0.01877,-0.015085,60.584595,24.088928,-148.034195,,,
729608186.490952,0.099351,-2.027989,59.147611,0.030914,-0.001297,0.977097,0.034743,0.050197,-0.00186,60.584595,24.088928,-148.034195,,,
729608186.494276,0.108568,-2.012711,59.148296,0.030914,-0.001297,0.977097,0.034743,0.050197,-0.00186,60.584595,24.088928,-148.034195,,,
729608186.497599,0.108568,-2.012711,59.148296,0.030914,-0.001297,0.977097,0.034743,0.050197,-0.00186,60.584595,24.088928,-148.034195,,,
729608186.500959,0.113436,-1.994754,59.150524,0.027695,0.000504,0.989487,0.037724,0.100305,0.008725,60.584595,24.088928,-148.034195,,,
729608186.504264,0.124787,-1.963223,59.153961,0.027695,0.000504,0.989487,0.037724,0.100305,0.008725,60.584595,24.088928,-148.034195,,,
729608186.507609,0.124787,-1.963223,59.153961,0.027695,0.000504,0.989487,0.037724,0.100305,0.008725,60.584595,24.088928,-148.034195,,,
729608186.510984,0.130832,-1.924304,59.158264,0.027176,0.007339,1.005875,0.04655,0.161647,0.015921,60.785263,23.848251,-148.109543,,,
729608186.514136,0.144362,-1.879472,59.164639,0.027176,0.007339,1.005875,0.04655,0.161647,0.015921,60.785263,23.848251,-148.109543,,,
729608186.517654,0.144362,-1.879472,59.164639,0.027176,0.007339,1.005875,0.04655,0.161647,0.015921,60.785263,23.848251,-148.109543,,,
729608186.520949,0.153722,-1.83783,59.173989,0.015671,0.006943,0.994965,0.055213,0.151267,0.038396,60.785263,23.848251,-148.109543,,,
729608186.524257,0.168144,-1.795543,59.186048,0.015671,0.006943,0.994965,0.055213,0.151267,0.038396,60.785263,23.848251,-148.109543,,,
729608186.527668,0.168144,-1.795543,59.186048,0.015671,0.006943,0.994965,0.055213,0.151267,0.038396,60.785263,23.848251,-148.109543,,,
729608186.530932,0.177439,-1.755888,59.200702,-0.007446,-0.004593,0.978439,0.035403,0.153154,0.053895,60.785263,23.848251,-148.109543,,,
729608186.534252,0.18478,-1.712427,59.217358,-0.007446,-0.004593,0.978439,0.035403,0.153154,0.053895,60.785263,23.848251,-148.109543,,,
729608186.537667,0.18478,-1.712427,59.217358,-0.007446,-0.004593,0.978439,0.035403,0.153154,0.053895,60.785263,23.848251,-148.109543,,,
729608186.540931,0.185834,-1.672853,59.235418,-0.012299,-0.005493,0.981735,-0.006842,0.140465,0.065364,60.785263,23.848251,-148.109543,,,
729608186.544303,0.181077,-1.634793,59.254904,-0.012299,-0.005493,0.981735,-0.006842,0.140465,0.065364,60.785263,23.848251,-148.109543,,,
729608186.547593,0.181077,-1.634793,59.254904,-0.012299,-0.005493,0.981735,-0.006842,0.140465,0.065364,60.785263,23.848251,-148.109543,,,
729608186.550923,0.172765,-1.606231,59.276618,-0.016586,-0.001236,0.977142,-0.042732,0.092586,0.080211,61.080063,24.176376,-148.141312,,,
729608186.554251,0.159387,-1.583956,59.299961,-0.016586,-0.001236,0.977142,-0.042732,0.092586,0.080211,61.080063,24.176376,-148.141312,,,
729608186.557601,0.159387,-1.583956,59.299961,-0.016586,-0.001236,0.977142,-0.042732,0.092586,0.080211,61.080063,24.176376,-148.141312,,,
729608186.560981,0.144265,-1.572119,59.322956,-0.021927,0.001022,0.973877,-0.057011,0.026166,0.078814,61.080063,24.176376,-148.141312,,,
729608186.564251,0.127122,-1.567761,59.344745,-0.021927,0.001022,0.973877,-0.057011,0.026166,0.078814,61.080063,24.176376,-148.141312,,,
729608186.567603,0.127122,-1.567761,59.344745,-0.021927,0.001022,0.973877,-0.057011,0.026166,0.078814,61.080063,24.176376,-148.141312,,,
729608186.570941,0.110758,-1.57256,59.36457,-0.01001,-9.2e-05,0.988083,-0.046348,-0.033275,0.061642,61.080063,24.176376,-148.141312,,,
729608186.574261,0.098988,-1.58598,59.381896,-0.01001,-9.2e-05,0.988083,-0.046348,-0.033275,0.061642,61.080063,24.176376,-148.141312,,,
729608186.577665,0.098988,-1.58598,59.381896,-0.01001,-9.2e-05,0.988083,-0.046348,-0.033275,0.061642,61.080063,24.176376,-148.141312,,,
729608186.580936,0.093381,-1.609339,59.396271,0.006042,-0.007828,1.002914,0.001666,-0.097072,0.041837,61.080063,24.176376,-148.141312,,,
729608186.584252,0.094862,-1.639767,59.40734,0.006042,-0.007828,1.002914,0.001666,-0.097072,0.041837,61.080063,24.176376,-148.141312,,,
729608186.587598,0.094862,-1.639767,59.40734,0.006042,-0.007828,1.002914,0.001666,-0.097072,0.041837,61.080063,24.176376,-148.141312,,,
729608186.590922,0.101885,-1.673997,59.416592,0.023682,-0.015396,1.010422,0.028792,-0.118157,0.026468,60.927292,24.16481,-148.058929,,,
729608186.594286,0.109981,-1.708301,59.425272,0.023682,-0.015396,1.010422,0.028792,-0.118157,0.026468,60.927292,24.16481,-148.058929,,,
729608186.597622,0.109981,-1.708301,59.425272,0.023682,-0.015396,1.010422,0.028792,-0.118157,0.026468,60.927292,24.16481,-148.058929,,,
729608186.600919,0.117588,-1.73735,59.434378,0.031052,-0.017105,1.008896,0.020028,-0.082124,0.032116,60.927292,24.16481,-148.058929,,,
729608186.604255,0.121759,-1.759975,59.444656,0.031052,-0.017105,1.008896,0.020028,-0.082124,0.032116,60.927292,24.16481,-148.058929,,,
729608186.607609,0.121759,-1.759975,59.444656,0.031052,-0.017105,1.008896,0.020028,-0.082124,0.032116,60.927292,24.16481,-148.058929,,,
729608186.610991,0.123531,-1.770159,59.454842,0.046432,-0.008545,1.006271,0.005375,-0.031624,0.031527,60.927292,24.16481,-148.058929,,,
729608186.61425,0.124451,-1.778367,59.464417,0.046432,-0.008545,1.006271,0.005375,-0.031624,0.031527,60.927292,24.16481,-148.058929,,,
729608186.617621,0.124451,-1.778367,59.464417,0.046432,-0.008545,1.006271,0.005375,-0.031624,0.031527,60.927292,24.16481,-148.058929,,,
729608186.620941,0.122731,-1.771638,59.474031,0.057678,0.000366,1.010803,-0.003363,0.019873,0.032457,60.927292,24.16481,-148.058929,,,
729608186.624104,0.120889,-1.765167,59.484089,0.057678,0.000366,1.010803,-0.003363,0.019873,0.032457,60.927292,24.16481,-148.058929,,,
729608186.627771,0.120889,-1.765167,59.484089,0.057678,0.000366,1.010803,-0.003363,0.019873,0.032457,60.927292,24.16481,-148.058929,,,
729608186.630963,0.117041,-1.743967,59.494567,0.051331,-0.004852,1.009003,-0.01149,0.072786,0.034094,60.706085,24.312164,-147.845764,,,
729608186.63427,0.112833,-1.722725,59.505015,0.051331,-0.004852,1.009003,-0.01149,0.072786,0.034094,60.706085,24.312164,-147.845764,,,
729608186.637612,0.112833,-1.722725,59.505015,0.051331,-0.004852,1.009003,-0.01149,0.072786,0.034094,60.706085,24.312164,-147.845764,,,
729608186.640988,0.108059,-1.689077,59.515487,0.048767,-0.005951,1.008102,-0.015643,0.098694,0.03412,60.706085,24.312164,-147.845764,,,
729608186.644297,0.103517,-1.661142,59.525986,0.048767,-0.005951,1.008102,-0.015643,0.098694,0.03412,60.706085,24.312164,-147.845764,,,
729608186.647589,0.103517,-1.661142,59.525986,0.048767,-0.005951,1.008102,-0.015643,0.098694,0.03412,60.706085,24.312164,-147.845764,,,
729608186.650925,0.099747,-1.626604,59.5359,0.049332,-0.003799,1.004913,-0.007251,0.098242,0.032141,60.706085,24.312164,-147.845764,,,
729608186.654281,0.097132,-1.60008,59.544787,0.049332,-0.003799,1.004913,-0.007251,0.098242,0.032141,60.706085,24.312164,-147.845764,,,
729608186.657624,0.097132,-1.60008,59.544787,0.049332,-0.003799,1.004913,-0.007251,0.098242,0.032141,60.706085,24.312164,-147.845764,,,
729608186.661034,0.094316,-1.571574,59.551833,0.045853,6.1e-05,0.999207,-0.008678,0.084926,0.015596,60.706085,24.312164,-147.845764,,,
729608186.66426,0.091984,-1.548942,59.556443,0.045853,6.1e-05,0.999207,-0.008678,0.084926,0.015596,60.706085,24.312164,-147.845764,,,
729608186.667594,0.091984,-1.548942,59.556443,0.045853,6.1e-05,0.999207,-0.008678,0.084926,0.015596,60.706085,24.312164,-147.845764,,,
729608186.670926,0.088057,-1.527539,59.559632,0.039169,0.001266,0.994064,-0.009126,0.068883,0.008819,60.706085,24.312164,-147.845764,,,
729608186.674255,0.085523,-1.510972,59.563183,0.039169,0.001266,0.994064,-0.009126,0.068883,0.008819,60.952225,24.289398,-147.911362,,,
729608186.677667,0.085523,-1.510972,59.563183,0.039169,0.001266,0.994064,-0.009126,0.068883,0.008819,60.952225,24.289398,-147.911362,,,
729608186.680934,0.081092,-1.499953,59.567653,0.034851,-0.002869,0.99411,-0.005005,0.029218,0.016062,60.952225,24.289398,-147.911362,,,
729608186.684258,0.079119,-1.49396,59.573014,0.034851,-0.002869,0.99411,-0.005005,0.029218,0.016062,60.952225,24.289398,-147.911362,,,
729608186.687616,0.079119,-1.49396,59.573014,0.034851,-0.002869,0.99411,-0.005005,0.029218,0.016062,60.952225,24.289398,-147.911362,,,
729608186.690991,0.074399,-1.49379,59.578682,0.036362,-0.00351,0.987137,-0.014831,-0.001082,0.016593,60.952225,24.289398,-147.911362,,,
729608186.694294,0.069193,-1.495307,59.583452,0.036362,-0.00351,0.987137,-0.014831,-0.001082,0.016593,60.952225,24.289398,-147.911362,,,
729608186.697602,0.069193,-1.495307,59.583452,0.036362,-0.00351,0.987137,-0.014831,-0.001082,0.016593,60.952225,24.289398,-147.911362,,,
729608186.700966,0.061723,-1.504173,59.586345,0.03801,0.006409,0.98378,-0.030299,-0.018282,0.005203,60.952225,24.289398,-147.911362,,,
729608186.704252,0.053161,-1.510808,59.587717,0.03801,0.006409,0.98378,-0.030299,-0.018282,0.005203,60.952225,24.289398,-147.911362,,,
729608186.707606,0.053161,-1.510808,59.587717,0.03801,0.006409,0.98378,-0.030299,-0.018282,0.005203,60.952225,24.289398,-147.911362,,,
729608186.710983,0.043052,-1.523205,59.58876,0.041534,0.010147,0.987976,-0.03116,-0.023808,0.001293,60.952225,24.289398,-147.911362,,,
729608186.714251,0.034516,-1.531007,59.590031,0.041534,0.010147,0.987976,-0.03116,-0.023808,0.001293,60.796402,24.481476,-147.703842,,,
729608186.717654,0.034516,-1.531007,59.590031,0.041534,0.010147,0.987976,-0.03116,-0.023808,0.001293,60.796402,24.481476,-147.703842,,,
729608186.720934,0.027664,-1.544406,59.591367,0.043045,0.001007,1.003296,-0.009669,-0.025721,0.003277,60.796402,24.481476,-147.703842,,,
729608186.724251,0.024687,-1.552366,59.592914,0.043045,0.001007,1.003296,-0.009669,-0.025721,0.003277,60.796402,24.481476,-147.703842,,,
729608186.727654,0.024687,-1.552366,59.592914,0.043045,0.001007,1.003296,-0.009669,-0.025721,0.003277,60.796402,24.481476,-147.703842,,,
729608186.730981,0.021602,-1.562306,59.594048,0.041183,-0.009491,1.009796,-0.002416,-0.002387,-0.000457,60.796402,24.481476,-147.703842,,,
729608186.734247,0.020502,-1.562044,59.594454,0.041183,-0.009491,1.009796,-0.002416,-0.002387,-0.000457,60.796402,24.481476,-147.703842,,,
729608186.737601,0.020502,-1.562044,59.594454,0.041183,-0.009491,1.009796,-0.002416,-0.002387,-0.000457,60.796402,24.481476,-147.703842,,,
729608186.740941,0.019311,-1.561748,59.594699,0.035812,-0.005035,1.019669,-0.002229,0.028805,-0.002678,60.796402,24.481476,-147.703842,,,
729608186.744302,0.018174,-1.553868,59.594435,0.035812,-0.005035,1.019669,-0.002229,0.028805,-0.002678,60.796402,24.481476,-147.703842,,,
729608186.747605,0.018174,-1.553868,59.594435,0.035812,-0.005035,1.019669,-0.002229,0.028805,-0.002678,60.796402,24.481476,-147.703842,,,
729608186.750939,0.016211,-1.547377,59.593814,0.039001,0.006378,1.013214,-0.014015,0.046182,-0.002924,60.796402,24.481476,-147.703842,,,
729608186.754247,0.012033,-1.534711,59.593227,0.039001,0.006378,1.013214,-0.014015,0.046182,-0.002924,60.954239,24.266846,-148.131378,,,
729608186.757703,0.012033,-1.534711,59.593227,0.039001,0.006378,1.013214,-0.014015,0.046182,-0.002924,60.954239,24.266846,-148.131378,,,
729608186.760992,0.005074,-1.520562,59.592758,0.031677,0.009018,1.00444,-0.029586,0.067927,-0.001476,60.954239,24.266846,-148.131378,,,
729608186.764254,-0.003553,-1.502559,59.592893,0.031677,0.009018,1.00444,-0.029586,0.067927,-0.001476,60.954239,24.266846,-148.131378,,,
729608186.76762,-0.003553,-1.502559,59.592893,0.031677,0.009018,1.00444,-0.029586,0.067927,-0.001476,60.954239,24.266846,-148.131378,,,
729608186.770995,-0.01332,-1.488228,59.593991,0.021759,-0.000427,1.004288,-0.030307,0.053594,0.005903,60.954239,24.266846,-148.131378,,,
729608186.774271,-0.021551,-1.475406,59.596404,0.021759,-0.000427,1.004288,-0.030307,0.053594,0.005903,60.954239,24.266846,-148.131378,,,
729608186.777651,-0.021551,-1.475406,59.596404,0.021759,-0.000427,1.004288,-0.030307,0.053594,0.005903,60.954239,24.266846,-148.131378,,,
729608186.780927,-0.029028,-1.470253,59.599709,0.017761,-0.011856,0.99469,-0.029799,0.017354,0.009026,60.954239,24.266846,-148.131378,,,
729608186.784292,-0.037864,-1.467068,59.602626,0.017761,-0.011856,0.99469,-0.029799,0.017354,0.009026,60.954239,24.266846,-148.131378,,,
729608186.787604,-0.037864,-1.467068,59.602626,0.017761,-0.011856,0.99469,-0.029799,0.017354,0.009026,60.954239,24.266846,-148.131378,,,
729608186.79095,-0.045525,-1.470961,59.604474,0.015259,-0.006226,0.98999,-0.033825,-0.006183,0.003864,60.954239,24.266846,-148.131378,,,
729608186.794365,-0.055503,-1.475773,59.604926,0.015259,-0.006226,0.98999,-0.033825,-0.006183,0.003864,60.954239,24.266846,-148.131378,,,
729608186.797698,-0.055503,-1.475773,59.604926,0.015259,-0.006226,0.98999,-0.033825,-0.006183,0.003864,60.968185,24.404572,-147.746613,,,
729608186.800924,-0.063597,-1.490133,59.604422,0.015991,0.00206,0.99054,-0.032559,-0.051415,-0.001647,60.968185,24.404572,-147.746613,,,
729608186.804275,-0.073348,-1.506839,59.603788,0.015991,0.00206,0.99054,-0.032559,-0.051415,-0.001647,60.968185,24.404572,-147.746613,,,
729608186.807606,-0.073348,-1.506839,59.603788,0.015991,0.00206,0.99054,-0.032559,-0.051415,-0.001647,60.968185,24.404572,-147.746613,,,
729608186.811023,-0.085548,-1.532566,59.60288,0.016068,-0.0009,0.987976,-0.038313,-0.083537,-0.005082,60.968185,24.404572,-147.746613,,,
729608186.814278,-0.097252,-1.557814,59.601507,0.016068,-0.0009,0.987976,-0.038313,-0.083537,-0.005082,60.968185,24.404572,-147.746613,,,
729608186.817614,-0.097252,-1.557814,59.601507,0.016068,-0.0009,0.987976,-0.038313,-0.083537,-0.005082,60.968185,24.404572,-147.746613,,,
729608186.82095,-0.111385,-1.586989,59.599184,0.026703,-0.001587,0.989319,-0.046793,-0.095658,-0.012524,60.968185,24.404572,-147.746613,,,
729608186.824317,-0.124918,-1.615281,59.595377,0.026703,-0.001587,0.989319,-0.046793,-0.095658,-0.012524,60.968185,24.404572,-147.746613,,,
729608186.827636,-0.124918,-1.615281,59.595377,0.026703,-0.001587,0.989319,-0.046793,-0.095658,-0.012524,60.968185,24.404572,-147.746613,,,
729608186.830934,-0.137255,-1.646158,59.591355,0.03595,-0.000458,0.997284,-0.043395,-0.096659,-0.013698,60.968185,24.404572,-147.746613,,,
729608186.834341,-0.149639,-1.674023,59.587717,0.03595,-0.000458,0.997284,-0.043395,-0.096659,-0.013698,60.968185,24.404572,-147.746613,,,
729608186.837652,-0.149639,-1.674023,59.587717,0.03595,-0.000458,0.997284,-0.043395,-0.096659,-0.013698,60.791107,24.442917,-147.768143,,,
729608186.840929,-0.158241,-1.700386,59.583724,0.037338,-0.005096,1.007462,-0.031727,-0.074077,-0.015219,60.791107,24.442917,-147.768143,,,
729608186.844316,-0.167352,-1.72066,59.578884,0.037338,-0.005096,1.007462,-0.031727,-0.074077,-0.015219,60.791107,24.442917,-147.768143,,,
729608186.847593,-0.167352,-1.72066,59.578884,0.037338,-0.005096,1.007462,-0.031727,-0.074077,-0.015219,60.791107,24.442917,-147.768143,,,
729608186.850937,-0.172912,-1.733124,59.572955,0.041855,-0.006592,1.018799,-0.016583,-0.028243,-0.020785,60.791107,24.442917,-147.768143,,,
729608186.85436,-0.177092,-1.740087,59.56708,0.041855,-0.006592,1.018799,-0.016583,-0.028243,-0.020785,60.791107,24.442917,-147.768143,,,
729608186.857608,-0.177092,-1.740087,59.56708,0.041855,-0.006592,1.018799,-0.016583,-0.028243,-0.020785,60.791107,24.442917,-147.768143,,,
729608186.861035,-0.179326,-1.737536,59.562264,0.041977,-0.005829,1.028015,0.005463,0.019472,-0.015925,60.791107,24.442917,-147.768143,,,
729608186.864259,-0.177203,-1.730933,59.558531,0.041977,-0.005829,1.028015,0.005463,0.019472,-0.015925,60.791107,24.442917,-147.768143,,,
729608186.867611,-0.177203,-1.730933,59.558531,0.041977,-0.005829,1.028015,0.005463,0.019472,-0.015925,60.791107,24.442917,-147.768143,,,
729608186.870926,-0.173917,-1.71531,59.555437,0.036011,-0.007889,1.032074,0.021561,0.056556,-0.011234,60.791107,24.442917,-147.768143,,,
729608186.874311,-0.167615,-1.698802,59.552164,0.036011,-0.007889,1.032074,0.021561,0.056556,-0.011234,60.791107,24.442917,-147.768143,,,
729608186.877621,-0.167615,-1.698802,59.552164,0.036011,-0.007889,1.032074,0.021561,0.056556,-0.011234,60.621292,24.575699,-147.769424,,,
729608186.880923,-0.160749,-1.677061,59.548074,0.035126,-0.001587,1.018295,0.019398,0.070323,-0.019649,60.621292,24.575699,-147.769424,,,
729608186.884309,-0.154879,-1.65793,59.542529,0.035126,-0.001587,1.018295,0.019398,0.070323,-0.019649,60.621292,24.575699,-147.769424,,,
729608186.887648,-0.154879,-1.65793,59.542529,0.035126,-0.001587,1.018295,0.019398,0.070323,-0.019649,60.621292,24.575699,-147.769424,,,
729608186.890944,-0.148404,-1.63784,59.535295,0.028717,0.008377,1.002762,0.019384,0.052543,-0.03291,60.621292,24.575699,-147.769424,,,
729608186.894308,-0.143371,-1.625319,59.525879,0.028717,0.008377,1.002762,0.019384,0.052543,-0.03291,60.621292,24.575699,-147.769424,,,
729608186.897606,-0.143371,-1.625319,59.525879,0.028717,0.008377,1.002762,0.019384,0.052543,-0.03291,60.621292,24.575699,-147.769424,,,
729608186.900989,-0.13913,-1.618166,59.513579,0.024872,0.014587,0.994003,0.009906,0.000921,-0.051842,60.621292,24.575699,-147.769424,,,
729608186.9043,-0.136354,-1.620869,59.498861,0.024872,0.014587,0.994003,0.009906,0.000921,-0.051842,60.621292,24.575699,-147.769424,,,
729608186.907589,-0.136354,-1.620869,59.498861,0.024872,0.014587,0.994003,0.009906,0.000921,-0.051842,60.621292,24.575699,-147.769424,,,
729608186.910974,-0.135004,-1.632816,59.482934,0.021072,0.01416,0.982315,-0.003125,-0.053136,-0.059377,60.621292,24.575699,-147.769424,,,
729608186.914374,-0.135784,-1.650088,59.466235,0.021072,0.01416,0.982315,-0.003125,-0.053136,-0.059377,60.621292,24.575699,-147.769424,,,
729608186.917584,-0.135784,-1.650088,59.466235,0.021072,0.01416,0.982315,-0.003125,-0.053136,-0.059377,60.684708,24.482101,-148.102783,,,
729608186.920929,-0.137207,-1.673539,59.450631,0.019852,0.008789,0.98645,-0.005621,-0.083091,-0.051374,60.684708,24.482101,-148.102783,,,
729608186.924306,-0.13808,-1.698513,59.437576,0.019852,0.008789,0.98645,-0.005621,-0.083091,-0.051374,60.684708,24.482101,-148.102783,,,
729608186.92767,-0.13808,-1.698513,59.437576,0.019852,0.008789,0.98645,-0.005621,-0.083091,-0.051374,60.684708,24.482101,-148.102783,,,
729608186.930944,-0.137373,-1.727581,59.4274,0.019043,0.000229,1.004486,0.015851,-0.08996,-0.028843,60.684708,24.482101,-148.102783,,,
729608186.934288,-0.131299,-1.753611,59.420108,0.019043,0.000229,1.004486,0.015851,-0.08996,-0.028843,60.684708,24.482101,-148.102783,,,
729608186.937609,-0.131299,-1.753611,59.420108,0.019043,0.000229,1.004486,0.015851,-0.08996,-0.028843,60.684708,24.482101,-148.102783,,,
729608186.941011,-0.119894,-1.779369,59.414755,0.025116,-0.005539,1.027878,0.058977,-0.067678,-0.016901,60.684708,24.482101,-148.102783,,,
729608186.94435,-0.101315,-1.798442,59.410528,0.025116,-0.005539,1.027878,0.058977,-0.067678,-0.016901,60.684708,24.482101,-148.102783,,,
729608186.947589,-0.101315,-1.798442,59.410528,0.025116,-0.005539,1.027878,0.058977,-0.067678,-0.016901,60.684708,24.482101,-148.102783,,,
729608186.950927,-0.077733,-1.814749,59.406835,0.03299,-0.008789,1.04303,0.099713,-0.034001,-0.017372,60.684708,24.482101,-148.102783,,,
729608186.95425,-0.077733,-1.814749,59.406835,0.03299,-0.008789,1.04303,0.099713,-0.034001,-0.017372,60.684708,24.482101,-148.102783,,,
729608186.95761,-0.047729,-1.823745,59.403564,0.03299,-0.008789,1.04303,0.099713,-0.034001,-0.017372,60.684708,24.482101,-148.102783,,,
729608186.960969,-0.014725,-1.825016,59.400726,0.037537,-0.010513,1.04129,0.124784,0.025332,-0.016805,60.661133,24.239807,-148.17186,,,
729608186.964322,-0.014725,-1.825016,59.398268,0.037537,-0.010513,1.04129,0.124784,0.025332,-0.016805,60.661133,24.239807,-148.17186,,,
729608186.96761,0.021676,-1.818095,59.398268,0.037537,-0.010513,1.04129,0.124784,0.025332,-0.016805,60.661133,24.239807,-148.17186,,,
729608186.970922,0.060691,-1.80571,59.397191,0.034653,-0.005676,1.035446,0.137411,0.055777,-0.003188,60.661133,24.239807,-148.17186,,,
729608186.974255,0.060691,-1.80571,59.397191,0.034653,-0.005676,1.035446,0.137411,0.055777,-0.003188,60.661133,24.239807,-148.17186,,,
729608186.977701,0.099808,-1.790083,59.398821,0.034653,-0.005676,1.035446,0.137411,0.055777,-0.003188,60.661133,24.239807,-148.17186,,,
729608186.980915,0.139888,-1.771777,59.402933,0.027023,-0.003906,1.016693,0.133646,0.066953,0.014026,60.661133,24.239807,-148.17186,,,
729608186.98428,0.139888,-1.771777,59.402933,0.027023,-0.003906,1.016693,0.133646,0.066953,0.014026,60.661133,24.239807,-148.17186,,,
729608186.987606,0.176622,-1.754314,59.408876,0.027023,-0.003906,1.016693,0.133646,0.066953,0.014026,60.661133,24.239807,-148.17186,,,
