Time (sec),Pitch (deg),Roll (deg),Yaw(deg),X-Acceleration (g),Y-Acceleration (g),Z-Acceleration (g),Pitch Rate (deg/sec),Roll Rate (deg/sec),Yaw Rate (deg/sec),Magnetic Field in X direction (uT),Magnetic Field in Y direction (uT),Magnetic Field in Z Direction (uT),Latitude (deg),Longitude (deg),Altitude (m)
729606117.835852,-0.864349,-3.64674,56.307139,0.080643,-0.01741,0.995224,0.03825,0.049801,-0.01664,59.022659,24.051941,-147.20166,,,
729606117.839201,-0.864349,-3.64674,56.307139,0.080643,-0.01741,0.995224,0.03825,0.049801,-0.01664,59.148651,23.756744,-147.284882,,,
729606117.842545,-0.854818,-3.635268,56.301616,0.076859,-0.014572,0.986298,0.03825,0.049801,-0.01664,59.148651,23.756744,-147.284882,,,
729606117.845856,-0.848462,-3.62985,56.293871,0.076859,-0.014572,0.986298,0.026297,0.033456,-0.0297,59.148651,23.756744,-147.284882,,,
729606117.849245,-0.848462,-3.62985,56.293871,0.076859,-0.014572,0.986298,0.026297,0.033456,-0.0297,59.148651,23.756744,-147.284882,,,
729606117.85253,-0.84075,-3.623853,56.28422,0.07251,-0.016251,0.981567,0.026297,0.033456,-0.0297,59.148651,23.756744,-147.284882,,,
729606117.855855,-0.834631,-3.627978,56.27305,0.07251,-0.016251,0.981567,0.026452,0.007587,-0.042036,59.148651,23.756744,-147.284882,,,
729606117.859196,-0.834631,-3.627978,56.27305,0.07251,-0.016251,0.981567,0.026452,0.007587,-0.042036,59.148651,23.756744,-147.284882,,,
729606117.862613,-0.826392,-3.630117,56.260862,0.070862,-0.017929,0.977127,0.026452,0.007587,-0.042036,59.148651,23.756744,-147.284882,,,
729606117.865857,-0.821613,-3.641076,56.247945,0.070862,-0.017929,0.977127,0.021153,-0.007132,-0.049097,59.148651,23.756744,-147.284882,,,
729606117.869206,-0.821613,-3.641076,56.247945,0.070862,-0.017929,0.977127,0.021153,-0.007132,-0.049097,59.148651,23.756744,-147.284882,,,
729606117.872557,-0.815748,-3.643344,56.235127,0.063995,-0.020081,0.980804,0.021153,-0.007132,-0.049097,59.148651,23.756744,-147.284882,,,
729606117.87586,-0.812337,-3.650546,56.222961,0.063995,-0.020081,0.980804,0.01343,0.004078,-0.044019,59.148651,23.756744,-147.284882,,,
729606117.879216,-0.812337,-3.650546,56.222961,0.063995,-0.020081,0.980804,0.01343,0.004078,-0.044019,58.858658,24.012024,-147.388779,,,
729606117.882549,-0.808108,-3.649658,56.211938,0.059021,-0.022156,0.984955,0.01343,0.004078,-0.044019,58.858658,24.012024,-147.388779,,,
729606117.885863,-0.80879,-3.649157,56.201072,0.059021,-0.022156,0.984955,0.006825,0.016864,-0.039552,58.858658,24.012024,-147.388779,,,
729606117.889276,-0.80879,-3.649157,56.201072,0.059021,-0.022156,0.984955,0.006825,0.016864,-0.039552,58.858658,24.012024,-147.388779,,,
729606117.892533,-0.806665,-3.643883,56.190879,0.064102,-0.022995,0.981247,0.006825,0.016864,-0.039552,58.858658,24.012024,-147.388779,,,
729606117.895856,-0.808777,-3.638474,56.180861,0.064102,-0.022995,0.981247,0.001874,0.032344,-0.037554,58.858658,24.012024,-147.388779,,,
729606117.899211,-0.808777,-3.638474,56.180861,0.064102,-0.022995,0.981247,0.001874,0.032344,-0.037554,58.858658,24.012024,-147.388779,,,
729606117.902575,-0.807503,-3.628246,56.170111,0.065506,-0.020737,0.979752,0.001874,0.032344,-0.037554,58.858658,24.012024,-147.388779,,,
729606117.905849,-0.807866,-3.622145,56.158397,0.065506,-0.020737,0.979752,0.004125,0.040691,-0.042288,58.858658,24.012024,-147.388779,,,
729606117.909197,-0.807866,-3.622145,56.158397,0.065506,-0.020737,0.979752,0.004125,0.040691,-0.042288,58.858658,24.012024,-147.388779,,,
729606117.912533,-0.805416,-3.611768,56.14678,0.063583,-0.021545,0.98111,0.004125,0.040691,-0.042288,58.858658,24.012024,-147.388779,,,
729606117.915861,-0.802674,-3.608419,56.136426,0.063583,-0.021545,0.98111,0.010548,0.030667,-0.036426,58.858658,24.012024,-147.388779,,,
729606117.91919,-0.802674,-3.608419,56.136426,0.063583,-0.021545,0.98111,0.010548,0.030667,-0.036426,59.212357,23.801727,-147.289795,,,
729606117.922548,-0.799767,-3.601793,56.127454,0.057266,-0.026428,0.978271,0.010548,0.030667,-0.036426,59.212357,23.801727,-147.289795,,,
729606117.925864,-0.797491,-3.600598,56.119706,0.057266,-0.026428,0.978271,0.005312,0.021075,-0.027618,59.212357,23.801727,-147.289795,,,
729606117.929259,-0.797491,-3.600598,56.119706,0.057266,-0.026428,0.978271,0.005312,0.021075,-0.027618,59.212357,23.801727,-147.289795,,,
729606117.932527,-0.795525,-3.59573,56.11323,0.054794,-0.028763,0.977737,0.005312,0.021075,-0.027618,59.212357,23.801727,-147.289795,,,
729606117.935861,-0.794798,-3.594471,56.106662,0.054794,-0.028763,0.977737,0.004829,0.021099,-0.023977,59.212357,23.801727,-147.289795,,,
729606117.939199,-0.794798,-3.594471,56.106662,0.054794,-0.028763,0.977737,0.004829,0.021099,-0.023977,59.212357,23.801727,-147.289795,,,
729606117.942585,-0.794665,-3.590493,56.099661,0.058029,-0.023163,0.977661,0.004829,0.021099,-0.023977,59.212357,23.801727,-147.289795,,,
729606117.945863,-0.796672,-3.588174,56.09229,0.058029,-0.023163,0.977661,-0.008247,0.019568,-0.027318,59.212357,23.801727,-147.289795,,,
729606117.949213,-0.796672,-3.588174,56.09229,0.058029,-0.023163,0.977661,-0.008247,0.019568,-0.027318,59.212357,23.801727,-147.289795,,,
729606117.952542,-0.800141,-3.582066,56.083381,0.061386,-0.015549,0.972443,-0.008247,0.019568,-0.027318,59.212357,23.801727,-147.289795,,,
729606117.955854,-0.807638,-3.573965,56.072785,0.061386,-0.015549,0.972443,-0.024687,0.032299,-0.037226,59.212357,23.801727,-147.289795,,,
729606117.9592,-0.807638,-3.573965,56.072785,0.061386,-0.015549,0.972443,-0.024687,0.032299,-0.037226,59.402924,23.763962,-147.395798,,,
729606117.962524,-0.816442,-3.563941,56.061059,0.064484,-0.013168,0.975586,-0.024687,0.032299,-0.037226,59.402924,23.763962,-147.395798,,,
729606117.965858,-0.829423,-3.553051,56.048651,0.064484,-0.013168,0.975586,-0.046496,0.041998,-0.042306,59.402924,23.763962,-147.395798,,,
729606117.969253,-0.829423,-3.553051,56.048651,0.064484,-0.013168,0.975586,-0.046496,0.041998,-0.042306,59.402924,23.763962,-147.395798,,,
729606117.972535,-0.84448,-3.542625,56.035836,0.064285,-0.015778,0.970261,-0.046496,0.041998,-0.042306,59.402924,23.763962,-147.395798,,,
729606117.975853,-0.863052,-3.533561,56.022668,0.064285,-0.015778,0.970261,-0.066852,0.034626,-0.042416,59.402924,23.763962,-147.395798,,,
729606117.979201,-0.863052,-3.533561,56.022668,0.064285,-0.015778,0.970261,-0.066852,0.034626,-0.042416,59.402924,23.763962,-147.395798,,,
729606117.982574,-0.883475,-3.52545,56.009132,0.060028,-0.022324,0.96814,-0.066852,0.034626,-0.042416,59.402924,23.763962,-147.395798,,,
729606117.985858,-0.906531,-3.520903,55.995725,0.060028,-0.022324,0.96814,-0.082203,0.019053,-0.042478,59.402924,23.763962,-147.395798,,,
729606117.989199,-0.906531,-3.520903,55.995725,0.060028,-0.022324,0.96814,-0.082203,0.019053,-0.042478,59.402924,23.763962,-147.395798,,,
729606117.992557,-0.931322,-3.517909,55.982618,0.056915,-0.024368,0.971664,-0.082203,0.019053,-0.042478,59.402924,23.763962,-147.395798,,,
729606117.995853,-0.931322,-3.51709,55.969099,0.056915,-0.024368,0.971664,-0.097998,0.005258,-0.041243,59.402924,23.763962,-147.395798,,,
729606117.99921,-0.959111,-3.51709,55.969099,0.056915,-0.024368,0.971664,-0.097998,0.005258,-0.041243,59.402924,23.763962,-147.395798,,,
729606118.002556,-0.98774,-3.518046,55.954862,0.057495,-0.024506,0.979309,-0.097998,0.005258,-0.041243,59.436325,23.922592,-146.973404,,,
729606118.005854,-1.017491,-3.519221,55.939991,0.057495,-0.024506,0.979309,-0.102404,-0.00505,-0.048281,59.436325,23.922592,-146.973404,,,
729606118.009292,-1.017491,-3.519221,55.939991,0.057495,-0.024506,0.979309,-0.102404,-0.00505,-0.048281,59.436325,23.922592,-146.973404,,,
729606118.012544,-1.045502,-3.521679,55.924797,0.060196,-0.021606,0.989334,-0.102404,-0.00505,-0.048281,59.436325,23.922592,-146.973404,,,
729606118.015944,-1.072843,-3.522622,55.909671,0.060196,-0.021606,0.989334,-0.0927,-0.003231,-0.048939,59.436325,23.922592,-146.973404,,,
729606118.019188,-1.072843,-3.522622,55.909671,0.060196,-0.021606,0.989334,-0.0927,-0.003231,-0.048939,59.436325,23.922592,-146.973404,,,
729606118.022578,-1.096529,-3.522622,55.895231,0.060104,-0.026306,1.003815,-0.0927,-0.003231,-0.048939,59.436325,23.922592,-146.973404,,,
729606118.025852,-1.096529,-3.520559,55.882068,0.060104,-0.026306,1.003815,-0.072525,0.011655,-0.042929,59.436325,23.922592,-146.973404,,,
729606118.029192,-1.117151,-3.520559,55.882068,0.060104,-0.026306,1.003815,-0.072525,0.011655,-0.042929,59.436325,23.922592,-146.973404,,,
729606118.032539,-1.13536,-3.517332,55.87025,0.060333,-0.030472,1.015961,-0.072525,0.011655,-0.042929,59.436325,23.922592,-146.973404,,,
729606118.035853,-1.13536,-3.517332,55.87025,0.060333,-0.030472,1.015961,-0.060745,0.019636,-0.034238,59.436325,23.922592,-146.973404,,,
729606118.03919,-1.151973,-3.513367,55.859222,0.060333,-0.030472,1.015961,-0.060745,0.019636,-0.034238,59.436325,23.922592,-146.973404,,,
729606118.042524,-1.168242,-3.507435,55.849095,0.062775,-0.027802,1.013428,-0.060745,0.019636,-0.034238,59.414902,24.125671,-147.106064,,,
729606118.045897,-1.168242,-3.507435,55.849095,0.062775,-0.027802,1.013428,-0.060167,0.031855,-0.030941,59.414902,24.125671,-147.106064,,,
729606118.049217,-1.183556,-3.501016,55.839858,0.062775,-0.027802,1.013428,-0.060167,0.031855,-0.030941,59.414902,24.125671,-147.106064,,,
729606118.052553,-1.200995,-3.492626,55.830556,0.061951,-0.024338,1.014114,-0.060167,0.031855,-0.030941,59.414902,24.125671,-147.106064,,,
729606118.055864,-1.200995,-3.492626,55.830556,0.061951,-0.024338,1.014114,-0.067241,0.027353,-0.031512,59.414902,24.125671,-147.106064,,,
729606118.059265,-1.219351,-3.486298,55.820317,0.061951,-0.024338,1.014114,-0.067241,0.027353,-0.031512,59.414902,24.125671,-147.106064,,,
729606118.062518,-1.240019,-3.480742,55.808537,0.062531,-0.022644,1.007477,-0.067241,0.027353,-0.031512,59.414902,24.125671,-147.106064,,,
729606118.065852,-1.240019,-3.480742,55.808537,0.062531,-0.022644,1.007477,-0.080418,0.010469,-0.042697,59.414902,24.125671,-147.106064,,,
729606118.069214,-1.262665,-3.477821,55.795307,0.062531,-0.022644,1.007477,-0.080418,0.010469,-0.042697,59.414902,24.125671,-147.106064,,,
729606118.072516,-1.286266,-3.477118,55.780167,0.069427,-0.015991,1.001862,-0.080418,0.010469,-0.042697,59.414902,24.125671,-147.106064,,,
729606118.075854,-1.286266,-3.477118,55.780167,0.069427,-0.015991,1.001862,-0.09298,-0.000888,-0.062479,59.414902,24.125671,-147.106064,,,
729606118.079207,-1.311647,-3.477717,55.762365,0.069427,-0.015991,1.001862,-0.09298,-0.000888,-0.062479,59.414902,24.125671,-147.106064,,,
729606118.082519,-1.336466,-3.482112,55.742037,0.073074,-0.014496,1.008224,-0.09298,-0.000888,-0.062479,59.377197,24.018341,-147.531631,,,
729606118.085859,-1.336466,-3.482112,55.742037,0.073074,-0.014496,1.008224,-0.084924,-0.023379,-0.0769,59.377197,24.018341,-147.531631,,,
729606118.089204,-1.36063,-3.489217,55.719392,0.073074,-0.014496,1.008224,-0.084924,-0.023379,-0.0769,59.377197,24.018341,-147.531631,,,
729606118.092532,-1.383461,-3.498947,55.695411,0.072006,-0.017395,1.012054,-0.084924,-0.023379,-0.0769,59.377197,24.018341,-147.531631,,,
729606118.095853,-1.383461,-3.498947,55.695411,0.072006,-0.017395,1.012054,-0.078893,-0.032409,-0.086045,59.377197,24.018341,-147.531631,,,
729606118.099284,-1.404443,-3.509545,55.670925,0.072006,-0.017395,1.012054,-0.078893,-0.032409,-0.086045,59.377197,24.018341,-147.531631,,,
729606118.102535,-1.423385,-3.52036,55.646322,0.071564,-0.017944,1.015045,-0.078893,-0.032409,-0.086045,59.377197,24.018341,-147.531631,,,
729606118.10586,-1.423385,-3.52036,55.646322,0.071564,-0.017944,1.015045,-0.078893,-0.030304,-0.076557,59.377197,24.018341,-147.531631,,,
729606118.109226,-1.440305,-3.530271,55.622884,0.071564,-0.017944,1.015045,-0.059204,-0.030304,-0.076557,59.377197,24.018341,-147.531631,,,
729606118.112528,-1.454011,-3.540433,55.601215,0.06665,-0.02269,1.022415,-0.059204,-0.030304,-0.076557,59.377197,24.018341,-147.531631,,,
729606118.115865,-1.454011,-3.540433,55.601215,0.06665,-0.02269,1.022415,-0.039117,-0.027657,-0.070841,59.377197,24.018341,-147.531631,,,
729606118.119206,-1.465698,-3.549584,55.580554,0.06665,-0.02269,1.022415,-0.039117,-0.027657,-0.070841,59.377197,24.018341,-147.531631,,,
729606118.122518,-1.47378,-3.558825,55.561271,0.069534,-0.027222,1.022934,-0.039117,-0.027657,-0.070841,59.569748,24.303329,-147.31897,,,
729606118.12597,-1.47378,-3.558825,55.561271,0.069534,-0.027222,1.022934,-0.039117,-0.027657,-0.070841,59.569748,24.303329,-147.31897,,,
729606118.129225,-1.478902,-3.566387,55.543571,0.069534,-0.027222,1.022934,-0.016614,-0.016765,-0.061551,59.569748,24.303329,-147.31897,,,
729606118.132528,-1.479988,-3.571435,55.525973,0.071701,-0.027008,1.028503,-0.016614,-0.016765,-0.061551,59.569748,24.303329,-147.31897,,,
729606118.135925,-1.479988,-3.571435,55.525973,0.071701,-0.027008,1.028503,-0.016614,-0.016765,-0.061551,59.569748,24.303329,-147.31897,,,
729606118.139251,-1.477034,-3.572743,55.508195,0.071701,-0.027008,1.028503,0.009665,-0.000248,-0.063923,59.569748,24.303329,-147.31897,,,
729606118.142517,-1.471687,-3.572795,55.490427,0.073334,-0.023773,1.035233,0.009665,-0.000248,-0.063923,59.569748,24.303329,-147.31897,,,
729606118.145872,-1.471687,-3.572795,55.490427,0.073334,-0.023773,1.035233,0.009665,-0.000248,-0.063923,59.569748,24.303329,-147.31897,,,
729606118.149212,-1.462642,-3.572377,55.472337,0.073334,-0.023773,1.035233,0.03144,0.009902,-0.068549,59.569748,24.303329,-147.31897,,,
729606118.152522,-1.452112,-3.569441,55.454335,0.068893,-0.022034,1.030258,0.03144,0.009902,-0.068549,59.569748,24.303329,-147.31897,,,
729606118.155938,-1.452112,-3.569441,55.454335,0.068893,-0.022034,1.030258,0.03144,0.009902,-0.068549,59.569748,24.303329,-147.31897,,,
729606118.159205,-1.439473,-3.565496,55.436685,0.068893,-0.022034,1.030258,0.039836,0.027563,-0.065566,59.569748,24.303329,-147.31897,,,
729606118.162534,-1.428373,-3.558017,55.419105,0.0634,-0.02066,1.023438,0.039836,0.027563,-0.065566,59.569748,24.303329,-147.31897,,,
729606118.165902,-1.428373,-3.558017,55.419105,0.0634,-0.02066,1.023438,0.039836,0.027563,-0.065566,59.523804,24.10556,-147.809128,,,
729606118.169206,-1.41743,-3.55203,55.401324,0.0634,-0.02066,1.023438,0.032772,0.030337,-0.063289,59.523804,24.10556,-147.809128,,,
729606118.172533,-1.409077,-3.546193,55.383789,0.062775,-0.018234,1.011169,0.032772,0.030337,-0.063289,59.523804,24.10556,-147.809128,,,
729606118.175931,-1.409077,-3.546193,55.383789,0.062775,-0.018234,1.011169,0.032772,0.030337,-0.063289,59.523804,24.10556,-147.809128,,,
729606118.179217,-1.401846,-3.543952,55.366022,0.062775,-0.018234,1.011169,0.021247,0.017412,-0.067325,59.523804,24.10556,-147.809128,,,
729606118.182527,-1.396111,-3.542357,55.347654,0.060226,-0.013519,1.000854,0.021247,0.017412,-0.067325,59.523804,24.10556,-147.809128,,,
729606118.185906,-1.396111,-3.542357,55.347654,0.060226,-0.013519,1.000854,0.021247,0.017412,-0.067325,59.523804,24.10556,-147.809128,,,
729606118.189251,-1.389849,-3.544613,55.32903,0.060226,-0.013519,1.000854,0.014995,-0.000312,-0.069066,59.523804,24.10556,-147.809128,,,
729606118.192525,-1.383633,-3.548799,55.309789,0.057495,-0.016281,1.001282,0.014995,-0.000312,-0.069066,59.523804,24.10556,-147.809128,,,
729606118.195912,-1.383633,-3.548799,55.309789,0.057495,-0.016281,1.001282,0.014995,-0.000312,-0.069066,59.523804,24.10556,-147.809128,,,
729606118.199195,-1.375826,-3.556539,55.290284,0.057495,-0.016281,1.001282,0.02843,-0.023011,-0.071814,59.523804,24.10556,-147.809128,,,
729606118.202523,-1.365789,-3.566526,55.270801,0.052078,-0.018433,1.010223,0.02843,-0.023011,-0.071814,59.523804,24.10556,-147.809128,,,
729606118.205882,-1.365789,-3.566526,55.270801,0.052078,-0.018433,1.010223,0.02843,-0.023011,-0.071814,59.533768,24.170135,-147.45224,,,
729606118.209196,-1.354222,-3.580133,55.251547,0.052078,-0.018433,1.010223,0.038211,-0.040707,-0.071581,59.533768,24.170135,-147.45224,,,
729606118.212529,-1.341133,-3.594177,55.233557,0.050949,-0.019608,1.009872,0.038211,-0.040707,-0.071581,59.533768,24.170135,-147.45224,,,
729606118.215852,-1.341133,-3.594177,55.233557,0.050949,-0.019608,1.009872,0.038211,-0.040707,-0.071581,59.533768,24.170135,-147.45224,,,
729606118.219209,-1.32752,-3.610207,55.217188,0.050949,-0.019608,1.009872,0.046368,-0.049192,-0.0597,59.533768,24.170135,-147.45224,,,
729606118.222525,-1.313106,-3.624906,55.202133,0.047928,-0.017578,1.008957,0.046368,-0.049192,-0.0597,59.533768,24.170135,-147.45224,,,
729606118.22587,-1.313106,-3.624906,55.202133,0.047928,-0.017578,1.008957,0.046368,-0.049192,-0.0597,59.533768,24.170135,-147.45224,,,
729606118.22926,-1.298455,-3.640146,55.188116,0.047928,-0.017578,1.008957,0.050751,-0.046424,-0.052693,59.533768,24.170135,-147.45224,,,
729606118.232526,-1.284245,-3.652669,55.175184,0.054276,-0.015518,1.004395,0.050751,-0.046424,-0.052693,59.533768,24.170135,-147.45224,,,
729606118.236513,-1.269186,-3.662954,55.162048,0.054276,-0.015518,1.004395,0.05062,-0.031021,-0.050646,59.533768,24.170135,-147.45224,,,
729606118.239137,-1.269186,-3.662954,55.162048,0.054276,-0.015518,1.004395,0.05062,-0.031021,-0.050646,59.533768,24.170135,-147.45224,,,
729606118.242542,-1.252744,-3.671385,55.148408,0.063278,-0.011841,1.009369,0.05062,-0.031021,-0.050646,59.533768,24.170135,-147.45224,,,
729606118.245862,-1.252744,-3.671385,55.148408,0.063278,-0.011841,1.009369,0.05062,-0.031021,-0.050646,59.472275,23.9729,-147.362961,,,
729606118.249232,-1.235409,-3.67908,55.13466,0.063278,-0.011841,1.009369,0.058311,-0.022681,-0.054226,59.472275,23.9729,-147.362961,,,
729606118.252529,-1.218141,-3.686551,55.121369,0.062225,-0.014542,1.008865,0.058311,-0.022681,-0.054226,59.472275,23.9729,-147.362961,,,
729606118.255976,-1.218141,-3.686551,55.121369,0.062225,-0.014542,1.008865,0.058311,-0.022681,-0.054226,59.472275,23.9729,-147.362961,,,
729606118.259196,-1.201014,-3.692633,55.109587,0.062225,-0.014542,1.008865,0.054347,-0.019445,-0.042696,59.472275,23.9729,-147.362961,,,
729606118.262524,-1.18603,-3.69795,55.099857,0.053268,-0.021652,1.002991,0.054347,-0.019445,-0.042696,59.472275,23.9729,-147.362961,,,
729606118.26589,-1.18603,-3.69795,55.099857,0.053268,-0.021652,1.002991,0.054347,-0.019445,-0.042696,59.472275,23.9729,-147.362961,,,
729606118.26925,-1.171711,-3.701495,55.091583,0.053268,-0.021652,1.002991,0.046108,-0.012677,-0.030328,59.472275,23.9729,-147.362961,,,
729606118.272514,-1.158698,-3.706767,55.083519,0.056747,-0.017334,0.999496,0.046108,-0.012677,-0.030328,59.472275,23.9729,-147.362961,,,
729606118.275864,-1.158698,-3.706767,55.083519,0.056747,-0.017334,0.999496,0.046108,-0.012677,-0.030328,59.472275,23.9729,-147.362961,,,
729606118.279204,-1.145026,-3.710828,55.075306,0.056747,-0.017334,0.999496,0.045189,-0.018884,-0.033869,59.472275,23.9729,-147.362961,,,
729606118.282519,-1.131455,-3.717754,55.067022,0.059692,-0.011566,0.99498,0.045189,-0.018884,-0.033869,59.472275,23.9729,-147.362961,,,
729606118.285852,-1.131455,-3.717754,55.067022,0.059692,-0.011566,0.99498,0.045189,-0.018884,-0.033869,59.309647,23.750824,-147.50206,,,
729606118.289187,-1.116858,-3.7214,55.059017,0.059692,-0.011566,0.99498,0.047154,-0.022316,-0.033104,59.309647,23.750824,-147.50206,,,
729606118.292518,-1.101989,-3.728673,55.050926,0.05661,-0.013367,0.996475,0.047154,-0.022316,-0.033104,59.309647,23.750824,-147.50206,,,
729606118.295914,-1.101989,-3.728673,55.050926,0.05661,-0.013367,0.996475,0.047154,-0.022316,-0.033104,59.309647,23.750824,-147.50206,,,
729606118.299191,-1.087142,-3.73122,55.043429,0.05661,-0.013367,0.996475,0.052212,-0.021257,-0.029053,59.309647,23.750824,-147.50206,,,
729606118.302525,-1.071819,-3.73981,55.03664,0.057526,-0.013275,0.992081,0.052212,-0.021257,-0.029053,59.309647,23.750824,-147.50206,,,
729606118.305865,-1.071819,-3.73981,55.03664,0.057526,-0.013275,0.992081,0.052212,-0.021257,-0.029053,59.309647,23.750824,-147.50206,,,
729606118.309263,-1.056193,-3.745303,55.030245,0.057526,-0.013275,0.992081,0.053448,-0.037839,-0.02751,59.309647,23.750824,-147.50206,,,
729606118.312512,-1.040733,-3.757464,55.023899,0.057358,-0.014008,0.990112,0.053448,-0.037839,-0.02751,59.309647,23.750824,-147.50206,,,
729606118.315871,-1.040733,-3.757464,55.023899,0.057358,-0.014008,0.990112,0.053448,-0.037839,-0.02751,59.309647,23.750824,-147.50206,,,
729606118.319218,-1.02376,-3.76708,55.017707,0.057358,-0.014008,0.990112,0.056863,-0.040864,-0.025342,59.309647,23.750824,-147.50206,,,
729606118.322522,-1.006612,-3.779319,55.012467,0.0578,-0.015488,0.992905,0.056863,-0.040864,-0.025342,59.309647,23.750824,-147.50206,,,
729606118.325867,-1.006612,-3.779319,55.012467,0.0578,-0.015488,0.992905,0.056863,-0.040864,-0.025342,59.309647,23.750824,-147.50206,,,
729606118.329204,-0.987267,-3.79103,55.008257,0.0578,-0.015488,0.992905,0.063458,-0.042856,-0.021049,59.253342,23.701447,-147.350372,,,
729606118.332529,-0.968793,-3.804582,55.004483,0.058029,-0.014267,0.996384,0.063458,-0.042856,-0.021049,59.253342,23.701447,-147.350372,,,
729606118.335943,-0.968793,-3.804582,55.004483,0.058029,-0.014267,0.996384,0.063458,-0.042856,-0.021049,59.253342,23.701447,-147.350372,,,
729606118.339201,-0.950689,-3.815932,55.001816,0.058029,-0.014267,0.996384,0.06218,-0.045822,-0.011826,59.253342,23.701447,-147.350372,,,
729606118.342525,-0.933561,-3.829152,54.999708,0.060745,-0.013382,0.993668,0.06218,-0.045822,-0.011826,59.253342,23.701447,-147.350372,,,
729606118.345865,-0.933561,-3.829152,54.999708,0.060745,-0.013382,0.993668,0.06218,-0.045822,-0.011826,59.253342,23.701447,-147.350372,,,
729606118.349261,-0.918058,-3.836201,54.997302,0.060745,-0.013382,0.993668,0.059133,-0.034088,-0.013425,59.253342,23.701447,-147.350372,,,
729606118.352522,-0.902298,-3.846462,54.994597,0.067719,-0.012543,0.995544,0.059133,-0.034088,-0.013425,59.253342,23.701447,-147.350372,,,
729606118.355877,-0.902298,-3.846462,54.994597,0.067719,-0.012543,0.995544,0.059133,-0.034088,-0.013425,59.253342,23.701447,-147.350372,,,
729606118.35923,-0.887616,-3.853598,54.991511,0.067719,-0.012543,0.995544,0.048622,-0.028722,-0.018729,59.253342,23.701447,-147.350372,,,
729606118.362528,-0.873718,-3.863715,54.987847,0.071136,-0.010696,0.990387,0.048622,-0.028722,-0.018729,59.253342,23.701447,-147.350372,,,
729606118.365876,-0.873718,-3.863715,54.987847,0.071136,-0.010696,0.990387,0.048622,-0.028722,-0.018729,59.253342,23.701447,-147.350372,,,
729606118.369225,-0.859932,-3.871672,54.983661,0.071136,-0.010696,0.990387,0.044038,-0.030652,-0.018605,59.207794,23.668152,-147.525986,,,
729606118.372523,-0.848225,-3.88199,54.979276,0.07016,-0.012405,0.98732,0.044038,-0.030652,-0.018605,59.207794,23.668152,-147.525986,,,
729606118.375937,-0.848225,-3.88199,54.979276,0.07016,-0.012405,0.98732,0.044038,-0.030652,-0.018605,59.207794,23.668152,-147.525986,,,
729606118.379202,-0.837374,-3.888184,54.974651,0.07016,-0.012405,0.98732,0.036735,-0.028663,-0.021996,59.207794,23.668152,-147.525986,,,
729606118.38252,-0.827066,-3.897521,54.969671,0.068954,-0.01004,0.987961,0.036735,-0.028663,-0.021996,59.207794,23.668152,-147.525986,,,
729606118.385876,-0.827066,-3.897521,54.969671,0.068954,-0.01004,0.987961,0.036735,-0.028663,-0.021996,59.207794,23.668152,-147.525986,,,
729606118.389255,-0.817291,-3.904655,54.965236,0.068954,-0.01004,0.987961,0.032927,-0.034795,-0.018818,59.207794,23.668152,-147.525986,,,
729606118.392513,-0.80894,-3.916398,54.960865,0.066849,-0.009216,0.984253,0.032927,-0.034795,-0.018818,59.207794,23.668152,-147.525986,,,
729606118.395877,-0.80894,-3.916398,54.960865,0.066849,-0.009216,0.984253,0.032927,-0.034795,-0.018818,59.207794,23.668152,-147.525986,,,
729606118.399212,-0.801908,-3.92659,54.956445,0.066849,-0.009216,0.984253,0.023349,-0.044329,-0.01936,59.207794,23.668152,-147.525986,,,
729606118.402519,-0.795611,-3.940686,54.952273,0.063828,-0.012238,0.982468,0.023349,-0.044329,-0.01936,59.207794,23.668152,-147.525986,,,
729606118.405878,-0.795611,-3.940686,54.952273,0.063828,-0.012238,0.982468,0.023349,-0.044329,-0.01936,59.207794,23.668152,-147.525986,,,
729606118.409192,-0.791049,-3.952514,54.948114,0.063828,-0.012238,0.982468,0.014316,-0.050645,-0.017728,59.039154,23.420807,-147.66571,,,
729606118.412521,-0.787085,-3.969398,54.944339,0.063904,-0.013626,0.980988,0.014316,-0.050645,-0.017728,59.039154,23.420807,-147.66571,,,
729606118.415882,-0.787085,-3.969398,54.944339,0.063904,-0.013626,0.980988,0.014316,-0.050645,-0.017728,59.039154,23.420807,-147.66571,,,
729606118.419191,-0.784052,-3.983003,54.941219,0.063904,-0.013626,0.980988,0.010028,-0.059043,-0.013959,59.039154,23.420807,-147.66571,,,
729606118.422533,-0.78199,-4.000067,54.938325,0.067642,-0.014969,0.977676,0.010028,-0.059043,-0.013959,59.039154,23.420807,-147.66571,,,
729606118.425881,-0.78199,-4.000067,54.938325,0.067642,-0.014969,0.977676,0.010028,-0.059043,-0.013959,59.039154,23.420807,-147.66571,,,
729606118.429254,-0.779663,-4.01426,54.935959,0.067642,-0.014969,0.977676,0.011084,-0.053159,-0.010572,59.039154,23.420807,-147.66571,,,
729606118.432518,-0.775608,-4.030173,54.93428,0.072495,-0.015289,0.986511,0.011084,-0.053159,-0.010572,59.039154,23.420807,-147.66571,,,
729606118.435873,-0.775608,-4.030173,54.93428,0.072495,-0.015289,0.986511,0.011084,-0.053159,-0.010572,59.039154,23.420807,-147.66571,,,
729606118.439294,-0.769501,-4.045932,54.933583,0.072495,-0.015289,0.986511,0.022581,-0.050989,-0.002504,59.039154,23.420807,-147.66571,,,
729606118.442521,-0.763314,-4.060663,54.934189,0.073929,-0.021545,0.989471,0.022581,-0.050989,-0.002504,59.039154,23.420807,-147.66571,,,
729606118.445868,-0.763314,-4.060663,54.934189,0.073929,-0.021545,0.989471,0.022581,-0.050989,-0.002504,59.039154,23.420807,-147.66571,,,
729606118.449208,-0.75712,-4.074707,54.935778,0.073929,-0.021545,0.989471,0.021902,-0.043745,0.002065,59.138016,23.688599,-147.715332,,,
729606118.452545,-0.752584,-4.087706,54.937806,0.074829,-0.025208,0.982925,0.021902,-0.043745,0.002065,59.138016,23.688599,-147.715332,,,
729606118.455867,-0.752584,-4.087706,54.937806,0.074829,-0.025208,0.982925,0.021902,-0.043745,0.002065,59.138016,23.688599,-147.715332,,,
729606118.459197,-0.750386,-4.09983,54.939851,0.074829,-0.025208,0.982925,0.005215,-0.03794,0.006183,59.138016,23.688599,-147.715332,,,
729606118.462529,-0.751969,-4.11124,54.94142,0.075623,-0.020432,0.974884,0.005215,-0.03794,0.006183,59.138016,23.688599,-147.715332,,,
729606118.465924,-0.751969,-4.11124,54.94142,0.075623,-0.020432,0.974884,0.005215,-0.03794,0.006183,59.138016,23.688599,-147.715332,,,
729606118.46921,-0.756455,-4.121419,54.942888,0.075623,-0.020432,0.974884,-0.020862,-0.038338,0.003323,59.138016,23.688599,-147.715332,,,
729606118.472528,-0.764966,-4.132908,54.944257,0.072342,-0.016998,0.969772,-0.020862,-0.038338,0.003323,59.138016,23.688599,-147.715332,,,
729606118.475873,-0.764966,-4.132908,54.944257,0.072342,-0.016998,0.969772,-0.020862,-0.038338,0.003323,59.138016,23.688599,-147.715332,,,
729606118.479261,-0.776635,-4.143659,54.944913,0.072342,-0.016998,0.969772,-0.04567,-0.039672,0.002673,59.138016,23.688599,-147.715332,,,
729606118.482344,-0.792331,-4.157822,54.944566,0.075455,-0.012451,0.967468,-0.04567,-0.039672,0.002673,59.138016,23.688599,-147.715332,,,
729606118.485901,-0.792331,-4.157822,54.944566,0.075455,-0.012451,0.967468,-0.04567,-0.039672,0.002673,59.138016,23.688599,-147.715332,,,
729606118.489211,-0.81187,-4.172616,54.942954,0.075455,-0.012451,0.967468,-0.071076,-0.057126,-0.002568,59.138016,23.688599,-147.715332,,,
729606118.492531,-0.834123,-4.190424,54.939229,0.081284,-0.011963,0.970947,-0.071076,-0.057126,-0.002568,58.834534,23.754669,-147.51825,,,
729606118.495872,-0.834123,-4.190424,54.939229,0.081284,-0.011963,0.970947,-0.071076,-0.057126,-0.002568,58.834534,23.754669,-147.51825,,,
729606118.499197,-0.857029,-4.207572,54.933499,0.081284,-0.011963,0.970947,-0.081225,-0.06169,-0.017681,58.834534,23.754669,-147.51825,,,
729606118.502531,-0.879217,-4.227145,54.925712,0.087051,-0.013992,0.983032,-0.081225,-0.06169,-0.017681,58.834534,23.754669,-147.51825,,,
729606118.505922,-0.879217,-4.227145,54.925712,0.087051,-0.013992,0.983032,-0.081225,-0.06169,-0.017681,58.834534,23.754669,-147.51825,,,
729606118.509207,-0.899927,-4.246702,54.916239,0.087051,-0.013992,0.983032,-0.074413,-0.063252,-0.031031,58.834534,23.754669,-147.51825,,,
729606118.512526,-0.918752,-4.266458,54.90609,0.087326,-0.016693,0.994415,-0.074413,-0.063252,-0.031031,58.834534,23.754669,-147.51825,,,
729606118.515895,-0.918752,-4.266458,54.90609,0.087326,-0.016693,0.994415,-0.074413,-0.063252,-0.031031,58.834534,23.754669,-147.51825,,,
729606118.519273,-0.934931,-4.284418,54.895811,0.087326,-0.016693,0.994415,-0.056716,-0.059281,-0.034891,58.834534,23.754669,-147.51825,,,
729606118.522513,-0.947853,-4.300127,54.885789,0.082916,-0.021988,1.004013,-0.056716,-0.059281,-0.034891,58.834534,23.754669,-147.51825,,,
729606118.525873,-0.947853,-4.300127,54.885789,0.082916,-0.021988,1.004013,-0.056716,-0.059281,-0.034891,58.834534,23.754669,-147.51825,,,
729606118.529197,-0.957963,-4.312427,54.876577,0.082916,-0.021988,1.004013,-0.02899,-0.035358,-0.031423,58.834534,23.754669,-147.51825,,,
729606118.532522,-0.963272,-4.321266,54.868262,0.08522,-0.020569,1.013916,-0.02899,-0.035358,-0.031423,58.800232,23.862061,-147.539703,,,
729606118.535867,-0.963272,-4.321266,54.868262,0.08522,-0.020569,1.013916,-0.02899,-0.035358,-0.031423,58.800232,23.862061,-147.539703,,,
729606118.539188,-0.966076,-4.327829,54.861247,0.08522,-0.020569,1.013916,-0.003749,-0.016014,-0.023354,58.800232,23.862061,-147.539703,,,
729606118.542529,-0.965242,-4.33221,54.855929,0.082245,-0.018173,1.009537,-0.003749,-0.016014,-0.023354,58.800232,23.862061,-147.539703,,,
729606118.54592,-0.965242,-4.33221,54.855929,0.082245,-0.018173,1.009537,-0.003749,-0.016014,-0.023354,58.800232,23.862061,-147.539703,,,
729606118.549192,-0.964023,-4.33502,54.851971,0.082245,-0.018173,1.009537,0.004594,-0.004878,-0.014857,58.800232,23.862061,-147.539703,,,
729606118.552528,-0.962349,-4.334596,54.849056,0.07518,-0.01889,0.996994,0.004594,-0.004878,-0.014857,58.800232,23.862061,-147.539703,,,
729606118.55587,-0.962349,-4.334596,54.849056,0.07518,-0.01889,0.996994,0.004594,-0.004878,-0.014857,58.800232,23.862061,-147.539703,,,
729606118.559242,-0.961125,-4.330763,54.84629,0.07518,-0.01889,0.996994,0.003981,0.018005,-0.00973,58.800232,23.862061,-147.539703,,,
729606118.562519,-0.960593,-4.325248,54.843188,0.073807,-0.015762,0.998047,0.003981,0.018005,-0.00973,58.800232,23.862061,-147.539703,,,
729606118.565868,-0.960593,-4.325248,54.843188,0.073807,-0.015762,0.998047,0.003981,0.018005,-0.00973,58.800232,23.862061,-147.539703,,,
729606118.569187,-0.960142,-4.320651,54.839619,0.073807,-0.015762,0.998047,-0.003411,0.022873,-0.013474,58.800232,23.862061,-147.539703,,,
729606118.572522,-0.962205,-4.315146,54.835137,0.073654,-0.011703,0.988144,-0.003411,0.022873,-0.013474,58.930222,23.859329,-147.65477,,,
729606118.575864,-0.962205,-4.315146,54.835137,0.073654,-0.011703,0.988144,-0.003411,0.022873,-0.013474,58.930222,23.859329,-147.65477,,,
729606118.579197,-0.965248,-4.313757,54.829494,0.073654,-0.011703,0.988144,-0.01645,0.01918,-0.020221,58.930222,23.859329,-147.65477,,,
729606118.58252,-0.97048,-4.310093,54.822545,0.068405,-0.007767,0.982941,-0.01645,0.01918,-0.020221,58.930222,23.859329,-147.65477,,,
729606118.585916,-0.97048,-4.310093,54.822545,0.068405,-0.007767,0.982941,-0.01645,0.01918,-0.020221,58.930222,23.859329,-147.65477,,,
729606118.589211,-0.976229,-4.312093,54.814477,0.068405,-0.007767,0.982941,-0.023339,0.010475,-0.030148,58.930222,23.859329,-147.65477,,,
729606118.592512,-0.983987,-4.311543,54.805229,0.067474,-0.006241,0.983887,-0.023339,0.010475,-0.030148,58.930222,23.859329,-147.65477,,,
729606118.595863,-0.983987,-4.311543,54.805229,0.067474,-0.006241,0.983887,-0.023339,0.010475,-0.030148,58.930222,23.859329,-147.65477,,,
729606118.599277,-0.992883,-4.316892,54.795259,0.067474,-0.006241,0.983887,-0.03349,-0.008645,-0.033307,58.930222,23.859329,-147.65477,,,
729606118.602523,-1.00156,-4.321889,54.786049,0.063614,-0.005615,0.977112,-0.03349,-0.008645,-0.033307,58.930222,23.859329,-147.65477,,,
729606118.605873,-1.00156,-4.321889,54.786049,0.063614,-0.005615,0.977112,-0.03349,-0.008645,-0.033307,58.930222,23.859329,-147.65477,,,
729606118.609215,-1.011871,-4.331723,54.777534,0.063614,-0.005615,0.977112,-0.033218,-0.026222,-0.028906,58.930222,23.859329,-147.65477,,,
729606118.612524,-1.020925,-4.341327,54.769507,0.061691,-0.011017,0.981461,-0.033218,-0.026222,-0.028906,58.930222,23.859329,-147.65477,,,
729606118.615855,-1.020925,-4.341327,54.769507,0.061691,-0.011017,0.981461,-0.033218,-0.026222,-0.028906,58.865204,23.780441,-147.306137,,,
729606118.619221,-1.028522,-4.353935,54.762292,0.061691,-0.011017,0.981461,-0.024846,-0.028969,-0.02314,58.865204,23.780441,-147.306137,,,
729606118.622648,-1.032625,-4.362423,54.756816,0.062393,-0.015488,0.994675,-0.024846,-0.028969,-0.02314,58.865204,23.780441,-147.306137,,,
729606118.625974,-1.032625,-4.362423,54.756816,0.062393,-0.015488,0.994675,-0.024846,-0.028969,-0.02314,58.865204,23.780441,-147.306137,,,
729606118.629277,-1.033582,-4.368517,54.753093,0.062393,-0.015488,0.994675,-0.001097,-0.014513,-0.014023,58.865204,23.780441,-147.306137,,,
729606118.632541,-1.031468,-4.37025,54.751365,0.064056,-0.016495,1.009415,-0.001097,-0.014513,-0.014023,58.865204,23.780441,-147.306137,,,
729606118.635864,-1.031468,-4.37025,54.751365,0.064056,-0.016495,1.009415,-0.001097,-0.014513,-0.014023,58.865204,23.780441,-147.306137,,,
729606118.639227,-1.027076,-4.368414,54.751528,0.064056,-0.016495,1.009415,0.019898,0.007626,-0.00254,58.865204,23.780441,-147.306137,,,
729606118.642573,-1.021352,-4.365443,54.753435,0.065994,-0.017838,1.005295,0.019898,0.007626,-0.00254,58.865204,23.780441,-147.306137,,,
729606118.645908,-1.021352,-4.365443,54.753435,0.065994,-0.017838,1.005295,0.019898,0.007626,-0.00254,58.865204,23.780441,-147.306137,,,
729606118.649224,-1.015264,-4.359021,54.757188,0.065994,-0.017838,1.005295,0.019892,0.027317,0.007888,58.865204,23.780441,-147.306137,,,
729606118.652522,-1.012122,-4.349377,54.762397,0.05986,-0.018478,0.996674,0.019892,0.027317,0.007888,58.865204,23.780441,-147.306137,,,
729606118.655859,-1.012122,-4.349377,54.762397,0.05986,-0.018478,0.996674,0.019892,0.027317,0.007888,58.865173,23.502686,-147.425247,,,
729606118.659207,-1.009986,-4.336773,54.769213,0.05986,-0.018478,0.996674,0.001062,0.045442,0.024635,58.865173,23.502686,-147.425247,,,
729606118.662534,-1.01182,-4.324563,54.776959,0.060608,-0.017014,0.989517,0.001062,0.045442,0.024635,58.865173,23.502686,-147.425247,,,
729606118.66588,-1.01182,-4.324563,54.776959,0.060608,-0.017014,0.989517,0.001062,0.045442,0.024635,58.865173,23.502686,-147.425247,,,
729606118.669217,-1.014067,-4.310611,54.784594,0.060608,-0.017014,0.989517,-0.015922,0.041076,0.025944,58.865173,23.502686,-147.425247,,,
729606118.672533,-1.019857,-4.301389,54.791437,0.066666,-0.008728,0.98439,-0.015922,0.041076,0.025944,58.865173,23.502686,-147.425247,,,
729606118.675889,-1.019857,-4.301389,54.791437,0.066666,-0.008728,0.98439,-0.015922,0.041076,0.025944,58.865173,23.502686,-147.425247,,,
729606118.679239,-1.024097,-4.293653,54.797156,0.066666,-0.008728,0.98439,-0.023865,0.018997,0.021382,58.865173,23.502686,-147.425247,,,
729606118.68254,-1.030997,-4.291985,54.801324,0.065094,-0.008179,0.983185,-0.023865,0.018997,0.021382,58.865173,23.502686,-147.425247,,,
729606118.68592,-1.030997,-4.291985,54.801324,0.065094,-0.008179,0.983185,-0.023865,0.018997,0.021382,58.865173,23.502686,-147.425247,,,
729606118.689278,-1.035922,-4.289765,54.803787,0.065094,-0.008179,0.983185,-0.024134,-0.002958,0.008293,58.865173,23.502686,-147.425247,,,
729606118.692499,-1.042934,-4.293299,54.804425,0.068069,-0.009232,0.988571,-0.024134,-0.002958,0.008293,58.865173,23.502686,-147.425247,,,
729606118.695865,-1.042934,-4.293299,54.804425,0.068069,-0.009232,0.988571,-0.024134,-0.002958,0.008293,58.907822,23.685455,-147.442627,,,
729606118.699303,-1.048804,-4.29429,54.803605,0.068069,-0.009232,0.988571,-0.022311,-0.014592,-0.00278,58.907822,23.685455,-147.442627,,,
729606118.702529,-1.055414,-4.299692,54.802083,0.069824,-0.009537,0.989197,-0.022311,-0.014592,-0.00278,58.907822,23.685455,-147.442627,,,
729606118.705866,-1.055414,-4.299692,54.802083,0.069824,-0.009537,0.989197,-0.022311,-0.014592,-0.00278,58.907822,23.685455,-147.442627,,,
729606118.709199,-1.061126,-4.302025,54.801176,0.069824,-0.009537,0.989197,-0.021514,-0.018492,-0.002647,58.907822,23.685455,-147.442627,,,
729606118.712548,-1.066998,-4.308669,54.801371,0.067093,-0.01268,0.987411,-0.021514,-0.018492,-0.002647,58.907822,23.685455,-147.442627,,,
729606118.715869,-1.066998,-4.308669,54.801371,0.067093,-0.01268,0.987411,-0.021514,-0.018492,-0.002647,58.907822,23.685455,-147.442627,,,
729606118.719203,-1.071605,-4.311448,54.803944,0.067093,-0.01268,0.987411,-0.014165,-0.017483,0.011236,58.907822,23.685455,-147.442627,,,
729606118.722545,-1.074663,-4.31565,54.809117,0.069565,-0.018066,0.991547,-0.014165,-0.017483,0.011236,58.907822,23.685455,-147.442627,,,
729606118.725678,-1.074663,-4.31565,54.809117,0.069565,-0.018066,0.991547,-0.014165,-0.017483,0.011236,58.907822,23.685455,-147.442627,,,
729606118.729233,-1.075125,-4.313255,54.815674,0.069565,-0.018066,0.991547,0.001492,0.001841,0.021948,58.907822,23.685455,-147.442627,,,
729606118.732519,-1.073972,-4.31189,54.822949,0.07692,-0.016464,1.005417,0.001492,0.001841,0.021948,58.907822,23.685455,-147.442627,,,
729606118.735866,-1.073972,-4.31189,54.822949,0.07692,-0.016464,1.005417,0.001492,0.001841,0.021948,58.833755,23.98233,-147.3535,,,
729606118.739202,-1.071986,-4.304309,54.831009,0.07692,-0.016464,1.005417,0.00975,0.010782,0.025845,58.833755,23.98233,-147.3535,,,
729606118.742532,-1.069944,-4.300828,54.838414,0.080399,-0.018326,0.999512,0.00975,0.010782,0.025845,58.833755,23.98233,-147.3535,,,
729606118.745879,-1.069944,-4.300828,54.838414,0.080399,-0.018326,0.999512,0.00975,0.010782,0.025845,58.833755,23.98233,-147.3535,,,
729606118.749269,-1.06759,-4.292591,54.84482,0.080399,-0.018326,0.999512,0.00769,0.020089,0.020743,58.833755,23.98233,-147.3535,,,
729606118.752549,-1.066908,-4.287018,54.849986,0.08197,-0.018021,0.998428,0.00769,0.020089,0.020743,58.833755,23.98233,-147.3535,,,
729606118.755866,-1.066908,-4.287018,54.849986,0.08197,-0.018021,0.998428,0.00769,0.020089,0.020743,58.833755,23.98233,-147.3535,,,
729606118.759198,-1.065637,-4.278514,54.853329,0.08197,-0.018021,0.998428,-0.003706,0.026714,0.008861,58.833755,23.98233,-147.3535,,,
729606118.762584,-1.068702,-4.271792,54.854778,0.084518,-0.015244,0.999924,-0.003706,0.026714,0.008861,58.833755,23.98233,-147.3535,,,
729606118.765856,-1.068702,-4.271792,54.854778,0.084518,-0.015244,0.999924,-0.003706,0.026714,0.008861,58.833755,23.98233,-147.3535,,,
729606118.769213,-1.072207,-4.263123,54.854922,0.084518,-0.015244,0.999924,-0.019117,0.022375,0.000931,58.833755,23.98233,-147.3535,,,
729606118.772566,-1.078233,-4.259235,54.855065,0.080078,-0.019104,0.995056,-0.019117,0.022375,0.000931,58.833755,23.98233,-147.3535,,,
729606118.775862,-1.078233,-4.259235,54.855065,0.080078,-0.019104,0.995056,-0.019117,0.022375,0.000931,58.833755,23.98233,-147.3535,,,
729606118.779261,-1.081988,-4.25612,54.85517,0.080078,-0.019104,0.995056,-0.019608,0.005049,-0.000761,58.817398,24.006699,-147.491043,,,
729606118.782523,-1.08704,-4.255778,54.854347,0.075485,-0.022995,0.996246,-0.019608,0.005049,-0.000761,58.817398,24.006699,-147.491043,,,
729606118.785858,-1.08704,-4.255778,54.854347,0.075485,-0.022995,0.996246,-0.019608,0.005049,-0.000761,58.817398,24.006699,-147.491043,,,
729606118.789189,-1.089477,-4.255607,54.853128,0.075485,-0.022995,0.996246,-0.012266,-0.002173,-0.006763,58.817398,24.006699,-147.491043,,,
729606118.792568,-1.091822,-4.259326,54.852577,0.076736,-0.022293,1.001511,-0.012266,-0.002173,-0.006763,58.817398,24.006699,-147.491043,,,
729606118.795875,-1.091822,-4.259326,54.852577,0.076736,-0.022293,1.001511,-0.012266,-0.002173,-0.006763,58.817398,24.006699,-147.491043,,,
729606118.799297,-1.092001,-4.262957,54.853439,0.076736,-0.022293,1.001511,-0.004641,-0.019913,0.002431,58.817398,24.006699,-147.491043,,,
729606118.802528,-1.092375,-4.270288,54.855148,0.070129,-0.026291,0.998779,-0.004641,-0.019913,0.002431,58.817398,24.006699,-147.491043,,,
729606118.805874,-1.092375,-4.270288,54.855148,0.070129,-0.026291,0.998779,-0.004641,-0.019913,0.002431,58.817398,24.006699,-147.491043,,,
729606118.809204,-1.091958,-4.277021,54.857483,0.070129,-0.026291,0.998779,0.002338,-0.0234,0.006245,58.817398,24.006699,-147.491043,,,
729606118.81256,-1.091426,-4.284371,54.860317,0.071457,-0.025955,0.999603,0.002338,-0.0234,0.006245,58.817398,24.006699,-147.491043,,,
729606118.815877,-1.091426,-4.284371,54.860317,0.071457,-0.025955,0.999603,0.002338,-0.0234,0.006245,58.817398,24.006699,-147.491043,,,
729606118.819219,-1.08999,-4.292696,54.863262,0.071457,-0.025955,0.999603,0.005888,-0.021945,0.008014,58.770813,23.716858,-147.389389,,,
729606118.822586,-1.088575,-4.299258,54.865937,0.077896,-0.022018,0.99968,0.005888,-0.021945,0.008014,58.770813,23.716858,-147.389389,,,
729606118.825933,-1.088575,-4.299258,54.865937,0.077896,-0.022018,0.99968,0.005888,-0.021945,0.008014,58.770813,23.716858,-147.389389,,,
729606118.829208,-1.086492,-4.307151,54.868093,0.077896,-0.022018,0.99968,0.008905,-0.017983,0.004892,58.770813,23.716858,-147.389389,,,
729606118.832536,-1.084405,-4.312342,54.869366,0.082779,-0.021011,0.999069,0.008905,-0.017983,0.004892,58.770813,23.716858,-147.389389,,,
729606118.835863,-1.084405,-4.312342,54.869366,0.082779,-0.021011,0.999069,0.008905,-0.017983,0.004892,58.770813,23.716858,-147.389389,,,
729606118.839252,-1.0827,-4.318914,54.869591,0.082779,-0.021011,0.999069,0.006754,-0.012013,-0.001994,58.770813,23.716858,-147.389389,,,
729606118.842529,-1.083001,-4.32213,54.868999,0.08136,-0.017029,0.992264,0.006754,-0.012013,-0.001994,58.770813,23.716858,-147.389389,,,
729606118.845869,-1.083001,-4.32213,54.868999,0.08136,-0.017029,0.992264,0.006754,-0.012013,-0.001994,58.770813,23.716858,-147.389389,,,
729606118.849205,-1.084545,-4.326925,54.867777,0.08136,-0.017029,0.992264,-0.008794,-0.002629,-0.004442,58.770813,23.716858,-147.389389,,,
729606118.85256,-1.088545,-4.329042,54.866365,0.077164,-0.015778,0.983231,-0.008794,-0.002629,-0.004442,58.770813,23.716858,-147.389389,,,
729606118.855873,-1.088545,-4.329042,54.866365,0.077164,-0.015778,0.983231,-0.008794,-0.002629,-0.004442,58.770813,23.716858,-147.389389,,,
729606118.859196,-1.094487,-4.333727,54.865181,0.077164,-0.015778,0.983231,-0.018277,-0.010368,-0.00639,58.672485,23.942795,-147.419724,,,
729606118.862602,-1.102144,-4.338685,54.864101,0.076874,-0.016327,0.973053,-0.018277,-0.010368,-0.00639,58.672485,23.942795,-147.419724,,,
729606118.865931,-1.102144,-4.338685,54.864101,0.076874,-0.016327,0.973053,-0.018277,-0.010368,-0.00639,58.672485,23.942795,-147.419724,,,
729606118.869191,-1.1135,-4.344557,54.862787,0.076874,-0.016327,0.973053,-0.039193,-0.014527,-0.003041,58.672485,23.942795,-147.419724,,,
729606118.872549,-1.126299,-4.351102,54.861761,0.076874,-0.016327,0.973053,-0.039193,-0.014527,-0.003041,58.672485,23.942795,-147.419724,,,
729606118.875881,-1.126299,-4.351102,54.861761,0.073853,-0.017761,0.965225,-0.039193,-0.014527,-0.003041,58.672485,23.942795,-147.419724,,,
729606118.879286,-1.141135,-4.357796,54.861549,0.073853,-0.017761,0.965225,-0.048865,-0.021511,0.003438,58.672485,23.942795,-147.419724,,,
729606118.882529,-1.141135,-4.357796,54.862676,0.073853,-0.017761,0.965225,-0.048865,-0.021511,0.003438,58.672485,23.942795,-147.419724,,,
729606118.885884,-1.157567,-4.365328,54.862676,0.067123,-0.022095,0.965866,-0.048865,-0.021511,0.003438,58.672485,23.942795,-147.419724,,,
729606118.889194,-1.178113,-4.370683,54.865219,0.067123,-0.022095,0.965866,-0.064269,-0.023468,0.012747,58.672485,23.942795,-147.419724,,,
729606118.892618,-1.199335,-4.378128,54.869855,0.061249,-0.025711,0.967438,-0.064269,-0.023468,0.012747,58.672485,23.942795,-147.419724,,,
729606118.895854,-1.199335,-4.378128,54.869855,0.061249,-0.025711,0.967438,-0.064269,-0.023468,0.012747,58.672485,23.942795,-147.419724,,,
729606118.899189,-1.223646,-4.384116,54.876801,0.061249,-0.025711,0.967438,-0.079528,-0.020614,0.030477,58.815109,24.168686,-147.197739,,,
729606118.902551,-1.223646,-4.384116,54.876801,0.057602,-0.027191,0.96759,-0.079528,-0.020614,0.030477,58.815109,24.168686,-147.197739,,,
729606118.905918,-1.249619,-4.39031,54.885072,0.057602,-0.027191,0.96759,-0.079528,-0.020614,0.030477,58.815109,24.168686,-147.197739,,,
729606118.909201,-1.277017,-4.396995,54.894612,0.057602,-0.027191,0.96759,-0.093179,-0.017756,0.043138,58.815109,24.168686,-147.197739,,,
729606118.912535,-1.277017,-4.40065,54.904337,0.063736,-0.026566,0.971405,-0.093179,-0.017756,0.043138,58.815109,24.168686,-147.197739,,,
729606118.915879,-1.30682,-4.40065,54.904337,0.063736,-0.026566,0.971405,-0.093179,-0.017756,0.043138,58.815109,24.168686,-147.197739,,,
729606118.919226,-1.336931,-4.403734,54.913458,0.063736,-0.026566,0.971405,-0.101096,-0.002485,0.038243,58.815109,24.168686,-147.197739,,,
729606118.922618,-1.366835,-4.404142,54.922216,0.063736,-0.026566,0.971405,-0.101096,-0.002485,0.038243,58.815109,24.168686,-147.197739,,,
729606118.925914,-1.366835,-4.404142,54.922216,0.068192,-0.024765,0.982254,-0.101096,-0.002485,0.038243,58.815109,24.168686,-147.197739,,,
729606118.929215,-1.395423,-4.406471,54.930739,0.068192,-0.024765,0.982254,-0.099849,-0.004165,0.038429,58.815109,24.168686,-147.197739,,,
729606118.932663,-1.395423,-4.406471,54.939909,0.068192,-0.024765,0.982254,-0.099849,-0.004165,0.038429,58.815109,24.168686,-147.197739,,,
729606118.935862,-1.424891,-4.410515,54.939909,0.06665,-0.026062,0.98381,-0.099849,-0.004165,0.038429,58.815109,24.168686,-147.197739,,,
729606118.939218,-1.453801,-4.417845,54.949538,0.06665,-0.026062,0.98381,-0.100811,-0.024345,0.0371,58.815109,24.168686,-147.197739,,,
729606118.942582,-1.453801,-4.417845,54.949538,0.06665,-0.026062,0.98381,-0.100811,-0.024345,0.0371,58.617905,24.340485,-147.073212,,,
729606118.945924,-1.483992,-4.427598,54.959411,0.06456,-0.031784,0.983978,-0.100811,-0.024345,0.0371,58.617905,24.340485,-147.073212,,,
729606118.949228,-1.512368,-4.440372,54.969768,0.06456,-0.031784,0.983978,-0.103095,-0.044542,0.042717,58.617905,24.340485,-147.073212,,,
729606118.952578,-1.512368,-4.440372,54.969768,0.06456,-0.031784,0.983978,-0.103095,-0.044542,0.042717,58.617905,24.340485,-147.073212,,,
729606118.955866,-1.542114,-4.455138,54.980734,0.065353,-0.035812,0.993225,-0.103095,-0.044542,0.042717,58.617905,24.340485,-147.073212,,,
729606118.959255,-1.571379,-4.471024,54.99208,0.065353,-0.035812,0.993225,-0.100435,-0.05586,0.046935,58.617905,24.340485,-147.073212,,,
729606118.962553,-1.571379,-4.471024,54.99208,0.065353,-0.035812,0.993225,-0.100435,-0.05586,0.046935,58.617905,24.340485,-147.073212,,,
729606118.965863,-1.601825,-4.488551,55.002838,0.072311,-0.034409,0.996475,-0.100435,-0.05586,0.046935,58.617905,24.340485,-147.073212,,,
729606118.969203,-1.631325,-4.50306,55.012334,0.072311,-0.034409,0.996475,-0.101965,-0.057317,0.039098,58.617905,24.340485,-147.073212,,,
729606118.97263,-1.631325,-4.50306,55.012334,0.072311,-0.034409,0.996475,-0.101965,-0.057317,0.039098,58.617905,24.340485,-147.073212,,,
729606118.975889,-1.660356,-4.517635,55.019685,0.087646,-0.03009,1.003647,-0.101965,-0.057317,0.039098,58.617905,24.340485,-147.073212,,,
729606118.979211,-1.687744,-4.524489,55.024751,0.087646,-0.03009,1.003647,-0.092116,-0.030957,0.02087,58.617905,24.340485,-147.073212,,,
729606118.982563,-1.687744,-4.524489,55.024751,0.087646,-0.03009,1.003647,-0.092116,-0.030957,0.02087,58.500259,24.591248,-147.195221,,,
729606118.985943,-1.713339,-4.530771,55.027589,0.09639,-0.023987,1.016022,-0.092116,-0.030957,0.02087,58.500259,24.591248,-147.195221,,,
729606118.989215,-1.737047,-4.528319,55.029229,0.09639,-0.023987,1.016022,-0.07808,-0.001054,0.008809,58.500259,24.591248,-147.195221,,,
729606118.99254,-1.737047,-4.528319,55.029229,0.09639,-0.023987,1.016022,-0.07808,-0.001054,0.008809,58.500259,24.591248,-147.195221,,,
729606118.995827,-1.758674,-4.52737,55.031015,0.09404,-0.028931,1.016159,-0.07808,-0.001054,0.008809,58.500259,24.591248,-147.195221,,,
729606118.999043,-1.777215,-4.520437,55.034287,0.09404,-0.028931,1.016159,-0.064097,0.018134,0.01799,58.500259,24.591248,-147.195221,,,
729606119.002551,-1.777215,-4.520437,55.034287,0.09404,-0.028931,1.016159,-0.064097,0.018134,0.01799,58.500259,24.591248,-147.195221,,,
729606119.005857,-1.794629,-4.513857,55.03883,0.085388,-0.038513,1.016266,-0.064097,0.018134,0.01799,58.500259,24.591248,-147.195221,,,
729606119.009197,-1.807991,-4.502682,55.044584,0.085388,-0.038513,1.016266,-0.045654,0.031819,0.022796,58.500259,24.591248,-147.195221,,,
729606119.012523,-1.807991,-4.502682,55.044584,0.085388,-0.038513,1.016266,-0.045654,0.031819,0.022796,58.500259,24.591248,-147.195221,,,
729606119.01586,-1.819456,-4.493593,55.05113,0.083755,-0.037415,1.013458,-0.045654,0.031819,0.022796,58.500259,24.591248,-147.195221,,,
729606119.019212,-1.827922,-4.480288,55.05741,0.083755,-0.037415,1.013458,-0.02533,0.036321,0.021921,58.500259,24.591248,-147.195221,,,
729606119.022527,-1.827922,-4.480288,55.05741,0.083755,-0.037415,1.013458,-0.02533,0.036321,0.021921,58.623718,24.492874,-147.403625,,,
729606119.025883,-1.835905,-4.470974,55.062827,0.083054,-0.033051,1.006577,-0.02533,0.036321,0.021921,58.623718,24.492874,-147.403625,,,
729606119.029242,-1.844149,-4.458671,55.067224,0.083054,-0.033051,1.006577,-0.024305,0.030393,0.011815,58.623718,24.492874,-147.403625,,,
729606119.032571,-1.844149,-4.458671,55.067224,0.083054,-0.033051,1.006577,-0.024305,0.030393,0.011815,58.623718,24.492874,-147.403625,,,
729606119.035882,-1.852252,-4.451548,55.06967,0.083618,-0.0298,0.998993,-0.024305,0.030393,0.011815,58.623718,24.492874,-147.403625,,,
729606119.039205,-1.861308,-4.442602,55.070532,0.083618,-0.0298,0.998993,-0.029058,0.020998,0.000729,58.623718,24.492874,-147.403625,,,
729606119.042533,-1.861308,-4.442602,55.070532,0.083618,-0.0298,0.998993,-0.029058,0.020998,0.000729,58.623718,24.492874,-147.403625,,,
729606119.045877,-1.86941,-4.439777,55.069153,0.084824,-0.028061,0.995499,-0.029058,0.020998,0.000729,58.623718,24.492874,-147.403625,,,
729606119.049191,-1.877833,-4.439367,55.065927,0.084824,-0.028061,0.995499,-0.031411,0.002268,-0.010441,58.623718,24.492874,-147.403625,,,
729606119.052527,-1.877833,-4.439367,55.065927,0.084824,-0.028061,0.995499,-0.031411,0.002268,-0.010441,58.623718,24.492874,-147.403625,,,
729606119.055869,-1.885297,-4.439913,55.061437,0.081909,-0.028305,0.994934,-0.031411,0.002268,-0.010441,58.623718,24.492874,-147.403625,,,
729606119.059186,-1.889013,-4.445093,55.056724,0.081909,-0.028305,0.994934,-0.016903,0.000517,-0.01518,58.623718,24.492874,-147.403625,,,
729606119.062527,-1.889013,-4.445093,55.056724,0.081909,-0.028305,0.994934,-0.016903,0.000517,-0.01518,58.637207,24.548462,-147.079544,,,
729606119.065883,-1.890756,-4.445664,55.053123,0.07962,-0.033035,1.007568,-0.016903,0.000517,-0.01518,58.637207,24.548462,-147.079544,,,
729606119.069249,-1.887005,-4.450469,55.05058,0.07962,-0.033035,1.007568,0.010812,0.00628,-0.009424,58.637207,24.548462,-147.079544,,,
729606119.072555,-1.887005,-4.450469,55.05058,0.07962,-0.033035,1.007568,0.010812,0.00628,-0.009424,58.637207,24.548462,-147.079544,,,
729606119.075861,-1.880951,-4.448078,55.049935,0.079651,-0.03331,1.016449,0.010812,0.00628,-0.009424,58.637207,24.548462,-147.079544,,,
729606119.079187,-1.870294,-4.447242,55.050941,0.079651,-0.03331,1.016449,0.040735,0.020073,0.001341,58.637207,24.548462,-147.079544,,,
729606119.0826,-1.870294,-4.447242,55.050941,0.079651,-0.03331,1.016449,0.040735,0.020073,0.001341,58.637207,24.548462,-147.079544,,,
729606119.08586,-1.856507,-4.440992,55.054089,0.080154,-0.035233,1.016006,0.040735,0.020073,0.001341,58.637207,24.548462,-147.079544,,,
729606119.089221,-1.841833,-4.434365,55.059012,0.080154,-0.035233,1.016006,0.059409,0.035046,0.01131,58.637207,24.548462,-147.079544,,,
729606119.092531,-1.841833,-4.434365,55.059012,0.080154,-0.035233,1.016006,0.059409,0.035046,0.01131,58.637207,24.548462,-147.079544,,,
729606119.09591,-1.825142,-4.423923,55.065332,0.078552,-0.037231,1.008667,0.059409,0.035046,0.01131,58.637207,24.548462,-147.079544,,,
729606119.099227,-1.810141,-4.413231,55.072616,0.078552,-0.037231,1.008667,0.054354,0.048703,0.019384,58.637207,24.548462,-147.079544,,,
729606119.102585,-1.810141,-4.413231,55.072616,0.078552,-0.037231,1.008667,0.054354,0.048703,0.019384,58.637207,24.548462,-147.079544,,,
729606119.105905,-1.796561,-4.399893,55.079931,0.081528,-0.030258,0.995789,0.054354,0.048703,0.019384,58.624359,24.648102,-147.138046,,,
729606119.109249,-1.785286,-4.389469,55.086627,0.081528,-0.030258,0.995789,0.040397,0.042288,0.020277,58.624359,24.648102,-147.138046,,,
729606119.112633,-1.785286,-4.389469,55.086627,0.081528,-0.030258,0.995789,0.040397,0.042288,0.020277,58.624359,24.648102,-147.138046,,,
729606119.115874,-1.776877,-4.379759,55.09247,0.082794,-0.024109,0.983337,0.040397,0.042288,0.020277,58.624359,24.648102,-147.138046,,,
729606119.119192,-1.771824,-4.37474,55.096638,0.082794,-0.024109,0.983337,0.014631,0.026766,0.012778,58.624359,24.648102,-147.138046,,,
729606119.122548,-1.771824,-4.37474,55.096638,0.082794,-0.024109,0.983337,0.014631,0.026766,0.012778,58.624359,24.648102,-147.138046,,,
729606119.125949,-1.771469,-4.370164,55.098809,0.087067,-0.018692,0.976288,0.014631,0.026766,0.012778,58.624359,24.648102,-147.138046,,,
729606119.129208,-1.77493,-4.372008,55.097987,0.087067,-0.018692,0.976288,-0.01799,0.002893,-0.007657,58.624359,24.648102,-147.138046,,,
729606119.132535,-1.77493,-4.372008,55.097987,0.087067,-0.018692,0.976288,-0.01799,0.002893,-0.007657,58.624359,24.648102,-147.138046,,,
729606119.135878,-1.783774,-4.374927,55.094292,0.08609,-0.018402,0.96933,-0.01799,0.002893,-0.007657,58.624359,24.648102,-147.138046,,,
729606119.139211,-1.795991,-4.382746,55.088618,0.08609,-0.018402,0.96933,-0.044835,-0.022853,-0.019873,58.624359,24.648102,-147.138046,,,
729606119.142543,-1.795991,-4.382746,55.088618,0.08609,-0.018402,0.96933,-0.044835,-0.022853,-0.019873,58.624359,24.648102,-147.138046,,,
729606119.145878,-1.809552,-4.391757,55.082533,0.079819,-0.022324,0.970398,-0.044835,-0.022853,-0.019873,58.684158,24.516006,-147.021942,,,
729606119.149221,-1.823305,-4.402181,55.077862,0.079819,-0.022324,0.970398,-0.046397,-0.031173,-0.012398,58.684158,24.516006,-147.021942,,,
729606119.152608,-1.823305,-4.402181,55.077862,0.079819,-0.022324,0.970398,-0.046397,-0.031173,-0.012398,58.684158,24.516006,-147.021942,,,
729606119.155865,-1.835869,-4.411792,55.075388,0.073196,-0.030624,0.988312,-0.046397,-0.031173,-0.012398,58.684158,24.516006,-147.021942,,,
729606119.159196,-1.847347,-4.422364,55.076096,0.073196,-0.030624,0.988312,-0.035838,-0.033136,0.00661,58.684158,24.516006,-147.021942,,,
729606119.162536,-1.847347,-4.422364,55.076096,0.073196,-0.030624,0.988312,-0.035838,-0.033136,0.00661,58.684158,24.516006,-147.021942,,,
729606119.16555,-1.857218,-4.433251,55.080272,0.071869,-0.036652,0.99913,-0.035838,-0.033136,0.00661,58.684158,24.516006,-147.021942,,,
729606119.169224,-1.866134,-4.444746,55.087017,0.071869,-0.036652,0.99913,-0.024394,-0.039086,0.025718,58.684158,24.516006,-147.021942,,,
729606119.172535,-1.866134,-4.444746,55.087017,0.071869,-0.036652,0.99913,-0.024394,-0.039086,0.025718,58.684158,24.516006,-147.021942,,,
729606119.175915,-1.873167,-4.455257,55.096046,0.075211,-0.040405,0.998199,-0.024394,-0.039086,0.025718,58.684158,24.516006,-147.021942,,,
729606119.179187,-1.88007,-4.463699,55.106499,0.075211,-0.040405,0.998199,-0.016891,-0.024188,0.035987,58.684158,24.516006,-147.021942,,,
729606119.182523,-1.88007,-4.463699,55.106499,0.075211,-0.040405,0.998199,-0.016891,-0.024188,0.035987,58.684158,24.516006,-147.021942,,,
729606119.185912,-1.885709,-4.468432,55.116947,0.084625,-0.03804,1.005966,-0.016891,-0.024188,0.035987,58.74939,24.456268,-147.161057,,,
729606119.189182,-1.890486,-4.472645,55.125983,0.084625,-0.03804,1.005966,-0.016342,-0.006582,0.031639,58.74939,24.456268,-147.161057,,,
729606119.192542,-1.890486,-4.472645,55.125983,0.084625,-0.03804,1.005966,-0.016342,-0.006582,0.031639,58.74939,24.456268,-147.161057,,,
729606119.195866,-1.896783,-4.475772,55.133813,0.092987,-0.030685,1.001785,-0.016342,-0.006582,0.031639,58.74939,24.456268,-147.161057,,,
729606119.199234,-1.901959,-4.48197,55.14083,0.092987,-0.030685,1.001785,-0.02581,-0.011396,0.024197,58.74939,24.456268,-147.161057,,,
729606119.202602,-1.901959,-4.48197,55.14083,0.092987,-0.030685,1.001785,-0.02581,-0.011396,0.024197,58.74939,24.456268,-147.161057,,,
729606119.205876,-1.910856,-4.485052,55.147053,0.094757,-0.030533,0.991425,-0.02581,-0.011396,0.024197,58.74939,24.456268,-147.161057,,,
729606119.209197,-1.918959,-4.490558,55.151357,0.094757,-0.030533,0.991425,-0.038491,-0.002062,0.013922,58.74939,24.456268,-147.161057,,,
729606119.212546,-1.918959,-4.490558,55.151357,0.094757,-0.030533,0.991425,-0.038491,-0.002062,0.013922,58.74939,24.456268,-147.161057,,,
729606119.215858,-1.931743,-4.492487,55.153638,0.09494,-0.031082,0.992722,-0.038491,-0.002062,0.013922,58.74939,24.456268,-147.161057,,,
729606119.219193,-1.943055,-4.498407,55.15447,0.09494,-0.031082,0.992722,-0.050691,-0.011934,0.001684,58.74939,24.456268,-147.161057,,,
729606119.22254,-1.943055,-4.498407,55.15447,0.09494,-0.031082,0.992722,-0.050691,-0.011934,0.001684,58.74939,24.456268,-147.161057,,,
729606119.225925,-1.958569,-4.504051,55.153801,0.092484,-0.031448,0.986969,-0.050691,-0.011934,0.001684,58.74939,24.456268,-147.161057,,,
729606119.229213,-1.97322,-4.511157,55.152047,0.092484,-0.031448,0.986969,-0.057062,-0.022477,-0.002973,58.70224,24.591339,-146.959122,,,
729606119.232539,-1.97322,-4.511157,55.152047,0.092484,-0.031448,0.986969,-0.057062,-0.022477,-0.002973,58.70224,24.591339,-146.959122,,,
729606119.235876,-1.989105,-4.518963,55.14966,0.087433,-0.034271,0.991074,-0.057062,-0.022477,-0.002973,58.70224,24.591339,-146.959122,,,
729606119.239194,-2.00386,-4.525795,55.146097,0.087433,-0.034271,0.991074,-0.050923,-0.02911,-0.011224,58.70224,24.591339,-146.959122,,,
729606119.242538,-2.00386,-4.525795,55.146097,0.087433,-0.034271,0.991074,-0.050923,-0.02911,-0.011224,58.70224,24.591339,-146.959122,,,
729606119.245872,-2.017929,-4.536619,55.141215,0.086685,-0.036926,0.997696,-0.050923,-0.02911,-0.011224,58.70224,24.591339,-146.959122,,,
729606119.24919,-2.030872,-4.548318,55.135545,0.086685,-0.036926,0.997696,-0.042886,-0.044962,-0.016344,58.70224,24.591339,-146.959122,,,
729606119.252581,-2.030872,-4.548318,55.135545,0.086685,-0.036926,0.997696,-0.042886,-0.044962,-0.016344,58.70224,24.591339,-146.959122,,,
729606119.255864,-2.041752,-4.563738,55.129833,0.08522,-0.039719,0.994034,-0.042886,-0.044962,-0.016344,58.70224,24.591339,-146.959122,,,
729606119.259192,-2.052378,-4.578218,55.124662,0.08522,-0.039719,0.994034,-0.035068,-0.047188,-0.017619,58.70224,24.591339,-146.959122,,,
729606119.262523,-2.052378,-4.578218,55.124662,0.08522,-0.039719,0.994034,-0.035068,-0.047188,-0.017619,58.70224,24.591339,-146.959122,,,
729606119.26591,-2.060913,-4.592233,55.11982,0.084091,-0.041367,1.003448,-0.035068,-0.047188,-0.017619,58.70224,24.591339,-146.959122,,,
729606119.269187,-2.068229,-4.607136,55.115398,0.084091,-0.041367,1.003448,-0.025562,-0.03608,-0.014031,58.727295,24.978867,-147.142441,,,
729606119.272533,-2.068229,-4.607136,55.115398,0.084091,-0.041367,1.003448,-0.025562,-0.03608,-0.014031,58.727295,24.978867,-147.142441,,,
729606119.275876,-2.074508,-4.617507,55.112566,0.081772,-0.039902,1.004486,-0.025562,-0.03608,-0.014031,58.727295,24.978867,-147.142441,,,
729606119.279188,-2.078823,-4.629169,55.111786,0.081772,-0.039902,1.004486,-0.017196,-0.016875,-0.001108,58.727295,24.978867,-147.142441,,,
