Time (sec),Pitch (deg),Roll (deg),Yaw(deg),X-Acceleration (g),Y-Acceleration (g),Z-Acceleration (g),Pitch Rate (deg/sec),Roll Rate (deg/sec),Yaw Rate (deg/sec),Magnetic Field in X direction (uT),Magnetic Field in Y direction (uT),Magnetic Field in Z Direction (uT),Latitude (deg),Longitude (deg),Altitude (m)
729601221.847709,-0.004022,0.658097,-13.497559,-0.007172,0.007278,0.980469,-0.010487,0.00538,-0.000823,70.07576,10.541504,-146.904221,,,
729601221.850983,-0.009851,0.655291,-13.498112,-0.007172,0.007278,0.980469,-0.023041,-0.010853,-0.004395,70.07576,10.541504,-146.904221,,,
729601221.854314,-0.009851,0.655291,-13.498112,-0.006439,0.009445,0.97728,-0.023041,-0.010853,-0.004395,70.07576,10.541504,-146.904221,,,
729601221.857637,-0.017356,0.651934,-13.499298,-0.006439,0.009445,0.97728,-0.023041,-0.010853,-0.004395,70.07576,10.541504,-146.904221,,,
729601221.861022,-0.026269,0.648429,-13.500993,-0.006439,0.009445,0.97728,-0.033834,-0.006991,-0.008013,70.07576,10.541504,-146.904221,,,
729601221.864287,-0.026269,0.648429,-13.500993,-0.007187,0.007385,0.981003,-0.033834,-0.006991,-0.008013,70.087006,10.647232,-146.964645,,,
729601221.867654,-0.037859,0.646985,-13.502107,-0.007187,0.007385,0.981003,-0.033834,-0.006991,-0.008013,70.087006,10.647232,-146.964645,,,
729601221.870967,-0.04925,0.646105,-13.502378,-0.007187,0.007385,0.981003,-0.039099,0.001452,-0.002233,70.087006,10.647232,-146.964645,,,
729601221.874293,-0.04925,0.646105,-13.502378,-0.01181,0.00206,0.988739,-0.039099,0.001452,-0.002233,70.087006,10.647232,-146.964645,,,
729601221.877628,-0.06202,0.645545,-13.501385,-0.01181,0.00206,0.988739,-0.039099,0.001452,-0.002233,70.087006,10.647232,-146.964645,,,
729601221.880981,-0.074814,0.646941,-13.498368,-0.01181,0.00206,0.988739,-0.045175,0.011377,0.011759,70.087006,10.647232,-146.964645,,,
729601221.884298,-0.074814,0.646941,-13.498368,-0.02034,-0.00412,0.994095,-0.045175,0.011377,0.011759,70.087006,10.647232,-146.964645,,,
729601221.887678,-0.087261,0.648933,-13.493245,-0.02034,-0.00412,0.994095,-0.045175,0.011377,0.011759,70.087006,10.647232,-146.964645,,,
729601221.890952,-0.10073,0.652302,-13.486573,-0.02034,-0.00412,0.994095,-0.050324,0.015944,0.022509,70.087006,10.647232,-146.964645,,,
729601221.894285,-0.10073,0.652302,-13.486573,-0.02034,-0.00412,0.994095,-0.050324,0.015944,0.022509,70.087006,10.647232,-146.964645,,,
729601221.897619,-0.114197,0.653596,-13.478952,-0.024826,-0.006516,0.995132,-0.050324,0.015944,0.022509,70.087006,10.647232,-146.964645,,,
729601221.900965,-0.129457,0.656274,-13.470314,-0.024826,-0.006516,0.995132,-0.055375,0.011223,0.029584,70.087006,10.647232,-146.964645,,,
729601221.904287,-0.129457,0.656274,-13.470314,-0.024826,-0.006516,0.995132,-0.055375,0.011223,0.029584,69.781433,10.853424,-146.878937,,,
729601221.90763,-0.143655,0.654764,-13.462388,-0.020416,-0.003937,0.995209,-0.055375,0.011223,0.029584,69.781433,10.853424,-146.878937,,,
729601221.910949,-0.160691,0.654597,-13.455877,-0.020416,-0.003937,0.995209,-0.061241,-0.001303,0.019672,69.781433,10.853424,-146.878937,,,
729601221.913953,-0.160691,0.654597,-13.455877,-0.020416,-0.003937,0.995209,-0.061241,-0.001303,0.019672,69.781433,10.853424,-146.878937,,,
729601221.917673,-0.176959,0.650633,-13.449888,-0.016144,-0.000366,0.993439,-0.061241,-0.001303,0.019672,69.781433,10.853424,-146.878937,,,
729601221.920961,-0.197188,0.646989,-13.44391,-0.016144,-0.000366,0.993439,-0.072237,-0.011819,0.019376,69.781433,10.853424,-146.878937,,,
729601221.924324,-0.197188,0.646989,-13.44391,-0.016144,-0.000366,0.993439,-0.072237,-0.011819,0.019376,69.781433,10.853424,-146.878937,,,
729601221.927627,-0.215532,0.641516,-13.437285,-0.020401,0.000351,0.990311,-0.072237,-0.011819,0.019376,69.781433,10.853424,-146.878937,,,
729601221.930954,-0.238058,0.636498,-13.430483,-0.020401,0.000351,0.990311,-0.079234,-0.017076,0.020492,69.781433,10.853424,-146.878937,,,
729601221.934279,-0.238058,0.636498,-13.430483,-0.020401,0.000351,0.990311,-0.079234,-0.017076,0.020492,69.781433,10.853424,-146.878937,,,
729601221.937716,-0.258082,0.628935,-13.423825,-0.019012,0.000305,0.994049,-0.079234,-0.017076,0.020492,69.781433,10.853424,-146.878937,,,
729601221.941002,-0.282645,0.621527,-13.416954,-0.019012,0.000305,0.994049,-0.086609,-0.025371,0.02194,69.781433,10.853424,-146.878937,,,
729601221.944336,-0.282645,0.621527,-13.416954,-0.019012,0.000305,0.994049,-0.086609,-0.025371,0.02194,70.189621,10.822937,-147.304169,,,
729601221.947625,-0.30496,0.613354,-13.410003,-0.013901,-0.000122,0.995422,-0.086609,-0.025371,0.02194,70.189621,10.822937,-147.304169,,,
729601221.951054,-0.329685,0.60698,-13.402379,-0.013901,-0.000122,0.995422,-0.084481,-0.018639,0.026594,70.189621,10.822937,-147.304169,,,
729601221.95431,-0.329685,0.60698,-13.402379,-0.013901,-0.000122,0.995422,-0.084481,-0.018639,0.026594,70.189621,10.822937,-147.304169,,,
729601221.957631,-0.352256,0.602218,-13.393733,-0.009979,-0.002991,1.002304,-0.084481,-0.018639,0.026594,70.189621,10.822937,-147.304169,,,
729601221.96096,-0.375483,0.596392,-13.38485,-0.009979,-0.002991,1.002304,-0.078229,-0.016571,0.028338,70.189621,10.822937,-147.304169,,,
729601221.964307,-0.375483,0.596392,-13.38485,-0.009979,-0.002991,1.002304,-0.078229,-0.016571,0.028338,70.189621,10.822937,-147.304169,,,
729601221.96763,-0.396942,0.595348,-13.375335,-0.010422,-0.006973,1.006897,-0.078229,-0.016571,0.028338,70.189621,10.822937,-147.304169,,,
729601221.97096,-0.416016,0.592494,-13.364823,-0.010422,-0.006973,1.006897,-0.06126,-0.00468,0.035593,70.189621,10.822937,-147.304169,,,
729601221.974382,-0.416016,0.592494,-13.364823,-0.010422,-0.006973,1.006897,-0.06126,-0.00468,0.035593,70.189621,10.822937,-147.304169,,,
729601221.977625,-0.432436,0.595836,-13.354034,-0.010376,-0.010239,1.016357,-0.06126,-0.00468,0.035593,70.189621,10.822937,-147.304169,,,
729601221.98096,-0.445738,0.597385,-13.34263,-0.010376,-0.010239,1.016357,-0.038457,0.012335,0.040321,70.189621,10.822937,-147.304169,,,
729601221.984369,-0.445738,0.597385,-13.34263,-0.010376,-0.010239,1.016357,-0.038457,0.012335,0.040321,70.189621,10.822937,-147.304169,,,
729601221.987673,-0.453828,0.602899,-13.330194,-0.00914,-0.016693,1.02681,-0.038457,0.012335,0.040321,70.002411,10.958267,-147.086975,,,
729601221.990949,-0.461145,0.607302,-13.317296,-0.00914,-0.016693,1.02681,-0.023966,0.018749,0.043778,70.002411,10.958267,-147.086975,,,
729601221.994334,-0.461145,0.607302,-13.317296,-0.00914,-0.016693,1.02681,-0.023966,0.018749,0.043778,70.002411,10.958267,-147.086975,,,
729601221.997622,-0.46518,0.615375,-13.304571,-0.004517,-0.021286,1.026138,-0.023966,0.018749,0.043778,70.002411,10.958267,-147.086975,,,
729601222.000975,-0.470062,0.624702,-13.292451,-0.004517,-0.021286,1.026138,-0.015178,0.042656,0.039765,70.002411,10.958267,-147.086975,,,
729601222.004286,-0.470062,0.624702,-13.292451,-0.004517,-0.021286,1.026138,-0.015178,0.042656,0.039765,70.002411,10.958267,-147.086975,,,
729601222.007627,-0.471745,0.638843,-13.280475,-0.005844,-0.022263,1.022934,-0.015178,0.042656,0.039765,70.002411,10.958267,-147.086975,,,
729601222.010981,-0.475441,0.646496,-13.268474,-0.005844,-0.022263,1.022934,-0.012989,0.019657,0.040164,70.002411,10.958267,-147.086975,,,
729601222.014334,-0.475441,0.646496,-13.268474,-0.005844,-0.022263,1.022934,-0.012989,0.019657,0.040164,70.002411,10.958267,-147.086975,,,
729601222.017634,-0.476354,0.651577,-13.256724,-0.005966,-0.021194,1.012299,-0.012989,0.019657,0.040164,70.002411,10.958267,-147.086975,,,
729601222.020952,-0.480108,0.652482,-13.246454,-0.005966,-0.021194,1.012299,-0.016256,0.002069,0.029885,70.002411,10.958267,-147.086975,,,
729601222.024399,-0.480108,0.652482,-13.246454,-0.005966,-0.021194,1.012299,-0.016256,0.002069,0.029885,70.002411,10.958267,-147.086975,,,
729601222.027623,-0.48283,0.650914,-13.23838,-0.003296,-0.015244,1.008072,-0.016256,0.002069,0.029885,69.927124,11.069778,-147.094101,,,
729601222.03096,-0.488109,0.64457,-13.232835,-0.003296,-0.015244,1.008072,-0.018372,-0.028344,0.012349,69.927124,11.069778,-147.094101,,,
729601222.034327,-0.488109,0.64457,-13.232835,-0.003296,-0.015244,1.008072,-0.018372,-0.028344,0.012349,69.927124,11.069778,-147.094101,,,
729601222.037611,-0.492034,0.634531,-13.229234,-0.001038,-0.010971,0.999664,-0.018372,-0.028344,0.012349,69.927124,11.069778,-147.094101,,,
729601222.040975,-0.496713,0.623804,-13.226457,-0.001038,-0.010971,0.999664,-0.01539,-0.036797,0.006635,69.927124,11.069778,-147.094101,,,
729601222.044305,-0.496713,0.623804,-13.226457,-0.001038,-0.010971,0.999664,-0.01539,-0.036797,0.006635,69.927124,11.069778,-147.094101,,,
729601222.047713,-0.499448,0.612014,-13.223986,-0.000778,-0.016357,1.008377,-0.01539,-0.036797,0.006635,69.927124,11.069778,-147.094101,,,
729601222.050989,-0.499905,0.599705,-13.220986,-0.000778,-0.016357,1.008377,0.002004,-0.041433,0.010493,69.927124,11.069778,-147.094101,,,
729601222.054304,-0.499905,0.599705,-13.220986,-0.000778,-0.016357,1.008377,0.002004,-0.041433,0.010493,69.927124,11.069778,-147.094101,,,
729601222.057631,-0.498076,0.587243,-13.217722,0.003036,-0.024017,1.013199,0.002004,-0.041433,0.010493,69.927124,11.069778,-147.094101,,,
729601222.060994,-0.491888,0.576183,-13.215204,0.003036,-0.024017,1.013199,0.02842,-0.033061,0.005477,69.927124,11.069778,-147.094101,,,
729601222.064277,-0.491888,0.576183,-13.215204,0.003036,-0.024017,1.013199,0.02842,-0.033061,0.005477,69.927124,11.069778,-147.094101,,,
729601222.067637,-0.48533,0.564993,-13.213953,0.009613,-0.021729,1.018173,0.02842,-0.033061,0.005477,69.755524,11.207001,-146.926056,,,
729601222.070945,-0.472959,0.55475,-13.214042,0.009613,-0.021729,1.018173,0.049091,-0.032121,-0.003708,69.755524,11.207001,-146.926056,,,
729601222.074371,-0.472959,0.55475,-13.214042,0.009613,-0.021729,1.018173,0.049091,-0.032121,-0.003708,69.755524,11.207001,-146.926056,,,
729601222.077401,-0.461742,0.544342,-13.215863,0.012009,-0.019104,1.015472,0.049091,-0.032121,-0.003708,69.755524,11.207001,-146.926056,,,
729601222.080985,-0.446796,0.537673,-13.21938,0.012009,-0.019104,1.015472,0.051176,-0.016631,-0.015627,69.755524,11.207001,-146.926056,,,
729601222.084296,-0.446796,0.537673,-13.21938,0.012009,-0.019104,1.015472,0.051176,-0.016631,-0.015627,69.755524,11.207001,-146.926056,,,
729601222.087627,-0.436839,0.532348,-13.224689,0.008179,-0.014954,1.003433,0.051176,-0.016631,-0.015627,69.755524,11.207001,-146.926056,,,
729601222.090959,-0.426091,0.528577,-13.2312,0.008179,-0.014954,1.003433,0.033631,-0.011896,-0.02429,69.755524,11.207001,-146.926056,,,
729601222.094295,-0.426091,0.528577,-13.2312,0.008179,-0.014954,1.003433,0.033631,-0.011896,-0.02429,69.755524,11.207001,-146.926056,,,
729601222.097696,-0.421563,0.522816,-13.238226,0.005219,-0.012726,0.991165,0.033631,-0.011896,-0.02429,69.755524,11.207001,-146.926056,,,
729601222.10097,-0.417565,0.518285,-13.245779,0.005219,-0.012726,0.991165,0.008461,-0.01195,-0.02834,69.755524,11.207001,-146.926056,,,
729601222.104297,-0.417565,0.518285,-13.245779,0.005219,-0.012726,0.991165,0.008461,-0.01195,-0.02834,69.755524,11.207001,-146.926056,,,
729601222.107623,-0.418146,0.511999,-13.253925,0.001938,-0.010468,0.981064,0.008461,-0.01195,-0.02834,69.69017,11.126892,-146.93515,,,
729601222.110954,-0.420361,0.508554,-13.262545,0.001938,-0.010468,0.981064,-0.012905,-0.00773,-0.031913,69.69017,11.126892,-146.93515,,,
729601222.114285,-0.420361,0.508554,-13.262545,0.001938,-0.010468,0.981064,-0.012905,-0.00773,-0.031913,69.69017,11.126892,-146.93515,,,
729601222.117636,-0.425933,0.501839,-13.271773,-0.00502,-0.006882,0.981873,-0.012905,-0.00773,-0.031913,69.69017,11.126892,-146.93515,,,
729601222.120956,-0.430552,0.496223,-13.281138,-0.00502,-0.006882,0.981873,-0.014622,-0.018736,-0.032984,69.69017,11.126892,-146.93515,,,
729601222.124347,-0.430552,0.496223,-13.281138,-0.00502,-0.006882,0.981873,-0.014622,-0.018736,-0.032984,69.69017,11.126892,-146.93515,,,
729601222.127626,-0.437964,0.486879,-13.290001,-0.012558,-0.009811,0.985153,-0.014622,-0.018736,-0.032984,69.69017,11.126892,-146.93515,,,
729601222.131001,-0.442837,0.478734,-13.298696,-0.012558,-0.009811,0.985153,-0.017027,-0.028585,-0.031956,69.69017,11.126892,-146.93515,,,
729601222.134312,-0.442837,0.478734,-13.298696,-0.012558,-0.009811,0.985153,-0.017027,-0.028585,-0.031956,69.69017,11.126892,-146.93515,,,
729601222.137654,-0.45237,0.465414,-13.30651,-0.017517,-0.014221,0.990509,-0.017027,-0.028585,-0.031956,69.69017,11.126892,-146.93515,,,
729601222.140966,-0.456835,0.456444,-13.312482,-0.017517,-0.014221,0.990509,-0.011199,-0.028499,-0.01935,69.69017,11.126892,-146.93515,,,
729601222.144299,-0.456835,0.456444,-13.312482,-0.017517,-0.014221,0.990509,-0.011199,-0.028499,-0.01935,69.69017,11.126892,-146.93515,,,
729601222.147658,-0.462637,0.44241,-13.317061,-0.024017,-0.020523,0.992096,-0.011199,-0.028499,-0.01935,69.69017,11.126892,-146.93515,,,
729601222.15097,-0.463452,0.434836,-13.320427,-0.024017,-0.020523,0.992096,0.000793,-0.022006,-0.011122,69.803879,10.820892,-146.840363,,,
729601222.154311,-0.463452,0.434836,-13.320427,-0.024017,-0.020523,0.992096,0.000793,-0.022006,-0.011122,69.803879,10.820892,-146.840363,,,
729601222.157637,-0.464021,0.421422,-13.323046,-0.023804,-0.021683,0.999374,0.000793,-0.022006,-0.011122,69.803879,10.820892,-146.840363,,,
729601222.160957,-0.459456,0.412487,-13.325723,-0.023804,-0.021683,0.999374,0.020645,-0.030151,-0.011676,69.803879,10.820892,-146.840363,,,
729601222.164321,-0.459456,0.412487,-13.325723,-0.023804,-0.021683,0.999374,0.020645,-0.030151,-0.011676,69.803879,10.820892,-146.840363,,,
729601222.167643,-0.454153,0.39968,-13.328246,-0.016098,-0.018784,0.99733,0.020645,-0.030151,-0.011676,69.803879,10.820892,-146.840363,,,
729601222.170962,-0.445996,0.391399,-13.329819,-0.016098,-0.018784,0.99733,0.030173,-0.024456,-0.005263,69.803879,10.820892,-146.840363,,,
729601222.174349,-0.445996,0.391399,-13.329819,-0.016098,-0.018784,0.99733,0.030173,-0.024456,-0.005263,69.803879,10.820892,-146.840363,,,
729601222.177639,-0.438532,0.380002,-13.330348,-0.017578,-0.014038,0.997696,0.030173,-0.024456,-0.005263,69.803879,10.820892,-146.840363,,,
729601222.180956,-0.430884,0.37163,-13.329535,-0.017578,-0.014038,0.997696,0.024374,-0.027277,0.003829,69.803879,10.820892,-146.840363,,,
729601222.184319,-0.430884,0.37163,-13.329535,-0.017578,-0.014038,0.997696,0.024374,-0.027277,0.003829,69.803879,10.820892,-146.840363,,,
729601222.187689,-0.425335,0.361086,-13.328463,-0.01651,-0.008591,0.991898,0.024374,-0.027277,0.003829,69.803879,10.820892,-146.840363,,,
729601222.190954,-0.421424,0.351633,-13.327527,-0.01651,-0.008591,0.991898,0.009861,-0.031115,0.00268,69.692291,10.888428,-147.052414,,,
729601222.194299,-0.421424,0.351633,-13.327527,-0.01651,-0.008591,0.991898,0.009861,-0.031115,0.00268,69.692291,10.888428,-147.052414,,,
729601222.197629,-0.420632,0.343294,-13.326534,-0.012009,-0.003296,0.983002,0.009861,-0.031115,0.00268,69.692291,10.888428,-147.052414,,,
729601222.201009,-0.422869,0.334439,-13.325622,-0.012009,-0.003296,0.983002,-0.010803,-0.028778,0.002016,69.692291,10.888428,-147.052414,,,
729601222.204293,-0.422869,0.334439,-13.325622,-0.012009,-0.003296,0.983002,-0.010803,-0.028778,0.002016,69.692291,10.888428,-147.052414,,,
729601222.207653,-0.42883,0.327935,-13.325148,-0.008057,0.00061,0.980179,-0.010803,-0.028778,0.002016,69.692291,10.888428,-147.052414,,,
729601222.210956,-0.435979,0.318591,-13.32528,-0.008057,0.00061,0.980179,-0.027625,-0.031257,-0.002135,69.692291,10.888428,-147.052414,,,
729601222.214287,-0.435979,0.318591,-13.32528,-0.008057,0.00061,0.980179,-0.027625,-0.031257,-0.002135,69.692291,10.888428,-147.052414,,,
729601222.217686,-0.446742,0.312718,-13.325697,-0.003082,0.000626,0.984344,-0.027625,-0.031257,-0.002135,69.692291,10.888428,-147.052414,,,
729601222.220942,-0.455287,0.30192,-13.32612,-0.003082,0.000626,0.984344,-0.028656,-0.034858,-0.001988,69.692291,10.888428,-147.052414,,,
729601222.224365,-0.455287,0.30192,-13.32612,-0.003082,0.000626,0.984344,-0.028656,-0.034858,-0.001988,69.692291,10.888428,-147.052414,,,
729601222.227632,-0.46701,0.297833,-13.326104,-0.003723,-0.002197,0.990906,-0.028656,-0.034858,-0.001988,69.692291,10.888428,-147.052414,,,
729601222.230958,-0.474351,0.288523,-13.326139,-0.003723,-0.002197,0.990906,-0.022878,-0.027856,-0.001988,69.421906,11.005493,-146.974457,,,
729601222.234309,-0.474351,0.288523,-13.326139,-0.003723,-0.002197,0.990906,-0.022878,-0.027856,-0.001988,69.421906,11.005493,-146.974457,,,
729601222.237677,-0.483372,0.284134,-13.326613,-0.000244,-0.004807,1.001129,-0.022878,-0.027856,-0.001988,69.421906,11.005493,-146.974457,,,
729601222.240949,-0.487192,0.274761,-13.327904,-0.000244,-0.004807,1.001129,-0.00902,-0.029251,-0.007316,69.421906,11.005493,-146.974457,,,
729601222.244292,-0.487192,0.274761,-13.327904,-0.000244,-0.004807,1.001129,-0.00902,-0.029251,-0.007316,69.421906,11.005493,-146.974457,,,
729601222.247649,-0.490699,0.269586,-13.33012,0.004486,-0.005432,1.002319,-0.00902,-0.029251,-0.007316,69.421906,11.005493,-146.974457,,,
729601222.250968,-0.488537,0.262649,-13.332857,0.004486,-0.005432,1.002319,0.014661,-0.017681,-0.010676,69.421906,11.005493,-146.974457,,,
729601222.254291,-0.488537,0.262649,-13.332857,0.004486,-0.005432,1.002319,0.014661,-0.017681,-0.010676,69.421906,11.005493,-146.974457,,,
729601222.257638,-0.484491,0.26094,-13.335562,0.002609,-0.00885,1.012146,0.014661,-0.017681,-0.010676,69.421906,11.005493,-146.974457,,,
729601222.261026,-0.477692,0.254538,-13.338089,0.002609,-0.00885,1.012146,0.026453,-0.021938,-0.009125,69.421906,11.005493,-146.974457,,,
729601222.264308,-0.477692,0.254538,-13.338089,0.002609,-0.00885,1.012146,0.026453,-0.021938,-0.009125,69.421906,11.005493,-146.974457,,,
729601222.26766,-0.469628,0.25088,-13.340455,0.002823,-0.009888,1.006714,0.026453,-0.021938,-0.009125,69.421906,11.005493,-146.974457,,,
729601222.270964,-0.461379,0.244876,-13.343481,0.002823,-0.009888,1.006714,0.031291,-0.01733,-0.013498,69.757675,10.798553,-146.909576,,,
729601222.274374,-0.461379,0.244876,-13.343481,0.002823,-0.009888,1.006714,0.031291,-0.01733,-0.013498,69.757675,10.798553,-146.909576,,,
729601222.277627,-0.451236,0.240815,-13.347656,0.005798,-0.00708,1.002274,0.031291,-0.01733,-0.013498,69.757675,10.798553,-146.909576,,,
729601222.280949,-0.443538,0.235241,-13.352884,0.005798,-0.00708,1.002274,0.025371,-0.01607,-0.020789,69.757675,10.798553,-146.909576,,,
729601222.284316,-0.443538,0.235241,-13.352884,0.005798,-0.00708,1.002274,0.025371,-0.01607,-0.020789,69.757675,10.798553,-146.909576,,,
729601222.28768,-0.435745,0.230855,-13.359011,0.007324,-0.003296,1.000076,0.025371,-0.01607,-0.020789,69.757675,10.798553,-146.909576,,,
729601222.290942,-0.4322,0.226347,-13.366051,0.007324,-0.003296,1.000076,0.010548,-0.009999,-0.027151,69.757675,10.798553,-146.909576,,,
729601222.294292,-0.4322,0.226347,-13.366051,0.007324,-0.003296,1.000076,0.010548,-0.009999,-0.027151,69.757675,10.798553,-146.909576,,,
729601222.297623,-0.428092,0.222528,-13.374106,0.004242,-0.001846,0.996948,0.010548,-0.009999,-0.027151,69.757675,10.798553,-146.909576,,,
729601222.30072,-0.426747,0.220804,-13.382913,0.004242,-0.001846,0.996948,0.00328,0.001215,-0.032379,69.757675,10.798553,-146.909576,,,
729601222.304327,-0.426747,0.220804,-13.382913,0.004242,-0.001846,0.996948,0.00328,0.001215,-0.032379,69.757675,10.798553,-146.909576,,,
729601222.307622,-0.425062,0.221405,-13.392002,0.003708,-0.004883,0.999985,0.00328,0.001215,-0.032379,69.757675,10.798553,-146.909576,,,
729601222.310956,-0.423805,0.223554,-13.400645,0.003708,-0.004883,0.999985,0.008295,0.010363,-0.029227,69.757675,10.798553,-146.909576,,,
729601222.314284,-0.423805,0.223554,-13.400645,0.003708,-0.004883,0.999985,0.008295,0.010363,-0.029227,69.542358,11.006332,-146.942703,,,
729601222.317643,-0.420027,0.224193,-13.408306,-0.000443,-0.007736,1.000427,0.008295,0.010363,-0.029227,69.542358,11.006332,-146.942703,,,
729601222.320952,-0.414852,0.22636,-13.415267,-0.000443,-0.007736,1.000427,0.023282,0.009309,-0.02437,69.542358,11.006332,-146.942703,,,
729601222.324343,-0.414852,0.22636,-13.415267,-0.000443,-0.007736,1.000427,0.023282,0.009309,-0.02437,69.542358,11.006332,-146.942703,,,
729601222.327625,-0.407155,0.225857,-13.422007,-0.002686,-0.011551,1.000717,0.023282,0.009309,-0.02437,69.542358,11.006332,-146.942703,,,
729601222.330955,-0.397458,0.227523,-13.428599,-0.002686,-0.011551,1.000717,0.038095,0.007647,-0.023386,69.542358,11.006332,-146.942703,,,
729601222.334292,-0.397458,0.227523,-13.428599,-0.002686,-0.011551,1.000717,0.038095,0.007647,-0.023386,69.542358,11.006332,-146.942703,,,
729601222.337737,-0.386986,0.226012,-13.434127,-0.007477,-0.008728,1.002396,0.038095,0.007647,-0.023386,69.542358,11.006332,-146.942703,,,
729601222.340969,-0.375717,0.224528,-13.438617,-0.007477,-0.008728,1.002396,0.038959,-0.004983,-0.016251,69.542358,11.006332,-146.942703,,,
729601222.34429,-0.375717,0.224528,-13.438617,-0.007477,-0.008728,1.002396,0.038959,-0.004983,-0.016251,69.542358,11.006332,-146.942703,,,
729601222.347637,-0.366691,0.220246,-13.441978,-0.015045,-0.009293,0.990616,0.038959,-0.004983,-0.016251,69.542358,11.006332,-146.942703,,,
729601222.350963,-0.359532,0.217919,-13.443771,-0.015045,-0.009293,0.990616,0.021392,-0.007071,-0.005516,69.542358,11.006332,-146.942703,,,
729601222.354279,-0.359532,0.217919,-13.443771,-0.015045,-0.009293,0.990616,0.021392,-0.007071,-0.005516,69.564865,10.925217,-147.096191,,,
729601222.35763,-0.354533,0.211402,-13.444147,-0.020538,-0.009964,0.983963,0.021392,-0.007071,-0.005516,69.564865,10.925217,-147.096191,,,
729601222.360947,-0.351518,0.207007,-13.44317,-0.020538,-0.009964,0.983963,0.007607,-0.015118,0.003697,69.564865,10.925217,-147.096191,,,
729601222.364284,-0.351518,0.207007,-13.44317,-0.020538,-0.009964,0.983963,0.007607,-0.015118,0.003697,69.564865,10.925217,-147.096191,,,
729601222.367631,-0.348818,0.198324,-13.440975,-0.016098,-0.005402,0.985321,0.007607,-0.015118,0.003697,69.564865,10.925217,-147.096191,,,
729601222.370947,-0.347973,0.192191,-13.43804,-0.016098,-0.005402,0.985321,0.001257,-0.018251,0.008735,69.564865,10.925217,-147.096191,,,
729601222.374374,-0.347973,0.192191,-13.43804,-0.016098,-0.005402,0.985321,0.001257,-0.018251,0.008735,69.564865,10.925217,-147.096191,,,
729601222.377632,-0.347197,0.184487,-13.435143,-0.011627,-0.003754,0.989151,0.001257,-0.018251,0.008735,69.564865,10.925217,-147.096191,,,
729601222.38096,-0.348332,0.180391,-13.432787,-0.011627,-0.003754,0.989151,-0.005323,-0.00873,0.004865,69.564865,10.925217,-147.096191,,,
729601222.384317,-0.348332,0.180391,-13.432787,-0.011627,-0.003754,0.989151,-0.005323,-0.00873,0.004865,69.564865,10.925217,-147.096191,,,
729601222.387683,-0.350447,0.175747,-13.431588,-0.005844,-0.000717,0.993958,-0.005323,-0.00873,0.004865,69.564865,10.925217,-147.096191,,,
729601222.390949,-0.353672,0.172492,-13.431289,-0.005844,-0.000717,0.993958,-0.012975,-0.010207,-0.001472,69.564865,10.925217,-147.096191,,,
729601222.394297,-0.353672,0.172492,-13.431289,-0.005844,-0.000717,0.993958,-0.012975,-0.010207,-0.001472,69.503479,10.984238,-146.829803,,,
729601222.397632,-0.359297,0.168032,-13.431499,-0.000504,0.001907,0.9888,-0.012975,-0.010207,-0.001472,69.503479,10.984238,-146.829803,,,
729601222.400958,-0.366128,0.163846,-13.431116,-0.000504,0.001907,0.9888,-0.02741,-0.011841,0.00258,69.503479,10.984238,-146.829803,,,
729601222.404298,-0.366128,0.163846,-13.431116,-0.000504,0.001907,0.9888,-0.02741,-0.011841,0.00258,69.503479,10.984238,-146.829803,,,
729601222.40763,-0.376069,0.159139,-13.429272,-0.006927,0.00148,0.982651,-0.02741,-0.011841,0.00258,69.503479,10.984238,-146.829803,,,
729601222.410945,-0.386305,0.15324,-13.426317,-0.006927,0.00148,0.982651,-0.038347,-0.019463,0.0103,69.503479,10.984238,-146.829803,,,
729601222.414282,-0.386305,0.15324,-13.426317,-0.006927,0.00148,0.982651,-0.038347,-0.019463,0.0103,69.503479,10.984238,-146.829803,,,
729601222.41763,-0.397832,0.14828,-13.422553,-0.008041,-0.001205,0.984543,-0.038347,-0.019463,0.0103,69.503479,10.984238,-146.829803,,,
729601222.420945,-0.408004,0.13902,-13.418657,-0.008041,-0.001205,0.984543,-0.031848,-0.035119,0.011323,69.503479,10.984238,-146.829803,,,
729601222.424351,-0.408004,0.13902,-13.418657,-0.008041,-0.001205,0.984543,-0.031848,-0.035119,0.011323,69.503479,10.984238,-146.829803,,,
729601222.427625,-0.417365,0.131632,-13.415453,-0.000977,-0.001038,0.993057,-0.031848,-0.035119,0.011323,69.503479,10.984238,-146.829803,,,
729601222.430945,-0.425276,0.117976,-13.413396,-0.000977,-0.001038,0.993057,-0.026729,-0.045075,0.003642,69.503479,10.984238,-146.829803,,,
729601222.43429,-0.425276,0.117976,-13.413396,-0.000977,-0.001038,0.993057,-0.026729,-0.045075,0.003642,69.396271,10.952682,-146.686981,,,
729601222.437668,-0.432277,0.10947,-13.412632,0.003387,-0.00383,0.994995,-0.026729,-0.045075,0.003642,69.396271,10.952682,-146.686981,,,
729601222.441004,-0.437932,0.096224,-13.413061,0.003387,-0.00383,0.994995,-0.018612,-0.040872,-0.004366,69.396271,10.952682,-146.686981,,,
729601222.444309,-0.437932,0.096224,-13.413061,0.003387,-0.00383,0.994995,-0.018612,-0.040872,-0.004366,69.396271,10.952682,-146.686981,,,
729601222.447666,-0.44208,0.087827,-13.413649,-0.000168,-0.011887,1.004211,-0.018612,-0.040872,-0.004366,69.396271,10.952682,-146.686981,,,
729601222.450979,-0.445642,0.07738,-13.413459,-0.000168,-0.011887,1.004211,-0.009755,-0.030813,0.00134,69.396271,10.952682,-146.686981,,,
729601222.454303,-0.445642,0.07738,-13.413459,-0.000168,-0.011887,1.004211,-0.009755,-0.030813,0.00134,69.396271,10.952682,-146.686981,,,
729601222.457643,-0.44704,0.07093,-13.411928,-0.001068,-0.01329,1.008224,-0.009755,-0.030813,0.00134,69.396271,10.952682,-146.686981,,,
729601222.460956,-0.448189,0.064363,-13.409241,-0.001068,-0.01329,1.008224,-0.000642,-0.014159,0.009493,69.396271,10.952682,-146.686981,,,
729601222.464286,-0.448189,0.064363,-13.409241,-0.001068,-0.01329,1.008224,-0.000642,-0.014159,0.009493,69.396271,10.952682,-146.686981,,,
729601222.467641,-0.445748,0.062348,-13.405248,-0.002472,-0.012375,1.00975,-0.000642,-0.014159,0.009493,69.396271,10.952682,-146.686981,,,
729601222.470955,-0.443454,0.063803,-13.39985,-0.002472,-0.012375,1.00975,0.013217,0.013099,0.019346,69.396271,10.952682,-146.686981,,,
729601222.474283,-0.443454,0.063803,-13.39985,-0.002472,-0.012375,1.00975,0.013217,0.013099,0.019346,69.396271,10.952682,-146.686981,,,
729601222.477636,-0.437608,0.067429,-13.39392,-0.004425,-0.012817,1.014999,0.013217,0.013099,0.019346,69.501724,10.869202,-146.978378,,,
729601222.480957,-0.434673,0.070924,-13.388679,-0.004425,-0.012817,1.014999,0.009738,0.013791,0.014539,69.501724,10.869202,-146.978378,,,
729601222.484305,-0.434673,0.070924,-13.388679,-0.004425,-0.012817,1.014999,0.009738,0.013791,0.014539,69.501724,10.869202,-146.978378,,,
729601222.487719,-0.430636,0.076549,-13.384823,0.000473,-0.009201,1.003296,0.009738,0.013791,0.014539,69.501724,10.869202,-146.978378,,,
729601222.490941,-0.430876,0.080155,-13.382559,0.000473,-0.009201,1.003296,-0.005666,0.016161,0.003538,69.501724,10.869202,-146.978378,,,
729601222.494298,-0.430876,0.080155,-13.382559,0.000473,-0.009201,1.003296,-0.005666,0.016161,0.003538,69.501724,10.869202,-146.978378,,,
729601222.497631,-0.432441,0.085128,-13.381667,0.001846,-0.003128,0.991669,-0.005666,0.016161,0.003538,69.501724,10.869202,-146.978378,,,
729601222.50097,-0.437887,0.087353,-13.38122,0.001846,-0.003128,0.991669,-0.02104,0.007338,0.000482,69.501724,10.869202,-146.978378,,,
729601222.504293,-0.437887,0.087353,-13.38122,0.001846,-0.003128,0.991669,-0.02104,0.007338,0.000482,69.501724,10.869202,-146.978378,,,
729601222.507637,-0.443085,0.086328,-13.380092,-0.000824,-0.002045,0.987167,-0.02104,0.007338,0.000482,69.501724,10.869202,-146.978378,,,
729601222.510989,-0.449086,0.083654,-13.378266,-0.000824,-0.002045,0.987167,-0.017355,-0.010783,0.00531,69.501724,10.869202,-146.978378,,,
729601222.514288,-0.449086,0.083654,-13.378266,-0.000824,-0.002045,0.987167,-0.017355,-0.010783,0.00531,69.501724,10.869202,-146.978378,,,
729601222.517631,-0.453289,0.077213,-13.376956,-0.005234,-0.003891,0.992371,-0.017355,-0.010783,0.00531,69.315125,11.038818,-146.886902,,,
729601222.520956,-0.456292,0.070178,-13.377196,-0.005234,-0.003891,0.992371,-0.007219,-0.023997,-0.005568,69.315125,11.038818,-146.886902,,,
729601222.524359,-0.456292,0.070178,-13.377196,-0.005234,-0.003891,0.992371,-0.007219,-0.023997,-0.005568,69.315125,11.038818,-146.886902,,,
729601222.527627,-0.459732,0.061557,-13.379389,0.000687,-0.004684,1.002274,-0.007219,-0.023997,-0.005568,69.315125,11.038818,-146.886902,,,
729601222.530942,-0.461607,0.052628,-13.382673,0.000687,-0.004684,1.002274,-0.005445,-0.027217,-0.013237,69.315125,11.038818,-146.886902,,,
729601222.534316,-0.461607,0.052628,-13.382673,0.000687,-0.004684,1.002274,-0.005445,-0.027217,-0.013237,69.315125,11.038818,-146.886902,,,
729601222.537677,-0.464678,0.045361,-13.386,0.003159,-0.008499,1.003448,-0.005445,-0.027217,-0.013237,69.315125,11.038818,-146.886902,,,
729601222.540993,-0.467891,0.040446,-13.388688,0.003159,-0.008499,1.003448,-0.014826,-0.009453,-0.008768,69.315125,11.038818,-146.886902,,,
729601222.544278,-0.467891,0.040446,-13.388688,0.003159,-0.008499,1.003448,-0.014826,-0.009453,-0.008768,69.315125,11.038818,-146.886902,,,
729601222.547616,-0.473846,0.03861,-13.389801,-0.002151,-0.010086,1.001083,-0.014826,-0.009453,-0.008768,69.315125,11.038818,-146.886902,,,
729601222.55098,-0.479227,0.036227,-13.388512,-0.002151,-0.010086,1.001083,-0.019363,-0.007493,0.007976,69.315125,11.038818,-146.886902,,,
729601222.554298,-0.479227,0.036227,-13.388512,-0.002151,-0.010086,1.001083,-0.019363,-0.007493,0.007976,69.315125,11.038818,-146.886902,,,
729601222.557377,-0.484709,0.033172,-13.384761,-0.005768,-0.011505,1.001099,-0.019363,-0.007493,0.007976,69.114227,11.182877,-147.261719,,,
729601222.561014,-0.486408,0.028553,-13.37946,-0.005768,-0.011505,1.001099,0.000695,-0.01323,0.018851,69.114227,11.182877,-147.261719,,,
729601222.564284,-0.486408,0.028553,-13.37946,-0.005768,-0.011505,1.001099,0.000695,-0.01323,0.018851,69.114227,11.182877,-147.261719,,,
729601222.567641,-0.484465,0.023053,-13.373343,-0.006058,-0.012543,1.012589,0.000695,-0.01323,0.018851,69.114227,11.182877,-147.261719,,,
729601222.571036,-0.478877,0.017147,-13.367915,-0.006058,-0.012543,1.012589,0.027845,-0.018772,0.014052,69.114227,11.182877,-147.261719,,,
729601222.574346,-0.478877,0.017147,-13.367915,-0.006058,-0.012543,1.012589,0.027845,-0.018772,0.014052,69.114227,11.182877,-147.261719,,,
729601222.577615,-0.469203,0.009758,-13.364107,-0.001129,-0.015289,1.022415,0.027845,-0.018772,0.014052,69.114227,11.182877,-147.261719,,,
729601222.580971,-0.461354,0.001606,-13.362295,-0.001129,-0.015289,1.022415,0.027144,-0.026948,0.000146,69.114227,11.182877,-147.261719,,,
729601222.584308,-0.461354,0.001606,-13.362295,-0.001129,-0.015289,1.022415,0.027144,-0.026948,0.000146,69.114227,11.182877,-147.261719,,,
729601222.587626,-0.453538,-0.005477,-13.362103,0.005371,-0.014206,1.009552,0.027144,-0.026948,0.000146,69.114227,11.182877,-147.261719,,,
729601222.590956,-0.449383,-0.011965,-13.36167,0.005371,-0.014206,1.009552,0.011697,-0.017366,0.001875,69.114227,11.182877,-147.261719,,,
729601222.594309,-0.449383,-0.011965,-13.36167,0.005371,-0.014206,1.009552,0.011697,-0.017366,0.001875,69.114227,11.182877,-147.261719,,,
729601222.597637,-0.446983,-0.01597,-13.360021,0.004364,-0.009766,1.004288,0.011697,-0.017366,0.001875,69.179306,11.015533,-147.108826,,,
729601222.600973,-0.447222,-0.021031,-13.356981,0.004364,-0.009766,1.004288,-0.000843,-0.016677,0.011633,69.179306,11.015533,-147.108826,,,
729601222.604297,-0.447222,-0.021031,-13.356981,0.004364,-0.009766,1.004288,-0.000843,-0.016677,0.011633,69.179306,11.015533,-147.108826,,,
729601222.607639,-0.446317,-0.02841,-13.353377,0.004196,-0.003372,1.003235,-0.000843,-0.016677,0.011633,69.179306,11.015533,-147.108826,,,
729601222.610948,-0.442926,-0.037206,-13.349597,0.004196,-0.003372,1.003235,0.019582,-0.03111,0.012771,69.179306,11.015533,-147.108826,,,
729601222.614302,-0.442926,-0.037206,-13.349597,0.004196,-0.003372,1.003235,0.019582,-0.03111,0.012771,69.179306,11.015533,-147.108826,,,
729601222.617631,-0.435739,-0.047415,-13.346319,0.00856,-0.002335,1.013336,0.019582,-0.03111,0.012771,69.179306,11.015533,-147.108826,,,
729601222.620997,-0.424112,-0.058242,-13.34474,0.00856,-0.002335,1.013336,0.047602,-0.037332,0.000871,69.179306,11.015533,-147.108826,,,
729601222.624296,-0.424112,-0.058242,-13.34474,0.00856,-0.002335,1.013336,0.047602,-0.037332,0.000871,69.179306,11.015533,-147.108826,,,
729601222.627684,-0.410475,-0.069811,-13.345052,0.011597,-0.004196,1.025314,0.047602,-0.037332,0.000871,69.179306,11.015533,-147.108826,,,
729601222.630962,-0.394814,-0.084499,-13.346908,0.011597,-0.004196,1.025314,0.055457,-0.048154,-0.009883,69.179306,11.015533,-147.108826,,,
729601222.634315,-0.394814,-0.084499,-13.346908,0.011597,-0.004196,1.025314,0.055457,-0.048154,-0.009883,69.179306,11.015533,-147.108826,,,
729601222.637647,-0.381874,-0.095602,-13.349561,0.009903,-0.007172,1.008453,0.055457,-0.048154,-0.009883,69.179306,11.015533,-147.108826,,,
729601222.641043,-0.370595,-0.105683,-13.351933,0.009903,-0.007172,1.008453,0.034583,-0.02705,-0.007789,69.290741,10.846832,-147.218399,,,
729601222.644283,-0.370595,-0.105683,-13.351933,0.009903,-0.007172,1.008453,0.034583,-0.02705,-0.007789,69.290741,10.846832,-147.218399,,,
729601222.647627,-0.364091,-0.11122,-13.353403,0.011597,-0.006683,1.003464,0.034583,-0.02705,-0.007789,69.290741,10.846832,-147.218399,,,
729601222.651002,-0.358529,-0.116747,-13.354053,0.011597,-0.006683,1.003464,0.015685,-0.013011,-0.001941,69.290741,10.846832,-147.218399,,,
729601222.654276,-0.358529,-0.116747,-13.354053,0.011597,-0.006683,1.003464,0.015685,-0.013011,-0.001941,69.290741,10.846832,-147.218399,,,
729601222.657612,-0.356911,-0.120464,-13.354077,0.010483,-0.000183,0.996094,0.015685,-0.013011,-0.001941,69.290741,10.846832,-147.218399,,,
729601222.660982,-0.356911,-0.120464,-13.354292,0.010483,-0.000183,0.996094,0.015855,-0.002725,-0.003224,69.290741,10.846832,-147.218399,,,
729601222.664339,-0.353027,-0.122684,-13.354292,0.010483,-0.000183,0.996094,0.015855,-0.002725,-0.003224,69.290741,10.846832,-147.218399,,,
729601222.667641,-0.348856,-0.125081,-13.354878,0.010208,0.002213,1.001373,0.015855,-0.002725,-0.003224,69.290741,10.846832,-147.218399,,,
729601222.670943,-0.348856,-0.125081,-13.354878,0.010208,0.002213,1.001373,0.03543,-0.008168,-0.009624,69.290741,10.846832,-147.218399,,,
729601222.67429,-0.340301,-0.127589,-13.356363,0.010208,0.002213,1.001373,0.03543,-0.008168,-0.009624,69.290741,10.846832,-147.218399,,,
729601222.677683,-0.329579,-0.132571,-13.359441,0.011581,-0.000687,1.007843,0.03543,-0.008168,-0.009624,69.290741,10.846832,-147.218399,,,
729601222.680943,-0.329579,-0.132571,-13.359441,0.011581,-0.000687,1.007843,0.046084,-0.022151,-0.021217,69.276901,10.875916,-147.117584,,,
729601222.684305,-0.317016,-0.139113,-13.364185,0.011581,-0.000687,1.007843,0.046084,-0.022151,-0.021217,69.276901,10.875916,-147.117584,,,
729601222.687624,-0.303503,-0.147721,-13.369869,0.006866,-0.006165,1.001373,0.046084,-0.022151,-0.021217,69.276901,10.875916,-147.117584,,,
729601222.690984,-0.303503,-0.147721,-13.369869,0.006866,-0.006165,1.001373,0.033108,-0.029272,-0.022505,69.276901,10.875916,-147.117584,,,
729601222.694291,-0.292714,-0.156628,-13.375734,0.006866,-0.006165,1.001373,0.033108,-0.029272,-0.022505,69.276901,10.875916,-147.117584,,,
729601222.697624,-0.283771,-0.167591,-13.381316,0.002579,-0.008667,0.992462,0.033108,-0.029272,-0.022505,69.276901,10.875916,-147.117584,,,
729601222.700993,-0.283771,-0.167591,-13.381316,0.002579,-0.008667,0.992462,0.033108,-0.029272,-0.022505,69.276901,10.875916,-147.117584,,,
729601222.704348,-0.277924,-0.175195,-13.38622,0.002579,-0.008667,0.992462,0.015022,-0.021568,-0.01779,69.276901,10.875916,-147.117584,,,
729601222.707625,-0.274814,-0.184163,-13.390588,0.000336,-0.004715,0.988235,0.015022,-0.021568,-0.01779,69.276901,10.875916,-147.117584,,,
729601222.710987,-0.274814,-0.184163,-13.390588,0.000336,-0.004715,0.988235,0.015022,-0.021568,-0.01779,69.276901,10.875916,-147.117584,,,
729601222.714301,-0.273843,-0.190226,-13.39504,0.000336,-0.004715,0.988235,0.000911,-0.016323,-0.018417,69.276901,10.875916,-147.117584,,,
729601222.717708,-0.274373,-0.197887,-13.399488,0.00267,-0.00032,0.98732,0.000911,-0.016323,-0.018417,69.276901,10.875916,-147.117584,,,
729601222.720963,-0.274373,-0.197887,-13.399488,0.00267,-0.00032,0.98732,0.000911,-0.016323,-0.018417,69.246384,10.732285,-147.17691,,,
729601222.72431,-0.273322,-0.203718,-13.403929,0.00267,-0.00032,0.98732,0.007754,-0.017075,-0.01844,69.246384,10.732285,-147.17691,,,
729601222.727628,-0.26958,-0.212177,-13.408915,0.004425,-0.001282,0.993683,0.007754,-0.017075,-0.01844,69.246384,10.732285,-147.17691,,,
729601222.731031,-0.26958,-0.212177,-13.408915,0.004425,-0.001282,0.993683,0.007754,-0.017075,-0.01844,69.246384,10.732285,-147.17691,,,
729601222.734328,-0.262548,-0.218512,-13.41347,0.004425,-0.001282,0.993683,0.030691,-0.018698,-0.015587,69.246384,10.732285,-147.17691,,,
729601222.73762,-0.251387,-0.226795,-13.41769,0.003387,-0.00531,1.004471,0.030691,-0.018698,-0.015587,69.246384,10.732285,-147.17691,,,
729601222.740968,-0.251387,-0.226795,-13.41769,0.003387,-0.00531,1.004471,0.030691,-0.018698,-0.015587,69.246384,10.732285,-147.17691,,,
729601222.744352,-0.240414,-0.232484,-13.421821,0.003387,-0.00531,1.004471,0.040096,-0.013063,-0.015047,69.246384,10.732285,-147.17691,,,
729601222.747622,-0.22779,-0.239098,-13.425333,0.001175,-0.00853,0.999435,0.040096,-0.013063,-0.015047,69.246384,10.732285,-147.17691,,,
729601222.75096,-0.22779,-0.239098,-13.425333,0.001175,-0.00853,0.999435,0.040096,-0.013063,-0.015047,69.246384,10.732285,-147.17691,,,
729601222.754292,-0.216923,-0.243477,-13.428373,0.001175,-0.00853,0.999435,0.037915,-0.01308,-0.011814,69.246384,10.732285,-147.17691,,,
729601222.757705,-0.206864,-0.249572,-13.431456,-0.000397,-0.008209,0.991928,0.037915,-0.01308,-0.011814,69.246384,10.732285,-147.17691,,,
729601222.761011,-0.206864,-0.249572,-13.431456,-0.000397,-0.008209,0.991928,0.037915,-0.01308,-0.011814,69.246384,10.732285,-147.17691,,,
729601222.764286,-0.197821,-0.253208,-13.434872,-0.000397,-0.008209,0.991928,0.033014,-0.007473,-0.014115,69.08522,10.661148,-147.17218,,,
729601222.76763,-0.189593,-0.256096,-13.438545,0.002548,-0.003174,0.990631,0.033014,-0.007473,-0.014115,69.08522,10.661148,-147.17218,,,
729601222.771144,-0.189593,-0.256096,-13.438545,0.002548,-0.003174,0.990631,0.034191,-0.005484,-0.015561,69.08522,10.661148,-147.17218,,,
729601222.774286,-0.179946,-0.258405,-13.442414,0.002548,-0.003174,0.990631,0.034191,-0.005484,-0.015561,69.08522,10.661148,-147.17218,,,
729601222.777616,-0.171601,-0.260001,-13.446662,0.00885,0.000305,0.991257,0.034191,-0.005484,-0.015561,69.08522,10.661148,-147.17218,,,
729601222.780974,-0.171601,-0.260001,-13.446662,0.00885,0.000305,0.991257,0.034191,-0.005484,-0.015561,69.08522,10.661148,-147.17218,,,
729601222.78439,-0.162795,-0.262461,-13.451561,0.00885,0.000305,0.991257,0.028972,-0.005088,-0.020129,69.08522,10.661148,-147.17218,,,
729601222.787601,-0.154594,-0.262807,-13.455985,0.006805,-0.0,0.988983,0.028972,-0.005088,-0.020129,69.08522,10.661148,-147.17218,,,
729601222.79096,-0.154594,-0.262807,-13.455985,0.006805,-0.0,0.988983,0.028972,-0.005088,-0.020129,69.08522,10.661148,-147.17218,,,
729601222.794313,-0.148442,-0.262286,-13.459292,0.006805,-0.0,0.988983,0.016561,0.007459,-0.012284,69.08522,10.661148,-147.17218,,,
729601222.797289,-0.144346,-0.260508,-13.461549,0.001266,-0.002808,0.991684,0.016561,0.007459,-0.012284,69.08522,10.661148,-147.17218,,,
729601222.800953,-0.144346,-0.260508,-13.461549,0.001266,-0.002808,0.991684,0.016561,0.007459,-0.012284,69.08522,10.661148,-147.17218,,,
729601222.804302,-0.142208,-0.259961,-13.463609,0.001266,-0.002808,0.991684,0.005033,0.002922,-0.010812,69.036835,10.756088,-147.337616,,,
729601222.807615,-0.141644,-0.260051,-13.466848,0.004593,0.000275,0.98912,0.005033,0.002922,-0.010812,69.036835,10.756088,-147.337616,,,
729601222.811039,-0.141644,-0.260051,-13.466848,0.004593,0.000275,0.98912,0.005033,0.002922,-0.010812,69.036835,10.756088,-147.337616,,,
729601222.814277,-0.142723,-0.260339,-13.472109,0.004593,0.000275,0.98912,-0.006033,0.001329,-0.024824,69.036835,10.756088,-147.337616,,,
729601222.817686,-0.145853,-0.260042,-13.479667,0.014175,0.005341,0.988602,-0.006033,0.001329,-0.024824,69.036835,10.756088,-147.337616,,,
729601222.820947,-0.145853,-0.260042,-13.479667,0.014175,0.005341,0.988602,-0.006033,0.001329,-0.024824,69.036835,10.756088,-147.337616,,,
729601222.824296,-0.14785,-0.260277,-13.488869,0.014175,0.005341,0.988602,-0.007553,0.0027,-0.036233,69.036835,10.756088,-147.337616,,,
729601222.827683,-0.150968,-0.2594,-13.499411,0.01532,0.005554,0.996033,-0.007553,0.0027,-0.036233,69.036835,10.756088,-147.337616,,,
729601222.830995,-0.150968,-0.2594,-13.499411,0.01532,0.005554,0.996033,-0.007553,0.0027,-0.036233,69.036835,10.756088,-147.337616,,,
729601222.834353,-0.15135,-0.260038,-13.51069,0.01532,0.005554,0.996033,0.00029,0.001386,-0.041394,69.036835,10.756088,-147.337616,,,
729601222.837622,-0.151921,-0.259438,-13.522011,0.013718,-0.000443,1.00296,0.00029,0.001386,-0.041394,69.036835,10.756088,-147.337616,,,
729601222.840982,-0.151921,-0.259438,-13.522011,0.013718,-0.000443,1.00296,0.00029,0.001386,-0.041394,69.036835,10.756088,-147.337616,,,
729601222.844306,-0.149828,-0.259786,-13.532877,0.013718,-0.000443,1.00296,0.011211,0.003758,-0.038181,69.191406,10.629791,-147.01561,,,
729601222.847643,-0.145127,-0.259562,-13.542814,0.005753,-0.007263,1.003967,0.011211,0.003758,-0.038181,69.191406,10.629791,-147.01561,,,
729601222.851005,-0.145127,-0.259562,-13.542814,0.005753,-0.007263,1.003967,0.011211,0.003758,-0.038181,69.191406,10.629791,-147.01561,,,
729601222.854304,-0.137994,-0.258691,-13.552078,0.005753,-0.007263,1.003967,0.03001,0.007519,-0.033604,69.191406,10.629791,-147.01561,,,
729601222.857616,-0.127535,-0.258441,-13.56109,0.003983,-0.011887,1.006699,0.03001,0.007519,-0.033604,69.191406,10.629791,-147.01561,,,
729601222.861031,-0.127535,-0.258441,-13.56109,0.003983,-0.011887,1.006699,0.03001,0.007519,-0.033604,69.191406,10.629791,-147.01561,,,
729601222.864267,-0.115179,-0.256412,-13.570323,0.003983,-0.011887,1.006699,0.048476,0.010869,-0.035236,69.191406,10.629791,-147.01561,,,
729601222.867628,-0.100323,-0.254652,-13.579979,0.006989,-0.008728,1.01387,0.048476,0.010869,-0.035236,69.191406,10.629791,-147.01561,,,
729601222.870962,-0.100323,-0.254652,-13.579979,0.006989,-0.008728,1.01387,0.048476,0.010869,-0.035236,69.191406,10.629791,-147.01561,,,
729601222.874279,-0.084344,-0.253788,-13.589522,0.006989,-0.008728,1.01387,0.057235,0.004612,-0.034501,69.191406,10.629791,-147.01561,,,
729601222.877613,-0.06926,-0.251377,-13.598819,0.005035,-0.009094,1.003204,0.057235,0.004612,-0.034501,69.191406,10.629791,-147.01561,,,
729601222.880945,-0.06926,-0.251377,-13.598819,0.005035,-0.009094,1.003204,0.057235,0.004612,-0.034501,69.191406,10.629791,-147.01561,,,
729601222.884298,-0.056496,-0.248311,-13.607398,0.005035,-0.009094,1.003204,0.040509,0.016134,-0.029436,69.170166,10.823242,-147.31131,,,
729601222.887613,-0.045031,-0.245346,-13.615164,0.001495,-0.009308,0.998047,0.040509,0.016134,-0.029436,69.170166,10.823242,-147.31131,,,
729601222.890944,-0.045031,-0.245346,-13.615164,0.001495,-0.009308,0.998047,0.040509,0.016134,-0.029436,69.170166,10.823242,-147.31131,,,
729601222.894297,-0.03598,-0.241628,-13.622269,0.001495,-0.009308,0.998047,0.028488,0.014142,-0.024726,69.170166,10.823242,-147.31131,,,
729601222.897621,-0.027022,-0.242648,-13.62889,0.003387,-0.006805,0.990479,0.028488,0.014142,-0.024726,69.170166,10.823242,-147.31131,,,
729601222.901054,-0.027022,-0.242648,-13.62889,0.003387,-0.006805,0.990479,0.028488,0.014142,-0.024726,69.170166,10.823242,-147.31131,,,
729601222.904304,-0.02174,-0.241608,-13.635318,0.003387,-0.006805,0.990479,0.016158,0.00612,-0.023263,69.170166,10.823242,-147.31131,,,
729601222.907617,-0.017271,-0.244163,-13.642528,0.004959,-0.003738,0.985291,0.016158,0.00612,-0.023263,69.170166,10.823242,-147.31131,,,
729601222.910961,-0.017271,-0.244163,-13.642528,0.004959,-0.003738,0.985291,0.016158,0.00612,-0.023263,69.170166,10.823242,-147.31131,,,
729601222.914389,-0.015021,-0.244989,-13.650823,0.004959,-0.003738,0.985291,0.007716,-0.002419,-0.030783,69.170166,10.823242,-147.31131,,,
729601222.917636,-0.013569,-0.249706,-13.659528,0.005173,-0.003128,0.988388,0.007716,-0.002419,-0.030783,69.170166,10.823242,-147.31131,,,
729601222.920976,-0.013569,-0.249706,-13.659528,0.005173,-0.003128,0.988388,0.007716,-0.002419,-0.030783,69.170166,10.823242,-147.31131,,,
729601222.924303,-0.011478,-0.255126,-13.668484,0.005173,-0.003128,0.988388,0.007887,-0.020807,-0.032543,69.170166,10.823242,-147.31131,,,
729601222.927616,-0.012216,-0.26222,-13.677313,0.004181,-0.004776,0.98941,0.007887,-0.020807,-0.032543,69.026443,10.796967,-147.262451,,,
729601222.930948,-0.012216,-0.26222,-13.677313,0.004181,-0.004776,0.98941,0.007887,-0.020807,-0.032543,69.026443,10.796967,-147.262451,,,
729601222.934323,-0.010656,-0.269863,-13.685554,0.004181,-0.004776,0.98941,0.006563,-0.023038,-0.028439,69.026443,10.796967,-147.262451,,,
729601222.937613,-0.010875,-0.27834,-13.693081,0.00267,-0.006943,0.990738,0.006563,-0.023038,-0.028439,69.026443,10.796967,-147.262451,,,
729601222.941033,-0.010875,-0.27834,-13.693081,0.00267,-0.006943,0.990738,0.006563,-0.023038,-0.028439,69.026443,10.796967,-147.262451,,,
729601222.944276,-0.006983,-0.288129,-13.699682,0.00267,-0.006943,0.990738,0.016886,-0.033976,-0.022019,69.026443,10.796967,-147.262451,,,
729601222.947618,-0.003925,-0.299777,-13.705741,0.002991,-0.005127,0.995743,0.016886,-0.033976,-0.022019,69.026443,10.796967,-147.262451,,,
729601222.950985,-0.003925,-0.299777,-13.705741,0.002991,-0.005127,0.995743,0.016886,-0.033976,-0.022019,69.026443,10.796967,-147.262451,,,
729601222.954288,0.002327,-0.311457,-13.711045,0.002991,-0.005127,0.995743,0.024652,-0.038867,-0.01685,69.026443,10.796967,-147.262451,,,
729601222.957615,0.00645,-0.323299,-13.715034,0.001938,-0.004944,0.992859,0.024652,-0.038867,-0.01685,69.026443,10.796967,-147.262451,,,
729601222.961,0.00645,-0.323299,-13.715034,0.001938,-0.004944,0.992859,0.024652,-0.038867,-0.01685,69.026443,10.796967,-147.262451,,,
729601222.964344,0.011366,-0.335062,-13.71852,0.001938,-0.004944,0.992859,0.013551,-0.035104,-0.013331,69.026443,10.796967,-147.262451,,,
729601222.967631,0.012662,-0.34467,-13.721563,-0.000458,-0.004654,0.986832,0.013551,-0.035104,-0.013331,69.242935,10.609482,-146.999786,,,
729601222.970944,0.012662,-0.34467,-13.721563,-0.000458,-0.004654,0.986832,0.013551,-0.035104,-0.013331,69.242935,10.609482,-146.999786,,,
729601222.974291,0.016824,-0.354866,-13.724566,-0.000458,-0.004654,0.986832,0.016619,-0.032326,-0.013047,69.242935,10.609482,-146.999786,,,
729601222.97761,0.019553,-0.364469,-13.727935,0.004349,-0.002014,0.992081,0.016619,-0.032326,-0.013047,69.242935,10.609482,-146.999786,,,
729601222.980947,0.019553,-0.364469,-13.727935,0.004349,-0.002014,0.992081,0.016619,-0.032326,-0.013047,69.242935,10.609482,-146.999786,,,
729601222.984306,0.023179,-0.37508,-13.73136,0.004349,-0.002014,0.992081,0.013291,-0.03387,-0.013409,69.242935,10.609482,-146.999786,,,
729601222.987615,0.025125,-0.384934,-13.734032,0.005417,6.1e-05,0.990158,0.013291,-0.03387,-0.013409,69.242935,10.609482,-146.999786,,,
729601222.991008,0.025125,-0.384934,-13.734032,0.005417,6.1e-05,0.990158,0.013291,-0.03387,-0.013409,69.242935,10.609482,-146.999786,,,
729601222.994284,0.025316,-0.394333,-13.735342,0.005417,6.1e-05,0.990158,-0.004714,-0.028602,-0.00378,69.242935,10.609482,-146.999786,,,
729601222.99762,0.021702,-0.402815,-13.735053,-0.002228,-0.002457,0.985764,-0.004714,-0.028602,-0.00378,69.242935,10.609482,-146.999786,,,
729601223.001038,0.021702,-0.402815,-13.735053,-0.002228,-0.002457,0.985764,-0.004714,-0.028602,-0.00378,69.242935,10.609482,-146.999786,,,
729601223.004323,0.016865,-0.412557,-13.733331,-0.002228,-0.002457,0.985764,-0.02002,-0.03319,0.006326,69.242935,10.609482,-146.999786,,,
729601223.007626,0.008614,-0.42237,-13.731378,-0.00383,-0.001556,0.983246,-0.02002,-0.03319,0.006326,68.927811,10.796844,-147.042862,,,
729601223.011014,0.008614,-0.42237,-13.731378,-0.00383,-0.001556,0.983246,-0.02002,-0.03319,0.006326,68.927811,10.796844,-147.042862,,,
729601223.014319,0.001155,-0.433098,-13.729736,-0.00383,-0.001556,0.983246,-0.025633,-0.0339,0.004215,68.927811,10.796844,-147.042862,,,
729601223.017634,-0.008739,-0.441596,-13.728734,0.004318,0.004654,0.986832,-0.025633,-0.0339,0.004215,68.927811,10.796844,-147.042862,,,
729601223.020967,-0.008739,-0.441596,-13.728734,0.004318,0.004654,0.986832,-0.025633,-0.0339,0.004215,68.927811,10.796844,-147.042862,,,
729601223.024299,-0.017732,-0.45146,-13.728784,0.004318,0.004654,0.986832,-0.030348,-0.033773,-0.003068,68.927811,10.796844,-147.042862,,,
729601223.027616,-0.027624,-0.461242,-13.729732,0.012131,0.006638,0.992294,-0.030348,-0.033773,-0.003068,68.927811,10.796844,-147.042862,,,
729601223.030948,-0.027624,-0.461242,-13.729732,0.012131,0.006638,0.992294,-0.030348,-0.033773,-0.003068,68.927811,10.796844,-147.042862,,,
729601223.034309,-0.03575,-0.4729,-13.731436,0.012131,0.006638,0.992294,-0.026565,-0.038007,-0.008376,68.927811,10.796844,-147.042862,,,
729601223.037613,-0.044651,-0.481338,-13.73364,0.009933,0.004089,0.995148,-0.026565,-0.038007,-0.008376,68.927811,10.796844,-147.042862,,,
729601223.040943,-0.044651,-0.481338,-13.73364,0.009933,0.004089,0.995148,-0.026565,-0.038007,-0.008376,68.927811,10.796844,-147.042862,,,
729601223.044314,-0.052389,-0.490289,-13.735849,0.009933,0.004089,0.995148,-0.027349,-0.025592,-0.008396,68.927811,10.796844,-147.042862,,,
729601223.047617,-0.06146,-0.495637,-13.737469,0.006271,0.000336,0.993805,-0.027349,-0.025592,-0.008396,68.733627,10.640106,-147.293808,,,
729601223.050979,-0.06146,-0.495637,-13.737469,0.006271,0.000336,0.993805,-0.027349,-0.025592,-0.008396,68.733627,10.640106,-147.293808,,,
729601223.054355,-0.070479,-0.501718,-13.737569,0.006271,0.000336,0.993805,-0.031172,-0.015945,0.002325,68.733627,10.640106,-147.293808,,,
729601223.057609,-0.078896,-0.505524,-13.735635,0.00351,-0.001236,0.990524,-0.031172,-0.015945,0.002325,68.733627,10.640106,-147.293808,,,
729601223.060967,-0.078896,-0.505524,-13.735635,0.00351,-0.001236,0.990524,-0.031172,-0.015945,0.002325,68.733627,10.640106,-147.293808,,,
729601223.064302,-0.086401,-0.50782,-13.732217,0.00351,-0.001236,0.990524,-0.024563,-0.001687,0.012632,68.733627,10.640106,-147.293808,,,
729601223.067623,-0.091771,-0.507702,-13.728104,0.006653,0.000839,1.000183,-0.024563,-0.001687,0.012632,68.733627,10.640106,-147.293808,,,
729601223.071025,-0.091771,-0.507702,-13.728104,0.006653,0.000839,1.000183,-0.024563,-0.001687,0.012632,68.733627,10.640106,-147.293808,,,
729601223.074289,-0.094441,-0.509803,-13.723801,0.006653,0.000839,1.000183,-0.004021,-0.004738,0.013779,68.733627,10.640106,-147.293808,,,
729601223.07761,-0.095258,-0.50855,-13.71934,0.008026,-0.001328,0.999924,-0.004021,-0.004738,0.013779,68.733627,10.640106,-147.293808,,,
729601223.080946,-0.095258,-0.50855,-13.71934,0.008026,-0.001328,0.999924,-0.004021,-0.004738,0.013779,68.733627,10.640106,-147.293808,,,
729601223.084307,-0.094911,-0.511645,-13.714821,0.008026,-0.001328,0.999924,0.002151,-0.008256,0.014151,68.733627,10.640106,-147.293808,,,
729601223.087607,-0.093372,-0.511833,-13.710473,0.00415,-0.00676,0.999771,0.002151,-0.008256,0.014151,68.733627,10.640106,-147.293808,,,
729601223.090965,-0.093372,-0.511833,-13.710473,0.00415,-0.00676,0.999771,0.002151,-0.008256,0.014151,68.768784,10.701233,-146.924881,,,
729601223.09429,-0.091638,-0.516028,-13.706258,0.00415,-0.00676,0.999771,0.008046,-0.014374,0.013128,68.768784,10.701233,-146.924881,,,
729601223.097615,-0.088584,-0.520357,-13.702524,0.003983,-0.005249,0.997925,0.008046,-0.014374,0.013128,68.768784,10.701233,-146.924881,,,
729601223.100971,-0.088584,-0.520357,-13.702524,0.003983,-0.005249,0.997925,0.008046,-0.014374,0.013128,68.768784,10.701233,-146.924881,,,
729601223.104343,-0.089247,-0.525385,-13.699589,0.003983,-0.005249,0.997925,-0.004838,-0.015962,0.007619,68.768784,10.701233,-146.924881,,,
729601223.107602,-0.089658,-0.531474,-13.697634,0.009705,0.002441,0.992554,-0.004838,-0.015962,0.007619,68.768784,10.701233,-146.924881,,,
729601223.110965,-0.089658,-0.531474,-13.697634,0.009705,0.002441,0.992554,-0.004838,-0.015962,0.007619,68.768784,10.701233,-146.924881,,,
729601223.114282,-0.093285,-0.536991,-13.696338,0.009705,0.002441,0.992554,-0.013248,-0.017164,0.003074,68.768784,10.701233,-146.924881,,,
729601223.117618,-0.096163,-0.542532,-13.695096,0.013153,0.008453,0.990112,-0.013248,-0.017164,0.003074,68.768784,10.701233,-146.924881,,,
729601223.12096,-0.096163,-0.542532,-13.695096,0.013153,0.008453,0.990112,-0.013248,-0.017164,0.003074,68.768784,10.701233,-146.924881,,,
729601223.124276,-0.099669,-0.54769,-13.694077,0.013153,0.008453,0.990112,-0.010424,-0.01303,0.001552,68.768784,10.701233,-146.924881,,,
729601223.127631,-0.102978,-0.549876,-13.6935,0.016617,0.00708,0.995941,-0.010424,-0.01303,0.001552,68.768784,10.701233,-146.924881,,,
729601223.130948,-0.102978,-0.549876,-13.6935,0.016617,0.00708,0.995941,-0.010424,-0.01303,0.001552,68.72821,10.682159,-147.20787,,,
729601223.134357,-0.106497,-0.55245,-13.693603,0.016617,0.00708,0.995941,-0.010248,-0.005552,-0.003151,68.72821,10.682159,-147.20787,,,
729601223.13761,-0.10895,-0.552853,-13.694547,0.02037,0.006546,0.994339,-0.010248,-0.005552,-0.003151,68.72821,10.682159,-147.20787,,,
729601223.140949,-0.10895,-0.552853,-13.694547,0.02037,0.006546,0.994339,-0.010248,-0.005552,-0.003151,68.72821,10.682159,-147.20787,,,
729601223.144306,-0.112446,-0.553298,-13.696511,0.02037,0.006546,0.994339,-0.013546,0.00512,-0.010182,68.72821,10.682159,-147.20787,,,
729601223.147614,-0.115642,-0.551895,-13.698931,0.020752,0.00473,0.994537,-0.013546,0.00512,-0.010182,68.72821,10.682159,-147.20787,,,
729601223.15099,-0.115642,-0.551895,-13.698931,0.020752,0.00473,0.994537,-0.013546,0.00512,-0.010182,68.72821,10.682159,-147.20787,,,
729601223.15435,-0.11924,-0.550021,-13.701949,0.020752,0.00473,0.994537,-0.011601,0.012159,-0.014386,68.72821,10.682159,-147.20787,,,
729601223.157609,-0.122965,-0.546885,-13.705629,0.023865,0.002823,0.996399,-0.011601,0.012159,-0.014386,68.72821,10.682159,-147.20787,,,
729601223.160968,-0.122965,-0.546885,-13.705629,0.023865,0.002823,0.996399,-0.011601,0.012159,-0.014386,68.72821,10.682159,-147.20787,,,
729601223.164301,-0.125873,-0.544706,-13.709307,0.023865,0.002823,0.996399,-0.008747,0.010222,-0.014395,68.72821,10.682159,-147.20787,,,
729601223.167627,-0.129445,-0.540757,-13.712118,0.017715,-0.000717,0.996597,-0.008747,0.010222,-0.014395,68.72821,10.682159,-147.20787,,,
729601223.170944,-0.129445,-0.540757,-13.712118,0.017715,-0.000717,0.996597,-0.008747,0.010222,-0.014395,68.696487,10.690353,-147.16362,,,
729601223.174312,-0.130913,-0.538553,-13.71312,0.017715,-0.000717,0.996597,-0.003243,0.010446,-0.00181,68.696487,10.690353,-147.16362,,,
729601223.177605,-0.131871,-0.535177,-13.712859,0.006592,-0.003555,1.001434,-0.003243,0.010446,-0.00181,68.696487,10.690353,-147.16362,,,
729601223.180947,-0.131871,-0.535177,-13.712859,0.006592,-0.003555,1.001434,-0.003243,0.010446,-0.00181,68.696487,10.690353,-147.16362,,,
729601223.18431,-0.132149,-0.533012,-13.711362,0.006592,-0.003555,1.001434,-0.000311,0.009278,0.006722,68.696487,10.690353,-147.16362,,,
729601223.187613,-0.1297,-0.532111,-13.709118,0.003632,-0.005661,1.003387,-0.000311,0.009278,0.006722,68.696487,10.690353,-147.16362,,,
729601223.191019,-0.1297,-0.532111,-13.709118,0.003632,-0.005661,1.003387,-0.000311,0.009278,0.006722,68.696487,10.690353,-147.16362,,,
729601223.194286,-0.127198,-0.5307,-13.706683,0.003632,-0.005661,1.003387,0.014427,0.008214,0.007889,68.696487,10.690353,-147.16362,,,
729601223.197618,-0.119511,-0.530011,-13.70405,0.003677,-0.008911,1.010056,0.014427,0.008214,0.007889,68.696487,10.690353,-147.16362,,,
729601223.200982,-0.119511,-0.530011,-13.70405,0.003677,-0.008911,1.010056,0.014427,0.008214,0.007889,68.696487,10.690353,-147.16362,,,
729601223.204376,-0.112136,-0.527169,-13.700659,0.003677,-0.008911,1.010056,0.030442,0.013102,0.012977,68.696487,10.690353,-147.16362,,,
729601223.20761,-0.100188,-0.527405,-13.696135,0.000626,-0.01355,1.018478,0.030442,0.013102,0.012977,68.696487,10.690353,-147.16362,,,
729601223.210986,-0.100188,-0.527405,-13.696135,0.000626,-0.01355,1.018478,0.030442,0.013102,0.012977,68.884735,10.834625,-147.030075,,,
729601223.214301,-0.088525,-0.525249,-13.691154,0.000626,-0.01355,1.018478,0.044581,0.011015,0.016031,68.884735,10.834625,-147.030075,,,
729601223.217621,-0.073682,-0.526021,-13.685129,-0.001114,-0.014175,1.015579,0.044581,0.011015,0.016031,68.884735,10.834625,-147.030075,,,
729601223.220973,-0.073682,-0.526021,-13.685129,-0.001114,-0.014175,1.015579,0.044581,0.011015,0.016031,68.884735,10.834625,-147.030075,,,
729601223.224291,-0.059737,-0.522995,-13.677998,-0.001114,-0.014175,1.015579,0.050692,0.014711,0.023661,68.884735,10.834625,-147.030075,,,
729601223.227613,-0.043675,-0.522872,-13.670739,-0.002197,-0.012085,1.015823,0.050692,0.014711,0.023661,68.884735,10.834625,-147.030075,,,
729601223.230944,-0.043675,-0.522872,-13.670739,-0.002197,-0.012085,1.015823,0.050692,0.014711,0.023661,68.884735,10.834625,-147.030075,,,
729601223.234307,-0.028698,-0.518396,-13.663686,-0.002197,-0.012085,1.015823,0.052173,0.019194,0.022204,68.884735,10.834625,-147.030075,,,
729601223.237607,-0.014172,-0.517571,-13.656935,4.6e-05,-0.003632,1.014297,0.052173,0.019194,0.022204,68.884735,10.834625,-147.030075,,,
729601223.241032,-0.014172,-0.517571,-13.656935,4.6e-05,-0.003632,1.014297,0.052173,0.019194,0.022204,68.884735,10.834625,-147.030075,,,
729601223.244289,-0.001203,-0.511692,-13.650491,4.6e-05,-0.003632,1.014297,0.044778,0.02621,0.020125,68.884735,10.834625,-147.030075,,,
729601223.247613,0.009969,-0.506427,-13.644617,0.001633,0.004547,1.00415,0.044778,0.02621,0.020125,68.884735,10.834625,-147.030075,,,
729601223.250969,0.009969,-0.506427,-13.644617,0.001633,0.004547,1.00415,0.044778,0.02621,0.020125,68.884735,10.834625,-147.030075,,,
729601223.254348,0.020457,-0.501174,-13.639641,0.001633,0.004547,1.00415,0.036931,0.017245,0.013975,68.846909,10.589996,-147.029587,,,
729601223.257601,0.029676,-0.496644,-13.635254,-0.000946,0.005981,1.004532,0.036931,0.017245,0.013975,68.846909,10.589996,-147.029587,,,
729601223.261056,0.029676,-0.496644,-13.635254,-0.000946,0.005981,1.004532,0.036931,0.017245,0.013975,68.846909,10.589996,-147.029587,,,
729601223.264279,0.040564,-0.49497,-13.630952,-0.000946,0.005981,1.004532,0.040115,0.006355,0.01338,68.846909,10.589996,-147.029587,,,
729601223.267703,0.051096,-0.493124,-13.62724,-0.00235,0.00415,1.0065,0.040115,0.006355,0.01338,68.846909,10.589996,-147.029587,,,
729601223.270968,0.051096,-0.493124,-13.62724,-0.00235,0.00415,1.0065,0.040115,0.006355,0.01338,68.846909,10.589996,-147.029587,,,
729601223.274299,0.064987,-0.494145,-13.623436,-0.00235,0.00415,1.0065,0.050831,-0.003599,0.013897,68.846909,10.589996,-147.029587,,,
729601223.277611,0.075875,-0.495001,-13.618573,-0.000183,0.002029,1.010147,0.050831,-0.003599,0.013897,68.846909,10.589996,-147.029587,,,
729601223.280946,0.075875,-0.495001,-13.618573,-0.000183,0.002029,1.010147,0.050831,-0.003599,0.013897,68.846909,10.589996,-147.029587,,,
729601223.284307,0.089233,-0.497407,-13.613311,-0.000183,0.002029,1.010147,0.047346,-0.002724,0.016737,68.846909,10.589996,-147.029587,,,
