Time (sec),Pitch (deg),Roll (deg),Yaw(deg),X-Acceleration (g),Y-Acceleration (g),Z-Acceleration (g),Pitch Rate (deg/sec),Roll Rate (deg/sec),Yaw Rate (deg/sec),Magnetic Field in X direction (uT),Magnetic Field in Y direction (uT),Magnetic Field in Z Direction (uT),Latitude (deg),Longitude (deg),Altitude (m)
729605433.028142,-0.656911,-1.068509,-11.253115,0.023346,-0.01123,1.012711,0.012158,-0.029459,-0.038224,66.81633,11.327972,-147.816635,,,
729605433.031393,-0.648131,-1.075708,-11.264408,0.023346,-0.01123,1.012711,0.035816,-0.01107,-0.040085,66.81633,11.327972,-147.816635,,,
729605433.034793,-0.648131,-1.075708,-11.264408,0.023346,-0.01123,1.012711,0.035816,-0.01107,-0.040085,66.81633,11.327972,-147.816635,,,
729605433.03809,-0.636721,-1.078893,-11.275018,0.024551,-0.008057,1.012451,0.035816,-0.01107,-0.040085,66.81633,11.327972,-147.816635,,,
729605433.041398,-0.62369,-1.08301,-11.284805,0.024551,-0.008057,1.012451,0.042788,-0.006055,-0.035067,66.81633,11.327972,-147.816635,,,
729605433.044727,-0.62369,-1.08301,-11.284805,0.024551,-0.008057,1.012451,0.042788,-0.006055,-0.035067,66.81633,11.327972,-147.816635,,,
729605433.048071,-0.612125,-1.08452,-11.293228,0.0168,-0.009399,0.999619,0.042788,-0.006055,-0.035067,66.81633,11.327972,-147.816635,,,
729605433.051396,-0.601648,-1.086647,-11.300383,0.0168,-0.009399,0.999619,0.038285,-0.002995,-0.025272,66.81633,11.327972,-147.816635,,,
729605433.054788,-0.601648,-1.086647,-11.300383,0.0168,-0.009399,0.999619,0.038285,-0.002995,-0.025272,66.81633,11.327972,-147.816635,,,
729605433.058073,-0.592344,-1.089679,-11.307127,0.01265,-0.011948,0.992416,0.038285,-0.002995,-0.025272,66.81633,11.327972,-147.816635,,,
729605433.061405,-0.58525,-1.09426,-11.314426,0.01265,-0.011948,0.992416,0.023269,-0.014504,-0.027641,66.81633,11.327972,-147.816635,,,
729605433.06474,-0.58525,-1.09426,-11.314426,0.01265,-0.011948,0.992416,0.023269,-0.014504,-0.027641,67.093979,11.040207,-147.685562,,,
729605433.06812,-0.579946,-1.100835,-11.322836,0.011765,-0.009659,0.984787,0.023269,-0.014504,-0.027641,67.093979,11.040207,-147.685562,,,
729605433.071393,-0.576609,-1.106356,-11.332032,0.011765,-0.009659,0.984787,0.01338,-0.022615,-0.032594,67.093979,11.040207,-147.685562,,,
729605433.074745,-0.576609,-1.106356,-11.332032,0.011765,-0.009659,0.984787,0.01338,-0.022615,-0.032594,67.093979,11.040207,-147.685562,,,
729605433.078002,-0.573664,-1.112988,-11.341271,0.012909,-0.003952,0.986023,0.01338,-0.022615,-0.032594,67.093979,11.040207,-147.685562,,,
729605433.081419,-0.572653,-1.117818,-11.350622,0.012909,-0.003952,0.986023,0.008462,-0.018806,-0.035917,67.093979,11.040207,-147.685562,,,
729605433.084751,-0.572653,-1.117818,-11.350622,0.012909,-0.003952,0.986023,0.008462,-0.018806,-0.035917,67.093979,11.040207,-147.685562,,,
729605433.088119,-0.570804,-1.125876,-11.360554,0.013748,-0.003342,0.989594,0.008462,-0.018806,-0.035917,67.093979,11.040207,-147.685562,,,
729605433.091397,-0.569471,-1.133438,-11.370274,0.013748,-0.003342,0.989594,0.005852,-0.027709,-0.032748,67.093979,11.040207,-147.685562,,,
729605433.094798,-0.569471,-1.133438,-11.370274,0.013748,-0.003342,0.989594,0.005852,-0.027709,-0.032748,67.093979,11.040207,-147.685562,,,
729605433.098081,-0.567025,-1.141215,-11.379054,0.01236,-0.003525,0.988846,0.005852,-0.027709,-0.032748,67.093979,11.040207,-147.685562,,,
729605433.101404,-0.565106,-1.147181,-11.3867,0.01236,-0.003525,0.988846,0.006069,-0.014625,-0.027714,67.093979,11.040207,-147.685562,,,
729605433.104729,-0.565106,-1.147181,-11.3867,0.01236,-0.003525,0.988846,0.006069,-0.014625,-0.027714,66.756836,11.167282,-147.600815,,,
729605433.108134,-0.563496,-1.150965,-11.393399,0.014343,-0.005386,0.994919,0.006069,-0.014625,-0.027714,66.756836,11.167282,-147.600815,,,
729605433.111397,-0.562642,-1.154558,-11.399169,0.014343,-0.005386,0.994919,0.000889,-0.007236,-0.021504,66.756836,11.167282,-147.600815,,,
729605433.114729,-0.562642,-1.154558,-11.399169,0.014343,-0.005386,0.994919,0.000889,-0.007236,-0.021504,66.756836,11.167282,-147.600815,,,
729605433.11809,-0.561477,-1.156655,-11.404375,0.01506,-0.001694,0.989868,0.000889,-0.007236,-0.021504,66.756836,11.167282,-147.600815,,,
729605433.121398,-0.559009,-1.157369,-11.409647,0.01506,-0.001694,0.989868,0.007359,0.003005,-0.018795,66.756836,11.167282,-147.600815,,,
729605433.124746,-0.559009,-1.157369,-11.409647,0.01506,-0.001694,0.989868,0.007359,0.003005,-0.018795,66.756836,11.167282,-147.600815,,,
729605433.128085,-0.555339,-1.157086,-11.414983,0.014694,-0.001602,0.99437,0.007359,0.003005,-0.018795,66.756836,11.167282,-147.600815,,,
729605433.131401,-0.551458,-1.156802,-11.419469,0.014694,-0.001602,0.99437,0.016064,-0.002277,-0.014798,66.756836,11.167282,-147.600815,,,
729605433.134776,-0.551458,-1.156802,-11.419469,0.014694,-0.001602,0.99437,0.016064,-0.002277,-0.014798,66.756836,11.167282,-147.600815,,,
729605433.138039,-0.546698,-1.160061,-11.422794,0.014862,-0.004379,0.994583,0.016064,-0.002277,-0.014798,66.756836,11.167282,-147.600815,,,
729605433.141382,-0.541864,-1.163868,-11.425045,0.014862,-0.004379,0.994583,0.019793,-0.014747,-0.008275,66.756836,11.167282,-147.600815,,,
729605433.144756,-0.541864,-1.163868,-11.425045,0.014862,-0.004379,0.994583,0.019793,-0.014747,-0.008275,66.765244,11.225616,-147.211197,,,
729605433.1481,-0.537281,-1.168136,-11.427001,0.011887,-0.006683,0.98996,0.019793,-0.014747,-0.008275,66.765244,11.225616,-147.211197,,,
729605433.151519,-0.533125,-1.170483,-11.429096,0.011887,-0.006683,0.98996,0.012251,-0.008658,-0.010164,66.765244,11.225616,-147.211197,,,
729605433.154771,-0.533125,-1.170483,-11.429096,0.011887,-0.006683,0.98996,0.012251,-0.008658,-0.010164,66.765244,11.225616,-147.211197,,,
729605433.158122,-0.530466,-1.174584,-11.431104,0.014893,-0.004974,0.991211,0.012251,-0.008658,-0.010164,66.765244,11.225616,-147.211197,,,
729605433.161423,-0.528104,-1.17799,-11.433185,0.014893,-0.004974,0.991211,0.003534,-0.013434,-0.009713,66.765244,11.225616,-147.211197,,,
729605433.164751,-0.528104,-1.17799,-11.433185,0.014893,-0.004974,0.991211,0.003534,-0.013434,-0.009713,66.765244,11.225616,-147.211197,,,
729605433.168138,-0.527488,-1.183322,-11.434791,0.014679,-0.003784,0.986176,0.003534,-0.013434,-0.009713,66.765244,11.225616,-147.211197,,,
729605433.171391,-0.526892,-1.18736,-11.43593,0.014679,-0.003784,0.986176,-0.004339,-0.011419,-0.00702,66.765244,11.225616,-147.211197,,,
729605433.174739,-0.526892,-1.18736,-11.43593,0.014679,-0.003784,0.986176,-0.004339,-0.011419,-0.00702,66.765244,11.225616,-147.211197,,,
729605433.178079,-0.528689,-1.191293,-11.43737,0.018387,-0.003387,0.991837,-0.004339,-0.011419,-0.00702,66.765244,11.225616,-147.211197,,,
729605433.181393,-0.531888,-1.193214,-11.439308,0.018387,-0.003387,0.991837,-0.012987,-0.008937,-0.007469,66.765244,11.225616,-147.211197,,,
729605433.184789,-0.531888,-1.193214,-11.439308,0.018387,-0.003387,0.991837,-0.012987,-0.008937,-0.007469,67.017151,11.051926,-147.199997,,,
729605433.188097,-0.537521,-1.196168,-11.441245,0.016663,-0.002823,0.988266,-0.012987,-0.008937,-0.007469,67.017151,11.051926,-147.199997,,,
729605433.1914,-0.543253,-1.198264,-11.442607,0.016663,-0.002823,0.988266,-0.025179,-0.005447,-0.006189,67.017151,11.051926,-147.199997,,,
729605433.194728,-0.543253,-1.198264,-11.442607,0.016663,-0.002823,0.988266,-0.025179,-0.005447,-0.006189,67.017151,11.051926,-147.199997,,,
729605433.198058,-0.550641,-1.201978,-11.443309,0.013779,-0.006912,0.988525,-0.025179,-0.005447,-0.006189,67.017151,11.051926,-147.199997,,,
729605433.201409,-0.557364,-1.205857,-11.443341,0.013779,-0.006912,0.988525,-0.025836,-0.012211,-0.001379,67.017151,11.051926,-147.199997,,,
729605433.204837,-0.557364,-1.205857,-11.443341,0.013779,-0.006912,0.988525,-0.025836,-0.012211,-0.001379,67.017151,11.051926,-147.199997,,,
729605433.20809,-0.565303,-1.211869,-11.443143,0.01506,-0.009613,0.992279,-0.025836,-0.012211,-0.001379,67.017151,11.051926,-147.199997,,,
729605433.211405,-0.57134,-1.218241,-11.442412,0.01506,-0.009613,0.992279,-0.020747,-0.021871,0.002163,67.017151,11.051926,-147.199997,,,
729605433.214752,-0.57134,-1.218241,-11.442412,0.01506,-0.009613,0.992279,-0.020747,-0.021871,0.002163,67.017151,11.051926,-147.199997,,,
729605433.218109,-0.576743,-1.225105,-11.441325,0.015579,-0.010071,0.996414,-0.020747,-0.021871,0.002163,67.017151,11.051926,-147.199997,,,
729605433.221398,-0.578725,-1.229913,-11.440144,0.015579,-0.010071,0.996414,-0.004405,-0.016364,0.002916,67.017151,11.051926,-147.199997,,,
729605433.224726,-0.578725,-1.229913,-11.440144,0.015579,-0.010071,0.996414,-0.004405,-0.016364,0.002916,67.017151,11.051926,-147.199997,,,
729605433.228101,-0.577415,-1.234355,-11.438795,0.023743,-0.009201,1.009232,-0.004405,-0.016364,0.002916,66.877777,11.0578,-147.185562,,,
729605433.23141,-0.571444,-1.236155,-11.437417,0.023743,-0.009201,1.009232,0.024204,-0.009925,0.00704,66.877777,11.0578,-147.185562,,,
729605433.234804,-0.571444,-1.236155,-11.437417,0.023743,-0.009201,1.009232,0.024204,-0.009925,0.00704,66.877777,11.0578,-147.185562,,,
729605433.238067,-0.562667,-1.238856,-11.435155,0.027512,-0.009613,1.017532,0.024204,-0.009925,0.00704,66.877777,11.0578,-147.185562,,,
729605433.241401,-0.550191,-1.239657,-11.431615,0.027512,-0.009613,1.017532,0.045772,-0.000995,0.013223,66.877777,11.0578,-147.185562,,,
729605433.24473,-0.550191,-1.239657,-11.431615,0.027512,-0.009613,1.017532,0.045772,-0.000995,0.013223,66.877777,11.0578,-147.185562,,,
729605433.248081,-0.537772,-1.239388,-11.427382,0.02243,-0.010788,1.011536,0.045772,-0.000995,0.013223,66.877777,11.0578,-147.185562,,,
729605433.251469,-0.52556,-1.235828,-11.422786,0.02243,-0.010788,1.011536,0.039114,0.014163,0.016107,66.877777,11.0578,-147.185562,,,
729605433.254824,-0.52556,-1.235828,-11.422786,0.02243,-0.010788,1.011536,0.039114,0.014163,0.016107,66.877777,11.0578,-147.185562,,,
729605433.258082,-0.516415,-1.231213,-11.418373,0.025742,-0.007385,0.99617,0.039114,0.014163,0.016107,66.877777,11.0578,-147.185562,,,
729605433.261402,-0.509423,-1.225177,-11.415082,0.025742,-0.007385,0.99617,0.017277,0.024873,0.007597,66.877777,11.0578,-147.185562,,,
729605433.264744,-0.509423,-1.225177,-11.415082,0.025742,-0.007385,0.99617,0.017277,0.024873,0.007597,66.877777,11.0578,-147.185562,,,
729605433.2681,-0.506989,-1.219883,-11.414015,0.034073,-0.003464,0.978668,0.017277,0.024873,0.007597,66.854645,10.92482,-147.621002,,,
729605433.2714,-0.50732,-1.21548,-11.415691,0.034073,-0.003464,0.978668,-0.004478,0.016136,-0.011491,66.854645,10.92482,-147.621002,,,
729605433.27475,-0.50732,-1.21548,-11.415691,0.034073,-0.003464,0.978668,-0.004478,0.016136,-0.011491,66.854645,10.92482,-147.621002,,,
729605433.278081,-0.510792,-1.214038,-11.420473,0.037689,0.000534,0.971939,-0.004478,0.016136,-0.011491,66.854645,10.92482,-147.621002,,,
729605433.281401,-0.516457,-1.213275,-11.428478,0.037689,0.000534,0.971939,-0.023807,-0.000268,-0.032349,66.854645,10.92482,-147.621002,,,
729605433.284748,-0.516457,-1.213275,-11.428478,0.037689,0.000534,0.971939,-0.023807,-0.000268,-0.032349,66.854645,10.92482,-147.621002,,,
729605433.288077,-0.524569,-1.214834,-11.438364,0.035583,0.001984,0.970184,-0.023807,-0.000268,-0.032349,66.854645,10.92482,-147.621002,,,
729605433.291406,-0.535241,-1.216265,-11.449545,0.035583,0.001984,0.970184,-0.039433,-0.003587,-0.043664,66.854645,10.92482,-147.621002,,,
729605433.294807,-0.535241,-1.216265,-11.449545,0.035583,0.001984,0.970184,-0.039433,-0.003587,-0.043664,66.854645,10.92482,-147.621002,,,
729605433.29808,-0.548084,-1.219549,-11.460946,0.027603,-0.002411,0.974625,-0.039433,-0.003587,-0.043664,66.854645,10.92482,-147.621002,,,
729605433.301432,-0.562437,-1.223207,-11.471389,0.027603,-0.002411,0.974625,-0.048657,-0.013892,-0.035225,66.854645,10.92482,-147.621002,,,
729605433.30474,-0.562437,-1.223207,-11.471389,0.027603,-0.002411,0.974625,-0.048657,-0.013892,-0.035225,66.854645,10.92482,-147.621002,,,
729605433.30807,-0.576635,-1.227287,-11.480947,0.022278,-0.011826,0.979843,-0.048657,-0.013892,-0.035225,66.875366,11.330399,-147.710464,,,
729605433.311406,-0.589026,-1.230497,-11.48966,0.022278,-0.011826,0.979843,-0.042669,-0.00445,-0.030769,66.875366,11.330399,-147.710464,,,
729605433.314735,-0.589026,-1.230497,-11.48966,0.022278,-0.011826,0.979843,-0.042669,-0.00445,-0.030769,66.875366,11.330399,-147.710464,,,
729605433.318104,-0.599273,-1.230428,-11.497757,0.026306,-0.017029,0.998932,-0.042669,-0.00445,-0.030769,66.875366,11.330399,-147.710464,,,
729605433.321394,-0.6063,-1.228989,-11.50545,0.026306,-0.017029,0.998932,-0.02196,0.012722,-0.027296,66.875366,11.330399,-147.710464,,,
729605433.324746,-0.6063,-1.228989,-11.50545,0.026306,-0.017029,0.998932,-0.02196,0.012722,-0.027296,66.875366,11.330399,-147.710464,,,
729605433.328083,-0.609612,-1.225913,-11.512196,0.02858,-0.015793,1.011765,-0.02196,0.012722,-0.027296,66.875366,11.330399,-147.710464,,,
729605433.331398,-0.61028,-1.221916,-11.517512,0.02858,-0.015793,1.011765,-0.002047,0.019997,-0.020629,66.875366,11.330399,-147.710464,,,
729605433.334783,-0.61028,-1.221916,-11.517512,0.02858,-0.015793,1.011765,-0.002047,0.019997,-0.020629,66.875366,11.330399,-147.710464,,,
729605433.338079,-0.610335,-1.216928,-11.521904,0.024734,-0.018661,1.012558,-0.002047,0.019997,-0.020629,66.875366,11.330399,-147.710464,,,
729605433.341394,-0.60972,-1.211542,-11.526001,0.024734,-0.018661,1.012558,0.001073,0.028523,-0.016441,66.875366,11.330399,-147.710464,,,
729605433.344746,-0.60972,-1.211542,-11.526001,0.024734,-0.018661,1.012558,0.001073,0.028523,-0.016441,66.875366,11.330399,-147.710464,,,
729605433.348066,-0.610762,-1.203139,-11.530625,0.022781,-0.018524,1.007202,0.001073,0.028523,-0.016441,66.767654,11.242752,-147.550385,,,
729605433.351546,-0.61228,-1.196193,-11.536024,0.022781,-0.018524,1.007202,-0.011898,0.037148,-0.021133,66.767654,11.242752,-147.550385,,,
729605433.35479,-0.61228,-1.196193,-11.536024,0.022781,-0.018524,1.007202,-0.011898,0.037148,-0.021133,66.767654,11.242752,-147.550385,,,
729605433.358141,-0.617013,-1.185316,-11.542499,0.025818,-0.017105,1.002319,-0.011898,0.037148,-0.021133,66.767654,11.242752,-147.550385,,,
729605433.361443,-0.621026,-1.175932,-11.550685,0.025818,-0.017105,1.002319,-0.02251,0.046005,-0.031146,66.767654,11.242752,-147.550385,,,
729605433.364752,-0.621026,-1.175932,-11.550685,0.025818,-0.017105,1.002319,-0.02251,0.046005,-0.031146,66.767654,11.242752,-147.550385,,,
729605433.368213,-0.628096,-1.164866,-11.559802,0.024857,-0.018295,1.000092,-0.02251,0.046005,-0.031146,66.767654,11.242752,-147.550385,,,
729605433.371384,-0.634413,-1.15831,-11.569976,0.024857,-0.018295,1.000092,-0.029903,0.029763,-0.037273,66.767654,11.242752,-147.550385,,,
729605433.374818,-0.634413,-1.15831,-11.569976,0.024857,-0.018295,1.000092,-0.029903,0.029763,-0.037273,66.767654,11.242752,-147.550385,,,
729605433.37808,-0.642825,-1.151871,-11.581091,0.022003,-0.014877,0.99527,-0.029903,0.029763,-0.037273,66.767654,11.242752,-147.550385,,,
729605433.381398,-0.650526,-1.147892,-11.593038,0.022003,-0.014877,0.99527,-0.029312,0.017848,-0.043065,66.767654,11.242752,-147.550385,,,
729605433.384783,-0.650526,-1.147892,-11.593038,0.022003,-0.014877,0.99527,-0.029312,0.017848,-0.043065,66.767654,11.242752,-147.550385,,,
729605433.388085,-0.659303,-1.145013,-11.605671,0.019745,-0.010406,0.993652,-0.029312,0.017848,-0.043065,66.767654,11.242752,-147.550385,,,
729605433.3914,-0.669554,-1.144148,-11.618588,0.019745,-0.010406,0.993652,-0.034131,0.005168,-0.046365,66.912735,11.292572,-147.650024,,,
729605433.394745,-0.669554,-1.144148,-11.618588,0.019745,-0.010406,0.993652,-0.034131,0.005168,-0.046365,66.912735,11.292572,-147.650024,,,
729605433.39815,-0.679363,-1.144758,-11.632156,0.016418,-0.011734,0.993073,-0.034131,0.005168,-0.046365,66.912735,11.292572,-147.650024,,,
729605433.401422,-0.68945,-1.14912,-11.646339,0.016418,-0.011734,0.993073,-0.032349,-0.009956,-0.048683,66.912735,11.292572,-147.650024,,,
729605433.404756,-0.68945,-1.14912,-11.646339,0.016418,-0.011734,0.993073,-0.032349,-0.009956,-0.048683,66.912735,11.292572,-147.650024,,,
729605433.408096,-0.697437,-1.153958,-11.661056,0.017471,-0.010498,0.992386,-0.032349,-0.009956,-0.048683,66.912735,11.292572,-147.650024,,,
729605433.411391,-0.704252,-1.160913,-11.676392,0.017471,-0.010498,0.992386,-0.021772,-0.017406,-0.055791,66.912735,11.292572,-147.650024,,,
729605433.414756,-0.704252,-1.160913,-11.676392,0.017471,-0.010498,0.992386,-0.021772,-0.017406,-0.055791,66.912735,11.292572,-147.650024,,,
729605433.418087,-0.708573,-1.167055,-11.692156,0.0242,-0.004898,0.997406,-0.021772,-0.017406,-0.055791,66.912735,11.292572,-147.650024,,,
729605433.421424,-0.711583,-1.172499,-11.706997,0.0242,-0.004898,0.997406,-0.007808,-0.010367,-0.051832,66.912735,11.292572,-147.650024,,,
729605433.424759,-0.711583,-1.172499,-11.706997,0.0242,-0.004898,0.997406,-0.007808,-0.010367,-0.051832,66.912735,11.292572,-147.650024,,,
729605433.428091,-0.711463,-1.175556,-11.720158,0.020493,-0.007294,1.00383,-0.007808,-0.010367,-0.051832,66.912735,11.292572,-147.650024,,,
729605433.431403,-0.710145,-1.177219,-11.731908,0.020493,-0.007294,1.00383,0.009499,-0.001006,-0.040225,66.959503,11.374619,-147.723694,,,
729605433.43484,-0.710145,-1.177219,-11.731908,0.020493,-0.007294,1.00383,0.009499,-0.001006,-0.040225,66.959503,11.374619,-147.723694,,,
729605433.438068,-0.705541,-1.177621,-11.742238,0.018875,-0.012558,1.00502,0.009499,-0.001006,-0.040225,66.959503,11.374619,-147.723694,,,
729605433.441399,-0.699914,-1.179017,-11.752089,0.018875,-0.012558,1.00502,0.024204,0.000236,-0.036684,66.959503,11.374619,-147.723694,,,
729605433.444755,-0.699914,-1.179017,-11.752089,0.018875,-0.012558,1.00502,0.024204,0.000236,-0.036684,66.959503,11.374619,-147.723694,,,
729605433.44811,-0.692632,-1.180072,-11.762365,0.021225,-0.009583,1.003922,0.024204,0.000236,-0.036684,66.959503,11.374619,-147.723694,,,
729605433.451429,-0.686116,-1.181092,-11.772862,0.021225,-0.009583,1.003922,0.024011,0.002408,-0.039191,66.959503,11.374619,-147.723694,,,
729605433.454753,-0.686116,-1.181092,-11.772862,0.021225,-0.009583,1.003922,0.024011,0.002408,-0.039191,66.959503,11.374619,-147.723694,,,
729605433.458164,-0.680398,-1.179868,-11.783295,0.016907,-0.007431,1.000977,0.024011,0.002408,-0.039191,66.959503,11.374619,-147.723694,,,
729605433.461392,-0.678144,-1.176664,-11.793467,0.016907,-0.007431,1.000977,0.004746,0.02018,-0.035272,66.959503,11.374619,-147.723694,,,
729605433.46475,-0.678144,-1.176664,-11.793467,0.016907,-0.007431,1.000977,0.004746,0.02018,-0.035272,66.959503,11.374619,-147.723694,,,
729605433.46808,-0.679016,-1.17159,-11.803582,0.013016,-0.002747,0.992844,0.004746,0.02018,-0.035272,66.959503,11.374619,-147.723694,,,
729605433.471405,-0.683501,-1.164951,-11.814112,0.013016,-0.002747,0.992844,-0.022023,0.025087,-0.037634,67.195023,11.345779,-147.667007,,,
729605433.474744,-0.683501,-1.164951,-11.814112,0.013016,-0.002747,0.992844,-0.022023,0.025087,-0.037634,67.195023,11.345779,-147.667007,,,
729605433.478082,-0.692344,-1.157364,-11.824929,0.015961,6.1e-05,0.985809,-0.022023,0.025087,-0.037634,67.195023,11.345779,-147.667007,,,
729605433.481395,-0.704153,-1.149454,-11.836317,0.015961,6.1e-05,0.985809,-0.043688,0.026298,-0.039645,67.195023,11.345779,-147.667007,,,
729605433.484805,-0.704153,-1.149454,-11.836317,0.015961,6.1e-05,0.985809,-0.043688,0.026298,-0.039645,67.195023,11.345779,-147.667007,,,
729605433.488076,-0.717305,-1.14378,-11.848126,0.017792,-0.000946,0.986847,-0.043688,0.026298,-0.039645,67.195023,11.345779,-147.667007,,,
729605433.491399,-0.729683,-1.140113,-11.860433,0.017792,-0.000946,0.986847,-0.049715,0.015989,-0.044281,67.195023,11.345779,-147.667007,,,
729605433.494731,-0.729683,-1.140113,-11.860433,0.017792,-0.000946,0.986847,-0.049715,0.015989,-0.044281,67.195023,11.345779,-147.667007,,,
729605433.498062,-0.741537,-1.138505,-11.872932,0.013077,-0.007797,0.994858,-0.049715,0.015989,-0.044281,67.195023,11.345779,-147.667007,,,
729605433.501398,-0.750205,-1.13982,-11.885377,0.013077,-0.007797,0.994858,-0.031408,-0.003056,-0.043792,67.195023,11.345779,-147.667007,,,
729605433.504742,-0.750205,-1.13982,-11.885377,0.013077,-0.007797,0.994858,-0.031408,-0.003056,-0.043792,67.195023,11.345779,-147.667007,,,
729605433.508158,-0.757926,-1.143547,-11.897607,0.008911,-0.014771,1.005768,-0.031408,-0.003056,-0.043792,67.195023,11.345779,-147.667007,,,
729605433.511454,-0.757926,-1.143547,-11.897607,0.008911,-0.014771,1.005768,-0.012624,-0.023654,-0.03814,67.102036,11.334579,-147.63884,,,
729605433.514729,-0.762479,-1.149815,-11.908632,0.008911,-0.014771,1.005768,-0.012624,-0.023654,-0.03814,67.102036,11.334579,-147.63884,,,
729605433.518067,-0.76562,-1.158115,-11.918592,0.010483,-0.017609,1.001846,-0.012624,-0.023654,-0.03814,67.102036,11.334579,-147.63884,,,
729605433.521423,-0.766771,-1.167492,-11.927613,0.010483,-0.017609,1.001846,-0.00444,-0.03086,-0.031774,67.102036,11.334579,-147.63884,,,
729605433.524745,-0.766771,-1.167492,-11.927613,0.010483,-0.017609,1.001846,-0.00444,-0.03086,-0.031774,67.102036,11.334579,-147.63884,,,
729605433.528082,-0.766441,-1.176785,-11.935572,0.011612,-0.016525,1.005356,-0.00444,-0.03086,-0.031774,67.102036,11.334579,-147.63884,,,
729605433.531396,-0.766441,-1.176785,-11.935572,0.011612,-0.016525,1.005356,0.009844,-0.019888,-0.024981,67.102036,11.334579,-147.63884,,,
729605433.534788,-0.763557,-1.184016,-11.942343,0.011612,-0.016525,1.005356,0.009844,-0.019888,-0.024981,67.102036,11.334579,-147.63884,,,
729605433.538073,-0.759691,-1.188431,-11.947319,0.012115,-0.019516,1.012985,0.009844,-0.019888,-0.024981,67.102036,11.334579,-147.63884,,,
729605433.541399,-0.75322,-1.188622,-11.950792,0.012115,-0.019516,1.012985,0.019972,0.00294,-0.015222,67.102036,11.334579,-147.63884,,,
729605433.544735,-0.75322,-1.188622,-11.950792,0.012115,-0.019516,1.012985,0.019972,0.00294,-0.015222,67.102036,11.334579,-147.63884,,,
729605433.548133,-0.745953,-1.186759,-11.953447,0.016205,-0.017776,1.015732,0.019972,0.00294,-0.015222,67.102036,11.334579,-147.63884,,,
729605433.551383,-0.745953,-1.186759,-11.953447,0.016205,-0.017776,1.015732,0.031124,0.02169,-0.006385,67.102036,11.334579,-147.63884,,,
729605433.554735,-0.735751,-1.181039,-11.955072,0.016205,-0.017776,1.015732,0.031124,0.02169,-0.006385,66.881958,11.062943,-147.393616,,,
729605433.55806,-0.727554,-1.172423,-11.955717,0.020691,-0.016525,1.014297,0.031124,0.02169,-0.006385,66.881958,11.062943,-147.393616,,,
729605433.561403,-0.717728,-1.159389,-11.955277,0.020691,-0.016525,1.014297,0.027997,0.050094,0.001618,66.881958,11.062943,-147.393616,,,
729605433.564737,-0.717728,-1.159389,-11.955277,0.020691,-0.016525,1.014297,0.027997,0.050094,0.001618,66.881958,11.062943,-147.393616,,,
729605433.568083,-0.710546,-1.143281,-11.954173,0.021332,-0.016479,1.005264,0.027997,0.050094,0.001618,66.881958,11.062943,-147.393616,,,
729605433.571385,-0.710546,-1.143281,-11.954173,0.021332,-0.016479,1.005264,0.020858,0.07019,0.001866,66.881958,11.062943,-147.393616,,,
729605433.574753,-0.703,-1.124069,-11.953298,0.021332,-0.016479,1.005264,0.020858,0.07019,0.001866,66.881958,11.062943,-147.393616,,,
729605433.578082,-0.698195,-1.105222,-11.953351,0.025131,-0.009964,0.996078,0.020858,0.07019,0.001866,66.881958,11.062943,-147.393616,,,
729605433.581388,-0.698195,-1.105222,-11.953351,0.025131,-0.009964,0.996078,0.012406,0.061406,-0.010288,66.881958,11.062943,-147.393616,,,
729605433.584809,-0.694535,-1.086632,-11.955397,0.025131,-0.009964,0.996078,0.012406,0.061406,-0.010288,66.881958,11.062943,-147.393616,,,
729605433.58807,-0.692686,-1.071673,-11.959948,0.031906,-0.003922,0.983246,0.012406,0.061406,-0.010288,66.881958,11.062943,-147.393616,,,
729605433.591392,-0.692686,-1.071673,-11.959948,0.031906,-0.003922,0.983246,-0.001177,0.044669,-0.025682,66.881958,11.062943,-147.393616,,,
729605433.594741,-0.693102,-1.058309,-11.966474,0.031906,-0.003922,0.983246,-0.001177,0.044669,-0.025682,67.237915,11.11322,-147.667267,,,
729605433.598138,-0.69457,-1.048783,-11.974849,0.029114,-0.004257,0.977859,-0.001177,0.044669,-0.025682,67.237915,11.11322,-147.667267,,,
729605433.60139,-0.69457,-1.048783,-11.974849,0.029114,-0.004257,0.977859,-0.009926,0.030175,-0.038611,67.237915,11.11322,-147.667267,,,
729605433.604764,-0.698171,-1.039853,-11.984915,0.029114,-0.004257,0.977859,-0.009926,0.030175,-0.038611,67.237915,11.11322,-147.667267,,,
729605433.608077,-0.702147,-1.034165,-11.996334,0.02597,-0.006699,0.97847,-0.009926,0.030175,-0.038611,67.237915,11.11322,-147.667267,,,
729605433.611415,-0.702147,-1.034165,-11.996334,0.02597,-0.006699,0.97847,-0.014434,0.015111,-0.040631,67.237915,11.11322,-147.667267,,,
729605433.614753,-0.707291,-1.030011,-12.008041,0.02597,-0.006699,0.97847,-0.014434,0.015111,-0.040631,67.237915,11.11322,-147.667267,,,
729605433.618061,-0.710742,-1.028479,-12.018505,0.020264,-0.010849,0.980927,-0.014434,0.015111,-0.040631,67.237915,11.11322,-147.667267,,,
729605433.621444,-0.710742,-1.028479,-12.018505,0.020264,-0.010849,0.980927,-0.009346,0.007287,-0.030041,67.237915,11.11322,-147.667267,,,
729605433.624798,-0.714574,-1.026938,-12.027092,0.020264,-0.010849,0.980927,-0.009346,0.007287,-0.030041,67.237915,11.11322,-147.667267,,,
729605433.628085,-0.716929,-1.026279,-12.033224,0.01358,-0.013412,0.990158,-0.009346,0.007287,-0.030041,67.237915,11.11322,-147.667267,,,
729605433.631442,-0.716929,-1.026279,-12.033224,0.01358,-0.013412,0.990158,-0.009151,0.003052,-0.014969,67.237915,11.11322,-147.667267,,,
729605433.634744,-0.720233,-1.02628,-12.037384,0.01358,-0.013412,0.990158,-0.009151,0.003052,-0.014969,67.208038,11.095337,-147.721344,,,
729605433.638085,-0.723889,-1.026788,-12.039811,0.011459,-0.01683,0.989426,-0.009151,0.003052,-0.014969,67.208038,11.095337,-147.721344,,,
729605433.641443,-0.723889,-1.026788,-12.039811,0.011459,-0.01683,0.989426,-0.014475,0.004199,-0.0006,67.208038,11.095337,-147.721344,,,
729605433.644788,-0.728674,-1.026708,-12.040252,0.011459,-0.01683,0.989426,-0.014475,0.004199,-0.0006,67.208038,11.095337,-147.721344,,,
729605433.648067,-0.732981,-1.023519,-12.039592,0.012527,-0.016891,0.991074,-0.014475,0.004199,-0.0006,67.208038,11.095337,-147.721344,,,
729605433.651417,-0.732981,-1.023519,-12.039592,0.012527,-0.016891,0.991074,-0.014475,0.004199,-0.0006,67.208038,11.095337,-147.721344,,,
729605433.654837,-0.736438,-1.017918,-12.038213,0.012527,-0.016891,0.991074,-0.007777,0.025848,0.003878,67.208038,11.095337,-147.721344,,,
729605433.658076,-0.737863,-1.009404,-12.035723,0.018173,-0.012939,1.01123,-0.007777,0.025848,0.003878,67.208038,11.095337,-147.721344,,,
729605433.661415,-0.737863,-1.009404,-12.035723,0.018173,-0.012939,1.01123,-0.002947,0.040531,0.009695,67.208038,11.095337,-147.721344,,,
729605433.664738,-0.737912,-1.001405,-12.032493,0.018173,-0.012939,1.01123,-0.002947,0.040531,0.009695,67.208038,11.095337,-147.721344,,,
729605433.668066,-0.739477,-0.991264,-12.028549,0.019882,-0.012329,1.007095,-0.002947,0.040531,0.009695,67.208038,11.095337,-147.721344,,,
729605433.671456,-0.739477,-0.991264,-12.028549,0.019882,-0.012329,1.007095,-0.002947,0.040531,0.009695,67.208038,11.095337,-147.721344,,,
729605433.674791,-0.740262,-0.982501,-12.024528,0.019882,-0.012329,1.007095,-0.004912,0.041859,0.012361,67.208038,11.095337,-147.721344,,,
729605433.678194,-0.743581,-0.970904,-12.021097,0.020798,-0.012543,0.997299,-0.004912,0.041859,0.012361,67.101517,11.288422,-147.955872,,,
729605433.681422,-0.743581,-0.970904,-12.021097,0.020798,-0.012543,0.997299,-0.004912,0.041859,0.012361,67.101517,11.288422,-147.955872,,,
729605433.684741,-0.746833,-0.961358,-12.01896,0.020798,-0.012543,0.997299,-0.01694,0.041859,0.001827,67.101517,11.288422,-147.955872,,,
729605433.688148,-0.752368,-0.951722,-12.019429,0.026718,-0.006866,0.995926,-0.01694,0.041859,0.001827,67.101517,11.288422,-147.955872,,,
729605433.691445,-0.752368,-0.951722,-12.019429,0.026718,-0.006866,0.995926,-0.01694,0.041859,0.001827,67.101517,11.288422,-147.955872,,,
729605433.694726,-0.758904,-0.946073,-12.022081,0.026718,-0.006866,0.995926,-0.025674,0.0244,-0.012082,67.101517,11.288422,-147.955872,,,
729605433.698166,-0.767293,-0.942706,-12.026005,0.024796,-0.00058,0.989319,-0.025674,0.0244,-0.012082,67.101517,11.288422,-147.955872,,,
729605433.70141,-0.767293,-0.942706,-12.026005,0.024796,-0.00058,0.989319,-0.025674,0.0244,-0.012082,67.101517,11.288422,-147.955872,,,
729605433.70474,-0.776485,-0.942874,-12.031199,0.024796,-0.00058,0.989319,-0.034814,0.002612,-0.021742,67.101517,11.288422,-147.955872,,,
729605433.708075,-0.786449,-0.9462,-12.037241,0.020523,-0.001236,0.989166,-0.034814,0.002612,-0.021742,67.101517,11.288422,-147.955872,,,
729605433.711517,-0.786449,-0.9462,-12.037241,0.020523,-0.001236,0.989166,-0.034814,0.002612,-0.021742,67.101517,11.288422,-147.955872,,,
729605433.714736,-0.796762,-0.952107,-12.044161,0.020523,-0.001236,0.989166,-0.037912,-0.021645,-0.029933,67.101517,11.288422,-147.955872,,,
729605433.718155,-0.807573,-0.960957,-12.051903,0.021835,-0.001587,0.989517,-0.037912,-0.021645,-0.029933,67.396591,11.287857,-147.800323,,,
729605433.721468,-0.807573,-0.960957,-12.051903,0.021835,-0.001587,0.989517,-0.044304,-0.030172,-0.028064,67.396591,11.287857,-147.800323,,,
729605433.724725,-0.820047,-0.969908,-12.059455,0.021835,-0.001587,0.989517,-0.044304,-0.030172,-0.028064,67.396591,11.287857,-147.800323,,,
729605433.728093,-0.834071,-0.978868,-12.066229,0.018005,-0.003006,0.986755,-0.044304,-0.030172,-0.028064,67.396591,11.287857,-147.800323,,,
729605433.731432,-0.834071,-0.978868,-12.066229,0.018005,-0.003006,0.986755,-0.044304,-0.030172,-0.028064,67.396591,11.287857,-147.800323,,,
729605433.734782,-0.849244,-0.984954,-12.071344,0.018005,-0.003006,0.986755,-0.051152,-0.017051,-0.015585,67.396591,11.287857,-147.800323,,,
729605433.738073,-0.863002,-0.988666,-12.074647,0.011154,-0.009033,0.992661,-0.051152,-0.017051,-0.015585,67.396591,11.287857,-147.800323,,,
729605433.741397,-0.863002,-0.988666,-12.074647,0.011154,-0.009033,0.992661,-0.051152,-0.017051,-0.015585,67.396591,11.287857,-147.800323,,,
729605433.74473,-0.874352,-0.990126,-12.076541,0.011154,-0.009033,0.992661,-0.041592,-0.002421,-0.005612,67.396591,11.287857,-147.800323,,,
729605433.748077,-0.883917,-0.989877,-12.076666,0.012253,-0.011719,1.004013,-0.041592,-0.002421,-0.005612,67.396591,11.287857,-147.800323,,,
729605433.751387,-0.883917,-0.989877,-12.076666,0.012253,-0.011719,1.004013,-0.041592,-0.002421,-0.005612,67.396591,11.287857,-147.800323,,,
729605433.754793,-0.891515,-0.989527,-12.074673,0.012253,-0.011719,1.004013,-0.026424,0.005411,0.010413,67.396591,11.287857,-147.800323,,,
729605433.758095,-0.899132,-0.987549,-12.070715,0.013504,-0.012848,0.999527,-0.026424,0.005411,0.010413,67.117798,11.54422,-147.989288,,,
729605433.761555,-0.899132,-0.987549,-12.070715,0.013504,-0.012848,0.999527,-0.026424,0.005411,0.010413,67.117798,11.54422,-147.989288,,,
729605433.764742,-0.907011,-0.98273,-12.065544,0.013504,-0.012848,0.999527,-0.030811,0.024909,0.021508,67.117798,11.54422,-147.989288,,,
729605433.768066,-0.917552,-0.972337,-12.059519,0.009323,-0.013977,0.998474,-0.030811,0.024909,0.021508,67.117798,11.54422,-147.989288,,,
729605433.771424,-0.917552,-0.972337,-12.059519,0.009323,-0.013977,0.998474,-0.030811,0.024909,0.021508,67.117798,11.54422,-147.989288,,,
729605433.774725,-0.928685,-0.961496,-12.053366,0.009323,-0.013977,0.998474,-0.046073,0.04704,0.02226,67.117798,11.54422,-147.989288,,,
729605433.778072,-0.943369,-0.950992,-12.04825,0.019852,-0.008987,0.995636,-0.046073,0.04704,0.02226,67.117798,11.54422,-147.989288,,,
729605433.781386,-0.943369,-0.950992,-12.04825,0.019852,-0.008987,0.995636,-0.046073,0.04704,0.02226,67.117798,11.54422,-147.989288,,,
729605433.784827,-0.95694,-0.94579,-12.044589,0.019852,-0.008987,0.995636,-0.055429,0.019038,0.009716,67.117798,11.54422,-147.989288,,,
729605433.788057,-0.973528,-0.94332,-12.043013,0.026138,-0.00473,0.988968,-0.055429,0.019038,0.009716,67.117798,11.54422,-147.989288,,,
729605433.791404,-0.973528,-0.94332,-12.043013,0.026138,-0.00473,0.988968,-0.055429,0.019038,0.009716,67.117798,11.54422,-147.989288,,,
729605433.794739,-0.987818,-0.944244,-12.044143,0.026138,-0.00473,0.988968,-0.056097,0.00084,-0.006149,67.117798,11.54422,-147.989288,,,
729605433.798061,-1.00408,-0.946727,-12.047897,0.021301,-0.0056,1.001602,-0.056097,0.00084,-0.006149,67.383163,11.405365,-147.781189,,,
729605433.801388,-1.00408,-0.946727,-12.047897,0.021301,-0.0056,1.001602,-0.056097,0.00084,-0.006149,67.383163,11.405365,-147.781189,,,
729605433.80473,-1.017274,-0.952196,-12.053708,0.021301,-0.0056,1.001602,-0.053422,-0.013683,-0.023133,67.383163,11.405365,-147.781189,,,
729605433.808057,-1.030804,-0.958508,-12.0605,0.019867,-0.010574,1.009338,-0.053422,-0.013683,-0.023133,67.383163,11.405365,-147.781189,,,
729605433.811404,-1.030804,-0.958508,-12.0605,0.019867,-0.010574,1.009338,-0.053422,-0.013683,-0.023133,67.383163,11.405365,-147.781189,,,
729605433.814722,-1.038952,-0.964243,-12.067612,0.019867,-0.010574,1.009338,-0.030073,-0.017442,-0.0268,67.383163,11.405365,-147.781189,,,
729605433.818058,-1.046334,-0.96855,-12.074782,0.019043,-0.016541,1.021271,-0.030073,-0.017442,-0.0268,67.383163,11.405365,-147.781189,,,
729605433.821388,-1.046334,-0.96855,-12.074782,0.019043,-0.016541,1.021271,-0.030073,-0.017442,-0.0268,67.383163,11.405365,-147.781189,,,
729605433.824735,-1.051033,-0.969891,-12.08119,0.019043,-0.016541,1.021271,-0.018244,-0.00344,-0.022428,67.383163,11.405365,-147.781189,,,
729605433.828067,-1.055429,-0.969792,-12.086478,0.024704,-0.018875,1.025146,-0.018244,-0.00344,-0.022428,67.383163,11.405365,-147.781189,,,
729605433.831387,-1.055429,-0.969792,-12.086478,0.024704,-0.018875,1.025146,-0.018244,-0.00344,-0.022428,67.383163,11.405365,-147.781189,,,
729605433.834733,-1.057671,-0.965958,-12.09085,0.024704,-0.018875,1.025146,-0.010639,0.018141,-0.017917,67.383163,11.405365,-147.781189,,,
729605433.838056,-1.060597,-0.958776,-12.094416,0.025101,-0.019012,1.016479,-0.010639,0.018141,-0.017917,67.383163,11.405365,-147.781189,,,
729605433.84141,-1.060597,-0.958776,-12.094416,0.025101,-0.019012,1.016479,-0.010639,0.018141,-0.017917,67.166367,11.49202,-147.548615,,,
729605433.844724,-1.062326,-0.948011,-12.097421,0.025101,-0.019012,1.016479,-0.005999,0.040342,-0.013448,67.166367,11.49202,-147.548615,,,
729605433.848052,-1.064272,-0.937821,-12.100691,0.02243,-0.014221,1.016998,-0.005999,0.040342,-0.013448,67.166367,11.49202,-147.548615,,,
729605433.851389,-1.064272,-0.937821,-12.100691,0.02243,-0.014221,1.016998,-0.005999,0.040342,-0.013448,67.166367,11.49202,-147.548615,,,
729605433.854729,-1.065703,-0.92805,-12.104506,0.02243,-0.014221,1.016998,-0.005604,0.032462,-0.014429,67.166367,11.49202,-147.548615,,,
729605433.858057,-1.066481,-0.920236,-12.108229,0.014847,-0.015579,1.009857,-0.005604,0.032462,-0.014429,67.166367,11.49202,-147.548615,,,
729605433.861415,-1.066481,-0.920236,-12.108229,0.014847,-0.015579,1.009857,-0.005604,0.032462,-0.014429,67.166367,11.49202,-147.548615,,,
729605433.864726,-1.06333,-0.915411,-12.111506,0.014847,-0.015579,1.009857,0.006642,0.024562,-0.013539,67.166367,11.49202,-147.548615,,,
729605433.867971,-1.05978,-0.912572,-12.113821,0.005157,-0.026657,1.01445,0.006642,0.024562,-0.013539,67.166367,11.49202,-147.548615,,,
729605433.871468,-1.05978,-0.912572,-12.113821,0.005157,-0.026657,1.01445,0.006642,0.024562,-0.013539,67.166367,11.49202,-147.548615,,,
729605433.87472,-1.052558,-0.914778,-12.115728,0.005157,-0.026657,1.01445,0.019326,-0.00289,-0.010233,67.166367,11.49202,-147.548615,,,
729605433.878076,-1.047352,-0.918323,-12.118353,0.00975,-0.028259,1.007324,0.019326,-0.00289,-0.010233,67.166367,11.49202,-147.548615,,,
729605433.881391,-1.047352,-0.918323,-12.118353,0.00975,-0.028259,1.007324,0.019326,-0.00289,-0.010233,67.184906,11.491058,-147.736664,,,
729605433.884719,-1.040149,-0.922732,-12.122694,0.00975,-0.028259,1.007324,0.01922,-0.009602,-0.019303,67.184906,11.491058,-147.736664,,,
729605433.888067,-1.034416,-0.92548,-12.129169,0.020889,-0.019196,1.011948,0.01922,-0.009602,-0.019303,67.184906,11.491058,-147.736664,,,
729605433.891399,-1.034416,-0.92548,-12.129169,0.020889,-0.019196,1.011948,0.01922,-0.009602,-0.019303,67.184906,11.491058,-147.736664,,,
729605433.894738,-1.027833,-0.927743,-12.13722,0.020889,-0.019196,1.011948,0.021806,-0.003232,-0.031296,67.184906,11.491058,-147.736664,,,
729605433.898075,-1.021996,-0.928787,-12.146099,0.018311,-0.013763,1.009399,0.021806,-0.003232,-0.031296,67.184906,11.491058,-147.736664,,,
729605433.901393,-1.021996,-0.928787,-12.146099,0.018311,-0.013763,1.009399,0.021806,-0.003232,-0.031296,67.184906,11.491058,-147.736664,,,
729605433.904726,-1.016476,-0.92985,-12.15506,0.018311,-0.013763,1.009399,0.019274,0.00044,-0.031159,67.184906,11.491058,-147.736664,,,
729605433.908065,-1.011872,-0.929697,-12.163265,0.014297,-0.020126,0.998291,0.019274,0.00044,-0.031159,67.184906,11.491058,-147.736664,,,
729605433.911387,-1.011872,-0.929697,-12.163265,0.014297,-0.020126,0.998291,0.019274,0.00044,-0.031159,67.184906,11.491058,-147.736664,,,
729605433.914725,-1.008119,-0.930708,-12.170791,0.014297,-0.020126,0.998291,0.015153,0.004231,-0.027773,67.184906,11.491058,-147.736664,,,
729605433.918163,-1.005175,-0.930568,-12.178255,0.014069,-0.022354,0.995178,0.015153,0.004231,-0.027773,67.184906,11.491058,-147.736664,,,
729605433.92139,-1.005175,-0.930568,-12.178255,0.014069,-0.022354,0.995178,0.015153,0.004231,-0.027773,67.322464,11.478531,-147.648987,,,
729605433.924795,-1.003451,-0.932286,-12.185685,0.014069,-0.022354,0.995178,0.006027,0.00159,-0.024419,67.322464,11.478531,-147.648987,,,
729605433.92806,-1.00184,-0.933749,-12.192919,0.013718,-0.020569,0.991241,0.006027,0.00159,-0.024419,67.322464,11.478531,-147.648987,,,
729605433.931394,-1.00184,-0.933749,-12.192919,0.013718,-0.020569,0.991241,0.006027,0.00159,-0.024419,67.322464,11.478531,-147.648987,,,
729605433.934732,-0.998027,-0.936855,-12.199718,0.013718,-0.020569,0.991241,0.012451,-0.006345,-0.024889,67.322464,11.478531,-147.648987,,,
729605433.938062,-0.993174,-0.941076,-12.20552,0.008118,-0.018311,0.994141,0.012451,-0.006345,-0.024889,67.322464,11.478531,-147.648987,,,
729605433.941057,-0.993174,-0.941076,-12.20552,0.008118,-0.018311,0.994141,0.012451,-0.006345,-0.024889,67.322464,11.478531,-147.648987,,,
729605433.944786,-0.986089,-0.945299,-12.210347,0.008118,-0.018311,0.994141,0.029258,-0.011549,-0.01933,67.322464,11.478531,-147.648987,,,
729605433.948098,-0.975695,-0.95061,-12.214606,0.001541,-0.020172,1.0009,0.029258,-0.011549,-0.01933,67.322464,11.478531,-147.648987,,,
729605433.951498,-0.975695,-0.95061,-12.214606,0.001541,-0.020172,1.0009,0.029258,-0.011549,-0.01933,67.322464,11.478531,-147.648987,,,
729605433.954728,-0.966243,-0.954388,-12.218432,0.001541,-0.020172,1.0009,0.041845,-0.014924,-0.016392,67.322464,11.478531,-147.648987,,,
729605433.958059,-0.954844,-0.958374,-12.221438,0.005569,-0.019577,0.998947,0.041845,-0.014924,-0.016392,67.322464,11.478531,-147.648987,,,
729605433.961403,-0.954844,-0.958374,-12.221438,0.005569,-0.019577,0.998947,0.041845,-0.014924,-0.016392,67.473038,11.469452,-147.705658,,,
729605433.964757,-0.943912,-0.959546,-12.2237,0.005569,-0.019577,0.998947,0.046292,0.001282,-0.009313,67.473038,11.469452,-147.705658,,,
729605433.968066,-0.931355,-0.958079,-12.224756,0.005722,-0.020126,0.995926,0.046292,0.001282,-0.009313,67.473038,11.469452,-147.705658,,,
729605433.971388,-0.931355,-0.958079,-12.224756,0.005722,-0.020126,0.995926,0.046292,0.001282,-0.009313,67.473038,11.469452,-147.705658,,,
729605433.97474,-0.919592,-0.954877,-12.224264,0.005722,-0.020126,0.995926,0.043082,0.01698,0.001553,67.473038,11.469452,-147.705658,,,
729605433.978172,-0.909783,-0.950672,-12.222918,0.006638,-0.014771,0.992661,0.043082,0.01698,0.001553,67.473038,11.469452,-147.705658,,,
729605433.981427,-0.909783,-0.950672,-12.222918,0.006638,-0.014771,0.992661,0.043082,0.01698,0.001553,67.473038,11.469452,-147.705658,,,
729605433.984737,-0.902405,-0.946839,-12.220958,0.006638,-0.014771,0.992661,0.024416,0.014603,0.005642,67.473038,11.469452,-147.705658,,,
729605433.988072,-0.898273,-0.942671,-12.21917,0.007111,-0.012512,0.978378,0.024416,0.014603,0.005642,67.473038,11.469452,-147.705658,,,
729605433.991391,-0.898273,-0.942671,-12.21917,0.007111,-0.012512,0.978378,0.024416,0.014603,0.005642,67.473038,11.469452,-147.705658,,,
729605433.994729,-0.898765,-0.937183,-12.218508,0.007111,-0.012512,0.978378,0.000319,0.022741,-0.000175,67.473038,11.469452,-147.705658,,,
729605433.998068,-0.901147,-0.93284,-12.219244,0.011581,-0.008789,0.979568,0.000319,0.022741,-0.000175,67.473038,11.469452,-147.705658,,,
729605434.001497,-0.901147,-0.93284,-12.219244,0.011581,-0.008789,0.979568,0.000319,0.022741,-0.000175,67.473038,11.469452,-147.705658,,,
729605434.004836,-0.906711,-0.931577,-12.221462,0.011581,-0.008789,0.979568,-0.01705,0.002172,-0.013285,67.486481,11.389923,-147.669586,,,
729605434.008056,-0.913813,-0.934791,-12.225196,0.01445,-0.005783,0.972519,-0.01705,0.002172,-0.013285,67.486481,11.389923,-147.669586,,,
729605434.011444,-0.913813,-0.934791,-12.225196,0.01445,-0.005783,0.972519,-0.01705,0.002172,-0.013285,67.486481,11.389923,-147.669586,,,
729605434.014726,-0.92315,-0.939583,-12.229754,0.01445,-0.005783,0.972519,-0.03272,-0.01666,-0.014889,67.486481,11.389923,-147.669586,,,
729605434.018061,-0.933242,-0.945767,-12.234759,0.012131,-0.006592,0.978912,-0.03272,-0.01666,-0.014889,67.486481,11.389923,-147.669586,,,
729605434.021388,-0.933242,-0.945767,-12.234759,0.012131,-0.006592,0.978912,-0.03272,-0.01666,-0.014889,67.486481,11.389923,-147.669586,,,
729605434.024737,-0.944185,-0.951272,-12.239712,0.012131,-0.006592,0.978912,-0.037115,-0.022285,-0.01938,67.486481,11.389923,-147.669586,,,
729605434.028099,-0.954116,-0.959465,-12.243965,0.01355,-0.011856,0.9897,-0.037115,-0.022285,-0.01938,67.486481,11.389923,-147.669586,,,
729605434.031141,-0.954116,-0.959465,-12.243965,0.01355,-0.011856,0.9897,-0.037115,-0.022285,-0.01938,67.486481,11.389923,-147.669586,,,
729605434.034851,-0.963765,-0.965355,-12.247237,0.01355,-0.011856,0.9897,-0.033697,-0.023046,-0.012142,67.486481,11.389923,-147.669586,,,
729605434.038059,-0.972709,-0.971882,-12.249497,0.01622,-0.018112,0.996765,-0.033697,-0.023046,-0.012142,67.486481,11.389923,-147.669586,,,
729605434.041395,-0.972709,-0.971882,-12.249497,0.01622,-0.018112,0.996765,-0.033697,-0.023046,-0.012142,67.486481,11.389923,-147.669586,,,
729605434.04474,-0.981856,-0.974371,-12.250005,0.01622,-0.018112,0.996765,-0.028988,-0.006557,-0.000795,67.324356,11.445862,-147.885345,,,
729605434.048191,-0.989672,-0.975428,-12.248575,0.016922,-0.021088,1.007202,-0.028988,-0.006557,-0.000795,67.324356,11.445862,-147.885345,,,
729605434.051391,-0.989672,-0.975428,-12.248575,0.016922,-0.021088,1.007202,-0.028988,-0.006557,-0.000795,67.324356,11.445862,-147.885345,,,
729605434.054738,-0.996215,-0.972583,-12.246292,0.016922,-0.021088,1.007202,-0.021613,0.010057,0.009216,67.324356,11.445862,-147.885345,,,
729605434.058198,-1.001917,-0.969605,-12.243515,0.019928,-0.016953,1.010651,-0.021613,0.010057,0.009216,67.324356,11.445862,-147.885345,,,
729605434.061457,-1.001917,-0.969605,-12.243515,0.019928,-0.016953,1.010651,-0.021613,0.010057,0.009216,67.324356,11.445862,-147.885345,,,
729605434.064766,-1.006294,-0.963599,-12.239941,0.019928,-0.016953,1.010651,-0.016212,0.022173,0.01375,67.324356,11.445862,-147.885345,,,
729605434.068131,-1.009619,-0.957982,-12.235891,0.021149,-0.018845,1.011414,-0.016212,0.022173,0.01375,67.324356,11.445862,-147.885345,,,
729605434.071395,-1.009619,-0.957982,-12.235891,0.021149,-0.018845,1.011414,-0.016212,0.022173,0.01375,67.324356,11.445862,-147.885345,,,
729605434.07477,-1.010845,-0.950418,-12.231635,0.021149,-0.018845,1.011414,-0.003704,0.025147,0.01343,67.324356,11.445862,-147.885345,,,
729605434.078067,-1.010897,-0.945155,-12.228024,0.018967,-0.020599,1.011719,-0.003704,0.025147,0.01343,67.324356,11.445862,-147.885345,,,
729605434.081389,-1.010897,-0.945155,-12.228024,0.018967,-0.020599,1.011719,-0.003704,0.025147,0.01343,67.324356,11.445862,-147.885345,,,
729605434.084737,-1.007021,-0.941935,-12.225836,0.018967,-0.020599,1.011719,0.010297,0.01217,0.004359,67.424194,11.52063,-147.670242,,,
729605434.08812,-1.003679,-0.941848,-12.225718,0.025284,-0.014267,1.010681,0.010297,0.01217,0.004359,67.424194,11.52063,-147.670242,,,
729605434.09139,-1.003679,-0.941848,-12.225718,0.025284,-0.014267,1.010681,0.010297,0.01217,0.004359,67.424194,11.52063,-147.670242,,,
729605434.094748,-0.997889,-0.943882,-12.227042,0.025284,-0.014267,1.010681,0.012496,-0.005279,-0.008259,67.424194,11.52063,-147.670242,,,
729605434.098081,-0.993968,-0.946829,-12.229283,0.020813,-0.01387,1.004578,0.012496,-0.005279,-0.008259,67.424194,11.52063,-147.670242,,,
729605434.101391,-0.993968,-0.946829,-12.229283,0.020813,-0.01387,1.004578,0.012496,-0.005279,-0.008259,67.424194,11.52063,-147.670242,,,
729605434.104726,-0.988965,-0.949356,-12.23167,0.020813,-0.01387,1.004578,0.015322,-0.00754,-0.007972,67.424194,11.52063,-147.670242,,,
729605434.10806,-0.98535,-0.953501,-12.232916,0.015137,-0.018997,1.008408,0.015322,-0.00754,-0.007972,67.424194,11.52063,-147.670242,,,
729605434.111498,-0.98535,-0.953501,-12.232916,0.015137,-0.018997,1.008408,0.015322,-0.00754,-0.007972,67.424194,11.52063,-147.670242,,,
729605434.114723,-0.981461,-0.958184,-12.232867,0.015137,-0.018997,1.008408,0.013506,-0.014618,0.00027,67.424194,11.52063,-147.670242,,,
729605434.118134,-0.97743,-0.962978,-12.231237,0.011124,-0.021423,1.00589,0.013506,-0.014618,0.00027,67.424194,11.52063,-147.670242,,,
729605434.121379,-0.97743,-0.962978,-12.231237,0.011124,-0.021423,1.00589,0.013506,-0.014618,0.00027,67.424194,11.52063,-147.670242,,,
729605434.124726,-0.973439,-0.966098,-12.228268,0.011124,-0.021423,1.00589,0.016059,-0.006611,0.008793,67.402008,11.266815,-147.594986,,,
729605434.128064,-0.96845,-0.967389,-12.225245,0.016083,-0.017105,1.009079,0.016059,-0.006611,0.008793,67.402008,11.266815,-147.594986,,,
729605434.131401,-0.96845,-0.967389,-12.225245,0.016083,-0.017105,1.009079,0.016059,-0.006611,0.008793,67.402008,11.266815,-147.594986,,,
729605434.134721,-0.963692,-0.966971,-12.223394,0.016083,-0.017105,1.009079,0.018915,0.004826,0.005368,67.402008,11.266815,-147.594986,,,
729605434.138147,-0.95831,-0.965502,-12.222634,0.02301,-0.008896,1.006683,0.018915,0.004826,0.005368,67.402008,11.266815,-147.594986,,,
729605434.141385,-0.95831,-0.965502,-12.222634,0.02301,-0.008896,1.006683,0.018915,0.004826,0.005368,67.402008,11.266815,-147.594986,,,
729605434.144734,-0.952854,-0.963512,-12.222954,0.02301,-0.008896,1.006683,0.018212,0.014536,-0.002946,67.402008,11.266815,-147.594986,,,
729605434.148171,-0.948665,-0.959553,-12.224009,0.024292,-0.009674,1.000763,0.018212,0.014536,-0.002946,67.402008,11.266815,-147.594986,,,
729605434.151385,-0.948665,-0.959553,-12.224009,0.024292,-0.009674,1.000763,0.018212,0.014536,-0.002946,67.402008,11.266815,-147.594986,,,
729605434.154731,-0.945785,-0.955644,-12.224975,0.024292,-0.009674,1.000763,0.01204,0.019568,-0.004015,67.402008,11.266815,-147.594986,,,
729605434.158056,-0.9428,-0.951397,-12.225739,0.020569,-0.010605,0.994232,0.01204,0.019568,-0.004015,67.402008,11.266815,-147.594986,,,
729605434.161391,-0.9428,-0.951397,-12.225739,0.020569,-0.010605,0.994232,0.01204,0.019568,-0.004015,67.402008,11.266815,-147.594986,,,
729605434.164733,-0.94008,-0.948284,-12.226919,0.020569,-0.010605,0.994232,0.008383,0.018124,-0.006037,67.402008,11.266815,-147.594986,,,
729605434.16806,-0.937226,-0.945551,-12.228497,0.0186,-0.010483,0.991287,0.008383,0.018124,-0.006037,67.414597,11.323547,-147.877686,,,
729605434.171386,-0.937226,-0.945551,-12.228497,0.0186,-0.010483,0.991287,0.008383,0.018124,-0.006037,67.414597,11.323547,-147.877686,,,
729605434.174729,-0.933797,-0.945599,-12.229567,0.0186,-0.010483,0.991287,0.014239,0.004804,-0.006061,67.414597,11.323547,-147.877686,,,
729605434.178057,-0.930509,-0.946098,-12.230032,0.012756,-0.010513,0.984512,0.014239,0.004804,-0.006061,67.414597,11.323547,-147.877686,,,
729605434.181386,-0.930509,-0.946098,-12.230032,0.012756,-0.010513,0.984512,0.014239,0.004804,-0.006061,67.414597,11.323547,-147.877686,,,
729605434.184728,-0.927292,-0.947414,-12.231276,0.012756,-0.010513,0.984512,0.010012,-1e-05,-0.007643,67.414597,11.323547,-147.877686,,,
729605434.188056,-0.924737,-0.947839,-12.233305,0.01123,-0.009644,0.983246,0.010012,-1e-05,-0.007643,67.414597,11.323547,-147.877686,,,
729605434.191388,-0.924737,-0.947839,-12.233305,0.01123,-0.009644,0.983246,0.010012,-1e-05,-0.007643,67.414597,11.323547,-147.877686,,,
729605434.194729,-0.923196,-0.946334,-12.235585,0.01123,-0.009644,0.983246,0.007111,0.009712,-0.011058,67.414597,11.323547,-147.877686,,,
729605434.198052,-0.920336,-0.94351,-12.237119,0.010208,-0.008972,0.985001,0.007111,0.009712,-0.011058,67.414597,11.323547,-147.877686,,,
729605434.201507,-0.920336,-0.94351,-12.237119,0.010208,-0.008972,0.985001,0.007111,0.009712,-0.011058,67.414597,11.323547,-147.877686,,,
729605434.204713,-0.91698,-0.939344,-12.237023,0.010208,-0.008972,0.985001,0.013895,0.017063,-0.000221,67.414597,11.323547,-147.877686,,,
729605434.208071,-0.91278,-0.935533,-12.23535,0.006577,-0.01384,0.98642,0.013895,0.017063,-0.000221,67.425491,11.347916,-147.638321,,,
729605434.211399,-0.91278,-0.935533,-12.23535,0.006577,-0.01384,0.98642,0.013895,0.017063,-0.000221,67.425491,11.347916,-147.638321,,,
729605434.214728,-0.909211,-0.931484,-12.231397,0.006577,-0.01384,0.98642,0.013719,0.017782,0.014517,67.425491,11.347916,-147.638321,,,
729605434.218062,-0.906582,-0.926044,-12.225653,0.007492,-0.013031,0.985016,0.013719,0.017782,0.014517,67.425491,11.347916,-147.638321,,,
729605434.221393,-0.906582,-0.926044,-12.225653,0.007492,-0.013031,0.985016,0.013719,0.017782,0.014517,67.425491,11.347916,-147.638321,,,
729605434.22473,-0.903112,-0.920152,-12.218851,0.007492,-0.013031,0.985016,0.007924,0.030846,0.02062,67.425491,11.347916,-147.638321,,,
729605434.228083,-0.901224,-0.911962,-12.211986,0.007156,-0.009354,0.988251,0.007924,0.030846,0.02062,67.425491,11.347916,-147.638321,,,
729605434.231437,-0.901224,-0.911962,-12.211986,0.007156,-0.009354,0.988251,0.007924,0.030846,0.02062,67.425491,11.347916,-147.638321,,,
729605434.234735,-0.898863,-0.905403,-12.206148,0.007156,-0.009354,0.988251,0.007888,0.026408,0.018842,67.425491,11.347916,-147.638321,,,
729605434.238073,-0.897775,-0.89961,-12.20121,0.010086,-0.007126,0.98526,0.007888,0.026408,0.018842,67.425491,11.347916,-147.638321,,,
729605434.241393,-0.897775,-0.89961,-12.20121,0.010086,-0.007126,0.98526,0.007888,0.026408,0.018842,67.425491,11.347916,-147.638321,,,
729605434.244818,-0.896918,-0.895798,-12.196872,0.010086,-0.007126,0.98526,0.000881,0.016672,0.012432,67.425491,11.347916,-147.638321,,,
729605434.248055,-0.897979,-0.891598,-12.193463,0.012161,-0.007904,0.982758,0.000881,0.016672,0.012432,67.399368,11.354828,-147.67131,,,
729605434.251397,-0.897979,-0.891598,-12.193463,0.012161,-0.007904,0.982758,0.000881,0.016672,0.012432,67.399368,11.354828,-147.67131,,,
729605434.25473,-0.89919,-0.887838,-12.190757,0.012161,-0.007904,0.982758,-0.005945,0.015777,0.006542,67.399368,11.354828,-147.67131,,,
729605434.258155,-0.903127,-0.885385,-12.188569,0.014862,-0.008865,0.985153,-0.005945,0.015777,0.006542,67.399368,11.354828,-147.67131,,,
729605434.261456,-0.903127,-0.885385,-12.188569,0.014862,-0.008865,0.985153,-0.005945,0.015777,0.006542,67.399368,11.354828,-147.67131,,,
729605434.26473,-0.908687,-0.883967,-12.186254,0.014862,-0.008865,0.985153,-0.02512,0.008423,0.006272,67.399368,11.354828,-147.67131,,,
729605434.268113,-0.916749,-0.883405,-12.183849,0.018036,-0.011261,0.980057,-0.02512,0.008423,0.006272,67.399368,11.354828,-147.67131,,,
729605434.271391,-0.916749,-0.883405,-12.183849,0.018036,-0.011261,0.980057,-0.02512,0.008423,0.006272,67.399368,11.354828,-147.67131,,,
729605434.274756,-0.924558,-0.882546,-12.182056,0.018036,-0.011261,0.980057,-0.031685,0.005039,0.005554,67.399368,11.354828,-147.67131,,,
729605434.27806,-0.933091,-0.883091,-12.181032,0.020401,-0.013733,0.989044,-0.031685,0.005039,0.005554,67.399368,11.354828,-147.67131,,,
729605434.281393,-0.933091,-0.883091,-12.181032,0.020401,-0.013733,0.989044,-0.031685,0.005039,0.005554,67.399368,11.354828,-147.67131,,,
729605434.284721,-0.940084,-0.884559,-12.181172,0.020401,-0.013733,0.989044,-0.026904,-0.008791,-0.001458,67.399368,11.354828,-147.67131,,,
729605434.288124,-0.947914,-0.889014,-12.181544,0.021805,-0.015762,0.992081,-0.026904,-0.008791,-0.001458,67.43457,11.579086,-147.31282,,,
729605434.291401,-0.947914,-0.889014,-12.181544,0.021805,-0.015762,0.992081,-0.026904,-0.008791,-0.001458,67.43457,11.579086,-147.31282,,,
729605434.294732,-0.955719,-0.892561,-12.181898,0.021805,-0.015762,0.992081,-0.024676,-0.014693,-0.003,67.43457,11.579086,-147.31282,,,
729605434.298084,-0.963636,-0.897221,-12.181614,0.012558,-0.019852,0.998535,-0.024676,-0.014693,-0.003,67.43457,11.579086,-147.31282,,,
729605434.301387,-0.963636,-0.897221,-12.181614,0.012558,-0.019852,0.998535,-0.024676,-0.014693,-0.003,67.43457,11.579086,-147.31282,,,
729605434.304729,-0.971813,-0.900685,-12.179962,0.012558,-0.019852,0.998535,-0.029391,-0.012296,0.006263,67.43457,11.579086,-147.31282,,,
729605434.308094,-0.981787,-0.904094,-12.177175,0.010025,-0.027481,1.001694,-0.029391,-0.012296,0.006263,67.43457,11.579086,-147.31282,,,
729605434.311405,-0.981787,-0.904094,-12.177175,0.010025,-0.027481,1.001694,-0.029391,-0.012296,0.006263,67.43457,11.579086,-147.31282,,,
729605434.314724,-0.991946,-0.904344,-12.172947,0.010025,-0.027481,1.001694,-0.038969,0.001823,0.015395,67.43457,11.579086,-147.31282,,,
729605434.318123,-1.003409,-0.903346,-12.167686,0.010498,-0.028992,1.005035,-0.038969,0.001823,0.015395,67.43457,11.579086,-147.31282,,,
729605434.321396,-1.003409,-0.903346,-12.167686,0.010498,-0.028992,1.005035,-0.038969,0.001823,0.015395,67.43457,11.579086,-147.31282,,,
729605434.324731,-1.012817,-0.900249,-12.161855,0.010498,-0.028992,1.005035,-0.038206,0.013594,0.021052,67.43457,11.579086,-147.31282,,,
729605434.32811,-1.023004,-0.896781,-12.155692,0.014374,-0.024612,1.01268,-0.038206,0.013594,0.021052,67.43457,11.579086,-147.31282,,,
729605434.331395,-1.023004,-0.896781,-12.155692,0.014374,-0.024612,1.01268,-0.038206,0.013594,0.021052,67.273056,11.629211,-147.55661,,,
729605434.334726,-1.0311,-0.891666,-12.149603,0.014374,-0.024612,1.01268,-0.029621,0.020763,0.018454,67.273056,11.629211,-147.55661,,,
729605434.338101,-1.039513,-0.886123,-12.144115,0.017319,-0.019928,1.013824,-0.029621,0.020763,0.018454,67.273056,11.629211,-147.55661,,,
729605434.341403,-1.039513,-0.886123,-12.144115,0.017319,-0.019928,1.013824,-0.029621,0.020763,0.018454,67.273056,11.629211,-147.55661,,,
729605434.344856,-1.045192,-0.881618,-12.139753,0.017319,-0.019928,1.013824,-0.023486,0.019719,0.013228,67.273056,11.629211,-147.55661,,,
729605434.348083,-1.051336,-0.878559,-12.136544,0.018066,-0.016174,1.01088,-0.023486,0.019719,0.013228,67.273056,11.629211,-147.55661,,,
729605434.351395,-1.051336,-0.878559,-12.136544,0.018066,-0.016174,1.01088,-0.023486,0.019719,0.013228,67.273056,11.629211,-147.55661,,,
729605434.354728,-1.056561,-0.878714,-12.13406,0.018066,-0.016174,1.01088,-0.021547,0.001338,0.006881,67.273056,11.629211,-147.55661,,,
729605434.358053,-1.062606,-0.880772,-12.132697,0.021606,-0.017044,1.004517,-0.021547,0.001338,0.006881,67.273056,11.629211,-147.55661,,,
729605434.361392,-1.062606,-0.880772,-12.132697,0.021606,-0.017044,1.004517,-0.021547,0.001338,0.006881,67.273056,11.629211,-147.55661,,,
729605434.364724,-1.067723,-0.885507,-12.132143,0.021606,-0.017044,1.004517,-0.020194,-0.010615,0.000691,67.273056,11.629211,-147.55661,,,
729605434.368176,-1.072675,-0.891546,-12.132294,0.024979,-0.017883,1.004898,-0.020194,-0.010615,0.000691,67.273056,11.629211,-147.55661,,,
729605434.371428,-1.072675,-0.891546,-12.132294,0.024979,-0.017883,1.004898,-0.020194,-0.010615,0.000691,67.161667,11.565277,-147.595993,,,
729605434.374734,-1.076634,-0.900567,-12.133012,0.024979,-0.017883,1.004898,-0.01041,-0.031086,-0.002705,67.161667,11.565277,-147.595993,,,
729605434.378129,-1.079945,-0.910732,-12.133643,0.024094,-0.018433,1.004608,-0.01041,-0.031086,-0.002705,67.161667,11.565277,-147.595993,,,
729605434.381388,-1.079945,-0.910732,-12.133643,0.024094,-0.018433,1.004608,-0.01041,-0.031086,-0.002705,67.161667,11.565277,-147.595993,,,
729605434.384734,-1.082432,-0.919947,-12.134683,0.024094,-0.018433,1.004608,-0.003693,-0.029683,-0.008164,67.161667,11.565277,-147.595993,,,
729605434.388093,-1.082771,-0.928216,-12.136626,0.029602,-0.015488,1.009384,-0.003693,-0.029683,-0.008164,67.161667,11.565277,-147.595993,,,
729605434.39139,-1.082771,-0.928216,-12.136626,0.029602,-0.015488,1.009384,-0.003693,-0.029683,-0.008164,67.161667,11.565277,-147.595993,,,
729605434.394723,-1.083817,-0.933598,-12.14014,0.029602,-0.015488,1.009384,0.000657,-0.018266,-0.015898,67.161667,11.565277,-147.595993,,,
729605434.398055,-1.083747,-0.938441,-12.144966,0.029602,-0.015488,1.009384,0.000657,-0.018266,-0.015898,67.161667,11.565277,-147.595993,,,
729605434.401398,-1.083747,-0.938441,-12.144966,0.029556,-0.011398,1.01358,0.000657,-0.018266,-0.015898,67.161667,11.565277,-147.595993,,,
729605434.404727,-1.085577,-0.940814,-12.149988,0.029556,-0.011398,1.01358,-0.004556,-0.007038,-0.019864,67.161667,11.565277,-147.595993,,,
729605434.408126,-1.087375,-0.941567,-12.155279,0.025208,-0.014313,1.005188,-0.004556,-0.007038,-0.019864,67.161667,11.565277,-147.595993,,,
729605434.411391,-1.087375,-0.941567,-12.155279,0.025208,-0.014313,1.005188,-0.004556,-0.007038,-0.019864,67.353775,11.508621,-147.647202,,,
729605434.414721,-1.091218,-0.93973,-12.159927,0.025208,-0.014313,1.005188,-0.014454,0.012722,-0.0173,67.353775,11.508621,-147.647202,,,
729605434.418059,-1.095557,-0.936702,-12.163463,0.015213,-0.019745,1.006714,-0.014454,0.012722,-0.0173,67.353775,11.508621,-147.647202,,,
729605434.421388,-1.095557,-0.936702,-12.163463,0.015213,-0.019745,1.006714,-0.014454,0.012722,-0.0173,67.353775,11.508621,-147.647202,,,
729605434.424723,-1.099503,-0.934186,-12.166153,0.015213,-0.019745,1.006714,-0.012578,0.010693,-0.00892,67.353775,11.508621,-147.647202,,,
729605434.428196,-1.102113,-0.933183,-12.167231,0.007202,-0.022964,1.003159,-0.012578,0.010693,-0.00892,67.353775,11.508621,-147.647202,,,
729605434.431389,-1.102113,-0.933183,-12.167231,0.007202,-0.022964,1.003159,-0.012578,0.010693,-0.00892,67.353775,11.508621,-147.647202,,,
729605434.434732,-1.10205,-0.93418,-12.167227,0.007202,-0.022964,1.003159,0.002108,-8.9e-05,-0.000719,67.353775,11.508621,-147.647202,,,
729605434.438061,-1.099351,-0.93612,-12.167223,0.007202,-0.022964,1.003159,0.002108,-8.9e-05,-0.000719,67.353775,11.508621,-147.647202,,,
729605434.44139,-1.099351,-0.93612,-12.167223,0.00444,-0.021439,1.008469,0.002108,-8.9e-05,-0.000719,67.353775,11.508621,-147.647202,,,
729605434.444724,-1.09385,-0.940791,-12.168224,0.00444,-0.021439,1.008469,0.018192,-0.011969,-0.005313,67.353775,11.508621,-147.647202,,,
729605434.448057,-1.087022,-0.946947,-12.170793,0.009628,-0.019302,1.008423,0.018192,-0.011969,-0.005313,67.353775,11.508621,-147.647202,,,
729605434.451432,-1.087022,-0.946947,-12.170793,0.009628,-0.019302,1.008423,0.018192,-0.011969,-0.005313,67.353775,11.508621,-147.647202,,,
729605434.454724,-1.079015,-0.956455,-12.174078,0.009628,-0.019302,1.008423,0.027144,-0.029312,-0.012143,67.268311,11.66629,-147.866714,,,
729605434.458062,-1.071585,-0.965978,-12.1773,0.009628,-0.019302,1.008423,0.027144,-0.029312,-0.012143,67.268311,11.66629,-147.866714,,,
729605434.461389,-1.071585,-0.965978,-12.1773,0.008133,-0.014526,0.998245,0.027144,-0.029312,-0.012143,67.268311,11.66629,-147.866714,,,
729605434.464725,-1.065047,-0.976264,-12.180774,0.008133,-0.014526,0.998245,0.023187,-0.027599,-0.0161,67.268311,11.66629,-147.866714,,,
