Time (sec),Pitch (deg),Roll (deg),Yaw(deg),X-Acceleration (g),Y-Acceleration (g),Z-Acceleration (g),Pitch Rate (deg/sec),Roll Rate (deg/sec),Yaw Rate (deg/sec),Magnetic Field in X direction (uT),Magnetic Field in Y direction (uT),Magnetic Field in Z Direction (uT),Latitude (deg),Longitude (deg),Altitude (m)
729606017.929645,-0.228865,-1.926903,50.569127,0.035263,-0.006943,0.993591,0.028141,0.00303,-0.009458,59.790176,22.177795,-147.022705,,,
729606017.932986,-0.228865,-1.926903,50.569127,0.035263,-0.006943,0.993591,0.028141,0.00303,-0.009458,59.790176,22.177795,-147.022705,,,
729606017.936368,-0.219092,-1.931641,50.565843,0.035263,-0.006943,0.993591,0.035206,-0.013623,-0.01286,59.790176,22.177795,-147.022705,,,
729606017.93969,-0.20828,-1.939513,50.56199,0.036163,-0.009766,0.991211,0.035206,-0.013623,-0.01286,59.790176,22.177795,-147.022705,,,
729606017.943014,-0.20828,-1.939513,50.56199,0.036163,-0.009766,0.991211,0.035206,-0.013623,-0.01286,59.790176,22.177795,-147.022705,,,
729606017.946418,-0.195696,-1.951462,50.557714,0.036163,-0.009766,0.991211,0.048917,-0.037694,-0.020682,59.790176,22.177795,-147.022705,,,
729606017.949665,-0.179794,-1.963548,50.552822,0.044083,-0.00795,0.993393,0.048917,-0.037694,-0.020682,59.790176,22.177795,-147.022705,,,
729606017.952983,-0.179794,-1.963548,50.552822,0.044083,-0.00795,0.993393,0.048917,-0.037694,-0.020682,59.790176,22.177795,-147.261734,,,
729606017.956308,-0.163511,-1.978174,50.547294,0.044083,-0.00795,0.993393,0.063782,-0.038297,-0.0238,59.807861,22.160294,-147.261734,,,
729606017.959629,-0.144751,-1.989248,50.541828,0.045517,-0.00943,0.999649,0.063782,-0.038297,-0.0238,59.807861,22.160294,-147.261734,,,
729606017.963034,-0.144751,-1.989248,50.541828,0.045517,-0.00943,0.999649,0.063782,-0.038297,-0.0238,59.807861,22.160294,-147.261734,,,
729606017.966313,-0.126767,-2.000274,50.53613,0.045517,-0.00943,0.999649,0.064811,-0.022902,-0.024173,59.807861,22.160294,-147.261734,,,
729606017.969762,-0.126767,-2.000274,50.530064,0.045212,-0.012375,0.994751,0.064811,-0.022902,-0.024173,59.807861,22.160294,-147.261734,,,
729606017.973062,-0.108907,-2.003966,50.530064,0.045212,-0.012375,0.994751,0.064811,-0.022902,-0.024173,59.807861,22.160294,-147.261734,,,
729606017.978028,-0.094386,-2.003709,50.523377,0.045212,-0.012375,0.994751,0.049361,0.014344,-0.02571,59.807861,22.160294,-147.261734,,,
729606017.979434,-0.094386,-2.003709,50.523377,0.045212,-0.012375,0.994751,0.049361,0.014344,-0.02571,59.807861,22.160294,-147.261734,,,
729606017.983025,-0.082092,-1.995465,50.515555,0.054138,-0.008408,0.993057,0.049361,0.014344,-0.02571,59.807861,22.160294,-147.261734,,,
729606017.98639,-0.073925,-1.983482,50.506291,0.054138,-0.008408,0.993057,0.029429,0.057411,-0.034154,59.807861,22.160294,-147.261734,,,
729606017.989699,-0.067573,-1.96391,50.495932,0.057083,-0.007492,0.990509,0.029429,0.057411,-0.034154,59.807861,22.160294,-147.261734,,,
729606017.993041,-0.067573,-1.96391,50.495932,0.057083,-0.007492,0.990509,0.029429,0.057411,-0.034154,59.807861,22.160294,-147.261734,,,
729606017.996316,-0.064507,-1.942073,50.48533,0.057083,-0.007492,0.990509,0.012337,0.084999,-0.036125,59.727631,22.110001,-147.300171,,,
729606017.999739,-0.062211,-1.915448,50.474303,0.053024,-0.006866,0.982651,0.012337,0.084999,-0.036125,59.727631,22.110001,-147.300171,,,
729606018.00302,-0.062211,-1.915448,50.474303,0.053024,-0.006866,0.982651,0.012337,0.084999,-0.036125,59.727631,22.110001,-147.300171,,,
729606018.006304,-0.061576,-1.888043,50.462021,0.053024,-0.006866,0.982651,0.003577,0.106177,-0.046583,59.727631,22.110001,-147.300171,,,
729606018.00964,-0.059563,-1.859479,50.448594,0.053024,-0.006866,0.982651,0.003577,0.106177,-0.046583,59.727631,22.110001,-147.300171,,,
729606018.01305,-0.059563,-1.859479,50.448594,0.046432,-0.007935,0.985672,0.003577,0.106177,-0.046583,59.727631,22.110001,-147.300171,,,
729606018.016347,-0.058494,-1.834925,50.434891,0.046432,-0.007935,0.985672,0.003402,0.088516,-0.049721,59.727631,22.110001,-147.300171,,,
729606018.019745,-0.056329,-1.814637,50.420875,0.036453,-0.011627,0.980789,0.003402,0.088516,-0.049721,59.727631,22.110001,-147.300171,,,
729606018.022991,-0.056329,-1.814637,50.420875,0.036453,-0.011627,0.980789,0.003402,0.088516,-0.049721,59.727631,22.110001,-147.300171,,,
729606018.026386,-0.05549,-1.802138,50.406765,0.036453,-0.011627,0.980789,0.008502,0.051253,-0.050569,59.727631,22.110001,-147.300171,,,
729606018.029707,-0.053556,-1.793515,50.392105,0.028107,-0.014526,0.971954,0.008502,0.051253,-0.050569,59.727631,22.110001,-147.300171,,,
729606018.032981,-0.053556,-1.793515,50.392105,0.028107,-0.014526,0.971954,0.008502,0.051253,-0.050569,59.727631,22.110001,-147.300171,,,
729606018.036324,-0.053472,-1.794617,50.376445,0.028107,-0.014526,0.971954,0.004293,0.008443,-0.055367,59.856171,22.229691,-147.259247,,,
729606018.039668,-0.053126,-1.796366,50.360047,0.028091,-0.01123,0.968842,0.004293,0.008443,-0.055367,59.856171,22.229691,-147.259247,,,
729606018.042987,-0.053126,-1.796366,50.360047,0.028091,-0.01123,0.968842,0.004293,0.008443,-0.055367,59.856171,22.229691,-147.259247,,,
729606018.046346,-0.055347,-1.806389,50.343222,0.028091,-0.01123,0.968842,0.000183,-0.023783,-0.061831,59.856171,22.229691,-147.259247,,,
729606018.049662,-0.055347,-1.815665,50.326315,0.028091,-0.01123,0.968842,0.000183,-0.023783,-0.061831,59.856171,22.229691,-147.259247,,,
729606018.053042,-0.05555,-1.815665,50.326315,0.031082,-0.011215,0.976196,0.000183,-0.023783,-0.061831,59.856171,22.229691,-147.259247,,,
729606018.056304,-0.058368,-1.829412,50.308846,0.031082,-0.011215,0.976196,-0.005211,-0.031289,-0.061525,59.856171,22.229691,-147.259247,,,
729606018.059691,-0.058368,-1.836198,50.291399,0.031082,-0.011215,0.976196,-0.005211,-0.031289,-0.061525,59.856171,22.229691,-147.259247,,,
729606018.062983,-0.06185,-1.836198,50.291399,0.039108,-0.008148,0.983414,-0.005211,-0.031289,-0.061525,59.856171,22.229691,-147.259247,,,
729606018.066387,-0.06813,-1.84498,50.27409,0.039108,-0.008148,0.983414,-0.019041,-0.003953,-0.063897,59.856171,22.229691,-147.259247,,,
729606018.069686,-0.06813,-1.84498,50.256643,0.039108,-0.008148,0.983414,-0.019041,-0.003953,-0.063897,59.856171,22.229691,-147.259247,,,
729606018.072983,-0.075009,-1.844081,50.256643,0.046005,-0.002914,0.988922,-0.019041,-0.003953,-0.063897,59.856171,22.229691,-147.259247,,,
729606018.076316,-0.085077,-1.846086,50.239852,0.046005,-0.002914,0.988922,-0.038031,0.018034,-0.057882,60.038712,22.134293,-147.438705,,,
729606018.079655,-0.085077,-1.846086,50.239852,0.046005,-0.002914,0.988922,-0.038031,0.018034,-0.057882,60.038712,22.134293,-147.438705,,,
729606018.082989,-0.097734,-1.84002,50.223939,0.046265,0.002792,0.98436,-0.038031,0.018034,-0.057882,60.038712,22.134293,-147.438705,,,
729606018.086322,-0.114746,-1.83583,50.208748,0.046265,0.002792,0.98436,-0.061985,0.03333,-0.051476,60.038712,22.134293,-147.438705,,,
729606018.089723,-0.114746,-1.83583,50.193806,0.046265,0.002792,0.98436,-0.061985,0.03333,-0.051476,60.038712,22.134293,-147.438705,,,
729606018.093023,-0.13471,-1.826231,50.193806,0.040817,0.003433,0.979904,-0.061985,0.03333,-0.051476,60.038712,22.134293,-147.438705,,,
729606018.096314,-0.158568,-1.819705,50.179037,0.040817,0.003433,0.979904,-0.086502,0.033846,-0.050468,60.038712,22.134293,-147.438705,,,
729606018.099656,-0.158568,-1.819705,50.179037,0.040817,0.003433,0.979904,-0.086502,0.033846,-0.050468,60.038712,22.134293,-147.438705,,,
729606018.103054,-0.184651,-1.812028,50.164557,0.031052,0.005005,0.976532,-0.086502,0.033846,-0.050468,60.038712,22.134293,-147.438705,,,
729606018.1063,-0.214468,-1.806446,50.150143,0.031052,0.005005,0.976532,-0.104376,0.020169,-0.048688,60.038712,22.134293,-147.438705,,,
729606018.109672,-0.214468,-1.806446,50.150143,0.031052,0.005005,0.976532,-0.104376,0.020169,-0.048688,60.038712,22.134293,-147.438705,,,
729606018.112982,-0.244801,-1.803184,50.135954,0.023163,0.001434,0.981552,-0.104376,0.020169,-0.048688,60.038712,22.134293,-147.438705,,,
729606018.116458,-0.276422,-1.801488,50.121736,0.023163,0.001434,0.981552,-0.109398,0.005106,-0.047925,60.038712,22.134293,-147.438705,,,
729606018.119699,-0.276422,-1.801488,50.121736,0.023163,0.001434,0.981552,-0.109398,0.005106,-0.047925,59.990952,22.383377,-147.665527,,,
729606018.122982,-0.306402,-1.801937,50.107613,0.018768,-0.003738,0.995667,-0.109398,0.005106,-0.047925,59.990952,22.383377,-147.665527,,,
729606018.126329,-0.336247,-1.803623,50.094798,0.018768,-0.003738,0.995667,-0.103539,-0.003972,-0.041631,59.990952,22.383377,-147.665527,,,
729606018.129817,-0.336247,-1.803623,50.094798,0.018768,-0.003738,0.995667,-0.103539,-0.003972,-0.041631,59.990952,22.383377,-147.665527,,,
729606018.13296,-0.363652,-1.807239,50.08395,0.013397,-0.009613,1.003952,-0.103539,-0.003972,-0.041631,59.990952,22.383377,-147.665527,,,
729606018.136316,-0.389063,-1.81366,50.074604,0.013397,-0.009613,1.003952,-0.086004,-0.018476,-0.032021,59.990952,22.383377,-147.665527,,,
729606018.139686,-0.389063,-1.81366,50.074604,0.013397,-0.009613,1.003952,-0.086004,-0.018476,-0.032021,59.990952,22.383377,-147.665527,,,
729606018.14305,-0.41124,-1.821231,50.066787,0.008163,-0.013718,1.016403,-0.086004,-0.018476,-0.032021,59.990952,22.383377,-147.665527,,,
729606018.146313,-0.430074,-1.832341,50.060266,0.008163,-0.013718,1.016403,-0.064309,-0.025117,-0.024697,59.990952,22.383377,-147.665527,,,
729606018.14964,-0.430074,-1.832341,50.060266,0.008163,-0.013718,1.016403,-0.064309,-0.025117,-0.024697,59.990952,22.383377,-147.665527,,,
729606018.152974,-0.446924,-1.842242,50.054468,0.011749,-0.013947,1.022736,-0.064309,-0.025117,-0.024697,59.990952,22.383377,-147.665527,,,
729606018.156371,-0.461075,-1.856504,50.050108,0.011749,-0.013947,1.022736,-0.052984,-0.031169,-0.014068,59.990952,22.383377,-147.665527,,,
729606018.159637,-0.461075,-1.856504,50.050108,0.011749,-0.013947,1.022736,-0.052984,-0.031169,-0.014068,59.8685,22.337952,-147.224274,,,
729606018.162995,-0.475325,-1.86665,50.047256,0.014389,-0.011169,1.016663,-0.052984,-0.031169,-0.014068,59.8685,22.337952,-147.224274,,,
729606018.166327,-0.48718,-1.880437,50.04541,0.014389,-0.011169,1.016663,-0.049074,-0.030209,-0.004042,59.8685,22.337952,-147.224274,,,
729606018.169726,-0.48718,-1.880437,50.04541,0.014389,-0.011169,1.016663,-0.049074,-0.030209,-0.004042,59.8685,22.337952,-147.224274,,,
729606018.173033,-0.501125,-1.88988,50.043758,0.01828,-0.007355,1.016449,-0.049074,-0.030209,-0.004042,59.8685,22.337952,-147.224274,,,
729606018.176312,-0.512234,-1.899854,50.040871,0.01828,-0.007355,1.016449,-0.046145,-0.026231,-0.011767,59.8685,22.337952,-147.224274,,,
729606018.17968,-0.512234,-1.899854,50.040871,0.01828,-0.007355,1.016449,-0.046145,-0.026231,-0.011767,59.8685,22.337952,-147.224274,,,
729606018.183037,-0.524327,-1.906596,50.037077,0.031998,-0.000671,1.020569,-0.046145,-0.026231,-0.011767,59.8685,22.337952,-147.224274,,,
729606018.186303,-0.532133,-1.910892,50.032806,0.031998,-0.000671,1.020569,-0.034249,-0.014662,-0.014252,59.8685,22.337952,-147.224274,,,
729606018.189658,-0.532133,-1.910892,50.032806,0.031998,-0.000671,1.020569,-0.034249,-0.014662,-0.014252,59.8685,22.337952,-147.224274,,,
729606018.192976,-0.540192,-1.915533,50.028198,0.033188,-0.001251,1.028397,-0.034249,-0.014662,-0.014252,59.8685,22.337952,-147.224274,,,
729606018.196309,-0.544513,-1.915961,50.023763,0.033188,-0.001251,1.028397,-0.018339,-0.010353,-0.014688,59.8685,22.337952,-147.224274,,,
729606018.19964,-0.544513,-1.915961,50.023763,0.033188,-0.001251,1.028397,-0.018339,-0.010353,-0.014688,59.927551,22.299026,-147.028122,,,
729606018.203057,-0.548846,-1.918303,50.019466,0.03093,-0.001328,1.023849,-0.018339,-0.010353,-0.014688,59.927551,22.299026,-147.028122,,,
729606018.206324,-0.551607,-1.914043,50.015373,0.03093,-0.001328,1.023849,-0.009388,0.000236,-0.016175,59.927551,22.299026,-147.028122,,,
729606018.209647,-0.551607,-1.914043,50.015373,0.03093,-0.001328,1.023849,-0.009388,0.000236,-0.016175,59.927551,22.299026,-147.028122,,,
729606018.213009,-0.554915,-1.914563,50.011803,0.029251,-0.002304,1.013687,-0.009388,0.000236,-0.016175,59.927551,22.299026,-147.028122,,,
729606018.216388,-0.55847,-1.909023,50.009104,0.029251,-0.002304,1.013687,-0.007322,-0.001431,-0.01101,59.927551,22.299026,-147.028122,,,
729606018.219637,-0.55847,-1.909023,50.009104,0.029251,-0.002304,1.013687,-0.007322,-0.001431,-0.01101,59.927551,22.299026,-147.028122,,,
729606018.222981,-0.561191,-1.91074,50.00717,0.025162,-0.003647,1.002823,-0.007322,-0.001431,-0.01101,59.927551,22.299026,-147.028122,,,
729606018.226311,-0.564089,-1.905782,50.005907,0.025162,-0.003647,1.002823,-0.004325,-0.00667,-0.004883,59.927551,22.299026,-147.028122,,,
729606018.229649,-0.564089,-1.905782,50.005907,0.025162,-0.003647,1.002823,-0.004325,-0.00667,-0.004883,59.927551,22.299026,-147.028122,,,
729606018.233066,-0.564679,-1.90907,50.005767,0.020844,-0.005234,0.999832,-0.004325,-0.00667,-0.004883,59.927551,22.299026,-147.028122,,,
729606018.236302,-0.564507,-1.907383,50.007221,0.020844,-0.005234,0.999832,0.001749,-0.012639,0.003263,59.927551,22.299026,-147.028122,,,
729606018.239649,-0.564507,-1.907383,50.007221,0.020844,-0.005234,0.999832,0.001749,-0.012639,0.003263,59.744232,22.418716,-147.265732,,,
729606018.243002,-0.563014,-1.912268,50.009434,0.019958,-0.008194,0.998962,0.001749,-0.012639,0.003263,59.744232,22.418716,-147.265732,,,
729606018.24631,-0.560696,-1.912682,50.011732,0.019958,-0.008194,0.998962,0.009726,-0.02104,0.002875,59.744232,22.418716,-147.265732,,,
729606018.249649,-0.560696,-1.912682,50.011732,0.019958,-0.008194,0.998962,0.009726,-0.02104,0.002875,59.744232,22.418716,-147.265732,,,
729606018.253002,-0.557873,-1.920565,50.01353,0.028046,-0.007141,0.994125,0.009726,-0.02104,0.002875,59.744232,22.418716,-147.265732,,,
729606018.256305,-0.554222,-1.926779,50.015023,0.028046,-0.007141,0.994125,0.010795,-0.03152,0.001278,59.744232,22.418716,-147.265732,,,
729606018.259686,-0.554222,-1.926779,50.015023,0.028046,-0.007141,0.994125,0.010795,-0.03152,0.001278,59.744232,22.418716,-147.265732,,,
729606018.262995,-0.551793,-1.938079,50.015932,0.031998,-0.004517,0.986343,0.010795,-0.03152,0.001278,59.744232,22.418716,-147.265732,,,
729606018.26631,-0.549182,-1.950728,50.016156,0.031998,-0.004517,0.986343,0.001411,-0.043976,0.001508,59.744232,22.418716,-147.265732,,,
729606018.269712,-0.549182,-1.950728,50.016156,0.031998,-0.004517,0.986343,0.001411,-0.043976,0.001508,59.744232,22.418716,-147.265732,,,
729606018.272968,-0.550805,-1.965713,50.016218,0.040054,-0.00705,0.975708,0.001411,-0.043976,0.001508,59.744232,22.418716,-147.265732,,,
729606018.276312,-0.554311,-1.981859,50.015378,0.040054,-0.00705,0.975708,-0.022248,-0.055594,-0.006703,59.744232,22.418716,-147.265732,,,
729606018.279657,-0.554311,-1.981859,50.015378,0.040054,-0.00705,0.975708,-0.022248,-0.055594,-0.006703,59.744232,22.418716,-147.265732,,,
729606018.282952,-0.563095,-1.99934,50.012885,0.048492,-0.006104,0.966782,-0.022248,-0.055594,-0.006703,59.98024,22.520401,-147.340057,,,
729606018.286304,-0.574537,-2.014633,50.00907,0.048492,-0.006104,0.966782,-0.047559,-0.053538,-0.01573,59.98024,22.520401,-147.340057,,,
729606018.289664,-0.574537,-2.014633,50.00907,0.048492,-0.006104,0.966782,-0.047559,-0.053538,-0.01573,59.98024,22.520401,-147.340057,,,
729606018.292993,-0.590762,-2.0298,50.004165,0.053894,-0.007233,0.970734,-0.047559,-0.053538,-0.01573,59.98024,22.520401,-147.340057,,,
729606018.296307,-0.607359,-2.040983,49.999042,0.053894,-0.007233,0.970734,-0.063466,-0.042872,-0.018604,59.98024,22.520401,-147.340057,,,
729606018.29965,-0.607359,-2.040983,49.999042,0.053894,-0.007233,0.970734,-0.063466,-0.042872,-0.018604,59.98024,22.520401,-147.340057,,,
729606018.302968,-0.625615,-2.052669,49.994607,0.048874,-0.013855,0.98468,-0.063466,-0.042872,-0.018604,59.98024,22.520401,-147.340057,,,
729606018.306301,-0.641748,-2.058449,49.99212,0.048874,-0.013855,0.98468,-0.057719,-0.02801,-0.006804,59.98024,22.520401,-147.340057,,,
729606018.309649,-0.641748,-2.058449,49.99212,0.048874,-0.013855,0.98468,-0.057719,-0.02801,-0.006804,59.98024,22.520401,-147.340057,,,
729606018.312978,-0.656827,-2.066082,49.991628,0.040176,-0.025711,1.000351,-0.057719,-0.02801,-0.006804,59.98024,22.520401,-147.340057,,,
729606018.316307,-0.668855,-2.067092,49.992657,0.040176,-0.025711,1.000351,-0.042598,-0.013063,0.0028,59.98024,22.520401,-147.340057,,,
729606018.319632,-0.668855,-2.067092,49.992657,0.040176,-0.025711,1.000351,-0.042598,-0.013063,0.0028,59.98024,22.520401,-147.340057,,,
729606018.322976,-0.67883,-2.069881,49.994034,0.039886,-0.027664,1.009369,-0.042598,-0.013063,0.0028,59.737534,22.518677,-146.897507,,,
729606018.326311,-0.684086,-2.066456,49.994221,0.039886,-0.027664,1.009369,-0.018494,0.001504,-0.000562,59.737534,22.518677,-146.897507,,,
729606018.329748,-0.684086,-2.066456,49.994221,0.039886,-0.027664,1.009369,-0.018494,0.001504,-0.000562,59.737534,22.518677,-146.897507,,,
729606018.333091,-0.687468,-2.066439,49.992737,0.050735,-0.016052,1.014572,-0.018494,0.001504,-0.000562,59.737534,22.518677,-146.897507,,,
729606018.336316,-0.688671,-2.064105,49.989405,0.050735,-0.016052,1.014572,-0.004621,0.003773,-0.015731,59.737534,22.518677,-146.897507,,,
729606018.33967,-0.688671,-2.064105,49.989405,0.050735,-0.016052,1.014572,-0.004621,0.003773,-0.015731,59.737534,22.518677,-146.897507,,,
729606018.343074,-0.690579,-2.062553,49.984338,0.048904,-0.011017,1.000168,-0.004621,0.003773,-0.015731,59.737534,22.518677,-146.897507,,,
729606018.346305,-0.691697,-2.059665,49.978465,0.048904,-0.011017,1.000168,-0.010028,0.014121,-0.023555,59.737534,22.518677,-146.897507,,,
729606018.349643,-0.691697,-2.059665,49.978465,0.048904,-0.011017,1.000168,-0.010028,0.014121,-0.023555,59.737534,22.518677,-146.897507,,,
729606018.352996,-0.694683,-2.057128,49.97196,0.044327,-0.014847,0.99118,-0.010028,0.014121,-0.023555,59.737534,22.518677,-146.897507,,,
729606018.356308,-0.696651,-2.058853,49.965451,0.044327,-0.014847,0.99118,-0.008468,0.005903,-0.023748,59.737534,22.518677,-146.897507,,,
729606018.359641,-0.696651,-2.058853,49.965451,0.044327,-0.014847,0.99118,-0.008468,0.005903,-0.023748,59.737534,22.518677,-146.897507,,,
729606018.362992,-0.698883,-2.059781,49.959138,0.042755,-0.015533,0.992996,-0.008468,0.005903,-0.023748,59.993652,22.547852,-147.592697,,,
729606018.366319,-0.699355,-2.066977,49.951796,0.042755,-0.015533,0.992996,-0.004554,-0.005674,-0.02586,59.993652,22.547852,-147.592697,,,
729606018.369724,-0.699355,-2.066977,49.951796,0.042755,-0.015533,0.992996,-0.004554,-0.005674,-0.02586,59.993652,22.547852,-147.592697,,,
729606018.372989,-0.701031,-2.069047,49.943056,0.047089,-0.00943,0.995407,-0.004554,-0.005674,-0.02586,59.993652,22.547852,-147.592697,,,
729606018.376311,-0.702226,-2.075545,49.932505,0.047089,-0.00943,0.995407,-0.00524,0.001671,-0.038354,59.993652,22.547852,-147.592697,,,
729606018.379639,-0.702226,-2.075545,49.932505,0.047089,-0.00943,0.995407,-0.00524,0.001671,-0.038354,59.993652,22.547852,-147.592697,,,
729606018.382985,-0.703657,-2.075274,49.920208,0.048203,-0.002853,0.99852,-0.00524,0.001671,-0.038354,59.993652,22.547852,-147.592697,,,
729606018.386298,-0.705704,-2.076753,49.907412,0.048203,-0.002853,0.99852,-0.003642,0.006101,-0.045188,59.993652,22.547852,-147.592697,,,
729606018.389646,-0.705704,-2.076753,49.907412,0.048203,-0.002853,0.99852,-0.003642,0.006101,-0.045188,59.993652,22.547852,-147.592697,,,
729606018.393067,-0.706833,-2.075872,49.894931,0.044327,-0.006577,0.995117,-0.003642,0.006101,-0.045188,59.993652,22.547852,-147.592697,,,
729606018.396303,-0.711908,-2.076072,49.882767,0.044327,-0.006577,0.995117,-0.011316,0.004328,-0.042342,59.993652,22.547852,-147.592697,,,
729606018.399662,-0.711908,-2.076072,49.882767,0.044327,-0.006577,0.995117,-0.011316,0.004328,-0.042342,59.993652,22.547852,-147.592697,,,
729606018.403018,-0.715348,-2.076684,49.871311,0.040054,-0.010666,0.986404,-0.011316,0.004328,-0.042342,59.875809,22.297546,-147.3582,,,
729606018.406316,-0.722379,-2.080232,49.860133,0.040054,-0.010666,0.986404,-0.020277,-0.000574,-0.040872,59.875809,22.297546,-147.3582,,,
729606018.409725,-0.722379,-2.080232,49.860133,0.040054,-0.010666,0.986404,-0.020277,-0.000574,-0.040872,59.875809,22.297546,-147.3582,,,
729606018.41301,-0.72907,-2.081973,49.848451,0.03923,-0.006393,0.981781,-0.020277,-0.000574,-0.040872,59.875809,22.297546,-147.3582,,,
729606018.416347,-0.736264,-2.088428,49.83558,0.03923,-0.006393,0.981781,-0.026156,-0.004104,-0.047416,59.875809,22.297546,-147.3582,,,
729606018.419741,-0.736264,-2.088428,49.83558,0.03923,-0.006393,0.981781,-0.026156,-0.004104,-0.047416,59.875809,22.297546,-147.3582,,,
729606018.423003,-0.743989,-2.089786,49.821805,0.041946,-0.004852,0.986938,-0.026156,-0.004104,-0.047416,59.875809,22.297546,-147.3582,,,
729606018.426312,-0.750335,-2.093077,49.807772,0.041946,-0.004852,0.986938,-0.020167,0.002764,-0.047902,59.875809,22.297546,-147.3582,,,
729606018.429658,-0.750335,-2.093077,49.807772,0.041946,-0.004852,0.986938,-0.020167,0.002764,-0.047902,59.875809,22.297546,-147.3582,,,
729606018.433049,-0.753907,-2.092435,49.794044,0.03894,-0.009766,0.999863,-0.020167,0.002764,-0.047902,59.875809,22.297546,-147.3582,,,
729606018.436292,-0.754784,-2.092518,49.781055,0.03894,-0.009766,0.999863,0.000916,0.010041,-0.045647,59.875809,22.297546,-147.3582,,,
729606018.439635,-0.754784,-2.092518,49.781055,0.03894,-0.009766,0.999863,0.000916,0.010041,-0.045647,59.875809,22.297546,-147.3582,,,
729606018.442992,-0.752125,-2.090769,49.769031,0.038315,-0.014587,1.007797,0.000916,0.010041,-0.045647,59.875809,22.297546,-147.3582,,,
729606018.446296,-0.746832,-2.091835,49.758428,0.038315,-0.014587,1.007797,0.021599,0.008844,-0.037036,59.848251,22.479904,-146.996841,,,
729606018.44963,-0.746832,-2.091835,49.758428,0.038315,-0.014587,1.007797,0.021599,0.008844,-0.037036,59.848251,22.479904,-146.996841,,,
729606018.452995,-0.739368,-2.090393,49.749889,0.03299,-0.015717,1.004807,0.021599,0.008844,-0.037036,59.848251,22.479904,-146.996841,,,
729606018.456304,-0.730152,-2.092664,49.742922,0.03299,-0.015717,1.004807,0.028342,0.009016,-0.025629,59.848251,22.479904,-146.996841,,,
729606018.459724,-0.730152,-2.092664,49.742922,0.03299,-0.015717,1.004807,0.028342,0.009016,-0.025629,59.848251,22.479904,-146.996841,,,
729606018.462986,-0.723283,-2.091624,49.737196,0.027939,-0.011612,0.999283,0.028342,0.009016,-0.025629,59.848251,22.479904,-146.996841,,,
729606018.46631,-0.717807,-2.094262,49.732351,0.027939,-0.011612,0.999283,0.011894,0.00367,-0.018097,59.848251,22.479904,-146.996841,,,
729606018.46966,-0.717807,-2.094262,49.732351,0.027939,-0.011612,0.999283,0.011894,0.00367,-0.018097,59.848251,22.479904,-146.996841,,,
729606018.473038,-0.717886,-2.094536,49.727734,0.023438,-0.009018,0.98764,0.011894,0.00367,-0.018097,59.848251,22.479904,-146.996841,,,
729606018.476301,-0.720771,-2.096424,49.722863,0.023438,-0.009018,0.98764,-0.014696,0.005536,-0.016709,59.848251,22.479904,-146.996841,,,
729606018.479655,-0.720771,-2.096424,49.722863,0.023438,-0.009018,0.98764,-0.014696,0.005536,-0.016709,59.848251,22.479904,-146.996841,,,
729606018.482989,-0.726924,-2.095978,49.717726,0.024109,-0.0056,0.989029,-0.014696,0.005536,-0.016709,59.848251,22.479904,-146.996841,,,
729606018.486306,-0.734991,-2.096133,49.712002,0.024109,-0.0056,0.989029,-0.028363,0.004918,-0.019032,59.818405,22.382874,-147.234848,,,
729606018.489654,-0.734991,-2.096133,49.712002,0.024109,-0.0056,0.989029,-0.028363,0.004918,-0.019032,59.818405,22.382874,-147.234848,,,
729606018.492977,-0.744783,-2.095217,49.706573,0.025024,-0.005569,0.995895,-0.028363,0.004918,-0.019032,59.818405,22.382874,-147.234848,,,
729606018.49631,-0.753812,-2.095208,49.702207,0.025024,-0.005569,0.995895,-0.037131,0.008611,-0.015962,59.818405,22.382874,-147.234848,,,
729606018.499713,-0.753812,-2.095208,49.702207,0.025024,-0.005569,0.995895,-0.037131,0.008611,-0.015962,59.818405,22.382874,-147.234848,,,
729606018.502969,-0.764191,-2.093447,49.698717,0.021515,-0.008621,1.003052,-0.037131,0.008611,-0.015962,59.818405,22.382874,-147.234848,,,
729606018.506302,-0.772373,-2.093761,49.696483,0.021515,-0.008621,1.003052,-0.031365,0.004089,-0.0076,59.818405,22.382874,-147.234848,,,
729606018.509654,-0.772373,-2.093761,49.696483,0.021515,-0.008621,1.003052,-0.031365,0.004089,-0.0076,59.818405,22.382874,-147.234848,,,
729606018.513015,-0.7796,-2.095035,49.69558,0.019867,-0.01088,1.007401,-0.031365,0.004089,-0.0076,59.818405,22.382874,-147.234848,,,
729606018.516302,-0.783987,-2.099306,49.695303,0.019867,-0.01088,1.007401,-0.015615,-0.013517,0.000487,59.818405,22.382874,-147.234848,,,
729606018.519694,-0.783987,-2.099306,49.695303,0.019867,-0.01088,1.007401,-0.015615,-0.013517,0.000487,59.818405,22.382874,-147.234848,,,
729606018.522971,-0.786293,-2.104921,49.695527,0.022629,-0.010071,1.006668,-0.015615,-0.013517,0.000487,59.818405,22.382874,-147.234848,,,
729606018.526306,-0.787166,-2.111789,49.696431,0.022629,-0.010071,1.006668,0.00101,-0.024642,0.003046,60.040207,22.562622,-147.463486,,,
729606018.529663,-0.787166,-2.111789,49.696431,0.022629,-0.010071,1.006668,0.00101,-0.024642,0.003046,60.040207,22.562622,-147.463486,,,
729606018.533002,-0.786301,-2.120122,49.697698,0.02626,-0.011566,1.00679,0.00101,-0.024642,0.003046,60.040207,22.562622,-147.463486,,,
729606018.536309,-0.78427,-2.127141,49.698839,0.02626,-0.011566,1.00679,0.007979,-0.026866,0.004793,60.040207,22.562622,-147.463486,,,
729606018.539701,-0.78427,-2.127141,49.698839,0.02626,-0.011566,1.00679,0.007979,-0.026866,0.004793,60.040207,22.562622,-147.463486,,,
729606018.543104,-0.782093,-2.134826,49.701107,0.026276,-0.012894,1.005341,0.007979,-0.026866,0.004793,60.040207,22.562622,-147.463486,,,
729606018.546305,-0.779511,-2.137267,49.705978,0.026276,-0.012894,1.005341,0.009206,-0.014602,0.016427,60.040207,22.562622,-147.463486,,,
729606018.549756,-0.779511,-2.137267,49.705978,0.026276,-0.012894,1.005341,0.009206,-0.014602,0.016427,60.040207,22.562622,-147.463486,,,
729606018.552994,-0.778133,-2.140306,49.713312,0.023788,-0.018341,1.00531,0.009206,-0.014602,0.016427,60.040207,22.562622,-147.463486,,,
729606018.556313,-0.777258,-2.137594,49.722309,0.023788,-0.018341,1.00531,-0.002141,-0.000547,0.0285,60.040207,22.562622,-147.463486,,,
729606018.559654,-0.777258,-2.137594,49.722309,0.023788,-0.018341,1.00531,-0.002141,-0.000547,0.0285,60.040207,22.562622,-147.463486,,,
729606018.563059,-0.778402,-2.138408,49.731786,0.026688,-0.014084,1.001907,-0.002141,-0.000547,0.0285,60.040207,22.562622,-147.463486,,,
729606018.566297,-0.779085,-2.135546,49.74115,0.026688,-0.014084,1.001907,-0.005003,-0.000333,0.029099,60.040207,22.59465,-147.33371,,,
729606018.569654,-0.779085,-2.135546,49.74115,0.026688,-0.014084,1.001907,-0.005003,-0.000333,0.029099,59.967407,22.59465,-147.33371,,,
729606018.572973,-0.782196,-2.136027,49.749434,0.033463,-0.009521,0.999542,-0.005003,-0.000333,0.029099,59.967407,22.59465,-147.33371,,,
729606018.5763,-0.784573,-2.133915,49.756468,0.033463,-0.009521,0.999542,-0.01093,-0.005708,0.022224,59.967407,22.59465,-147.33371,,,
729606018.579647,-0.784573,-2.133915,49.756468,0.033463,-0.009521,0.999542,-0.01093,-0.005708,0.022224,59.967407,22.59465,-147.33371,,,
729606018.582991,-0.788181,-2.138538,49.76221,0.035431,-0.008591,0.996353,-0.01093,-0.005708,0.022224,59.967407,22.59465,-147.33371,,,
729606018.586307,-0.790826,-2.14071,49.76654,0.035431,-0.008591,0.996353,-0.009393,-0.02353,0.013562,59.967407,22.59465,-147.33371,,,
729606018.589695,-0.790826,-2.14071,49.76654,0.035431,-0.008591,0.996353,-0.009393,-0.02353,0.013562,59.967407,22.59465,-147.33371,,,
729606018.592978,-0.793917,-2.148814,49.770616,0.031891,-0.008942,0.995728,-0.009393,-0.02353,0.013562,59.967407,22.59465,-147.33371,,,
729606018.596308,-0.795824,-2.152573,49.775169,0.031891,-0.008942,0.995728,-0.007921,-0.026461,0.012949,59.967407,22.59465,-147.33371,,,
729606018.599647,-0.795824,-2.152573,49.775169,0.031891,-0.008942,0.995728,-0.007921,-0.026461,0.012949,59.967407,22.59465,-147.33371,,,
729606018.603053,-0.796367,-2.161621,49.779758,0.034607,-0.01329,0.997223,-0.007921,-0.026461,0.012949,59.967407,22.59465,-147.33371,,,
729606018.606301,-0.793491,-2.167711,49.785129,0.034607,-0.01329,0.997223,0.01309,-0.032599,0.014694,59.967407,22.59465,-147.33371,,,
729606018.609675,-0.793491,-2.167711,49.785129,0.034607,-0.01329,0.997223,0.01309,-0.032599,0.014694,59.744965,22.640549,-146.959961,,,
729606018.612987,-0.788166,-2.178963,49.791404,0.039627,-0.013809,1.003265,0.01309,-0.032599,0.014694,59.744965,22.640549,-146.959961,,,
729606018.616307,-0.780711,-2.186779,49.799111,0.039627,-0.013809,1.003265,0.029707,-0.036074,0.025098,59.744965,22.640549,-146.959961,,,
729606018.619709,-0.780711,-2.186779,49.799111,0.039627,-0.013809,1.003265,0.029707,-0.036074,0.025098,59.744965,22.640549,-146.959961,,,
729606018.623018,-0.773024,-2.196152,49.807976,0.038605,-0.014084,0.99765,0.029707,-0.036074,0.025098,59.744965,22.640549,-146.959961,,,
729606018.626311,-0.765537,-2.199367,49.817025,0.038605,-0.014084,0.99765,0.026609,-0.020766,0.027765,59.744965,22.640549,-146.959961,,,
729606018.62964,-0.765537,-2.199367,49.817025,0.038605,-0.014084,0.99765,0.026609,-0.020766,0.027765,59.744965,22.640549,-146.959961,,,
729606018.632991,-0.757698,-2.204714,49.825293,0.039627,-0.014374,0.993774,0.026609,-0.020766,0.027765,59.744965,22.640549,-146.959961,,,
729606018.636303,-0.751473,-2.206167,49.832531,0.039627,-0.014374,0.993774,0.023615,-0.019168,0.022005,59.744965,22.640549,-146.959961,,,
729606018.639688,-0.751473,-2.206167,49.832531,0.039627,-0.014374,0.993774,0.023615,-0.019168,0.022005,59.744965,22.640549,-146.959961,,,
729606018.642976,-0.746118,-2.212655,49.838896,0.046021,-0.009644,0.986313,0.023615,-0.019168,0.022005,59.744965,22.640549,-146.959961,,,
729606018.646304,-0.741456,-2.21643,49.844845,0.046021,-0.009644,0.986313,0.01755,-0.016514,0.015761,59.744965,22.640549,-146.959961,,,
729606018.64969,-0.741456,-2.21643,49.844845,0.046021,-0.009644,0.986313,0.01755,-0.016514,0.015761,59.68895,22.57666,-147.36705,,,
729606018.653007,-0.738141,-2.222061,49.850374,0.044067,-0.012238,0.978668,0.01755,-0.016514,0.015761,59.68895,22.57666,-147.36705,,,
729606018.656305,-0.736105,-2.225798,49.855883,0.044067,-0.012238,0.978668,0.004495,-0.011751,0.017034,59.68895,22.57666,-147.36705,,,
729606018.659678,-0.736105,-2.225798,49.855883,0.044067,-0.012238,0.978668,0.004495,-0.011751,0.017034,59.68895,22.57666,-147.36705,,,
729606018.662977,-0.736786,-2.228949,49.861701,0.039841,-0.015335,0.979263,0.004495,-0.011751,0.017034,59.68895,22.57666,-147.36705,,,
729606018.666304,-0.739677,-2.229742,49.867799,0.039841,-0.015335,0.979263,-0.014615,-0.002694,0.018598,59.68895,22.57666,-147.36705,,,
729606018.669777,-0.739677,-2.229742,49.867799,0.039841,-0.015335,0.979263,-0.014615,-0.002694,0.018598,59.68895,22.57666,-147.36705,,,
729606018.672959,-0.746728,-2.231739,49.8734,0.043106,-0.011719,0.972549,-0.014615,-0.002694,0.018598,59.68895,22.57666,-147.36705,,,
729606018.676225,-0.756836,-2.231908,49.878496,0.043106,-0.011719,0.972549,-0.036628,-0.003624,0.018319,59.68895,22.57666,-147.36705,,,
729606018.679648,-0.756836,-2.231908,49.878496,0.043106,-0.011719,0.972549,-0.036628,-0.003624,0.018319,59.68895,22.57666,-147.36705,,,
729606018.682967,-0.770436,-2.234057,49.88304,0.047867,-0.005463,0.963516,-0.036628,-0.003624,0.018319,59.68895,22.57666,-147.36705,,,
729606018.686304,-0.786209,-2.235291,49.886418,0.047867,-0.005463,0.963516,-0.055599,-0.003571,0.011465,59.68895,22.57666,-147.36705,,,
729606018.689636,-0.786209,-2.235291,49.886418,0.047867,-0.005463,0.963516,-0.055599,-0.003571,0.011465,59.551224,22.455597,-147.164597,,,
729606018.692971,-0.803267,-2.236929,49.888473,0.048187,-0.005127,0.970795,-0.055599,-0.003571,0.011465,59.551224,22.455597,-147.164597,,,
729606018.696298,-0.819482,-2.239507,49.889825,0.048187,-0.005127,0.970795,-0.058654,-0.005611,0.007271,59.551224,22.455597,-147.164597,,,
729606018.699651,-0.819482,-2.239507,49.889825,0.048187,-0.005127,0.970795,-0.058654,-0.005611,0.007271,59.551224,22.455597,-147.164597,,,
729606018.703031,-0.833601,-2.242101,49.891263,0.045288,-0.011032,0.985825,-0.058654,-0.005611,0.007271,59.551224,22.455597,-147.164597,,,
729606018.706294,-0.844426,-2.244001,49.892681,0.045288,-0.011032,0.985825,-0.034285,-0.005199,0.000574,59.551224,22.455597,-147.164597,,,
729606018.709644,-0.844426,-2.244001,49.892681,0.045288,-0.011032,0.985825,-0.034285,-0.005199,0.000574,59.551224,22.455597,-147.164597,,,
729606018.712975,-0.851802,-2.246895,49.893876,0.039993,-0.018158,1.001953,-0.034285,-0.005199,0.000574,59.551224,22.455597,-147.164597,,,
729606018.716309,-0.855771,-2.251052,49.895439,0.039993,-0.018158,1.001953,-0.011877,-0.007792,0.006714,59.551224,22.455597,-147.164597,,,
729606018.719451,-0.855771,-2.251052,49.895439,0.039993,-0.018158,1.001953,-0.011877,-0.007792,0.006714,59.551224,22.455597,-147.164597,,,
729606018.723075,-0.857496,-2.254234,49.897646,0.03775,-0.023483,1.007812,-0.011877,-0.007792,0.006714,59.551224,22.455597,-147.164597,,,
729606018.726281,-0.857496,-2.258953,49.900144,0.03775,-0.023483,1.007812,0.005214,-0.004121,0.007548,59.551224,22.455597,-147.164597,,,
729606018.729663,-0.855836,-2.258953,49.900144,0.03775,-0.023483,1.007812,0.005214,-0.004121,0.007548,59.551224,22.455597,-147.164597,,,
729606018.733003,-0.852841,-2.261003,49.903345,0.032471,-0.024063,1.009903,0.005214,-0.004121,0.007548,59.45433,22.498093,-147.259293,,,
729606018.736331,-0.848403,-2.264827,49.907689,0.032471,-0.024063,1.009903,0.016622,-0.006922,0.013635,59.45433,22.498093,-147.259293,,,
729606018.739711,-0.848403,-2.264827,49.907689,0.032471,-0.024063,1.009903,0.016622,-0.006922,0.013635,59.45433,22.498093,-147.259293,,,
729606018.742984,-0.843291,-2.268571,49.912882,0.034393,-0.02063,1.009079,0.016622,-0.006922,0.013635,59.45433,22.498093,-147.259293,,,
729606018.746298,-0.843291,-2.268571,49.912882,0.034393,-0.02063,1.009079,0.020227,-0.015577,0.020759,59.45433,22.498093,-147.259293,,,
729606018.749634,-0.837735,-2.273909,49.918679,0.034393,-0.02063,1.009079,0.020227,-0.015577,0.020759,59.45433,22.498093,-147.259293,,,
729606018.753079,-0.832702,-2.279769,49.925667,0.034363,-0.020264,1.006134,0.020227,-0.015577,0.020759,59.45433,22.498093,-147.259293,,,
729606018.756298,-0.832702,-2.279769,49.934208,0.034363,-0.020264,1.006134,0.013363,-0.020638,0.032307,59.45433,22.498093,-147.259293,,,
729606018.759683,-0.828437,-2.287974,49.934208,0.034363,-0.020264,1.006134,0.013363,-0.020638,0.032307,59.45433,22.498093,-147.259293,,,
729606018.76298,-0.827187,-2.294744,49.943596,0.032669,-0.025833,0.999283,0.013363,-0.020638,0.032307,59.45433,22.498093,-147.259293,,,
729606018.766291,-0.827187,-2.294744,49.943596,0.032669,-0.025833,0.999283,0.00034,-0.030827,0.029457,59.45433,22.498093,-147.259293,,,
729606018.769659,-0.825871,-2.306329,49.951993,0.032669,-0.025833,0.999283,0.00034,-0.030827,0.029457,59.45433,22.498093,-147.259293,,,
729606018.772991,-0.826754,-2.316002,49.957676,0.047699,-0.019241,0.998459,0.00034,-0.030827,0.029457,59.516769,22.798019,-147.05217,,,
729606018.776285,-0.826754,-2.316002,49.957676,0.047699,-0.019241,0.998459,-0.006182,-0.02391,0.005867,59.516769,22.798019,-147.05217,,,
729606018.779709,-0.827014,-2.326927,49.959761,0.047699,-0.019241,0.998459,-0.006182,-0.02391,0.005867,59.516769,22.798019,-147.05217,,,
729606018.782972,-0.829505,-2.334018,49.959066,0.060287,-0.008057,1.008408,-0.006182,-0.02391,0.005867,59.516769,22.798019,-147.05217,,,
729606018.786291,-0.829505,-2.334018,49.959066,0.060287,-0.008057,1.008408,-0.002829,-0.016639,-0.010432,59.516769,22.798019,-147.05217,,,
729606018.789631,-0.831064,-2.340681,49.956785,0.060287,-0.008057,1.008408,-0.002829,-0.016639,-0.010432,59.516769,22.798019,-147.05217,,,
729606018.792966,-0.83151,-2.346631,49.953218,0.057022,-0.008118,1.005692,-0.002829,-0.016639,-0.010432,59.516769,22.798019,-147.05217,,,
729606018.796303,-0.83151,-2.346631,49.953218,0.057022,-0.008118,1.005692,0.010413,-0.022738,-0.015288,59.516769,22.798019,-147.05217,,,
729606018.799644,-0.83112,-2.35314,49.948806,0.057022,-0.008118,1.005692,0.010413,-0.022738,-0.015288,59.516769,22.798019,-147.05217,,,
729606018.803036,-0.827305,-2.360904,49.944825,0.056396,-0.009827,1.004349,0.010413,-0.022738,-0.015288,59.516769,22.798019,-147.05217,,,
729606018.806322,-0.827305,-2.360904,49.944825,0.056396,-0.009827,1.004349,0.017523,-0.020224,-0.013354,59.516769,22.798019,-147.05217,,,
729606018.809656,-0.82403,-2.366324,49.94156,0.056396,-0.009827,1.004349,0.017523,-0.020224,-0.013354,59.516769,22.798019,-147.05217,,,
729606018.812983,-0.818569,-2.372097,49.938926,0.047974,-0.016983,1.00444,0.017523,-0.020224,-0.013354,59.384888,22.612183,-147.262711,,,
729606018.816347,-0.818569,-2.372097,49.938926,0.047974,-0.016983,1.00444,0.017009,-0.015937,-0.008416,59.384888,22.612183,-147.262711,,,
729606018.819653,-0.814968,-2.374712,49.937281,0.047974,-0.016983,1.00444,0.017009,-0.015937,-0.008416,59.384888,22.612183,-147.262711,,,
729606018.823002,-0.811542,-2.379966,49.935682,0.046356,-0.019424,0.997437,0.017009,-0.015937,-0.008416,59.384888,22.612183,-147.262711,,,
729606018.826341,-0.811542,-2.379966,49.935682,0.046356,-0.019424,0.997437,0.006156,-0.009361,-0.010129,59.384888,22.612183,-147.262711,,,
729606018.829709,-0.80982,-2.382459,49.933116,0.046356,-0.019424,0.997437,0.006156,-0.009361,-0.010129,59.384888,22.612183,-147.262711,,,
729606018.832967,-0.806223,-2.385345,49.928417,0.05127,-0.015396,0.994598,0.006156,-0.009361,-0.010129,59.384888,22.612183,-147.262711,,,
729606018.836304,-0.806223,-2.385345,49.928417,0.05127,-0.015396,0.994598,0.019734,-0.00386,-0.030668,59.384888,22.612183,-147.262711,,,
729606018.839669,-0.802595,-2.384438,49.920984,0.05127,-0.015396,0.994598,0.019734,-0.00386,-0.030668,59.384888,22.612183,-147.262711,,,
729606018.84304,-0.796036,-2.386729,49.911832,0.053024,-0.008209,1.006485,0.019734,-0.00386,-0.030668,59.384888,22.612183,-147.262711,,,
729606018.846307,-0.796036,-2.386729,49.911832,0.053024,-0.008209,1.006485,0.031339,-0.00664,-0.034232,59.384888,22.612183,-147.262711,,,
729606018.849652,-0.789454,-2.388047,49.902661,0.053024,-0.008209,1.006485,0.031339,-0.00664,-0.034232,59.384888,22.612183,-147.262711,,,
729606018.852964,-0.779993,-2.389656,49.894754,0.040955,-0.013824,1.00296,0.031339,-0.00664,-0.034232,59.433716,22.509537,-147.403427,,,
729606018.856378,-0.779993,-2.389656,49.894754,0.040955,-0.013824,1.00296,0.027032,0.003172,-0.019967,59.433716,22.509537,-147.403427,,,
729606018.859647,-0.77172,-2.393558,49.888838,0.040955,-0.013824,1.00296,0.027032,0.003172,-0.019967,59.433716,22.509537,-147.403427,,,
729606018.862962,-0.764672,-2.393598,49.885007,0.027298,-0.022598,0.993561,0.027032,0.003172,-0.019967,59.433716,22.509537,-147.403427,,,
729606018.866368,-0.764672,-2.393598,49.885007,0.027298,-0.022598,0.993561,0.027032,0.003172,-0.019967,59.433716,22.509537,-147.403427,,,
729606018.86973,-0.757681,-2.399589,49.88236,0.027298,-0.022598,0.993561,0.019242,-0.005552,-0.010371,59.433716,22.509537,-147.403427,,,
729606018.872972,-0.753283,-2.403363,49.880159,0.031219,-0.018829,0.987656,0.019242,-0.005552,-0.010371,59.433716,22.509537,-147.403427,,,
729606018.876359,-0.753283,-2.403363,49.880159,0.031219,-0.018829,0.987656,0.019242,-0.005552,-0.010371,59.433716,22.509537,-147.403427,,,
729606018.879642,-0.749649,-2.413497,49.877652,0.031219,-0.018829,0.987656,0.011017,-0.018392,-0.011358,59.433716,22.509537,-147.403427,,,
729606018.882972,-0.747714,-2.41981,49.874473,0.034912,-0.013153,0.985611,0.011017,-0.018392,-0.011358,59.433716,22.509537,-147.403427,,,
729606018.8863,-0.747714,-2.41981,49.874473,0.034912,-0.013153,0.985611,0.011017,-0.018392,-0.011358,59.433716,22.509537,-147.403427,,,
729606018.889648,-0.746555,-2.429046,49.870448,0.034912,-0.013153,0.985611,0.001701,-0.018233,-0.016496,59.433716,22.509537,-147.403427,,,
729606018.892964,-0.747337,-2.43477,49.865412,0.032135,-0.010742,0.990784,0.001701,-0.018233,-0.016496,59.433716,22.509537,-147.403427,,,
729606018.896355,-0.747337,-2.43477,49.865412,0.032135,-0.010742,0.990784,0.001701,-0.018233,-0.016496,59.566727,22.55719,-147.081497,,,
729606018.899643,-0.750987,-2.440936,49.860142,0.032135,-0.010742,0.990784,-0.00827,-0.016826,-0.019208,59.566727,22.55719,-147.081497,,,
729606018.902962,-0.754822,-2.446414,49.855905,0.033875,-0.012009,0.988922,-0.00827,-0.016826,-0.019208,59.566727,22.55719,-147.081497,,,
729606018.906345,-0.754822,-2.446414,49.855905,0.033875,-0.012009,0.988922,-0.00827,-0.016826,-0.019208,59.566727,22.55719,-147.081497,,,
729606018.909663,-0.759833,-2.453177,49.8531,0.033875,-0.012009,0.988922,-0.014974,-0.013575,-0.009237,59.566727,22.55719,-147.081497,,,
729606018.91296,-0.763674,-2.458187,49.852185,0.032761,-0.016693,0.991104,-0.014974,-0.013575,-0.009237,59.566727,22.55719,-147.081497,,,
729606018.916299,-0.763674,-2.458187,49.852185,0.032761,-0.016693,0.991104,-0.014974,-0.013575,-0.009237,59.566727,22.55719,-147.081497,,,
729606018.919648,-0.766254,-2.466633,49.852648,0.032761,-0.016693,0.991104,-0.008979,-0.017115,-0.000365,59.566727,22.55719,-147.081497,,,
729606018.922969,-0.768684,-2.471878,49.853867,0.037857,-0.013107,0.992706,-0.008979,-0.017115,-0.000365,59.566727,22.55719,-147.081497,,,
729606018.926301,-0.768684,-2.471878,49.853867,0.037857,-0.013107,0.992706,-0.008979,-0.017115,-0.000365,59.566727,22.55719,-147.081497,,,
729606018.929645,-0.769511,-2.478769,49.855443,0.037857,-0.013107,0.992706,-0.002731,-0.013983,0.005791,59.566727,22.55719,-147.081497,,,
729606018.932961,-0.770433,-2.483091,49.856992,0.040253,-0.01088,0.996628,-0.002731,-0.013983,0.005791,59.566727,22.55719,-147.081497,,,
729606018.936326,-0.770433,-2.483091,49.856992,0.040253,-0.01088,0.996628,-0.002731,-0.013983,0.005791,59.299164,22.429535,-147.365311,,,
729606018.939653,-0.772212,-2.484843,49.858417,0.040253,-0.01088,0.996628,-0.000451,-0.013442,0.00191,59.299164,22.429535,-147.365311,,,
729606018.942965,-0.77355,-2.490673,49.859503,0.044266,-0.014847,0.995773,-0.000451,-0.013442,0.00191,59.299164,22.429535,-147.365311,,,
729606018.946333,-0.77355,-2.490673,49.859503,0.044266,-0.014847,0.995773,-0.000451,-0.013442,0.00191,59.299164,22.429535,-147.365311,,,
729606018.949646,-0.777261,-2.493084,49.860359,0.044266,-0.014847,0.995773,-0.004147,-0.021938,0.001122,59.299164,22.429535,-147.365311,,,
729606018.95296,-0.779968,-2.500689,49.861289,0.047913,-0.018539,0.993439,-0.004147,-0.021938,0.001122,59.299164,22.429535,-147.365311,,,
729606018.956359,-0.779968,-2.500689,49.861289,0.047913,-0.018539,0.993439,-0.004147,-0.021938,0.001122,59.299164,22.429535,-147.365311,,,
729606018.959726,-0.783274,-2.505616,49.862359,0.047913,-0.018539,0.993439,-0.008463,-0.024509,0.001964,59.299164,22.429535,-147.365311,,,
729606018.962967,-0.786669,-2.512492,49.863014,0.046387,-0.018036,0.997498,-0.008463,-0.024509,0.001964,59.299164,22.429535,-147.365311,,,
729606018.966299,-0.786669,-2.512492,49.863014,0.046387,-0.018036,0.997498,-0.008463,-0.024509,0.001964,59.299164,22.429535,-147.365311,,,
729606018.969668,-0.791339,-2.515487,49.863136,0.046387,-0.018036,0.997498,-0.015473,-0.019137,-0.001258,59.299164,22.429535,-147.365311,,,
729606018.972968,-0.795825,-2.521114,49.862728,0.047897,-0.014832,0.997574,-0.015473,-0.019137,-0.001258,59.299164,22.429535,-147.365311,,,
729606018.976274,-0.795825,-2.521114,49.862728,0.047897,-0.014832,0.997574,-0.015473,-0.019137,-0.001258,59.341202,22.446243,-147.345093,,,
729606018.979659,-0.798499,-2.523799,49.861511,0.047897,-0.014832,0.997574,-0.010309,-0.014828,-0.00526,59.341202,22.446243,-147.345093,,,
729606018.982967,-0.800787,-2.528225,49.859848,0.052658,-0.014053,0.999969,-0.010309,-0.014828,-0.00526,59.341202,22.446243,-147.345093,,,
729606018.986365,-0.800787,-2.528225,49.859848,0.052658,-0.014053,0.999969,-0.010309,-0.014828,-0.00526,59.341202,22.446243,-147.345093,,,
729606018.989635,-0.802086,-2.528429,49.858231,0.052658,-0.014053,0.999969,-0.001931,-0.007215,-0.006323,59.341202,22.446243,-147.345093,,,
729606018.992973,-0.802503,-2.530919,49.856512,0.054138,-0.012619,1.001297,-0.001931,-0.007215,-0.006323,59.341202,22.446243,-147.345093,,,
729606018.996316,-0.802503,-2.530919,49.856512,0.054138,-0.012619,1.001297,-0.001931,-0.007215,-0.006323,59.341202,22.446243,-147.345093,,,
729606018.999703,-0.802256,-2.530126,49.854861,0.054138,-0.012619,1.001297,0.004692,-0.005387,-0.00589,59.341202,22.446243,-147.345093,,,
729606019.002995,-0.800224,-2.53277,49.852984,0.052185,-0.010315,0.996796,0.004692,-0.005387,-0.00589,59.341202,22.446243,-147.345093,,,
729606019.006301,-0.800224,-2.53277,49.852984,0.052185,-0.010315,0.996796,0.004692,-0.005387,-0.00589,59.341202,22.446243,-147.345093,,,
729606019.009744,-0.796558,-2.535184,49.850581,0.052185,-0.010315,0.996796,0.015594,-0.012392,-0.009291,59.341202,22.446243,-147.345093,,,
729606019.012973,-0.792048,-2.540426,49.847626,0.053818,-0.010544,0.994904,0.015594,-0.012392,-0.009291,59.341202,22.446243,-147.345093,,,
729606019.016311,-0.792048,-2.540426,49.847626,0.053818,-0.010544,0.994904,0.015594,-0.012392,-0.009291,59.337036,22.594833,-147.412979,,,
729606019.019672,-0.786123,-2.545724,49.843795,0.053818,-0.010544,0.994904,0.019768,-0.019466,-0.017171,59.337036,22.594833,-147.412979,,,
729606019.02297,-0.779414,-2.551957,49.838545,0.055176,-0.008179,0.996414,0.019768,-0.019466,-0.017171,59.337036,22.594833,-147.412979,,,
729606019.02634,-0.779414,-2.551957,49.838545,0.055176,-0.008179,0.996414,0.019768,-0.019466,-0.017171,59.337036,22.594833,-147.412979,,,
729606019.029651,-0.772625,-2.558576,49.832066,0.055176,-0.008179,0.996414,0.021896,-0.016672,-0.02607,59.337036,22.594833,-147.412979,,,
729606019.032962,-0.765209,-2.563659,49.824725,0.056137,-0.00499,0.998169,0.021896,-0.016672,-0.02607,59.337036,22.594833,-147.412979,,,
729606019.036353,-0.765209,-2.563659,49.824725,0.056137,-0.00499,0.998169,0.021896,-0.016672,-0.02607,59.337036,22.594833,-147.412979,,,
729606019.039624,-0.759832,-2.567928,49.816859,0.056137,-0.00499,0.998169,0.02092,-0.008252,-0.031201,59.337036,22.594833,-147.412979,,,
729606019.042967,-0.755478,-2.569674,49.80983,0.049484,-0.006073,0.988876,0.02092,-0.008252,-0.031201,59.337036,22.594833,-147.412979,,,
729606019.046307,-0.755478,-2.569674,49.80983,0.049484,-0.006073,0.988876,0.02092,-0.008252,-0.031201,59.337036,22.594833,-147.412979,,,
729606019.049677,-0.753364,-2.569908,49.804334,0.049484,-0.006073,0.988876,0.007213,0.006948,-0.020657,59.337036,22.594833,-147.412979,,,
729606019.052969,-0.752329,-2.568302,49.800559,0.04071,-0.008331,0.987564,0.007213,0.006948,-0.020657,59.337036,22.594833,-147.412979,,,
729606019.056309,-0.752329,-2.568302,49.800559,0.04071,-0.008331,0.987564,0.007213,0.006948,-0.020657,59.337036,22.594833,-147.412979,,,
729606019.059648,-0.753609,-2.567745,49.798214,0.04071,-0.008331,0.987564,-0.002529,0.009609,-0.009452,59.339859,22.525421,-147.480011,,,
729606019.062964,-0.756983,-2.566159,49.796917,0.039688,-0.008713,0.98288,-0.002529,0.009609,-0.009452,59.339859,22.525421,-147.480011,,,
729606019.066286,-0.756983,-2.566159,49.796917,0.039688,-0.008713,0.98288,-0.002529,0.009609,-0.009452,59.339859,22.525421,-147.480011,,,
729606019.069654,-0.762996,-2.567226,49.796327,0.039688,-0.008713,0.98288,-0.02078,0.008973,-0.001899,59.339859,22.525421,-147.480011,,,
729606019.073007,-0.771251,-2.566353,49.795476,0.037415,-0.007629,0.981186,-0.02078,0.008973,-0.001899,59.339859,22.525421,-147.480011,,,
729606019.076343,-0.771251,-2.566353,49.795476,0.037415,-0.007629,0.981186,-0.02078,0.008973,-0.001899,59.339859,22.525421,-147.480011,,,
729606019.079666,-0.780828,-2.570433,49.794756,0.037415,-0.007629,0.981186,-0.034836,-0.004481,-0.001613,59.339859,22.525421,-147.480011,,,
729606019.083009,-0.790652,-2.575251,49.794679,0.035965,-0.009308,0.984497,-0.034836,-0.004481,-0.001613,59.339859,22.525421,-147.480011,,,
729606019.086327,-0.790652,-2.575251,49.794679,0.035965,-0.009308,0.984497,-0.034836,-0.004481,-0.001613,59.339859,22.525421,-147.480011,,,
729606019.089665,-0.798103,-2.584352,49.79454,0.035965,-0.009308,0.984497,-0.024063,-0.022657,-0.00137,59.339859,22.525421,-147.480011,,,
729606019.092949,-0.803101,-2.592733,49.79522,0.035034,-0.013565,0.999817,-0.024063,-0.022657,-0.00137,59.339859,22.525421,-147.480011,,,
729606019.096355,-0.803101,-2.592733,49.79522,0.035034,-0.013565,0.999817,-0.024063,-0.022657,-0.00137,59.339859,22.525421,-147.480011,,,
729606019.099718,-0.803815,-2.605251,49.797989,0.035034,-0.013565,0.999817,-0.001363,-0.029805,0.009181,59.248611,22.652298,-147.209229,,,
729606019.102998,-0.802385,-2.615252,49.802362,0.031754,-0.018753,1.014069,-0.001363,-0.029805,0.009181,59.248611,22.652298,-147.209229,,,
729606019.106356,-0.802385,-2.615252,49.802362,0.031754,-0.018753,1.014069,-0.001363,-0.029805,0.009181,59.248611,22.652298,-147.209229,,,
729606019.109633,-0.79798,-2.626871,49.80796,0.031754,-0.018753,1.014069,0.016148,-0.027737,0.018854,59.248611,22.652298,-147.209229,,,
729606019.112971,-0.793927,-2.634216,49.814989,0.032547,-0.017792,1.012787,0.016148,-0.027737,0.018854,59.248611,22.652298,-147.209229,,,
729606019.116327,-0.793927,-2.634216,49.814989,0.032547,-0.017792,1.012787,0.016148,-0.027737,0.018854,59.248611,22.652298,-147.209229,,,
729606019.119637,-0.78827,-2.642122,49.82256,0.032547,-0.017792,1.012787,0.018119,-0.016335,0.024119,59.248611,22.652298,-147.209229,,,
729606019.122968,-0.78546,-2.645517,49.830027,0.042099,-0.012787,1.00795,0.018119,-0.016335,0.024119,59.248611,22.652298,-147.209229,,,
729606019.126411,-0.78546,-2.645517,49.830027,0.042099,-0.012787,1.00795,0.018119,-0.016335,0.024119,59.248611,22.652298,-147.209229,,,
729606019.129756,-0.783104,-2.648072,49.836773,0.042099,-0.012787,1.00795,0.003148,-0.003336,0.01903,59.248611,22.652298,-147.209229,,,
729606019.132975,-0.783826,-2.650435,49.842071,0.049866,-0.007095,0.996796,0.003148,-0.003336,0.01903,59.248611,22.652298,-147.209229,,,
729606019.136328,-0.783826,-2.650435,49.842071,0.049866,-0.007095,0.996796,0.003148,-0.003336,0.01903,59.248611,22.652298,-147.209229,,,
729606019.139643,-0.785379,-2.651065,49.845645,0.049866,-0.007095,0.996796,-0.007087,-0.004473,0.010888,59.292023,22.527603,-147.322815,,,
729606019.14297,-0.788874,-2.653085,49.847243,0.050125,-0.005844,0.997513,-0.007087,-0.004473,0.010888,59.292023,22.527603,-147.322815,,,
729606019.146322,-0.788874,-2.653085,49.847243,0.050125,-0.005844,0.997513,-0.007087,-0.004473,0.010888,59.292023,22.527603,-147.322815,,,
729606019.149682,-0.792785,-2.654025,49.847308,0.050125,-0.005844,0.997513,-0.016774,-0.007346,-0.001344,59.292023,22.527603,-147.322815,,,
729606019.15298,-0.797685,-2.658863,49.846328,0.047012,-0.007782,1.002792,-0.016774,-0.007346,-0.001344,59.292023,22.527603,-147.322815,,,
729606019.156311,-0.797685,-2.658863,49.846328,0.047012,-0.007782,1.002792,-0.016774,-0.007346,-0.001344,59.292023,22.527603,-147.322815,,,
729606019.159643,-0.800586,-2.66355,49.84469,0.047012,-0.007782,1.002792,-0.006494,-0.025155,-0.005912,59.292023,22.527603,-147.322815,,,
729606019.162961,-0.802884,-2.672455,49.843247,0.04425,-0.014755,1.004837,-0.006494,-0.025155,-0.005912,59.292023,22.527603,-147.322815,,,
729606019.166298,-0.802884,-2.672455,49.843247,0.04425,-0.014755,1.004837,-0.006494,-0.025155,-0.005912,59.292023,22.527603,-147.322815,,,
729606019.169648,-0.803364,-2.678211,49.842902,0.04425,-0.014755,1.004837,0.000405,-0.027803,-0.001189,59.292023,22.527603,-147.322815,,,
729606019.172968,-0.80352,-2.686673,49.843365,0.036972,-0.020447,1.010788,0.000405,-0.027803,-0.001189,59.292023,22.527603,-147.322815,,,
729606019.176359,-0.80352,-2.686673,49.843365,0.036972,-0.020447,1.010788,0.000405,-0.027803,-0.001189,59.292023,22.527603,-147.322815,,,
729606019.179726,-0.802718,-2.691203,49.845041,0.036972,-0.020447,1.010788,0.006044,-0.026301,0.005509,59.210419,22.538025,-147.117294,,,
729606019.182967,-0.801631,-2.699791,49.847645,0.039291,-0.017014,1.008255,0.006044,-0.026301,0.005509,59.210419,22.538025,-147.117294,,,
729606019.186325,-0.801631,-2.699791,49.847645,0.039291,-0.017014,1.008255,0.006044,-0.026301,0.005509,59.210419,22.538025,-147.117294,,,
729606019.189702,-0.802089,-2.702649,49.850277,0.039291,-0.017014,1.008255,0.004104,-0.020631,0.006298,59.210419,22.538025,-147.117294,,,
729606019.192968,-0.801569,-2.708706,49.852402,0.048447,-0.012817,1.00322,0.004104,-0.020631,0.006298,59.210419,22.538025,-147.117294,,,
729606019.196322,-0.801569,-2.708706,49.852402,0.048447,-0.012817,1.00322,0.004104,-0.020631,0.006298,59.210419,22.538025,-147.117294,,,
729606019.199642,-0.801098,-2.709285,49.854425,0.048447,-0.012817,1.00322,0.004189,-0.010863,0.00728,59.210419,22.538025,-147.117294,,,
729606019.202978,-0.798977,-2.711827,49.856375,0.051056,-0.013733,1.007294,0.004189,-0.010863,0.00728,59.210419,22.538025,-147.117294,,,
729606019.206303,-0.798977,-2.711827,49.856375,0.051056,-0.013733,1.007294,0.004189,-0.010863,0.00728,59.210419,22.538025,-147.117294,,,
729606019.209654,-0.793562,-2.713683,49.858301,0.051056,-0.013733,1.007294,0.020067,-0.007153,0.004508,59.210419,22.538025,-147.117294,,,
729606019.212972,-0.785778,-2.716801,49.860491,0.053085,-0.01387,1.006653,0.020067,-0.007153,0.004508,59.210419,22.538025,-147.117294,,,
729606019.216376,-0.785778,-2.716801,49.860491,0.053085,-0.01387,1.006653,0.020067,-0.007153,0.004508,59.210419,22.538025,-147.117294,,,
729606019.219653,-0.774272,-2.720614,49.862683,0.053085,-0.01387,1.006653,0.037576,-0.009427,0.004997,59.210419,22.538025,-147.117294,,,
729606019.22296,-0.762788,-2.723419,49.8652,0.053543,-0.016495,1.003128,0.037576,-0.009427,0.004997,59.363159,22.403046,-146.90416,,,
729606019.226341,-0.762788,-2.723419,49.8652,0.053543,-0.016495,1.003128,0.037576,-0.009427,0.004997,59.363159,22.403046,-146.90416,,,
729606019.229683,-0.749936,-2.726836,49.867391,0.053543,-0.016495,1.003128,0.041011,-0.005997,0.003843,59.363159,22.403046,-146.90416,,,
729606019.232965,-0.738662,-2.730038,49.868185,0.055527,-0.015167,1.000275,0.041011,-0.005997,0.003843,59.363159,22.403046,-146.90416,,,
729606019.236309,-0.738662,-2.730038,49.868185,0.055527,-0.015167,1.000275,0.041011,-0.005997,0.003843,59.363159,22.403046,-146.90416,,,
729606019.239647,-0.727721,-2.733324,49.867514,0.055527,-0.015167,1.000275,0.035144,-0.009193,-0.00496,59.363159,22.403046,-146.90416,,,
729606019.242965,-0.718926,-2.737046,49.865909,0.054489,-0.011627,0.989243,0.035144,-0.009193,-0.00496,59.363159,22.403046,-146.90416,,,
729606019.246319,-0.718926,-2.737046,49.865909,0.054489,-0.011627,0.989243,0.035144,-0.009193,-0.00496,59.363159,22.403046,-146.90416,,,
729606019.249639,-0.713068,-2.738899,49.863751,0.054489,-0.011627,0.989243,0.022289,-0.010813,-0.009548,59.363159,22.403046,-146.90416,,,
729606019.252967,-0.708838,-2.743064,49.860132,0.052353,-0.012894,0.987274,0.022289,-0.010813,-0.009548,59.363159,22.403046,-146.90416,,,
729606019.256384,-0.708838,-2.743064,49.860132,0.052353,-0.012894,0.987274,0.022289,-0.010813,-0.009548,59.363159,22.403046,-146.90416,,,
729606019.25965,-0.707897,-2.744787,49.856349,0.052353,-0.012894,0.987274,0.007269,-0.015567,-0.013692,59.363159,22.403046,-146.90416,,,
729606019.26297,-0.706944,-2.750743,49.85291,0.053757,-0.013916,0.983063,0.007269,-0.015567,-0.013692,59.297226,22.31366,-147.130875,,,
729606019.266323,-0.706944,-2.750743,49.85291,0.053757,-0.013916,0.983063,0.007269,-0.015567,-0.013692,59.297226,22.31366,-147.130875,,,
729606019.269702,-0.707662,-2.754466,49.849092,0.053757,-0.013916,0.983063,-0.002322,-0.015903,-0.012942,59.297226,22.31366,-147.130875,,,
729606019.272964,-0.709352,-2.758832,49.84549,0.052109,-0.011703,0.983841,-0.002322,-0.015903,-0.012942,59.297226,22.31366,-147.130875,,,
729606019.276309,-0.709352,-2.758832,49.84549,0.052109,-0.011703,0.983841,-0.002322,-0.015903,-0.012942,59.297226,22.31366,-147.130875,,,
729606019.279638,-0.71212,-2.763214,49.842253,0.052109,-0.011703,0.983841,-0.011761,-0.009863,-0.013306,59.297226,22.31366,-147.130875,,,
729606019.282961,-0.716107,-2.766567,49.839581,0.051895,-0.009766,0.984375,-0.011761,-0.009863,-0.013306,59.297226,22.31366,-147.130875,,,
729606019.286317,-0.716107,-2.766567,49.839581,0.051895,-0.009766,0.984375,-0.011761,-0.009863,-0.013306,59.297226,22.31366,-147.130875,,,
729606019.289631,-0.719908,-2.770343,49.837394,0.051895,-0.009766,0.984375,-0.012513,-0.005873,-0.007879,59.297226,22.31366,-147.130875,,,
729606019.292965,-0.721202,-2.772785,49.835304,0.051529,-0.010315,0.988647,-0.012513,-0.005873,-0.007879,59.297226,22.31366,-147.130875,,,
729606019.296375,-0.721202,-2.772785,49.835304,0.051529,-0.010315,0.988647,-0.012513,-0.005873,-0.007879,59.297226,22.31366,-147.130875,,,
729606019.299634,-0.72017,-2.775763,49.832933,0.051529,-0.010315,0.988647,0.00844,-0.001029,-0.010839,59.297226,22.31366,-147.130875,,,
729606019.302971,-0.71572,-2.776721,49.830543,0.058838,-0.010986,1.001465,0.00844,-0.001029,-0.010839,59.067352,22.324753,-146.98967,,,
729606019.306323,-0.71572,-2.776721,49.830543,0.058838,-0.010986,1.001465,0.00844,-0.001029,-0.010839,59.067352,22.324753,-146.98967,,,
729606019.309692,-0.710036,-2.778487,49.828755,0.058838,-0.010986,1.001465,0.023693,0.004478,-0.008795,59.067352,22.324753,-146.98967,,,
729606019.312956,-0.703149,-2.778116,49.827567,0.051224,-0.014969,0.996872,0.023693,0.004478,-0.008795,59.067352,22.324753,-146.98967,,,
729606019.31632,-0.703149,-2.778116,49.827567,0.051224,-0.014969,0.996872,0.023693,0.004478,-0.008795,59.067352,22.324753,-146.98967,,,
729606019.319651,-0.696966,-2.779103,49.826257,0.051224,-0.014969,0.996872,0.022493,0.007856,-0.006802,59.067352,22.324753,-146.98967,,,
729606019.322961,-0.692022,-2.777899,49.824461,0.046722,-0.014801,0.98938,0.022493,0.007856,-0.006802,59.067352,22.324753,-146.98967,,,
729606019.326339,-0.692022,-2.777899,49.824461,0.046722,-0.014801,0.98938,0.022493,0.007856,-0.006802,59.067352,22.324753,-146.98967,,,
729606019.329711,-0.689519,-2.778738,49.822061,0.046722,-0.014801,0.98938,0.00885,0.003505,-0.01221,59.067352,22.324753,-146.98967,,,
729606019.332986,-0.689966,-2.77854,49.818561,0.050735,-0.008621,0.980423,0.00885,0.003505,-0.01221,59.067352,22.324753,-146.98967,,,
729606019.336406,-0.689966,-2.77854,49.818561,0.050735,-0.008621,0.980423,0.00885,0.003505,-0.01221,59.067352,22.324753,-146.98967,,,
729606019.339672,-0.693638,-2.779977,49.813594,0.050735,-0.008621,0.980423,-0.01165,0.004493,-0.019111,59.067352,22.324753,-146.98967,,,
729606019.34305,-0.699496,-2.779462,49.807533,0.051422,-0.007339,0.976944,-0.01165,0.004493,-0.019111,59.416489,22.291229,-146.869385,,,
729606019.346313,-0.699496,-2.779462,49.807533,0.051422,-0.007339,0.976944,-0.01165,0.004493,-0.019111,59.416489,22.291229,-146.869385,,,
729606019.349698,-0.708038,-2.780134,49.800798,0.051422,-0.007339,0.976944,-0.035262,0.006887,-0.024609,59.416489,22.291229,-146.869385,,,
729606019.352972,-0.718951,-2.778819,49.794107,0.043884,-0.00766,0.976456,-0.035262,0.006887,-0.024609,59.416489,22.291229,-146.869385,,,
729606019.356337,-0.718951,-2.778819,49.794107,0.043884,-0.00766,0.976456,-0.035262,0.006887,-0.024609,59.416489,22.291229,-146.869385,,,
729606019.359642,-0.73215,-2.778431,49.788261,0.043884,-0.00766,0.976456,-0.048791,0.007962,-0.01736,59.416489,22.291229,-146.869385,,,
729606019.362974,-0.747885,-2.776559,49.784208,0.038742,-0.010498,0.975235,-0.048791,0.007962,-0.01736,59.416489,22.291229,-146.869385,,,
729606019.366317,-0.747885,-2.776559,49.784208,0.038742,-0.010498,0.975235,-0.048791,0.007962,-0.01736,59.416489,22.291229,-146.869385,,,
729606019.36972,-0.764904,-2.775016,49.782698,0.038742,-0.010498,0.975235,-0.063664,0.010988,-0.003415,59.416489,22.291229,-146.869385,,,
729606019.37297,-0.78263,-2.772467,49.783496,0.032898,-0.019135,0.979889,-0.063664,0.010988,-0.003415,59.416489,22.291229,-146.869385,,,
