Time (sec),Pitch (deg),Roll (deg),Yaw(deg),X-Acceleration (g),Y-Acceleration (g),Z-Acceleration (g),Pitch Rate (deg/sec),Roll Rate (deg/sec),Yaw Rate (deg/sec),Magnetic Field in X direction (uT),Magnetic Field in Y direction (uT),Magnetic Field in Z Direction (uT),Latitude (deg),Longitude (deg),Altitude (m)
729608331.837055,1.149958,-2.070107,54.572804,0.035233,-0.00296,1.000366,0.044756,0.02571,0.031671,61.546173,22.298737,-147.149338,,,
729608331.840391,1.149958,-2.070107,54.572804,0.035233,-0.00296,1.000366,0.044756,0.02571,0.031671,61.546173,22.298737,-147.149338,,,
729608331.84371,1.161756,-2.064269,54.582976,0.035233,-0.00296,1.000366,0.044756,0.02571,0.031671,61.546173,22.298737,-147.149338,,,
729608331.84705,1.170908,-2.05017,54.592798,0.040283,0.002045,0.990463,0.046065,0.021379,0.027612,61.546173,22.298737,-147.149338,,,
729608331.850374,1.170908,-2.05017,54.592798,0.040283,0.002045,0.990463,0.046065,0.021379,0.027612,61.546173,22.298737,-147.149338,,,
729608331.853711,1.183179,-2.046004,54.601769,0.040283,0.002045,0.990463,0.046065,0.021379,0.027612,61.546173,22.298737,-147.149338,,,
729608331.857044,1.188952,-2.037159,54.60886,0.047226,0.010239,0.975784,0.029556,-0.001265,0.016393,61.546173,22.298737,-147.149338,,,
729608331.860398,1.188952,-2.037159,54.60886,0.047226,0.010239,0.975784,0.029556,-0.001265,0.016393,61.546173,22.298737,-147.149338,,,
729608331.863718,1.19621,-2.03824,54.613571,0.047226,0.010239,0.975784,0.029556,-0.001265,0.016393,61.546173,22.298737,-147.149338,,,
729608331.86706,1.195516,-2.035482,54.615891,0.052475,0.018585,0.962814,0.004549,-0.009443,0.002305,61.691147,22.091766,-147.030029,,,
729608331.870375,1.195516,-2.035482,54.615891,0.052475,0.018585,0.962814,0.004549,-0.009443,0.002305,61.691147,22.091766,-147.030029,,,
729608331.873709,1.196635,-2.038988,54.616398,0.052475,0.018585,0.962814,0.004549,-0.009443,0.002305,61.691147,22.091766,-147.030029,,,
729608331.87716,1.192114,-2.03897,54.615862,0.05249,0.022568,0.967484,-0.004791,-0.009848,-0.002513,61.691147,22.091766,-147.030029,,,
729608331.880413,1.192114,-2.03897,54.615862,0.05249,0.022568,0.967484,-0.004791,-0.009848,-0.002513,61.691147,22.091766,-147.030029,,,
729608331.883724,1.190274,-2.042549,54.615966,0.05249,0.022568,0.967484,-0.004791,-0.009848,-0.002513,61.691147,22.091766,-147.030029,,,
729608331.887043,1.186351,-2.04296,54.617149,0.048264,0.011917,0.972839,-0.006024,-7e-06,0.005318,61.691147,22.091766,-147.030029,,,
729608331.890381,1.186351,-2.04296,54.617149,0.048264,0.011917,0.972839,-0.006024,-7e-06,0.005318,61.691147,22.091766,-147.030029,,,
729608331.893794,1.184578,-2.044239,54.619167,0.048264,0.011917,0.972839,-0.006024,-7e-06,0.005318,61.691147,22.091766,-147.030029,,,
729608331.897043,1.179426,-2.043144,54.620674,0.047409,0.006332,0.977722,-0.006755,0.00384,0.002235,61.691147,22.091766,-147.030029,,,
729608331.900391,1.179426,-2.043144,54.620674,0.047409,0.006332,0.977722,-0.006755,0.00384,0.002235,61.691147,22.091766,-147.030029,,,
729608331.903551,1.175875,-2.042773,54.620734,0.047409,0.006332,0.977722,-0.006755,0.00384,0.002235,61.691147,22.091766,-147.030029,,,
729608331.907174,1.164613,-2.040653,54.618695,0.054703,0.020233,0.970261,-0.029306,0.011989,-0.01528,61.691147,22.091766,-147.030029,,,
729608331.910382,1.164613,-2.040653,54.618695,0.054703,0.020233,0.970261,-0.029306,0.011989,-0.01528,61.617142,22.190567,-146.879608,,,
729608331.913719,1.155147,-2.038546,54.614172,0.054703,0.020233,0.970261,-0.029306,0.011989,-0.01528,61.617142,22.190567,-146.879608,,,
729608331.917051,1.136625,-2.037151,54.607688,0.057938,0.030197,0.966034,-0.054284,0.004322,-0.023734,61.617142,22.190567,-146.879608,,,
729608331.920161,1.136625,-2.037151,54.607688,0.057938,0.030197,0.966034,-0.054284,0.004322,-0.023734,61.617142,22.190567,-146.879608,,,
729608331.923764,1.12047,-2.036675,54.600279,0.057938,0.030197,0.966034,-0.054284,0.004322,-0.023734,61.617142,22.190567,-146.879608,,,
729608331.927041,1.097322,-2.037818,54.591652,0.048965,0.025482,0.966812,-0.071438,-0.002972,-0.03497,61.617142,22.190567,-146.879608,,,
729608331.930393,1.097322,-2.037818,54.591652,0.048965,0.025482,0.966812,-0.071438,-0.002972,-0.03497,61.617142,22.190567,-146.879608,,,
729608331.933712,1.078019,-2.0401,54.581129,0.048965,0.025482,0.966812,-0.071438,-0.002972,-0.03497,61.617142,22.190567,-146.879608,,,
729608331.937044,1.05729,-2.046006,54.568591,0.046188,0.016083,0.978699,-0.060102,-0.012346,-0.048187,61.617142,22.190567,-146.879608,,,
729608331.940384,1.05729,-2.046006,54.568591,0.046188,0.016083,0.978699,-0.060102,-0.012346,-0.048187,61.617142,22.190567,-146.879608,,,
729608331.943794,1.040813,-2.050518,54.554041,0.046188,0.016083,0.978699,-0.060102,-0.012346,-0.048187,61.617142,22.190567,-146.879608,,,
729608331.947041,1.026909,-2.058351,54.538076,0.044968,0.011841,0.994934,-0.04047,-0.018632,-0.059716,61.617142,22.190567,-146.879608,,,
729608331.9504,1.026909,-2.058351,54.538076,0.044968,0.011841,0.994934,-0.04047,-0.018632,-0.059716,61.53801,22.36911,-146.829666,,,
729608331.953738,1.016219,-2.063595,54.521196,0.044968,0.011841,0.994934,-0.04047,-0.018632,-0.059716,61.53801,22.36911,-146.829666,,,
729608331.957048,1.008529,-2.071829,54.504267,0.039124,0.006958,1.004532,-0.026047,-0.013551,-0.059908,61.53801,22.36911,-146.829666,,,
729608331.960473,1.008529,-2.071829,54.504267,0.039124,0.006958,1.004532,-0.026047,-0.013551,-0.059908,61.53801,22.36911,-146.829666,,,
729608331.963768,1.002121,-2.076399,54.487385,0.039124,0.006958,1.004532,-0.026047,-0.013551,-0.059908,61.53801,22.36911,-146.829666,,,
729608331.967047,0.996366,-2.083239,54.471439,0.032196,0.002106,1.004822,-0.02549,-0.015235,-0.053505,61.53801,22.36911,-146.829666,,,
729608331.970452,0.996366,-2.083239,54.471439,0.032196,0.002106,1.004822,-0.02549,-0.015235,-0.053505,61.53801,22.36911,-146.829666,,,
729608331.973731,0.989785,-2.087529,54.456254,0.032196,0.002106,1.004822,-0.02549,-0.015235,-0.053505,61.53801,22.36911,-146.829666,,,
729608331.977051,0.980568,-2.093538,54.441374,0.031342,0.001816,0.999374,-0.02966,-0.016134,-0.052028,61.53801,22.36911,-146.829666,,,
729608331.980405,0.980568,-2.093538,54.441374,0.031342,0.001816,0.999374,-0.02966,-0.016134,-0.052028,61.53801,22.36911,-146.829666,,,
729608331.98378,0.972618,-2.09842,54.426359,0.031342,0.001816,0.999374,-0.02966,-0.016134,-0.052028,61.53801,22.36911,-146.829666,,,
729608331.987042,0.965287,-2.106607,54.410743,0.032745,0.004333,1.003357,-0.018883,-0.019992,-0.053348,61.53801,22.36911,-146.829666,,,
729608331.990385,0.965287,-2.106607,54.410743,0.032745,0.004333,1.003357,-0.018883,-0.019992,-0.053348,61.377533,22.45842,-147.166794,,,
729608331.993713,0.961142,-2.112575,54.394515,0.032745,0.004333,1.003357,-0.018883,-0.019992,-0.053348,61.377533,22.45842,-147.166794,,,
729608331.997122,0.963238,-2.122203,54.378023,0.035507,0.00322,1.012756,0.010569,-0.016992,-0.058701,61.377533,22.45842,-147.166794,,,
729608332.000405,0.963238,-2.122203,54.378023,0.035507,0.00322,1.012756,0.010569,-0.016992,-0.058701,61.377533,22.45842,-147.166794,,,
729608332.003727,0.969072,-2.126868,54.362114,0.035507,0.00322,1.012756,0.010569,-0.016992,-0.058701,61.377533,22.45842,-147.166794,,,
729608332.007071,0.969072,-2.126868,54.362114,0.035507,-0.002426,1.023407,0.051834,-0.005191,-0.052951,61.377533,22.45842,-147.166794,,,
729608332.010468,0.982158,-2.133354,54.347363,0.038513,-0.002426,1.023407,0.051834,-0.005191,-0.052951,61.377533,22.45842,-147.166794,,,
729608332.013711,0.997883,-2.13483,54.332834,0.038513,-0.002426,1.023407,0.051834,-0.005191,-0.052951,61.377533,22.45842,-147.166794,,,
729608332.017039,0.997883,-2.135758,54.317899,0.040573,-0.001022,1.021835,0.06989,0.016839,-0.059502,61.377533,22.45842,-147.166794,,,
729608332.020393,1.018544,-2.135758,54.317899,0.040573,-0.001022,1.021835,0.06989,0.016839,-0.059502,61.377533,22.45842,-147.166794,,,
729608332.02371,1.040254,-2.130936,54.301864,0.040573,-0.001022,1.021835,0.06989,0.016839,-0.059502,61.377533,22.45842,-147.166794,,,
729608332.0271,1.040254,-2.130936,54.301864,0.040573,-0.001022,1.021835,0.0679,0.03763,-0.075149,61.377533,22.45842,-147.166794,,,
729608332.030471,1.060331,-2.125401,54.283697,0.04599,0.013901,1.010818,0.0679,0.03763,-0.075149,61.632874,22.228806,-147.115356,,,
729608332.033709,1.080419,-2.114172,54.262529,0.04599,0.013901,1.010818,0.0679,0.03763,-0.075149,61.632874,22.228806,-147.115356,,,
729608332.037046,1.080419,-2.114172,54.262529,0.04599,0.013901,1.010818,0.0679,0.03763,-0.075149,61.632874,22.228806,-147.115356,,,
729608332.040415,1.096184,-2.101449,54.239402,0.047394,0.029037,0.997513,0.058339,0.052299,-0.086614,61.632874,22.228806,-147.115356,,,
729608332.043733,1.113691,-2.086973,54.215632,0.047394,0.029037,0.997513,0.058339,0.052299,-0.086614,61.632874,22.228806,-147.115356,,,
729608332.04707,1.113691,-2.086973,54.215632,0.047394,0.029037,0.997513,0.058339,0.052299,-0.086614,61.632874,22.228806,-147.115356,,,
729608332.050455,1.126345,-2.072578,54.191111,0.039444,0.030151,0.990204,0.053558,0.045426,-0.089114,61.632874,22.228806,-147.115356,,,
729608332.053721,1.141691,-2.060253,54.166177,0.039444,0.030151,0.990204,0.053558,0.045426,-0.089114,61.632874,22.228806,-147.115356,,,
729608332.057138,1.141691,-2.049161,54.141014,0.026276,0.020035,0.98439,0.051667,0.026415,-0.092383,61.632874,22.228806,-147.115356,,,
729608332.060385,1.152579,-2.049161,54.141014,0.026276,0.020035,0.98439,0.051667,0.026415,-0.092383,61.632874,22.228806,-147.115356,,,
729608332.063794,1.167861,-2.042749,54.115269,0.026276,0.020035,0.98439,0.051667,0.026415,-0.092383,61.632874,22.228806,-147.115356,,,
729608332.067075,1.167861,-2.042749,54.115269,0.026276,0.020035,0.98439,0.051667,0.026415,-0.092383,61.632874,22.228806,-147.115356,,,
729608332.070395,1.180043,-2.039448,54.088982,0.023453,0.020157,0.983536,0.05975,-0.002923,-0.095113,61.632874,22.228806,-147.115356,,,
729608332.073744,1.198671,-2.040713,54.062884,0.023453,0.020157,0.983536,0.05975,-0.002923,-0.095113,61.510757,21.968826,-147.073425,,,
729608332.077076,1.198671,-2.040713,54.062884,0.023163,0.02417,0.991333,0.083554,-0.02111,-0.091144,61.510757,21.968826,-147.073425,,,
729608332.080393,1.216393,-2.0441,54.037299,0.023163,0.02417,0.991333,0.083554,-0.02111,-0.091144,61.510757,21.968826,-147.073425,,,
729608332.083705,1.241184,-2.050048,54.01289,0.023163,0.02417,0.991333,0.083554,-0.02111,-0.091144,61.510757,21.968826,-147.073425,,,
729608332.087175,1.241184,-2.050048,54.01289,0.023163,0.02417,0.991333,0.083554,-0.02111,-0.091144,61.510757,21.968826,-147.073425,,,
729608332.090384,1.264108,-2.05707,53.990013,0.017822,0.020615,0.997253,0.099677,-0.019674,-0.08089,61.510757,21.968826,-147.073425,,,
729608332.093734,1.293588,-2.061596,53.968596,0.017822,0.020615,0.997253,0.099677,-0.019674,-0.08089,61.510757,21.968826,-147.073425,,,
729608332.097081,1.293588,-2.061596,53.968596,0.017822,0.020615,0.997253,0.099677,-0.019674,-0.08089,61.510757,21.968826,-147.073425,,,
729608332.100374,1.317218,-2.062788,53.948695,0.021835,0.020416,0.998764,0.102321,0.012308,-0.069993,61.510757,21.968826,-147.073425,,,
729608332.103735,1.346629,-2.058056,53.930041,0.021835,0.020416,0.998764,0.102321,0.012308,-0.069993,61.510757,21.968826,-147.073425,,,
729608332.107061,1.346629,-2.058056,53.930041,0.021835,0.020416,0.998764,0.102321,0.012308,-0.069993,61.510757,21.968826,-147.073425,,,
729608332.110386,1.370542,-2.049027,53.912713,0.02916,0.031464,0.995407,0.089406,0.057101,-0.063833,61.510757,21.968826,-147.073425,,,
729608332.113782,1.396414,-2.032027,53.896719,0.02916,0.031464,0.995407,0.089406,0.057101,-0.063833,61.446152,21.726288,-146.509262,,,
729608332.11711,1.396414,-2.032027,53.896719,0.02916,0.031464,0.995407,0.089406,0.057101,-0.063833,61.446152,21.726288,-146.509262,,,
729608332.120382,1.419827,-2.013526,53.882262,0.030289,0.040039,0.989258,0.075121,0.085249,-0.049213,61.446152,21.726288,-146.509262,,,
729608332.12371,1.441031,-1.98955,53.868726,0.030289,0.040039,0.989258,0.075121,0.085249,-0.049213,61.446152,21.726288,-146.509262,,,
729608332.127112,1.441031,-1.98955,53.868726,0.030289,0.040039,0.989258,0.075121,0.085249,-0.049213,61.446152,21.726288,-146.509262,,,
729608332.130397,1.4619,-1.968771,53.855971,0.024063,0.040482,0.979202,0.062357,0.075403,-0.046441,61.446152,21.726288,-146.509262,,,
729608332.133705,1.480031,-1.948936,53.843557,0.024063,0.040482,0.979202,0.062357,0.075403,-0.046441,61.446152,21.726288,-146.509262,,,
729608332.137083,1.480031,-1.948936,53.843557,0.024063,0.040482,0.979202,0.062357,0.075403,-0.046441,61.446152,21.726288,-146.509262,,,
729608332.140457,1.497099,-1.934077,53.830704,0.021469,0.037567,0.972824,0.055692,0.03548,-0.048815,61.446152,21.726288,-146.509262,,,
729608332.143709,1.514085,-1.926404,53.816703,0.021469,0.037567,0.972824,0.055692,0.03548,-0.048815,61.446152,21.726288,-146.509262,,,
729608332.147136,1.514085,-1.926404,53.816703,0.021469,0.037567,0.972824,0.055692,0.03548,-0.048815,61.446152,21.726288,-146.509262,,,
729608332.150379,1.527941,-1.922056,53.801777,0.019485,0.042297,0.966171,0.049289,-0.00499,-0.05257,61.446152,21.726288,-146.509262,,,
729608332.153716,1.541772,-1.925518,53.787609,0.019485,0.042297,0.966171,0.049289,-0.00499,-0.05257,61.683212,21.615448,-147.274658,,,
729608332.157095,1.541772,-1.925518,53.787609,0.019485,0.042297,0.966171,0.049289,-0.00499,-0.05257,61.683212,21.615448,-147.274658,,,
729608332.160401,1.553654,-1.929654,53.77417,0.018402,0.042145,0.969498,0.039888,-0.026319,-0.047204,61.683212,21.615448,-147.274658,,,
729608332.163713,1.564646,-1.937625,53.761462,0.018402,0.042145,0.969498,0.039888,-0.026319,-0.047204,61.683212,21.615448,-147.274658,,,
729608332.167194,1.564646,-1.937625,53.761462,0.018402,0.042145,0.969498,0.039888,-0.026319,-0.047204,61.683212,21.615448,-147.274658,,,
729608332.170378,1.572963,-1.941452,53.750235,0.022186,0.036896,0.976761,0.028084,-0.020724,-0.03445,61.683212,21.615448,-147.274658,,,
729608332.173711,1.581091,-1.946884,53.740725,0.022186,0.036896,0.976761,0.028084,-0.020724,-0.03445,61.683212,21.615448,-147.274658,,,
729608332.177132,1.581091,-1.946884,53.740725,0.022186,0.036896,0.976761,0.028084,-0.020724,-0.03445,61.683212,21.615448,-147.274658,,,
729608332.180449,1.586611,-1.946397,53.732659,0.026337,0.033524,0.984024,0.023067,8.3e-05,-0.023214,61.683212,21.615448,-147.274658,,,
729608332.183705,1.592738,-1.946277,53.72645,0.026337,0.033524,0.984024,0.023067,8.3e-05,-0.023214,61.683212,21.615448,-147.274658,,,
729608332.187066,1.592738,-1.946277,53.72645,0.026337,0.033524,0.984024,0.023067,8.3e-05,-0.023214,61.683212,21.615448,-147.274658,,,
729608332.190405,1.596753,-1.940603,53.72174,0.027756,0.030991,0.989777,0.011902,0.030242,-0.014132,61.683212,21.615448,-147.274658,,,
729608332.193715,1.599729,-1.931171,53.718388,0.027756,0.030991,0.989777,0.011902,0.030242,-0.014132,61.631805,21.837189,-147.047256,,,
729608332.197058,1.599729,-1.931171,53.718388,0.027756,0.030991,0.989777,0.011902,0.030242,-0.014132,61.631805,21.837189,-147.047256,,,
729608332.200402,1.604504,-1.916881,53.716688,0.031097,0.028137,0.994766,0.012811,0.059435,-0.001632,61.631805,21.837189,-147.047256,,,
729608332.203712,1.607652,-1.899667,53.716948,0.031097,0.028137,0.994766,0.012811,0.059435,-0.001632,61.631805,21.837189,-147.047256,,,
729608332.207117,1.607652,-1.899667,53.716948,0.031097,0.028137,0.994766,0.012811,0.059435,-0.001632,61.631805,21.837189,-147.047256,,,
729608332.210468,1.613443,-1.879893,53.719126,0.028824,0.022751,1.002457,0.014527,0.064173,0.009834,61.631805,21.837189,-147.047256,,,
729608332.213706,1.617039,-1.862498,53.722965,0.028824,0.022751,1.002457,0.014527,0.064173,0.009834,61.631805,21.837189,-147.047256,,,
729608332.21706,1.617039,-1.862498,53.722965,0.028824,0.022751,1.002457,0.014527,0.064173,0.009834,61.631805,21.837189,-147.047256,,,
729608332.220436,1.622727,-1.845394,53.727434,0.025787,0.021393,0.998169,0.016059,0.050464,0.013913,61.631805,21.837189,-147.047256,,,
729608332.223709,1.626362,-1.832809,53.731779,0.025787,0.021393,0.998169,0.016059,0.050464,0.013913,61.631805,21.837189,-147.047256,,,
729608332.227061,1.626362,-1.832809,53.731779,0.025787,0.021393,0.998169,0.016059,0.050464,0.013913,61.631805,21.837189,-147.047256,,,
729608332.230395,1.632957,-1.821657,53.735415,0.027267,0.024109,0.997284,0.013844,0.02178,0.00937,61.631805,21.837189,-147.047256,,,
729608332.233713,1.636617,-1.817017,53.737913,0.027267,0.024109,0.997284,0.013844,0.02178,0.00937,61.631805,21.837189,-147.047256,,,
729608332.237065,1.636617,-1.817017,53.737913,0.027267,0.024109,0.997284,0.013844,0.02178,0.00937,61.544586,21.525848,-146.806702,,,
729608332.240387,1.642371,-1.812213,53.738947,0.034729,0.032013,0.997849,0.005055,0.005795,-0.000501,61.544586,21.525848,-146.806702,,,
729608332.243715,1.643405,-1.811634,53.739505,0.034729,0.032013,0.997849,0.005055,0.005795,-0.000501,61.544586,21.525848,-146.806702,,,
729608332.247118,1.643405,-1.811634,53.739505,0.034729,0.032013,0.997849,0.005055,0.005795,-0.000501,61.544586,21.525848,-146.806702,,,
729608332.250393,1.644641,-1.807963,53.740413,0.038513,0.032364,0.994934,-0.009092,0.011116,0.00555,61.544586,21.525848,-146.806702,,,
729608332.253718,1.640654,-1.804924,53.742089,0.038513,0.032364,0.994934,-0.009092,0.011116,0.00555,61.544586,21.525848,-146.806702,,,
729608332.257043,1.640654,-1.804924,53.742089,0.038513,0.032364,0.994934,-0.009092,0.011116,0.00555,61.544586,21.525848,-146.806702,,,
729608332.260462,1.635602,-1.79857,53.744384,0.040359,0.030258,0.999619,-0.025256,0.028118,0.006128,61.544586,21.525848,-146.806702,,,
729608332.263705,1.627256,-1.791452,53.746967,0.040359,0.030258,0.999619,-0.025256,0.028118,0.006128,61.544586,21.525848,-146.806702,,,
729608332.267072,1.627256,-1.791452,53.746967,0.040359,0.030258,0.999619,-0.025256,0.028118,0.006128,61.544586,21.525848,-146.806702,,,
729608332.27039,1.617817,-1.782289,53.74931,0.048004,0.033234,0.998291,-0.038548,0.031552,0.006014,61.544586,21.525848,-146.806702,,,
729608332.273707,1.605623,-1.773927,53.751379,0.048004,0.033234,0.998291,-0.038548,0.031552,0.006014,61.544586,21.525848,-146.806702,,,
729608332.277041,1.605623,-1.773927,53.751379,0.048004,0.033234,0.998291,-0.038548,0.031552,0.006014,61.765945,21.695206,-147.178223,,,
729608332.280418,1.593295,-1.766198,53.752733,0.047562,0.035019,0.993347,-0.045558,0.023437,0.003721,61.765945,21.695206,-147.178223,,,
729608332.283703,1.580362,-1.760694,53.753475,0.047562,0.035019,0.993347,-0.045558,0.023437,0.003721,61.765945,21.695206,-147.178223,,,
729608332.287135,1.580362,-1.760694,53.753475,0.047562,0.035019,0.993347,-0.045558,0.023437,0.003721,61.765945,21.695206,-147.178223,,,
729608332.290405,1.566358,-1.757405,53.753815,0.048798,0.033722,0.993027,-0.044743,0.007404,-0.00202,61.765945,21.695206,-147.178223,,,
729608332.293715,1.553731,-1.75676,53.753339,0.048798,0.033722,0.993027,-0.044743,0.007404,-0.00202,61.765945,21.695206,-147.178223,,,
729608332.297061,1.553731,-1.75676,53.753339,0.048798,0.033722,0.993027,-0.044743,0.007404,-0.00202,61.765945,21.695206,-147.178223,,,
729608332.300449,1.540863,-1.757821,53.751619,0.053497,0.030029,0.994034,-0.034861,-0.011206,-0.010886,61.765945,21.695206,-147.178223,,,
729608332.303705,1.530565,-1.762569,53.749121,0.053497,0.030029,0.994034,-0.034861,-0.011206,-0.010886,61.765945,21.695206,-147.178223,,,
729608332.30704,1.530565,-1.762569,53.749121,0.053497,0.030029,0.994034,-0.034861,-0.011206,-0.010886,61.765945,21.695206,-147.178223,,,
729608332.310398,1.519756,-1.766813,53.746156,0.054047,0.029709,0.997284,-0.032894,-0.013399,-0.011646,61.765945,21.695206,-147.178223,,,
729608332.313708,1.509835,-1.770628,53.74283,0.054047,0.029709,0.997284,-0.032894,-0.013399,-0.011646,61.765945,21.695206,-147.178223,,,
729608332.317041,1.509835,-1.770628,53.74283,0.054047,0.029709,0.997284,-0.032894,-0.013399,-0.011646,61.673111,22.0634,-146.856003,,,
729608332.320392,1.499848,-1.772194,53.738829,0.054443,0.028748,1.003098,-0.040024,0.006219,-0.015908,61.673111,22.0634,-146.856003,,,
729608332.323712,1.488011,-1.770199,53.734174,0.054443,0.028748,1.003098,-0.040024,0.006219,-0.015908,61.673111,22.0634,-146.856003,,,
729608332.327037,1.488011,-1.770199,53.734174,0.054443,0.028748,1.003098,-0.040024,0.006219,-0.015908,61.673111,22.0634,-146.856003,,,
729608332.330457,1.477074,-1.766553,53.729047,0.051788,0.032104,1.003738,-0.048623,0.033025,-0.017932,61.673111,22.0634,-146.856003,,,
729608332.33373,1.462151,-1.757183,53.723914,0.051788,0.032104,1.003738,-0.048623,0.033025,-0.017932,61.673111,22.0634,-146.856003,,,
729608332.337116,1.462151,-1.757183,53.723914,0.051788,0.032104,1.003738,-0.048623,0.033025,-0.017932,61.673111,22.0634,-146.856003,,,
729608332.340398,1.446702,-1.746412,53.71954,0.0439,0.029556,1.002609,-0.05745,0.052871,-0.015981,61.673111,22.0634,-146.856003,,,
729608332.343705,1.429291,-1.731375,53.715292,0.0439,0.029556,1.002609,-0.05745,0.052871,-0.015981,61.673111,22.0634,-146.856003,,,
729608332.347068,1.429291,-1.731375,53.715292,0.0439,0.029556,1.002609,-0.05745,0.052871,-0.015981,61.673111,22.0634,-146.856003,,,
729608332.350456,1.413446,-1.720398,53.7111,0.036606,0.028336,1.00206,-0.058272,0.052973,-0.015288,61.673111,22.0634,-146.856003,,,
729608332.353706,1.396357,-1.707482,53.706125,0.036606,0.028336,1.00206,-0.058272,0.052973,-0.015288,61.673111,22.0634,-146.856003,,,
729608332.357043,1.396357,-1.707482,53.706125,0.036606,0.028336,1.00206,-0.058272,0.052973,-0.015288,61.983841,21.825912,-147.329834,,,
729608332.360412,1.38222,-1.701689,53.701099,0.03038,0.030167,0.997559,-0.055617,0.03545,-0.016342,61.983841,21.825912,-147.329834,,,
729608332.363713,1.365912,-1.693206,53.696048,0.03038,0.030167,0.997559,-0.055617,0.03545,-0.016342,61.983841,21.825912,-147.329834,,,
729608332.36706,1.365912,-1.693206,53.696048,0.03038,0.030167,0.997559,-0.055617,0.03545,-0.016342,61.983841,21.825912,-147.329834,,,
729608332.370405,1.351789,-1.690616,53.690777,0.017807,0.030441,0.997009,-0.059039,0.025457,-0.01686,61.983841,21.825912,-147.329834,,,
729608332.37371,1.335339,-1.684005,53.68614,0.017807,0.030441,0.997009,-0.059039,0.025457,-0.01686,61.983841,21.825912,-147.329834,,,
729608332.3771,1.335339,-1.684005,53.68614,0.017807,0.030441,0.997009,-0.059039,0.025457,-0.01686,61.983841,21.825912,-147.329834,,,
729608332.380387,1.321075,-1.684779,53.68327,0.012772,0.027054,1.000778,-0.054797,0.020766,-0.004188,61.983841,21.825912,-147.329834,,,
729608332.38371,1.30533,-1.681041,53.68212,0.012772,0.027054,1.000778,-0.054797,0.020766,-0.004188,61.983841,21.825912,-147.329834,,,
729608332.387057,1.30533,-1.681041,53.68212,0.012772,0.027054,1.000778,-0.054797,0.020766,-0.004188,61.983841,21.825912,-147.329834,,,
729608332.390451,1.291795,-1.68482,53.682746,0.009262,0.025009,0.999146,-0.049339,0.008346,0.004319,61.983841,21.825912,-147.329834,,,
729608332.393708,1.277767,-1.683556,53.68403,0.009262,0.025009,0.999146,-0.049339,0.008346,0.004319,61.983841,21.825912,-147.329834,,,
729608332.397053,1.277767,-1.683556,53.68403,0.009262,0.025009,0.999146,-0.049339,0.008346,0.004319,61.983841,21.825912,-147.329834,,,
729608332.400406,1.2654,-1.68921,53.68556,0.008667,0.027344,0.999222,-0.053363,0.001158,0.006203,62.139725,22.110809,-146.689392,,,
729608332.403703,1.250421,-1.689189,53.686902,0.008667,0.027344,0.999222,-0.053363,0.001158,0.006203,62.139725,22.110809,-146.689392,,,
729608332.407046,1.250421,-1.689189,53.686902,0.008667,0.027344,0.999222,-0.053363,0.001158,0.006203,62.139725,22.110809,-146.689392,,,
729608332.410417,1.23622,-1.696554,53.688338,0.011368,0.034073,0.993195,-0.061544,-0.000708,0.004371,62.139725,22.110809,-146.689392,,,
729608332.413711,1.218045,-1.698145,53.690103,0.011368,0.034073,0.993195,-0.061544,-0.000708,0.004371,62.139725,22.110809,-146.689392,,,
729608332.417109,1.218045,-1.698145,53.690103,0.011368,0.034073,0.993195,-0.061544,-0.000708,0.004371,62.139725,22.110809,-146.689392,,,
729608332.42039,1.199636,-1.704571,53.692728,0.010834,0.036102,0.989365,-0.074325,-0.008529,0.01119,62.139725,22.110809,-146.689392,,,
729608332.423713,1.177215,-1.707754,53.695781,0.010834,0.036102,0.989365,-0.074325,-0.008529,0.01119,62.139725,22.110809,-146.689392,,,
729608332.427057,1.177215,-1.707754,53.695781,0.010834,0.036102,0.989365,-0.074325,-0.008529,0.01119,62.139725,22.110809,-146.689392,,,
729608332.43044,1.156776,-1.714729,53.699732,0.012939,0.033859,0.990387,-0.073227,-0.015867,0.014557,62.139725,22.110809,-146.689392,,,
729608332.433712,1.13555,-1.720626,53.704306,0.012939,0.033859,0.990387,-0.073227,-0.015867,0.014557,62.139725,22.110809,-146.689392,,,
729608332.437057,1.13555,-1.720626,53.704306,0.012939,0.033859,0.990387,-0.073227,-0.015867,0.014557,62.139725,22.110809,-146.689392,,,
729608332.440398,1.117391,-1.728141,53.709374,0.012924,0.028717,0.997192,-0.069498,-0.023995,0.019661,62.152878,22.082184,-146.998383,,,
729608332.443713,1.097674,-1.735293,53.715024,0.012924,0.028717,0.997192,-0.069498,-0.023995,0.019661,62.152878,22.082184,-146.998383,,,
729608332.447057,1.097674,-1.735293,53.715024,0.012924,0.028717,0.997192,-0.069498,-0.023995,0.019661,62.152878,22.082184,-146.998383,,,
729608332.450403,1.081431,-1.740726,53.721411,0.012817,0.027451,0.99968,-0.062021,-0.021931,0.023159,62.152878,22.082184,-146.998383,,,
729608332.453712,1.062877,-1.747295,53.728739,0.012817,0.027451,0.99968,-0.062021,-0.021931,0.023159,62.152878,22.082184,-146.998383,,,
729608332.457123,1.062877,-1.747295,53.728739,0.012817,0.027451,0.99968,-0.062021,-0.021931,0.023159,62.152878,22.082184,-146.998383,,,
729608332.460384,1.046393,-1.74894,53.736235,0.013702,0.029907,0.999298,-0.066364,-0.017845,0.028771,62.152878,22.082184,-146.998383,,,
729608332.463713,1.027188,-1.754358,53.743898,0.013702,0.029907,0.999298,-0.066364,-0.017845,0.028771,62.152878,22.082184,-146.998383,,,
729608332.467056,1.027188,-1.754358,53.743898,0.013702,0.029907,0.999298,-0.066364,-0.017845,0.028771,62.152878,22.082184,-146.998383,,,
729608332.470442,1.009206,-1.754286,53.75141,0.021637,0.031708,0.995773,-0.069045,-0.012974,0.026743,62.152878,22.082184,-146.998383,,,
729608332.473704,0.989091,-1.759127,53.758972,0.021637,0.031708,0.995773,-0.069045,-0.012974,0.026743,62.152878,22.082184,-146.998383,,,
729608332.477057,0.989091,-1.759127,53.758972,0.021637,0.031708,0.995773,-0.069045,-0.012974,0.026743,62.152878,22.082184,-146.998383,,,
729608332.480375,0.971391,-1.757837,53.766242,0.020126,0.031204,0.997498,-0.065366,-0.010778,0.028213,62.028091,22.175919,-146.673584,,,
729608332.483704,0.952552,-1.762287,53.773762,0.020126,0.031204,0.997498,-0.065366,-0.010778,0.028213,62.028091,22.175919,-146.673584,,,
729608332.48705,0.952552,-1.762287,53.773762,0.020126,0.031204,0.997498,-0.065366,-0.010778,0.028213,62.028091,22.175919,-146.673584,,,
729608332.490376,0.937984,-1.763135,53.781953,0.020966,0.029053,0.998886,-0.059596,-0.019459,0.030736,62.028091,22.175919,-146.673584,,,
729608332.49371,0.920916,-1.770871,53.790546,0.020966,0.029053,0.998886,-0.059596,-0.019459,0.030736,62.028091,22.175919,-146.673584,,,
729608332.4971,0.920916,-1.770871,53.790546,0.020966,0.029053,0.998886,-0.059596,-0.019459,0.030736,62.028091,22.175919,-146.673584,,,
729608332.500384,0.909083,-1.773818,53.799127,0.021973,0.022568,0.997177,-0.055647,-0.019079,0.030266,62.028091,22.175919,-146.673584,,,
729608332.503702,0.893601,-1.780454,53.808103,0.021973,0.022568,0.997177,-0.055647,-0.019079,0.030266,62.028091,22.175919,-146.673584,,,
729608332.507038,0.893601,-1.780454,53.808103,0.021973,0.022568,0.997177,-0.055647,-0.019079,0.030266,62.028091,22.175919,-146.673584,,,
729608332.510419,0.885258,-1.781303,53.817706,0.024704,0.021439,1.006149,-0.038355,-0.01325,0.035386,62.028091,22.175919,-146.673584,,,
729608332.51374,0.874252,-1.785961,53.828507,0.024704,0.021439,1.006149,-0.038355,-0.01325,0.035386,62.028091,22.175919,-146.673584,,,
729608332.51705,0.874252,-1.785961,53.828507,0.024704,0.021439,1.006149,-0.038355,-0.01325,0.035386,62.028091,22.175919,-146.673584,,,
729608332.520387,0.868504,-1.784523,53.840236,0.027771,0.017654,1.01001,-0.025987,-0.003675,0.040115,62.028091,22.175919,-146.673584,,,
729608332.523704,0.860238,-1.786504,53.852617,0.027771,0.017654,1.01001,-0.025987,-0.003675,0.040115,61.987381,22.586853,-146.999878,,,
729608332.52705,0.860238,-1.786504,53.852617,0.027771,0.017654,1.01001,-0.025987,-0.003675,0.040115,61.987381,22.586853,-146.999878,,,
729608332.530378,0.85504,-1.782411,53.865396,0.027664,0.015915,1.011658,-0.026363,0.00633,0.044045,61.987381,22.586853,-146.999878,,,
729608332.533704,0.846914,-1.781363,53.878746,0.027664,0.015915,1.011658,-0.026363,0.00633,0.044045,61.987381,22.586853,-146.999878,,,
729608332.537038,0.846914,-1.781363,53.878746,0.027664,0.015915,1.011658,-0.026363,0.00633,0.044045,61.987381,22.586853,-146.999878,,,
729608332.540381,0.841628,-1.774763,53.892235,0.024338,0.016754,1.010864,-0.026699,0.00875,0.049039,61.987381,22.586853,-146.999878,,,
729608332.543778,0.833446,-1.773577,53.906437,0.024338,0.016754,1.010864,-0.026699,0.00875,0.049039,61.987381,22.586853,-146.999878,,,
729608332.547041,0.833446,-1.773577,53.906437,0.024338,0.016754,1.010864,-0.026699,0.00875,0.049039,61.987381,22.586853,-146.999878,,,
729608332.550487,0.83059,-1.771176,53.921722,0.024338,0.013657,1.00972,-0.023304,-0.003496,0.050358,61.987381,22.586853,-146.999878,,,
729608332.553708,0.823925,-1.773961,53.937159,0.024338,0.013657,1.00972,-0.023304,-0.003496,0.050358,61.987381,22.586853,-146.999878,,,
729608332.557114,0.823925,-1.773961,53.937159,0.024338,0.013657,1.00972,-0.023304,-0.003496,0.050358,61.987381,22.586853,-146.999878,,,
729608332.560388,0.821837,-1.776271,53.95226,0.026123,0.008011,1.010406,-0.016839,-0.019777,0.050498,61.987381,22.586853,-146.999878,,,
729608332.563704,0.817001,-1.783816,53.967291,0.026123,0.008011,1.010406,-0.016839,-0.019777,0.050498,61.869064,22.442505,-146.973389,,,
729608332.567076,0.817001,-1.783816,53.967291,0.026123,0.008011,1.010406,-0.016839,-0.019777,0.050498,61.869064,22.442505,-146.973389,,,
729608332.57038,0.816832,-1.791561,53.982496,0.030899,0.006989,1.008926,-0.009162,-0.038097,0.054178,61.869064,22.442505,-146.973389,,,
729608332.573707,0.814643,-1.804598,53.997696,0.030899,0.006989,1.008926,-0.009162,-0.038097,0.054178,61.869064,22.442505,-146.973389,,,
729608332.577101,0.814643,-1.804598,53.997696,0.030899,0.006989,1.008926,-0.009162,-0.038097,0.054178,61.869064,22.442505,-146.973389,,,
729608332.580382,0.817525,-1.817064,54.011856,0.035721,0.007217,1.013626,0.008838,-0.051334,0.040764,61.869064,22.442505,-146.973389,,,
729608332.583711,0.820297,-1.832822,54.02422,0.035721,0.007217,1.013626,0.008838,-0.051334,0.040764,61.869064,22.442505,-146.973389,,,
729608332.587065,0.820297,-1.832822,54.02422,0.035721,0.007217,1.013626,0.008838,-0.051334,0.040764,61.869064,22.442505,-146.973389,,,
729608332.590464,0.825944,-1.845788,54.034563,0.048569,0.014465,1.017044,0.017705,-0.039763,0.025656,61.869064,22.442505,-146.973389,,,
729608332.593704,0.831321,-1.858331,54.042441,0.048569,0.014465,1.017044,0.017705,-0.039763,0.025656,61.869064,22.442505,-146.973389,,,
729608332.597076,0.831321,-1.858331,54.042441,0.048569,0.014465,1.017044,0.017705,-0.039763,0.025656,61.869064,22.442505,-146.973389,,,
729608332.600391,0.839143,-1.866135,54.048291,0.055054,0.018173,1.019287,0.023305,-0.017225,0.015096,61.869064,22.442505,-146.973389,,,
729608332.603714,0.846598,-1.871333,54.053188,0.055054,0.018173,1.019287,0.023305,-0.017225,0.015096,61.704102,22.527893,-147.071243,,,
729608332.607073,0.846598,-1.871333,54.053188,0.055054,0.018173,1.019287,0.023305,-0.017225,0.015096,61.704102,22.527893,-147.071243,,,
729608332.610398,0.854455,-1.872273,54.056967,0.058289,0.01947,1.018311,0.029188,-0.000636,0.008022,61.704102,22.527893,-147.071243,,,
729608332.613787,0.862367,-1.873195,54.059729,0.058289,0.01947,1.018311,0.029188,-0.000636,0.008022,61.704102,22.527893,-147.071243,,,
729608332.617095,0.862367,-1.873195,54.059729,0.058289,0.01947,1.018311,0.029188,-0.000636,0.008022,61.704102,22.527893,-147.071243,,,
729608332.620377,0.871458,-1.87097,54.061341,0.059845,0.01973,1.010345,0.033761,0.004075,-0.001029,61.704102,22.527893,-147.071243,,,
729608332.623708,0.881489,-1.870858,54.061618,0.059845,0.01973,1.010345,0.033761,0.004075,-0.001029,61.704102,22.527893,-147.071243,,,
729608332.627053,0.881489,-1.870858,54.061618,0.059845,0.01973,1.010345,0.033761,0.004075,-0.001029,61.704102,22.527893,-147.071243,,,
729608332.630458,0.892477,-1.869652,54.059798,0.060043,0.017029,1.003799,0.039722,-0.006282,-0.016405,61.704102,22.527893,-147.071243,,,
729608332.633704,0.903445,-1.872764,54.055702,0.060043,0.017029,1.003799,0.039722,-0.006282,-0.016405,61.704102,22.527893,-147.071243,,,
729608332.637059,0.903445,-1.872764,54.055702,0.060043,0.017029,1.003799,0.039722,-0.006282,-0.016405,61.704102,22.527893,-147.071243,,,
729608332.640405,0.911734,-1.875398,54.049109,0.062378,0.019714,0.997391,0.02934,-0.01754,-0.027189,61.704102,22.527893,-147.071243,,,
729608332.643712,0.920111,-1.881191,54.040811,0.062378,0.019714,0.997391,0.02934,-0.01754,-0.027189,61.822601,22.173981,-147.000229,,,
729608332.647053,0.920111,-1.881191,54.040811,0.062378,0.019714,0.997391,0.02934,-0.01754,-0.027189,61.822601,22.173981,-147.000229,,,
729608332.650404,0.925106,-1.88746,54.031825,0.054581,0.019302,0.993546,0.01876,-0.025932,-0.032888,61.822601,22.173981,-147.000229,,,
729608332.653711,0.930284,-1.896907,54.022639,0.054581,0.019302,0.993546,0.01876,-0.025932,-0.032888,61.822601,22.173981,-147.000229,,,
729608332.657114,0.930284,-1.896907,54.022639,0.054581,0.019302,0.993546,0.01876,-0.025932,-0.032888,61.822601,22.173981,-147.000229,,,
729608332.660377,0.9318,-1.907424,54.0134,0.049744,0.014709,0.990936,0.007482,-0.038442,-0.035895,61.822601,22.173981,-147.000229,,,
729608332.663705,0.934607,-1.91955,54.003744,0.049744,0.014709,0.990936,0.007482,-0.038442,-0.035895,61.822601,22.173981,-147.000229,,,
729608332.667053,0.934607,-1.91955,54.003744,0.049744,0.014709,0.990936,0.007482,-0.038442,-0.035895,61.822601,22.173981,-147.000229,,,
729608332.670446,0.934389,-1.935499,53.993684,0.049545,0.013901,0.993057,0.001261,-0.046602,-0.036719,61.822601,22.173981,-147.000229,,,
729608332.673701,0.934266,-1.949612,53.983804,0.049545,0.013901,0.993057,0.001261,-0.046602,-0.036719,61.822601,22.173981,-147.000229,,,
729608332.677064,0.934266,-1.949612,53.983804,0.049545,0.013901,0.993057,0.001261,-0.046602,-0.036719,61.822601,22.173981,-147.000229,,,
729608332.680392,0.933701,-1.968315,53.974389,0.048447,0.011246,0.992661,-0.004085,-0.045354,-0.034027,61.822601,22.173981,-147.000229,,,
729608332.683751,0.933414,-1.981766,53.965634,0.048447,0.011246,0.992661,-0.004085,-0.045354,-0.034027,61.822601,22.173981,-147.000229,,,
729608332.687052,0.933414,-1.981766,53.965634,0.048447,0.011246,0.992661,-0.004085,-0.045354,-0.034027,61.681396,22.241608,-146.845688,,,
729608332.690401,0.934287,-2.00013,53.958796,0.043427,0.007324,1.00058,-0.000647,-0.042666,-0.021196,61.681396,22.241608,-146.845688,,,
729608332.693709,0.934693,-2.012716,53.953568,0.043427,0.007324,1.00058,-0.000647,-0.042666,-0.021196,61.681396,22.241608,-146.845688,,,
729608332.697119,0.934693,-2.012716,53.953568,0.043427,0.007324,1.00058,-0.000647,-0.042666,-0.021196,61.681396,22.241608,-146.845688,,,
729608332.700378,0.93659,-2.031103,53.949382,0.041946,0.005325,0.999664,0.007412,-0.039944,-0.014328,61.681396,22.241608,-146.845688,,,
729608332.703704,0.938435,-2.042623,53.945585,0.041946,0.005325,0.999664,0.007412,-0.039944,-0.014328,61.681396,22.241608,-146.845688,,,
729608332.707067,0.938435,-2.042623,53.945585,0.041946,0.005325,0.999664,0.007412,-0.039944,-0.014328,61.681396,22.241608,-146.845688,,,
729608332.710384,0.941179,-2.058871,53.941327,0.046265,0.006744,1.004288,0.011859,-0.030851,-0.02033,61.681396,22.241608,-146.845688,,,
729608332.713704,0.944243,-2.06815,53.935992,0.046265,0.006744,1.004288,0.011859,-0.030851,-0.02033,61.681396,22.241608,-146.845688,,,
729608332.717054,0.944243,-2.06815,53.935992,0.046265,0.006744,1.004288,0.011859,-0.030851,-0.02033,61.681396,22.241608,-146.845688,,,
729608332.720428,0.947835,-2.082928,53.930373,0.049866,0.014618,1.001831,0.007353,-0.019363,-0.023431,61.681396,22.241608,-146.845688,,,
729608332.723698,0.950409,-2.089399,53.925177,0.049866,0.014618,1.001831,0.007353,-0.019363,-0.023431,61.681396,22.241608,-146.845688,,,
729608332.727049,0.950409,-2.089399,53.925177,0.049866,0.014618,1.001831,0.007353,-0.019363,-0.023431,61.485931,22.520981,-146.771027,,,
729608332.730398,0.95274,-2.099451,53.920626,0.046082,0.015564,0.996216,-0.002009,-0.010841,-0.014058,61.485931,22.520981,-146.771027,,,
729608332.733699,0.952502,-2.102563,53.916974,0.046082,0.015564,0.996216,-0.002009,-0.010841,-0.014058,61.485931,22.520981,-146.771027,,,
729608332.737038,0.952502,-2.102563,53.916974,0.046082,0.015564,0.996216,-0.002009,-0.010841,-0.014058,61.485931,22.520981,-146.771027,,,
729608332.740369,0.951635,-2.1092,53.913744,0.043289,0.014618,0.995987,-0.000952,-0.007382,-0.01606,61.485931,22.520981,-146.771027,,,
729608332.743698,0.952025,-2.113639,53.908866,0.043289,0.014618,0.995987,-0.000952,-0.007382,-0.01606,61.485931,22.520981,-146.771027,,,
729608332.747099,0.952025,-2.113639,53.908866,0.043289,0.014618,0.995987,-0.000952,-0.007382,-0.01606,61.485931,22.520981,-146.771027,,,
729608332.750388,0.95285,-2.124515,53.901973,0.049927,0.020294,0.996002,0.005286,-0.030846,-0.032899,61.485931,22.520981,-146.771027,,,
729608332.7537,0.954666,-2.135569,53.892578,0.049927,0.020294,0.996002,0.005286,-0.030846,-0.032899,61.485931,22.520981,-146.771027,,,
729608332.75706,0.954666,-2.135569,53.892578,0.049927,0.020294,0.996002,0.005286,-0.030846,-0.032899,61.485931,22.520981,-146.771027,,,
729608332.76044,0.956121,-2.152851,53.881285,0.047211,0.026611,0.991211,0.006602,-0.0524,-0.042914,61.485931,22.520981,-146.771027,,,
729608332.763704,0.958392,-2.168914,53.868469,0.047211,0.026611,0.991211,0.006602,-0.0524,-0.042914,61.485931,22.520981,-146.771027,,,
729608332.767052,0.958392,-2.168914,53.868469,0.047211,0.026611,0.991211,0.006602,-0.0524,-0.042914,61.346863,22.314117,-146.795288,,,
729608332.770379,0.958389,-2.186831,53.855261,0.040573,0.023392,0.993088,0.003997,-0.053018,-0.044751,61.346863,22.314117,-146.795288,,,
729608332.773718,0.959988,-2.202094,53.843097,0.040573,0.023392,0.993088,0.003997,-0.053018,-0.044751,61.346863,22.314117,-146.795288,,,
729608332.777059,0.959988,-2.202094,53.843097,0.040573,0.023392,0.993088,0.003997,-0.053018,-0.044751,61.346863,22.314117,-146.795288,,,
729608332.780389,0.958246,-2.216441,53.83247,0.04129,0.015915,0.996658,0.002101,-0.038502,-0.03457,61.346863,22.314117,-146.795288,,,
729608332.7837,0.958649,-2.226967,53.822739,0.04129,0.015915,0.996658,0.002101,-0.038502,-0.03457,61.346863,22.314117,-146.795288,,,
729608332.787137,0.958649,-2.226967,53.822739,0.04129,0.015915,0.996658,0.002101,-0.038502,-0.03457,61.346863,22.314117,-146.795288,,,
729608332.790373,0.956966,-2.235402,53.813073,0.042389,0.016373,1.001114,0.004616,-0.011889,-0.035498,61.346863,22.314117,-146.795288,,,
729608332.793722,0.958211,-2.239224,53.803775,0.042389,0.016373,1.001114,0.004616,-0.011889,-0.035498,61.346863,22.314117,-146.795288,,,
729608332.79706,0.958211,-2.239224,53.803775,0.042389,0.016373,1.001114,0.004616,-0.011889,-0.035498,61.346863,22.314117,-146.795288,,,
729608332.800436,0.958621,-2.243505,53.795393,0.042389,0.020111,1.001419,0.00805,0.000572,-0.029849,61.346863,22.314117,-146.795288,,,
729608332.803717,0.960782,-2.24341,53.787664,0.042389,0.020111,1.001419,0.00805,0.000572,-0.029849,61.346863,22.314117,-146.795288,,,
729608332.807096,0.960782,-2.24341,53.787664,0.042389,0.020111,1.001419,0.00805,0.000572,-0.029849,61.281204,22.344437,-146.505173,,,
729608332.810379,0.963782,-2.243968,53.780758,0.033661,0.020447,1.000687,0.010368,0.008005,-0.02103,61.281204,22.344437,-146.505173,,,
729608332.813731,0.967273,-2.242682,53.77495,0.033661,0.020447,1.000687,0.010368,0.008005,-0.02103,61.281204,22.344437,-146.505173,,,
729608332.81706,0.967273,-2.242682,53.77495,0.033661,0.020447,1.000687,0.010368,0.008005,-0.02103,61.281204,22.344437,-146.505173,,,
729608332.820379,0.969952,-2.244369,53.769618,0.029831,0.020935,0.996521,0.010665,-0.006744,-0.020721,61.281204,22.344437,-146.505173,,,
729608332.823722,0.973374,-2.2471,53.763696,0.029831,0.020935,0.996521,0.010665,-0.006744,-0.020721,61.281204,22.344437,-146.505173,,,
729608332.827129,0.973374,-2.2471,53.763696,0.029831,0.020935,0.996521,0.010665,-0.006744,-0.020721,61.281204,22.344437,-146.505173,,,
729608332.830365,0.977652,-2.254476,53.756996,0.029221,0.023239,0.988983,0.013428,-0.026715,-0.030105,61.281204,22.344437,-146.505173,,,
729608332.833711,0.982304,-2.262932,53.749869,0.029221,0.023239,0.988983,0.013428,-0.026715,-0.030105,61.281204,22.344437,-146.505173,,,
729608332.837069,0.982304,-2.262932,53.749869,0.029221,0.023239,0.988983,0.013428,-0.026715,-0.030105,61.281204,22.344437,-146.505173,,,
729608332.840441,0.989261,-2.277043,53.742194,0.023987,0.026321,0.99054,0.01966,-0.04514,-0.030455,61.281204,22.344437,-146.505173,,,
729608332.843699,0.995415,-2.291201,53.73409,0.023987,0.026321,0.99054,0.01966,-0.04514,-0.030455,61.281204,22.344437,-146.505173,,,
729608332.847034,0.995415,-2.291201,53.73409,0.023987,0.026321,0.99054,0.01966,-0.04514,-0.030455,61.281204,22.344437,-146.505173,,,
729608332.850385,1.004572,-2.308256,53.72677,0.023499,0.023712,0.992371,0.026499,-0.055882,-0.02393,61.279297,22.156067,-146.838181,,,
729608332.853735,1.012355,-2.325663,53.720465,0.023499,0.023712,0.992371,0.026499,-0.055882,-0.02393,61.279297,22.156067,-146.838181,,,
729608332.857053,1.012355,-2.325663,53.720465,0.023499,0.023712,0.992371,0.026499,-0.055882,-0.02393,61.279297,22.156067,-146.838181,,,
729608332.860387,1.02058,-2.343092,53.714958,0.024277,0.018204,0.994263,0.027464,-0.05696,-0.019232,61.279297,22.156067,-146.838181,,,
729608332.8637,1.028499,-2.359498,53.709778,0.024277,0.018204,0.994263,0.027464,-0.05696,-0.019232,61.279297,22.156067,-146.838181,,,
729608332.867104,1.028499,-2.359498,53.709778,0.024277,0.018204,0.994263,0.027464,-0.05696,-0.019232,61.279297,22.156067,-146.838181,,,
729608332.870377,1.036105,-2.374258,53.705087,0.028656,0.020279,0.991135,0.025852,-0.040418,-0.014834,61.279297,22.156067,-146.838181,,,
729608332.873731,1.043843,-2.386047,53.701311,0.028656,0.020279,0.991135,0.025852,-0.040418,-0.014834,61.279297,22.156067,-146.838181,,,
729608332.877046,1.043843,-2.386047,53.701311,0.028656,0.020279,0.991135,0.025852,-0.040418,-0.014834,61.279297,22.156067,-146.838181,,,
729608332.880465,1.051127,-2.394901,53.698161,0.032547,0.021332,0.990173,0.024958,-0.021975,-0.01168,61.279297,22.156067,-146.838181,,,
729608332.88372,1.058487,-2.400674,53.695602,0.032547,0.021332,0.990173,0.024958,-0.021975,-0.01168,61.279297,22.156067,-146.838181,,,
729608332.887045,1.058487,-2.400674,53.695602,0.032547,0.021332,0.990173,0.024958,-0.021975,-0.01168,61.279297,22.156067,-146.838181,,,
729608332.890405,1.065942,-2.403007,53.693822,0.030899,0.01767,0.98996,0.024006,-0.003664,-0.006141,61.098358,21.978149,-146.721603,,,
729608332.89378,1.072464,-2.40487,53.693257,0.030899,0.01767,0.98996,0.024006,-0.003664,-0.006141,61.098358,21.978149,-146.721603,,,
729608332.897082,1.072464,-2.40487,53.693257,0.030899,0.01767,0.98996,0.024006,-0.003664,-0.006141,61.098358,21.978149,-146.721603,,,
729608332.900374,1.079379,-2.402445,53.6933,0.029236,0.017487,0.988739,0.024659,0.0025,-0.000338,61.098358,21.978149,-146.721603,,,
729608332.903782,1.0853,-2.402766,53.693845,0.029236,0.017487,0.988739,0.024659,0.0025,-0.000338,61.098358,21.978149,-146.721603,,,
729608332.907095,1.0853,-2.402766,53.693845,0.029236,0.017487,0.988739,0.024659,0.0025,-0.000338,61.098358,21.978149,-146.721603,,,
729608332.910382,1.09108,-2.400629,53.695716,0.028793,0.016647,0.983673,0.014713,0.001143,0.00798,61.098358,21.978149,-146.721603,,,
729608332.913763,1.094722,-2.402164,53.698909,0.028793,0.016647,0.983673,0.014713,0.001143,0.00798,61.098358,21.978149,-146.721603,,,
729608332.917054,1.094722,-2.402164,53.698909,0.028793,0.016647,0.983673,0.014713,0.001143,0.00798,61.098358,21.978149,-146.721603,,,
729608332.920457,1.098766,-2.40123,53.702417,0.025497,0.018463,0.98172,0.007142,-0.013176,0.012279,61.098358,21.978149,-146.721603,,,
729608332.923701,1.100766,-2.407016,53.706566,0.025497,0.018463,0.98172,0.007142,-0.013176,0.012279,61.098358,21.978149,-146.721603,,,
729608332.927065,1.100766,-2.407016,53.706566,0.025497,0.018463,0.98172,0.007142,-0.013176,0.012279,61.098358,21.978149,-146.721603,,,
729608332.930382,1.104454,-2.410671,53.711691,0.025742,0.018356,0.981995,0.009251,-0.030251,0.01874,60.93013,22.287186,-146.812668,,,
729608332.933714,1.104454,-2.42082,53.717285,0.025742,0.018356,0.981995,0.009251,-0.030251,0.01874,60.93013,22.287186,-146.812668,,,
729608332.937056,1.107226,-2.42082,53.717285,0.025742,0.018356,0.981995,0.009251,-0.030251,0.01874,60.93013,22.287186,-146.812668,,,
729608332.940393,1.110662,-2.427296,53.722336,0.032257,0.015884,0.984726,0.012765,-0.039976,0.01296,60.93013,22.287186,-146.812668,,,
729608332.943838,1.113974,-2.439285,53.726349,0.032257,0.015884,0.984726,0.012765,-0.039976,0.01296,60.93013,22.287186,-146.812668,,,
729608332.947083,1.113974,-2.439285,53.726349,0.032257,0.015884,0.984726,0.012765,-0.039976,0.01296,60.93013,22.287186,-146.812668,,,
729608332.950372,1.116446,-2.448118,53.729525,0.044235,0.02005,0.985794,0.008093,-0.037191,0.010403,60.93013,22.287186,-146.812668,,,
729608332.953734,1.116446,-2.459406,53.732462,0.044235,0.02005,0.985794,0.008093,-0.037191,0.010403,60.93013,22.287186,-146.812668,,,
729608332.957106,1.117715,-2.459406,53.732462,0.044235,0.02005,0.985794,0.008093,-0.037191,0.010403,60.93013,22.287186,-146.812668,,,
729608332.960438,1.117054,-2.465102,53.735373,0.046219,0.024185,0.980988,-0.010718,-0.017909,0.009666,60.93013,22.287186,-146.812668,,,
729608332.963731,1.117054,-2.465102,53.735373,0.046219,0.024185,0.980988,-0.010718,-0.017909,0.009666,60.93013,22.287186,-146.812668,,,
729608332.967051,1.113129,-2.470968,53.738584,0.046219,0.024185,0.980988,-0.010718,-0.017909,0.009666,60.93013,22.287186,-146.812668,,,
729608332.970377,1.107235,-2.472452,53.741287,0.050339,0.025406,0.978516,-0.023406,-0.005946,0.007238,60.829773,22.401077,-146.95578,,,
729608332.973727,1.107235,-2.472452,53.741287,0.050339,0.025406,0.978516,-0.023406,-0.005946,0.007238,60.829773,22.401077,-146.95578,,,
729608332.977075,1.099562,-2.475315,53.743134,0.050339,0.025406,0.978516,-0.023406,-0.005946,0.007238,60.829773,22.401077,-146.95578,,,
729608332.980373,1.090016,-2.475578,53.743659,0.055573,0.028351,0.97876,-0.034838,-0.006932,-0.001031,60.829773,22.401077,-146.95578,,,
729608332.983796,1.090016,-2.475578,53.74386,0.055573,0.028351,0.97876,-0.034838,-0.006932,-0.001031,60.829773,22.401077,-146.95578,,,
729608332.98705,1.080448,-2.478377,53.74386,0.055573,0.028351,0.97876,-0.034838,-0.006932,-0.001031,60.829773,22.401077,-146.95578,,,
729608332.990384,1.071297,-2.47842,53.744977,0.049133,0.024567,0.981705,-0.029545,-0.002831,0.00739,60.829773,22.401077,-146.95578,,,
729608332.993728,1.071297,-2.47842,53.744977,0.049133,0.024567,0.981705,-0.029545,-0.002831,0.00739,60.829773,22.401077,-146.95578,,,
729608332.997115,1.063116,-2.480471,53.747617,0.049133,0.024567,0.981705,-0.029545,-0.002831,0.00739,60.829773,22.401077,-146.95578,,,
729608333.000373,1.055624,-2.478568,53.751561,0.04631,0.014633,0.990921,-0.022434,0.00376,0.016278,60.829773,22.401077,-146.95578,,,
729608333.003706,1.055624,-2.478568,53.751561,0.04631,0.014633,0.990921,-0.022434,0.00376,0.016278,60.829773,22.401077,-146.95578,,,
729608333.007061,1.049076,-2.478534,53.755497,0.04631,0.014633,0.990921,-0.022434,0.00376,0.016278,60.829773,22.401077,-146.95578,,,
729608333.010372,1.043445,-2.474023,53.758584,0.051132,0.015747,0.993484,-0.020184,0.010051,0.00761,60.829773,22.401077,-146.95578,,,
729608333.013727,1.043445,-2.474023,53.758584,0.051132,0.015747,0.993484,-0.020184,0.010051,0.00761,60.954483,22.174026,-146.868027,,,
729608333.017061,1.037401,-2.471744,53.761031,0.051132,0.015747,0.993484,-0.020184,0.010051,0.00761,60.954483,22.174026,-146.868027,,,
729608333.020374,1.030884,-2.465005,53.762491,0.047287,0.01973,0.99472,-0.020504,0.024129,0.003663,60.954483,22.174026,-146.868027,,,
729608333.023792,1.030884,-2.465005,53.762491,0.047287,0.01973,0.99472,-0.020504,0.024129,0.003663,60.954483,22.174026,-146.868027,,,
729608333.027052,1.023875,-2.45865,53.764136,0.047287,0.01973,0.99472,-0.020504,0.024129,0.003663,60.954483,22.174026,-146.868027,,,
729608333.030401,1.015959,-2.45105,53.767037,0.044037,0.023376,0.994629,-0.030205,0.030105,0.013748,60.954483,22.174026,-146.868027,,,
729608333.033731,1.015959,-2.45105,53.767037,0.044037,0.023376,0.994629,-0.030205,0.030105,0.013748,60.954483,22.174026,-146.868027,,,
729608333.037123,1.007006,-2.443578,53.771277,0.044037,0.023376,0.994629,-0.030205,0.030105,0.013748,60.954483,22.174026,-146.868027,,,
729608333.040369,0.998625,-2.438288,53.776246,0.037033,0.017395,0.994949,-0.030078,0.020253,0.016813,60.954483,22.174026,-146.868027,,,
729608333.043726,0.998625,-2.438288,53.776246,0.037033,0.017395,0.994949,-0.030078,0.020253,0.016813,60.954483,22.174026,-146.868027,,,
729608333.047064,0.989711,-2.434695,53.780849,0.037033,0.017395,0.994949,-0.030078,0.020253,0.016813,60.954483,22.174026,-146.868027,,,
729608333.050368,0.982698,-2.436021,53.784769,0.034683,0.016739,0.995163,-0.027317,-0.00781,0.010965,60.954483,22.174026,-146.868027,,,
729608333.053707,0.982698,-2.436021,53.784769,0.034683,0.016739,0.995163,-0.027317,-0.00781,0.010965,60.990677,22.346069,-146.552948,,,
729608333.057041,0.975311,-2.440339,53.787658,0.034683,0.016739,0.995163,-0.027317,-0.00781,0.010965,60.990677,22.346069,-146.552948,,,
729608333.060374,0.970405,-2.451697,53.789984,0.03421,0.021866,0.994644,-0.025441,-0.029383,0.007967,60.990677,22.346069,-146.552948,,,
729608333.063767,0.970405,-2.451697,53.789984,0.03421,0.021866,0.994644,-0.025441,-0.029383,0.007967,60.990677,22.346069,-146.552948,,,
729608333.067046,0.963193,-2.462695,53.792669,0.03421,0.021866,0.994644,-0.025441,-0.029383,0.007967,60.990677,22.346069,-146.552948,,,
729608333.070367,0.958604,-2.47641,53.796071,0.035477,0.022385,0.997925,-0.020948,-0.036926,0.011091,60.990677,22.346069,-146.552948,,,
729608333.073733,0.958604,-2.47641,53.796071,0.035477,0.022385,0.997925,-0.020948,-0.036926,0.011091,60.990677,22.346069,-146.552948,,,
729608333.077093,0.952135,-2.487608,53.799914,0.035477,0.022385,0.997925,-0.020948,-0.036926,0.011091,60.990677,22.346069,-146.552948,,,
729608333.080367,0.94594,-2.4981,53.803587,0.039352,0.020203,1.003906,-0.018224,-0.027903,0.010513,60.990677,22.346069,-146.552948,,,
729608333.08376,0.94594,-2.4981,53.803587,0.039352,0.020203,1.003906,-0.018224,-0.027903,0.010513,60.990677,22.346069,-146.552948,,,
729608333.087062,0.939333,-2.505742,53.806245,0.039352,0.020203,1.003906,-0.018224,-0.027903,0.010513,60.990677,22.346069,-146.552948,,,
729608333.090369,0.932553,-2.512252,53.807467,0.052887,0.022491,1.005905,-0.017951,-0.002605,0.000321,60.990677,22.346069,-146.552948,,,
729608333.093706,0.932553,-2.512252,53.807467,0.052887,0.022491,1.005905,-0.017951,-0.002605,0.000321,61.086197,22.341797,-146.297241,,,
729608333.097054,0.927575,-2.514178,53.807619,0.052887,0.022491,1.005905,-0.017951,-0.002605,0.000321,61.086197,22.341797,-146.297241,,,
729608333.100379,0.925123,-2.514936,53.807773,0.052185,0.026031,1.011459,-0.000151,0.008807,0.000127,61.086197,22.341797,-146.297241,,,
729608333.103768,0.925123,-2.514936,53.807773,0.052185,0.026031,1.011459,-0.000151,0.008807,0.000127,61.086197,22.341797,-146.297241,,,
729608333.107048,0.924307,-2.512753,53.808224,0.052185,0.026031,1.011459,-0.000151,0.008807,0.000127,61.086197,22.341797,-146.297241,,,
729608333.11038,0.926556,-2.510552,53.809835,0.046463,0.018738,1.013367,0.006893,0.018378,0.00968,61.086197,22.341797,-146.297241,,,
729608333.113717,0.926556,-2.510552,53.809835,0.046463,0.018738,1.013367,0.006893,0.018378,0.00968,61.086197,22.341797,-146.297241,,,
729608333.117133,0.928379,-2.506579,53.813256,0.046463,0.018738,1.013367,0.006893,0.018378,0.00968,61.086197,22.341797,-146.297241,,,
729608333.120382,0.931042,-2.499937,53.818253,0.039688,0.011551,1.007462,0.0036,0.023749,0.019308,61.086197,22.341797,-146.297241,,,
729608333.123707,0.931042,-2.499937,53.818253,0.039688,0.011551,1.007462,0.0036,0.023749,0.019308,61.086197,22.341797,-146.297241,,,
729608333.127066,0.932209,-2.49451,53.824495,0.039688,0.011551,1.007462,0.0036,0.023749,0.019308,61.086197,22.341797,-146.297241,,,
729608333.130378,0.933563,-2.487908,53.83132,0.0354,0.013504,1.005951,0.00731,0.017532,0.025998,61.086197,22.341797,-146.297241,,,
729608333.133707,0.933563,-2.487908,53.83132,0.0354,0.013504,1.005951,0.00731,0.017532,0.025998,61.165634,22.312637,-146.948349,,,
729608333.137082,0.934975,-2.484405,53.838689,0.0354,0.013504,1.005951,0.00731,0.017532,0.025998,61.165634,22.312637,-146.948349,,,
729608333.140378,0.937543,-2.47949,53.845716,0.035767,0.017899,1.00975,0.011332,0.007595,0.020647,61.165634,22.312637,-146.948349,,,
729608333.143784,0.937543,-2.47949,53.845716,0.035767,0.017899,1.00975,0.011332,0.007595,0.020647,61.165634,22.312637,-146.948349,,,
729608333.147048,0.940128,-2.478401,53.851747,0.035767,0.017899,1.00975,0.011332,0.007595,0.020647,61.165634,22.312637,-146.948349,,,
729608333.150375,0.945203,-2.477073,53.856478,0.036774,0.017517,1.010284,0.018752,-0.004058,0.015071,61.165634,22.312637,-146.948349,,,
729608333.15372,0.945203,-2.477073,53.856478,0.036774,0.017517,1.010284,0.018752,-0.004058,0.015071,61.165634,22.312637,-146.948349,,,
729608333.157118,0.94999,-2.478916,53.860967,0.036774,0.017517,1.010284,0.018752,-0.004058,0.015071,61.165634,22.312637,-146.948349,,,
729608333.160372,0.956893,-2.480165,53.865786,0.040176,0.013657,1.008911,0.025784,-0.010219,0.016264,61.165634,22.312637,-146.948349,,,
729608333.163722,0.956893,-2.480165,53.865786,0.040176,0.013657,1.008911,0.025784,-0.010219,0.016264,61.165634,22.312637,-146.948349,,,
729608333.167059,0.963753,-2.485031,53.870455,0.040176,0.013657,1.008911,0.025784,-0.010219,0.016264,61.165634,22.312637,-146.948349,,,
729608333.170378,0.971127,-2.492855,53.874942,0.044235,0.015671,1.005371,0.022244,-0.022097,0.012495,61.165634,22.312637,-146.948349,,,
729608333.173719,0.971127,-2.492855,53.874942,0.044235,0.015671,1.005371,0.022244,-0.022097,0.012495,61.165634,22.312637,-146.948349,,,
729608333.177078,0.977278,-2.50022,53.879034,0.044235,0.015671,1.005371,0.022244,-0.022097,0.012495,60.954666,22.350143,-147.091553,,,
729608333.180376,0.985206,-2.509491,53.882698,0.048248,0.017456,0.996307,0.020656,-0.018482,0.011347,60.954666,22.350143,-147.091553,,,
729608333.183713,0.985206,-2.509491,53.882698,0.048248,0.017456,0.996307,0.020656,-0.018482,0.011347,60.954666,22.350143,-147.091553,,,
729608333.187082,0.990478,-2.515477,53.886583,0.048248,0.017456,0.996307,0.020656,-0.018482,0.011347,60.954666,22.350143,-147.091553,,,
729608333.19038,0.996335,-2.521493,53.891164,0.045395,0.019485,0.995758,0.022218,-0.00793,0.01688,60.954666,22.350143,-147.091553,,,
729608333.193775,0.996335,-2.521493,53.891164,0.045395,0.019485,0.995758,0.022218,-0.00793,0.01688,60.954666,22.350143,-147.091553,,,
729608333.19704,1.002062,-2.524725,53.896345,0.045395,0.019485,0.995758,0.022218,-0.00793,0.01688,60.954666,22.350143,-147.091553,,,
729608333.200378,1.008183,-2.526048,53.902047,0.047562,0.016083,1.00032,0.027727,-0.002388,0.017024,60.954666,22.350143,-147.091553,,,
729608333.203717,1.008183,-2.526048,53.902047,0.047562,0.016083,1.00032,0.027727,-0.002388,0.017024,60.954666,22.350143,-147.091553,,,
729608333.207107,1.015775,-2.527354,53.90755,0.047562,0.016083,1.00032,0.027727,-0.002388,0.017024,60.954666,22.350143,-147.091553,,,
729608333.210449,1.021854,-2.527098,53.911946,0.051758,0.017776,0.99765,0.029119,-0.00383,0.011072,60.954666,22.350143,-147.091553,,,
729608333.213717,1.021854,-2.527098,53.911946,0.051758,0.017776,0.99765,0.029119,-0.00383,0.011072,60.954666,22.350143,-147.091553,,,
729608333.217069,1.028903,-2.528715,53.915273,0.051758,0.017776,0.99765,0.029119,-0.00383,0.011072,61.001541,22.418884,-146.75238,,,
729608333.220373,1.035199,-2.528081,53.91835,0.047531,0.019775,0.991425,0.022005,-0.001967,0.010035,61.001541,22.418884,-146.75238,,,
729608333.223714,1.035199,-2.528081,53.91835,0.047531,0.019775,0.991425,0.022005,-0.001967,0.010035,61.001541,22.418884,-146.75238,,,
729608333.227039,1.041114,-2.530053,53.921831,0.047531,0.019775,0.991425,0.022005,-0.001967,0.010035,61.001541,22.418884,-146.75238,,,
729608333.230373,1.045236,-2.529227,53.926419,0.04718,0.017914,0.986084,0.011314,0.001156,0.019393,61.001541,22.418884,-146.75238,,,
729608333.233768,1.045236,-2.529227,53.926419,0.04718,0.017914,0.986084,0.011314,0.001156,0.019393,61.001541,22.418884,-146.75238,,,
729608333.237035,1.047595,-2.528883,53.932358,0.04718,0.017914,0.986084,0.011314,0.001156,0.019393,61.001541,22.418884,-146.75238,,,
729608333.240398,1.048152,-2.52582,53.939346,0.044128,0.014297,0.987762,0.009113,0.011819,0.025482,61.001541,22.418884,-146.75238,,,
729608333.243713,1.048152,-2.52582,53.939346,0.044128,0.014297,0.987762,0.009113,0.011819,0.025482,61.001541,22.418884,-146.75238,,,
729608333.247097,1.049994,-2.523359,53.946847,0.044128,0.014297,0.987762,0.009113,0.011819,0.025482,61.001541,22.418884,-146.75238,,,
729608333.250366,1.052492,-2.52125,53.953363,0.048889,0.011444,0.99353,0.019262,0.003437,0.016736,61.001541,22.418884,-146.75238,,,
729608333.253722,1.052492,-2.52125,53.953363,0.048889,0.011444,0.99353,0.019262,0.003437,0.016736,61.001541,22.418884,-146.75238,,,
729608333.257037,1.05742,-2.522308,53.958171,0.048889,0.011444,0.99353,0.019262,0.003437,0.016736,60.821533,22.289856,-147.008316,,,
729608333.260373,1.062363,-2.526011,53.961719,0.052536,0.016891,0.986282,0.019366,-0.009743,0.006131,60.821533,22.289856,-147.008316,,,
729608333.26372,1.062363,-2.526011,53.961719,0.052536,0.016891,0.986282,0.019366,-0.009743,0.006131,60.821533,22.289856,-147.008316,,,
729608333.267058,1.066659,-2.529655,53.964116,0.052536,0.016891,0.986282,0.019366,-0.009743,0.006131,60.821533,22.289856,-147.008316,,,
729608333.270369,1.07004,-2.533812,53.964931,0.052307,0.023331,0.983276,0.007918,-0.014693,0.001003,60.821533,22.289856,-147.008316,,,
729608333.273792,1.07004,-2.533812,53.964931,0.052307,0.023331,0.983276,0.007918,-0.014693,0.001003,60.821533,22.289856,-147.008316,,,
729608333.277052,1.072051,-2.538139,53.965496,0.052307,0.023331,0.983276,0.007918,-0.014693,0.001003,60.821533,22.289856,-147.008316,,,
729608333.280393,1.072234,-2.544194,53.966855,0.052872,0.021835,0.985031,0.000176,-0.018871,0.002787,60.821533,22.289856,-147.008316,,,
729608333.283727,1.072234,-2.544194,53.966855,0.052872,0.021835,0.985031,0.000176,-0.018871,0.002787,60.821533,22.289856,-147.008316,,,
729608333.287118,1.071993,-2.551118,53.968257,0.052872,0.021835,0.985031,0.000176,-0.018871,0.002787,60.821533,22.289856,-147.008316,,,
729608333.290366,1.070321,-2.560476,53.969257,0.050827,0.017578,0.982819,-0.005672,-0.025607,-0.000145,60.821533,22.289856,-147.008316,,,
729608333.293708,1.070321,-2.560476,53.969257,0.050827,0.017578,0.982819,-0.005672,-0.025607,-0.000145,60.821533,22.289856,-147.008316,,,
729608333.297037,1.06804,-2.567946,53.969934,0.050827,0.017578,0.982819,-0.005672,-0.025607,-0.000145,60.931747,22.189301,-146.845932,,,
729608333.30037,1.065513,-2.575451,53.969895,0.052933,0.01767,0.986267,-0.011667,-0.0138,-0.006337,60.931747,22.189301,-146.845932,,,
729608333.30372,1.065513,-2.575451,53.969895,0.052933,0.01767,0.986267,-0.011667,-0.0138,-0.006337,60.931747,22.189301,-146.845932,,,
