Time (sec),Pitch (deg),Roll (deg),Yaw(deg),X-Acceleration (g),Y-Acceleration (g),Z-Acceleration (g),Pitch Rate (deg/sec),Roll Rate (deg/sec),Yaw Rate (deg/sec),Magnetic Field in X direction (uT),Magnetic Field in Y direction (uT),Magnetic Field in Z Direction (uT),Latitude (deg),Longitude (deg),Altitude (m)
729605724.460926,-2.372223,-0.246826,52.129738,0.012604,-0.051453,1.005798,0.030398,0.056594,-0.004846,60.062927,24.36026,-147.959351,,,
729605724.464252,-2.363677,-0.228522,52.129351,0.014633,-0.04895,1.008041,0.030398,0.056594,-0.004846,60.062927,24.36026,-147.959351,,,
729605724.467656,-2.363677,-0.20684,52.130341,0.014633,-0.04895,1.008041,0.027149,0.075406,0.002389,60.245438,24.203461,-147.95845,,,
729605724.470932,-2.354416,-0.20684,52.130341,0.014633,-0.04895,1.008041,0.027149,0.075406,0.002389,60.245438,24.203461,-147.95845,,,
729605724.474232,-2.348453,-0.188201,52.132375,0.0065,-0.049805,0.992493,0.027149,0.075406,0.002389,60.245438,24.203461,-147.95845,,,
729605724.477565,-2.342875,-0.170152,52.134765,0.0065,-0.049805,0.992493,0.016589,0.057231,0.004706,60.245438,24.203461,-147.95845,,,
729605724.480902,-2.342875,-0.170152,52.134765,0.0065,-0.049805,0.992493,0.016589,0.057231,0.004706,60.245438,24.203461,-147.95845,,,
729605724.484289,-2.339435,-0.154744,52.135932,0.004532,-0.048111,0.980362,0.016589,0.057231,0.004706,60.245438,24.203461,-147.95845,,,
729605724.487664,-2.337994,-0.13752,52.13505,0.004532,-0.048111,0.980362,0.003294,0.061276,-0.007807,60.245438,24.203461,-147.95845,,,
729605724.490886,-2.337994,-0.13752,52.13505,0.004532,-0.048111,0.980362,0.003294,0.061276,-0.007807,60.245438,24.203461,-147.95845,,,
729605724.494229,-2.339227,-0.121817,52.131367,0.01358,-0.043243,0.987228,0.003294,0.061276,-0.007807,60.245438,24.203461,-147.95845,,,
729605724.497557,-2.341935,-0.111343,52.125088,0.01358,-0.043243,0.987228,-0.011998,0.040175,-0.026269,60.245438,24.203461,-147.95845,,,
729605724.500929,-2.341935,-0.111343,52.125088,0.01358,-0.043243,0.987228,-0.011998,0.040175,-0.026269,60.245438,24.203461,-147.95845,,,
729605724.504265,-2.3464,-0.104946,52.116598,0.015335,-0.039185,0.977982,-0.011998,0.040175,-0.026269,60.245438,24.203461,-147.95845,,,
729605724.507552,-2.3464,-0.104946,52.116598,0.015335,-0.039185,0.977982,-0.018798,0.007962,-0.040175,60.245438,24.203461,-147.95845,,,
729605724.510949,-2.353348,-0.104955,52.105856,0.015335,-0.039185,0.977982,-0.018798,0.007962,-0.040175,60.447906,24.136963,-147.65715,,,
729605724.514239,-2.359426,-0.105934,52.094527,0.010269,-0.04129,0.98111,-0.018798,0.007962,-0.040175,60.447906,24.136963,-147.65715,,,
729605724.517557,-2.359426,-0.108535,52.082792,0.010269,-0.04129,0.98111,-0.023751,-0.000202,-0.04294,60.447906,24.136963,-147.65715,,,
729605724.520953,-2.368345,-0.108535,52.082792,0.010269,-0.04129,0.98111,-0.023751,-0.000202,-0.04294,60.447906,24.136963,-147.65715,,,
729605724.524297,-2.37498,-0.107368,52.069875,0.006622,-0.04863,0.9888,-0.023751,-0.000202,-0.04294,60.447906,24.136963,-147.65715,,,
729605724.527546,-2.37498,-0.107368,52.069875,0.006622,-0.04863,0.9888,-0.017545,0.025177,-0.049542,60.447906,24.136963,-147.65715,,,
729605724.530928,-2.382972,-0.104278,52.055687,0.006622,-0.04863,0.9888,-0.017545,0.025177,-0.049542,60.447906,24.136963,-147.65715,,,
729605724.534217,-2.386134,-0.097521,52.041192,0.008545,-0.055923,0.999664,-0.017545,0.025177,-0.049542,60.447906,24.136963,-147.65715,,,
729605724.5376,-2.3884,-0.093495,52.026871,0.008545,-0.055923,0.999664,0.001314,0.028436,-0.051866,60.447906,24.136963,-147.65715,,,
729605724.540882,-2.3884,-0.093495,52.026871,0.008545,-0.055923,0.999664,0.001314,0.028436,-0.051866,60.447906,24.136963,-147.65715,,,
729605724.544224,-2.385824,-0.085588,52.013962,0.008163,-0.061935,1.000778,0.001314,0.028436,-0.051866,60.447906,24.136963,-147.65715,,,
729605724.547549,-2.385824,-0.085588,52.013962,0.008163,-0.061935,1.000778,0.026132,0.04797,-0.036225,60.447906,24.136963,-147.65715,,,
729605724.550911,-2.381198,-0.076423,52.003057,0.008163,-0.061935,1.000778,0.026132,0.04797,-0.036225,60.455154,24.080307,-147.81218,,,
729605724.55426,-2.372608,-0.059209,51.994028,0.002472,-0.06778,1.011963,0.026132,0.04797,-0.036225,60.455154,24.080307,-147.81218,,,
729605724.557545,-2.372608,-0.059209,51.994028,0.002472,-0.06778,1.011963,0.030944,0.086742,-0.024929,60.455154,24.080307,-147.81218,,,
729605724.560986,-2.365475,-0.037851,51.986482,0.002472,-0.06778,1.011963,0.030944,0.086742,-0.024929,60.455154,24.080307,-147.81218,,,
729605724.564235,-2.357541,-0.013483,51.980141,-0.003387,-0.063461,1.00473,0.030944,0.086742,-0.024929,60.455154,24.080307,-147.81218,,,
729605724.567603,-2.357541,-0.013483,51.980141,-0.003387,-0.063461,1.00473,0.019932,0.088123,-0.020739,60.455154,24.080307,-147.81218,,,
729605724.570968,-2.3529,0.009061,51.9744,-0.003387,-0.063461,1.00473,0.019932,0.088123,-0.020739,60.455154,24.080307,-147.81218,,,
729605724.574222,-2.34967,0.031646,51.968627,-0.006363,-0.05188,0.981186,0.019932,0.088123,-0.020739,60.455154,24.080307,-147.81218,,,
729605724.577624,-2.34967,0.031646,51.968627,-0.006363,-0.05188,0.981186,0.000647,0.069224,-0.026179,60.455154,24.080307,-147.81218,,,
729605724.580902,-2.34952,0.047509,51.961309,-0.006363,-0.05188,0.981186,0.000647,0.069224,-0.026179,60.455154,24.080307,-147.81218,,,
729605724.584276,-2.351731,0.062902,51.952599,-0.006668,-0.042953,0.974854,0.000647,0.069224,-0.026179,60.455154,24.080307,-147.81218,,,
729605724.587603,-2.351731,0.062902,51.952599,-0.006668,-0.042953,0.974854,-0.018367,0.031707,-0.043389,60.455154,24.080307,-147.81218,,,
729605724.590895,-2.356264,0.06893,51.941641,-0.006668,-0.042953,0.974854,-0.018367,0.031707,-0.043389,60.418564,24.2258,-147.79303,,,
729605724.594282,-2.363379,0.072603,51.928437,-0.005829,-0.036972,0.968246,-0.018367,0.031707,-0.043389,60.418564,24.2258,-147.79303,,,
729605724.597644,-2.363379,0.072603,51.928437,-0.005829,-0.036972,0.968246,-0.018367,-0.00094,-0.054277,60.418564,24.2258,-147.79303,,,
729605724.600938,-2.373012,0.06982,51.913151,-0.005829,-0.036972,0.968246,-0.03187,-0.00094,-0.054277,60.418564,24.2258,-147.79303,,,
729605724.604349,-2.384462,0.065865,51.896075,-0.003174,-0.03212,0.973083,-0.03187,-0.00094,-0.054277,60.418564,24.2258,-147.79303,,,
729605724.607565,-2.384462,0.065865,51.896075,-0.003174,-0.03212,0.973083,-0.03187,-0.00094,-0.054277,60.418564,24.2258,-147.79303,,,
729605724.611008,-2.399819,0.056677,51.877831,-0.003174,-0.03212,0.973083,-0.046857,-0.022935,-0.064937,60.418564,24.2258,-147.79303,,,
729605724.614258,-2.413077,0.0463,51.859559,-0.001801,-0.034042,0.98291,-0.046857,-0.022935,-0.064937,60.418564,24.2258,-147.79303,,,
729605724.617621,-2.413077,0.0463,51.859559,-0.001801,-0.034042,0.98291,-0.046857,-0.022935,-0.064937,60.418564,24.2258,-147.79303,,,
729605724.620937,-2.429273,0.032073,51.842553,-0.001801,-0.034042,0.98291,-0.04412,-0.038048,-0.056225,60.418564,24.2258,-147.79303,,,
729605724.624231,-2.442645,0.019878,51.827682,0.000366,-0.038651,0.991867,-0.04412,-0.038048,-0.056225,60.418564,24.2258,-147.79303,,,
729605724.627593,-2.442645,0.019878,51.827682,0.000366,-0.038651,0.991867,-0.04412,-0.038048,-0.056225,60.418564,24.2258,-147.79303,,,
729605724.630938,-2.460627,0.006508,51.815067,0.000366,-0.038651,0.991867,-0.050146,-0.037463,-0.042115,60.418564,24.2258,-147.79303,,,
729605724.634221,-2.476514,-0.00506,51.804372,0.001328,-0.039627,0.995651,-0.050146,-0.037463,-0.042115,60.55188,24.028854,-147.708527,,,
729605724.637654,-2.476514,-0.00506,51.804372,0.001328,-0.039627,0.995651,-0.050146,-0.037463,-0.042115,60.55188,24.028854,-147.708527,,,
729605724.640899,-2.49907,-0.01515,51.794324,0.001328,-0.039627,0.995651,-0.061547,-0.032179,-0.035873,60.55188,24.028854,-147.708527,,,
729605724.644226,-2.519441,-0.023428,51.784296,0.006973,-0.032501,0.99736,-0.061547,-0.032179,-0.035873,60.55188,24.028854,-147.708527,,,
729605724.647629,-2.519441,-0.023428,51.784296,0.006973,-0.032501,0.99736,-0.061547,-0.032179,-0.035873,60.55188,24.028854,-147.708527,,,
729605724.650892,-2.545004,-0.028301,51.773644,0.006973,-0.032501,0.99736,-0.075283,-0.01685,-0.038552,60.55188,24.028854,-147.708527,,,
729605724.65427,-2.568726,-0.033333,51.761496,0.01738,-0.025146,1.00647,-0.075283,-0.01685,-0.038552,60.55188,24.028854,-147.708527,,,
729605724.657594,-2.568726,-0.033333,51.761496,0.01738,-0.025146,1.00647,-0.075283,-0.01685,-0.038552,60.55188,24.028854,-147.708527,,,
729605724.660949,-2.594541,-0.037103,51.747696,0.01738,-0.025146,1.00647,-0.089267,-0.014135,-0.051696,60.55188,24.028854,-147.708527,,,
729605724.664227,-2.619671,-0.042098,51.732339,0.016403,-0.025711,1.006805,-0.089267,-0.014135,-0.051696,60.55188,24.028854,-147.708527,,,
729605724.667587,-2.619671,-0.042098,51.732339,0.016403,-0.025711,1.006805,-0.089267,-0.014135,-0.051696,60.55188,24.028854,-147.708527,,,
729605724.670927,-2.641867,-0.043971,51.716505,0.016403,-0.025711,1.006805,-0.075347,-0.007649,-0.056619,60.55188,24.028854,-147.708527,,,
729605724.674304,-2.66174,-0.046653,51.700433,0.007996,-0.033417,1.019211,-0.075347,-0.007649,-0.056619,60.225876,24.351654,-147.618195,,,
729605724.677601,-2.66174,-0.046653,51.700433,0.007996,-0.033417,1.019211,-0.075347,-0.007649,-0.056619,60.225876,24.351654,-147.618195,,,
729605724.680896,-2.677463,-0.047394,51.684517,0.007996,-0.033417,1.019211,-0.059896,-9.3e-05,-0.056875,60.225876,24.351654,-147.618195,,,
729605724.68423,-2.692963,-0.04915,51.669995,0.001556,-0.044861,1.026062,-0.059896,-9.3e-05,-0.056875,60.225876,24.351654,-147.618195,,,
729605724.687643,-2.692963,-0.04915,51.669995,0.001556,-0.044861,1.026062,-0.059896,-9.3e-05,-0.056875,60.225876,24.351654,-147.618195,,,
729605724.690892,-2.703401,-0.049806,51.658032,0.001556,-0.044861,1.026062,-0.044285,-0.002087,-0.038091,60.225876,24.351654,-147.618195,,,
729605724.694221,-2.713737,-0.050271,51.649644,-0.009399,-0.05867,1.022507,-0.044285,-0.002087,-0.038091,60.225876,24.351654,-147.618195,,,
729605724.697561,-2.713737,-0.050271,51.649644,-0.009399,-0.05867,1.022507,-0.044285,-0.002087,-0.038091,60.225876,24.351654,-147.618195,,,
729605724.700899,-2.71704,-0.049095,51.644825,-0.009399,-0.05867,1.022507,-0.012269,0.007852,-0.015738,60.225876,24.351654,-147.618195,,,
729605724.704263,-2.718518,-0.048722,51.642423,-0.010345,-0.062836,1.033905,-0.012269,0.007852,-0.015738,60.225876,24.351654,-147.618195,,,
729605724.707589,-2.718518,-0.048722,51.642423,-0.010345,-0.062836,1.033905,-0.012269,0.007852,-0.015738,60.225876,24.351654,-147.618195,,,
729605724.710953,-2.714978,-0.05063,51.641161,-0.010345,-0.062836,1.033905,0.011215,-0.007673,-0.002716,60.225876,24.351654,-147.618195,,,
729605724.714216,-2.710968,-0.054991,51.63987,-0.002716,-0.053452,1.021622,0.011215,-0.007673,-0.002716,60.392944,24.418854,-147.9487,,,
729605724.717567,-2.710968,-0.054991,51.63987,-0.002716,-0.053452,1.021622,0.011215,-0.007673,-0.002716,60.392944,24.418854,-147.9487,,,
729605724.720924,-2.704536,-0.061277,51.638052,-0.002716,-0.053452,1.021622,0.017365,-0.020392,-0.007358,60.392944,24.418854,-147.9487,,,
729605724.724218,-2.700337,-0.067909,51.634724,0.003708,-0.042084,1.008896,0.017365,-0.020392,-0.007358,60.392944,24.418854,-147.9487,,,
729605724.727572,-2.700337,-0.067909,51.634724,0.003708,-0.042084,1.008896,0.017365,-0.020392,-0.007358,60.392944,24.418854,-147.9487,,,
729605724.730906,-2.693306,-0.07632,51.629354,0.003708,-0.042084,1.008896,0.010761,-0.013981,-0.020924,60.392944,24.418854,-147.9487,,,
729605724.73422,-2.691111,-0.082527,51.622796,0.003448,-0.037537,1.006805,0.010761,-0.013981,-0.020924,60.392944,24.418854,-147.9487,,,
729605724.737594,-2.691111,-0.082527,51.622796,0.003448,-0.037537,1.006805,0.010761,-0.013981,-0.020924,60.392944,24.418854,-147.9487,,,
729605724.740897,-2.685423,-0.093414,51.615247,0.003448,-0.037537,1.006805,0.005756,-0.02064,-0.025205,60.392944,24.418854,-147.9487,,,
729605724.744221,-2.685294,-0.10053,51.607693,0.004074,-0.043045,0.997757,0.005756,-0.02064,-0.025205,60.392944,24.418854,-147.9487,,,
729605724.747679,-2.685294,-0.10053,51.607693,0.004074,-0.043045,0.997757,0.005756,-0.02064,-0.025205,60.392944,24.418854,-147.9487,,,
729605724.750877,-2.683069,-0.109344,51.600088,0.004074,-0.043045,0.997757,-0.006879,-0.017521,-0.028699,60.392944,24.418854,-147.9487,,,
729605724.754273,-2.685424,-0.114688,51.591922,0.006638,-0.042786,0.99472,-0.006879,-0.017521,-0.028699,60.18457,24.517548,-147.767654,,,
729605724.757553,-2.685424,-0.114688,51.591922,0.006638,-0.042786,0.99472,-0.006879,-0.017521,-0.028699,60.18457,24.517548,-147.767654,,,
729605724.76095,-2.684563,-0.121749,51.582366,0.006638,-0.042786,0.99472,-0.005405,-0.01719,-0.035865,60.18457,24.517548,-147.767654,,,
729605724.764224,-2.685127,-0.130084,51.571507,0.011917,-0.039154,0.991608,-0.005405,-0.01719,-0.035865,60.18457,24.517548,-147.767654,,,
729605724.767564,-2.685127,-0.130084,51.571507,0.011917,-0.039154,0.991608,-0.005405,-0.01719,-0.035865,60.18457,24.517548,-147.767654,,,
729605724.770945,-2.684543,-0.138017,51.559521,0.011917,-0.039154,0.991608,0.003976,-0.025108,-0.044545,60.18457,24.517548,-147.767654,,,
729605724.774224,-2.682236,-0.146121,51.546569,0.008087,-0.0392,0.994217,0.003976,-0.025108,-0.044545,60.18457,24.517548,-147.767654,,,
729605724.777555,-2.682236,-0.146121,51.546569,0.008087,-0.0392,0.994217,0.003976,-0.025108,-0.044545,60.18457,24.517548,-147.767654,,,
729605724.780916,-2.682382,-0.150173,51.533477,0.008087,-0.0392,0.994217,0.010769,-0.018131,-0.047607,60.18457,24.517548,-147.767654,,,
729605724.784225,-2.679963,-0.156162,51.520456,0.002441,-0.039993,0.993057,0.010769,-0.018131,-0.047607,60.18457,24.517548,-147.767654,,,
729605724.787597,-2.679963,-0.156162,51.520456,0.002441,-0.039993,0.993057,0.010769,-0.018131,-0.047607,60.18457,24.517548,-147.767654,,,
729605724.790892,-2.680429,-0.15712,51.50841,0.002441,-0.039993,0.993057,0.007723,-0.003933,-0.043185,60.18457,24.517548,-147.767654,,,
729605724.794232,-2.677967,-0.156501,51.497458,0.000473,-0.049835,0.987442,0.007723,-0.003933,-0.043185,60.18457,24.517548,-147.767654,,,
729605724.797625,-2.677967,-0.156501,51.497458,0.000473,-0.049835,0.987442,0.007723,-0.003933,-0.043185,60.1707,24.351883,-147.776947,,,
729605724.800914,-2.673682,-0.150878,51.48776,0.000473,-0.049835,0.987442,0.016019,0.029187,-0.033475,60.1707,24.351883,-147.776947,,,
729605724.804275,-2.666552,-0.141638,51.479544,-0.003189,-0.055573,1.004639,0.016019,0.029187,-0.033475,60.1707,24.351883,-147.776947,,,
729605724.807567,-2.666552,-0.141638,51.479544,-0.003189,-0.055573,1.004639,0.016019,0.029187,-0.033475,60.1707,24.351883,-147.776947,,,
729605724.810974,-2.655588,-0.132039,51.472839,-0.003189,-0.055573,1.004639,0.032197,0.03744,-0.020789,60.1707,24.351883,-147.776947,,,
729605724.814216,-2.646028,-0.123417,51.467391,-0.007614,-0.056076,1.000168,0.032197,0.03744,-0.020789,60.1707,24.351883,-147.776947,,,
729605724.817576,-2.646028,-0.123417,51.467391,-0.007614,-0.056076,1.000168,0.032197,0.03744,-0.020789,60.1707,24.351883,-147.776947,,,
729605724.820926,-2.635974,-0.116744,51.462923,-0.007614,-0.056076,1.000168,0.030379,0.023962,-0.015834,60.1707,24.351883,-147.776947,,,
729605724.824219,-2.628817,-0.110567,51.459365,-0.014359,-0.050598,0.987396,0.030379,0.023962,-0.015834,60.1707,24.351883,-147.776947,,,
729605724.827558,-2.628817,-0.110567,51.459365,-0.014359,-0.050598,0.987396,0.030379,0.023962,-0.015834,60.1707,24.351883,-147.776947,,,
729605724.830893,-2.623548,-0.106141,51.455486,-0.014359,-0.050598,0.987396,0.016552,0.020255,-0.01484,60.1707,24.351883,-147.776947,,,
729605724.834231,-2.62161,-0.103709,51.449679,-0.008392,-0.04361,0.986893,0.016552,0.020255,-0.01484,60.1707,24.351883,-147.776947,,,
729605724.837588,-2.62161,-0.103709,51.449679,-0.008392,-0.04361,0.986893,0.016552,0.020255,-0.01484,60.283646,24.238678,-147.709915,,,
729605724.840897,-2.621481,-0.106874,51.441993,-0.008392,-0.04361,0.986893,-0.007102,-0.001929,-0.0273,60.283646,24.238678,-147.709915,,,
729605724.844232,-2.624454,-0.112394,51.433057,-0.003342,-0.037521,0.979294,-0.007102,-0.001929,-0.0273,60.283646,24.238678,-147.709915,,,
729605724.847624,-2.624454,-0.112394,51.433057,-0.003342,-0.037521,0.979294,-0.007102,-0.001929,-0.0273,60.283646,24.238678,-147.709915,,,
729605724.850897,-2.628299,-0.123686,51.42292,-0.003342,-0.037521,0.979294,-0.020112,-0.029878,-0.035701,60.283646,24.238678,-147.709915,,,
729605724.854277,-2.6353,-0.134944,51.412444,-0.003479,-0.038818,0.980103,-0.020112,-0.029878,-0.035701,60.283646,24.238678,-147.709915,,,
729605724.85757,-2.6353,-0.134944,51.412444,-0.003479,-0.038818,0.980103,-0.020112,-0.029878,-0.035701,60.283646,24.238678,-147.709915,,,
729605724.860988,-2.641488,-0.147528,51.401725,-0.003479,-0.038818,0.980103,-0.029475,-0.036288,-0.041171,60.283646,24.238678,-147.709915,,,
729605724.864221,-2.649418,-0.159748,51.390472,-0.002319,-0.04361,0.992157,-0.029475,-0.036288,-0.041171,60.283646,24.238678,-147.709915,,,
729605724.867577,-2.649418,-0.159748,51.390472,-0.002319,-0.04361,0.992157,-0.029475,-0.036288,-0.041171,60.283646,24.238678,-147.709915,,,
729605724.870933,-2.655811,-0.171824,51.378866,-0.002319,-0.04361,0.992157,-0.018721,-0.038497,-0.041771,60.283646,24.238678,-147.709915,,,
729605724.874222,-2.660787,-0.183639,51.367613,-0.006363,-0.049652,1.006622,-0.018721,-0.038497,-0.041771,60.283646,24.238678,-147.709915,,,
729605724.877569,-2.660787,-0.183639,51.367613,-0.006363,-0.049652,1.006622,-0.018721,-0.038497,-0.041771,60.403809,24.236572,-147.618515,,,
729605724.880902,-2.665774,-0.193249,51.357056,-0.006363,-0.049652,1.006622,-0.009402,-0.031153,-0.038195,60.403809,24.236572,-147.618515,,,
729605724.884225,-2.668949,-0.201827,51.346832,-0.006836,-0.053665,1.011017,-0.009402,-0.031153,-0.038195,60.403809,24.236572,-147.618515,,,
729605724.887613,-2.668949,-0.201827,51.346832,-0.006836,-0.053665,1.011017,-0.009402,-0.031153,-0.038195,60.403809,24.236572,-147.618515,,,
729605724.890897,-2.673555,-0.206767,51.336986,-0.006836,-0.053665,1.011017,-0.006055,-0.016483,-0.03628,60.403809,24.236572,-147.618515,,,
729605724.894237,-2.674607,-0.211747,51.327777,-0.01268,-0.057266,1.013611,-0.006055,-0.016483,-0.03628,60.403809,24.236572,-147.618515,,,
729605724.897644,-2.674607,-0.211747,51.327777,-0.01268,-0.057266,1.013611,-0.006055,-0.016483,-0.03628,60.403809,24.236572,-147.618515,,,
729605724.9009,-2.675595,-0.211816,51.319512,-0.01268,-0.057266,1.013611,0.00163,-0.005406,-0.034125,60.403809,24.236572,-147.618515,,,
729605724.904259,-2.673899,-0.214946,51.311487,-0.014709,-0.058929,1.016541,0.00163,-0.005406,-0.034125,60.403809,24.236572,-147.618515,,,
729605724.907568,-2.673899,-0.214946,51.311487,-0.014709,-0.058929,1.016541,0.00163,-0.005406,-0.034125,60.403809,24.236572,-147.618515,,,
729605724.910971,-2.671502,-0.21461,51.304373,-0.014709,-0.058929,1.016541,0.013102,-0.007213,-0.024039,60.403809,24.236572,-147.618515,,,
729605724.914217,-2.666933,-0.218271,51.29825,-0.020996,-0.062393,1.015305,0.013102,-0.007213,-0.024039,60.403809,24.236572,-147.618515,,,
729605724.917559,-2.666933,-0.218271,51.29825,-0.020996,-0.062393,1.015305,0.013102,-0.007213,-0.024039,60.205093,24.235397,-147.768005,,,
729605724.920932,-2.659822,-0.219601,51.293569,-0.020996,-0.062393,1.015305,0.023071,-0.008655,-0.016911,60.205093,24.235397,-147.768005,,,
729605724.924223,-2.653655,-0.223273,51.289725,-0.021362,-0.063889,1.011292,0.023071,-0.008655,-0.016911,60.205093,24.235397,-147.768005,,,
729605724.927561,-2.653655,-0.223273,51.289725,-0.021362,-0.063889,1.011292,0.023071,-0.008655,-0.016911,60.205093,24.235397,-147.768005,,,
729605724.93092,-2.646085,-0.22531,51.286804,-0.021362,-0.063889,1.011292,0.023181,-0.008681,-0.01048,60.205093,24.235397,-147.768005,,,
729605724.934227,-2.640386,-0.229708,51.284508,-0.014435,-0.062393,1.002029,0.023181,-0.008681,-0.01048,60.205093,24.235397,-147.768005,,,
729605724.937607,-2.640386,-0.229708,51.284508,-0.014435,-0.062393,1.002029,0.023181,-0.008681,-0.01048,60.205093,24.235397,-147.768005,,,
729605724.940917,-2.633732,-0.234025,51.282069,-0.014435,-0.062393,1.002029,0.020553,-0.018721,-0.010537,60.205093,24.235397,-147.768005,,,
729605724.944225,-2.627877,-0.241986,51.2792,-0.007248,-0.056686,0.992661,0.020553,-0.018721,-0.010537,60.205093,24.235397,-147.768005,,,
729605724.947621,-2.627877,-0.241986,51.2792,-0.007248,-0.056686,0.992661,0.020553,-0.018721,-0.010537,60.205093,24.235397,-147.768005,,,
729605724.950903,-2.622009,-0.251092,51.276212,-0.007248,-0.056686,0.992661,0.02129,-0.036059,-0.010118,60.205093,24.235397,-147.768005,,,
729605724.954269,-2.616416,-0.264618,51.272791,-0.004715,-0.050278,0.987915,0.02129,-0.036059,-0.010118,60.205093,24.235397,-147.768005,,,
729605724.957579,-2.616416,-0.264618,51.272791,-0.004715,-0.050278,0.987915,0.02129,-0.036059,-0.010118,60.205093,24.235397,-147.768005,,,
729605724.96096,-2.612287,-0.27855,51.269562,-0.004715,-0.050278,0.987915,0.015836,-0.056941,-0.014212,60.220703,24.19368,-147.77713,,,
729605724.964219,-2.608481,-0.297704,51.266014,0.001144,-0.046219,0.98053,0.015836,-0.056941,-0.014212,60.220703,24.19368,-147.77713,,,
729605724.967567,-2.608481,-0.297704,51.266014,0.001144,-0.046219,0.98053,0.015836,-0.056941,-0.014212,60.220703,24.19368,-147.77713,,,
729605724.970931,-2.608571,-0.315697,51.261783,0.001144,-0.046219,0.98053,0.005602,-0.071369,-0.019214,60.220703,24.19368,-147.77713,,,
729605724.974224,-2.608531,-0.338116,51.25631,0.00972,-0.041122,0.979218,0.005602,-0.071369,-0.019214,60.220703,24.19368,-147.77713,,,
729605724.977562,-2.608531,-0.338116,51.25631,0.00972,-0.041122,0.979218,0.005602,-0.071369,-0.019214,60.220703,24.19368,-147.77713,,,
729605724.980905,-2.612557,-0.356517,51.250186,0.00972,-0.041122,0.979218,-0.008308,-0.079123,-0.022874,60.220703,24.19368,-147.77713,,,
729605724.984228,-2.616343,-0.378429,51.243708,0.015991,-0.038177,0.976471,-0.008308,-0.079123,-0.022874,60.220703,24.19368,-147.77713,,,
729605724.987593,-2.616343,-0.378429,51.243708,0.015991,-0.038177,0.976471,-0.008308,-0.079123,-0.022874,60.220703,24.19368,-147.77713,,,
729605724.99091,-2.624825,-0.393051,51.237508,0.015991,-0.038177,0.976471,-0.021108,-0.059318,-0.023363,60.220703,24.19368,-147.77713,,,
729605724.994225,-2.631851,-0.409811,51.231696,0.018799,-0.038239,0.978622,-0.021108,-0.059318,-0.023363,60.220703,24.19368,-147.77713,,,
729605724.997654,-2.631851,-0.409811,51.231696,0.018799,-0.038239,0.978622,-0.021108,-0.059318,-0.023363,60.220703,24.19368,-147.77713,,,
729605725.0009,-2.643675,-0.416786,51.226889,0.018799,-0.038239,0.978622,-0.030179,-0.040171,-0.018586,60.0672,24.131744,-147.749161,,,
729605725.00427,-2.65245,-0.427655,51.222671,0.019592,-0.039062,0.982498,-0.030179,-0.040171,-0.018586,60.0672,24.131744,-147.749161,,,
729605725.007576,-2.65245,-0.427655,51.222671,0.019592,-0.039062,0.982498,-0.030179,-0.040171,-0.018586,60.0672,24.131744,-147.749161,,,
729605725.010971,-2.664268,-0.430183,51.220334,0.019592,-0.039062,0.982498,-0.027057,-0.027791,-0.008868,60.0672,24.131744,-147.749161,,,
729605725.014219,-2.671467,-0.43734,51.219229,0.019089,-0.041534,0.98761,-0.027057,-0.027791,-0.008868,60.0672,24.131744,-147.749161,,,
729605725.017575,-2.671467,-0.43734,51.219229,0.019089,-0.041534,0.98761,-0.027057,-0.027791,-0.008868,60.0672,24.131744,-147.749161,,,
729605725.020977,-2.679728,-0.439185,51.220166,0.019089,-0.041534,0.98761,-0.016628,-0.017858,0.004857,60.0672,24.131744,-147.749161,,,
729605725.024215,-2.683091,-0.445277,51.222893,0.016357,-0.042618,0.99173,-0.016628,-0.017858,0.004857,60.0672,24.131744,-147.749161,,,
729605725.027553,-2.683091,-0.445277,51.222893,0.016357,-0.042618,0.99173,-0.016628,-0.017858,0.004857,60.0672,24.131744,-147.749161,,,
729605725.030903,-2.685632,-0.448705,51.226846,0.016357,-0.042618,0.99173,0.000777,-0.019604,0.013406,60.0672,24.131744,-147.749161,,,
729605725.03423,-2.683841,-0.455253,51.230427,0.019318,-0.042923,0.994095,0.000777,-0.019604,0.013406,60.0672,24.131744,-147.749161,,,
729605725.037599,-2.683841,-0.455253,51.230427,0.019318,-0.042923,0.994095,0.000777,-0.019604,0.013406,60.0672,24.131744,-147.749161,,,
729605725.040891,-2.680406,-0.458955,51.232961,0.019318,-0.042923,0.994095,0.01535,-0.015001,0.005656,60.06987,24.327408,-147.658875,,,
729605725.044228,-2.676121,-0.465358,51.233379,0.029999,-0.042114,0.998459,0.01535,-0.015001,0.005656,60.06987,24.327408,-147.658875,,,
729605725.047411,-2.676121,-0.465358,51.233379,0.029999,-0.042114,0.998459,0.01535,-0.015001,0.005656,60.06987,24.327408,-147.658875,,,
729605725.05092,-2.672352,-0.471469,51.231193,0.029999,-0.042114,0.998459,0.013302,-0.023755,-0.010909,60.06987,24.327408,-147.658875,,,
729605725.05426,-2.669877,-0.477913,51.22645,0.0354,-0.040482,0.989349,0.013302,-0.023755,-0.010909,60.06987,24.327408,-147.658875,,,
729605725.057568,-2.669877,-0.477913,51.22645,0.0354,-0.040482,0.989349,0.013302,-0.023755,-0.010909,60.06987,24.327408,-147.658875,,,
729605725.060964,-2.667368,-0.483619,51.219503,0.0354,-0.040482,0.989349,0.003564,-0.010251,-0.026374,60.06987,24.327408,-147.658875,,,
729605725.064223,-2.667638,-0.485522,51.211003,0.033951,-0.039902,0.989227,0.003564,-0.010251,-0.026374,60.06987,24.327408,-147.658875,,,
729605725.06757,-2.667638,-0.485522,51.211003,0.033951,-0.039902,0.989227,0.003564,-0.010251,-0.026374,60.06987,24.327408,-147.658875,,,
729605725.070947,-2.668203,-0.486918,51.201518,0.033951,-0.039902,0.989227,-0.00831,0.007334,-0.036701,60.06987,24.327408,-147.658875,,,
729605725.074234,-2.671507,-0.48495,51.191538,0.029541,-0.037933,0.990295,-0.00831,0.007334,-0.036701,60.06987,24.327408,-147.658875,,,
729605725.077564,-2.671507,-0.48495,51.191538,0.029541,-0.037933,0.990295,-0.00831,0.007334,-0.036701,60.06987,24.327408,-147.658875,,,
729605725.080927,-2.673927,-0.483786,51.180822,0.029541,-0.037933,0.990295,-0.013606,0.016673,-0.034914,60.109314,24.04306,-147.50679,,,
729605725.084293,-2.679221,-0.478685,51.169574,0.02623,-0.035538,0.987656,-0.013606,0.016673,-0.034914,60.109314,24.04306,-147.50679,,,
729605725.087607,-2.679221,-0.478685,51.169574,0.02623,-0.035538,0.987656,-0.013606,0.016673,-0.034914,60.109314,24.04306,-147.50679,,,
729605725.090894,-2.683839,-0.476003,51.157511,0.02623,-0.035538,0.987656,-0.021927,0.023775,-0.043751,60.109314,24.04306,-147.50679,,,
729605725.094232,-2.690332,-0.470826,51.145165,0.023315,-0.038208,0.990387,-0.021927,0.023775,-0.043751,60.109314,24.04306,-147.50679,,,
729605725.097555,-2.690332,-0.470826,51.145165,0.023315,-0.038208,0.990387,-0.021927,0.023775,-0.043751,60.109314,24.04306,-147.50679,,,
729605725.100891,-2.697351,-0.46785,51.132189,0.023315,-0.038208,0.990387,-0.023609,0.020926,-0.044936,60.109314,24.04306,-147.50679,,,
729605725.104301,-2.705225,-0.464335,51.118932,0.01712,-0.040466,0.988251,-0.023609,0.020926,-0.044936,60.109314,24.04306,-147.50679,,,
729605725.107555,-2.705225,-0.464335,51.118932,0.01712,-0.040466,0.988251,-0.023609,0.020926,-0.044936,60.109314,24.04306,-147.50679,,,
729605725.110906,-2.711502,-0.464231,51.10538,0.01712,-0.040466,0.988251,-0.023967,0.009132,-0.049989,60.109314,24.04306,-147.50679,,,
729605725.114222,-2.717318,-0.464503,51.091304,0.013321,-0.042709,0.992035,-0.023967,0.009132,-0.049989,60.109314,24.04306,-147.50679,,,
729605725.117642,-2.717318,-0.464503,51.091304,0.013321,-0.042709,0.992035,-0.023967,0.009132,-0.049989,60.109314,24.04306,-147.50679,,,
729605725.120933,-2.720502,-0.469608,51.076703,0.013321,-0.042709,0.992035,-0.010023,-0.002052,-0.051067,60.109314,24.04306,-147.50679,,,
729605725.124241,-2.722184,-0.473395,51.062653,0.012817,-0.043289,0.997116,-0.010023,-0.002052,-0.051067,60.163391,24.257492,-147.769821,,,
729605725.127583,-2.722184,-0.473395,51.062653,0.012817,-0.043289,0.997116,-0.010023,-0.002052,-0.051067,60.163391,24.257492,-147.769821,,,
729605725.130912,-2.719486,-0.482227,51.04895,0.012817,-0.043289,0.997116,0.009626,-0.00624,-0.048183,60.163391,24.257492,-147.769821,,,
729605725.134221,-2.71532,-0.482911,51.036307,0.008286,-0.044037,1.005203,0.009626,-0.00624,-0.048183,60.163391,24.257492,-147.769821,,,
729605725.137595,-2.71532,-0.482911,51.036307,0.008286,-0.044037,1.005203,0.009626,-0.00624,-0.048183,60.163391,24.257492,-147.769821,,,
729605725.140908,-2.708207,-0.485841,51.02437,0.008286,-0.044037,1.005203,0.02027,0.019035,-0.042249,60.163391,24.257492,-147.769821,,,
729605725.144218,-2.701197,-0.479561,51.013662,0.00354,-0.044739,1.017258,0.02027,0.019035,-0.042249,60.163391,24.257492,-147.769821,,,
729605725.147388,-2.701197,-0.479561,51.013662,0.00354,-0.044739,1.017258,0.02027,0.019035,-0.042249,60.163391,24.257492,-147.769821,,,
729605725.151003,-2.691617,-0.47717,51.004936,0.00354,-0.044739,1.017258,0.031554,0.031994,-0.027541,60.163391,24.257492,-147.769821,,,
729605725.154244,-2.68375,-0.468273,50.998847,-0.002625,-0.044373,1.010834,0.031554,0.031994,-0.027541,60.163391,24.257492,-147.769821,,,
729605725.157568,-2.68375,-0.468273,50.998847,-0.002625,-0.044373,1.010834,0.031554,0.031994,-0.027541,60.163391,24.257492,-147.769821,,,
729605725.160907,-2.674822,-0.462961,50.993753,-0.002625,-0.044373,1.010834,0.026251,0.038568,-0.018784,60.163391,24.257492,-147.769821,,,
729605725.164332,-2.668611,-0.452581,50.989915,-0.006378,-0.044907,1.005814,0.026251,0.038568,-0.018784,60.184143,24.087601,-147.623749,,,
729605725.167592,-2.668611,-0.452581,50.989915,-0.006378,-0.044907,1.005814,0.026251,0.038568,-0.018784,60.184143,24.087601,-147.623749,,,
729605725.170935,-2.661616,-0.446031,50.98641,-0.006378,-0.044907,1.005814,0.018174,0.038768,-0.01049,60.184143,24.087601,-147.623749,,,
729605725.17423,-2.658828,-0.437042,50.98262,-0.001968,-0.039917,0.998581,0.018174,0.038768,-0.01049,60.184143,24.087601,-147.623749,,,
729605725.177593,-2.658828,-0.437042,50.98262,-0.001968,-0.039917,0.998581,0.018174,0.038768,-0.01049,60.184143,24.087601,-147.623749,,,
729605725.180901,-2.657263,-0.434364,50.977557,-0.001968,-0.039917,0.998581,0.000906,0.02341,-0.019271,60.184143,24.087601,-147.623749,,,
729605725.184232,-2.660025,-0.431107,50.971273,0.00322,-0.035965,0.985321,0.000906,0.02341,-0.019271,60.184143,24.087601,-147.623749,,,
729605725.1876,-2.660025,-0.431107,50.971273,0.00322,-0.035965,0.985321,0.000906,0.02341,-0.019271,60.184143,24.087601,-147.623749,,,
729605725.190894,-2.664911,-0.431096,50.963152,0.00322,-0.035965,0.985321,-0.025065,0.011435,-0.031806,60.184143,24.087601,-147.623749,,,
729605725.194222,-2.672116,-0.430036,50.953516,0.001801,-0.031998,0.986572,-0.025065,0.011435,-0.031806,60.184143,24.087601,-147.623749,,,
729605725.197587,-2.672116,-0.430036,50.953516,0.001801,-0.031998,0.986572,-0.025065,0.011435,-0.031806,60.184143,24.087601,-147.623749,,,
729605725.200963,-2.678773,-0.43243,50.943163,0.001801,-0.031998,0.986572,-0.024233,-0.001287,-0.039251,60.184143,24.087601,-147.623749,,,
729605725.204243,-2.68578,-0.436399,50.933199,-0.003479,-0.033401,0.993774,-0.024233,-0.001287,-0.039251,60.110626,24.213287,-147.857056,,,
729605725.207603,-2.68578,-0.436399,50.933199,-0.003479,-0.033401,0.993774,-0.024233,-0.001287,-0.039251,60.110626,24.213287,-147.857056,,,
729605725.210888,-2.691891,-0.444611,50.924426,-0.003479,-0.033401,0.993774,-0.025687,-0.023952,-0.030023,60.110626,24.213287,-147.857056,,,
729605725.21423,-2.698617,-0.454897,50.917825,-0.013123,-0.040482,0.990387,-0.025687,-0.023952,-0.030023,60.110626,24.213287,-147.857056,,,
729605725.217503,-2.698617,-0.454897,50.917825,-0.013123,-0.040482,0.990387,-0.025687,-0.023952,-0.030023,60.110626,24.213287,-147.857056,,,
729605725.221002,-2.704289,-0.466351,50.913696,-0.013123,-0.040482,0.990387,-0.021542,-0.039318,-0.015804,60.110626,24.213287,-147.857056,,,
729605725.224259,-2.710102,-0.478932,50.911862,-0.015457,-0.046051,0.995651,-0.021542,-0.039318,-0.015804,60.110626,24.213287,-147.857056,,,
729605725.227568,-2.710102,-0.478932,50.911862,-0.015457,-0.046051,0.995651,-0.021542,-0.039318,-0.015804,60.110626,24.213287,-147.857056,,,
729605725.230908,-2.714928,-0.49024,50.911776,-0.015457,-0.046051,0.995651,-0.015061,-0.041616,0.002918,60.110626,24.213287,-147.857056,,,
729605725.234307,-2.719772,-0.502736,50.91259,-0.006012,-0.046188,1.001862,-0.015061,-0.041616,0.002918,60.110626,24.213287,-147.857056,,,
729605725.237597,-2.719772,-0.502736,50.91259,-0.006012,-0.046188,1.001862,-0.015061,-0.041616,0.002918,60.110626,24.213287,-147.857056,,,
729605725.240898,-2.723994,-0.512282,50.914259,-0.006012,-0.046188,1.001862,-0.015425,-0.040289,0.005267,60.110626,24.213287,-147.857056,,,
729605725.244223,-2.729496,-0.525152,50.916,0.003815,-0.040939,0.997269,-0.015425,-0.040289,0.005267,60.110626,24.213287,-147.857056,,,
729605725.247572,-2.729496,-0.525152,50.916,0.003815,-0.040939,0.997269,-0.015425,-0.040289,0.005267,60.124832,24.042938,-147.956375,,,
729605725.251002,-2.734986,-0.533621,50.91847,0.003815,-0.040939,0.997269,-0.022528,-0.034542,0.005657,60.124832,24.042938,-147.956375,,,
729605725.254292,-2.743447,-0.543586,50.920697,0.008698,-0.035629,0.995132,-0.022528,-0.034542,0.005657,60.124832,24.042938,-147.956375,,,
729605725.257555,-2.743447,-0.543586,50.920697,0.008698,-0.035629,0.995132,-0.022528,-0.034542,0.005657,60.124832,24.042938,-147.956375,,,
729605725.260914,-2.752252,-0.550248,50.921676,0.008698,-0.035629,0.995132,-0.037729,-0.024214,3e-06,60.124832,24.042938,-147.956375,,,
729605725.264244,-2.764338,-0.557934,50.92138,0.013809,-0.033218,0.993042,-0.037729,-0.024214,3e-06,60.124832,24.042938,-147.956375,,,
729605725.267574,-2.764338,-0.557934,50.92138,0.013809,-0.033218,0.993042,-0.037729,-0.024214,3e-06,60.124832,24.042938,-147.956375,,,
729605725.270941,-2.774947,-0.563561,50.92033,0.013809,-0.033218,0.993042,-0.044981,-0.020867,-0.006584,60.124832,24.042938,-147.956375,,,
729605725.274278,-2.789166,-0.570021,50.918656,0.016281,-0.035965,0.992691,-0.044981,-0.020867,-0.006584,60.124832,24.042938,-147.956375,,,
729605725.277629,-2.789166,-0.570021,50.918656,0.016281,-0.035965,0.992691,-0.044981,-0.020867,-0.006584,60.124832,24.042938,-147.956375,,,
729605725.280899,-2.800199,-0.57472,50.916832,0.016281,-0.035965,0.992691,-0.050653,-0.021308,-0.007058,60.124832,24.042938,-147.956375,,,
729605725.284233,-2.813613,-0.582342,50.915482,0.012024,-0.043365,0.996109,-0.050653,-0.021308,-0.007058,60.124832,24.042938,-147.956375,,,
729605725.287625,-2.813613,-0.582342,50.915482,0.012024,-0.043365,0.996109,-0.050653,-0.021308,-0.007058,59.88942,24.180664,-147.754639,,,
729605725.290884,-2.823247,-0.586462,50.915038,0.012024,-0.043365,0.996109,-0.042393,-0.025163,-0.005622,59.88942,24.180664,-147.754639,,,
729605725.29426,-2.83448,-0.594157,50.914632,0.011765,-0.048416,1.002396,-0.042393,-0.025163,-0.005622,59.88942,24.180664,-147.754639,,,
729605725.297581,-2.83448,-0.594157,50.914632,0.011765,-0.048416,1.002396,-0.042393,-0.025163,-0.005622,59.88942,24.180664,-147.754639,,,
729605725.300947,-2.843103,-0.595034,50.914803,0.011765,-0.048416,1.002396,-0.034092,-0.020163,-0.002927,59.88942,24.180664,-147.754639,,,
729605725.304302,-2.851216,-0.600889,50.914759,0.012207,-0.050095,1.007904,-0.034092,-0.020163,-0.002927,59.88942,24.180664,-147.754639,,,
729605725.30759,-2.851216,-0.600889,50.914759,0.012207,-0.050095,1.007904,-0.034092,-0.020163,-0.002927,59.88942,24.180664,-147.754639,,,
729605725.310888,-2.857353,-0.600369,50.914803,0.012207,-0.050095,1.007904,-0.022017,-0.010819,-0.002327,59.88942,24.180664,-147.754639,,,
729605725.314258,-2.863721,-0.604122,50.914271,0.01532,-0.050964,1.009048,-0.022017,-0.010819,-0.002327,59.88942,24.180664,-147.754639,,,
729605725.317571,-2.863721,-0.604122,50.914271,0.01532,-0.050964,1.009048,-0.022017,-0.010819,-0.002327,59.88942,24.180664,-147.754639,,,
729605725.320934,-2.86936,-0.603523,50.913779,0.01532,-0.050964,1.009048,-0.022601,-0.003536,-0.004224,59.88942,24.180664,-147.754639,,,
729605725.324223,-2.875758,-0.603495,50.912297,0.016937,-0.049591,1.003983,-0.022601,-0.003536,-0.004224,59.88942,24.180664,-147.754639,,,
729605725.327557,-2.875758,-0.603495,50.912297,0.016937,-0.049591,1.003983,-0.022601,-0.003536,-0.004224,60.030594,24.165359,-147.459503,,,
729605725.330889,-2.879379,-0.601185,50.909892,0.016937,-0.049591,1.003983,-0.019372,0.009909,-0.007545,60.030594,24.165359,-147.459503,,,
729605725.334259,-2.88506,-0.599529,50.907563,0.013229,-0.048676,1.004425,-0.019372,0.009909,-0.007545,60.030594,24.165359,-147.459503,,,
729605725.337596,-2.88506,-0.599529,50.907563,0.013229,-0.048676,1.004425,-0.019372,0.009909,-0.007545,60.030594,24.165359,-147.459503,,,
729605725.340901,-2.886467,-0.598393,50.90583,0.013229,-0.048676,1.004425,-0.014785,0.00632,-0.006849,60.030594,24.165359,-147.459503,,,
729605725.344266,-2.889625,-0.597252,50.905719,0.00206,-0.055313,1.002609,-0.014785,0.00632,-0.006849,60.030594,24.165359,-147.459503,,,
729605725.34758,-2.889625,-0.597252,50.905719,0.00206,-0.055313,1.002609,-0.014785,0.00632,-0.006849,60.030594,24.165359,-147.459503,,,
729605725.35095,-2.888806,-0.596837,50.907421,0.00206,-0.055313,1.002609,-0.009998,0.007456,0.006768,60.030594,24.165359,-147.459503,,,
729605725.354326,-2.89192,-0.595383,50.911116,-0.003204,-0.059799,0.999786,-0.009998,0.007456,0.006768,60.030594,24.165359,-147.459503,,,
729605725.357562,-2.89192,-0.595383,50.911116,-0.003204,-0.059799,0.999786,-0.009998,0.007456,0.006768,60.030594,24.165359,-147.459503,,,
729605725.360895,-2.893474,-0.59565,50.916274,-0.003204,-0.059799,0.999786,-0.012683,0.002814,0.019004,60.030594,24.165359,-147.459503,,,
729605725.364265,-2.898389,-0.596132,50.922083,-0.001099,-0.056335,0.993073,-0.012683,0.002814,0.019004,60.030594,24.165359,-147.459503,,,
729605725.367551,-2.898389,-0.596132,50.922083,-0.001099,-0.056335,0.993073,-0.012683,0.002814,0.019004,60.198257,24.360886,-147.747208,,,
729605725.370931,-2.903273,-0.597665,50.927946,-0.001099,-0.056335,0.993073,-0.01753,-0.003983,0.018761,60.198257,24.360886,-147.747208,,,
729605725.374212,-2.909279,-0.600937,50.933025,-0.001099,-0.056335,0.993073,-0.01753,-0.003983,0.018761,60.198257,24.360886,-147.747208,,,
729605725.37753,-2.909279,-0.600937,50.933025,0.002914,-0.053513,0.993164,-0.01753,-0.003983,0.018761,60.198257,24.360886,-147.747208,,,
729605725.380831,-2.914684,-0.606672,50.936804,0.002914,-0.053513,0.993164,-0.018313,-0.017188,0.013073,60.198257,24.360886,-147.747208,,,
729605725.384184,-2.914684,-0.606672,50.936804,0.006134,-0.051773,0.995438,-0.018313,-0.017188,0.013073,60.198257,24.360886,-147.747208,,,
729605725.387526,-2.920046,-0.613465,50.939311,0.006134,-0.051773,0.995438,-0.018313,-0.017188,0.013073,60.198257,24.360886,-147.747208,,,
729605725.390865,-2.924723,-0.621968,50.940681,0.006134,-0.051773,0.995438,-0.017018,-0.025176,0.002183,60.198257,24.360886,-147.747208,,,
729605725.393921,-2.924723,-0.621968,50.940681,0.006134,-0.051773,0.995438,-0.017018,-0.025176,0.002183,60.198257,24.360886,-147.747208,,,
729605725.397567,-2.929081,-0.631092,50.940802,0.008102,-0.050903,1.00061,-0.017018,-0.025176,0.002183,60.198257,24.360886,-147.747208,,,
729605725.400848,-2.933072,-0.642474,50.939875,0.008102,-0.050903,1.00061,-0.014483,-0.033225,-0.005867,60.198257,24.360886,-147.747208,,,
729605725.404284,-2.933072,-0.642474,50.939282,0.007462,-0.054245,0.998077,-0.014483,-0.033225,-0.005867,60.198257,24.360886,-147.747208,,,
729605725.407537,-2.936781,-0.653661,50.939282,0.007462,-0.054245,0.998077,-0.014483,-0.033225,-0.005867,60.198257,24.360886,-147.747208,,,
729605725.41088,-2.939227,-0.665924,50.939211,0.007462,-0.054245,0.998077,-0.008944,-0.034067,-0.00166,59.972885,24.386795,-147.5336,,,
729605725.414216,-2.939227,-0.665924,50.939211,0.007462,-0.054245,0.998077,-0.008944,-0.034067,-0.00166,59.972885,24.386795,-147.5336,,,
729605725.417564,-2.942093,-0.675724,50.939654,0.004639,-0.059128,1.000702,-0.008944,-0.034067,-0.00166,59.972885,24.386795,-147.5336,,,
729605725.420943,-2.944989,-0.6829,50.940874,0.004639,-0.059128,1.000702,-0.009164,-0.024543,0.00201,59.972885,24.386795,-147.5336,,,
729605725.424316,-2.944989,-0.6829,50.942334,0.004639,-0.059128,1.000702,-0.009164,-0.024543,0.00201,59.972885,24.386795,-147.5336,,,
729605725.427549,-2.948405,-0.689015,50.942334,0.006668,-0.056961,0.99855,-0.009164,-0.024543,0.00201,59.972885,24.386795,-147.5336,,,
729605725.430903,-2.9529,-0.690887,50.944195,0.006668,-0.056961,0.99855,-0.00888,-0.011751,0.005509,59.972885,24.386795,-147.5336,,,
729605725.434289,-2.9529,-0.690887,50.944195,0.006668,-0.056961,0.99855,-0.00888,-0.011751,0.005509,59.972885,24.386795,-147.5336,,,
729605725.43759,-2.955354,-0.693325,50.945947,0.009644,-0.051956,0.99588,-0.00888,-0.011751,0.005509,59.972885,24.386795,-147.5336,,,
729605725.440895,-2.958044,-0.69023,50.947373,0.009644,-0.051956,0.99588,0.001452,0.002482,0.004459,59.972885,24.386795,-147.5336,,,
729605725.444247,-2.958044,-0.69023,50.947373,0.009644,-0.051956,0.99588,0.001452,0.002482,0.004459,59.972885,24.386795,-147.5336,,,
729605725.447632,-2.956943,-0.68967,50.94844,0.0121,-0.053268,1.004791,0.001452,0.002482,0.004459,59.972885,24.386795,-147.5336,,,
729605725.450897,-2.955586,-0.687049,50.949799,0.0121,-0.053268,1.004791,0.008712,0.000978,0.001647,59.839996,24.397141,-147.926971,,,
729605725.454304,-2.955586,-0.687049,50.949799,0.0121,-0.053268,1.004791,0.008712,0.000978,0.001647,59.839996,24.397141,-147.926971,,,
729605725.457574,-2.953195,-0.688211,50.950717,0.008499,-0.053818,0.99736,0.008712,0.000978,0.001647,59.839996,24.397141,-147.926971,,,
729605725.460944,-2.949757,-0.688419,50.951882,0.008499,-0.053818,0.99736,0.016129,-0.004959,0.005869,59.839996,24.397141,-147.926971,,,
729605725.464251,-2.949757,-0.688419,50.951882,0.008499,-0.053818,0.99736,0.016129,-0.004959,0.005869,59.839996,24.397141,-147.926971,,,
729605725.467563,-2.943806,-0.690341,50.953975,0.004196,-0.058243,0.997238,0.016129,-0.004959,0.005869,59.839996,24.397141,-147.926971,,,
729605725.470973,-2.935775,-0.691037,50.957111,0.004196,-0.058243,0.997238,0.031534,-0.002957,0.010005,59.839996,24.397141,-147.926971,,,
729605725.47431,-2.935775,-0.691037,50.957111,0.004196,-0.058243,0.997238,0.031534,-0.002957,0.010005,59.839996,24.397141,-147.926971,,,
729605725.477559,-2.926105,-0.693166,50.961289,0.003036,-0.058212,1.004944,0.031534,-0.002957,0.010005,59.839996,24.397141,-147.926971,,,
729605725.480902,-2.915829,-0.694865,50.966264,0.003036,-0.058212,1.004944,0.038184,-0.010069,0.016032,59.839996,24.397141,-147.926971,,,
729605725.484228,-2.915829,-0.694865,50.966264,0.003036,-0.058212,1.004944,0.038184,-0.010069,0.016032,59.839996,24.397141,-147.926971,,,
729605725.487595,-2.905993,-0.697347,50.971629,0.008972,-0.055038,0.998505,0.038184,-0.010069,0.016032,59.839996,24.397141,-147.926971,,,
729605725.490889,-2.898679,-0.698379,50.976982,0.008972,-0.055038,0.998505,0.028729,-0.003864,0.016759,59.893112,24.278671,-147.667801,,,
729605725.494231,-2.898679,-0.698379,50.976982,0.008972,-0.055038,0.998505,0.028729,-0.003864,0.016759,59.893112,24.278671,-147.667801,,,
729605725.497635,-2.892408,-0.700812,50.981393,0.015488,-0.047943,0.991776,0.028729,-0.003864,0.016759,59.893112,24.278671,-147.667801,,,
729605725.500913,-2.89158,-0.702081,50.984872,0.015488,-0.047943,0.991776,0.008245,-0.006441,0.008646,59.893112,24.278671,-147.667801,,,
729605725.504257,-2.89158,-0.702081,50.984872,0.015488,-0.047943,0.991776,0.008245,-0.006441,0.008646,59.893112,24.278671,-147.667801,,,
729605725.507562,-2.892496,-0.705435,50.987394,0.016937,-0.046127,0.983414,0.008245,-0.006441,0.008646,59.893112,24.278671,-147.667801,,,
729605725.510885,-2.896512,-0.708339,50.989282,0.016937,-0.046127,0.983414,-0.012434,-0.010327,0.006471,59.893112,24.278671,-147.667801,,,
729605725.514252,-2.896512,-0.708339,50.989282,0.016937,-0.046127,0.983414,-0.012434,-0.010327,0.006471,59.893112,24.278671,-147.667801,,,
729605725.51757,-2.901191,-0.713684,50.990444,0.016937,-0.048248,0.981628,-0.012434,-0.010327,0.006471,59.893112,24.278671,-147.667801,,,
729605725.520926,-2.906657,-0.72068,50.990794,0.016937,-0.048248,0.981628,-0.016201,-0.023916,-0.001385,59.893112,24.278671,-147.667801,,,
729605725.524296,-2.906657,-0.72068,50.990794,0.016937,-0.048248,0.981628,-0.016201,-0.023916,-0.001385,59.893112,24.278671,-147.667801,,,
729605725.52756,-2.90954,-0.730049,50.989969,0.020599,-0.049667,0.988449,-0.016201,-0.023916,-0.001385,59.893112,24.278671,-147.667801,,,
729605725.530892,-2.908511,-0.741024,50.98783,0.020599,-0.049667,0.988449,0.007598,-0.038503,-0.011465,60.0159,24.363632,-147.813477,,,
729605725.53423,-2.908511,-0.741024,50.98783,0.020599,-0.049667,0.988449,0.007598,-0.038503,-0.011465,60.0159,24.363632,-147.813477,,,
729605725.537597,-2.900656,-0.754598,50.985039,0.020462,-0.05278,1.002548,0.007598,-0.038503,-0.011465,60.0159,24.363632,-147.813477,,,
729605725.540886,-2.886702,-0.768162,50.982581,0.020462,-0.05278,1.002548,0.056866,-0.050299,-0.008616,60.0159,24.363632,-147.813477,,,
729605725.544232,-2.886702,-0.768162,50.982581,0.020462,-0.05278,1.002548,0.056866,-0.050299,-0.008616,60.0159,24.363632,-147.813477,,,
729605725.547626,-2.865787,-0.783796,50.98136,0.010544,-0.060211,1.01738,0.056866,-0.050299,-0.008616,60.0159,24.363632,-147.813477,,,
729605725.550886,-2.842004,-0.796342,50.982067,0.010544,-0.060211,1.01738,0.091987,-0.046412,-0.001383,60.0159,24.363632,-147.813477,,,
729605725.554257,-2.842004,-0.796342,50.982067,0.010544,-0.060211,1.01738,0.091987,-0.046412,-0.001383,60.0159,24.363632,-147.813477,,,
729605725.557571,-2.815458,-0.812982,50.98443,0.007675,-0.063965,1.013855,0.091987,-0.046412,-0.001383,60.0159,24.363632,-147.813477,,,
729605725.56089,-2.792645,-0.829584,50.987628,0.007675,-0.063965,1.013855,0.084325,-0.067848,0.008288,60.0159,24.363632,-147.813477,,,
729605725.564235,-2.792645,-0.829584,50.987628,0.007675,-0.063965,1.013855,0.084325,-0.067848,0.008288,60.0159,24.363632,-147.813477,,,
729605725.567569,-2.769857,-0.844325,50.989376,0.017868,-0.058624,0.985001,0.084325,-0.067848,0.008288,60.0159,24.363632,-147.813477,,,
729605725.570933,-2.750369,-0.851191,50.988418,0.017868,-0.058624,0.985001,0.067634,-0.014957,-0.009549,60.0159,24.363632,-147.813477,,,
729605725.574295,-2.750369,-0.851191,50.988418,0.017868,-0.058624,0.985001,0.067634,-0.014957,-0.009549,59.823837,24.15741,-147.733551,,,
729605725.577566,-2.734247,-0.856313,50.984784,0.038193,-0.041901,1.009201,0.067634,-0.014957,-0.009549,59.823837,24.15741,-147.733551,,,
729605725.580891,-2.723507,-0.864552,50.979935,0.038193,-0.041901,1.009201,0.033197,-0.026761,-0.019941,59.823837,24.15741,-147.733551,,,
729605725.584232,-2.723507,-0.864552,50.979935,0.038193,-0.041901,1.009201,0.033197,-0.026761,-0.019941,59.823837,24.15741,-147.733551,,,
729605725.587597,-2.718455,-0.874734,50.975078,0.030411,-0.033096,0.968857,0.033197,-0.026761,-0.019941,59.823837,24.15741,-147.733551,,,
729605725.590907,-2.718072,-0.883909,50.970432,0.030411,-0.033096,0.968857,-0.00123,-0.022984,-0.018252,59.823837,24.15741,-147.733551,,,
729605725.59423,-2.718072,-0.883909,50.970432,0.030411,-0.033096,0.968857,-0.00123,-0.022984,-0.018252,59.823837,24.15741,-147.733551,,,
729605725.597618,-2.719815,-0.890102,50.965518,0.019485,-0.035706,0.979385,-0.00123,-0.022984,-0.018252,59.823837,24.15741,-147.733551,,,
729605725.600879,-2.723148,-0.897114,50.959917,0.019485,-0.035706,0.979385,-0.009413,-0.024708,-0.020724,59.823837,24.15741,-147.733551,,,
729605725.60426,-2.723148,-0.897114,50.959917,0.019485,-0.035706,0.979385,-0.009413,-0.024708,-0.020724,59.823837,24.15741,-147.733551,,,
729605725.607569,-2.726448,-0.907203,50.953614,0.03035,-0.037216,0.98732,-0.009413,-0.024708,-0.020724,59.823837,24.15741,-147.733551,,,
729605725.610911,-2.730452,-0.92215,50.946663,0.03035,-0.037216,0.98732,-0.013999,-0.045543,-0.025532,59.823837,24.15741,-147.733551,,,
729605725.614214,-2.730452,-0.92215,50.946663,0.03035,-0.037216,0.98732,-0.013999,-0.045543,-0.025532,59.633133,24.401001,-147.714096,,,
729605725.61756,-2.73353,-0.935134,50.939689,0.026855,-0.040894,0.981888,-0.013999,-0.045543,-0.025532,59.633133,24.401001,-147.714096,,,
729605725.620947,-2.73706,-0.945634,50.932095,0.026855,-0.040894,0.981888,-0.006749,-0.029428,-0.028,59.633133,24.401001,-147.714096,,,
729605725.624225,-2.73706,-0.945634,50.932095,0.026855,-0.040894,0.981888,-0.006749,-0.029428,-0.028,59.633133,24.401001,-147.714096,,,
729605725.627559,-2.738479,-0.954058,50.923741,0.023544,-0.038513,0.99707,-0.006749,-0.029428,-0.028,59.633133,24.401001,-147.714096,,,
729605725.630885,-2.742078,-0.960064,50.915342,0.023544,-0.038513,0.99707,-0.003451,-0.02442,-0.032712,59.633133,24.401001,-147.714096,,,
729605725.634323,-2.742078,-0.960064,50.915342,0.023544,-0.038513,0.99707,-0.003451,-0.02442,-0.032712,59.633133,24.401001,-147.714096,,,
729605725.637577,-2.74238,-0.967847,50.90714,0.024582,-0.038788,0.98819,-0.003451,-0.02442,-0.032712,59.633133,24.401001,-147.714096,,,
729605725.640883,-2.74485,-0.973149,50.900086,0.024582,-0.038788,0.98819,0.006221,-0.020733,-0.028792,59.633133,24.401001,-147.714096,,,
729605725.644243,-2.74485,-0.973149,50.900086,0.024582,-0.038788,0.98819,0.006221,-0.020733,-0.028792,59.633133,24.401001,-147.714096,,,
729605725.647615,-2.742378,-0.978076,50.894012,0.019455,-0.046677,0.990372,0.006221,-0.020733,-0.028792,59.633133,24.401001,-147.714096,,,
729605725.650874,-2.73964,-0.982155,50.888569,0.019455,-0.046677,0.990372,0.01425,0.000324,-0.020229,59.633133,24.401001,-147.714096,,,
729605725.654259,-2.73964,-0.982155,50.888569,0.019455,-0.046677,0.990372,0.01425,0.000324,-0.020229,59.651382,24.134033,-147.494278,,,
729605725.657637,-2.735475,-0.981347,50.883544,0.016205,-0.049561,0.996033,0.01425,0.000324,-0.020229,59.651382,24.134033,-147.494278,,,
729605725.660898,-2.727817,-0.98365,50.87876,0.016205,-0.049561,0.996033,0.023229,0.014791,-0.01599,59.651382,24.134033,-147.494278,,,
729605725.664248,-2.727817,-0.98365,50.87876,0.016205,-0.049561,0.996033,0.023229,0.014791,-0.01599,59.651382,24.134033,-147.494278,,,
729605725.667621,-2.721532,-0.979129,50.87558,0.009491,-0.050537,0.997223,0.023229,0.014791,-0.01599,59.651382,24.134033,-147.494278,,,
729605725.670949,-2.713359,-0.974928,50.873412,0.009491,-0.050537,0.997223,0.020132,0.025258,-0.007264,59.651382,24.134033,-147.494278,,,
729605725.674311,-2.713359,-0.974928,50.873412,0.009491,-0.050537,0.997223,0.020132,0.025258,-0.007264,59.651382,24.134033,-147.494278,,,
729605725.677433,-2.709564,-0.969443,50.872823,-0.001785,-0.050873,0.99176,0.020132,0.025258,-0.007264,59.651382,24.134033,-147.494278,,,
729605725.680916,-2.705167,-0.967025,50.874078,-0.001785,-0.050873,0.99176,0.009188,0.014954,0.003277,59.651382,24.134033,-147.494278,,,
729605725.684245,-2.705167,-0.967025,50.874078,-0.001785,-0.050873,0.99176,0.009188,0.014954,0.003277,59.651382,24.134033,-147.494278,,,
729605725.68765,-2.704633,-0.96442,50.875376,-0.001968,-0.047073,0.980881,0.009188,0.014954,0.003277,59.651382,24.134033,-147.494278,,,
729605725.690884,-2.705452,-0.966877,50.875564,-0.001968,-0.047073,0.980881,-0.009519,0.003563,-2.4e-05,59.651382,24.134033,-147.494278,,,
729605725.694228,-2.705452,-0.966877,50.875564,-0.001968,-0.047073,0.980881,-0.009519,0.003563,-2.4e-05,59.866302,23.98671,-147.784973,,,
729605725.697632,-2.710828,-0.96911,50.87471,0.001831,-0.039566,0.977081,-0.009519,0.003563,-2.4e-05,59.866302,23.98671,-147.784973,,,
729605725.700884,-2.717277,-0.976677,50.872243,0.001831,-0.039566,0.977081,-0.030333,-0.018474,-0.010334,59.866302,23.98671,-147.784973,,,
729605725.704268,-2.717277,-0.976677,50.872243,0.001831,-0.039566,0.977081,-0.030333,-0.018474,-0.010334,59.866302,23.98671,-147.784973,,,
729605725.707589,-2.727449,-0.984965,50.868623,0.003769,-0.037247,0.975952,-0.030333,-0.018474,-0.010334,59.866302,23.98671,-147.784973,,,
729605725.710898,-2.737011,-0.996099,50.863854,0.003769,-0.037247,0.975952,-0.039893,-0.030746,-0.017718,59.866302,23.98671,-147.784973,,,
729605725.714313,-2.737011,-0.996099,50.863854,0.003769,-0.037247,0.975952,-0.039893,-0.030746,-0.017718,59.866302,23.98671,-147.784973,,,
729605725.717569,-2.748031,-1.006634,50.85894,0.004349,-0.041779,0.988174,-0.039893,-0.030746,-0.017718,59.866302,23.98671,-147.784973,,,
729605725.720931,-2.756425,-1.019399,50.85464,0.004349,-0.041779,0.988174,-0.033012,-0.036324,-0.015668,59.866302,23.98671,-147.784973,,,
729605725.724286,-2.756425,-1.019399,50.85464,0.004349,-0.041779,0.988174,-0.033012,-0.036324,-0.015668,59.866302,23.98671,-147.784973,,,
729605725.727567,-2.763525,-1.031271,50.851885,0.000809,-0.047195,0.998566,-0.033012,-0.036324,-0.015668,59.866302,23.98671,-147.784973,,,
729605725.730886,-2.769156,-1.042528,50.851018,0.000809,-0.047195,0.998566,-0.017123,-0.036342,-0.001969,59.866302,23.98671,-147.784973,,,
729605725.734231,-2.769156,-1.042528,50.851018,0.000809,-0.047195,0.998566,-0.017123,-0.036342,-0.001969,59.866302,23.98671,-147.784973,,,
729605725.737592,-2.774285,-1.052885,50.85198,0.000549,-0.050812,0.999771,-0.017123,-0.036342,-0.001969,59.621414,24.141113,-147.445557,,,
729605725.740884,-2.778597,-1.060923,50.855156,0.000549,-0.050812,0.999771,-0.009431,-0.026775,0.009118,59.621414,24.141113,-147.445557,,,
729605725.744231,-2.778597,-1.060923,50.855156,0.000549,-0.050812,0.999771,-0.009431,-0.026775,0.009118,59.621414,24.141113,-147.445557,,,
729605725.747642,-2.781189,-1.066807,50.860159,0.006668,-0.05159,0.999405,-0.009431,-0.026775,0.009118,59.621414,24.141113,-147.445557,,,
729605725.750886,-2.783218,-1.065631,50.866891,0.006668,-0.05159,0.999405,0.000479,-0.003973,0.023965,59.621414,24.141113,-147.445557,,,
729605725.754267,-2.783218,-1.065631,50.866891,0.006668,-0.05159,0.999405,0.000479,-0.003973,0.023965,59.621414,24.141113,-147.445557,,,
729605725.757597,-2.784031,-1.064032,50.87517,0.013596,-0.052475,1.006027,0.000479,-0.003973,0.023965,59.621414,24.141113,-147.445557,,,
729605725.76089,-2.784887,-1.055718,50.884317,0.013596,-0.052475,1.006027,-0.001467,0.015708,0.02886,59.621414,24.141113,-147.445557,,,
729605725.764221,-2.784887,-1.055718,50.884317,0.013596,-0.052475,1.006027,-0.001467,0.015708,0.02886,59.621414,24.141113,-147.445557,,,
729605725.767573,-2.786027,-1.051899,50.893333,0.020279,-0.050385,0.997803,-0.001467,0.015708,0.02886,59.621414,24.141113,-147.445557,,,
729605725.770932,-2.787674,-1.044055,50.902484,0.020279,-0.050385,0.997803,-0.008093,0.01293,0.031986,59.621414,24.141113,-147.445557,,,
729605725.774287,-2.787674,-1.044055,50.902484,0.020279,-0.050385,0.997803,-0.008093,0.01293,0.031986,59.621414,24.141113,-147.445557,,,
729605725.777565,-2.79012,-1.040853,50.910749,0.022491,-0.048782,0.990723,-0.008093,0.01293,0.031986,59.584122,24.176422,-147.365952,,,
729605725.78089,-2.79058,-1.035442,50.918164,0.022491,-0.048782,0.990723,-0.00721,0.007762,0.023062,59.584122,24.176422,-147.365952,,,
729605725.784246,-2.79058,-1.035442,50.918164,0.022491,-0.048782,0.990723,-0.00721,0.007762,0.023062,59.584122,24.176422,-147.365952,,,
729605725.787597,-2.793886,-1.035801,50.923867,0.025803,-0.045288,0.994888,-0.00721,0.007762,0.023062,59.584122,24.176422,-147.365952,,,
729605725.790888,-2.796248,-1.035517,50.927367,0.025803,-0.045288,0.994888,-0.014729,-0.009039,0.008481,59.584122,24.176422,-147.365952,,,
729605725.794233,-2.796248,-1.035517,50.927367,0.025803,-0.045288,0.994888,-0.014729,-0.009039,0.008481,59.584122,24.176422,-147.365952,,,
729605725.797633,-2.801812,-1.039991,50.928698,0.030121,-0.043976,0.989059,-0.014729,-0.009039,0.008481,59.584122,24.176422,-147.365952,,,
729605725.800877,-2.807285,-1.041151,50.928406,0.030121,-0.043976,0.989059,-0.0207,-0.014204,-0.004637,59.584122,24.176422,-147.365952,,,
729605725.804259,-2.807285,-1.041151,50.928406,0.030121,-0.043976,0.989059,-0.0207,-0.014204,-0.004637,59.584122,24.176422,-147.365952,,,
729605725.80757,-2.813614,-1.045701,50.926567,0.033279,-0.043396,0.994888,-0.0207,-0.014204,-0.004637,59.584122,24.176422,-147.365952,,,
729605725.810885,-2.819954,-1.047037,50.924498,0.033279,-0.043396,0.994888,-0.021786,-0.017146,-0.009813,59.584122,24.176422,-147.365952,,,
729605725.814235,-2.819954,-1.047037,50.924498,0.033279,-0.043396,0.994888,-0.021786,-0.017146,-0.009813,59.584122,24.176422,-147.365952,,,
729605725.817552,-2.826427,-1.053258,50.921818,0.0336,-0.046249,0.997284,-0.021786,-0.017146,-0.009813,59.388641,24.25267,-147.603149,,,
729605725.82096,-2.834094,-1.056274,50.919798,0.0336,-0.046249,0.997284,-0.025847,-0.019602,-0.006403,59.388641,24.25267,-147.603149,,,
729605725.824238,-2.834094,-1.056274,50.919798,0.0336,-0.046249,0.997284,-0.025847,-0.019602,-0.006403,59.388641,24.25267,-147.603149,,,
729605725.827555,-2.841578,-1.062044,50.918377,0.029892,-0.050156,0.99472,-0.025847,-0.019602,-0.006403,59.388641,24.25267,-147.603149,,,
729605725.830888,-2.848086,-1.061919,50.917474,0.029892,-0.050156,0.99472,-0.018684,0.000774,-0.005275,59.388641,24.25267,-147.603149,,,
729605725.834283,-2.848086,-1.061919,50.917474,0.029892,-0.050156,0.99472,-0.018684,0.000774,-0.005275,59.388641,24.25267,-147.603149,,,
729605725.837591,-2.851838,-1.060951,50.917084,0.031967,-0.052261,1.011719,-0.018684,0.000774,-0.005275,59.388641,24.25267,-147.603149,,,
729605725.840884,-2.854714,-1.060082,50.917498,0.031967,-0.052261,1.011719,-0.006236,0.000561,0.002421,59.388641,24.25267,-147.603149,,,
729605725.844231,-2.854714,-1.060082,50.917498,0.031967,-0.052261,1.011719,-0.006236,0.000561,0.002421,59.388641,24.25267,-147.603149,,,
729605725.84764,-2.856486,-1.061608,50.919338,0.028061,-0.053757,0.999023,-0.006236,0.000561,0.002421,59.388641,24.25267,-147.603149,,,
729605725.850882,-2.857289,-1.064367,50.922357,0.028061,-0.053757,0.999023,-1.4e-05,-0.006373,0.008217,59.388641,24.25267,-147.603149,,,
729605725.854287,-2.857289,-1.064367,50.922357,0.028061,-0.053757,0.999023,-1.4e-05,-0.006373,0.008217,59.388641,24.25267,-147.603149,,,
729605725.857576,-2.856783,-1.065162,50.925966,0.018753,-0.056641,0.996735,-1.4e-05,-0.006373,0.008217,59.605942,24.402481,-147.732773,,,
729605725.860884,-2.853727,-1.066299,50.930123,0.018753,-0.056641,0.996735,0.01094,0.001089,0.013769,59.605942,24.402481,-147.732773,,,
729605725.864238,-2.853727,-1.066299,50.930123,0.018753,-0.056641,0.996735,0.01094,0.001089,0.013769,59.605942,24.402481,-147.732773,,,
729605725.867568,-2.849314,-1.067743,50.935071,0.019348,-0.057266,1.007431,0.01094,0.001089,0.013769,59.605942,24.402481,-147.732773,,,
729605725.870924,-2.841866,-1.072303,50.941621,0.019348,-0.057266,1.007431,0.026339,-0.006773,0.022363,59.605942,24.402481,-147.732773,,,
729605725.874281,-2.841866,-1.072303,50.941621,0.019348,-0.057266,1.007431,0.026339,-0.006773,0.022363,59.605942,24.402481,-147.732773,,,
729605725.877551,-2.832736,-1.074827,50.950724,0.012314,-0.060501,1.004745,0.026339,-0.006773,0.022363,59.605942,24.402481,-147.732773,,,
729605725.880889,-2.818944,-1.07961,50.962664,0.012314,-0.060501,1.004745,0.047238,-0.001174,0.043163,59.605942,24.402481,-147.732773,,,
729605725.884231,-2.818944,-1.07961,50.962664,0.012314,-0.060501,1.004745,0.047238,-0.001174,0.043163,59.605942,24.402481,-147.732773,,,
729605725.887588,-2.803169,-1.081853,50.977276,0.001816,-0.063034,1.021057,0.047238,-0.001174,0.043163,59.605942,24.402481,-147.732773,,,
729605725.890881,-2.784054,-1.091893,50.994172,0.001816,-0.063034,1.021057,0.069634,-0.030321,0.059013,59.605942,24.402481,-147.732773,,,
729605725.894234,-2.784054,-1.091893,50.994172,0.001816,-0.063034,1.021057,0.069634,-0.030321,0.059013,59.605942,24.402481,-147.732773,,,
729605725.897618,-2.764059,-1.104031,51.013024,0.005295,-0.060501,1.000504,0.069634,-0.030321,0.059013,59.605942,24.402481,-147.732773,,,
729605725.900882,-2.743024,-1.121442,51.032263,0.005295,-0.060501,1.000504,0.07616,-0.051669,0.065429,59.553894,24.171783,-147.712326,,,
729605725.904262,-2.743024,-1.121442,51.032263,0.005295,-0.060501,1.000504,0.07616,-0.051669,0.065429,59.553894,24.171783,-147.712326,,,
