Time (sec),Pitch (deg),Roll (deg),Yaw(deg),X-Acceleration (g),Y-Acceleration (g),Z-Acceleration (g),Pitch Rate (deg/sec),Roll Rate (deg/sec),Yaw Rate (deg/sec),Magnetic Field in X direction (uT),Magnetic Field in Y direction (uT),Magnetic Field in Z Direction (uT),Latitude (deg),Longitude (deg),Altitude (m)
729605409.327648,0.345721,-3.504217,-14.794979,0.075134,0.024155,1.07402,0.112491,-0.06431,-0.038584,65.677597,7.724518,-146.519165,,,
729605409.327872,0.345721,-3.504217,-14.794979,0.075134,0.024155,1.07402,0.112491,-0.06431,-0.038584,65.677597,7.724518,-146.519165,,,
729605409.331577,0.345721,-3.504217,-14.794979,0.075134,0.024155,1.07402,0.112491,-0.06431,-0.038584,65.677597,7.724518,-146.519165,,,
729605409.334931,0.379222,-3.491012,-14.803231,0.075134,0.024155,1.07402,0.110958,0.064867,-0.038683,65.677597,7.724518,-146.519165,,,
729605409.338241,0.409721,-3.463411,-14.81121,0.082947,0.02446,1.055008,0.110958,0.064867,-0.038683,65.677597,7.724518,-146.519165,,,
729605409.341571,0.409721,-3.463411,-14.81121,0.082947,0.02446,1.055008,0.110958,0.064867,-0.038683,65.677597,7.724518,-146.519165,,,
729605409.344871,0.438606,-3.426184,-14.817237,0.082947,0.02446,1.055008,0.093896,0.136553,-0.024295,65.677597,7.724518,-146.519165,,,
729605409.348179,0.464741,-3.385788,-14.824903,0.071045,0.013229,1.023254,0.093896,0.136553,-0.024295,65.677597,7.724518,-146.519165,,,
729605409.351248,0.464741,-3.385788,-14.824903,0.071045,0.013229,1.023254,0.093896,0.136553,-0.024295,65.677597,7.724518,-146.519165,,,
729605409.354928,0.488965,-3.345627,-14.829566,0.071045,0.013229,1.023254,0.080808,0.141687,0.008337,65.686142,7.583313,-146.551941,,,
729605409.358252,0.510733,-3.310815,-14.830506,0.054932,0.003967,1.00058,0.080808,0.141687,0.008337,65.686142,7.583313,-146.551941,,,
729605409.361547,0.510733,-3.310815,-14.830506,0.054932,0.003967,1.00058,0.080808,0.141687,0.008337,65.686142,7.583313,-146.551941,,,
729605409.364967,0.530718,-3.280784,-14.835009,0.054932,0.003967,1.00058,0.070016,0.09431,-0.021953,65.686142,7.583313,-146.551941,,,
729605409.368275,0.550064,-3.262036,-14.842393,0.049835,0.019547,0.986389,0.070016,0.09431,-0.021953,65.686142,7.583313,-146.551941,,,
729605409.371611,0.550064,-3.262036,-14.842393,0.049835,0.019547,0.986389,0.070016,0.09431,-0.021953,65.686142,7.583313,-146.551941,,,
729605409.375021,0.568298,-3.251823,-14.853778,0.049835,0.019547,0.986389,0.06423,0.021029,-0.045609,65.686142,7.583313,-146.551941,,,
729605409.378223,0.568298,-3.251823,-14.853778,0.049835,0.019547,0.986389,0.06423,0.021029,-0.045609,65.686142,7.583313,-146.551941,,,
729605409.381569,0.586882,-3.253261,-14.868688,0.046173,0.022293,0.978714,0.06423,0.021029,-0.045609,65.686142,7.583313,-146.551941,,,
729605409.384946,0.586882,-3.253261,-14.868688,0.046173,0.022293,0.978714,0.06423,0.021029,-0.045609,65.686142,7.583313,-146.551941,,,
729605409.388212,0.624715,-3.282031,-14.908868,0.0439,0.022552,0.982574,0.062419,-0.0423,-0.071831,65.686142,7.583313,-146.551941,,,
729605409.39163,0.624715,-3.282031,-14.908868,0.0439,0.022552,0.982574,0.062419,-0.0423,-0.071831,65.686142,7.583313,-146.551941,,,
729605409.39489,0.645069,-3.306505,-14.932958,0.0439,0.022552,0.982574,0.067257,-0.089709,-0.089623,65.767685,7.715942,-146.282883,,,
729605409.398213,0.667934,-3.335242,-14.957312,0.044922,0.018707,0.987762,0.067257,-0.089709,-0.089623,65.767685,7.715942,-146.282883,,,
729605409.401587,0.667934,-3.335242,-14.957312,0.044922,0.018707,0.987762,0.067257,-0.089709,-0.089623,65.767685,7.715942,-146.282883,,,
729605409.404894,0.693311,-3.364802,-14.980834,0.044922,0.018707,0.987762,0.086548,-0.100994,-0.087997,65.767685,7.715942,-146.282883,,,
729605409.408309,0.721908,-3.391369,-15.001706,0.045242,0.012909,1.003372,0.086548,-0.100994,-0.087997,65.767685,7.715942,-146.282883,,,
729605409.411564,0.721908,-3.391369,-15.001706,0.045242,0.012909,1.003372,0.086548,-0.100994,-0.087997,65.767685,7.715942,-146.282883,,,
729605409.414955,0.753256,-3.41303,-15.018981,0.045242,0.012909,1.003372,0.104557,-0.065706,-0.065682,65.767685,7.715942,-146.282883,,,
729605409.418256,0.785543,-3.428353,-15.032431,0.046677,0.004349,1.011215,0.104557,-0.065706,-0.065682,65.767685,7.715942,-146.282883,,,
729605409.421552,0.785543,-3.428353,-15.032431,0.046677,0.004349,1.011215,0.104557,-0.065706,-0.065682,65.767685,7.715942,-146.282883,,,
729605409.42491,0.818586,-3.437323,-15.041304,0.046677,0.004349,1.011215,0.112228,-0.019236,-0.033962,65.767685,7.715942,-146.282883,,,
729605409.428203,0.851697,-3.438651,-15.04593,0.047623,0.003311,1.008713,0.112228,-0.019236,-0.033962,65.767685,7.715942,-146.282883,,,
729605409.431603,0.851697,-3.438651,-15.04593,0.047623,0.003311,1.008713,0.112228,-0.019236,-0.033962,65.767685,7.715942,-146.282883,,,
729605409.434941,0.884625,-3.433725,-15.047667,0.047623,0.003311,1.008713,0.118233,0.030402,-0.013276,65.767685,7.715942,-146.282883,,,
729605409.438203,0.917075,-3.423058,-15.048075,0.05069,0.009613,1.004028,0.118233,0.030402,-0.013276,65.902313,7.250275,-145.771393,,,
729605409.441593,0.917075,-3.423058,-15.048075,0.05069,0.009613,1.004028,0.118233,0.030402,-0.013276,65.902313,7.250275,-145.771393,,,
729605409.444895,0.947846,-3.408342,-15.048394,0.05069,0.009613,1.004028,0.107105,0.057132,-0.009613,65.902313,7.250275,-145.771393,,,
729605409.448202,0.976035,-3.391893,-15.049942,0.051727,0.020782,0.985458,0.107105,0.057132,-0.009613,65.902313,7.250275,-145.771393,,,
729605409.451632,0.976035,-3.391893,-15.049942,0.051727,0.020782,0.985458,0.107105,0.057132,-0.009613,65.902313,7.250275,-145.771393,,,
729605409.454906,1.000707,-3.373797,-15.053223,0.051727,0.020782,0.985458,0.083845,0.064001,-0.019827,65.902313,7.250275,-145.771393,,,
729605409.458324,1.021342,-3.356746,-15.058372,0.046692,0.027298,0.969925,0.083845,0.064001,-0.019827,65.902313,7.250275,-145.771393,,,
729605409.461568,1.021342,-3.356746,-15.058372,0.046692,0.027298,0.969925,0.083845,0.064001,-0.019827,65.902313,7.250275,-145.771393,,,
729605409.464956,1.038468,-3.341112,-15.064763,0.046692,0.027298,0.969925,0.055332,0.049986,-0.027393,65.902313,7.250275,-145.771393,,,
729605409.468268,1.051812,-3.329722,-15.071429,0.041275,0.025314,0.955353,0.055332,0.049986,-0.027393,65.902313,7.250275,-145.771393,,,
729605409.471559,1.051812,-3.329722,-15.071429,0.041275,0.025314,0.955353,0.055332,0.049986,-0.027393,65.902313,7.250275,-145.771393,,,
729605409.474915,1.061481,-3.321092,-15.078646,0.041275,0.025314,0.955353,0.028738,0.029724,-0.030406,65.902313,7.250275,-145.771393,,,
729605409.478203,1.067301,-3.316724,-15.086027,0.037064,0.025162,0.94928,0.028738,0.029724,-0.030406,65.950073,7.156067,-145.919678,,,
729605409.481558,1.067301,-3.316724,-15.086027,0.037064,0.025162,0.94928,0.028738,0.029724,-0.030406,65.950073,7.156067,-145.919678,,,
729605409.484947,1.070496,-3.315255,-15.093547,0.037064,0.025162,0.94928,0.008181,-6.8e-05,-0.028513,65.950073,7.156067,-145.919678,,,
729605409.488201,1.071228,-3.318382,-15.101254,0.03891,0.023132,0.951645,0.008181,-6.8e-05,-0.028513,65.950073,7.156067,-145.919678,,,
729605409.491586,1.071228,-3.318382,-15.101254,0.03891,0.023132,0.951645,0.008181,-6.8e-05,-0.028513,65.950073,7.156067,-145.919678,,,
729605409.494884,1.068389,-3.323547,-15.108868,0.03891,0.023132,0.951645,-0.008056,-0.024661,-0.026123,65.950073,7.156067,-145.919678,,,
729605409.498203,1.064709,-3.332811,-15.116279,0.038025,0.02066,0.951096,-0.008056,-0.024661,-0.026123,65.950073,7.156067,-145.919678,,,
729605409.501606,1.064709,-3.332811,-15.116279,0.038025,0.02066,0.951096,-0.008056,-0.024661,-0.026123,65.950073,7.156067,-145.919678,,,
729605409.504972,1.058145,-3.342764,-15.123687,0.038025,0.02066,0.951096,-0.018328,-0.036324,-0.024948,65.950073,7.156067,-145.919678,,,
729605409.508296,1.052294,-3.354551,-15.130944,0.043442,0.021042,0.959579,-0.018328,-0.036324,-0.024948,65.950073,7.156067,-145.919678,,,
729605409.511551,1.052294,-3.354551,-15.130944,0.043442,0.021042,0.959579,-0.018328,-0.036324,-0.024948,65.950073,7.156067,-145.919678,,,
729605409.514879,1.046001,-3.365905,-15.137712,0.043442,0.021042,0.959579,-0.015857,-0.038097,-0.026495,65.950073,7.156067,-145.919678,,,
729605409.518242,1.041731,-3.377261,-15.143471,0.049545,0.017395,0.97316,-0.015857,-0.038097,-0.026495,65.904327,7.261795,-146.086334,,,
729605409.521579,1.041731,-3.377261,-15.143471,0.049545,0.017395,0.97316,-0.015857,-0.038097,-0.026495,65.904327,7.261795,-146.086334,,,
729605409.524938,1.037877,-3.38646,-15.147376,0.049545,0.017395,0.97316,-0.011262,-0.028426,-0.013614,65.904327,7.261795,-146.086334,,,
729605409.528296,1.03523,-3.392935,-15.148688,0.049423,0.011246,0.981491,-0.011262,-0.028426,-0.013614,65.904327,7.261795,-146.086334,,,
729605409.531567,1.03523,-3.392935,-15.148688,0.049423,0.011246,0.981491,-0.011262,-0.028426,-0.013614,65.904327,7.261795,-146.086334,,,
729605409.534953,1.034256,-3.394306,-15.147143,0.049423,0.011246,0.981491,-0.002252,0.000509,0.006279,65.904327,7.261795,-146.086334,,,
729605409.5382,1.033002,-3.39117,-15.142954,0.051025,0.005341,0.989502,-0.002252,0.000509,0.006279,65.904327,7.261795,-146.086334,,,
729605409.541619,1.033002,-3.39117,-15.142954,0.051025,0.005341,0.989502,-0.002252,0.000509,0.006279,65.904327,7.261795,-146.086334,,,
729605409.54478,1.03147,-3.382665,-15.136783,0.051025,0.005341,0.989502,-0.008931,0.032359,0.019458,65.904327,7.261795,-146.086334,,,
729605409.548221,1.026762,-3.370937,-15.12886,0.055237,0.010132,0.981735,-0.008931,0.032359,0.019458,65.904327,7.261795,-146.086334,,,
729605409.551626,1.026762,-3.370937,-15.12886,0.055237,0.010132,0.981735,-0.008931,0.032359,0.019458,65.904327,7.261795,-146.086334,,,
729605409.554957,1.019638,-3.353835,-15.120123,0.055237,0.010132,0.981735,-0.026689,0.06465,0.0303,65.904327,7.261795,-146.086334,,,
729605409.55824,1.009581,-3.334831,-15.111998,0.055115,0.016876,0.977753,-0.026689,0.06465,0.0303,65.807755,7.408417,-146.360992,,,
729605409.561566,1.009581,-3.334831,-15.111998,0.055115,0.016876,0.977753,-0.026689,0.06465,0.0303,65.807755,7.408417,-146.360992,,,
729605409.564885,0.997905,-3.313345,-15.1053,0.055115,0.016876,0.977753,-0.044313,0.075625,0.024116,65.807755,7.408417,-146.360992,,,
729605409.568268,0.984025,-3.294784,-15.100186,0.057983,0.025345,0.976257,-0.044313,0.075625,0.024116,65.807755,7.408417,-146.360992,,,
729605409.571551,0.984025,-3.294784,-15.100186,0.057983,0.025345,0.976257,-0.044313,0.075625,0.024116,65.807755,7.408417,-146.360992,,,
729605409.574931,0.969127,-3.278086,-15.097314,0.057983,0.025345,0.976257,-0.053695,0.056724,0.00927,65.807755,7.408417,-146.360992,,,
729605409.578214,0.953908,-3.265174,-15.097347,0.058838,0.028168,0.974838,-0.053695,0.056724,0.00927,65.807755,7.408417,-146.360992,,,
729605409.581646,0.953908,-3.265174,-15.097347,0.058838,0.028168,0.974838,-0.053695,0.056724,0.00927,65.807755,7.408417,-146.360992,,,
729605409.584895,0.939719,-3.255179,-15.099692,0.058838,0.028168,0.974838,-0.049755,0.03188,-0.009243,65.807755,7.408417,-146.360992,,,
729605409.588258,0.926558,-3.25018,-15.104205,0.060638,0.02356,0.982956,-0.049755,0.03188,-0.009243,65.807755,7.408417,-146.360992,,,
729605409.591658,0.926558,-3.25018,-15.104205,0.060638,0.02356,0.982956,-0.049755,0.03188,-0.009243,65.807755,7.408417,-146.360992,,,
729605409.594857,0.915707,-3.249182,-15.110636,0.060638,0.02356,0.982956,-0.037102,0.00028,-0.022552,65.807755,7.408417,-146.360992,,,
729605409.5982,0.906001,-3.250761,-15.117684,0.062561,0.022308,0.990616,-0.037102,0.00028,-0.022552,65.807755,7.408417,-146.360992,,,
729605409.601557,0.906001,-3.250761,-15.117684,0.062561,0.022308,0.990616,-0.037102,0.00028,-0.022552,65.997772,7.268906,-146.274963,,,
729605409.604866,0.89693,-3.251014,-15.124848,0.062561,0.022308,0.990616,-0.030955,0.001486,-0.028214,65.997772,7.268906,-146.274963,,,
729605409.608336,0.888456,-3.249873,-15.131636,0.061447,0.018646,1.001053,-0.030955,0.001486,-0.028214,65.997772,7.268906,-146.274963,,,
729605409.611548,0.888456,-3.249873,-15.131636,0.061447,0.018646,1.001053,-0.030955,0.001486,-0.028214,65.997772,7.268906,-146.274963,,,
729605409.614905,0.88071,-3.245684,-15.137753,0.061447,0.018646,1.001053,-0.025291,0.017742,-0.021503,65.997772,7.268906,-146.274963,,,
729605409.618196,0.875485,-3.237925,-15.142982,0.064713,0.018265,1.008545,-0.025291,0.017742,-0.021503,65.997772,7.268906,-146.274963,,,
729605409.621544,0.875485,-3.237925,-15.142982,0.064713,0.018265,1.008545,-0.025291,0.017742,-0.021503,65.997772,7.268906,-146.274963,,,
729605409.624924,0.871668,-3.225832,-15.147104,0.064713,0.018265,1.008545,-0.009309,0.048064,-0.013851,65.997772,7.268906,-146.274963,,,
729605409.628288,0.868934,-3.21004,-15.149404,0.066071,0.018768,1.013763,-0.009309,0.048064,-0.013851,65.997772,7.268906,-146.274963,,,
729605409.631613,0.868934,-3.21004,-15.149404,0.066071,0.018768,1.013763,-0.009309,0.048064,-0.013851,65.997772,7.268906,-146.274963,,,
729605409.634879,0.867214,-3.191117,-15.149823,0.066071,0.018768,1.013763,-0.003001,0.072807,-0.001746,65.997772,7.268906,-146.274963,,,
729605409.63827,0.867414,-3.169364,-15.149081,0.060959,0.019653,1.011368,-0.003001,0.072807,-0.001746,65.997772,7.268906,-146.274963,,,
729605409.641586,0.867414,-3.169364,-15.149081,0.060959,0.019653,1.011368,-0.003001,0.072807,-0.001746,66.454269,7.179062,-146.549469,,,
729605409.644883,0.869035,-3.14617,-15.147081,0.060959,0.019653,1.011368,0.008058,0.086501,0.007168,66.454269,7.179062,-146.549469,,,
729605409.648276,0.870827,-3.122721,-15.143731,0.052612,0.019653,1.01326,0.008058,0.086501,0.007168,66.454269,7.179062,-146.549469,,,
729605409.651561,0.870827,-3.122721,-15.143731,0.052612,0.019653,1.01326,0.008058,0.086501,0.007168,66.454269,7.179062,-146.549469,,,
729605409.654868,0.875208,-3.101573,-15.139681,0.052612,0.019653,1.01326,0.01251,0.080351,0.009805,66.454269,7.179062,-146.549469,,,
729605409.658256,0.877637,-3.081635,-15.135699,0.048859,0.019684,1.003494,0.01251,0.080351,0.009805,66.454269,7.179062,-146.549469,,,
729605409.661574,0.877637,-3.081635,-15.135699,0.048859,0.019684,1.003494,0.01251,0.080351,0.009805,66.454269,7.179062,-146.549469,,,
729605409.664893,0.88263,-3.064934,-15.132714,0.048859,0.019684,1.003494,0.013714,0.063294,0.006118,66.454269,7.179062,-146.549469,,,
729605409.668236,0.88682,-3.048689,-15.131184,0.048508,0.022369,1.001419,0.013714,0.063294,0.006118,66.454269,7.179062,-146.549469,,,
729605409.671539,0.88682,-3.048689,-15.131184,0.048508,0.022369,1.001419,0.013714,0.063294,0.006118,66.454269,7.179062,-146.549469,,,
729605409.674931,0.89304,-3.036222,-15.131255,0.048508,0.022369,1.001419,0.01798,0.049984,-0.004423,66.454269,7.179062,-146.549469,,,
729605409.678303,0.898042,-3.024459,-15.132693,0.051102,0.024246,1.006729,0.01798,0.049984,-0.004423,66.454269,7.179062,-146.549469,,,
729605409.681535,0.898042,-3.024459,-15.132693,0.051102,0.024246,1.006729,0.01798,0.049984,-0.004423,66.546371,7.104904,-146.012482,,,
729605409.68487,0.903175,-3.016504,-15.134661,0.051102,0.024246,1.006729,0.013734,0.030915,-0.007957,66.546371,7.104904,-146.012482,,,
729605409.688254,0.906438,-3.009845,-15.136507,0.049728,0.025009,0.997009,0.013734,0.030915,-0.007957,66.546371,7.104904,-146.012482,,,
729605409.691667,0.906438,-3.009845,-15.136507,0.049728,0.025009,0.997009,0.013734,0.030915,-0.007957,66.546371,7.104904,-146.012482,,,
729605409.694867,0.908473,-3.006135,-15.138074,0.049728,0.025009,0.997009,0.005921,0.021347,-0.007519,66.546371,7.104904,-146.012482,,,
729605409.698256,0.907619,-3.000762,-15.140242,0.049728,0.024033,0.993881,0.005921,0.021347,-0.007519,66.546371,7.104904,-146.012482,,,
729605409.70155,0.907619,-3.000762,-15.140242,0.0513,0.024033,0.993881,0.005921,0.021347,-0.007519,66.546371,7.104904,-146.012482,,,
729605409.704869,0.904697,-2.997077,-15.142593,0.0513,0.024033,0.993881,-0.012705,0.023039,-0.011246,66.546371,7.104904,-146.012482,,,
729605409.708274,0.89958,-2.99033,-15.144724,0.054016,0.023697,0.994537,-0.012705,0.023039,-0.011246,66.546371,7.104904,-146.012482,,,
729605409.71155,0.89958,-2.99033,-15.144724,0.054016,0.023697,0.994537,-0.012705,0.023039,-0.011246,66.546371,7.104904,-146.012482,,,
729605409.714886,0.893366,-2.983481,-15.1463,0.054016,0.023697,0.994537,-0.026191,0.036211,-0.007622,66.546371,7.104904,-146.012482,,,
729605409.718247,0.885625,-2.971199,-15.147169,0.046158,0.016663,1.000092,-0.026191,0.036211,-0.007622,66.546371,7.104904,-146.012482,,,
729605409.721536,0.885625,-2.971199,-15.147169,0.046158,0.016663,1.000092,-0.026191,0.036211,-0.007622,66.546371,7.104904,-146.012482,,,
729605409.72491,0.878633,-2.955164,-15.146456,0.046158,0.016663,1.000092,-0.026413,0.067143,0.004413,66.496552,7.21167,-146.202881,,,
729605409.728259,0.871783,-2.934175,-15.143518,0.046158,0.016663,1.000092,-0.026413,0.067143,0.004413,66.496552,7.21167,-146.202881,,,
729605409.731625,0.871783,-2.934175,-15.143518,0.03714,0.0047,1.016586,-0.026413,0.067143,0.004413,66.496552,7.21167,-146.202881,,,
729605409.73493,0.868131,-2.909106,-15.138507,0.03714,0.0047,1.016586,-0.008833,0.092063,0.018845,66.496552,7.21167,-146.202881,,,
729605409.738259,0.868131,-2.909106,-15.138507,0.03714,0.0047,1.016586,-0.008833,0.092063,0.018845,66.496552,7.21167,-146.202881,,,
729605409.741602,0.866669,-2.878725,-15.131091,0.037476,-0.003662,1.027145,-0.008833,0.092063,0.018845,66.496552,7.21167,-146.202881,,,
729605409.744877,0.869072,-2.841309,-15.121299,0.037476,-0.003662,1.027145,0.014251,0.139538,0.034353,66.496552,7.21167,-146.202881,,,
729605409.748267,0.869072,-2.841309,-15.109857,0.037476,-0.003662,1.027145,0.014251,0.139538,0.034353,66.496552,7.21167,-146.202881,,,
729605409.751553,0.873956,-2.797934,-15.109857,0.046387,-0.002075,1.040955,0.014251,0.139538,0.034353,66.496552,7.21167,-146.202881,,,
729605409.754944,0.882521,-2.749119,-15.097482,0.046387,-0.002075,1.040955,0.029774,0.180233,0.04144,66.496552,7.21167,-146.202881,,,
729605409.75824,0.882521,-2.749119,-15.097482,0.046387,-0.002075,1.040955,0.029774,0.180233,0.04144,66.496552,7.21167,-146.202881,,,
729605409.761553,0.890484,-2.695931,-15.085094,0.052155,0.005829,1.032928,0.029774,0.180233,0.04144,66.496552,7.21167,-146.202881,,,
729605409.76488,0.89973,-2.638393,-15.073153,0.052155,0.005829,1.032928,0.030943,0.209278,0.040012,66.636337,7.365555,-146.190872,,,
729605409.76832,0.89973,-2.575119,-15.062392,0.052155,0.011536,1.023148,0.030943,0.209278,0.040012,66.636337,7.365555,-146.190872,,,
729605409.771522,0.908395,-2.575119,-15.062392,0.05632,0.011536,1.023148,0.030943,0.209278,0.040012,66.636337,7.365555,-146.190872,,,
729605409.774923,0.918487,-2.508542,-15.052528,0.05632,0.011536,1.023148,0.033576,0.242451,0.031357,66.636337,7.365555,-146.190872,,,
729605409.778221,0.918487,-2.508542,-15.052528,0.05632,0.011536,1.023148,0.033576,0.242451,0.031357,66.636337,7.365555,-146.190872,,,
729605409.781627,0.928339,-2.440962,-15.042351,0.051498,0.007538,1.016373,0.033576,0.242451,0.031357,66.636337,7.365555,-146.190872,,,
729605409.78486,0.940627,-2.377911,-15.031109,0.051498,0.007538,1.016373,0.041419,0.223822,0.03607,66.636337,7.365555,-146.190872,,,
729605409.788244,0.940627,-2.377911,-15.031109,0.051498,0.007538,1.016373,0.041419,0.223822,0.03607,66.636337,7.365555,-146.190872,,,
729605409.791564,0.953478,-2.319137,-15.018383,0.042374,0.000992,1.00383,0.041419,0.223822,0.03607,66.636337,7.365555,-146.190872,,,
729605409.794865,0.968115,-2.268166,-15.005038,0.042374,0.000992,1.00383,0.048697,0.180305,0.042815,66.636337,7.365555,-146.190872,,,
729605409.798253,0.968115,-2.268166,-15.005038,0.042374,0.000992,1.00383,0.048697,0.180305,0.042815,66.636337,7.365555,-146.190872,,,
729605409.801559,0.982633,-2.22257,-14.992509,0.039276,0.002655,0.992188,0.048697,0.180305,0.042815,66.636337,7.365555,-146.190872,,,
729605409.804872,0.996327,-2.184495,-14.982244,0.039276,0.002655,0.992188,0.053661,0.130899,0.02948,67.07312,7.145599,-146.282944,,,
729605409.808314,0.996327,-2.184495,-14.982244,0.039276,0.002655,0.992188,0.053661,0.130899,0.02948,67.07312,7.145599,-146.282944,,,
729605409.811554,1.010324,-2.152366,-14.975904,0.046524,0.009476,0.986191,0.053661,0.130899,0.02948,67.07312,7.145599,-146.282944,,,
729605409.814888,1.020953,-2.126812,-14.974647,0.046524,0.009476,0.986191,0.045557,0.082591,-0.00295,67.07312,7.145599,-146.282944,,,
729605409.818314,1.020953,-2.126812,-14.974647,0.046524,0.009476,0.986191,0.045557,0.082591,-0.00295,67.07312,7.145599,-146.282944,,,
729605409.82153,1.03315,-2.109065,-14.978221,0.051651,0.017014,0.978058,0.045557,0.082591,-0.00295,67.07312,7.145599,-146.282944,,,
729605409.824917,1.039994,-2.098,-14.986123,0.051651,0.017014,0.978058,0.032327,0.036716,-0.034732,67.07312,7.145599,-146.282944,,,
729605409.828236,1.039994,-2.098,-14.986123,0.051651,0.017014,0.978058,0.032327,0.036716,-0.034732,67.07312,7.145599,-146.282944,,,
729605409.831634,1.047772,-2.092359,-14.99774,0.048981,0.019104,0.973969,0.032327,0.036716,-0.034732,67.07312,7.145599,-146.282944,,,
729605409.834917,1.049674,-2.093625,-15.01235,0.048981,0.019104,0.973969,0.012624,-0.001166,-0.057713,67.07312,7.145599,-146.282944,,,
729605409.838203,1.049674,-2.093625,-15.01235,0.048981,0.019104,0.973969,0.012624,-0.001166,-0.057713,67.07312,7.145599,-146.282944,,,
729605409.841583,1.053115,-2.098264,-15.029958,0.046799,0.016251,0.964645,0.012624,-0.001166,-0.057713,67.07312,7.145599,-146.282944,,,
729605409.844874,1.053334,-2.109067,-15.050198,0.046799,0.016251,0.964645,-0.000172,-0.031033,-0.074962,67.190125,7.10791,-146.652283,,,
729605409.848226,1.053334,-2.109067,-15.050198,0.046799,0.016251,0.964645,-0.000172,-0.031033,-0.074962,67.190125,7.10791,-146.652283,,,
729605409.851606,1.052347,-2.120605,-15.072621,0.052139,0.019058,0.969604,-0.000172,-0.031033,-0.074962,67.190125,7.10791,-146.652283,,,
729605409.854863,1.048387,-2.13629,-15.097295,0.052139,0.019058,0.969604,-0.015181,-0.047296,-0.09016,67.190125,7.10791,-146.652283,,,
729605409.858303,1.048387,-2.13629,-15.097295,0.052139,0.019058,0.969604,-0.015181,-0.047296,-0.09016,67.190125,7.10791,-146.652283,,,
729605409.861553,1.04245,-2.149591,-15.123574,0.052231,0.020279,0.974548,-0.015181,-0.047296,-0.09016,67.190125,7.10791,-146.652283,,,
729605409.864868,1.032346,-2.162105,-15.1498,0.052231,0.020279,0.974548,-0.032821,-0.035768,-0.09222,67.190125,7.10791,-146.652283,,,
729605409.868328,1.032346,-2.162105,-15.1498,0.052231,0.020279,0.974548,-0.032821,-0.035768,-0.09222,67.190125,7.10791,-146.652283,,,
729605409.871539,1.023275,-2.169869,-15.175649,0.04512,0.017776,0.985504,-0.032821,-0.035768,-0.09222,67.190125,7.10791,-146.652283,,,
729605409.87497,1.012317,-2.174503,-15.200589,0.04512,0.017776,0.985504,-0.030809,-0.012305,-0.085266,67.190125,7.10791,-146.652283,,,
729605409.878215,1.012317,-2.174503,-15.200589,0.04512,0.017776,0.985504,-0.030809,-0.012305,-0.085266,67.190125,7.10791,-146.652283,,,
729605409.88164,1.003709,-2.175971,-15.224519,0.046585,0.015442,0.998047,-0.030809,-0.012305,-0.085266,67.190125,7.10791,-146.652283,,,
729605409.884963,0.993836,-2.175398,-15.247231,0.046585,0.015442,0.998047,-0.030115,0.00619,-0.07804,67.190125,7.10791,-146.652283,,,
729605409.888198,0.993836,-2.175398,-15.247231,0.046585,0.015442,0.998047,-0.030115,0.00619,-0.07804,67.325317,7.056503,-146.310486,,,
729605409.891579,0.986281,-2.171438,-15.268355,0.045624,0.01387,0.998718,-0.030115,0.00619,-0.07804,67.325317,7.056503,-146.310486,,,
729605409.894874,0.97875,-2.165704,-15.287984,0.045624,0.01387,0.998718,-0.027992,0.028995,-0.065988,67.325317,7.056503,-146.310486,,,
729605409.898224,0.97875,-2.165704,-15.287984,0.045624,0.01387,0.998718,-0.027992,0.028995,-0.065988,67.325317,7.056503,-146.310486,,,
729605409.901606,0.9713,-2.156065,-15.306446,0.040878,0.013245,0.99942,-0.027992,0.028995,-0.065988,67.325317,7.056503,-146.310486,,,
729605409.904868,0.963429,-2.147126,-15.323806,0.040878,0.013245,0.99942,-0.030969,0.042354,-0.061295,67.325317,7.056503,-146.310486,,,
729605409.908245,0.963429,-2.147126,-15.323806,0.040878,0.013245,0.99942,-0.030969,0.042354,-0.061295,67.325317,7.056503,-146.310486,,,
729605409.911565,0.953109,-2.135264,-15.340247,0.03952,0.019501,0.994812,-0.030969,0.042354,-0.061295,67.325317,7.056503,-146.310486,,,
729605409.914873,0.940459,-2.125184,-15.356082,0.03952,0.019501,0.994812,-0.050062,0.044239,-0.054668,67.325317,7.056503,-146.310486,,,
729605409.918254,0.940459,-2.125184,-15.356082,0.03952,0.019501,0.994812,-0.050062,0.044239,-0.054668,67.325317,7.056503,-146.310486,,,
729605409.921555,0.92473,-2.115303,-15.371785,0.037323,0.024567,0.982697,-0.050062,0.044239,-0.054668,67.325317,7.056503,-146.310486,,,
729605409.924906,0.905914,-2.110099,-15.387352,0.037323,0.024567,0.982697,-0.069962,0.027715,-0.052149,67.325317,7.056503,-146.310486,,,
729605409.928198,0.905914,-2.110099,-15.387352,0.037323,0.024567,0.982697,-0.069962,0.027715,-0.052149,67.226074,7.18573,-146.50589,,,
729605409.931555,0.884027,-2.105331,-15.403456,0.035355,0.028732,0.983826,-0.069962,0.027715,-0.052149,67.226074,7.18573,-146.50589,,,
729605409.934934,0.860178,-2.10605,-15.421082,0.035355,0.028732,0.983826,-0.087335,0.00492,-0.060991,67.226074,7.18573,-146.50589,,,
729605409.938219,0.860178,-2.10605,-15.421082,0.035355,0.028732,0.983826,-0.087335,0.00492,-0.060991,67.226074,7.18573,-146.50589,,,
729605409.941593,0.834055,-2.107924,-15.440911,0.033844,0.031464,0.986252,-0.087335,0.00492,-0.060991,67.226074,7.18573,-146.50589,,,
729605409.944867,0.808452,-2.115097,-15.462932,0.033844,0.031464,0.986252,-0.095167,-0.01974,-0.07517,67.226074,7.18573,-146.50589,,,
729605409.948216,0.808452,-2.115097,-15.462932,0.033844,0.031464,0.986252,-0.095167,-0.01974,-0.07517,67.226074,7.18573,-146.50589,,,
729605409.951606,0.782824,-2.12308,-15.486791,0.034958,0.032608,0.994156,-0.095167,-0.01974,-0.07517,67.226074,7.18573,-146.50589,,,
729605409.954861,0.758501,-2.133527,-15.512136,0.034958,0.032608,0.994156,-0.089226,-0.034895,-0.088859,67.226074,7.18573,-146.50589,,,
729605409.958225,0.758501,-2.133527,-15.512136,0.034958,0.032608,0.994156,-0.089226,-0.034895,-0.088859,67.226074,7.18573,-146.50589,,,
729605409.961539,0.735048,-2.145421,-15.537631,0.031158,0.029907,1.007782,-0.089226,-0.034895,-0.088859,67.226074,7.18573,-146.50589,,,
729605409.964905,0.713277,-2.160853,-15.561278,0.031158,0.029907,1.007782,-0.077765,-0.046715,-0.079437,67.226074,7.18573,-146.50589,,,
729605409.968287,0.713277,-2.160853,-15.561278,0.031158,0.029907,1.007782,-0.077765,-0.046715,-0.079437,66.906799,7.506821,-146.367615,,,
729605409.971541,0.693181,-2.176333,-15.582313,0.026321,0.020493,1.010315,-0.077765,-0.046715,-0.079437,66.906799,7.506821,-146.367615,,,
729605409.974905,0.67561,-2.192909,-15.600142,0.026321,0.020493,1.010315,-0.060457,-0.052077,-0.058059,66.906799,7.506821,-146.367615,,,
729605409.97824,0.67561,-2.192909,-15.600142,0.026321,0.020493,1.010315,-0.060457,-0.052077,-0.058059,66.906799,7.506821,-146.367615,,,
729605409.981631,0.660111,-2.208556,-15.614458,0.023407,0.015854,1.019379,-0.060457,-0.052077,-0.058059,66.906799,7.506821,-146.367615,,,
729605409.984923,0.647129,-2.224068,-15.62636,0.023407,0.015854,1.019379,-0.048142,-0.048698,-0.038657,66.906799,7.506821,-146.367615,,,
729605409.988194,0.647129,-2.224068,-15.62636,0.023407,0.015854,1.019379,-0.048142,-0.048698,-0.038657,66.906799,7.506821,-146.367615,,,
729605409.991634,0.635273,-2.237688,-15.63741,0.031143,0.016541,1.022552,-0.048142,-0.048698,-0.038657,66.906799,7.506821,-146.367615,,,
729605409.994873,0.627118,-2.250061,-15.648134,0.031143,0.016541,1.022552,-0.03243,-0.03818,-0.036786,66.906799,7.506821,-146.367615,,,
729605409.99822,0.627118,-2.250061,-15.648134,0.031143,0.016541,1.022552,-0.03243,-0.03818,-0.036786,66.906799,7.506821,-146.367615,,,
729605410.001617,0.62036,-2.260818,-15.658572,0.036285,0.020966,1.027145,-0.03243,-0.03818,-0.036786,66.906799,7.506821,-146.367615,,,
729605410.00488,0.619508,-2.268426,-15.669053,0.036285,0.020966,1.027145,-0.008876,-0.022096,-0.038137,66.906799,7.506821,-146.367615,,,
729605410.008288,0.619508,-2.268426,-15.669053,0.036285,0.020966,1.027145,-0.008876,-0.022096,-0.038137,66.980545,7.48999,-146.255722,,,
729605410.011599,0.619387,-2.273063,-15.679201,0.03624,0.019791,1.034973,-0.008876,-0.022096,-0.038137,66.980545,7.48999,-146.255722,,,
729605410.014919,0.625102,-2.274907,-15.688373,0.03624,0.019791,1.034973,0.013449,-0.00353,-0.034564,66.980545,7.48999,-146.255722,,,
729605410.018288,0.625102,-2.274907,-15.688373,0.03624,0.019791,1.034973,0.013449,-0.00353,-0.034564,66.980545,7.48999,-146.255722,,,
729605410.02155,0.629455,-2.276162,-15.696281,0.033661,0.014862,1.028244,0.013449,-0.00353,-0.034564,66.980545,7.48999,-146.255722,,,
729605410.024938,0.638661,-2.275993,-15.703046,0.033661,0.014862,1.028244,0.019771,0.003793,-0.024126,66.980545,7.48999,-146.255722,,,
729605410.028248,0.638661,-2.275993,-15.703046,0.033661,0.014862,1.028244,0.019771,0.003793,-0.024126,66.980545,7.48999,-146.255722,,,
729605410.031615,0.644481,-2.276435,-15.709583,0.033066,0.017105,1.019348,0.019771,0.003793,-0.024126,66.980545,7.48999,-146.255722,,,
729605410.034916,0.65302,-2.275502,-15.716344,0.033066,0.017105,1.019348,0.015398,0.002817,-0.026082,66.980545,7.48999,-146.255722,,,
729605410.038226,0.65302,-2.275502,-15.716344,0.033066,0.017105,1.019348,0.015398,0.002817,-0.026082,66.980545,7.48999,-146.255722,,,
729605410.041641,0.657686,-2.276089,-15.723097,0.032669,0.019836,1.013336,0.015398,0.002817,-0.026082,66.980545,7.48999,-146.255722,,,
729605410.044929,0.663225,-2.27555,-15.729273,0.032669,0.019836,1.013336,0.009331,0.001392,-0.023842,66.980545,7.48999,-146.255722,,,
729605410.047956,0.663225,-2.27555,-15.729273,0.032669,0.019836,1.013336,0.009331,0.001392,-0.023842,66.980545,7.48999,-146.255722,,,
729605410.05168,0.664949,-2.277053,-15.735335,0.026047,0.017456,1.005569,0.009331,0.001392,-0.023842,66.987122,7.47728,-146.151337,,,
729605410.054864,0.666407,-2.276,-15.741485,0.026047,0.017456,1.005569,0.001079,-0.001693,-0.023477,66.987122,7.47728,-146.151337,,,
729605410.058274,0.666407,-2.276,-15.741485,0.026047,0.017456,1.005569,0.001079,-0.001693,-0.023477,66.987122,7.47728,-146.151337,,,
729605410.061542,0.666029,-2.276629,-15.747207,0.025848,0.014191,1.005707,0.001079,-0.001693,-0.023477,66.987122,7.47728,-146.151337,,,
729605410.064877,0.666772,-2.274886,-15.753382,0.025848,0.014191,1.005707,0.002338,-0.000522,-0.019743,66.987122,7.47728,-146.151337,,,
729605410.068286,0.666772,-2.274886,-15.753382,0.025848,0.014191,1.005707,0.002338,-0.000522,-0.019743,66.987122,7.47728,-146.151337,,,
729605410.071539,0.668346,-2.275192,-15.759865,0.029861,0.010986,1.009842,0.002338,-0.000522,-0.019743,66.987122,7.47728,-146.151337,,,
729605410.075,0.672415,-2.273683,-15.766389,0.029861,0.010986,1.009842,0.013689,0.004975,-0.024755,66.987122,7.47728,-146.151337,,,
729605410.078226,0.672415,-2.273683,-15.766389,0.029861,0.010986,1.009842,0.013689,0.004975,-0.024755,66.987122,7.47728,-146.151337,,,
729605410.081618,0.677792,-2.271874,-15.772923,0.030289,0.010406,1.016205,0.013689,0.004975,-0.024755,66.987122,7.47728,-146.151337,,,
729605410.084936,0.687514,-2.266943,-15.778502,0.030289,0.010406,1.016205,0.032239,0.020618,-0.020944,66.987122,7.47728,-146.151337,,,
729605410.088202,0.687514,-2.266943,-15.778502,0.030289,0.010406,1.016205,0.032239,0.020618,-0.020944,66.987122,7.47728,-146.151337,,,
729605410.091601,0.699215,-2.258152,-15.782853,0.028046,0.004562,1.02388,0.032239,0.020618,-0.020944,67.243179,7.351288,-146.362717,,,
729605410.094888,0.713602,-2.244284,-15.785591,0.028046,0.004562,1.02388,0.049946,0.052843,-0.011482,67.243179,7.351288,-146.362717,,,
729605410.098244,0.713602,-2.244284,-15.785591,0.028046,0.004562,1.02388,0.049946,0.052843,-0.011482,67.243179,7.351288,-146.362717,,,
729605410.101591,0.728638,-2.227427,-15.785388,0.025436,-0.003159,1.020737,0.049946,0.052843,-0.011482,67.243179,7.351288,-146.362717,,,
729605410.104906,0.745122,-2.207295,-15.782015,0.025436,-0.003159,1.020737,0.059198,0.074445,0.009126,67.243179,7.351288,-146.362717,,,
729605410.108327,0.745122,-2.207295,-15.782015,0.025436,-0.003159,1.020737,0.059198,0.074445,0.009126,67.243179,7.351288,-146.362717,,,
729605410.111568,0.763402,-2.184908,-15.775544,0.018921,-0.009537,1.014557,0.059198,0.074445,0.009126,67.243179,7.351288,-146.362717,,,
729605410.114894,0.783656,-2.160915,-15.765671,0.018921,-0.009537,1.014557,0.072972,0.084724,0.03331,67.243179,7.351288,-146.362717,,,
729605410.118273,0.783656,-2.160915,-15.765671,0.018921,-0.009537,1.014557,0.072972,0.084724,0.03331,67.243179,7.351288,-146.362717,,,
729605410.121567,0.804834,-2.138893,-15.752416,0.013977,-0.016388,1.013718,0.072972,0.084724,0.03331,67.243179,7.351288,-146.362717,,,
729605410.124977,0.827226,-2.118374,-15.736169,0.013977,-0.016388,1.013718,0.078826,0.072387,0.054774,67.243179,7.351288,-146.362717,,,
729605410.128227,0.827226,-2.118374,-15.736169,0.013977,-0.016388,1.013718,0.078826,0.072387,0.054774,67.243179,7.351288,-146.362717,,,
729605410.131563,0.849192,-2.099232,-15.717756,0.013901,-0.016205,0.998688,0.078826,0.072387,0.054774,67.41983,7.197433,-146.629318,,,
729605410.134919,0.871079,-2.078567,-15.699318,0.013901,-0.016205,0.998688,0.080235,0.074923,0.058655,67.41983,7.197433,-146.629318,,,
729605410.138197,0.871079,-2.078567,-15.699318,0.013901,-0.016205,0.998688,0.080235,0.074923,0.058655,67.41983,7.197433,-146.629318,,,
729605410.141584,0.892513,-2.058351,-15.683179,0.022156,-0.007675,0.998703,0.080235,0.074923,0.058655,67.41983,7.197433,-146.629318,,,
729605410.144866,0.912887,-2.038863,-15.67095,0.022156,-0.007675,0.998703,0.069579,0.06632,0.037385,67.41983,7.197433,-146.629318,,,
729605410.148216,0.912887,-2.038863,-15.67095,0.022156,-0.007675,0.998703,0.069579,0.06632,0.037385,67.41983,7.197433,-146.629318,,,
729605410.151611,0.931862,-2.023495,-15.663014,0.038895,0.005676,0.986465,0.069579,0.06632,0.037385,67.41983,7.197433,-146.629318,,,
729605410.15486,0.947793,-2.01051,-15.6595,0.038895,0.005676,0.986465,0.057254,0.043762,0.003463,67.41983,7.197433,-146.629318,,,
729605410.158278,0.947793,-2.01051,-15.6595,0.038895,0.005676,0.986465,0.057254,0.043762,0.003463,67.41983,7.197433,-146.629318,,,
729605410.161547,0.961972,-1.999842,-15.660767,0.037262,0.011276,0.973572,0.057254,0.043762,0.003463,67.41983,7.197433,-146.629318,,,
729605410.164869,0.972611,-1.989688,-15.665943,0.037262,0.011276,0.973572,0.041907,0.033421,-0.023752,67.41983,7.197433,-146.629318,,,
729605410.168297,0.972611,-1.989688,-15.665943,0.037262,0.011276,0.973572,0.041907,0.033421,-0.023752,67.41983,7.197433,-146.629318,,,
729605410.171532,0.984073,-1.983943,-15.673575,0.02916,0.007172,0.970535,0.041907,0.033421,-0.023752,67.194351,7.061462,-146.125473,,,
729605410.174917,0.993414,-1.982358,-15.682911,0.02916,0.007172,0.970535,0.042584,0.000275,-0.036064,67.194351,7.061462,-146.125473,,,
729605410.178223,0.993414,-1.982358,-15.682911,0.02916,0.007172,0.970535,0.042584,0.000275,-0.036064,67.194351,7.061462,-146.125473,,,
729605410.181538,1.0054,-1.987877,-15.694012,0.026779,0.004044,0.966324,0.042584,0.000275,-0.036064,67.194351,7.061462,-146.125473,,,
729605410.18492,1.013195,-1.995852,-15.7073,0.026779,0.004044,0.966324,0.039965,-0.036918,-0.051308,67.194351,7.061462,-146.125473,,,
729605410.188213,1.013195,-1.995852,-15.7073,0.026779,0.004044,0.966324,0.039965,-0.036918,-0.051308,67.194351,7.061462,-146.125473,,,
729605410.191572,1.023654,-2.008409,-15.72161,0.027969,0.005661,0.965744,0.039965,-0.036918,-0.051308,67.194351,7.061462,-146.125473,,,
729605410.194872,1.027903,-2.018881,-15.736137,0.027969,0.005661,0.965744,0.028284,-0.040237,-0.053703,67.194351,7.061462,-146.125473,,,
729605410.198219,1.027903,-2.018881,-15.736137,0.027969,0.005661,0.965744,0.028284,-0.040237,-0.053703,67.194351,7.061462,-146.125473,,,
729605410.201592,1.035007,-2.030844,-15.751038,0.027893,0.008011,0.970245,0.028284,-0.040237,-0.053703,67.194351,7.061462,-146.125473,,,
729605410.204871,1.03482,-2.037381,-15.766531,0.027893,0.008011,0.970245,0.015951,-0.031804,-0.055868,67.194351,7.061462,-146.125473,,,
729605410.208228,1.03482,-2.037381,-15.766531,0.027893,0.008011,0.970245,0.015951,-0.031804,-0.055868,67.194351,7.061462,-146.125473,,,
729605410.211553,1.038615,-2.04604,-15.782332,0.033249,0.013458,0.973358,0.015951,-0.031804,-0.055868,67.194351,7.061462,-146.125473,,,
729605410.21487,1.036627,-2.050964,-15.798728,0.033249,0.013458,0.973358,0.008326,-0.025593,-0.05693,67.27388,6.950729,-146.216904,,,
729605410.218266,1.036627,-2.050964,-15.798728,0.033249,0.013458,0.973358,0.008326,-0.025593,-0.05693,67.27388,6.950729,-146.216904,,,
729605410.221536,1.039202,-2.057797,-15.815045,0.039337,0.017319,0.971832,0.008326,-0.025593,-0.05693,67.27388,6.950729,-146.216904,,,
729605410.224711,1.038495,-2.06228,-15.831714,0.039337,0.017319,0.971832,0.00695,-0.015171,-0.062012,67.27388,6.950729,-146.216904,,,
729605410.228245,1.038495,-2.06228,-15.831714,0.039337,0.017319,0.971832,0.00695,-0.015171,-0.062012,67.27388,6.950729,-146.216904,,,
729605410.231602,1.0407,-2.066309,-15.849077,0.043961,0.021927,0.971664,0.00695,-0.015171,-0.062012,67.27388,6.950729,-146.216904,,,
729605410.234909,1.041259,-2.070263,-15.866807,0.043961,0.021927,0.971664,0.002918,-0.005833,-0.065631,67.27388,6.950729,-146.216904,,,
729605410.238192,1.041259,-2.070263,-15.866807,0.043961,0.021927,0.971664,0.002918,-0.005833,-0.065631,67.27388,6.950729,-146.216904,,,
729605410.24156,1.040806,-2.072394,-15.884973,0.043289,0.02684,0.966537,0.002918,-0.005833,-0.065631,67.27388,6.950729,-146.216904,,,
729605410.244865,1.035719,-2.072986,-15.902532,0.043289,0.02684,0.966537,-0.017021,0.000277,-0.060235,67.27388,6.950729,-146.216904,,,
729605410.248219,1.035719,-2.072986,-15.902532,0.043289,0.02684,0.966537,-0.017021,0.000277,-0.060235,67.27388,6.950729,-146.216904,,,
729605410.251593,1.026685,-2.071674,-15.919105,0.037125,0.028854,0.960251,-0.017021,0.000277,-0.060235,67.27388,6.950729,-146.216904,,,
729605410.254867,1.012061,-2.067068,-15.934384,0.037125,0.028854,0.960251,-0.051667,0.017524,-0.050952,67.273178,6.844009,-146.033249,,,
729605410.25826,1.012061,-2.067068,-15.934384,0.037125,0.028854,0.960251,-0.051667,0.017524,-0.050952,67.273178,6.844009,-146.033249,,,
729605410.261564,0.995018,-2.061581,-15.948171,0.036926,0.030029,0.963638,-0.051667,0.017524,-0.050952,67.273178,6.844009,-146.033249,,,
729605410.264873,0.974279,-2.056234,-15.961891,0.036926,0.030029,0.963638,-0.07106,0.015395,-0.049674,67.273178,6.844009,-146.033249,,,
729605410.268266,0.974279,-2.056234,-15.961891,0.036926,0.030029,0.963638,-0.07106,0.015395,-0.049674,67.273178,6.844009,-146.033249,,,
729605410.271588,0.952086,-2.052945,-15.976013,0.037766,0.029755,0.964218,-0.07106,0.015395,-0.049674,67.273178,6.844009,-146.033249,,,
729605410.274876,0.927731,-2.050439,-15.990828,0.037766,0.029755,0.964218,-0.086857,0.007293,-0.051154,67.273178,6.844009,-146.033249,,,
729605410.278212,0.927731,-2.050439,-15.990828,0.037766,0.029755,0.964218,-0.086857,0.007293,-0.051154,67.273178,6.844009,-146.033249,,,
729605410.28155,0.903671,-2.049357,-16.006517,0.034653,0.032715,0.97403,-0.086857,0.007293,-0.051154,67.273178,6.844009,-146.033249,,,
729605410.28491,0.878993,-2.049186,-16.022429,0.034653,0.032715,0.97403,-0.089356,7.5e-05,-0.052188,67.273178,6.844009,-146.033249,,,
729605410.288204,0.878993,-2.049186,-16.022429,0.034653,0.032715,0.97403,-0.089356,7.5e-05,-0.052188,67.273178,6.844009,-146.033249,,,
729605410.291591,0.852959,-2.050669,-16.038122,0.028854,0.033478,0.982956,-0.089356,7.5e-05,-0.052188,67.273178,6.844009,-146.033249,,,
729605410.294875,0.824922,-2.054105,-16.053666,0.028854,0.033478,0.982956,-0.099275,-0.011775,-0.049516,67.288879,7.210968,-146.204697,,,
729605410.298318,0.824922,-2.054105,-16.053666,0.028854,0.033478,0.982956,-0.099275,-0.011775,-0.049516,67.288879,7.210968,-146.204697,,,
729605410.301608,0.795642,-2.059197,-16.067961,0.021286,0.028625,0.980042,-0.099275,-0.011775,-0.049516,67.288879,7.210968,-146.204697,,,
729605410.30488,0.766472,-2.065657,-16.080065,0.021286,0.028625,0.980042,-0.103493,-0.019564,-0.039604,67.288879,7.210968,-146.204697,,,
729605410.308318,0.766472,-2.065657,-16.080065,0.021286,0.028625,0.980042,-0.103493,-0.019564,-0.039604,67.288879,7.210968,-146.204697,,,
729605410.311604,0.738302,-2.073361,-16.090676,0.020447,0.020218,0.993561,-0.103493,-0.019564,-0.039604,67.288879,7.210968,-146.204697,,,
729605410.314878,0.713619,-2.083148,-16.099789,0.020447,0.020218,0.993561,-0.084674,-0.032999,-0.026524,67.288879,7.210968,-146.204697,,,
729605410.318276,0.713619,-2.083148,-16.099789,0.020447,0.020218,0.993561,-0.084674,-0.032999,-0.026524,67.288879,7.210968,-146.204697,,,
729605410.321548,0.691767,-2.093955,-16.107184,0.025406,0.01207,1.010483,-0.084674,-0.032999,-0.026524,67.288879,7.210968,-146.204697,,,
729605410.324973,0.67486,-2.105627,-16.113307,0.025406,0.01207,1.010483,-0.057478,-0.03579,-0.018538,67.288879,7.210968,-146.204697,,,
729605410.328235,0.67486,-2.105627,-16.113307,0.025406,0.01207,1.010483,-0.057478,-0.03579,-0.018538,67.288879,7.210968,-146.204697,,,
729605410.333316,0.661354,-2.115316,-16.118134,0.026062,0.010605,1.022232,-0.057478,-0.03579,-0.018538,67.288879,7.210968,-146.204697,,,
729605410.334743,0.653424,-2.122139,-16.121495,0.026062,0.010605,1.022232,-0.025867,-0.020388,-0.011065,67.288879,7.210968,-146.204697,,,
729605410.338264,0.653424,-2.122139,-16.121495,0.026062,0.010605,1.022232,-0.025867,-0.020388,-0.011065,67.270798,7.257828,-146.335373,,,
729605410.34154,0.648945,-2.126076,-16.124246,0.030167,0.010605,1.03183,-0.025867,-0.020388,-0.011065,67.270798,7.257828,-146.335373,,,
729605410.344873,0.650187,-2.12856,-16.12616,0.030167,0.010605,1.03183,0.000211,-0.003306,-0.009526,67.270798,7.257828,-146.335373,,,
729605410.34827,0.650187,-2.12856,-16.12616,0.030167,0.010605,1.03183,0.000211,-0.003306,-0.009526,67.270798,7.257828,-146.335373,,,
729605410.351589,0.652069,-2.129446,-16.127188,0.03595,0.012085,1.027359,0.000211,-0.003306,-0.009526,67.270798,7.257828,-146.335373,,,
729605410.354857,0.658139,-2.127842,-16.128101,0.03595,0.012085,1.027359,0.013606,0.012004,-0.003793,67.270798,7.257828,-146.335373,,,
729605410.358249,0.658139,-2.127842,-16.128101,0.03595,0.012085,1.027359,0.013606,0.012004,-0.003793,67.270798,7.257828,-146.335373,,,
729605410.361537,0.66239,-2.122661,-16.128909,0.039566,0.015305,1.016357,0.013606,0.012004,-0.003793,67.270798,7.257828,-146.335373,,,
729605410.364867,0.669676,-2.114028,-16.130125,0.039566,0.015305,1.016357,0.016161,0.032131,-0.006493,67.270798,7.257828,-146.335373,,,
729605410.368278,0.669676,-2.114028,-16.130125,0.039566,0.015305,1.016357,0.016161,0.032131,-0.006493,67.270798,7.257828,-146.335373,,,
729605410.371588,0.673315,-2.104466,-16.132047,0.04216,0.01973,1.00943,0.016161,0.032131,-0.006493,67.270798,7.257828,-146.335373,,,
729605410.374861,0.677792,-2.09313,-16.134777,0.04216,0.01973,1.00943,0.006737,0.039157,-0.013078,67.270798,7.257828,-146.335373,,,
729605410.378254,0.677792,-2.09313,-16.134777,0.04216,0.01973,1.00943,0.006737,0.039157,-0.013078,67.310928,7.394363,-146.42215,,,
729605410.381541,0.679308,-2.083125,-16.138212,0.03894,0.023743,0.998428,0.006737,0.039157,-0.013078,67.310928,7.394363,-146.42215,,,
729605410.384909,0.681451,-2.072208,-16.142063,0.03894,0.023743,0.998428,0.000113,0.033471,-0.016671,67.310928,7.394363,-146.42215,,,
729605410.388201,0.681451,-2.072208,-16.142063,0.03894,0.023743,0.998428,0.000113,0.033471,-0.016671,67.310928,7.394363,-146.42215,,,
729605410.391548,0.68097,-2.065937,-16.146302,0.035675,0.024292,0.99588,0.000113,0.033471,-0.016671,67.310928,7.394363,-146.42215,,,
729605410.39487,0.680527,-2.061684,-16.151821,0.035675,0.024292,0.99588,-0.002906,0.009891,-0.020335,67.310928,7.394363,-146.42215,,,
729605410.398247,0.680527,-2.061684,-16.151821,0.035675,0.024292,0.99588,-0.002906,0.009891,-0.020335,67.310928,7.394363,-146.42215,,,
729605410.40163,0.678816,-2.062681,-16.158763,0.036499,0.024612,0.992569,-0.002906,0.009891,-0.020335,67.310928,7.394363,-146.42215,,,
729605410.404871,0.677429,-2.065682,-16.16697,0.036499,0.024612,0.992569,-0.003693,-0.016286,-0.031697,67.310928,7.394363,-146.42215,,,
729605410.408221,0.677429,-2.065682,-16.16697,0.036499,0.024612,0.992569,-0.003693,-0.016286,-0.031697,67.310928,7.394363,-146.42215,,,
729605410.411613,0.677423,-2.072897,-16.1768,0.038422,0.024887,0.994156,-0.003693,-0.016286,-0.031697,67.310928,7.394363,-146.42215,,,
729605410.414865,0.678867,-2.079457,-16.18751,0.038422,0.024887,0.994156,0.007764,-0.02461,-0.040251,67.310928,7.394363,-146.42215,,,
729605410.418254,0.678867,-2.079457,-16.18751,0.038422,0.024887,0.994156,0.007764,-0.02461,-0.040251,67.463318,7.23616,-146.338837,,,
729605410.421536,0.683785,-2.087483,-16.197781,0.037781,0.023621,1.005722,0.007764,-0.02461,-0.040251,67.463318,7.23616,-146.338837,,,
729605410.424874,0.691647,-2.093907,-16.206908,0.037781,0.023621,1.005722,0.033021,-0.021778,-0.030991,67.463318,7.23616,-146.338837,,,
729605410.428207,0.691647,-2.093907,-16.206908,0.037781,0.023621,1.005722,0.033021,-0.021778,-0.030991,67.463318,7.23616,-146.338837,,,
729605410.431557,0.702408,-2.099286,-16.21427,0.032822,0.016083,1.014801,0.033021,-0.021778,-0.030991,67.463318,7.23616,-146.338837,,,
729605410.434913,0.715694,-2.102189,-16.219169,0.032822,0.016083,1.014801,0.048931,-0.005142,-0.019821,67.463318,7.23616,-146.338837,,,
729605410.438268,0.715694,-2.102189,-16.219169,0.032822,0.016083,1.014801,0.048931,-0.005142,-0.019821,67.463318,7.23616,-146.338837,,,
729605410.441544,0.730249,-2.101409,-16.221888,0.030975,0.010193,1.012222,0.048931,-0.005142,-0.019821,67.463318,7.23616,-146.338837,,,
729605410.44487,0.730249,-2.101409,-16.221888,0.030975,0.010193,1.012222,0.051583,0.022174,-0.004099,67.463318,7.23616,-146.338837,,,
729605410.448211,0.745474,-2.097183,-16.222675,0.030975,0.010193,1.012222,0.051583,0.022174,-0.004099,67.463318,7.23616,-146.338837,,,
729605410.451645,0.760026,-2.089139,-16.22124,0.031326,0.012695,1.008865,0.051583,0.022174,-0.004099,67.463318,7.23616,-146.338837,,,
729605410.454858,0.774811,-2.079615,-16.217782,0.031326,0.012695,1.008865,0.048712,0.041217,0.008502,67.463318,7.23616,-146.338837,,,
729605410.458228,0.774811,-2.079615,-16.217782,0.031326,0.012695,1.008865,0.048712,0.041217,0.008502,67.091293,7.186371,-146.539246,,,
729605410.461533,0.786871,-2.067217,-16.213435,0.026077,0.013794,1.003601,0.048712,0.041217,0.008502,67.091293,7.186371,-146.539246,,,
729605410.464885,0.786871,-2.067217,-16.213435,0.026077,0.013794,1.003601,0.030957,0.052322,0.015868,67.091293,7.186371,-146.539246,,,
729605410.468261,0.798243,-2.053436,-16.208666,0.026077,0.013794,1.003601,0.030957,0.052322,0.015868,67.091293,7.186371,-146.539246,,,
729605410.471531,0.805121,-2.03972,-16.203938,0.0271,0.016602,0.998795,0.030957,0.052322,0.015868,67.091293,7.186371,-146.539246,,,
729605410.474874,0.805121,-2.027555,-16.200737,0.0271,0.016602,0.998795,0.00946,0.046856,0.006813,67.091293,7.186371,-146.539246,,,
729605410.478197,0.811081,-2.027555,-16.200737,0.0271,0.016602,0.998795,0.00946,0.046856,0.006813,67.091293,7.186371,-146.539246,,,
729605410.481538,0.812764,-2.01819,-16.199565,0.031464,0.024033,0.988754,0.00946,0.046856,0.006813,67.091293,7.186371,-146.539246,,,
729605410.484928,0.812764,-2.01819,-16.199565,0.031464,0.024033,0.988754,-0.005357,0.022046,-0.00898,67.091293,7.186371,-146.539246,,,
729605410.488262,0.813564,-2.012334,-16.20079,0.031464,0.024033,0.988754,-0.005357,0.022046,-0.00898,67.091293,7.186371,-146.539246,,,
729605410.491547,0.810291,-2.009816,-16.204811,0.030777,0.029526,0.984894,-0.005357,0.022046,-0.00898,67.091293,7.186371,-146.539246,,,
729605410.494861,0.810291,-2.009816,-16.204811,0.030777,0.029526,0.984894,-0.018867,-0.006445,-0.024826,67.091293,7.186371,-146.539246,,,
729605410.498217,0.806674,-2.012506,-16.210986,0.030777,0.029526,0.984894,-0.018867,-0.006445,-0.024826,67.091293,7.186371,-146.539246,,,
729605410.501648,0.799379,-2.019763,-16.218736,0.030731,0.026184,0.982742,-0.018867,-0.006445,-0.024826,67.390717,7.327682,-146.493805,,,
729605410.50485,0.799379,-2.019763,-16.218736,0.030731,0.026184,0.982742,-0.034371,-0.042828,-0.035094,67.390717,7.327682,-146.493805,,,
729605410.508207,0.791472,-2.031983,-16.228155,0.030731,0.026184,0.982742,-0.034371,-0.042828,-0.035094,67.390717,7.327682,-146.493805,,,
729605410.511539,0.781856,-2.047599,-16.23855,0.029861,0.023026,0.98262,-0.034371,-0.042828,-0.035094,67.390717,7.327682,-146.493805,,,
729605410.514875,0.781856,-2.047599,-16.23855,0.029861,0.023026,0.98262,-0.034428,-0.06285,-0.041313,67.390717,7.327682,-146.493805,,,
729605410.518268,0.772156,-2.064681,-16.249579,0.029861,0.023026,0.98262,-0.034428,-0.06285,-0.041313,67.390717,7.327682,-146.493805,,,
729605410.521548,0.763613,-2.082823,-16.26064,0.02861,0.019196,0.994781,-0.034428,-0.06285,-0.041313,67.390717,7.327682,-146.493805,,,
729605410.524948,0.763613,-2.082823,-16.26064,0.02861,0.019196,0.994781,-0.024989,-0.055748,-0.03375,67.390717,7.327682,-146.493805,,,
729605410.528262,0.756107,-2.09931,-16.270682,0.02861,0.019196,0.994781,-0.024989,-0.055748,-0.03375,67.390717,7.327682,-146.493805,,,
729605410.531535,0.751295,-2.114215,-16.278936,0.023804,0.011353,1.009796,-0.024989,-0.055748,-0.03375,67.390717,7.327682,-146.493805,,,
729605410.534934,0.751295,-2.114215,-16.278936,0.023804,0.011353,1.009796,-0.003627,-0.026484,-0.018658,67.390717,7.327682,-146.493805,,,
729605410.538228,0.749421,-2.123745,-16.285002,0.023804,0.011353,1.009796,-0.003627,-0.026484,-0.018658,67.390717,7.327682,-146.493805,,,
729605410.541548,0.750714,-2.13005,-16.289328,0.025696,0.00856,1.025864,-0.003627,-0.026484,-0.018658,67.488922,7.08226,-146.469025,,,
729605410.544937,0.750714,-2.13005,-16.289328,0.025696,0.00856,1.025864,0.015462,-0.005479,-0.010824,67.488922,7.08226,-146.469025,,,
729605410.548208,0.755022,-2.131318,-16.2925,0.025696,0.00856,1.025864,0.015462,-0.005479,-0.010824,67.488922,7.08226,-146.469025,,,
729605410.551591,0.761367,-2.131933,-16.293746,0.026108,0.005966,1.020233,0.015462,-0.005479,-0.010824,67.488922,7.08226,-146.469025,,,
729605410.554967,0.761367,-2.131933,-16.293746,0.026108,0.005966,1.020233,0.028847,0.013494,0.000422,67.488922,7.08226,-146.469025,,,
729605410.558221,0.770231,-2.128577,-16.292834,0.026108,0.005966,1.020233,0.028847,0.013494,0.000422,67.488922,7.08226,-146.469025,,,
729605410.56154,0.778446,-2.123052,-16.290787,0.019135,0.001801,1.016922,0.028847,0.013494,0.000422,67.488922,7.08226,-146.469025,,,
729605410.564933,0.778446,-2.123052,-16.290787,0.019135,0.001801,1.016922,0.03178,0.02872,0.006658,67.488922,7.08226,-146.469025,,,
729605410.568241,0.78873,-2.115072,-16.288536,0.019135,0.001801,1.016922,0.03178,0.02872,0.006658,67.488922,7.08226,-146.469025,,,
729605410.571523,0.795638,-2.108906,-16.286294,0.018326,0.00415,1.008667,0.03178,0.02872,0.006658,67.488922,7.08226,-146.469025,,,
729605410.574879,0.795638,-2.108906,-16.286294,0.018326,0.00415,1.008667,0.03178,0.02872,0.006658,67.488922,7.08226,-146.469025,,,
729605410.57799,0.802958,-2.104821,-16.284282,0.018326,0.00415,1.008667,0.020278,0.013775,0.00433,67.488922,7.08226,-146.469025,,,
729605410.581555,0.805769,-2.104872,-16.282866,0.01918,0.010773,0.991638,0.020278,0.013775,0.00433,67.412216,6.876221,-146.292984,,,
729605410.58487,0.805769,-2.104872,-16.282866,0.01918,0.010773,0.991638,0.020278,0.013775,0.00433,67.412216,6.876221,-146.292984,,,
729605410.588216,0.808113,-2.106787,-16.281775,0.01918,0.010773,0.991638,0.000718,-0.009781,0.000815,67.412216,6.876221,-146.292984,,,
729605410.591543,0.806695,-2.112243,-16.2816,0.016602,0.012451,0.98558,0.000718,-0.009781,0.000815,67.412216,6.876221,-146.292984,,,
729605410.594903,0.806695,-2.112243,-16.2816,0.016602,0.012451,0.98558,0.000718,-0.009781,0.000815,67.412216,6.876221,-146.292984,,,
729605410.598221,0.804683,-2.119888,-16.28274,0.016602,0.012451,0.98558,-0.010545,-0.030825,-0.006629,67.412216,6.876221,-146.292984,,,
729605410.601596,0.800749,-2.132579,-16.284948,0.023621,0.014008,0.985489,-0.010545,-0.030825,-0.006629,67.412216,6.876221,-146.292984,,,
729605410.604857,0.800749,-2.132579,-16.284948,0.023621,0.014008,0.985489,-0.010545,-0.030825,-0.006629,67.412216,6.876221,-146.292984,,,
729605410.608218,0.79767,-2.147069,-16.288703,0.023621,0.014008,0.985489,-0.012437,-0.057641,-0.01699,67.412216,6.876221,-146.292984,,,
729605410.611537,0.794965,-2.165884,-16.293939,0.034027,0.015945,0.991226,-0.012437,-0.057641,-0.01699,67.412216,6.876221,-146.292984,,,
729605410.614943,0.794965,-2.165884,-16.293939,0.034027,0.015945,0.991226,-0.012437,-0.057641,-0.01699,67.412216,6.876221,-146.292984,,,
729605410.618245,0.792035,-2.184011,-16.300585,0.034027,0.015945,0.991226,-0.007464,-0.066995,-0.027627,67.412216,6.876221,-146.292984,,,
729605410.621532,0.790717,-2.203633,-16.308398,0.040497,0.017273,0.994308,-0.007464,-0.066995,-0.027627,67.324432,7.062515,-146.54129,,,
729605410.624876,0.790717,-2.203633,-16.308398,0.040497,0.017273,0.994308,-0.007464,-0.066995,-0.027627,67.324432,7.062515,-146.54129,,,
729605410.628249,0.789396,-2.218359,-16.317085,0.040497,0.017273,0.994308,-0.001274,-0.053365,-0.031289,67.324432,7.062515,-146.54129,,,
729605410.631539,0.789621,-2.230927,-16.326114,0.04541,0.019897,0.996765,-0.001274,-0.053365,-0.031289,67.324432,7.062515,-146.54129,,,
729605410.634928,0.789621,-2.230927,-16.326114,0.04541,0.019897,0.996765,-0.001274,-0.053365,-0.031289,67.324432,7.062515,-146.54129,,,
729605410.638216,0.79074,-2.237114,-16.334538,0.04541,0.019897,0.996765,0.012804,-0.025038,-0.03139,67.324432,7.062515,-146.54129,,,
729605410.641622,0.797124,-2.242598,-16.341602,0.046661,0.015518,0.999832,0.012804,-0.025038,-0.03139,67.324432,7.062515,-146.54129,,,
729605410.644861,0.797124,-2.242598,-16.341602,0.046661,0.015518,0.999832,0.012804,-0.025038,-0.03139,67.324432,7.062515,-146.54129,,,
729605410.648201,0.804084,-2.242164,-16.345845,0.046661,0.015518,0.999832,0.033271,-0.00279,-0.014041,67.324432,7.062515,-146.54129,,,
729605410.651599,0.81418,-2.24114,-16.34661,0.043182,0.010513,1.000076,0.033271,-0.00279,-0.014041,67.324432,7.062515,-146.54129,,,
729605410.654888,0.81418,-2.24114,-16.34661,0.043182,0.010513,1.000076,0.033271,-0.00279,-0.014041,67.324432,7.062515,-146.54129,,,
729605410.658216,0.822292,-2.233579,-16.344749,0.043182,0.010513,1.000076,0.030595,0.020597,0.007237,67.324432,7.062515,-146.54129,,,
729605410.661526,0.829073,-2.226499,-16.340056,0.030258,0.004379,0.990875,0.030595,0.020597,0.007237,67.324432,7.062515,-146.54129,,,
729605410.665008,0.829073,-2.226499,-16.340056,0.030258,0.004379,0.990875,0.030595,0.020597,0.007237,67.265137,6.986847,-146.635254,,,
729605410.668261,0.832666,-2.21395,-16.333124,0.030258,0.004379,0.990875,0.01415,0.037917,0.025445,67.265137,6.986847,-146.635254,,,
729605410.671537,0.834143,-2.203933,-16.325651,0.025345,0.006454,0.986938,0.01415,0.037917,0.025445,67.265137,6.986847,-146.635254,,,
729605410.674858,0.834143,-2.203933,-16.325651,0.025345,0.006454,0.986938,0.01415,0.037917,0.025445,67.265137,6.986847,-146.635254,,,
729605410.678072,0.833148,-2.19171,-16.319199,0.025345,0.006454,0.986938,-0.003858,0.032616,0.019586,67.265137,6.986847,-146.635254,,,
729605410.681555,0.829144,-2.184474,-16.314571,0.029602,0.011658,0.983505,-0.003858,0.032616,0.019586,67.265137,6.986847,-146.635254,,,
729605410.684963,0.829144,-2.184474,-16.314571,0.029602,0.011658,0.983505,-0.003858,0.032616,0.019586,67.265137,6.986847,-146.635254,,,
729605410.68805,0.821731,-2.178299,-16.312149,0.029602,0.011658,0.983505,-0.030708,0.016702,0.008101,67.265137,6.986847,-146.635254,,,
729605410.69164,0.811,-2.176306,-16.311892,0.03096,0.015076,0.975266,-0.030708,0.016702,0.008101,67.265137,6.986847,-146.635254,,,
729605410.694864,0.811,-2.176306,-16.311892,0.03096,0.015076,0.975266,-0.030708,0.016702,0.008101,67.265137,6.986847,-146.635254,,,
729605410.6982,0.798069,-2.177042,-16.313727,0.03096,0.015076,0.975266,-0.045988,0.000172,-0.008899,67.265137,6.986847,-146.635254,,,
729605410.701579,0.783387,-2.181347,-16.31774,0.031616,0.017334,0.976089,-0.045988,0.000172,-0.008899,67.265137,6.986847,-146.635254,,,
729605410.704859,0.783387,-2.181347,-16.31774,0.031616,0.017334,0.976089,-0.045988,0.000172,-0.008899,67.262924,7.205765,-146.729446,,,
729605410.708233,0.768317,-2.190536,-16.323427,0.031616,0.017334,0.976089,-0.05707,-0.030163,-0.018461,67.262924,7.205765,-146.729446,,,
729605410.711617,0.752409,-2.203174,-16.330236,0.037872,0.017105,0.976822,-0.05707,-0.030163,-0.018461,67.262924,7.205765,-146.729446,,,
729605410.714857,0.752409,-2.203174,-16.330236,0.037872,0.017105,0.976822,-0.05707,-0.030163,-0.018461,67.262924,7.205765,-146.729446,,,
729605410.718258,0.738344,-2.22074,-16.337615,0.037872,0.017105,0.976822,-0.052615,-0.057808,-0.026298,67.262924,7.205765,-146.729446,,,
729605410.721538,0.724543,-2.240072,-16.344497,0.042206,0.013428,0.985031,-0.052615,-0.057808,-0.026298,67.262924,7.205765,-146.729446,,,
729605410.72487,0.724543,-2.240072,-16.344497,0.042206,0.013428,0.985031,-0.052615,-0.057808,-0.026298,67.262924,7.205765,-146.729446,,,
729605410.72831,0.711886,-2.26222,-16.350657,0.042206,0.013428,0.985031,-0.044831,-0.069353,-0.022829,67.262924,7.205765,-146.729446,,,
729605410.73151,0.700235,-2.283391,-16.35662,0.042572,0.00972,0.993835,-0.044831,-0.069353,-0.022829,67.262924,7.205765,-146.729446,,,
729605410.734934,0.700235,-2.283391,-16.35662,0.042572,0.00972,0.993835,-0.044831,-0.069353,-0.022829,67.262924,7.205765,-146.729446,,,
729605410.738257,0.689491,-2.303204,-16.361619,0.042572,0.00972,0.993835,-0.034729,-0.06469,-0.015938,67.262924,7.205765,-146.729446,,,
729605410.741553,0.680834,-2.320332,-16.365083,0.045914,0.004303,0.998627,-0.034729,-0.06469,-0.015938,67.262924,7.205765,-146.729446,,,
729605410.74488,0.680834,-2.320332,-16.365083,0.045914,0.004303,0.998627,-0.034729,-0.06469,-0.015938,67.310715,7.189133,-146.382523,,,
729605410.748216,0.672482,-2.330748,-16.367679,0.045914,0.004303,0.998627,-0.022629,-0.034243,-0.008102,67.310715,7.189133,-146.382523,,,
729605410.751575,0.666747,-2.337046,-16.369381,0.053146,0.003952,1.012009,-0.022629,-0.034243,-0.008102,67.310715,7.189133,-146.382523,,,
729605410.754867,0.666747,-2.337046,-16.369381,0.053146,0.003952,1.012009,-0.022629,-0.034243,-0.008102,67.310715,7.189133,-146.382523,,,
729605410.758192,0.661727,-2.336337,-16.369628,0.053146,0.003952,1.012009,-0.013523,0.002445,-0.00236,67.310715,7.189133,-146.382523,,,
729605410.761539,0.657867,-2.333353,-16.368766,0.056396,0.005447,1.012756,-0.013523,0.002445,-0.00236,67.310715,7.189133,-146.382523,,,
729605410.764862,0.657867,-2.333353,-16.368766,0.056396,0.005447,1.012756,-0.013523,0.002445,-0.00236,67.310715,7.189133,-146.382523,,,
729605410.768262,0.654169,-2.324404,-16.367692,0.056396,0.005447,1.012756,-0.013785,0.033131,0.000395,67.310715,7.189133,-146.382523,,,
729605410.771536,0.649304,-2.313103,-16.36709,0.050766,0.00882,1.00769,-0.013785,0.033131,0.000395,67.310715,7.189133,-146.382523,,,
729605410.774861,0.649304,-2.313103,-16.36709,0.050766,0.00882,1.00769,-0.013785,0.033131,0.000395,67.310715,7.189133,-146.382523,,,
729605410.778214,0.644115,-2.298754,-16.36716,0.050766,0.00882,1.00769,-0.021187,0.049306,-0.000864,67.310715,7.189133,-146.382523,,,
729605410.78154,0.637842,-2.28588,-16.368135,0.051559,0.012665,0.99884,-0.021187,0.049306,-0.000864,67.310715,7.189133,-146.382523,,,
729605410.784972,0.637842,-2.28588,-16.368135,0.051559,0.012665,0.99884,-0.021187,0.049306,-0.000864,67.130402,7.381027,-146.241806,,,
729605410.788213,0.632083,-2.27383,-16.370416,0.051559,0.012665,0.99884,-0.022984,0.038562,-0.009393,67.130402,7.381027,-146.241806,,,
729605410.791538,0.624736,-2.265366,-16.374052,0.044861,0.013474,0.992798,-0.022984,0.038562,-0.009393,67.130402,7.381027,-146.241806,,,
