Time (sec),Pitch (deg),Roll (deg),Yaw(deg),X-Acceleration (g),Y-Acceleration (g),Z-Acceleration (g),Pitch Rate (deg/sec),Roll Rate (deg/sec),Yaw Rate (deg/sec),Magnetic Field in X direction (uT),Magnetic Field in Y direction (uT),Magnetic Field in Z Direction (uT),Latitude (deg),Longitude (deg),Altitude (m)
729606184.402251,-2.631788,0.307531,44.106352,-0.010651,-0.044067,0.985672,-0.017582,-0.040254,-0.022476,64.153336,23.588623,-150.778534,,,
729606184.405593,-2.631788,0.307531,44.106352,-0.010651,-0.044067,0.985672,-0.017582,-0.040254,-0.022476,64.153336,23.588623,-150.778534,,,
729606184.408918,-2.638439,0.295233,44.100292,-0.010651,-0.044067,0.985672,-0.017582,-0.040254,-0.022476,64.153336,23.588623,-150.778534,,,
729606184.412268,-2.644565,0.280208,44.094614,-0.008087,-0.044739,0.993103,-0.020746,-0.050166,-0.021267,64.153336,23.588623,-150.778534,,,
729606184.415572,-2.644565,0.280208,44.094614,-0.008087,-0.044739,0.993103,-0.020746,-0.050166,-0.021267,64.153336,23.588623,-150.778534,,,
729606184.418921,-2.650244,0.264185,44.088733,-0.008087,-0.044739,0.993103,-0.020746,-0.050166,-0.021267,64.153336,23.588623,-150.778534,,,
729606184.422247,-2.654748,0.251046,44.083349,-0.008514,-0.047928,1.004303,-0.009745,-0.042513,-0.018853,64.153336,23.588623,-150.778534,,,
729606184.425632,-2.654748,0.251046,44.083349,-0.008514,-0.047928,1.004303,-0.009745,-0.042513,-0.018853,64.153336,23.588623,-150.778534,,,
729606184.428918,-2.657676,0.240189,44.078985,-0.008514,-0.047928,1.004303,-0.009745,-0.042513,-0.018853,64.153336,23.588623,-150.778534,,,
729606184.432238,-2.658672,0.233241,44.075622,-0.004944,-0.0513,1.012802,-0.002528,-0.016332,-0.013559,64.153336,23.588623,-150.778534,,,
729606184.435584,-2.658672,0.233241,44.075622,-0.004944,-0.0513,1.012802,-0.002528,-0.016332,-0.013559,64.153336,23.588623,-150.778534,,,
729606184.438911,-2.656439,0.232901,44.074136,-0.004944,-0.0513,1.012802,-0.002528,-0.016332,-0.013559,64.071594,23.770996,-151.002396,,,
729606184.442243,-2.650286,0.235419,44.07467,-0.006439,-0.057098,1.024536,0.024448,0.012096,0.003954,64.071594,23.770996,-151.002396,,,
729606184.445582,-2.650286,0.235419,44.07467,-0.006439,-0.057098,1.024536,0.024448,0.012096,0.003954,64.071594,23.770996,-151.002396,,,
729606184.448915,-2.641195,0.241557,44.077254,-0.006439,-0.057098,1.024536,0.024448,0.012096,0.003954,64.071594,23.770996,-151.002396,,,
729606184.452245,-2.630016,0.247776,44.081087,-0.009048,-0.059967,1.021729,0.044201,0.025648,0.013376,64.071594,23.770996,-151.002396,,,
729606184.45557,-2.630016,0.247776,44.081087,-0.009048,-0.059967,1.021729,0.044201,0.025648,0.013376,64.071594,23.770996,-151.002396,,,
729606184.458915,-2.616232,0.256931,44.0848,-0.009048,-0.059967,1.021729,0.044201,0.025648,0.013376,64.071594,23.770996,-151.002396,,,
729606184.462243,-2.6025,0.26546,44.087443,-0.004227,-0.050323,1.011261,0.048392,0.03174,0.008706,64.071594,23.770996,-151.002396,,,
729606184.465577,-2.6025,0.26546,44.087443,-0.004227,-0.050323,1.011261,0.048392,0.03174,0.008706,64.071594,23.770996,-151.002396,,,
729606184.468907,-2.589616,0.278609,44.088512,-0.004227,-0.050323,1.011261,0.048392,0.03174,0.008706,64.071594,23.770996,-151.002396,,,
729606184.472249,-2.579349,0.285098,44.087025,-0.000458,-0.043701,0.995163,0.035777,0.024504,-0.006151,64.071594,23.770996,-151.002396,,,
729606184.475588,-2.579349,0.285098,44.087025,-0.000458,-0.043701,0.995163,0.035777,0.024504,-0.006151,64.071594,23.770996,-151.002396,,,
729606184.479018,-2.57161,0.292296,44.084721,-0.000458,-0.043701,0.995163,0.035777,0.024504,-0.006151,64.071594,23.770996,-151.002396,,,
729606184.482244,-2.565854,0.292931,44.08171,-0.005981,-0.044006,0.979263,0.020854,0.003372,-0.012362,64.323807,23.449677,-151.018341,,,
729606184.485591,-2.565854,0.292931,44.08171,-0.005981,-0.044006,0.979263,0.020854,0.003372,-0.012362,64.323807,23.449677,-151.018341,,,
729606184.488921,-2.56174,0.290275,44.078071,-0.005981,-0.044006,0.979263,0.020854,0.003372,-0.012362,64.323807,23.449677,-151.018341,,,
729606184.492243,-2.560005,0.281305,44.074323,-0.007248,-0.049728,0.974274,0.002671,-0.034302,-0.014097,64.323807,23.449677,-151.018341,,,
729606184.4956,-2.560005,0.281305,44.074323,-0.007248,-0.049728,0.974274,0.002671,-0.034302,-0.014097,64.323807,23.449677,-151.018341,,,
729606184.498911,-2.561578,0.269512,44.070623,-0.007248,-0.049728,0.974274,0.002671,-0.034302,-0.014097,64.323807,23.449677,-151.018341,,,
729606184.502326,-2.5663,0.253766,44.06727,-0.004654,-0.05278,0.969116,-0.018625,-0.052627,-0.012297,64.323807,23.449677,-151.018341,,,
729606184.505606,-2.5663,0.253766,44.06727,-0.004654,-0.05278,0.969116,-0.018625,-0.052627,-0.012297,64.323807,23.449677,-151.018341,,,
729606184.508924,-2.57512,0.237162,44.064475,-0.004654,-0.05278,0.969116,-0.018625,-0.052627,-0.012297,64.323807,23.449677,-151.018341,,,
729606184.512245,-2.585849,0.219123,44.061552,-0.001663,-0.054581,0.968918,-0.038356,-0.06005,-0.010524,64.323807,23.449677,-151.018341,,,
729606184.515614,-2.585849,0.219123,44.061552,-0.001663,-0.054581,0.968918,-0.038356,-0.06005,-0.010524,64.323807,23.449677,-151.018341,,,
729606184.518924,-2.599809,0.201969,44.057972,-0.001663,-0.054581,0.968918,-0.038356,-0.06005,-0.010524,64.323807,23.449677,-151.018341,,,
729606184.522249,-2.612483,0.186244,44.054612,0.007904,-0.053436,0.974228,-0.043493,-0.049202,-0.014009,64.17543,23.638733,-150.996918,,,
729606184.525575,-2.612483,0.186244,44.054612,0.007904,-0.053436,0.974228,-0.043493,-0.049202,-0.014009,64.17543,23.638733,-150.996918,,,
729606184.529013,-2.628077,0.174144,44.052121,0.007904,-0.053436,0.974228,-0.043493,-0.049202,-0.014009,64.17543,23.638733,-150.996918,,,
729606184.53224,-2.640695,0.163969,44.050295,0.013016,-0.056519,0.98494,-0.041816,-0.028747,-0.006795,64.17543,23.638733,-150.996918,,,
729606184.535592,-2.640695,0.163969,44.050295,0.013016,-0.056519,0.98494,-0.041816,-0.028747,-0.006795,64.17543,23.638733,-150.996918,,,
729606184.53897,-2.654274,0.159062,44.050163,0.013016,-0.056519,0.98494,-0.041816,-0.028747,-0.006795,64.17543,23.638733,-150.996918,,,
729606184.54224,-2.664023,0.15545,44.051176,0.016983,-0.061584,0.993454,-0.031646,-0.007494,0.002464,64.17543,23.638733,-150.996918,,,
729606184.545587,-2.664023,0.15545,44.051176,0.016983,-0.061584,0.993454,-0.031646,-0.007494,0.002464,64.17543,23.638733,-150.996918,,,
729606184.548919,-2.672595,0.154251,44.05228,0.016983,-0.061584,0.993454,-0.031646,-0.007494,0.002464,64.17543,23.638733,-150.996918,,,
729606184.552265,-2.680571,0.156827,44.052921,0.023438,-0.056107,0.98938,-0.024613,0.01369,0.000118,64.17543,23.638733,-150.996918,,,
729606184.555649,-2.680571,0.156827,44.052921,0.023438,-0.056107,0.98938,-0.024613,0.01369,0.000118,64.17543,23.638733,-150.996918,,,
729606184.55889,-2.687893,0.16389,44.052422,0.023438,-0.056107,0.98938,-0.024613,0.01369,0.000118,64.17543,23.638733,-150.996918,,,
729606184.562252,-2.696752,0.177824,44.050626,0.027725,-0.046432,0.989899,-0.032136,0.059364,-0.011361,64.027222,23.593719,-150.977783,,,
729606184.565583,-2.696752,0.177824,44.050626,0.027725,-0.046432,0.989899,-0.032136,0.059364,-0.011361,64.027222,23.593719,-150.977783,,,
729606184.568969,-2.707226,0.200678,44.04758,0.027725,-0.046432,0.989899,-0.032136,0.059364,-0.011361,64.027222,23.593719,-150.977783,,,
729606184.572237,-2.719509,0.229562,44.043001,0.029846,-0.039932,0.989563,-0.043923,0.114215,-0.019933,64.027222,23.593719,-150.977783,,,
729606184.575584,-2.719509,0.229562,44.043001,0.029846,-0.039932,0.989563,-0.043923,0.114215,-0.019933,64.027222,23.593719,-150.977783,,,
729606184.578926,-2.734397,0.265125,44.037221,0.029846,-0.039932,0.989563,-0.043923,0.114215,-0.019933,64.027222,23.593719,-150.977783,,,
729606184.582244,-2.748677,0.303764,44.030468,0.026581,-0.040405,0.989105,-0.050531,0.142639,-0.026495,64.027222,23.593719,-150.977783,,,
729606184.585615,-2.748677,0.303764,44.030468,0.026581,-0.040405,0.989105,-0.050531,0.142639,-0.026495,64.027222,23.593719,-150.977783,,,
729606184.588929,-2.764181,0.342929,44.022811,0.026581,-0.040405,0.989105,-0.050531,0.142639,-0.026495,64.027222,23.593719,-150.977783,,,
729606184.592327,-2.777562,0.380625,44.013604,0.015442,-0.045151,0.98967,-0.045933,0.134349,-0.038033,64.027222,23.593719,-150.977783,,,
729606184.595642,-2.777562,0.380625,44.013604,0.015442,-0.045151,0.98967,-0.045933,0.134349,-0.038033,64.027222,23.593719,-150.977783,,,
729606184.598903,-2.791374,0.413278,44.002282,0.015442,-0.045151,0.98967,-0.045933,0.134349,-0.038033,64.027222,23.593719,-150.977783,,,
729606184.602245,-2.80141,0.44569,43.989918,-0.00444,-0.047531,0.992569,-0.02968,0.112171,-0.043913,64.506668,23.83786,-151.033295,,,
729606184.605587,-2.80141,0.44569,43.989918,-0.00444,-0.047531,0.992569,-0.02968,0.112171,-0.043913,64.506668,23.83786,-151.033295,,,
729606184.608979,-2.809824,0.467541,43.976428,-0.00444,-0.047531,0.992569,-0.02968,0.112171,-0.043913,64.506668,23.83786,-151.033295,,,
729606184.61225,-2.815397,0.488805,43.961814,-0.018555,-0.051437,0.996964,-0.014518,0.07528,-0.053264,64.506668,23.83786,-151.033295,,,
729606184.615655,-2.815397,0.488805,43.961814,-0.018555,-0.051437,0.996964,-0.014518,0.07528,-0.053264,64.506668,23.83786,-151.033295,,,
729606184.618915,-2.82111,0.49806,43.945642,-0.018555,-0.051437,0.996964,-0.014518,0.07528,-0.053264,64.506668,23.83786,-151.033295,,,
729606184.622275,-2.823189,0.50811,43.929066,-0.025604,-0.051682,1.002075,-0.002698,0.035912,-0.060546,64.506668,23.83786,-151.033295,,,
729606184.625579,-2.823189,0.50811,43.929066,-0.025604,-0.051682,1.002075,-0.002698,0.035912,-0.060546,64.506668,23.83786,-151.033295,,,
729606184.628913,-2.825034,0.506459,43.912159,-0.025604,-0.051682,1.002075,-0.002698,0.035912,-0.060546,64.506668,23.83786,-151.033295,,,
729606184.632243,-2.823523,0.508674,43.896242,-0.031921,-0.053635,1.007629,0.007959,0.011714,-0.054109,64.506668,23.83786,-151.033295,,,
729606184.635635,-2.823523,0.508674,43.896242,-0.031921,-0.053635,1.007629,0.007959,0.011714,-0.054109,64.506668,23.83786,-151.033295,,,
729606184.638913,-2.82233,0.498353,43.880752,-0.031921,-0.053635,1.007629,0.007959,0.011714,-0.054109,64.506668,23.83786,-151.033295,,,
729606184.642243,-2.819523,0.49682,43.867056,-0.03186,-0.055954,1.010712,0.011047,-0.001876,-0.05025,64.506668,23.83786,-151.033295,,,
729606184.645592,-2.819523,0.49682,43.867056,-0.03186,-0.055954,1.010712,0.011047,-0.001876,-0.05025,64.531281,23.743301,-150.947403,,,
729606184.648961,-2.815036,0.483166,43.853575,-0.03186,-0.055954,1.010712,0.011047,-0.001876,-0.05025,64.531281,23.743301,-150.947403,,,
729606184.652237,-2.811864,0.481949,43.840811,-0.025696,-0.049835,1.010406,0.012627,0.003007,-0.045997,64.531281,23.743301,-150.947403,,,
729606184.655583,-2.811864,0.481949,43.840811,-0.025696,-0.049835,1.010406,0.012627,0.003007,-0.045997,64.531281,23.743301,-150.947403,,,
729606184.65892,-2.807608,0.471234,43.827125,-0.025696,-0.049835,1.010406,0.012627,0.003007,-0.045997,64.531281,23.743301,-150.947403,,,
729606184.662244,-2.805831,0.474165,43.813171,-0.014282,-0.04715,1.012009,0.00896,0.019114,-0.049337,64.531281,23.743301,-150.947403,,,
729606184.665564,-2.805831,0.474165,43.813171,-0.014282,-0.04715,1.012009,0.00896,0.019114,-0.049337,64.531281,23.743301,-150.947403,,,
729606184.668915,-2.802178,0.469122,43.798603,-0.014282,-0.04715,1.012009,0.00896,0.019114,-0.049337,64.531281,23.743301,-150.947403,,,
729606184.672242,-2.799204,0.474153,43.785153,-0.013168,-0.043991,1.012772,0.01195,0.025552,-0.048158,64.531281,23.743301,-150.947403,,,
729606184.675715,-2.799204,0.474153,43.785153,-0.013168,-0.043991,1.012772,0.01195,0.025552,-0.048158,64.531281,23.743301,-150.947403,,,
729606184.678923,-2.795319,0.47448,43.771877,-0.013168,-0.043991,1.012772,0.01195,0.025552,-0.048158,64.531281,23.743301,-150.947403,,,
729606184.682249,-2.791792,0.477844,43.759661,-0.015213,-0.044067,1.007004,0.013027,0.013099,-0.043036,64.531281,23.743301,-150.947403,,,
729606184.685569,-2.791792,0.477844,43.759661,-0.015213,-0.044067,1.007004,0.013027,0.013099,-0.043036,64.708405,23.615234,-151.345306,,,
729606184.688989,-2.789093,0.479121,43.748515,-0.015213,-0.044067,1.007004,0.013027,0.013099,-0.043036,64.708405,23.615234,-151.345306,,,
729606184.692237,-2.786662,0.477737,43.737317,-0.015274,-0.045013,0.997314,0.00948,-0.003513,-0.041011,64.708405,23.615234,-151.345306,,,
729606184.69559,-2.786662,0.477737,43.737317,-0.015274,-0.045013,0.997314,0.00948,-0.003513,-0.041011,64.708405,23.615234,-151.345306,,,
729606184.698916,-2.784442,0.477847,43.72596,-0.015274,-0.045013,0.997314,0.00948,-0.003513,-0.041011,64.708405,23.615234,-151.345306,,,
729606184.702268,-2.780711,0.47178,43.714507,-0.01149,-0.04541,0.99765,0.013939,-0.019225,-0.04005,64.708405,23.615234,-151.345306,,,
729606184.705585,-2.780711,0.47178,43.714507,-0.01149,-0.04541,0.99765,0.013939,-0.019225,-0.04005,64.708405,23.615234,-151.345306,,,
729606184.708924,-2.776909,0.469497,43.703388,-0.01149,-0.04541,0.99765,0.013939,-0.019225,-0.04005,64.708405,23.615234,-151.345306,,,
729606184.712246,-2.772363,0.459372,43.691706,-0.011353,-0.043686,0.999512,0.016208,-0.032847,-0.044943,64.708405,23.615234,-151.345306,,,
729606184.715636,-2.772363,0.459372,43.691706,-0.011353,-0.043686,0.999512,0.016208,-0.032847,-0.044943,64.708405,23.615234,-151.345306,,,
729606184.718922,-2.768767,0.45531,43.68052,-0.011353,-0.043686,0.999512,0.016208,-0.032847,-0.044943,64.708405,23.615234,-151.345306,,,
729606184.722247,-2.763129,0.442775,43.670146,-0.016037,-0.04567,1.001022,0.021201,-0.038145,-0.036737,64.708405,23.615234,-151.345306,,,
729606184.725574,-2.763129,0.442775,43.670146,-0.016037,-0.04567,1.001022,0.021201,-0.038145,-0.036737,64.687958,23.565964,-150.91745,,,
729606184.728904,-2.758066,0.438787,43.661276,-0.016037,-0.04567,1.001022,0.021201,-0.038145,-0.036737,64.687958,23.565964,-150.91745,,,
729606184.732238,-2.751449,0.429505,43.652835,-0.013824,-0.04628,1.006104,0.02921,-0.026697,-0.028958,64.687958,23.565964,-150.91745,,,
729606184.735592,-2.751449,0.429505,43.652835,-0.013824,-0.04628,1.006104,0.02921,-0.026697,-0.028958,64.687958,23.565964,-150.91745,,,
729606184.738995,-2.743463,0.426816,43.645644,-0.013824,-0.04628,1.006104,0.02921,-0.026697,-0.028958,64.687958,23.565964,-150.91745,,,
729606184.742234,-2.733244,0.421596,43.639633,-0.010422,-0.044327,1.008713,0.039608,-0.013655,-0.018497,64.687958,23.565964,-150.91745,,,
729606184.745591,-2.733244,0.421596,43.639633,-0.010422,-0.044327,1.008713,0.039608,-0.013655,-0.018497,64.687958,23.565964,-150.91745,,,
729606184.748922,-2.720912,0.41823,43.635195,-0.010422,-0.044327,1.008713,0.039608,-0.013655,-0.018497,64.687958,23.565964,-150.91745,,,
729606184.752243,-2.708694,0.412722,43.632006,-0.012375,-0.043823,1.003998,0.04381,-0.015775,-0.010122,64.687958,23.565964,-150.91745,,,
729606184.755656,-2.708694,0.412722,43.632006,-0.012375,-0.043823,1.003998,0.04381,-0.015775,-0.010122,64.687958,23.565964,-150.91745,,,
729606184.759985,-2.696531,0.409693,43.629622,-0.012375,-0.043823,1.003998,0.04381,-0.015775,-0.010122,64.687958,23.565964,-150.91745,,,
729606184.762128,-2.686534,0.405127,43.626671,-0.007431,-0.039566,0.990982,0.034497,-0.011259,-0.010565,64.687958,23.565964,-150.91745,,,
729606184.765667,-2.686534,0.405127,43.626671,-0.007431,-0.039566,0.990982,0.034497,-0.011259,-0.010565,64.687958,23.565964,-150.91745,,,
729606184.76891,-2.6777,0.403162,43.623183,-0.007431,-0.039566,0.990982,0.034497,-0.011259,-0.010565,64.590057,23.35556,-151.244644,,,
729606184.772245,-2.671002,0.396726,43.618461,-0.002823,-0.031372,0.983582,0.022759,-0.019749,-0.022408,64.590057,23.35556,-151.244644,,,
729606184.775586,-2.671002,0.396726,43.618461,-0.002823,-0.031372,0.983582,0.022759,-0.019749,-0.022408,64.590057,23.35556,-151.244644,,,
729606184.778901,-2.666285,0.390577,43.612483,-0.002823,-0.031372,0.983582,0.022759,-0.019749,-0.022408,64.590057,23.35556,-151.244644,,,
729606184.782247,-2.664346,0.381501,43.60584,-0.000275,-0.030685,0.974213,0.006427,-0.02852,-0.026892,64.590057,23.35556,-151.244644,,,
729606184.785587,-2.664346,0.381501,43.60584,-0.000275,-0.030685,0.974213,0.006427,-0.02852,-0.026892,64.590057,23.35556,-151.244644,,,
729606184.788925,-2.663883,0.37387,43.599078,-0.000275,-0.030685,0.974213,0.006427,-0.02852,-0.026892,64.590057,23.35556,-151.244644,,,
729606184.792284,-2.666256,0.365196,43.592078,-0.003494,-0.034668,0.97963,-0.009681,-0.027877,-0.026462,64.590057,23.35556,-151.244644,,,
729606184.795623,-2.666256,0.365196,43.592078,-0.003494,-0.034668,0.97963,-0.009681,-0.027877,-0.026462,64.590057,23.35556,-151.244644,,,
729606184.799001,-2.668932,0.358025,43.585185,-0.003494,-0.034668,0.97963,-0.009681,-0.027877,-0.026462,64.590057,23.35556,-151.244644,,,
729606184.802256,-2.67076,0.34742,43.57909,-0.005386,-0.038345,0.988541,-0.005219,-0.033906,-0.020728,64.590057,23.35556,-151.244644,,,
729606184.805593,-2.67076,0.34742,43.57909,-0.005386,-0.038345,0.988541,-0.005219,-0.033906,-0.020728,64.590057,23.35556,-151.244644,,,
729606184.808958,-2.671172,0.340407,43.573985,-0.005386,-0.038345,0.988541,-0.005219,-0.033906,-0.020728,64.572723,23.505417,-151.099472,,,
729606184.812242,-2.670306,0.331322,43.568841,-0.006882,-0.042191,1.002441,0.005343,-0.026381,-0.018558,64.572723,23.505417,-151.099472,,,
729606184.815641,-2.670306,0.331322,43.568841,-0.006882,-0.042191,1.002441,0.005343,-0.026381,-0.018558,64.572723,23.505417,-151.099472,,,
729606184.818916,-2.667716,0.325721,43.564242,-0.006882,-0.042191,1.002441,0.005343,-0.026381,-0.018558,64.572723,23.505417,-151.099472,,,
729606184.822245,-2.66396,0.3198,43.560385,-0.007538,-0.043549,1.00737,0.016348,-0.016945,-0.013806,64.572723,23.505417,-151.099472,,,
729606184.825571,-2.66396,0.3198,43.560385,-0.007538,-0.043549,1.00737,0.016348,-0.016945,-0.013806,64.572723,23.505417,-151.099472,,,
729606184.828999,-2.657733,0.316976,43.557218,-0.007538,-0.043549,1.00737,0.016348,-0.016945,-0.013806,64.572723,23.505417,-151.099472,,,
729606184.832235,-2.64907,0.314869,43.554781,-0.010559,-0.042953,1.008804,0.033878,-0.003465,-0.008543,64.572723,23.505417,-151.099472,,,
729606184.835575,-2.64907,0.314869,43.554781,-0.010559,-0.042953,1.008804,0.033878,-0.003465,-0.008543,64.572723,23.505417,-151.099472,,,
729606184.838924,-2.636274,0.317436,43.553864,-0.010559,-0.042953,1.008804,0.033878,-0.003465,-0.008543,64.572723,23.505417,-151.099472,,,
729606184.842243,-2.622461,0.320306,43.553888,-0.008194,-0.043457,1.012238,0.048504,0.013988,-0.000854,64.572723,23.505417,-151.099472,,,
729606184.845678,-2.622461,0.320306,43.553888,-0.008194,-0.043457,1.012238,0.048504,0.013988,-0.000854,64.572723,23.505417,-151.099472,,,
729606184.84891,-2.606585,0.325385,43.554451,-0.008194,-0.043457,1.012238,0.048504,0.013988,-0.000854,64.667923,23.303543,-151.034576,,,
729606184.852252,-2.592436,0.332293,43.555857,-0.010147,-0.042267,0.998764,0.051049,0.028031,0.005639,64.667923,23.303543,-151.034576,,,
729606184.855651,-2.592436,0.332293,43.555857,-0.010147,-0.042267,0.998764,0.051049,0.028031,0.005639,64.667923,23.303543,-151.034576,,,
729606184.858903,-2.575795,0.339239,43.557755,-0.010147,-0.042267,0.998764,0.051049,0.028031,0.005639,64.667923,23.303543,-151.034576,,,
729606184.862246,-2.564448,0.34858,43.559943,-0.01181,-0.042358,0.990768,0.037032,0.034476,0.006601,64.667923,23.303543,-151.034576,,,
729606184.865577,-2.564448,0.34858,43.559943,-0.01181,-0.042358,0.990768,0.037032,0.034476,0.006601,64.667923,23.303543,-151.034576,,,
729606184.868987,-2.552501,0.355516,43.562283,-0.01181,-0.042358,0.990768,0.037032,0.034476,0.006601,64.667923,23.303543,-151.034576,,,
729606184.872238,-2.544984,0.36207,43.564986,-0.013351,-0.0392,0.982742,0.025301,0.024345,0.009585,64.667923,23.303543,-151.034576,,,
729606184.875584,-2.544984,0.36207,43.564986,-0.013351,-0.0392,0.982742,0.025301,0.024345,0.009585,64.667923,23.303543,-151.034576,,,
729606184.878915,-2.538242,0.364951,43.567667,-0.013351,-0.0392,0.982742,0.025301,0.024345,0.009585,64.667923,23.303543,-151.034576,,,
729606184.882243,-2.535735,0.36516,43.569678,-0.01503,-0.039444,0.977554,0.006287,0.000462,0.003592,64.667923,23.303543,-151.034576,,,
729606184.885578,-2.535735,0.36516,43.569678,-0.01503,-0.039444,0.977554,0.006287,0.000462,0.003592,64.667923,23.303543,-151.034576,,,
729606184.888912,-2.534901,0.362747,43.570453,-0.01503,-0.039444,0.977554,0.006287,0.000462,0.003592,64.686432,23.334946,-150.986923,,,
729606184.892243,-2.537059,0.358331,43.570284,-0.013824,-0.038803,0.977585,-0.01108,-0.013379,-0.001374,64.686432,23.334946,-150.986923,,,
729606184.895646,-2.537059,0.358331,43.570284,-0.013824,-0.038803,0.977585,-0.01108,-0.013379,-0.001374,64.686432,23.334946,-150.986923,,,
729606184.898917,-2.541369,0.352961,43.570007,-0.013824,-0.038803,0.977585,-0.01108,-0.013379,-0.001374,64.686432,23.334946,-150.986923,,,
729606184.902235,-2.546611,0.347091,43.570437,-0.013351,-0.040237,0.981552,-0.018386,-0.017041,0.000243,64.686432,23.334946,-150.986923,,,
729606184.905588,-2.546611,0.347091,43.570437,-0.013351,-0.040237,0.981552,-0.018386,-0.017041,0.000243,64.686432,23.334946,-150.986923,,,
729606184.908974,-2.550704,0.342436,43.571903,-0.013351,-0.040237,0.981552,-0.018386,-0.017041,0.000243,64.686432,23.334946,-150.986923,,,
729606184.912228,-2.554837,0.337267,43.574147,-0.011734,-0.044434,0.991379,-0.015423,-0.014974,0.005827,64.686432,23.334946,-150.986923,,,
729606184.915582,-2.554837,0.337267,43.574147,-0.011734,-0.044434,0.991379,-0.015423,-0.014974,0.005827,64.686432,23.334946,-150.986923,,,
729606184.918921,-2.557776,0.334111,43.577373,-0.011734,-0.044434,0.991379,-0.015423,-0.014974,0.005827,64.686432,23.334946,-150.986923,,,
729606184.922234,-2.55891,0.330788,43.58178,-0.008133,-0.050064,0.997131,-0.000174,-0.009557,0.01575,64.686432,23.334946,-150.986923,,,
729606184.925588,-2.55891,0.330788,43.58178,-0.008133,-0.050064,0.997131,-0.000174,-0.009557,0.01575,64.686432,23.334946,-150.986923,,,
729606184.928915,-2.556776,0.328402,43.587122,-0.008133,-0.050064,0.997131,-0.000174,-0.009557,0.01575,64.686432,23.334946,-150.986923,,,
729606184.932236,-2.552655,0.325695,43.593028,-0.004639,-0.050018,1.00296,0.019524,-0.005255,0.019309,64.721817,23.323227,-150.867584,,,
729606184.935652,-2.552655,0.325695,43.593028,-0.004639,-0.050018,1.00296,0.019524,-0.005255,0.019309,64.721817,23.323227,-150.867584,,,
729606184.93892,-2.545404,0.324979,43.599418,-0.004639,-0.050018,1.00296,0.019524,-0.005255,0.019309,64.721817,23.323227,-150.867584,,,
729606184.942247,-2.536603,0.323079,43.605953,0.000931,-0.046448,1.007156,0.032067,-0.003005,0.020973,64.721817,23.323227,-150.867584,,,
729606184.945593,-2.536603,0.323079,43.605953,0.000931,-0.046448,1.007156,0.032067,-0.003005,0.020973,64.721817,23.323227,-150.867584,,,
729606184.94897,-2.5273,0.325376,43.612326,0.000931,-0.046448,1.007156,0.032067,-0.003005,0.020973,64.721817,23.323227,-150.867584,,,
729606184.952257,-2.51924,0.328289,43.617914,0.001038,-0.044601,1.001984,0.026407,0.010899,0.019175,64.721817,23.323227,-150.867584,,,
729606184.955577,-2.51924,0.328289,43.617914,0.001038,-0.044601,1.001984,0.026407,0.010899,0.019175,64.721817,23.323227,-150.867584,,,
729606184.958913,-2.511794,0.337047,43.622608,0.001038,-0.044601,1.001984,0.026407,0.010899,0.019175,64.721817,23.323227,-150.867584,,,
729606184.962236,-2.507034,0.345204,43.625359,0.01123,-0.042999,1.002548,0.015266,0.030988,0.005771,64.721817,23.323227,-150.867584,,,
729606184.965575,-2.507034,0.345204,43.625359,0.01123,-0.042999,1.002548,0.015266,0.030988,0.005771,64.721817,23.323227,-150.867584,,,
729606184.968924,-2.502925,0.357019,43.627457,0.01123,-0.042999,1.002548,0.015266,0.030988,0.005771,64.721817,23.323227,-150.867584,,,
729606184.972234,-2.501758,0.3653,43.629347,0.007156,-0.041214,0.994904,0.001013,0.03333,0.006059,64.693954,23.572632,-151.091537,,,
729606184.97566,-2.501758,0.3653,43.629347,0.007156,-0.041214,0.994904,0.001013,0.03333,0.006059,64.693954,23.572632,-151.091537,,,
729606184.978928,-2.502182,0.375953,43.631121,0.007156,-0.041214,0.994904,0.001013,0.03333,0.006059,64.693954,23.572632,-151.091537,,,
729606184.982331,-2.505695,0.383123,43.632792,0.000168,-0.044342,0.987808,-0.011907,0.028143,0.004014,64.693954,23.572632,-151.091537,,,
729606184.985584,-2.505695,0.383123,43.632792,0.000168,-0.044342,0.987808,-0.011907,0.028143,0.004014,64.693954,23.572632,-151.091537,,,
729606184.988963,-2.510923,0.389949,43.634046,0.000168,-0.044342,0.987808,-0.011907,0.028143,0.004014,64.693954,23.572632,-151.091537,,,
729606184.992239,-2.517075,0.390836,43.634612,-0.000381,-0.045944,0.987167,-0.020438,0.001909,-1.1e-05,64.693954,23.572632,-151.091537,,,
729606184.995595,-2.517075,0.390836,43.634612,-0.000381,-0.045944,0.987167,-0.020438,0.001909,-1.1e-05,64.693954,23.572632,-151.091537,,,
729606184.998914,-2.523813,0.388754,43.634647,-0.000381,-0.045944,0.987167,-0.020438,0.001909,-1.1e-05,64.693954,23.572632,-151.091537,,,
729606185.002293,-2.529645,0.381421,43.633719,-0.003296,-0.049286,0.989746,-0.01666,-0.030103,-0.006472,64.693954,23.572632,-151.091537,,,
729606185.005585,-2.529645,0.381421,43.633719,-0.003296,-0.049286,0.989746,-0.01666,-0.030103,-0.006472,64.693954,23.572632,-151.091537,,,
729606185.008933,-2.53473,0.370248,43.631902,-0.003296,-0.049286,0.989746,-0.01666,-0.030103,-0.006472,64.693954,23.572632,-151.091537,,,
729606185.01229,-2.535724,0.355574,43.6294,-0.004456,-0.053375,1.002548,0.002938,-0.050986,-0.009598,64.437775,23.338898,-151.302032,,,
729606185.015669,-2.535724,0.355574,43.6294,-0.004456,-0.053375,1.002548,0.002938,-0.050986,-0.009598,64.437775,23.338898,-151.302032,,,
729606185.018891,-2.533562,0.337878,43.62659,-0.004456,-0.053375,1.002548,0.002938,-0.050986,-0.009598,64.437775,23.338898,-151.302032,,,
729606185.022274,-2.526716,0.322774,43.623769,-0.002106,-0.057144,1.013901,0.02826,-0.048224,-0.012254,64.437775,23.338898,-151.302032,,,
729606185.025565,-2.526716,0.322774,43.623769,-0.002106,-0.057144,1.013901,0.02826,-0.048224,-0.012254,64.437775,23.338898,-151.302032,,,
729606185.028904,-2.517013,0.308397,43.621019,-0.002106,-0.057144,1.013901,0.02826,-0.048224,-0.012254,64.437775,23.338898,-151.302032,,,
729606185.032324,-2.50415,0.299642,43.619052,0.00354,-0.059631,1.023041,0.050102,-0.025594,-0.006492,64.437775,23.338898,-151.302032,,,
729606185.035582,-2.50415,0.299642,43.619052,0.00354,-0.059631,1.023041,0.050102,-0.025594,-0.006492,64.437775,23.338898,-151.302032,,,
729606185.038904,-2.488822,0.292339,43.617763,0.00354,-0.059631,1.023041,0.050102,-0.025594,-0.006492,64.437775,23.338898,-151.302032,,,
729606185.04232,-2.471501,0.294293,43.617184,0.008728,-0.055099,1.021423,0.063117,0.016535,-0.003472,64.437775,23.338898,-151.302032,,,
729606185.045592,-2.471501,0.294293,43.617184,0.008728,-0.055099,1.021423,0.063117,0.016535,-0.003472,64.437775,23.338898,-151.302032,,,
729606185.048982,-2.453214,0.296397,43.616388,0.008728,-0.055099,1.021423,0.063117,0.016535,-0.003472,64.437775,23.338898,-151.302032,,,
729606185.052275,-2.435682,0.307656,43.615698,0.011154,-0.047226,1.013702,0.061183,0.046439,-0.003769,64.418274,23.268417,-151.385345,,,
729606185.055588,-2.435682,0.307656,43.615698,0.011154,-0.047226,1.013702,0.061183,0.046439,-0.003769,64.418274,23.268417,-151.385345,,,
729606185.058953,-2.420053,0.319247,43.61456,0.011154,-0.047226,1.013702,0.061183,0.046439,-0.003769,64.418274,23.268417,-151.385345,,,
729606185.062325,-2.420053,0.319247,43.61456,0.011154,-0.047226,1.013702,0.042056,0.063355,-0.010269,64.418274,23.268417,-151.385345,,,
729606185.065579,-2.407563,0.336373,43.612464,0.008469,-0.042755,0.995499,0.042056,0.063355,-0.010269,64.418274,23.268417,-151.385345,,,
729606185.068912,-2.398538,0.35267,43.60907,0.008469,-0.042755,0.995499,0.042056,0.063355,-0.010269,64.418274,23.268417,-151.385345,,,
729606185.072282,-2.398538,0.35267,43.60907,0.008469,-0.042755,0.995499,0.02707,0.058358,-0.015974,64.418274,23.268417,-151.385345,,,
729606185.075656,-2.390877,0.368673,43.605303,0.002548,-0.039978,0.984406,0.02707,0.058358,-0.015974,64.418274,23.268417,-151.385345,,,
729606185.078898,-2.38571,0.379189,43.600977,0.002548,-0.039978,0.984406,0.02707,0.058358,-0.015974,64.418274,23.268417,-151.385345,,,
729606185.082268,-2.38571,0.379189,43.600977,-0.005585,-0.04097,0.978928,0.020754,0.024153,-0.018945,64.418274,23.268417,-151.385345,,,
729606185.085675,-2.380399,0.386454,43.596171,-0.005585,-0.04097,0.978928,0.020754,0.024153,-0.018945,64.418274,23.268417,-151.385345,,,
729606185.088915,-2.378848,0.386699,43.590973,-0.005585,-0.04097,0.978928,0.020754,0.024153,-0.018945,64.418274,23.268417,-151.385345,,,
729606185.092254,-2.378848,0.386699,43.590973,-0.005585,-0.04097,0.978928,0.020754,0.024153,-0.018945,64.418274,23.268417,-151.385345,,,
729606185.095596,-2.377878,0.382817,43.585257,-0.015625,-0.042053,0.971176,0.004638,-0.012354,-0.019349,64.36734,23.286942,-151.402542,,,
729606185.098915,-2.382328,0.374423,43.579047,-0.015625,-0.042053,0.971176,0.004638,-0.012354,-0.019349,64.36734,23.286942,-151.402542,,,
729606185.10231,-2.382328,0.374423,43.579047,-0.015625,-0.042053,0.971176,-0.021086,-0.035951,-0.026954,64.36734,23.286942,-151.402542,,,
729606185.105636,-2.387442,0.36378,43.571926,-0.00943,-0.036926,0.970703,-0.021086,-0.035951,-0.026954,64.36734,23.286942,-151.402542,,,
729606185.10892,-2.398667,0.348521,43.563301,-0.00943,-0.036926,0.970703,-0.021086,-0.035951,-0.026954,64.36734,23.286942,-151.402542,,,
729606185.112304,-2.398667,0.348521,43.563301,-0.00943,-0.036926,0.970703,-0.021086,-0.035951,-0.026954,64.36734,23.286942,-151.402542,,,
729606185.115571,-2.408667,0.333295,43.553601,0.004623,-0.034058,0.972382,-0.034745,-0.05121,-0.037394,64.36734,23.286942,-151.402542,,,
729606185.118931,-2.423302,0.314408,43.542582,0.004623,-0.034058,0.972382,-0.034745,-0.05121,-0.037394,64.36734,23.286942,-151.402542,,,
729606185.122297,-2.423302,0.314408,43.542582,0.004623,-0.034058,0.972382,-0.034745,-0.05121,-0.037394,64.36734,23.286942,-151.402542,,,
729606185.125597,-2.435672,0.301225,43.530603,0.008545,-0.034653,0.977661,-0.044435,-0.036827,-0.045733,64.36734,23.286942,-151.402542,,,
729606185.128924,-2.450091,0.285838,43.517743,0.008545,-0.034653,0.977661,-0.044435,-0.036827,-0.045733,64.36734,23.286942,-151.402542,,,
729606185.132279,-2.450091,0.285838,43.517743,0.008545,-0.034653,0.977661,-0.044435,-0.036827,-0.045733,64.36734,23.286942,-151.402542,,,
729606185.135568,-2.46198,0.277603,43.505205,0.007507,-0.037292,0.98999,-0.039965,-0.021152,-0.045168,64.542694,23.262573,-151.533737,,,
729606185.138947,-2.472713,0.266983,43.493885,0.007507,-0.037292,0.98999,-0.039965,-0.021152,-0.045168,64.542694,23.262573,-151.533737,,,
729606185.142305,-2.472713,0.266983,43.493885,0.007507,-0.037292,0.98999,-0.039965,-0.021152,-0.045168,64.542694,23.262573,-151.533737,,,
729606185.145605,-2.480541,0.264758,43.484927,0.002319,-0.043869,0.997833,-0.023979,4.2e-05,-0.031464,64.542694,23.262573,-151.533737,,,
729606185.148925,-2.486129,0.262278,43.478021,0.002319,-0.043869,0.997833,-0.023979,4.2e-05,-0.031464,64.542694,23.262573,-151.533737,,,
729606185.152303,-2.486129,0.262278,43.478021,0.002319,-0.043869,0.997833,-0.023979,4.2e-05,-0.031464,64.542694,23.262573,-151.533737,,,
729606185.155611,-2.490872,0.266922,43.47336,-0.00563,-0.048752,1.002274,-0.013398,0.022074,-0.01629,64.542694,23.262573,-151.533737,,,
729606185.158912,-2.494742,0.272424,43.470491,-0.00563,-0.048752,1.002274,-0.013398,0.022074,-0.01629,64.542694,23.262573,-151.533737,,,
729606185.162251,-2.494742,0.272424,43.470491,-0.00563,-0.048752,1.002274,-0.013398,0.022074,-0.01629,64.542694,23.262573,-151.533737,,,
729606185.165656,-2.499459,0.281307,43.468949,-0.007462,-0.044983,0.996307,-0.013468,0.034617,-0.006029,64.542694,23.262573,-151.533737,,,
729606185.168904,-2.504595,0.293243,43.467867,-0.007462,-0.044983,0.996307,-0.013468,0.034617,-0.006029,64.542694,23.262573,-151.533737,,,
729606185.172275,-2.504595,0.293243,43.467867,-0.007462,-0.044983,0.996307,-0.013468,0.034617,-0.006029,64.542694,23.262573,-151.533737,,,
729606185.175573,-2.510742,0.302993,43.466434,-0.007828,-0.039719,0.991577,-0.019145,0.03464,-0.006478,64.551498,23.069565,-151.193604,,,
729606185.179014,-2.516945,0.313738,43.464668,-0.007828,-0.039719,0.991577,-0.019145,0.03464,-0.006478,64.551498,23.069565,-151.193604,,,
729606185.182182,-2.516945,0.313738,43.464668,-0.007828,-0.039719,0.991577,-0.019145,0.03464,-0.006478,64.551498,23.069565,-151.193604,,,
729606185.185601,-2.523741,0.317337,43.462167,-0.012604,-0.038757,0.984879,-0.021988,0.013671,-0.011562,64.551498,23.069565,-151.193604,,,
729606185.188927,-2.529147,0.31585,43.458477,-0.012604,-0.038757,0.984879,-0.021988,0.013671,-0.011562,64.551498,23.069565,-151.193604,,,
729606185.192337,-2.529147,0.31585,43.458477,-0.012604,-0.038757,0.984879,-0.021988,0.013671,-0.011562,64.551498,23.069565,-151.193604,,,
729606185.19556,-2.53582,0.310728,43.453241,-0.014175,-0.038406,0.982635,-0.021517,-0.017175,-0.02053,64.551498,23.069565,-151.193604,,,
729606185.198923,-2.540127,0.298718,43.446543,-0.014175,-0.038406,0.982635,-0.021517,-0.017175,-0.02053,64.551498,23.069565,-151.193604,,,
729606185.202283,-2.540127,0.298718,43.446543,-0.014175,-0.038406,0.982635,-0.021517,-0.017175,-0.02053,64.551498,23.069565,-151.193604,,,
729606185.205619,-2.54594,0.288264,43.43915,-0.013306,-0.037888,0.980942,-0.019981,-0.036469,-0.026243,64.551498,23.069565,-151.193604,,,
729606185.208902,-2.550915,0.272455,43.43127,-0.013306,-0.037888,0.980942,-0.019981,-0.036469,-0.026243,64.551498,23.069565,-151.193604,,,
729606185.212282,-2.550915,0.272455,43.43127,-0.013306,-0.037888,0.980942,-0.019981,-0.036469,-0.026243,64.551498,23.069565,-151.193604,,,
729606185.215649,-2.558621,0.259376,43.423777,-0.012787,-0.040314,0.978333,-0.029428,-0.039994,-0.024826,64.551498,23.069565,-151.193604,,,
729606185.218899,-2.566125,0.245027,43.4169,-0.012787,-0.040314,0.978333,-0.029428,-0.039994,-0.024826,64.406204,23.081039,-151.38179,,,
729606185.222247,-2.566125,0.245027,43.4169,-0.012787,-0.040314,0.978333,-0.029428,-0.039994,-0.024826,64.406204,23.081039,-151.38179,,,
729606185.225577,-2.573855,0.234388,43.411704,-0.013,-0.045227,0.984848,-0.026728,-0.031481,-0.016902,64.406204,23.081039,-151.38179,,,
729606185.228924,-2.580133,0.225542,43.408305,-0.013,-0.045227,0.984848,-0.026728,-0.031481,-0.016902,64.406204,23.081039,-151.38179,,,
729606185.23235,-2.580133,0.225542,43.408305,-0.013,-0.045227,0.984848,-0.026728,-0.031481,-0.016902,64.406204,23.081039,-151.38179,,,
729606185.235566,-2.583762,0.221156,43.406528,-0.010483,-0.053055,0.998154,-0.010618,-0.009903,-0.005109,64.406204,23.081039,-151.38179,,,
729606185.23893,-2.585039,0.222344,43.406337,-0.010483,-0.053055,0.998154,-0.010618,-0.009903,-0.005109,64.406204,23.081039,-151.38179,,,
729606185.242239,-2.585039,0.222344,43.406337,-0.010483,-0.053055,0.998154,-0.010618,-0.009903,-0.005109,64.406204,23.081039,-151.38179,,,
729606185.24564,-2.58277,0.229093,43.406427,0.002975,-0.053619,1.007904,0.012308,0.031397,-0.002639,64.406204,23.081039,-151.38179,,,
729606185.248906,-2.576287,0.244088,43.405468,0.002975,-0.053619,1.007904,0.012308,0.031397,-0.002639,64.406204,23.081039,-151.38179,,,
729606185.252236,-2.576287,0.244088,43.405468,0.002975,-0.053619,1.007904,0.012308,0.031397,-0.002639,64.406204,23.081039,-151.38179,,,
729606185.255583,-2.566526,0.264059,43.403081,0.015137,-0.048553,1.021164,0.038481,0.077698,-0.011183,64.406204,23.081039,-151.38179,,,
729606185.258977,-2.552041,0.291265,43.400392,0.015137,-0.048553,1.021164,0.038481,0.077698,-0.011183,64.551407,23.096512,-151.429382,,,
729606185.262137,-2.552041,0.291265,43.400392,0.015137,-0.048553,1.021164,0.038481,0.077698,-0.011183,64.551407,23.096512,-151.429382,,,
729606185.265589,-2.536826,0.32299,43.397656,0.014557,-0.047989,1.014999,0.055478,0.121192,-0.010126,64.551407,23.096512,-151.429382,,,
729606185.26892,-2.520202,0.362177,43.394919,0.014557,-0.047989,1.014999,0.055478,0.121192,-0.010126,64.551407,23.096512,-151.429382,,,
729606185.272336,-2.520202,0.362177,43.394919,0.014557,-0.047989,1.014999,0.055478,0.121192,-0.010126,64.551407,23.096512,-151.429382,,,
729606185.275574,-2.505769,0.400958,43.392297,0.013687,-0.049881,0.9991,0.048918,0.141509,-0.010157,64.551407,23.096512,-151.429382,,,
729606185.278941,-2.493167,0.442311,43.389891,0.013687,-0.049881,0.9991,0.048918,0.141509,-0.010157,64.551407,23.096512,-151.429382,,,
729606185.282253,-2.493167,0.442311,43.389891,0.013687,-0.049881,0.9991,0.048918,0.141509,-0.010157,64.551407,23.096512,-151.429382,,,
729606185.285654,-2.485289,0.479338,43.387208,0.009949,-0.045044,0.977325,0.025415,0.129737,-0.008073,64.551407,23.096512,-151.429382,,,
729606185.288894,-2.48093,0.514256,43.384113,0.009949,-0.045044,0.977325,0.025415,0.129737,-0.008073,64.551407,23.096512,-151.429382,,,
729606185.29226,-2.48093,0.514256,43.384113,0.009949,-0.045044,0.977325,0.025415,0.129737,-0.008073,64.551407,23.096512,-151.429382,,,
729606185.295637,-2.481514,0.542742,43.379907,0.000198,-0.0439,0.968079,-0.006632,0.09942,-0.015676,64.551407,23.096512,-151.429382,,,
729606185.298945,-2.485328,0.566202,43.373891,0.000198,-0.0439,0.968079,-0.006632,0.09942,-0.015676,64.742813,22.947754,-151.267563,,,
729606185.302306,-2.485328,0.566202,43.373891,0.000198,-0.0439,0.968079,-0.006632,0.09942,-0.015676,64.742813,22.947754,-151.267563,,,
729606185.305579,-2.490882,0.582624,43.365929,-0.004547,-0.044418,0.968384,-0.018773,0.056977,-0.032538,64.742813,22.947754,-151.267563,,,
729606185.308906,-2.497231,0.593739,43.356729,-0.004547,-0.044418,0.968384,-0.018773,0.056977,-0.032538,64.742813,22.947754,-151.267563,,,
729606185.312289,-2.497231,0.593739,43.356729,-0.004547,-0.044418,0.968384,-0.018773,0.056977,-0.032538,64.742813,22.947754,-151.267563,,,
729606185.315569,-2.500896,0.598642,43.346539,-0.009552,-0.04895,0.983704,-0.008695,0.014505,-0.036859,64.742813,22.947754,-151.267563,,,
729606185.318904,-2.50417,0.598551,43.336097,-0.009552,-0.04895,0.983704,-0.008695,0.014505,-0.036859,64.742813,22.947754,-151.267563,,,
729606185.32224,-2.50417,0.598551,43.336097,-0.009552,-0.04895,0.983704,-0.008695,0.014505,-0.036859,64.742813,22.947754,-151.267563,,,
729606185.325613,-2.501837,0.598719,43.32647,-0.008774,-0.052109,1.000412,0.013684,0.003794,-0.03222,64.742813,22.947754,-151.267563,,,
729606185.328898,-2.49809,0.593759,43.317338,-0.008774,-0.052109,1.000412,0.013684,0.003794,-0.03222,64.742813,22.947754,-151.267563,,,
729606185.332253,-2.49809,0.593759,43.317338,-0.008774,-0.052109,1.000412,0.013684,0.003794,-0.03222,64.742813,22.947754,-151.267563,,,
729606185.335621,-2.490653,0.596505,43.309226,-0.00621,-0.05069,1.014069,0.02928,0.015125,-0.028179,64.742813,22.947754,-151.267563,,,
729606185.338934,-2.484034,0.592782,43.30153,-0.00621,-0.05069,1.014069,0.02928,0.015125,-0.028179,64.739105,22.980133,-151.603836,,,
729606185.34225,-2.484034,0.592782,43.30153,-0.00621,-0.05069,1.014069,0.02928,0.015125,-0.028179,64.739105,22.980133,-151.603836,,,
729606185.345572,-2.479401,0.601365,43.295066,-0.009949,-0.049133,1.003876,0.016803,0.038668,-0.021899,64.739105,22.980133,-151.603836,,,
729606185.348943,-2.479018,0.607528,43.289266,-0.009949,-0.049133,1.003876,0.016803,0.038668,-0.021899,64.739105,22.980133,-151.603836,,,
729606185.352225,-2.479018,0.607528,43.289266,-0.009949,-0.049133,1.003876,0.016803,0.038668,-0.021899,64.739105,22.980133,-151.603836,,,
729606185.355571,-2.480836,0.625886,43.285032,-0.010284,-0.044815,1.001495,-0.007514,0.073177,-0.017095,64.739105,22.980133,-151.603836,,,
729606185.358902,-2.487144,0.637844,43.282011,-0.010284,-0.044815,1.001495,-0.007514,0.073177,-0.017095,64.739105,22.980133,-151.603836,,,
729606185.362278,-2.487144,0.637844,43.282011,-0.010284,-0.044815,1.001495,-0.007514,0.073177,-0.017095,64.739105,22.980133,-151.603836,,,
729606185.365561,-2.496083,0.656802,43.280644,-0.01503,-0.046524,0.99115,-0.033327,0.06792,-0.003855,64.739105,22.980133,-151.603836,,,
729606185.368966,-2.509079,0.667715,43.280175,-0.01503,-0.046524,0.99115,-0.033327,0.06792,-0.003855,64.739105,22.980133,-151.603836,,,
729606185.372227,-2.509079,0.667715,43.280175,-0.01503,-0.046524,0.99115,-0.033327,0.06792,-0.003855,64.739105,22.980133,-151.603836,,,
729606185.375624,-2.523539,0.679216,43.281176,-0.021072,-0.047974,0.983734,-0.048703,0.036869,0.001528,64.739105,22.980133,-151.603836,,,
729606185.378891,-2.538648,0.680492,43.281918,-0.021072,-0.047974,0.983734,-0.048703,0.036869,0.001528,64.824936,23.11969,-151.238876,,,
729606185.382255,-2.538648,0.680492,43.281918,-0.021072,-0.047974,0.983734,-0.048703,0.036869,0.001528,64.824936,23.11969,-151.238876,,,
729606185.385577,-2.554797,0.677125,43.282107,-0.027344,-0.049286,0.991043,-0.05781,-0.017479,0.000153,64.824936,23.11969,-151.238876,,,
729606185.3889,-2.572516,0.663584,43.282604,-0.027344,-0.049286,0.991043,-0.05781,-0.017479,0.000153,64.824936,23.11969,-151.238876,,,
729606185.392243,-2.572516,0.663584,43.282604,-0.027344,-0.049286,0.991043,-0.05781,-0.017479,0.000153,64.824936,23.11969,-151.238876,,,
729606185.395575,-2.59085,0.645782,43.283419,-0.033188,-0.048019,0.992065,-0.064502,-0.064303,-0.000975,64.824936,23.11969,-151.238876,,,
729606185.398909,-2.612387,0.623796,43.284389,-0.033188,-0.048019,0.992065,-0.064502,-0.064303,-0.000975,64.824936,23.11969,-151.238876,,,
729606185.402344,-2.612387,0.623796,43.284389,-0.033188,-0.048019,0.992065,-0.064502,-0.064303,-0.000975,64.824936,23.11969,-151.238876,,,
729606185.405575,-2.633477,0.599731,43.286049,-0.031403,-0.049911,1.001343,-0.073215,-0.081834,0.005087,64.824936,23.11969,-151.238876,,,
729606185.408907,-2.656442,0.574856,43.28833,-0.031403,-0.049911,1.001343,-0.073215,-0.081834,0.005087,64.824936,23.11969,-151.238876,,,
729606185.412249,-2.656442,0.574856,43.28833,-0.031403,-0.049911,1.001343,-0.073215,-0.081834,0.005087,64.824936,23.11969,-151.238876,,,
729606185.415589,-2.678079,0.553295,43.292077,-0.01976,-0.050934,1.008957,-0.072605,-0.070131,0.01195,64.824936,23.11969,-151.238876,,,
729606185.418917,-2.699359,0.534328,43.297406,-0.01976,-0.050934,1.008957,-0.072605,-0.070131,0.01195,64.824936,23.11969,-151.238876,,,
729606185.422257,-2.699359,0.534328,43.297406,-0.01976,-0.050934,1.008957,-0.072605,-0.070131,0.01195,65.024231,23.40184,-151.307663,,,
729606185.425578,-2.71935,0.518816,43.304675,-0.016739,-0.054398,1.023209,-0.067252,-0.051738,0.025235,65.024231,23.40184,-151.307663,,,
729606185.429022,-2.738088,0.506246,43.313745,-0.016739,-0.054398,1.023209,-0.067252,-0.051738,0.025235,65.024231,23.40184,-151.307663,,,
729606185.432237,-2.738088,0.506246,43.313745,-0.016739,-0.054398,1.023209,-0.067252,-0.051738,0.025235,65.024231,23.40184,-151.307663,,,
729606185.435657,-2.755789,0.497079,43.323792,-0.017273,-0.056961,1.02005,-0.061645,-0.026685,0.033932,65.024231,23.40184,-151.307663,,,
729606185.438913,-2.771316,0.492186,43.33427,-0.017273,-0.056961,1.02005,-0.061645,-0.026685,0.033932,65.024231,23.40184,-151.307663,,,
729606185.442235,-2.771316,0.492186,43.33427,-0.017273,-0.056961,1.02005,-0.061645,-0.026685,0.033932,65.024231,23.40184,-151.307663,,,
729606185.445594,-2.784646,0.488861,43.344179,-0.010971,-0.057816,1.022079,-0.041811,-0.008416,0.030519,65.024231,23.40184,-151.307663,,,
729606185.448928,-2.796141,0.488943,43.354083,-0.010971,-0.057816,1.022079,-0.041811,-0.008416,0.030519,65.024231,23.40184,-151.307663,,,
729606185.452236,-2.796141,0.488943,43.354083,-0.010971,-0.057816,1.022079,-0.041811,-0.008416,0.030519,65.024231,23.40184,-151.307663,,,
729606185.455649,-2.807954,0.484689,43.363875,-0.015518,-0.060013,1.00856,-0.039087,-0.01585,0.033692,65.024231,23.40184,-151.307663,,,
729606185.458903,-2.820826,0.48393,43.374243,-0.015518,-0.060013,1.00856,-0.039087,-0.01585,0.033692,65.024231,23.40184,-151.307663,,,
729606185.462254,-2.820826,0.48393,43.374243,-0.015518,-0.060013,1.00856,-0.039087,-0.01585,0.033692,64.936951,23.448212,-151.303894,,,
729606185.46559,-2.834496,0.477189,43.384955,-0.020599,-0.057114,0.996246,-0.048551,-0.020934,0.035811,64.936951,23.448212,-151.303894,,,
729606185.469022,-2.849308,0.476697,43.395432,-0.020599,-0.057114,0.996246,-0.048551,-0.020934,0.035811,64.936951,23.448212,-151.303894,,,
729606185.472236,-2.849308,0.476697,43.395432,-0.020599,-0.057114,0.996246,-0.048551,-0.020934,0.035811,64.936951,23.448212,-151.303894,,,
729606185.475593,-2.866341,0.468767,43.404323,-0.020599,-0.057678,0.992294,-0.058375,-0.027492,0.027377,64.936951,23.448212,-151.303894,,,
729606185.478919,-2.883862,0.468271,43.412649,-0.020599,-0.057678,0.992294,-0.058375,-0.027492,0.027377,64.936951,23.448212,-151.303894,,,
729606185.482296,-2.883862,0.468271,43.412649,-0.020599,-0.057678,0.992294,-0.058375,-0.027492,0.027377,64.936951,23.448212,-151.303894,,,
729606185.485578,-2.901243,0.457464,43.418923,-0.014908,-0.05957,0.992905,-0.058554,-0.037983,0.019298,64.936951,23.448212,-151.303894,,,
729606185.488904,-2.917938,0.450962,43.424233,-0.014908,-0.05957,0.992905,-0.058554,-0.037983,0.019298,64.936951,23.448212,-151.303894,,,
729606185.492251,-2.917938,0.450962,43.424233,-0.014908,-0.05957,0.992905,-0.058554,-0.037983,0.019298,64.936951,23.448212,-151.303894,,,
729606185.495609,-2.932781,0.437526,43.428687,-0.014023,-0.063583,0.99379,-0.049934,-0.045008,0.013941,64.936951,23.448212,-151.303894,,,
729606185.498924,-2.944385,0.426683,43.43232,-0.014023,-0.063583,0.99379,-0.049934,-0.045008,0.013941,64.936951,23.448212,-151.303894,,,
729606185.502281,-2.944385,0.426683,43.43232,-0.014023,-0.063583,0.99379,-0.049934,-0.045008,0.013941,64.680161,23.562943,-151.637619,,,
729606185.505581,-2.952275,0.413233,43.435251,-0.009567,-0.064224,1.004364,-0.024488,-0.041655,0.010861,64.680161,23.562943,-151.637619,,,
729606185.509007,-2.956826,0.402967,43.438828,-0.009567,-0.064224,1.004364,-0.024488,-0.041655,0.010861,64.680161,23.562943,-151.637619,,,
729606185.512254,-2.956826,0.402967,43.438828,-0.009567,-0.064224,1.004364,-0.024488,-0.041655,0.010861,64.680161,23.562943,-151.637619,,,
729606185.515586,-2.957578,0.389358,43.442875,-0.002594,-0.064987,1.005707,0.002662,-0.044903,0.012326,64.680161,23.562943,-151.637619,,,
729606185.518914,-2.957378,0.380137,43.447064,-0.002594,-0.064987,1.005707,0.002662,-0.044903,0.012326,64.680161,23.562943,-151.637619,,,
729606185.522312,-2.957378,0.380137,43.447064,-0.002594,-0.064987,1.005707,0.002662,-0.044903,0.012326,64.680161,23.562943,-151.637619,,,
729606185.525576,-2.956099,0.371564,43.451243,0.000534,-0.06282,0.999939,0.003124,-0.027538,0.014238,64.680161,23.562943,-151.637619,,,
729606185.52892,-2.957086,0.367954,43.455345,0.000534,-0.06282,0.999939,0.003124,-0.027538,0.014238,64.680161,23.562943,-151.637619,,,
729606185.532231,-2.957086,0.367954,43.455345,0.000534,-0.06282,0.999939,0.003124,-0.027538,0.014238,64.680161,23.562943,-151.637619,,,
729606185.535699,-2.958322,0.365593,43.457921,0.011017,-0.056717,0.99559,-0.004727,-0.001717,0.007608,64.680161,23.562943,-151.637619,,,
729606185.538937,-2.962247,0.368935,43.459051,0.011017,-0.056717,0.99559,-0.004727,-0.001717,0.007608,64.680161,23.562943,-151.637619,,,
729606185.542243,-2.962247,0.368935,43.459051,0.011017,-0.056717,0.99559,-0.004727,-0.001717,0.007608,64.680161,23.562943,-151.637619,,,
729606185.545603,-2.96565,0.370148,43.458129,0.019272,-0.048782,0.988861,-0.011426,0.006648,-0.005589,64.824936,23.67421,-151.54718,,,
729606185.548961,-2.971575,0.377073,43.455609,0.019272,-0.048782,0.988861,-0.011426,0.006648,-0.005589,64.824936,23.67421,-151.54718,,,
729606185.552232,-2.971575,0.377073,43.455609,0.019272,-0.048782,0.988861,-0.011426,0.006648,-0.005589,64.824936,23.67421,-151.54718,,,
729606185.555573,-2.977583,0.379506,43.450823,0.016327,-0.046478,0.983917,-0.021155,0.017224,-0.021727,64.824936,23.67421,-151.54718,,,
729606185.558918,-2.986274,0.385432,43.443639,0.016327,-0.046478,0.983917,-0.021155,0.017224,-0.021727,64.824936,23.67421,-151.54718,,,
729606185.56232,-2.986274,0.385432,43.443639,0.016327,-0.046478,0.983917,-0.021155,0.017224,-0.021727,64.824936,23.67421,-151.54718,,,
729606185.565575,-2.994587,0.385953,43.434267,0.014252,-0.044586,0.984634,-0.025934,0.005152,-0.035561,64.824936,23.67421,-151.54718,,,
729606185.56897,-3.004867,0.386808,43.423242,0.014252,-0.044586,0.984634,-0.025934,0.005152,-0.035561,64.824936,23.67421,-151.54718,,,
729606185.572239,-3.004867,0.386808,43.423242,0.014252,-0.044586,0.984634,-0.025934,0.005152,-0.035561,64.824936,23.67421,-151.54718,,,
729606185.575635,-3.013971,0.383831,43.410795,0.00473,-0.047485,0.979996,-0.033907,-0.006462,-0.044853,64.824936,23.67421,-151.54718,,,
729606185.578904,-3.026676,0.382169,43.398135,0.00473,-0.047485,0.979996,-0.033907,-0.006462,-0.044853,64.824936,23.67421,-151.54718,,,
729606185.582247,-3.026676,0.382169,43.398135,0.00473,-0.047485,0.979996,-0.033907,-0.006462,-0.044853,64.824936,23.67421,-151.54718,,,
729606185.585585,-3.036979,0.378021,43.385341,-0.001816,-0.050903,0.987885,-0.035295,-0.008941,-0.046177,64.821945,23.854202,-151.433151,,,
729606185.588938,-3.049165,0.373978,43.372535,-0.001816,-0.050903,0.987885,-0.035295,-0.008941,-0.046177,64.821945,23.854202,-151.433151,,,
729606185.592249,-3.049165,0.373978,43.372535,-0.001816,-0.050903,0.987885,-0.035295,-0.008941,-0.046177,64.821945,23.854202,-151.433151,,,
729606185.595583,-3.057858,0.370708,43.359908,-0.00087,-0.052521,0.995728,-0.028008,-0.007807,-0.046064,64.821945,23.854202,-151.433151,,,
729606185.598972,-3.067046,0.367135,43.347402,-0.00087,-0.052521,0.995728,-0.028008,-0.007807,-0.046064,64.821945,23.854202,-151.433151,,,
729606185.602296,-3.067046,0.367135,43.347402,-0.00087,-0.052521,0.995728,-0.028008,-0.007807,-0.046064,64.821945,23.854202,-151.433151,,,
729606185.60556,-3.072625,0.366526,43.335029,-0.00087,-0.051956,1.00705,-0.018532,0.001297,-0.045947,64.821945,23.854202,-151.433151,,,
729606185.608918,-3.078298,0.364899,43.32236,-0.00087,-0.051956,1.00705,-0.018532,0.001297,-0.045947,64.821945,23.854202,-151.433151,,,
729606185.612285,-3.078298,0.364899,43.32236,-0.00087,-0.051956,1.00705,-0.018532,0.001297,-0.045947,64.821945,23.854202,-151.433151,,,
729606185.615568,-3.079532,0.369358,43.309787,-0.001511,-0.053574,1.014633,-0.001398,0.025795,-0.046122,64.821945,23.854202,-151.433151,,,
729606185.618907,-3.077261,0.369672,43.296858,-0.001511,-0.053574,1.014633,-0.001398,0.025795,-0.046122,64.821945,23.854202,-151.433151,,,
729606185.622231,-3.077261,0.369672,43.296858,-0.001511,-0.053574,1.014633,-0.001398,0.025795,-0.046122,64.821945,23.854202,-151.433151,,,
729606185.625567,-3.071876,0.378284,43.284237,-0.004257,-0.055588,1.024734,0.021116,0.036154,-0.046622,64.856842,23.619293,-151.631927,,,
729606185.628927,-3.063293,0.378212,43.271916,-0.004257,-0.055588,1.024734,0.021116,0.036154,-0.046622,64.856842,23.619293,-151.631927,,,
729606185.632323,-3.063293,0.378212,43.271916,-0.004257,-0.055588,1.024734,0.021116,0.036154,-0.046622,64.856842,23.619293,-151.631927,,,
729606185.635682,-3.054675,0.385696,43.260921,-0.008881,-0.056793,1.015411,0.032372,0.030045,-0.038569,64.856842,23.619293,-151.631927,,,
729606185.638913,-3.043442,0.386282,43.24953,-0.008881,-0.056793,1.015411,0.032372,0.030045,-0.038569,64.856842,23.619293,-151.631927,,,
729606185.642257,-3.043442,0.386282,43.24953,-0.008881,-0.056793,1.015411,0.032372,0.030045,-0.038569,64.856842,23.619293,-151.631927,,,
729606185.645592,-3.033277,0.393273,43.23847,-0.010773,-0.05043,1.008881,0.034698,0.025693,-0.038583,64.856842,23.619293,-151.631927,,,
729606185.648959,-3.022176,0.391937,43.226513,-0.010773,-0.05043,1.008881,0.034698,0.025693,-0.038583,64.856842,23.619293,-151.631927,,,
729606185.652229,-3.022176,0.391937,43.226513,-0.010773,-0.05043,1.008881,0.034698,0.025693,-0.038583,64.856842,23.619293,-151.631927,,,
729606185.655594,-3.013431,0.393157,43.213685,-0.004791,-0.045288,1.000031,0.029793,0.008626,-0.046621,64.856842,23.619293,-151.631927,,,
729606185.658903,-3.005913,0.389491,43.199461,-0.004791,-0.045288,1.000031,0.029793,0.008626,-0.046621,64.856842,23.619293,-151.631927,,,
729606185.662293,-3.005913,0.389491,43.199461,-0.004791,-0.045288,1.000031,0.029793,0.008626,-0.046621,64.856842,23.619293,-151.631927,,,
729606185.665573,-3.001686,0.387028,43.183932,-0.005371,-0.040588,0.991562,0.011417,-0.006905,-0.055004,64.771545,23.664551,-151.947754,,,
729606185.668955,-3.000205,0.381184,43.166924,-0.005371,-0.040588,0.991562,0.011417,-0.006905,-0.055004,64.771545,23.664551,-151.947754,,,
729606185.672242,-3.000205,0.381184,43.166924,-0.005371,-0.040588,0.991562,0.011417,-0.006905,-0.055004,64.771545,23.664551,-151.947754,,,
729606185.675496,-3.001239,0.37585,43.149606,-0.003494,-0.038315,0.989426,-0.005359,-0.012174,-0.063006,64.771545,23.664551,-151.947754,,,
729606185.678929,-3.005131,0.368764,43.132377,-0.003494,-0.038315,0.989426,-0.005359,-0.012174,-0.063006,64.771545,23.664551,-151.947754,,,
729606185.682239,-3.005131,0.368764,43.132377,-0.003494,-0.038315,0.989426,-0.005359,-0.012174,-0.063006,64.771545,23.664551,-151.947754,,,
729606185.685576,-3.010826,0.363617,43.115511,-0.006531,-0.040741,0.99411,-0.018473,-0.012662,-0.059703,64.771545,23.664551,-151.947754,,,
729606185.68898,-3.016224,0.357104,43.099838,-0.006531,-0.040741,0.99411,-0.018473,-0.012662,-0.059703,64.771545,23.664551,-151.947754,,,
729606185.692242,-3.016224,0.357104,43.099838,-0.006531,-0.040741,0.99411,-0.018473,-0.012662,-0.059703,64.771545,23.664551,-151.947754,,,
729606185.695598,-3.020585,0.353832,43.085392,-0.008911,-0.045654,1.002457,-0.011642,-0.003913,-0.050529,64.771545,23.664551,-151.947754,,,
729606185.698905,-3.022965,0.35099,43.071896,-0.008911,-0.045654,1.002457,-0.011642,-0.003913,-0.050529,64.771545,23.664551,-151.947754,,,
729606185.702361,-3.022965,0.35099,43.071896,-0.008911,-0.045654,1.002457,-0.011642,-0.003913,-0.050529,64.771545,23.664551,-151.947754,,,
729606185.705595,-3.022199,0.350489,43.059919,-0.011566,-0.048096,1.014618,0.005095,0.003992,-0.041271,64.771545,23.664551,-151.947754,,,
729606185.708932,-3.019369,0.351473,43.049621,-0.011566,-0.048096,1.014618,0.005095,0.003992,-0.041271,64.640137,23.739136,-152.007004,,,
729606185.712316,-3.019369,0.351473,43.049621,-0.011566,-0.048096,1.014618,0.005095,0.003992,-0.041271,64.640137,23.739136,-152.007004,,,
729606185.715575,-3.014565,0.354327,43.041031,-0.017776,-0.049911,1.014679,0.0208,0.018971,-0.030712,64.640137,23.739136,-152.007004,,,
729606185.718921,-3.009671,0.360596,43.033512,-0.017776,-0.049911,1.014679,0.0208,0.018971,-0.030712,64.640137,23.739136,-152.007004,,,
729606185.722269,-3.009671,0.360596,43.033512,-0.017776,-0.049911,1.014679,0.0208,0.018971,-0.030712,64.640137,23.739136,-152.007004,,,
729606185.725704,-3.004335,0.366607,43.026085,-0.017944,-0.047516,1.010605,0.021843,0.026142,-0.026733,64.640137,23.739136,-152.007004,,,
729606185.728987,-2.997953,0.374492,43.01891,-0.017944,-0.047516,1.010605,0.021843,0.026142,-0.026733,64.640137,23.739136,-152.007004,,,
729606185.732261,-2.997953,0.374492,43.01891,-0.017944,-0.047516,1.010605,0.021843,0.026142,-0.026733,64.640137,23.739136,-152.007004,,,
729606185.735645,-2.991093,0.381997,43.011615,-0.021988,-0.045654,1.005737,0.024975,0.029285,-0.026512,64.640137,23.739136,-152.007004,,,
729606185.738904,-2.982372,0.387231,43.003973,-0.021988,-0.045654,1.005737,0.024975,0.029285,-0.026512,64.640137,23.739136,-152.007004,,,
729606185.742261,-2.982372,0.387231,43.003973,-0.021988,-0.045654,1.005737,0.024975,0.029285,-0.026512,64.640137,23.739136,-152.007004,,,
729606185.745596,-2.975858,0.389983,42.996622,-0.025116,-0.044525,1.002396,0.023154,0.012825,-0.029144,64.640137,23.739136,-152.007004,,,
729606185.748926,-2.96794,0.388851,42.988754,-0.025116,-0.044525,1.002396,0.023154,0.012825,-0.029144,64.800095,23.668365,-151.680954,,,
729606185.752337,-2.96794,0.388851,42.988754,-0.025116,-0.044525,1.002396,0.023154,0.012825,-0.029144,64.800095,23.668365,-151.680954,,,
729606185.755585,-2.964478,0.385718,42.980367,-0.030228,-0.042511,0.993973,0.013812,-0.010153,-0.031151,64.800095,23.668365,-151.680954,,,
729606185.758937,-2.959946,0.380028,42.971781,-0.030228,-0.042511,0.993973,0.013812,-0.010153,-0.031151,64.800095,23.668365,-151.680954,,,
729606185.762245,-2.959946,0.380028,42.971781,-0.030228,-0.042511,0.993973,0.013812,-0.010153,-0.031151,64.800095,23.668365,-151.680954,,,
729606185.765625,-2.960207,0.373053,42.963212,-0.0271,-0.042709,0.990433,-0.003454,-0.021028,-0.029391,64.800095,23.668365,-151.680954,,,
729606185.76898,-2.960652,0.363826,42.954932,-0.0271,-0.042709,0.990433,-0.003454,-0.021028,-0.029391,64.800095,23.668365,-151.680954,,,
729606185.772246,-2.960652,0.363826,42.954932,-0.0271,-0.042709,0.990433,-0.003454,-0.021028,-0.029391,64.800095,23.668365,-151.680954,,,
729606185.775584,-2.964581,0.351106,42.94677,-0.023575,-0.042892,0.988998,-0.015553,-0.041835,-0.030594,64.800095,23.668365,-151.680954,,,
729606185.778961,-2.968965,0.337351,42.939272,-0.023575,-0.042892,0.988998,-0.015553,-0.041835,-0.030594,64.800095,23.668365,-151.680954,,,
729606185.782229,-2.968965,0.337351,42.939272,-0.023575,-0.042892,0.988998,-0.015553,-0.041835,-0.030594,64.800095,23.668365,-151.680954,,,
729606185.785589,-2.975122,0.321445,42.932446,-0.021393,-0.046005,0.988098,-0.022231,-0.054368,-0.025239,64.800095,23.668365,-151.680954,,,
729606185.788932,-2.980847,0.307746,42.92572,-0.021393,-0.046005,0.988098,-0.022231,-0.054368,-0.025239,64.772812,23.720673,-151.645142,,,
729606185.79227,-2.980847,0.307746,42.92572,-0.021393,-0.046005,0.988098,-0.022231,-0.054368,-0.025239,64.772812,23.720673,-151.645142,,,
729606185.795578,-2.987023,0.291692,42.918191,-0.012299,-0.047058,0.995819,-0.020672,-0.050235,-0.028518,64.772812,23.720673,-151.645142,,,
729606185.798907,-2.99086,0.280486,42.90956,-0.012299,-0.047058,0.995819,-0.020672,-0.050235,-0.028518,64.772812,23.720673,-151.645142,,,
729606185.802282,-2.99086,0.280486,42.90956,-0.012299,-0.047058,0.995819,-0.020672,-0.050235,-0.028518,64.772812,23.720673,-151.645142,,,
729606185.805624,-2.993926,0.266345,42.899667,-0.003036,-0.045319,1.003693,-0.009001,-0.0449,-0.037666,64.772812,23.720673,-151.645142,,,
729606185.808916,-2.994576,0.258679,42.88997,-0.003036,-0.045319,1.003693,-0.009001,-0.0449,-0.037666,64.772812,23.720673,-151.645142,,,
729606185.812236,-2.994576,0.258679,42.88997,-0.003036,-0.045319,1.003693,-0.009001,-0.0449,-0.037666,64.772812,23.720673,-151.645142,,,
729606185.815595,-2.99509,0.249484,42.880427,-0.007217,-0.050568,1.005127,0.000722,-0.026984,-0.035613,64.772812,23.720673,-151.645142,,,
729606185.818981,-2.992177,0.249287,42.872175,-0.007217,-0.050568,1.005127,0.000722,-0.026984,-0.035613,64.772812,23.720673,-151.645142,,,
729606185.822232,-2.992177,0.249287,42.872175,-0.007217,-0.050568,1.005127,0.000722,-0.026984,-0.035613,64.772812,23.720673,-151.645142,,,
729606185.825596,-2.988616,0.24515,42.865348,-0.013458,-0.057907,1.008133,0.012446,-0.004989,-0.023421,64.772812,23.720673,-151.645142,,,
729606185.828925,-2.988616,0.249068,42.860853,-0.013458,-0.057907,1.008133,0.012446,-0.004989,-0.023421,64.77005,23.566803,-151.653275,,,
729606185.832307,-2.981596,0.249068,42.860853,-0.013458,-0.057907,1.008133,0.012446,-0.004989,-0.023421,64.77005,23.566803,-151.653275,,,
729606185.83566,-2.975133,0.245745,42.857181,-0.018234,-0.06012,1.000763,0.025884,-0.009774,-0.013016,64.77005,23.566803,-151.653275,,,
729606185.838925,-2.975133,0.245745,42.857181,-0.018234,-0.06012,1.000763,0.025884,-0.009774,-0.013016,64.77005,23.566803,-151.653275,,,
729606185.842251,-2.968018,0.250331,42.854445,-0.018234,-0.06012,1.000763,0.025884,-0.009774,-0.013016,64.77005,23.566803,-151.653275,,,
729606185.845645,-2.965472,0.247237,42.851077,-0.01268,-0.05748,0.98645,0.010188,-0.005958,-0.013962,64.77005,23.566803,-151.653275,,,
729606185.848898,-2.965472,0.251538,42.846526,-0.01268,-0.05748,0.98645,0.010188,-0.005958,-0.013962,64.77005,23.566803,-151.653275,,,
