Time (sec),Pitch (deg),Roll (deg),Yaw(deg),X-Acceleration (g),Y-Acceleration (g),Z-Acceleration (g),Pitch Rate (deg/sec),Roll Rate (deg/sec),Yaw Rate (deg/sec),Magnetic Field in X direction (uT),Magnetic Field in Y direction (uT),Magnetic Field in Z Direction (uT),Latitude (deg),Longitude (deg),Altitude (m)
729608712.349879,1.561121,1.588909,60.715882,-0.044495,0.015259,1.002579,-0.006545,0.032449,0.028816,64.004044,22.490173,-147.898621,,,
729608712.353171,1.560473,1.593816,60.724717,-0.044357,0.020233,0.997818,-0.006545,0.032449,0.028816,64.004044,22.490173,-147.898621,,,
729608712.356494,1.558998,1.5967,60.734317,-0.044357,0.020233,0.997818,-0.005967,0.014008,0.030477,64.004044,22.490173,-147.898621,,,
729608712.359892,1.558998,1.5967,60.734317,-0.044357,0.020233,0.997818,-0.005967,0.014008,0.030477,64.004044,22.490173,-147.898621,,,
729608712.363155,1.559878,1.59336,60.743867,-0.040482,0.024734,0.993439,-0.005967,0.014008,0.030477,64.004044,22.490173,-147.898621,,,
729608712.36649,1.559509,1.59173,60.752617,-0.040482,0.024734,0.993439,-0.00383,-0.002177,0.028826,64.004044,22.490173,-147.898621,,,
729608712.36982,1.559509,1.59173,60.752617,-0.040482,0.024734,0.993439,-0.00383,-0.002177,0.028826,64.004044,22.490173,-147.898621,,,
729608712.373206,1.561153,1.584183,60.76077,-0.031677,0.029419,0.988663,-0.00383,-0.002177,0.028826,64.004044,22.490173,-147.898621,,,
729608712.37652,1.56134,1.579102,60.767539,-0.031677,0.029419,0.988663,-0.000839,-0.013228,0.022586,64.004044,22.490173,-147.898621,,,
729608712.379836,1.56134,1.579102,60.767539,-0.031677,0.029419,0.988663,-0.000839,-0.013228,0.022586,64.004044,22.490173,-147.898621,,,
729608712.383202,1.562596,1.571794,60.773167,-0.021225,0.031601,0.989182,-0.000839,-0.013228,0.022586,64.004044,22.490173,-147.898621,,,
729608712.38651,1.563214,1.568717,60.777831,-0.021225,0.031601,0.989182,0.00234,-0.00922,0.01375,64.004044,22.490173,-147.898621,,,
729608712.389838,1.563214,1.568717,60.777831,-0.021225,0.031601,0.989182,0.00234,-0.00922,0.01375,64.168686,22.364273,-147.765228,,,
729608712.393174,1.563614,1.565421,60.78176,-0.012344,0.035507,0.990219,0.00234,-0.00922,0.01375,64.168686,22.364273,-147.765228,,,
729608712.396508,1.563556,1.565632,60.78471,-0.012344,0.035507,0.990219,-0.001213,0.003189,0.00812,64.168686,22.364273,-147.765228,,,
729608712.399887,1.563556,1.565632,60.78471,-0.012344,0.035507,0.990219,-0.001213,0.003189,0.00812,64.168686,22.364273,-147.765228,,,
729608712.403151,1.561647,1.569772,60.786152,-0.008759,0.039749,0.988693,-0.001213,0.003189,0.00812,64.168686,22.364273,-147.765228,,,
729608712.40654,1.559451,1.577269,60.786309,-0.008759,0.039749,0.988693,-0.006952,0.029855,-0.001119,64.168686,22.364273,-147.765228,,,
729608712.409829,1.559451,1.577269,60.786309,-0.008759,0.039749,0.988693,-0.006952,0.029855,-0.001119,64.168686,22.364273,-147.765228,,,
729608712.413211,1.552692,1.590723,60.785129,-0.012497,0.039261,0.991043,-0.006952,0.029855,-0.001119,64.168686,22.364273,-147.765228,,,
729608712.416577,1.546919,1.602178,60.783247,-0.012497,0.039261,0.991043,-0.02059,0.04317,-0.0087,64.168686,22.364273,-147.765228,,,
729608712.419842,1.546919,1.602178,60.783247,-0.012497,0.039261,0.991043,-0.02059,0.04317,-0.0087,64.168686,22.364273,-147.765228,,,
729608712.423161,1.536322,1.619098,60.781612,-0.020065,0.034348,0.990524,-0.02059,0.04317,-0.0087,64.168686,22.364273,-147.765228,,,
729608712.426579,1.536322,1.630552,60.780179,-0.020065,0.034348,0.990524,-0.029936,0.046036,-0.009264,64.168686,22.364273,-147.765228,,,
729608712.429809,1.528071,1.630552,60.780179,-0.020065,0.034348,0.990524,-0.029936,0.046036,-0.009264,64.144318,22.680267,-147.597198,,,
729608712.433157,1.516844,1.645896,60.779392,-0.033249,0.026505,0.993317,-0.029936,0.046036,-0.009264,64.144318,22.680267,-147.597198,,,
729608712.436558,1.516844,1.654787,60.779874,-0.033249,0.026505,0.993317,-0.024889,0.033361,-0.001819,64.144318,22.680267,-147.597198,,,
729608712.439885,1.509472,1.654787,60.779874,-0.033249,0.026505,0.993317,-0.024889,0.033361,-0.001819,64.144318,22.680267,-147.597198,,,
729608712.44314,1.502507,1.666375,60.781008,-0.04483,0.019791,1.000427,-0.024889,0.033361,-0.001819,64.144318,22.680267,-147.597198,,,
729608712.44652,1.502507,1.666375,60.781008,-0.04483,0.019791,1.000427,-0.024889,0.033361,-0.001819,64.144318,22.680267,-147.597198,,,
729608712.449887,1.497265,1.671182,60.783352,-0.04483,0.019791,1.000427,-0.014944,0.01758,0.006317,64.144318,22.680267,-147.597198,,,
729608712.453227,1.493937,1.676251,60.786365,-0.050186,0.016388,1.004166,-0.014944,0.01758,0.006317,64.144318,22.680267,-147.597198,,,
729608712.456519,1.493937,1.676251,60.786365,-0.050186,0.016388,1.004166,-0.014944,0.01758,0.012541,64.144318,22.680267,-147.597198,,,
729608712.459834,1.491244,1.678184,60.790496,-0.050186,0.016388,1.004166,-0.00973,0.012165,0.012541,64.144318,22.680267,-147.597198,,,
729608712.463047,1.490165,1.677745,60.795748,-0.048828,0.017517,1.006241,-0.00973,0.012165,0.012541,64.144318,22.680267,-147.597198,,,
729608712.466556,1.490165,1.677745,60.795748,-0.048828,0.017517,1.006241,-0.005184,0.007063,0.020081,64.144318,22.680267,-147.597198,,,
729608712.469852,1.488464,1.678731,60.801372,-0.048828,0.017517,1.006241,-0.005184,0.007063,0.020081,64.169128,22.531601,-147.637543,,,
729608712.473159,1.489942,1.676511,60.807561,-0.046356,0.021103,1.007751,-0.005184,0.007063,0.020081,64.169128,22.531601,-147.637543,,,
729608712.476524,1.489942,1.676511,60.807561,-0.046356,0.021103,1.007751,-0.005184,0.007063,0.020081,64.169128,22.531601,-147.637543,,,
729608712.479887,1.490027,1.679455,60.813852,-0.046356,0.021103,1.007751,0.000111,0.014329,0.01989,64.169128,22.531601,-147.637543,,,
729608712.483194,1.495277,1.676686,60.820471,-0.044556,0.024734,1.01149,0.000111,0.014329,0.01989,64.169128,22.531601,-147.637543,,,
729608712.486547,1.495277,1.676686,60.820471,-0.044556,0.024734,1.01149,0.000111,0.014329,0.01989,64.169128,22.531601,-147.637543,,,
729608712.48981,1.497421,1.680809,60.827346,-0.044556,0.024734,1.01149,0.006871,0.018677,0.021635,64.169128,22.531601,-147.637543,,,
729608712.493158,1.503921,1.679567,60.834551,-0.03949,0.025406,1.009262,0.006871,0.018677,0.021635,64.169128,22.531601,-147.637543,,,
729608712.496541,1.503921,1.679567,60.834551,-0.03949,0.025406,1.009262,0.006871,0.018677,0.021635,64.169128,22.531601,-147.637543,,,
729608712.499829,1.505867,1.684415,60.84177,-0.03949,0.025406,1.009262,0.00648,0.020714,0.024046,64.169128,22.531601,-147.637543,,,
729608712.503147,1.510573,1.685111,60.849129,-0.036163,0.029327,1.004959,0.00648,0.020714,0.024046,64.169128,22.531601,-147.637543,,,
729608712.506536,1.510573,1.685111,60.849129,-0.036163,0.029327,1.004959,0.00648,0.020714,0.024046,64.169128,22.531601,-147.637543,,,
729608712.509843,1.512694,1.689936,60.85599,-0.036163,0.029327,1.004959,0.009125,0.018405,0.022305,64.169128,22.531601,-147.637543,,,
729608712.513147,1.516945,1.693157,60.861971,-0.028854,0.032654,1.004929,0.009125,0.018405,0.022305,64.281677,22.578476,-147.599472,,,
729608712.516579,1.516945,1.693157,60.861971,-0.028854,0.032654,1.004929,0.009125,0.018405,0.022305,64.281677,22.578476,-147.599472,,,
729608712.519885,1.520854,1.694093,60.866502,-0.028854,0.032654,1.004929,0.012936,0.007874,0.012855,64.281677,22.578476,-147.599472,,,
729608712.523144,1.525044,1.695791,60.868862,-0.022324,0.036682,1.002411,0.012936,0.007874,0.012855,64.281677,22.578476,-147.599472,,,
729608712.526503,1.525044,1.695791,60.868862,-0.022324,0.036682,1.002411,0.012936,0.007874,0.012855,64.281677,22.578476,-147.599472,,,
729608712.529835,1.532495,1.691268,60.868954,-0.022324,0.036682,1.002411,0.028302,-0.013179,-0.000253,64.281677,22.578476,-147.599472,,,
729608712.533149,1.539434,1.690969,60.866913,-0.017853,0.041687,1.0009,0.028302,-0.013179,-0.000253,64.281677,22.578476,-147.599472,,,
729608712.536508,1.539434,1.690969,60.866913,-0.017853,0.041687,1.0009,0.028302,-0.013179,-0.000253,64.281677,22.578476,-147.599472,,,
729608712.539834,1.550588,1.682479,60.864107,-0.017853,0.041687,1.0009,0.037543,-0.026175,-0.011078,64.281677,22.578476,-147.599472,,,
729608712.543149,1.559857,1.678861,60.860752,-0.016434,0.040619,1.00383,0.037543,-0.026175,-0.011078,64.281677,22.578476,-147.599472,,,
729608712.546516,1.559857,1.678861,60.860752,-0.016434,0.040619,1.00383,0.037543,-0.026175,-0.011078,64.281677,22.578476,-147.599472,,,
729608712.549883,1.574804,1.669365,60.857021,-0.016434,0.040619,1.00383,0.055213,-0.028935,-0.013344,64.281677,22.578476,-147.599472,,,
729608712.553149,1.591268,1.66729,60.852403,-0.017761,0.038818,1.004517,0.055213,-0.028935,-0.013344,64.283173,22.368088,-147.523407,,,
729608712.556577,1.591268,1.66729,60.852403,-0.017761,0.038818,1.004517,0.055213,-0.028935,-0.013344,64.283173,22.368088,-147.523407,,,
729608712.559809,1.613927,1.66295,60.847533,-0.017761,0.038818,1.004517,0.079857,-0.014105,-0.014975,64.283173,22.368088,-147.523407,,,
729608712.563161,1.639568,1.667937,60.842853,-0.01709,0.032211,1.009781,0.079857,-0.014105,-0.014975,64.283173,22.368088,-147.523407,,,
729608712.566474,1.639568,1.667937,60.842853,-0.01709,0.032211,1.009781,0.079857,-0.014105,-0.014975,64.283173,22.368088,-147.523407,,,
729608712.569903,1.671414,1.672582,60.839209,-0.01709,0.032211,1.009781,0.112717,0.018791,-0.010951,64.283173,22.368088,-147.523407,,,
729608712.573147,1.704874,1.686818,60.836867,-0.008575,0.029282,1.003723,0.112717,0.018791,-0.010951,64.283173,22.368088,-147.523407,,,
729608712.576528,1.704874,1.686818,60.836867,-0.008575,0.029282,1.003723,0.112717,0.018791,-0.010951,64.283173,22.368088,-147.523407,,,
729608712.579823,1.741376,1.705952,60.836227,-0.008575,0.029282,1.003723,0.131344,0.069016,0.004285,64.283173,22.368088,-147.523407,,,
729608712.583255,1.77693,1.73665,60.836536,0.004166,0.030731,0.998428,0.131344,0.069016,0.004285,64.283173,22.368088,-147.523407,,,
729608712.586473,1.77693,1.73665,60.836536,0.004166,0.030731,0.998428,0.131344,0.069016,0.004285,64.283173,22.368088,-147.523407,,,
729608712.589835,1.811173,1.773803,60.8365,0.004166,0.030731,0.998428,0.120179,0.129499,0.001889,64.283173,22.368088,-147.523407,,,
729608712.593154,1.842996,1.819128,60.835127,0.003891,0.038498,0.988449,0.120179,0.129499,0.001889,64.176926,22.338562,-147.92009,,,
729608712.59616,1.842996,1.819128,60.835127,0.003891,0.038498,0.988449,0.120179,0.129499,0.001889,64.176926,22.338562,-147.92009,,,
729608712.599863,1.873078,1.869133,60.832879,0.003891,0.038498,0.988449,0.10429,0.176374,-0.006563,64.176926,22.338562,-147.92009,,,
729608712.603145,1.902168,1.918341,60.831013,-0.008286,0.03981,0.980423,0.10429,0.176374,-0.006563,64.176926,22.338562,-147.92009,,,
729608712.606567,1.902168,1.918341,60.831013,-0.008286,0.03981,0.980423,0.10429,0.176374,-0.006563,64.176926,22.338562,-147.92009,,,
729608712.609822,1.92911,1.968593,60.830272,-0.008286,0.03981,0.980423,0.09595,0.179836,-0.001407,64.176926,22.338562,-147.92009,,,
729608712.613151,1.955891,2.00959,60.830353,-0.027588,0.031281,0.969055,0.09595,0.179836,-0.001407,64.176926,22.338562,-147.92009,,,
729608712.61654,1.955891,2.00959,60.830353,-0.027588,0.031281,0.969055,0.09595,0.179836,-0.001407,64.176926,22.338562,-147.92009,,,
729608712.619865,1.979156,2.049048,60.830455,-0.027588,0.031281,0.969055,0.085211,0.142083,0.001331,64.176926,22.338562,-147.92009,,,
729608712.623243,2.002386,2.075719,60.83047,-0.037125,0.026901,0.956512,0.085211,0.142083,0.001331,64.176926,22.338562,-147.92009,,,
729608712.626492,2.002386,2.075719,60.83047,-0.037125,0.026901,0.956512,0.085211,0.142083,0.001331,64.176926,22.338562,-147.92009,,,
729608712.629829,2.020623,2.100743,60.829213,-0.037125,0.026901,0.956512,0.065798,0.087294,-0.002695,64.176926,22.338562,-147.92009,,,
729608712.633186,2.037134,2.111151,60.827174,-0.040741,0.033279,0.950302,0.065798,0.087294,-0.002695,64.176926,22.338562,-147.92009,,,
729608712.636482,2.037134,2.111151,60.827174,-0.040741,0.033279,0.950302,0.065798,0.087294,-0.002695,64.514023,22.265015,-147.429535,,,
729608712.639839,2.048965,2.120353,60.824305,-0.040741,0.033279,0.950302,0.040841,0.033741,-0.00837,64.514023,22.265015,-147.429535,,,
729608712.643149,2.05596,2.116792,60.820799,-0.040848,0.038757,0.949997,0.040841,0.033741,-0.00837,64.514023,22.265015,-147.429535,,,
729608712.646549,2.05596,2.116792,60.820799,-0.040848,0.038757,0.949997,0.040841,0.033741,-0.00837,64.514023,22.265015,-147.429535,,,
729608712.649877,2.059243,2.115335,60.815986,-0.040848,0.038757,0.949997,0.012992,-0.003874,-0.017631,64.514023,22.265015,-147.429535,,,
729608712.653147,2.057531,2.104978,60.810994,-0.034821,0.039963,0.957199,0.012992,-0.003874,-0.017631,64.514023,22.265015,-147.429535,,,
729608712.656549,2.057531,2.104978,60.810994,-0.034821,0.039963,0.957199,0.012992,-0.003874,-0.017631,64.514023,22.265015,-147.429535,,,
729608712.659812,2.054135,2.099504,60.806549,-0.034821,0.039963,0.957199,-0.012239,-0.015177,-0.020506,64.514023,22.265015,-147.429535,,,
729608712.663148,2.047361,2.086149,60.803999,-0.034515,0.033737,0.971283,-0.012239,-0.015177,-0.020506,64.514023,22.265015,-147.429535,,,
729608712.66649,2.047361,2.086149,60.803999,-0.034515,0.033737,0.971283,-0.012239,-0.015177,-0.020506,64.514023,22.265015,-147.429535,,,
729608712.6699,2.040032,2.084218,60.803163,-0.034515,0.033737,0.971283,-0.025265,-0.004425,-0.005308,64.514023,22.265015,-147.429535,,,
729608712.673137,2.03116,2.078369,60.804577,-0.034149,0.02507,0.990097,-0.025265,-0.004425,-0.005308,64.514023,22.265015,-147.429535,,,
729608712.676478,2.03116,2.078369,60.804577,-0.034149,0.02507,0.990097,-0.025265,-0.004425,-0.005308,64.606705,22.198441,-147.555511,,,
729608712.679817,2.021359,2.0855,60.807243,-0.034149,0.02507,0.990097,-0.033298,0.029655,0.007507,64.606705,22.198441,-147.555511,,,
729608712.683194,2.010529,2.090873,60.810577,-0.030273,0.023331,0.998169,-0.033298,0.029655,0.007507,64.606705,22.198441,-147.555511,,,
729608712.686472,2.010529,2.090873,60.810577,-0.030273,0.023331,0.998169,-0.033298,0.029655,0.007507,64.606705,22.198441,-147.555511,,,
729608712.689832,1.996308,2.10788,60.81318,-0.030273,0.023331,0.998169,-0.048811,0.061823,0.005783,64.606705,22.198441,-147.555511,,,
729608712.693142,1.980716,2.12653,60.815433,-0.032974,0.029892,0.998672,-0.048811,0.061823,0.005783,64.606705,22.198441,-147.555511,,,
729608712.696564,1.980716,2.12653,60.815433,-0.032974,0.029892,0.998672,-0.048811,0.061823,0.005783,64.606705,22.198441,-147.555511,,,
729608712.699831,1.962055,2.151803,60.817141,-0.032974,0.029892,0.998672,-0.063712,0.092045,0.001817,64.606705,22.198441,-147.555511,,,
729608712.70315,1.93874,2.180097,60.81911,-0.036926,0.034225,0.997177,-0.063712,0.092045,0.001817,64.606705,22.198441,-147.555511,,,
729608712.706497,1.93874,2.180097,60.81911,-0.036926,0.034225,0.997177,-0.063712,0.092045,0.001817,64.606705,22.198441,-147.555511,,,
729608712.709819,1.913202,2.210335,60.82134,-0.036926,0.034225,0.997177,-0.091314,0.111577,-0.000128,64.606705,22.198441,-147.555511,,,
729608712.713151,1.88448,2.241344,60.823437,-0.046371,0.03035,0.989258,-0.091314,0.111577,-0.000128,64.606705,22.198441,-147.555511,,,
729608712.716533,1.88448,2.241344,60.823437,-0.046371,0.03035,0.989258,-0.091314,0.111577,-0.000128,64.889725,22.446732,-147.743912,,,
729608712.719837,1.853119,2.269693,60.825228,-0.046371,0.03035,0.989258,-0.109509,0.103012,0.000762,64.889725,22.446732,-147.743912,,,
729608712.72315,1.820609,2.29458,60.826556,-0.055405,0.026123,0.987274,-0.109509,0.103012,0.000762,64.889725,22.446732,-147.743912,,,
729608712.726485,1.820609,2.29458,60.826556,-0.055405,0.026123,0.987274,-0.109509,0.103012,0.000762,64.889725,22.446732,-147.743912,,,
729608712.729837,1.786206,2.313123,60.827567,-0.055405,0.026123,0.987274,-0.117477,0.067031,-0.001056,64.889725,22.446732,-147.743912,,,
729608712.73315,1.752851,2.325225,60.828025,-0.062042,0.023361,0.987854,-0.117477,0.067031,-0.001056,64.889725,22.446732,-147.743912,,,
729608712.73648,1.752851,2.325225,60.828025,-0.062042,0.023361,0.987854,-0.117477,0.067031,-0.001056,64.889725,22.446732,-147.743912,,,
729608712.739855,1.718422,2.330701,60.828538,-0.062042,0.023361,0.987854,-0.119484,0.022139,-0.005471,64.889725,22.446732,-147.743912,,,
729608712.743186,1.686313,2.329423,60.830079,-0.068771,0.016983,0.999557,-0.119484,0.022139,-0.005471,64.889725,22.446732,-147.743912,,,
729608712.746561,1.686313,2.329423,60.830079,-0.068771,0.016983,0.999557,-0.119484,0.022139,-0.005471,64.889725,22.446732,-147.743912,,,
729608712.749859,1.654526,2.323512,60.832984,-0.068771,0.016983,0.999557,-0.109018,-0.016893,0.003482,64.889725,22.446732,-147.743912,,,
729608712.753142,1.624429,2.312153,60.836948,-0.074783,0.00914,1.009537,-0.109018,-0.016893,0.003482,64.889725,22.446732,-147.743912,,,
729608712.756478,1.624429,2.312153,60.836948,-0.074783,0.00914,1.009537,-0.109018,-0.016893,0.003482,64.970093,22.593826,-147.662277,,,
729608712.759844,1.59665,2.297987,60.842117,-0.074783,0.00914,1.009537,-0.095745,-0.046809,0.011906,64.970093,22.593826,-147.662277,,,
729608712.763142,1.570906,2.280376,60.849238,-0.072205,0.007111,1.018021,-0.095745,-0.046809,0.011906,64.970093,22.593826,-147.662277,,,
729608712.766488,1.570906,2.280376,60.849238,-0.072205,0.007111,1.018021,-0.095745,-0.046809,0.011906,64.970093,22.593826,-147.662277,,,
729608712.76983,1.548217,2.264275,60.858214,-0.072205,0.007111,1.018021,-0.081625,-0.051021,0.02461,64.970093,22.593826,-147.662277,,,
729608712.773144,1.527294,2.248519,60.869452,-0.06897,0.007553,1.025757,-0.081625,-0.051021,0.02461,64.970093,22.593826,-147.662277,,,
729608712.776496,1.527294,2.248519,60.869452,-0.06897,0.007553,1.025757,-0.081625,-0.051021,0.02461,64.970093,22.593826,-147.662277,,,
729608712.779815,1.507305,2.239203,60.882149,-0.06897,0.007553,1.025757,-0.070646,-0.028642,0.042017,64.970093,22.593826,-147.662277,,,
729608712.783183,1.488477,2.234199,60.895009,-0.057663,0.012848,1.031372,-0.070646,-0.028642,0.042017,64.970093,22.593826,-147.662277,,,
729608712.786528,1.488477,2.234199,60.895009,-0.057663,0.012848,1.031372,-0.070646,-0.028642,0.042017,64.970093,22.593826,-147.662277,,,
729608712.789833,1.467369,2.234971,60.907794,-0.057663,0.012848,1.031372,-0.077197,0.006446,0.038862,64.970093,22.593826,-147.662277,,,
729608712.79315,1.447655,2.240674,60.920167,-0.046265,0.021011,1.023911,-0.077197,0.006446,0.038862,64.970093,22.593826,-147.662277,,,
729608712.796501,1.447655,2.240674,60.920167,-0.046265,0.021011,1.023911,-0.077197,0.006446,0.038862,64.970093,22.593826,-147.662277,,,
729608712.799889,1.426453,2.246945,60.931729,-0.046265,0.021011,1.023911,-0.07189,0.026051,0.038268,64.802017,22.828217,-147.484634,,,
729608712.803155,1.405754,2.257111,60.942536,-0.042618,0.023804,1.015045,-0.07189,0.026051,0.038268,64.802017,22.828217,-147.484634,,,
729608712.8065,1.405754,2.257111,60.942536,-0.042618,0.023804,1.015045,-0.07189,0.026051,0.038268,64.802017,22.828217,-147.484634,,,
729608712.809834,1.383498,2.26188,60.952107,-0.042618,0.023804,1.015045,-0.076721,0.020774,0.03038,64.802017,22.828217,-147.484634,,,
729608712.81315,1.361267,2.270504,60.959988,-0.039444,0.025833,1.005081,-0.076721,0.020774,0.03038,64.802017,22.828217,-147.484634,,,
729608712.816544,1.361267,2.270504,60.959988,-0.039444,0.025833,1.005081,-0.076721,0.020774,0.03038,64.802017,22.828217,-147.484634,,,
729608712.819826,1.338674,2.267599,60.967024,-0.039444,0.025833,1.005081,-0.078605,-0.005619,0.01885,64.802017,22.828217,-147.484634,,,
729608712.82315,1.314498,2.269544,60.972965,-0.035049,0.027023,0.995407,-0.078605,-0.005619,0.01885,64.802017,22.828217,-147.484634,,,
729608712.826552,1.314498,2.269544,60.972965,-0.035049,0.027023,0.995407,-0.078605,-0.005619,0.01885,64.802017,22.828217,-147.484634,,,
729608712.829822,1.290788,2.2589,60.978924,-0.035049,0.027023,0.995407,-0.084787,-0.033909,0.014313,64.802017,22.828217,-147.484634,,,
729608712.833142,1.264092,2.255628,60.98494,-0.038101,0.026733,0.994476,-0.084787,-0.033909,0.014313,64.802017,22.828217,-147.484634,,,
729608712.836479,1.264092,2.255628,60.98494,-0.038101,0.026733,0.994476,-0.084787,-0.033909,0.014313,64.802017,22.828217,-147.484634,,,
729608712.839895,1.24138,2.239543,60.991169,-0.038101,0.026733,0.994476,-0.078115,-0.05337,0.015343,64.728668,22.90686,-147.873154,,,
729608712.843142,1.214982,2.233212,60.99682,-0.032104,0.022705,0.99614,-0.078115,-0.05337,0.015343,64.728668,22.90686,-147.873154,,,
729608712.846483,1.214982,2.233212,60.99682,-0.032104,0.022705,0.99614,-0.078115,-0.05337,0.015343,64.728668,22.90686,-147.873154,,,
729608712.84988,1.194367,2.215885,61.001978,-0.032104,0.022705,0.99614,-0.071161,-0.056774,0.014712,64.728668,22.90686,-147.873154,,,
729608712.853147,1.171061,2.210202,61.006408,-0.022751,0.020798,1.000809,-0.071161,-0.056774,0.014712,64.728668,22.90686,-147.873154,,,
729608712.856492,1.171061,2.210202,61.006408,-0.022751,0.020798,1.000809,-0.071161,-0.056774,0.014712,64.728668,22.90686,-147.873154,,,
729608712.859836,1.152403,2.198342,61.010875,-0.022751,0.020798,1.000809,-0.063858,-0.038215,0.011311,64.728668,22.90686,-147.873154,,,
729608712.863104,1.131527,2.197884,61.014715,-0.018616,0.021286,1.006332,-0.063858,-0.038215,0.011311,64.728668,22.90686,-147.873154,,,
729608712.866498,1.131527,2.197884,61.014715,-0.018616,0.021286,1.006332,-0.063858,-0.038215,0.011311,64.728668,22.90686,-147.873154,,,
729608712.869842,1.11428,2.194031,61.018266,-0.018616,0.021286,1.006332,-0.059244,-0.008579,0.00805,64.728668,22.90686,-147.873154,,,
729608712.873148,1.09653,2.196459,61.021256,-0.015976,0.022736,1.000671,-0.059244,-0.008579,0.00805,64.728668,22.90686,-147.873154,,,
729608712.876571,1.09653,2.196459,61.021256,-0.015976,0.022736,1.000671,-0.059244,-0.008579,0.00805,64.728668,22.90686,-147.873154,,,
729608712.879807,1.0786,2.198365,61.022992,-0.015976,0.022736,1.000671,-0.061546,0.010251,0.003888,64.619003,23.066299,-147.756134,,,
729608712.883192,1.060182,2.202941,61.023299,-0.016586,0.027786,0.994247,-0.061546,0.010251,0.003888,64.619003,23.066299,-147.756134,,,
729608712.886527,1.060182,2.202941,61.023299,-0.016586,0.027786,0.994247,-0.061546,0.010251,0.003888,64.619003,23.066299,-147.756134,,,
729608712.889879,1.039814,2.206437,61.023017,-0.016586,0.027786,0.994247,-0.07158,0.017384,-0.004294,64.619003,23.066299,-147.756134,,,
729608712.893138,1.021416,2.209767,61.022323,-0.023163,0.028824,0.992172,-0.07158,0.017384,-0.004294,64.619003,23.066299,-147.756134,,,
729608712.896498,1.021416,2.209767,61.022323,-0.023163,0.028824,0.992172,-0.07158,0.017384,-0.004294,64.619003,23.066299,-147.756134,,,
729608712.899834,1.001601,2.209391,61.020985,-0.023163,0.028824,0.992172,-0.068759,0.000901,-0.009585,64.619003,23.066299,-147.756134,,,
729608712.903143,0.985358,2.204505,61.018778,-0.031555,0.024475,0.995529,-0.068759,0.000901,-0.009585,64.619003,23.066299,-147.756134,,,
729608712.90649,0.985358,2.204505,61.018778,-0.031555,0.024475,0.995529,-0.068759,0.000901,-0.009585,64.619003,23.066299,-147.756134,,,
729608712.909832,0.968317,2.195855,61.015943,-0.031555,0.024475,0.995529,-0.057679,-0.027132,-0.013456,64.619003,23.066299,-147.756134,,,
729608712.913146,0.956555,2.183083,61.012957,-0.037186,0.019241,0.997223,-0.057679,-0.027132,-0.013456,64.619003,23.066299,-147.756134,,,
729608712.916589,0.956555,2.183083,61.012957,-0.037186,0.019241,0.997223,-0.057679,-0.027132,-0.013456,64.619003,23.066299,-147.756134,,,
729608712.9198,0.942866,2.169542,61.009518,-0.037186,0.019241,0.997223,-0.045996,-0.045863,-0.013412,64.851471,23.054123,-147.635666,,,
729608712.923146,0.932634,2.154705,61.005344,-0.033203,0.016296,1.005325,-0.045996,-0.045863,-0.013412,64.851471,23.054123,-147.635666,,,
729608712.926489,0.932634,2.154705,61.005344,-0.033203,0.016296,1.005325,-0.045996,-0.045863,-0.013412,64.851471,23.054123,-147.635666,,,
729608712.929851,0.920926,2.140276,61.000612,-0.033203,0.016296,1.005325,-0.04123,-0.047028,-0.019274,64.851471,23.054123,-147.635666,,,
729608712.93315,0.911068,2.123799,60.995721,-0.029984,0.020004,1.00885,-0.04123,-0.047028,-0.019274,64.851471,23.054123,-147.635666,,,
729608712.936481,0.911068,2.123799,60.995721,-0.029984,0.020004,1.00885,-0.04123,-0.047028,-0.019274,64.851471,23.054123,-147.635666,,,
729608712.939835,0.900024,2.11404,60.990776,-0.029984,0.020004,1.00885,-0.0366,-0.031086,-0.018947,64.851471,23.054123,-147.635666,,,
729608712.943143,0.89005,2.101625,60.985975,-0.029358,0.021194,1.012131,-0.0366,-0.031086,-0.018947,64.851471,23.054123,-147.635666,,,
729608712.946583,0.89005,2.101625,60.985975,-0.029358,0.021194,1.012131,-0.0366,-0.031086,-0.018947,64.851471,23.054123,-147.635666,,,
729608712.949822,0.878977,2.096394,60.980925,-0.029358,0.021194,1.012131,-0.03542,-0.014513,-0.02379,64.851471,23.054123,-147.635666,,,
729608712.953151,0.870421,2.084455,60.974771,-0.027328,0.021332,1.006851,-0.03542,-0.014513,-0.02379,64.851471,23.054123,-147.635666,,,
729608712.956531,0.870421,2.084455,60.974771,-0.027328,0.021332,1.006851,-0.03542,-0.014513,-0.02379,64.851471,23.054123,-147.635666,,,
729608712.959807,0.860637,2.078958,60.96682,-0.027328,0.021332,1.006851,-0.033353,-0.016736,-0.031305,64.851471,23.054123,-147.635666,,,
729608712.963144,0.855547,2.066252,60.958143,-0.032257,0.019653,1.006546,-0.033353,-0.016736,-0.031305,64.709778,23.121582,-147.762115,,,
729608712.966483,0.855547,2.066252,60.958143,-0.032257,0.019653,1.006546,-0.033353,-0.016736,-0.031305,64.709778,23.121582,-147.762115,,,
729608712.969813,0.84897,2.05949,60.949654,-0.032257,0.019653,1.006546,-0.023077,-0.021655,-0.033452,64.709778,23.121582,-147.762115,,,
729608712.973143,0.848409,2.046644,60.94251,-0.041626,0.013611,1.008255,-0.023077,-0.021655,-0.033452,64.709778,23.121582,-147.762115,,,
729608712.976476,0.848409,2.046644,60.94251,-0.041626,0.013611,1.008255,-0.023077,-0.021655,-0.033452,64.709778,23.121582,-147.762115,,,
729608712.979827,0.845256,2.038548,60.936671,-0.041626,0.013611,1.008255,-0.008814,-0.026413,-0.021604,64.709778,23.121582,-147.762115,,,
729608712.983196,0.846517,2.028081,60.93206,-0.047012,0.007919,1.011887,-0.008814,-0.026413,-0.021604,64.709778,23.121582,-147.762115,,,
729608712.986488,0.846517,2.028081,60.93206,-0.047012,0.007919,1.011887,-0.008814,-0.026413,-0.021604,64.709778,23.121582,-147.762115,,,
729608712.989811,0.844953,2.020406,60.928322,-0.047012,0.007919,1.011887,-0.002729,-0.022282,-0.012162,64.709778,23.121582,-147.762115,,,
729608712.993145,0.846018,2.013498,60.924621,-0.047287,0.007599,1.012466,-0.002729,-0.022282,-0.012162,64.709778,23.121582,-147.762115,,,
729608712.996494,0.846018,2.013498,60.924621,-0.047287,0.007599,1.012466,-0.002729,-0.022282,-0.012162,64.709778,23.121582,-147.762115,,,
729608712.99983,0.846328,2.007317,60.920422,-0.047287,0.007599,1.012466,0.001479,-0.017982,-0.015834,64.709778,23.121582,-147.762115,,,
729608713.003164,0.847875,2.001958,60.915724,-0.045227,0.011353,1.014114,0.001479,-0.017982,-0.015834,64.488464,23.360672,-147.5849,,,
729608713.006562,0.847875,2.001958,60.915724,-0.045227,0.011353,1.014114,0.001479,-0.017982,-0.015834,64.488464,23.360672,-147.5849,,,
729608713.009831,0.849669,1.997251,60.91102,-0.045227,0.011353,1.014114,0.011125,-0.012977,-0.018296,64.488464,23.360672,-147.5849,,,
729608713.013156,0.85329,1.992356,60.906684,-0.047546,0.011215,1.011932,0.011125,-0.012977,-0.018296,64.488464,23.360672,-147.5849,,,
729608713.016543,0.85329,1.992356,60.906684,-0.047546,0.011215,1.011932,0.011125,-0.012977,-0.018296,64.488464,23.360672,-147.5849,,,
729608713.019877,0.85666,1.989705,60.903546,-0.047546,0.011215,1.011932,0.011798,-0.005965,-0.012949,64.488464,23.360672,-147.5849,,,
729608713.023139,0.862105,1.985484,60.901282,-0.054367,0.006485,1.011902,0.011798,-0.005965,-0.012949,64.488464,23.360672,-147.5849,,,
729608713.026488,0.862105,1.985484,60.901282,-0.054367,0.006485,1.011902,0.011798,-0.005965,-0.012949,64.488464,23.360672,-147.5849,,,
729608713.029829,0.86672,1.980938,60.898661,-0.054367,0.006485,1.011902,0.016158,-0.012463,-0.008624,64.488464,23.360672,-147.5849,,,
729608713.033143,0.87376,1.970024,60.895766,-0.053848,0.008194,1.00264,0.016158,-0.012463,-0.008624,64.488464,23.360672,-147.5849,,,
729608713.036478,0.87376,1.970024,60.895766,-0.053848,0.008194,1.00264,0.016158,-0.012463,-0.008624,64.488464,23.360672,-147.5849,,,
729608713.039837,0.879854,1.957207,60.892911,-0.053848,0.008194,1.00264,0.020043,-0.038979,-0.012838,64.488464,23.360672,-147.5849,,,
729608713.043139,0.888413,1.938957,60.8895,-0.051834,0.011673,0.999084,0.020043,-0.038979,-0.012838,64.418716,23.251251,-147.990158,,,
729608713.046502,0.888413,1.938957,60.8895,-0.051834,0.011673,0.999084,0.020043,-0.038979,-0.012838,64.418716,23.251251,-147.990158,,,
729608713.049924,0.896384,1.91955,60.885138,-0.051834,0.011673,0.999084,0.031251,-0.064754,-0.015617,64.418716,23.251251,-147.990158,,,
729608713.053142,0.905743,1.899275,60.880661,-0.049896,0.008591,1.001953,0.031251,-0.064754,-0.015617,64.418716,23.251251,-147.990158,,,
729608713.056564,0.905743,1.899275,60.880661,-0.049896,0.008591,1.001953,0.031251,-0.064754,-0.015617,64.418716,23.251251,-147.990158,,,
729608713.059828,0.91634,1.876375,60.875787,-0.049896,0.008591,1.001953,0.037097,-0.078449,-0.017804,64.418716,23.251251,-147.990158,,,
729608713.06315,0.92634,1.856616,60.870408,-0.045853,0.006546,1.003174,0.037097,-0.078449,-0.017804,64.418716,23.251251,-147.990158,,,
729608713.066489,0.92634,1.856616,60.870408,-0.045853,0.006546,1.003174,0.037097,-0.078449,-0.017804,64.418716,23.251251,-147.990158,,,
729608713.069878,0.939316,1.832874,60.865312,-0.045853,0.006546,1.003174,0.047443,-0.081941,-0.019392,64.418716,23.251251,-147.990158,,,
729608713.073154,0.950007,1.816144,60.860649,-0.041245,0.005966,1.00032,0.047443,-0.081941,-0.019392,64.418716,23.251251,-147.990158,,,
729608713.076493,0.950007,1.816144,60.860649,-0.041245,0.005966,1.00032,0.047443,-0.081941,-0.019392,64.418716,23.251251,-147.990158,,,
729608713.079865,0.963927,1.797555,60.856568,-0.041245,0.005966,1.00032,0.05037,-0.062889,-0.014461,64.418716,23.251251,-147.990158,,,
729608713.083268,0.976316,1.786859,60.853148,-0.041473,0.004562,1.002975,0.05037,-0.062889,-0.014461,64.276505,23.065628,-148.062256,,,
729608713.086501,0.976316,1.786859,60.853148,-0.041473,0.004562,1.002975,0.05037,-0.062889,-0.014461,64.276505,23.065628,-148.062256,,,
729608713.089884,0.991288,1.774963,60.850962,-0.041473,0.004562,1.002975,0.053193,-0.038005,-0.00796,64.276505,23.065628,-148.062256,,,
729608713.093161,1.006089,1.770187,60.849177,-0.037201,0.003479,1.001419,0.053193,-0.038005,-0.00796,64.276505,23.065628,-148.062256,,,
729608713.096482,1.006089,1.770187,60.849177,-0.037201,0.003479,1.001419,0.053193,-0.038005,-0.00796,64.276505,23.065628,-148.062256,,,
729608713.099835,1.023838,1.763273,60.846712,-0.037201,0.003479,1.001419,0.061737,-0.022395,-0.006814,64.276505,23.065628,-148.062256,,,
729608713.103145,1.040609,1.764456,60.843044,-0.034409,0.008194,0.998856,0.061737,-0.022395,-0.006814,64.276505,23.065628,-148.062256,,,
729608713.106478,1.040609,1.764456,60.843044,-0.034409,0.008194,0.998856,0.061737,-0.022395,-0.006814,64.276505,23.065628,-148.062256,,,
729608713.109825,1.061779,1.760392,60.837957,-0.034409,0.008194,0.998856,0.074134,-0.010939,-0.016905,64.276505,23.065628,-148.062256,,,
729608713.113148,1.07954,1.766214,60.8312,-0.027084,0.011826,0.990448,0.074134,-0.010939,-0.016905,64.276505,23.065628,-148.062256,,,
729608713.116553,1.07954,1.766214,60.8312,-0.027084,0.011826,0.990448,0.074134,-0.010939,-0.016905,64.276505,23.065628,-148.062256,,,
729608713.119907,1.100009,1.767816,60.824355,-0.027084,0.011826,0.990448,0.075926,0.008132,-0.022143,64.276505,23.065628,-148.062256,,,
729608713.123194,1.116498,1.779211,60.818104,-0.026779,0.014145,0.981384,0.075926,0.008132,-0.022143,64.276505,23.065628,-148.062256,,,
729608713.126496,1.116498,1.779211,60.818104,-0.026779,0.014145,0.981384,0.075926,0.008132,-0.022143,64.200058,23.020096,-148.153748,,,
729608713.129825,1.134086,1.785485,60.812929,-0.026779,0.014145,0.981384,0.061684,0.023901,-0.01798,64.200058,23.020096,-148.153748,,,
729608713.133144,1.134086,1.798799,60.808265,-0.026505,0.015915,0.970978,0.061684,0.023901,-0.01798,64.200058,23.020096,-148.153748,,,
729608713.136499,1.146865,1.798799,60.808265,-0.026505,0.015915,0.970978,0.061684,0.023901,-0.01798,64.200058,23.020096,-148.153748,,,
729608713.139581,1.159955,1.807264,60.804226,-0.026505,0.015915,0.970978,0.04699,0.032255,-0.015579,64.200058,23.020096,-148.153748,,,
729608713.143173,1.159955,1.821426,60.8007,-0.025375,0.019196,0.963867,0.04699,0.032255,-0.015579,64.200058,23.020096,-148.153748,,,
729608713.146569,1.16679,1.821426,60.8007,-0.025375,0.019196,0.963867,0.04699,0.032255,-0.015579,64.200058,23.020096,-148.153748,,,
729608713.149858,1.176135,1.830324,60.797292,-0.025375,0.019196,0.963867,0.033223,0.034317,-0.013923,64.200058,23.020096,-148.153748,,,
729608713.153146,1.176135,1.830324,60.793167,-0.024323,0.024048,0.962799,0.033223,0.034317,-0.013923,64.200058,23.020096,-148.153748,,,
729608713.156488,1.180601,1.842384,60.793167,-0.024323,0.024048,0.962799,0.033223,0.034317,-0.013923,64.200058,23.020096,-148.153748,,,
729608713.159873,1.187296,1.850338,60.788474,-0.024323,0.024048,0.962799,0.026558,0.029029,-0.016629,64.200058,23.020096,-148.153748,,,
729608713.163136,1.187296,1.850338,60.788474,-0.020264,0.030548,0.958939,0.026558,0.029029,-0.016629,64.200058,23.020096,-148.153748,,,
729608713.166495,1.187358,1.859883,60.783131,-0.020264,0.030548,0.958939,0.026558,0.029029,-0.016629,64.286423,22.98671,-148.025223,,,
729608713.169833,1.188353,1.864722,60.777252,-0.020264,0.030548,0.958939,0.006577,0.019218,-0.020447,64.286423,22.98671,-148.025223,,,
729608713.173159,1.188353,1.864722,60.771119,-0.019989,0.03212,0.952148,0.006577,0.019218,-0.020447,64.286423,22.98671,-148.025223,,,
729608713.176497,1.1806,1.870164,60.771119,-0.019989,0.03212,0.952148,0.006577,0.019218,-0.020447,64.286423,22.98671,-148.025223,,,
729608713.179826,1.174622,1.873349,60.764979,-0.019989,0.03212,0.952148,-0.022365,0.014905,-0.022748,64.286423,22.98671,-148.025223,,,
729608713.183166,1.174622,1.873349,60.764979,-0.019989,0.03212,0.952148,-0.022365,0.014905,-0.022748,64.286423,22.98671,-148.025223,,,
729608713.186544,1.162748,1.876292,60.759069,-0.0233,0.030655,0.959076,-0.022365,0.014905,-0.022748,64.286423,22.98671,-148.025223,,,
729608713.189827,1.151678,1.876676,60.753899,-0.0233,0.030655,0.959076,-0.037641,0.005758,-0.019719,64.286423,22.98671,-148.025223,,,
729608713.193149,1.151678,1.876676,60.753899,-0.025574,0.03038,0.960846,-0.037641,0.005758,-0.019719,64.286423,22.98671,-148.025223,,,
729608713.196511,1.136501,1.875377,60.748876,-0.025574,0.03038,0.960846,-0.037641,0.005758,-0.019719,64.286423,22.98671,-148.025223,,,
729608713.199814,1.119969,1.87569,60.74346,-0.025574,0.03038,0.960846,-0.056634,0.005007,-0.021494,64.286423,22.98671,-148.025223,,,
729608713.203156,1.119969,1.87569,60.74346,-0.025574,0.03038,0.960846,-0.056634,0.005007,-0.021494,64.286423,22.98671,-148.025223,,,
729608713.206484,1.099684,1.877994,60.737386,-0.023697,0.02861,0.971085,-0.056634,0.005007,-0.021494,64.329391,22.939148,-147.66571,,,
729608713.209824,1.077245,1.884531,60.730178,-0.023697,0.02861,0.971085,-0.077394,0.026114,-0.031755,64.329391,22.939148,-147.66571,,,
729608713.213209,1.077245,1.884531,60.730178,-0.022018,0.031967,0.98085,-0.077394,0.026114,-0.031755,64.329391,22.939148,-147.66571,,,
729608713.216526,1.05244,1.893407,60.722458,-0.022018,0.031967,0.98085,-0.077394,0.026114,-0.031755,64.329391,22.939148,-147.66571,,,
729608713.219807,1.027382,1.905751,60.714727,-0.022018,0.031967,0.98085,-0.086629,0.044457,-0.031936,64.329391,22.939148,-147.66571,,,
729608713.223204,1.027382,1.905751,60.714727,-0.022018,0.031967,0.98085,-0.086629,0.044457,-0.031936,64.329391,22.939148,-147.66571,,,
729608713.226491,1.002848,1.91921,60.707907,-0.034485,0.02536,0.991455,-0.086629,0.044457,-0.031936,64.329391,22.939148,-147.66571,,,
729608713.229815,0.979667,1.934361,60.702577,-0.034485,0.02536,0.991455,-0.078644,0.05466,-0.023479,64.329391,22.939148,-147.66571,,,
729608713.233179,0.979667,1.934361,60.702577,-0.034485,0.02536,0.991455,-0.078644,0.05466,-0.023479,64.329391,22.939148,-147.66571,,,
729608713.236545,0.960597,1.947402,60.698553,-0.043579,0.012543,1.000092,-0.078644,0.05466,-0.023479,64.329391,22.939148,-147.66571,,,
729608713.23983,0.944099,1.959593,60.695397,-0.043579,0.012543,1.000092,-0.058044,0.045201,-0.013998,64.329391,22.939148,-147.66571,,,
729608713.243259,0.944099,1.959593,60.695397,-0.043579,0.012543,1.000092,-0.058044,0.045201,-0.013998,64.329391,22.939148,-147.66571,,,
729608713.246527,0.932172,1.968108,60.69193,-0.043777,0.00885,1.000778,-0.058044,0.045201,-0.013998,64.329391,22.939148,-147.66571,,,
729608713.249864,0.921167,1.975264,60.687393,-0.043777,0.00885,1.000778,-0.037862,0.027091,-0.018066,64.381104,23.09964,-147.680313,,,
729608713.253142,0.921167,1.975264,60.687393,-0.043777,0.00885,1.000778,-0.037862,0.027091,-0.018066,64.381104,23.09964,-147.680313,,,
729608713.256506,0.913944,1.978391,60.682326,-0.042801,0.0168,1.003082,-0.037862,0.027091,-0.018066,64.381104,23.09964,-147.680313,,,
729608713.259818,0.906498,1.981347,60.677195,-0.042801,0.0168,1.003082,-0.023883,0.014335,-0.02059,64.381104,23.09964,-147.680313,,,
729608713.263318,0.906498,1.981347,60.677195,-0.045853,0.018906,1.006317,-0.023883,0.014335,-0.02059,64.381104,23.09964,-147.680313,,,
729608713.266487,0.902801,1.980567,60.672742,-0.045853,0.018906,1.006317,-0.023883,0.014335,-0.02059,64.381104,23.09964,-147.680313,,,
729608713.269822,0.898616,1.978763,60.669824,-0.045853,0.018906,1.006317,-0.011357,-0.001791,-0.012974,64.381104,23.09964,-147.680313,,,
729608713.273188,0.898616,1.978763,60.669824,-0.045853,0.018906,1.006317,-0.011357,-0.001791,-0.012974,64.381104,23.09964,-147.680313,,,
729608713.276552,0.898157,1.973695,60.668504,-0.046906,0.014389,1.006363,-0.011357,-0.001791,-0.012974,64.381104,23.09964,-147.680313,,,
729608713.279801,0.897466,1.967968,60.668036,-0.046906,0.014389,1.006363,-0.001385,-0.016738,-0.002558,64.381104,23.09964,-147.680313,,,
729608713.283242,0.897466,1.967968,60.668036,-0.046906,0.014389,1.006363,-0.001385,-0.016738,-0.002558,64.381104,23.09964,-147.680313,,,
729608713.286483,0.900787,1.958787,60.667671,-0.044296,0.010635,1.008667,-0.001385,-0.016738,-0.002558,64.381104,23.09964,-147.680313,,,
729608713.289812,0.904327,1.947179,60.667146,-0.044296,0.010635,1.008667,0.014505,-0.037757,-0.001556,64.507782,23.165268,-147.497269,,,
729608713.293206,0.904327,1.947179,60.667146,-0.044296,0.010635,1.008667,0.014505,-0.037757,-0.001556,64.507782,23.165268,-147.497269,,,
729608713.296488,0.913307,1.928587,60.66644,-0.041992,0.015579,1.004471,0.014505,-0.037757,-0.001556,64.507782,23.165268,-147.497269,,,
729608713.299816,0.920992,1.908039,60.665054,-0.041992,0.015579,1.004471,0.028028,-0.069188,-0.008004,64.507782,23.165268,-147.497269,,,
729608713.303144,0.920992,1.908039,60.665054,-0.041992,0.015579,1.004471,0.028028,-0.069188,-0.008004,64.507782,23.165268,-147.497269,,,
729608713.306577,0.93213,1.883195,60.662542,-0.039246,0.019821,1.000748,0.028028,-0.069188,-0.008004,64.507782,23.165268,-147.497269,,,
729608713.309812,0.941324,1.856675,60.659173,-0.039246,0.019821,1.000748,0.03051,-0.090392,-0.011524,64.507782,23.165268,-147.497269,,,
729608713.313221,0.941324,1.856675,60.659173,-0.039246,0.019821,1.000748,0.03051,-0.090392,-0.011524,64.507782,23.165268,-147.497269,,,
729608713.31653,0.950328,1.831803,60.655228,-0.028015,0.019943,0.998001,0.03051,-0.090392,-0.011524,64.507782,23.165268,-147.497269,,,
729608713.319816,0.95857,1.805436,60.650826,-0.028015,0.019943,0.998001,0.030223,-0.091149,-0.014635,64.507782,23.165268,-147.497269,,,
729608713.323161,0.95857,1.805436,60.650826,-0.028015,0.019943,0.998001,0.030223,-0.091149,-0.014635,64.507782,23.165268,-147.497269,,,
729608713.32655,0.963518,1.786178,60.645999,-0.018555,0.021393,1.002182,0.030223,-0.091149,-0.014635,64.507782,23.165268,-147.497269,,,
729608713.32981,0.968564,1.768222,60.639865,-0.018555,0.021393,1.002182,0.018152,-0.06024,-0.02293,64.189957,23.098953,-147.635818,,,
729608713.333169,0.968564,1.768222,60.639865,-0.018555,0.021393,1.002182,0.018152,-0.06024,-0.02293,64.189957,23.098953,-147.635818,,,
729608713.336514,0.970212,1.760982,60.632751,-0.010254,0.027283,1.006195,0.018152,-0.06024,-0.02293,64.189957,23.098953,-147.635818,,,
729608713.339816,0.970915,1.756947,60.626152,-0.010254,0.027283,1.006195,0.002576,-0.011121,-0.025218,64.189957,23.098953,-147.635818,,,
729608713.343166,0.970915,1.756947,60.626152,-0.010254,0.027283,1.006195,0.002576,-0.011121,-0.025218,64.189957,23.098953,-147.635818,,,
729608713.346513,0.970443,1.763248,60.620558,-0.010239,0.025116,1.008591,0.002576,-0.011121,-0.025218,64.189957,23.098953,-147.635818,,,
729608713.349606,0.968416,1.770091,60.616578,-0.010239,0.025116,1.008591,-0.006996,0.027995,-0.016145,64.189957,23.098953,-147.635818,,,
729608713.353173,0.968416,1.770091,60.616578,-0.010239,0.025116,1.008591,-0.006996,0.027995,-0.016145,64.189957,23.098953,-147.635818,,,
729608713.356503,0.965607,1.786806,60.613699,-0.018677,0.019424,1.00853,-0.006996,0.027995,-0.016145,64.189957,23.098953,-147.635818,,,
729608713.359818,0.962873,1.801449,60.611473,-0.018677,0.019424,1.00853,-0.008955,0.053969,-0.010237,64.189957,23.098953,-147.635818,,,
729608713.363226,0.962873,1.801449,60.611473,-0.018677,0.019424,1.00853,-0.008955,0.053969,-0.010237,64.189957,23.098953,-147.635818,,,
729608713.366468,0.9595,1.821883,60.609614,-0.022034,0.019989,1.008148,-0.008955,0.053969,-0.010237,64.189957,23.098953,-147.635818,,,
729608713.369811,0.958897,1.836743,60.608068,-0.022034,0.019989,1.008148,0.000688,0.053761,-0.005013,64.530823,22.962982,-147.594315,,,
729608713.373158,0.958897,1.836743,60.608068,-0.022034,0.019989,1.008148,0.000688,0.053761,-0.005013,64.530823,22.962982,-147.594315,,,
729608713.376541,0.958679,1.851986,60.606265,-0.025803,0.020615,1.003372,0.000688,0.053761,-0.005013,64.530823,22.962982,-147.594315,,,
729608713.379806,0.96201,1.860714,60.603914,-0.025803,0.020615,1.003372,0.014651,0.033261,-0.006408,64.530823,22.962982,-147.594315,,,
729608713.383217,0.96201,1.860714,60.603914,-0.025803,0.020615,1.003372,0.014651,0.033261,-0.006408,64.530823,22.962982,-147.594315,,,
729608713.386488,0.967897,1.868923,60.600664,-0.029404,0.017792,0.998566,0.014651,0.033261,-0.006408,64.530823,22.962982,-147.594315,,,
729608713.389809,0.974028,1.871266,60.596627,-0.029404,0.017792,0.998566,0.02224,0.011675,-0.012894,64.530823,22.962982,-147.594315,,,
729608713.393162,0.974028,1.871266,60.596627,-0.029404,0.017792,0.998566,0.02224,0.011675,-0.012894,64.530823,22.962982,-147.594315,,,
729608713.396478,0.981466,1.870819,60.5915,-0.025314,0.021835,0.995651,0.02224,0.011675,-0.012894,64.530823,22.962982,-147.594315,,,
729608713.399811,0.987858,1.868155,60.585479,-0.025314,0.021835,0.995651,0.026341,-0.00627,-0.024699,64.530823,22.962982,-147.594315,,,
729608713.403145,0.987858,1.868155,60.585479,-0.025314,0.021835,0.995651,0.026341,-0.00627,-0.024699,64.530823,22.962982,-147.594315,,,
729608713.406485,0.99362,1.86153,60.578306,-0.022827,0.027878,0.991318,0.026341,-0.00627,-0.024699,64.530823,22.962982,-147.594315,,,
729608713.409828,0.996064,1.859535,60.570068,-0.022827,0.027878,0.991318,0.010941,-0.00751,-0.029369,64.530823,22.962982,-147.594315,,,
729608713.413228,0.996064,1.859535,60.570068,-0.022827,0.027878,0.991318,0.010941,-0.00751,-0.029369,64.442993,22.926849,-147.78125,,,
729608713.416536,0.998343,1.853006,60.56213,-0.029816,0.028931,0.991623,0.010941,-0.00751,-0.029369,64.442993,22.926849,-147.78125,,,
729608713.419815,0.997103,1.854338,60.555205,-0.029816,0.028931,0.991623,-0.002229,0.005553,-0.025236,64.442993,22.926849,-147.78125,,,
729608713.423164,0.997103,1.854338,60.555205,-0.029816,0.028931,0.991623,-0.002229,0.005553,-0.025236,64.442993,22.926849,-147.78125,,,
729608713.426555,0.997826,1.848822,60.550271,-0.038315,0.023392,0.997162,-0.002229,0.005553,-0.025236,64.442993,22.926849,-147.78125,,,
729608713.42981,0.995631,1.851768,60.547363,-0.038315,0.023392,0.997162,-0.005352,0.01353,-0.009676,64.442993,22.926849,-147.78125,,,
729608713.433144,0.995631,1.851768,60.547363,-0.038315,0.023392,0.997162,-0.005352,0.01353,-0.009676,64.442993,22.926849,-147.78125,,,
729608713.436575,0.994777,1.849558,60.545719,-0.045074,0.014328,1.001236,-0.005352,0.01353,-0.009676,64.442993,22.926849,-147.78125,,,
729608713.439804,0.993652,1.853045,60.544857,-0.045074,0.014328,1.001236,-0.003376,0.015834,-0.003814,64.442993,22.926849,-147.78125,,,
729608713.443155,0.993652,1.853045,60.544857,-0.045074,0.014328,1.001236,-0.003376,0.015834,-0.003814,64.442993,22.926849,-147.78125,,,
729608713.446489,0.99411,1.852065,60.544782,-0.049438,0.014633,1.004715,-0.003376,0.015834,-0.003814,64.442993,22.926849,-147.78125,,,
729608713.449861,0.994012,1.853998,60.54416,-0.049438,0.014633,1.004715,0.001128,0.007411,-0.001974,64.442993,22.926849,-147.78125,,,
729608713.45314,0.994012,1.853998,60.54416,-0.049438,0.014633,1.004715,0.001128,0.007411,-0.001974,64.668411,22.870819,-148.076096,,,
729608713.456494,0.995076,1.852796,60.543354,-0.046799,0.016647,1.006317,0.001128,0.007411,-0.001974,64.668411,22.870819,-148.076096,,,
729608713.459816,0.995753,1.854303,60.542033,-0.046799,0.016647,1.006317,0.006609,0.005548,-0.007974,64.668411,22.870819,-148.076096,,,
729608713.463201,0.995753,1.854303,60.542033,-0.046799,0.016647,1.006317,0.006609,0.005548,-0.007974,64.668411,22.870819,-148.076096,,,
729608713.46649,0.997397,1.853575,60.539904,-0.045197,0.016388,1.008194,0.006609,0.005548,-0.007974,64.668411,22.870819,-148.076096,,,
729608713.469815,1.000219,1.853236,60.53769,-0.045197,0.016388,1.008194,0.013033,0.001945,-0.006879,64.668411,22.870819,-148.076096,,,
729608713.473155,1.000219,1.853236,60.53769,-0.045197,0.016388,1.008194,0.013033,0.001945,-0.006879,64.668411,22.870819,-148.076096,,,
729608713.476553,1.005614,1.850253,60.535991,-0.043823,0.013092,1.009201,0.013033,0.001945,-0.006879,64.668411,22.870819,-148.076096,,,
729608713.479806,1.011997,1.848144,60.534222,-0.043823,0.013092,1.009201,0.023644,-0.004975,-0.009018,64.668411,22.870819,-148.076096,,,
729608713.483202,1.011997,1.848144,60.534222,-0.043823,0.013092,1.009201,0.023644,-0.004975,-0.009018,64.668411,22.870819,-148.076096,,,
729608713.486496,1.022252,1.843306,60.532393,-0.044083,0.011719,1.007599,0.023644,-0.004975,-0.009018,64.668411,22.870819,-148.076096,,,
729608713.489807,1.031496,1.842202,60.531021,-0.044083,0.011719,1.007599,0.029967,-0.00049,-0.002757,64.668411,22.870819,-148.076096,,,
729608713.49315,1.031496,1.842202,60.531021,-0.044083,0.011719,1.007599,0.029967,-0.00049,-0.002757,64.536713,22.863266,-147.772125,,,
729608713.496491,1.04539,1.839728,60.530968,-0.039886,0.009537,1.010422,0.029967,-0.00049,-0.002757,64.536713,22.863266,-147.772125,,,
729608713.499815,1.056652,1.83896,60.532301,-0.039886,0.009537,1.010422,0.041375,-2.7e-05,0.002899,64.536713,22.863266,-147.772125,,,
729608713.503147,1.056652,1.83896,60.532301,-0.039886,0.009537,1.010422,0.041375,-2.7e-05,0.002899,64.536713,22.863266,-147.772125,,,
729608713.506496,1.069936,1.839133,60.534168,-0.034805,0.011322,1.003983,0.041375,-2.7e-05,0.002899,64.536713,22.863266,-147.772125,,,
729608713.509816,1.079187,1.839081,60.53585,-0.034805,0.011322,1.003983,0.034974,0.004649,0.005892,64.536713,22.863266,-147.772125,,,
729608713.513234,1.079187,1.839081,60.53585,-0.034805,0.011322,1.003983,0.034974,0.004649,0.005892,64.536713,22.863266,-147.772125,,,
729608713.516562,1.085928,1.844299,60.537365,-0.032257,0.016006,0.996353,0.034974,0.004649,0.005892,64.536713,22.863266,-147.772125,,,
729608713.519815,1.091286,1.847429,60.538917,-0.032257,0.016006,0.996353,0.019121,0.013371,0.004472,64.536713,22.863266,-147.772125,,,
729608713.52317,1.091286,1.847429,60.538917,-0.032257,0.016006,0.996353,0.019121,0.013371,0.004472,64.536713,22.863266,-147.772125,,,
729608713.526547,1.093304,1.856461,60.540045,-0.026932,0.016953,0.997757,0.019121,0.013371,0.004472,64.536713,22.863266,-147.772125,,,
729608713.529813,1.095338,1.860159,60.541891,-0.026932,0.016953,0.997757,0.00762,0.018449,0.003639,64.536713,22.863266,-147.772125,,,
729608713.533238,1.095338,1.860159,60.541891,-0.026932,0.016953,0.997757,0.00762,0.018449,0.003639,64.536713,22.863266,-147.772125,,,
729608713.536482,1.095064,1.868159,60.544476,-0.027145,0.015427,0.990997,0.00762,0.018449,0.003639,64.689987,22.747681,-147.565308,,,
729608713.539819,1.094613,1.870013,60.546905,-0.027145,0.015427,0.990997,-4.6e-05,0.008494,0.007204,64.689987,22.747681,-147.565308,,,
729608713.54316,1.094613,1.870013,60.546905,-0.027145,0.015427,0.990997,-4.6e-05,0.008494,0.007204,64.689987,22.747681,-147.565308,,,
729608713.546501,1.091594,1.874184,60.548193,-0.02359,0.013916,0.988159,-4.6e-05,0.008494,0.007204,64.689987,22.747681,-147.565308,,,
729608713.549867,1.087315,1.872309,60.547892,-0.02359,0.013916,0.988159,-0.01253,-0.002303,-0.001627,64.689987,22.747681,-147.565308,,,
729608713.553222,1.087315,1.872309,60.547892,-0.02359,0.013916,0.988159,-0.01253,-0.002303,-0.001627,64.689987,22.747681,-147.565308,,,
729608713.556532,1.08047,1.871592,60.545325,-0.015778,0.021133,0.986435,-0.01253,-0.002303,-0.001627,64.689987,22.747681,-147.565308,,,
729608713.559809,1.074425,1.864934,60.541273,-0.015778,0.021133,0.986435,-0.019873,-0.022453,-0.016717,64.689987,22.747681,-147.565308,,,
729608713.56315,1.074425,1.864934,60.541273,-0.015778,0.021133,0.986435,-0.019873,-0.022453,-0.016717,64.689987,22.747681,-147.565308,,,
729608713.566542,1.066084,1.860195,60.536546,-0.016769,0.023117,0.983749,-0.019873,-0.022453,-0.016717,64.689987,22.747681,-147.565308,,,
729608713.569806,1.059606,1.850222,60.531361,-0.016769,0.023117,0.983749,-0.022875,-0.03136,-0.022742,64.689987,22.747681,-147.565308,,,
729608713.573157,1.059606,1.850222,60.531361,-0.016769,0.023117,0.983749,-0.022875,-0.03136,-0.022742,64.689987,22.747681,-147.565308,,,
729608713.576486,1.050902,1.842545,60.525901,-0.019638,0.017105,0.989349,-0.022875,-0.03136,-0.022742,64.576172,22.879044,-147.41745,,,
729608713.579812,1.044686,1.831512,60.520468,-0.019638,0.017105,0.989349,-0.018131,-0.03367,-0.020076,64.576172,22.879044,-147.41745,,,
729608713.583205,1.044686,1.831512,60.520468,-0.019638,0.017105,0.989349,-0.018131,-0.03367,-0.020076,64.576172,22.879044,-147.41745,,,
729608713.586503,1.036787,1.822627,60.51513,-0.021484,0.011185,0.995453,-0.018131,-0.03367,-0.020076,64.576172,22.879044,-147.41745,,,
729608713.589808,1.031642,1.814671,60.51026,-0.021484,0.011185,0.995453,-0.016242,-0.023856,-0.020766,64.576172,22.879044,-147.41745,,,
729608713.59322,1.031642,1.814671,60.51026,-0.021484,0.011185,0.995453,-0.016242,-0.023856,-0.020766,64.576172,22.879044,-147.41745,,,
729608713.596495,1.025611,1.809821,60.506272,-0.026245,0.010254,0.996597,-0.016242,-0.023856,-0.020766,64.576172,22.879044,-147.41745,,,
729608713.599808,1.021353,1.806675,60.503648,-0.026245,0.010254,0.996597,-0.015026,-0.008723,-0.012049,64.576172,22.879044,-147.41745,,,
729608713.603144,1.021353,1.806675,60.503648,-0.026245,0.010254,0.996597,-0.015026,-0.008723,-0.012049,64.576172,22.879044,-147.41745,,,
729608713.60653,1.016357,1.80491,60.501672,-0.027588,0.012192,0.995911,-0.015026,-0.008723,-0.012049,64.576172,22.879044,-147.41745,,,
729608713.609841,1.011246,1.806133,60.499583,-0.027588,0.012192,0.995911,-0.015423,0.003703,-0.011029,64.576172,22.879044,-147.41745,,,
729608713.613253,1.011246,1.806133,60.499583,-0.027588,0.012192,0.995911,-0.015423,0.003703,-0.011029,64.576172,22.879044,-147.41745,,,
729608713.616542,1.004871,1.806944,60.496735,-0.026154,0.017578,0.9935,-0.015423,0.003703,-0.011029,64.404327,22.929016,-147.675598,,,
729608713.619836,0.99817,1.810571,60.492411,-0.026154,0.017578,0.9935,-0.020359,0.016752,-0.018115,64.404327,22.929016,-147.675598,,,
729608713.623145,0.99817,1.810571,60.492411,-0.026154,0.017578,0.9935,-0.020359,0.016752,-0.018115,64.404327,22.929016,-147.675598,,,
729608713.626503,0.990563,1.813755,60.487239,-0.025406,0.022995,0.99202,-0.020359,0.016752,-0.018115,64.404327,22.929016,-147.675598,,,
729608713.629817,0.984309,1.818698,60.481268,-0.025406,0.022995,0.99202,-0.024041,0.021422,-0.023211,64.404327,22.929016,-147.675598,,,
729608713.633238,0.984309,1.818698,60.481268,-0.025406,0.022995,0.99202,-0.024041,0.021422,-0.023211,64.404327,22.929016,-147.675598,,,
729608713.636486,0.978973,1.817202,60.4749,-0.030823,0.024673,0.991501,-0.024041,0.021422,-0.023211,64.404327,22.929016,-147.675598,,,
729608713.639811,0.973923,1.818295,60.467827,-0.030823,0.024673,0.991501,-0.015081,0.007702,-0.025901,64.404327,22.929016,-147.675598,,,
729608713.643153,0.973923,1.818295,60.467827,-0.030823,0.024673,0.991501,-0.015081,0.007702,-0.025901,64.404327,22.929016,-147.675598,,,
729608713.646553,0.97107,1.812781,60.460732,-0.035721,0.02121,0.990219,-0.015081,0.007702,-0.025901,64.404327,22.929016,-147.675598,,,
729608713.649845,0.966485,1.810737,60.454771,-0.035721,0.02121,0.990219,-0.014064,-0.007532,-0.024493,64.404327,22.929016,-147.675598,,,
729608713.653142,0.966485,1.810737,60.454771,-0.035721,0.02121,0.990219,-0.014064,-0.007532,-0.024493,64.404327,22.929016,-147.675598,,,
729608713.656488,0.962061,1.803398,60.450461,-0.039734,0.020538,0.986221,-0.014064,-0.007532,-0.024493,64.618652,22.928894,-147.684967,,,
729608713.659805,0.955642,1.799208,60.447473,-0.039734,0.020538,0.986221,-0.021293,-0.013143,-0.013891,64.618652,22.928894,-147.684967,,,
729608713.663157,0.955642,1.799208,60.447473,-0.039734,0.020538,0.986221,-0.021293,-0.013143,-0.013891,64.618652,22.928894,-147.684967,,,
729608713.666503,0.947499,1.791144,60.444971,-0.040573,0.020859,0.988785,-0.021293,-0.013143,-0.013891,64.618652,22.928894,-147.684967,,,
729608713.669813,0.940394,1.786275,60.441803,-0.040573,0.020859,0.988785,-0.026632,-0.013761,-0.011441,64.618652,22.928894,-147.684967,,,
729608713.673231,0.940394,1.786275,60.441803,-0.040573,0.020859,0.988785,-0.026632,-0.013761,-0.011441,64.618652,22.928894,-147.684967,,,
729608713.676497,0.9325,1.77815,60.437163,-0.032028,0.024948,0.990982,-0.026632,-0.013761,-0.011441,64.618652,22.928894,-147.684967,,,
729608713.67982,0.926731,1.771318,60.430699,-0.032028,0.024948,0.990982,-0.020225,-0.023078,-0.021907,64.618652,22.928894,-147.684967,,,
729608713.683195,0.926731,1.771318,60.430699,-0.032028,0.024948,0.990982,-0.020225,-0.023078,-0.021907,64.618652,22.928894,-147.684967,,,
729608713.686558,0.919601,1.763426,60.423478,-0.034042,0.026154,0.993088,-0.020225,-0.023078,-0.021907,64.618652,22.928894,-147.684967,,,
729608713.689813,0.914489,1.75793,60.416875,-0.034042,0.026154,0.993088,-0.016704,-0.015489,-0.025142,64.618652,22.928894,-147.684967,,,
729608713.693177,0.914489,1.75793,60.416875,-0.034042,0.026154,0.993088,-0.016704,-0.015489,-0.025142,64.618652,22.928894,-147.684967,,,
729608713.696509,0.909469,1.753069,60.412049,-0.041916,0.017914,1.00061,-0.016704,-0.015489,-0.025142,64.305099,22.970734,-147.795319,,,
729608713.699817,0.905291,1.752659,60.409444,-0.041916,0.017914,1.00061,-0.013393,-0.001416,-0.008912,64.305099,22.970734,-147.795319,,,
729608713.703149,0.905291,1.752659,60.409444,-0.041916,0.017914,1.00061,-0.013393,-0.001416,-0.008912,64.305099,22.970734,-147.795319,,,
729608713.706504,0.903512,1.75437,60.408917,-0.047714,0.00882,1.004822,-0.013393,-0.001416,-0.008912,64.305099,22.970734,-147.795319,,,
729608713.709818,0.900709,1.760896,60.410224,-0.047714,0.00882,1.004822,-0.009242,0.026221,0.002816,64.305099,22.970734,-147.795319,,,
729608713.713222,0.900709,1.760896,60.410224,-0.047714,0.00882,1.004822,-0.009242,0.026221,0.002816,64.305099,22.970734,-147.795319,,,
729608713.716534,0.902073,1.768338,60.413125,-0.051437,0.008926,1.012421,-0.009242,0.026221,0.002816,64.305099,22.970734,-147.795319,,,
729608713.719806,0.902525,1.776687,60.416908,-0.051437,0.008926,1.012421,0.003607,0.033127,0.009635,64.305099,22.970734,-147.795319,,,
729608713.723175,0.902525,1.776687,60.416908,-0.051437,0.008926,1.012421,0.003607,0.033127,0.009635,64.305099,22.970734,-147.795319,,,
729608713.726564,0.906472,1.785744,60.420382,-0.051361,0.014282,1.009399,0.003607,0.033127,0.009635,64.305099,22.970734,-147.795319,,,
729608713.72981,0.908714,1.792384,60.422913,-0.051361,0.014282,1.009399,0.011437,0.024989,0.008753,64.305099,22.970734,-147.795319,,,
729608713.733165,0.908714,1.792384,60.422913,-0.051361,0.014282,1.009399,0.011437,0.024989,0.008753,64.305099,22.970734,-147.795319,,,
729608713.736496,0.912422,1.798762,60.424681,-0.05481,0.019257,1.004929,0.011437,0.024989,0.008753,64.305099,22.970734,-147.795319,,,
729608713.73982,0.914007,1.799638,60.426697,-0.05481,0.019257,1.004929,0.006683,0.005788,0.006952,64.613388,23.023758,-148.027786,,,
729608713.743162,0.914007,1.799638,60.426697,-0.05481,0.019257,1.004929,0.006683,0.005788,0.006952,64.613388,23.023758,-148.027786,,,
729608713.746512,0.916293,1.800859,60.429953,-0.053558,0.019913,0.997467,0.006683,0.005788,0.006952,64.613388,23.023758,-148.027786,,,
729608713.749855,0.918061,1.795899,60.434535,-0.053558,0.019913,0.997467,0.004126,-0.014809,0.016096,64.613388,23.023758,-148.027786,,,
729608713.753145,0.918061,1.795899,60.434535,-0.053558,0.019913,0.997467,0.004126,-0.014809,0.016096,64.613388,23.023758,-148.027786,,,
729608713.756489,0.923101,1.790288,60.439965,-0.048996,0.013412,1.000717,0.004126,-0.014809,0.016096,64.613388,23.023758,-148.027786,,,
729608713.759809,0.928026,1.781336,60.445493,-0.048996,0.013412,1.000717,0.018748,-0.027167,0.016339,64.613388,23.023758,-148.027786,,,
729608713.763154,0.928026,1.781336,60.445493,-0.048996,0.013412,1.000717,0.018748,-0.027167,0.016339,64.613388,23.023758,-148.027786,,,
729608713.76656,0.939211,1.771455,60.450856,-0.03714,0.013641,1.00238,0.018748,-0.027167,0.016339,64.613388,23.023758,-148.027786,,,
729608713.769807,0.949137,1.761609,60.456271,-0.03714,0.013641,1.00238,0.03472,-0.027648,0.017873,64.613388,23.023758,-148.027786,,,
729608713.77316,0.949137,1.761609,60.456271,-0.03714,0.013641,1.00238,0.03472,-0.027648,0.017873,64.613388,23.023758,-148.027786,,,
729608713.776499,0.960612,1.757015,60.461688,-0.024948,0.019531,0.996292,0.03472,-0.027648,0.017873,64.613388,23.023758,-148.027786,,,
729608713.779804,0.970103,1.753662,60.467724,-0.024948,0.019531,0.996292,0.034893,-0.008118,0.021656,64.204544,22.958984,-148.159683,,,
729608713.783194,0.970103,1.753662,60.467724,-0.024948,0.019531,0.996292,0.034893,-0.008118,0.021656,64.204544,22.958984,-148.159683,,,
729608713.786483,0.977219,1.758616,60.474474,-0.017319,0.024536,0.990158,0.034893,-0.008118,0.021656,64.204544,22.958984,-148.159683,,,
729608713.789813,0.984313,1.762059,60.482013,-0.017319,0.024536,0.990158,0.02228,0.017234,0.025599,64.204544,22.958984,-148.159683,,,
729608713.793209,0.984313,1.762059,60.482013,-0.017319,0.024536,0.990158,0.02228,0.017234,0.025599,64.204544,22.958984,-148.159683,,,
729608713.7965,0.986709,1.774104,60.489494,-0.013184,0.027786,0.979996,0.02228,0.017234,0.025599,64.204544,22.958984,-148.159683,,,
729608713.799813,0.98921,1.780445,60.496144,-0.013184,0.027786,0.979996,0.008383,0.028109,0.02449,64.204544,22.958984,-148.159683,,,
729608713.803144,0.98921,1.780445,60.496144,-0.013184,0.027786,0.979996,0.008383,0.028109,0.02449,64.204544,22.958984,-148.159683,,,
729608713.806487,0.986391,1.792024,60.501929,-0.015503,0.028976,0.967972,0.008383,0.028109,0.02449,64.204544,22.958984,-148.159683,,,
729608713.80981,0.981236,1.794975,60.50762,-0.015503,0.028976,0.967972,-0.017227,0.014553,0.019138,64.204544,22.958984,-148.159683,,,
729608713.813158,0.981236,1.794975,60.50762,-0.015503,0.028976,0.967972,-0.017227,0.014553,0.019138,64.204544,22.958984,-148.159683,,,
