Time (sec),Pitch (deg),Roll (deg),Yaw(deg),X-Acceleration (g),Y-Acceleration (g),Z-Acceleration (g),Pitch Rate (deg/sec),Roll Rate (deg/sec),Yaw Rate (deg/sec),Magnetic Field in X direction (uT),Magnetic Field in Y direction (uT),Magnetic Field in Z Direction (uT),Latitude (deg),Longitude (deg),Altitude (m)
729608669.706569,-0.116799,2.235288,56.313969,-0.045547,-0.005371,1.001175,0.020714,-0.025504,-0.0011,65.602036,23.45401,-147.748886,,,
729608669.709878,-0.110502,2.224302,56.314658,-0.045547,-0.005371,1.001175,0.020714,-0.025504,-0.0011,65.602036,23.45401,-147.748886,,,
729608669.713212,-0.10444,2.211067,56.315658,-0.049225,-0.007904,1.000809,0.022773,-0.041177,0.003507,65.602036,23.45401,-147.748886,,,
729608669.71664,-0.10444,2.211067,56.315658,-0.049225,-0.007904,1.000809,0.022773,-0.041177,0.003507,65.602036,23.45401,-147.748886,,,
729608669.719885,-0.097659,2.197377,56.316621,-0.049225,-0.007904,1.000809,0.022773,-0.041177,0.003507,65.602036,23.45401,-147.748886,,,
729608669.723221,-0.089071,2.183561,56.317444,-0.044876,-0.003479,1.00325,0.023435,-0.043074,0.004645,65.602036,23.45401,-147.748886,,,
729608669.726547,-0.089071,2.183561,56.317444,-0.044876,-0.003479,1.00325,0.023435,-0.043074,0.004645,65.602036,23.45401,-147.748886,,,
729608669.729948,-0.081971,2.170971,56.318647,-0.044876,-0.003479,1.00325,0.023435,-0.043074,0.004645,65.602036,23.45401,-147.748886,,,
729608669.733289,-0.073611,2.159983,56.319992,-0.040787,-0.002914,1.006775,0.025525,-0.034451,0.005892,65.602036,23.45401,-147.748886,,,
729608669.736543,-0.073611,2.159983,56.319992,-0.040787,-0.002914,1.006775,0.025525,-0.034451,0.005892,65.602036,23.45401,-147.748886,,,
729608669.739898,-0.066542,2.151494,56.321773,-0.040787,-0.002914,1.006775,0.025525,-0.034451,0.005892,65.602036,23.45401,-147.748886,,,
729608669.743214,-0.057423,2.146206,56.324679,-0.037308,-0.006653,1.003342,0.024709,-0.016651,0.009324,65.602036,23.45401,-147.748886,,,
729608669.746548,-0.057423,2.146206,56.324679,-0.037308,-0.006653,1.003342,0.024709,-0.016651,0.009324,65.384232,23.298691,-147.483566,,,
729608669.749944,-0.050721,2.14447,56.327802,-0.037308,-0.006653,1.003342,0.024709,-0.016651,0.009324,65.384232,23.298691,-147.483566,,,
729608669.753211,-0.040686,2.14443,56.331141,-0.033798,-0.007919,1.00235,0.023577,0.009681,0.013078,65.384232,23.298691,-147.483566,,,
729608669.756608,-0.040686,2.14443,56.331141,-0.033798,-0.007919,1.00235,0.023577,0.009681,0.013078,65.384232,23.298691,-147.483566,,,
729608669.759918,-0.032492,2.146765,56.33449,-0.033798,-0.007919,1.00235,0.023577,0.009681,0.013078,65.384232,23.298691,-147.483566,,,
729608669.763213,-0.021273,2.147988,56.336913,-0.02919,-0.005768,0.995728,0.032712,0.008271,0.008794,65.384232,23.298691,-147.483566,,,
729608669.766615,-0.021273,2.147988,56.336913,-0.02919,-0.005768,0.995728,0.032712,0.008271,0.008794,65.384232,23.298691,-147.483566,,,
729608669.769903,-0.012567,2.147605,56.338631,-0.02919,-0.005768,0.995728,0.032712,0.008271,0.008794,65.384232,23.298691,-147.483566,,,
729608669.77322,-0.003033,2.145265,56.340267,-0.031784,-0.006531,0.983063,0.031695,-0.005593,0.004654,65.384232,23.298691,-147.483566,,,
729608669.776562,-0.003033,2.145265,56.340267,-0.031784,-0.006531,0.983063,0.031695,-0.005593,0.004654,65.384232,23.298691,-147.483566,,,
729608669.779903,0.004419,2.142684,56.342004,-0.031784,-0.006531,0.983063,0.031695,-0.005593,0.004654,65.384232,23.298691,-147.483566,,,
729608669.783264,0.009657,2.143923,56.344013,-0.029785,-0.006271,0.977692,0.020287,-0.001517,0.005418,65.384232,23.298691,-147.483566,,,
729608669.786548,0.009657,2.143923,56.344013,-0.029785,-0.006271,0.977692,0.020287,-0.001517,0.005418,65.591339,23.479019,-148.084229,,,
729608669.7899,0.013367,2.147319,56.346575,-0.029785,-0.006271,0.977692,0.020287,-0.001517,0.005418,65.591339,23.479019,-148.084229,,,
729608669.793212,0.01288,2.15921,56.34996,-0.024902,-0.007614,0.983032,0.008578,0.034193,0.011288,65.591339,23.479019,-148.084229,,,
729608669.796643,0.01288,2.15921,56.34996,-0.024902,-0.007614,0.983032,0.008578,0.034193,0.011288,65.591339,23.479019,-148.084229,,,
729608669.799935,0.012809,2.172752,56.355085,-0.024902,-0.007614,0.983032,0.008578,0.034193,0.011288,65.591339,23.479019,-148.084229,,,
729608669.803223,0.009167,2.193598,56.361477,-0.023376,-0.013611,0.986923,-0.007334,0.066246,0.019373,65.591339,23.479019,-148.084229,,,
729608669.806614,0.009167,2.193598,56.361477,-0.023376,-0.013611,0.986923,-0.007334,0.066246,0.019373,65.591339,23.479019,-148.084229,,,
729608669.809948,0.005264,2.215526,56.367385,-0.023376,-0.013611,0.986923,-0.007334,0.066246,0.019373,65.591339,23.479019,-148.084229,,,
729608669.813209,-0.000269,2.241166,56.371773,-0.022598,-0.010117,0.986786,-0.016559,0.088576,0.016711,65.591339,23.479019,-148.084229,,,
729608669.816602,-0.000269,2.241166,56.371773,-0.022598,-0.010117,0.986786,-0.016559,0.088576,0.016711,65.591339,23.479019,-148.084229,,,
729608669.81988,-0.005639,2.266715,56.374491,-0.022598,-0.010117,0.986786,-0.016559,0.088576,0.016711,65.591339,23.479019,-148.084229,,,
729608669.823218,-0.012154,2.29044,56.375846,-0.023544,-0.004486,0.988159,-0.017721,0.087712,0.003828,65.591339,23.479019,-148.084229,,,
729608669.826564,-0.012154,2.29044,56.375846,-0.023544,-0.004486,0.988159,-0.017721,0.087712,0.003828,65.591339,23.479019,-148.084229,,,
729608669.82989,-0.017439,2.311352,56.376222,-0.023544,-0.004486,0.988159,-0.017721,0.087712,0.003828,65.54953,23.554123,-148.048248,,,
729608669.833248,-0.024853,2.32742,56.37583,-0.032867,-0.00679,0.980759,-0.014956,0.062634,-0.003012,65.54953,23.554123,-148.048248,,,
729608669.83655,-0.024853,2.32742,56.37583,-0.032867,-0.00679,0.980759,-0.014956,0.062634,-0.003012,65.54953,23.554123,-148.048248,,,
729608669.839883,-0.030442,2.342496,56.374893,-0.032867,-0.00679,0.980759,-0.014956,0.062634,-0.003012,65.54953,23.554123,-148.048248,,,
729608669.843209,-0.038661,2.35342,56.373174,-0.034805,-0.008453,0.980392,-0.021701,0.054514,-0.008866,65.54953,23.554123,-148.048248,,,
729608669.846625,-0.038661,2.35342,56.373174,-0.034805,-0.008453,0.980392,-0.021701,0.054514,-0.008866,65.54953,23.554123,-148.048248,,,
729608669.849921,-0.046893,2.368459,56.370826,-0.034805,-0.008453,0.980392,-0.021701,0.054514,-0.008866,65.54953,23.554123,-148.048248,,,
729608669.852987,-0.058458,2.381327,56.367289,-0.029678,-0.002304,0.987976,-0.033585,0.060338,-0.016761,65.54953,23.554123,-148.048248,,,
729608669.85667,-0.058458,2.381327,56.367289,-0.029678,-0.002304,0.987976,-0.033585,0.060338,-0.016761,65.54953,23.554123,-148.048248,,,
729608669.859938,-0.068866,2.396664,56.362506,-0.029678,-0.002304,0.987976,-0.033585,0.060338,-0.016761,65.54953,23.554123,-148.048248,,,
729608669.863202,-0.079937,2.406065,56.357506,-0.03421,-0.00174,0.99115,-0.035326,0.049918,-0.020168,65.54953,23.554123,-148.048248,,,
729608669.866592,-0.079937,2.406065,56.357506,-0.03421,-0.00174,0.99115,-0.035326,0.049918,-0.020168,65.54953,23.554123,-148.048248,,,
729608669.869889,-0.089094,2.415204,56.351441,-0.03421,-0.00174,0.99115,-0.035326,0.049918,-0.020168,65.730484,23.438934,-147.813995,,,
729608669.873208,-0.099228,2.415563,56.34371,-0.042709,-0.003616,0.989365,-0.030623,0.020042,-0.028705,65.730484,23.438934,-147.813995,,,
729608669.876555,-0.099228,2.415563,56.34371,-0.042709,-0.003616,0.989365,-0.030623,0.020042,-0.028705,65.730484,23.438934,-147.813995,,,
729608669.879898,-0.108216,2.41631,56.333703,-0.042709,-0.003616,0.989365,-0.030623,0.020042,-0.028705,65.730484,23.438934,-147.813995,,,
729608669.883248,-0.120909,2.407495,56.320873,-0.041183,-1.5e-05,0.985443,-0.03054,-0.010168,-0.048875,65.730484,23.438934,-147.813995,,,
729608669.886548,-0.120909,2.407495,56.320873,-0.041183,-1.5e-05,0.985443,-0.03054,-0.010168,-0.048875,65.730484,23.438934,-147.813995,,,
729608669.889895,-0.130619,2.400148,56.306355,-0.041183,-1.5e-05,0.985443,-0.03054,-0.010168,-0.048875,65.730484,23.438934,-147.813995,,,
729608669.893204,-0.142104,2.383265,56.291322,-0.042343,0.002838,0.985184,-0.028786,-0.038254,-0.057704,65.730484,23.438934,-147.813995,,,
729608669.896635,-0.142104,2.383265,56.291322,-0.042343,0.002838,0.985184,-0.028786,-0.038254,-0.057704,65.730484,23.438934,-147.813995,,,
729608669.899937,-0.150463,2.367639,56.27639,-0.042343,0.002838,0.985184,-0.028786,-0.038254,-0.057704,65.730484,23.438934,-147.813995,,,
729608669.903222,-0.159438,2.344296,56.262084,-0.046021,-0.002457,0.986115,-0.023811,-0.060463,-0.053127,65.730484,23.438934,-147.813995,,,
729608669.906571,-0.159438,2.344296,56.262084,-0.046021,-0.002457,0.986115,-0.023811,-0.060463,-0.053127,65.730484,23.438934,-147.813995,,,
729608669.909883,-0.167624,2.325939,56.2489,-0.046021,-0.002457,0.986115,-0.023811,-0.060463,-0.053127,65.590012,23.506104,-148.093399,,,
729608669.913215,-0.175756,2.307217,56.236629,-0.046585,-0.00679,0.993317,-0.023841,-0.054163,-0.046834,65.590012,23.506104,-148.093399,,,
729608669.916602,-0.175756,2.307217,56.236629,-0.046585,-0.00679,0.993317,-0.023841,-0.054163,-0.046834,65.590012,23.506104,-148.093399,,,
729608669.919942,-0.181769,2.294213,56.225422,-0.046585,-0.00679,0.993317,-0.023841,-0.054163,-0.046834,65.590012,23.506104,-148.093399,,,
729608669.923206,-0.186937,2.283677,56.215909,-0.046738,-0.008606,1.004272,-0.01304,-0.028477,-0.038158,65.590012,23.506104,-148.093399,,,
729608669.926562,-0.186937,2.283677,56.215909,-0.046738,-0.008606,1.004272,-0.01304,-0.028477,-0.038158,65.590012,23.506104,-148.093399,,,
729608669.929888,-0.188934,2.277856,56.208014,-0.046738,-0.008606,1.004272,-0.01304,-0.028477,-0.038158,65.590012,23.506104,-148.093399,,,
729608669.933284,-0.189872,2.273881,56.200671,-0.05069,-0.009003,1.010788,0.000664,-0.002936,-0.028229,65.590012,23.506104,-148.093399,,,
729608669.936543,-0.189872,2.273881,56.200671,-0.05069,-0.009003,1.010788,0.000664,-0.002936,-0.028229,65.590012,23.506104,-148.093399,,,
729608669.93991,-0.188861,2.276303,56.192816,-0.05069,-0.009003,1.010788,0.000664,-0.002936,-0.028229,65.590012,23.506104,-148.093399,,,
729608669.94321,-0.18602,2.281184,56.18439,-0.052689,-0.005676,1.013824,0.008606,0.029462,-0.028187,65.590012,23.506104,-148.093399,,,
729608669.946606,-0.18602,2.281184,56.18439,-0.052689,-0.005676,1.013824,0.008606,0.029462,-0.028187,65.590012,23.506104,-148.093399,,,
729608669.949912,-0.183998,2.292585,56.176202,-0.052689,-0.005676,1.013824,0.008606,0.029462,-0.028187,65.53537,23.423447,-147.979156,,,
729608669.953204,-0.181396,2.305389,56.168904,-0.055756,-0.002274,1.010056,0.012824,0.047537,-0.026368,65.53537,23.423447,-147.979156,,,
729608669.956552,-0.181396,2.305389,56.168904,-0.055756,-0.002274,1.010056,0.012824,0.047537,-0.026368,65.53537,23.423447,-147.979156,,,
729608669.959944,-0.177917,2.315613,56.162679,-0.055756,-0.002274,1.010056,0.012824,0.047537,-0.026368,65.53537,23.423447,-147.979156,,,
729608669.963206,-0.173997,2.323363,56.157838,-0.063141,-0.002396,0.997787,0.01438,0.028853,-0.018681,65.53537,23.423447,-147.979156,,,
729608669.96661,-0.173997,2.323363,56.157838,-0.063141,-0.002396,0.997787,0.01438,0.028853,-0.018681,65.53537,23.423447,-147.979156,,,
729608669.969886,-0.170635,2.326889,56.154193,-0.063141,-0.002396,0.997787,0.01438,0.028853,-0.018681,65.53537,23.423447,-147.979156,,,
729608669.97322,-0.166986,2.325986,56.150656,-0.067322,-0.001175,0.986557,0.009027,-0.00316,-0.012586,65.53537,23.423447,-147.979156,,,
729608669.976569,-0.166986,2.325986,56.150656,-0.067322,-0.001175,0.986557,0.009027,-0.00316,-0.012586,65.53537,23.423447,-147.979156,,,
729608669.979923,-0.1657,2.319623,56.147019,-0.067322,-0.001175,0.986557,0.009027,-0.00316,-0.012586,65.53537,23.423447,-147.979156,,,
729608669.983252,-0.163848,2.310095,56.143393,-0.056534,0.006927,0.982361,0.006777,-0.037061,-0.014086,65.53537,23.423447,-147.979156,,,
729608669.986542,-0.163848,2.310095,56.143393,-0.056534,0.006927,0.982361,0.006777,-0.037061,-0.014086,65.53537,23.423447,-147.979156,,,
729608669.989891,-0.163117,2.295002,56.139635,-0.056534,0.006927,0.982361,0.006777,-0.037061,-0.014086,65.53537,23.423447,-147.979156,,,
729608669.993214,-0.164344,2.279725,56.135605,-0.048309,0.010742,0.981964,0.001573,-0.058614,-0.017017,65.604095,23.470764,-147.74614,,,
729608669.996644,-0.164344,2.279725,56.135605,-0.048309,0.010742,0.981964,0.001573,-0.058614,-0.017017,65.604095,23.470764,-147.74614,,,
729608670.000005,-0.16611,2.261047,56.131023,-0.048309,0.010742,0.981964,0.001573,-0.058614,-0.017017,65.604095,23.470764,-147.74614,,,
729608670.003224,-0.171238,2.245087,56.126028,-0.039124,0.011063,0.981445,-0.01203,-0.061218,-0.018657,65.604095,23.470764,-147.74614,,,
729608670.006567,-0.171238,2.245087,56.126028,-0.039124,0.011063,0.981445,-0.01203,-0.061218,-0.018657,65.604095,23.470764,-147.74614,,,
729608670.009703,-0.176502,2.228483,56.120767,-0.039124,0.011063,0.981445,-0.01203,-0.061218,-0.018657,65.604095,23.470764,-147.74614,,,
729608670.013231,-0.183273,2.216958,56.115786,-0.030029,0.009995,0.988022,-0.015281,-0.046696,-0.018357,65.604095,23.470764,-147.74614,,,
729608670.016665,-0.183273,2.216958,56.115786,-0.030029,0.009995,0.988022,-0.015281,-0.046696,-0.018357,65.604095,23.470764,-147.74614,,,
729608670.019877,-0.18871,2.204394,56.111322,-0.030029,0.009995,0.988022,-0.015281,-0.046696,-0.018357,65.604095,23.470764,-147.74614,,,
729608670.023215,-0.196639,2.197363,56.107264,-0.032455,0.00412,0.992569,-0.022061,-0.034911,-0.017486,65.604095,23.470764,-147.74614,,,
729608670.026555,-0.196639,2.197363,56.107264,-0.032455,0.00412,0.992569,-0.022061,-0.034911,-0.017486,65.604095,23.470764,-147.74614,,,
729608670.029893,-0.20485,2.187959,56.103854,-0.032455,0.00412,0.992569,-0.022061,-0.034911,-0.017486,65.604095,23.470764,-147.74614,,,
729608670.033256,-0.213761,2.185441,56.100458,-0.03717,0.003159,0.993271,-0.031185,-0.020777,-0.01555,65.610962,23.399246,-147.965332,,,
729608670.036548,-0.213761,2.185441,56.100458,-0.03717,0.003159,0.993271,-0.031185,-0.020777,-0.01555,65.610962,23.399246,-147.965332,,,
729608670.039869,-0.223023,2.181156,56.096938,-0.03717,0.003159,0.993271,-0.031185,-0.020777,-0.01555,65.610962,23.399246,-147.965332,,,
729608670.043211,-0.23078,2.187048,56.094126,-0.036499,0.002319,1.004364,-0.028582,0.001159,-0.012288,65.610962,23.399246,-147.965332,,,
729608670.046639,-0.23078,2.187048,56.094126,-0.036499,0.002319,1.004364,-0.028582,0.001159,-0.012288,65.610962,23.399246,-147.965332,,,
729608670.049944,-0.237253,2.18917,56.091847,-0.036499,0.002319,1.004364,-0.028582,0.001159,-0.012288,65.610962,23.399246,-147.965332,,,
729608670.053213,-0.241039,2.202542,56.090709,-0.04129,-0.001709,1.011368,-0.01424,0.018198,-0.007498,65.610962,23.399246,-147.965332,,,
729608670.056544,-0.241039,2.202542,56.090709,-0.04129,-0.001709,1.011368,-0.01424,0.018198,-0.007498,65.610962,23.399246,-147.965332,,,
729608670.059961,-0.242996,2.209286,56.090293,-0.04129,-0.001709,1.011368,-0.01424,0.018198,-0.007498,65.610962,23.399246,-147.965332,,,
729608670.063206,-0.240897,2.225387,56.090169,-0.045486,-0.007233,1.013428,7e-06,0.033507,-0.002182,65.610962,23.399246,-147.965332,,,
729608670.066582,-0.240897,2.225387,56.090169,-0.045486,-0.007233,1.013428,7e-06,0.033507,-0.002182,65.610962,23.399246,-147.965332,,,
729608670.069899,-0.239672,2.234706,56.090907,-0.045486,-0.007233,1.013428,7e-06,0.033507,-0.002182,65.610962,23.399246,-147.965332,,,
729608670.07322,-0.232827,2.247937,56.092278,-0.047058,-0.005814,1.008423,0.012573,0.035601,0.004179,65.659546,23.473785,-147.794479,,,
729608670.076546,-0.232827,2.247937,56.092278,-0.047058,-0.005814,1.008423,0.012573,0.035601,0.004179,65.659546,23.473785,-147.794479,,,
729608670.079896,-0.229387,2.256004,56.09334,-0.047058,-0.005814,1.008423,0.012573,0.035601,0.004179,65.659546,23.473785,-147.794479,,,
729608670.083261,-0.221619,2.262977,56.094355,-0.047882,3.1e-05,0.998138,0.013677,0.02369,0.001941,65.659546,23.473785,-147.794479,,,
729608670.086613,-0.221619,2.262977,56.094355,-0.047882,3.1e-05,0.998138,0.013677,0.02369,0.001941,65.659546,23.473785,-147.794479,,,
729608670.089881,-0.218648,2.265518,56.095969,-0.047882,3.1e-05,0.998138,0.013677,0.02369,0.001941,65.659546,23.473785,-147.794479,,,
729608670.093208,-0.212907,2.263507,56.098176,-0.054184,0.001831,0.989136,0.004963,0.00245,0.006671,65.659546,23.473785,-147.794479,,,
729608670.09654,-0.212907,2.263507,56.098176,-0.054184,0.001831,0.989136,0.004963,0.00245,0.006671,65.659546,23.473785,-147.794479,,,
729608670.099918,-0.212946,2.260425,56.101381,-0.054184,0.001831,0.989136,0.004963,0.00245,0.006671,65.659546,23.473785,-147.794479,,,
729608670.103227,-0.211156,2.251679,56.10632,-0.057251,-0.000916,0.988007,-0.004746,-0.01696,0.015144,65.659546,23.473785,-147.794479,,,
729608670.106537,-0.211156,2.251679,56.10632,-0.057251,-0.000916,0.988007,-0.004746,-0.01696,0.015144,65.659546,23.473785,-147.794479,,,
729608670.109879,-0.211121,2.243209,56.112745,-0.057251,-0.000916,0.988007,-0.004746,-0.01696,0.015144,65.659546,23.473785,-147.794479,,,
729608670.113204,-0.20744,2.231895,56.119104,-0.048981,-0.002609,0.995087,0.004404,-0.031699,0.020765,65.667816,23.391129,-147.858658,,,
729608670.116588,-0.20744,2.231895,56.119104,-0.048981,-0.002609,0.995087,0.004404,-0.031699,0.020765,65.667816,23.391129,-147.858658,,,
729608670.119904,-0.204894,2.220729,56.124624,-0.048981,-0.002609,0.995087,0.004404,-0.031699,0.020765,65.667816,23.391129,-147.858658,,,
729608670.123207,-0.199665,2.210042,56.128767,-0.036926,0.002365,1.003632,0.010244,-0.034321,0.012942,65.667816,23.391129,-147.858658,,,
729608670.126605,-0.199665,2.210042,56.128767,-0.036926,0.002365,1.003632,0.010244,-0.034321,0.012942,65.667816,23.391129,-147.858658,,,
729608670.129874,-0.196315,2.203082,56.132023,-0.036926,0.002365,1.003632,0.010244,-0.034321,0.012942,65.667816,23.391129,-147.858658,,,
729608670.133249,-0.192641,2.199728,56.135318,-0.029755,0.00824,1.006409,0.008862,-0.00717,0.007453,65.667816,23.391129,-147.858658,,,
729608670.136548,-0.192641,2.199728,56.135318,-0.029755,0.00824,1.006409,0.008862,-0.00717,0.007453,65.667816,23.391129,-147.858658,,,
729608670.139969,-0.190444,2.19951,56.139471,-0.029755,0.00824,1.006409,0.008862,-0.00717,0.007453,65.667816,23.391129,-147.858658,,,
729608670.143217,-0.189058,2.202804,56.144511,-0.027679,0.004074,1.001297,0.005712,0.009076,0.014781,65.667816,23.391129,-147.858658,,,
729608670.146546,-0.189058,2.202804,56.144511,-0.027679,0.004074,1.001297,0.005712,0.009076,0.014781,65.667816,23.391129,-147.858658,,,
729608670.149931,-0.186875,2.205488,56.149742,-0.027679,0.004074,1.001297,0.005712,0.009076,0.014781,65.667816,23.391129,-147.858658,,,
729608670.15323,-0.186147,2.210313,56.155408,-0.028427,0.001434,0.997314,0.005867,0.01051,0.020291,65.667816,23.391129,-147.858658,,,
729608670.156553,-0.186147,2.210313,56.155408,-0.028427,0.001434,0.997314,0.005867,0.01051,0.020291,65.663391,23.238937,-147.923691,,,
729608670.159884,-0.184824,2.211535,56.161153,-0.028427,0.001434,0.997314,0.005867,0.01051,0.020291,65.663391,23.238937,-147.923691,,,
729608670.163211,-0.182337,2.213853,56.166757,-0.034256,0.003433,0.993423,0.008481,0.001013,0.018461,65.663391,23.238937,-147.923691,,,
729608670.166644,-0.182337,2.213853,56.166757,-0.034256,0.003433,0.993423,0.008481,0.001013,0.018461,65.663391,23.238937,-147.923691,,,
729608670.169874,-0.179908,2.211746,56.172104,-0.034256,0.003433,0.993423,0.008481,0.001013,0.018461,65.663391,23.238937,-147.923691,,,
729608670.173213,-0.179908,2.211746,56.176925,-0.033279,0.004425,0.994888,0.008505,-0.014165,0.016192,65.663391,23.238937,-147.923691,,,
729608670.176571,-0.176583,2.211467,56.176925,-0.033279,0.004425,0.994888,0.008505,-0.014165,0.016192,65.663391,23.238937,-147.923691,,,
729608670.179958,-0.174115,2.206027,56.181211,-0.033279,0.004425,0.994888,0.008505,-0.014165,0.016192,65.663391,23.238937,-147.923691,,,
729608670.183246,-0.170538,2.207149,56.185943,-0.034393,0.006042,0.997833,0.011261,-0.016311,0.015193,65.663391,23.238937,-147.923691,,,
729608670.18655,-0.170538,2.207149,56.185943,-0.034393,0.006042,0.997833,0.011261,-0.016311,0.015193,65.663391,23.238937,-147.923691,,,
729608670.189905,-0.168304,2.203307,56.191058,-0.034393,0.006042,0.997833,0.011261,-0.016311,0.015193,65.663391,23.238937,-147.923691,,,
729608670.193269,-0.168304,2.205383,56.195411,-0.038605,0.005554,1.001389,0.007551,-0.008092,0.014935,65.663391,23.238937,-147.923691,,,
729608670.196563,-0.166167,2.205383,56.195411,-0.038605,0.005554,1.001389,0.007551,-0.008092,0.014935,65.617752,23.577377,-147.871628,,,
729608670.199919,-0.1642,2.203935,56.199063,-0.038605,0.005554,1.001389,0.007551,-0.008092,0.014935,65.617752,23.577377,-147.871628,,,
729608670.203227,-0.1642,2.203935,56.202193,-0.035309,0.004608,1.00119,0.007212,-0.002476,0.009812,65.617752,23.577377,-147.871628,,,
729608670.206621,-0.161125,2.204312,56.202193,-0.035309,0.004608,1.00119,0.007212,-0.002476,0.009812,65.617752,23.577377,-147.871628,,,
729608670.209885,-0.158996,2.20487,56.204635,-0.035309,0.004608,1.00119,0.007212,-0.002476,0.009812,65.617752,23.577377,-147.871628,,,
729608670.213277,-0.158996,2.203649,56.207132,-0.039444,0.002975,1.003555,0.005109,0.007469,0.007171,65.617752,23.577377,-147.871628,,,
729608670.216587,-0.154732,2.203649,56.207132,-0.039444,0.002975,1.003555,0.005109,0.007469,0.007171,65.617752,23.577377,-147.871628,,,
729608670.219932,-0.152673,2.205249,56.210739,-0.039444,0.002975,1.003555,0.005109,0.007469,0.007171,65.617752,23.577377,-147.871628,,,
729608670.223195,-0.152673,2.205249,56.210739,-0.050079,-0.00473,1.000458,0.00883,0.007434,0.014884,65.617752,23.577377,-147.871628,,,
729608670.226567,-0.147524,2.203691,56.215723,-0.050079,-0.00473,1.000458,0.00883,0.007434,0.014884,65.617752,23.577377,-147.871628,,,
729608670.229884,-0.144183,2.203922,56.221826,-0.050079,-0.00473,1.000458,0.00883,0.007434,0.014884,65.617752,23.577377,-147.871628,,,
729608670.233252,-0.144183,2.203922,56.221826,-0.054306,-0.011444,1.001312,0.013108,-0.003124,0.024649,65.617752,23.577377,-147.871628,,,
729608670.236536,-0.138536,2.198584,56.229429,-0.054306,-0.011444,1.001312,0.013108,-0.003124,0.024649,65.652618,23.266678,-147.850037,,,
729608670.23987,-0.133908,2.195239,56.23887,-0.054306,-0.011444,1.001312,0.013108,-0.003124,0.024649,65.652618,23.266678,-147.850037,,,
729608670.243199,-0.133908,2.195239,56.23887,-0.055283,-0.011658,0.998688,0.012635,-0.010909,0.034871,65.652618,23.266678,-147.850037,,,
729608670.24664,-0.128058,2.1894,56.249463,-0.055283,-0.011658,0.998688,0.012635,-0.010909,0.034871,65.652618,23.266678,-147.850037,,,
729608670.249928,-0.123091,2.185155,56.261076,-0.055283,-0.011658,0.998688,0.012635,-0.010909,0.034871,65.652618,23.266678,-147.850037,,,
729608670.253257,-0.123091,2.185155,56.261076,-0.055283,-0.011658,0.998688,0.019043,-0.012299,0.040626,65.652618,23.266678,-147.850037,,,
729608670.256563,-0.115051,2.179341,56.273044,-0.048828,-0.006393,1.000275,0.019043,-0.012299,0.040626,65.652618,23.266678,-147.850037,,,
729608670.259952,-0.108271,2.174298,56.284418,-0.048828,-0.006393,1.000275,0.019043,-0.012299,0.040626,65.652618,23.266678,-147.850037,,,
729608670.263212,-0.108271,2.174298,56.284418,-0.048828,-0.006393,1.000275,0.025037,-0.013437,0.035302,65.652618,23.266678,-147.850037,,,
729608670.266606,-0.098723,2.168209,56.295406,-0.037598,-0.004852,1.004395,0.025037,-0.013437,0.035302,65.652618,23.266678,-147.850037,,,
729608670.2699,-0.090024,2.163788,56.305994,-0.037598,-0.004852,1.004395,0.025037,-0.013437,0.035302,65.652618,23.266678,-147.850037,,,
729608670.273308,-0.090024,2.163788,56.305994,-0.031204,-0.004745,1.004501,0.030239,-0.007162,0.033536,65.652618,23.266678,-147.850037,,,
729608670.276536,-0.079165,2.160061,56.315756,-0.031204,-0.004745,1.004501,0.030239,-0.007162,0.033536,65.384338,23.414719,-147.717407,,,
729608670.279872,-0.070753,2.157822,56.32476,-0.031204,-0.004745,1.004501,0.030239,-0.007162,0.033536,65.384338,23.414719,-147.717407,,,
729608670.283258,-0.070753,2.157822,56.32476,-0.027603,-0.005875,1.003326,0.025987,-0.004049,0.030018,65.384338,23.414719,-147.717407,,,
729608670.286608,-0.060974,2.155308,56.333795,-0.027603,-0.005875,1.003326,0.025987,-0.004049,0.030018,65.384338,23.414719,-147.717407,,,
729608670.289892,-0.054109,2.152695,56.342315,-0.027603,-0.005875,1.003326,0.025987,-0.004049,0.030018,65.384338,23.414719,-147.717407,,,
729608670.293217,-0.054109,2.152695,56.342315,-0.027603,-0.005875,1.003326,0.017105,-0.007713,0.022623,65.384338,23.414719,-147.717407,,,
729608670.296555,-0.047584,2.149488,56.349126,-0.020645,0.000137,0.994644,0.017105,-0.007713,0.022623,65.384338,23.414719,-147.717407,,,
729608670.299959,-0.04413,2.146228,56.354399,-0.020645,0.000137,0.994644,0.017105,-0.007713,0.022623,65.384338,23.414719,-147.717407,,,
729608670.303265,-0.04413,2.146228,56.354399,-0.020645,0.000137,0.994644,0.006572,-0.010421,0.010504,65.384338,23.414719,-147.717407,,,
729608670.306572,-0.042206,2.145103,56.358171,-0.020813,0.004105,0.992172,0.006572,-0.010421,0.010504,65.384338,23.414719,-147.717407,,,
729608670.309904,-0.041395,2.141098,56.360454,-0.020813,0.004105,0.992172,0.006572,-0.010421,0.010504,65.384338,23.414719,-147.717407,,,
729608670.313328,-0.041395,2.141098,56.360454,-0.020813,0.004105,0.992172,0.001045,-0.012277,0.004707,65.384338,23.414719,-147.717407,,,
729608670.316584,-0.043839,2.14166,56.362188,-0.02269,0.00032,0.995651,0.001045,-0.012277,0.004707,65.384338,23.414719,-147.717407,,,
729608670.31987,-0.043941,2.137412,56.364706,-0.02269,0.00032,0.995651,0.001045,-0.012277,0.004707,65.69606,23.181396,-147.692169,,,
729608670.323266,-0.043941,2.137412,56.364706,-0.02269,0.00032,0.995651,0.00215,-0.00947,0.011144,65.69606,23.181396,-147.692169,,,
729608670.32661,-0.046962,2.139411,56.368211,-0.031204,-0.008728,0.99881,0.00215,-0.00947,0.011144,65.69606,23.181396,-147.692169,,,
729608670.329867,-0.046276,2.136841,56.371863,-0.031204,-0.008728,0.99881,0.00215,-0.00947,0.011144,65.69606,23.181396,-147.692169,,,
729608670.333315,-0.046276,2.136841,56.371863,-0.031204,-0.008728,0.99881,0.003417,-0.002624,0.009832,65.69606,23.181396,-147.692169,,,
729608670.336537,-0.047488,2.139248,56.375378,-0.034561,-0.013733,1.004807,0.003417,-0.002624,0.009832,65.69606,23.181396,-147.692169,,,
729608670.339938,-0.045632,2.136987,56.378431,-0.034561,-0.013733,1.004807,0.003417,-0.002624,0.009832,65.69606,23.181396,-147.692169,,,
729608670.3433,-0.045632,2.136987,56.378431,-0.034561,-0.013733,1.004807,0.003417,-0.002624,0.009832,65.69606,23.181396,-147.692169,,,
729608670.346541,-0.043507,2.136202,56.38105,-0.036194,-0.011017,1.004166,0.013867,-0.0056,0.008112,65.69606,23.181396,-147.692169,,,
729608670.349922,-0.039076,2.135204,56.383679,-0.036194,-0.011017,1.004166,0.013867,-0.0056,0.008112,65.69606,23.181396,-147.692169,,,
729608670.353297,-0.039076,2.135204,56.383679,-0.036194,-0.011017,1.004166,0.013867,-0.0056,0.008112,65.69606,23.181396,-147.692169,,,
729608670.35656,-0.034651,2.132909,56.385856,-0.036026,-0.00943,1.004349,0.016842,-0.00022,0.005551,65.69606,23.181396,-147.692169,,,
729608670.359877,-0.029298,2.131914,56.387798,-0.036026,-0.00943,1.004349,0.016842,-0.00022,0.005551,65.450516,23.069016,-147.346619,,,
729608670.363262,-0.029298,2.131914,56.387798,-0.036026,-0.00943,1.004349,0.016842,-0.00022,0.005551,65.450516,23.069016,-147.346619,,,
729608670.3666,-0.026086,2.127663,56.389615,-0.035645,-0.01001,0.997238,0.018752,-0.003697,0.006673,65.450516,23.069016,-147.346619,,,
729608670.36987,-0.021966,2.124278,56.391066,-0.035645,-0.01001,0.997238,0.018752,-0.003697,0.006673,65.450516,23.069016,-147.346619,,,
729608670.373227,-0.021966,2.124278,56.391066,-0.035645,-0.01001,0.997238,0.018752,-0.003697,0.006673,65.450516,23.069016,-147.346619,,,
729608670.376618,-0.019641,2.115592,56.392312,-0.035721,-0.008789,0.991791,0.011259,-0.012386,0.002777,65.450516,23.069016,-147.346619,,,
729608670.379866,-0.01793,2.110443,56.392939,-0.035721,-0.008789,0.991791,0.011259,-0.012386,0.002777,65.450516,23.069016,-147.346619,,,
729608670.383261,-0.01793,2.110443,56.392939,-0.035721,-0.008789,0.991791,0.011259,-0.012386,0.002777,65.450516,23.069016,-147.346619,,,
729608670.38655,-0.016841,2.099185,56.392708,-0.03215,-0.00444,0.990356,-0.002406,-0.018457,-0.001788,65.450516,23.069016,-147.346619,,,
729608670.389871,-0.018719,2.09145,56.391487,-0.03215,-0.00444,0.990356,-0.002406,-0.018457,-0.001788,65.450516,23.069016,-147.346619,,,
729608670.393261,-0.018719,2.09145,56.391487,-0.03215,-0.00444,0.990356,-0.002406,-0.018457,-0.001788,65.450516,23.069016,-147.346619,,,
729608670.39654,-0.021807,2.076691,56.389396,-0.030396,-0.001709,0.98497,-0.013173,-0.033407,-0.01061,65.450516,23.069016,-147.346619,,,
729608670.399915,-0.027768,2.064909,56.387004,-0.030396,-0.001709,0.98497,-0.013173,-0.033407,-0.01061,65.459259,23.347885,-147.620575,,,
729608670.403233,-0.027768,2.064909,56.387004,-0.030396,-0.001709,0.98497,-0.013173,-0.033407,-0.01061,65.459259,23.347885,-147.620575,,,
729608670.406562,-0.036198,2.049641,56.384063,-0.032104,-0.005264,0.985825,-0.024534,-0.043422,-0.010993,65.459259,23.347885,-147.620575,,,
729608670.409881,-0.043973,2.035438,56.380416,-0.032104,-0.005264,0.985825,-0.024534,-0.043422,-0.010993,65.459259,23.347885,-147.620575,,,
729608670.413026,-0.043973,2.035438,56.380416,-0.032104,-0.005264,0.985825,-0.024534,-0.043422,-0.010993,65.459259,23.347885,-147.620575,,,
729608670.41665,-0.055337,2.019851,56.376341,-0.031006,-0.010345,0.98848,-0.025616,-0.051787,-0.019299,65.459259,23.347885,-147.620575,,,
729608670.419869,-0.062625,2.003887,56.371821,-0.031006,-0.010345,0.98848,-0.025616,-0.051787,-0.019299,65.459259,23.347885,-147.620575,,,
729608670.423263,-0.062625,2.003887,56.371821,-0.031006,-0.010345,0.98848,-0.025616,-0.051787,-0.019299,65.459259,23.347885,-147.620575,,,
729608670.426621,-0.070808,1.987896,56.366875,-0.028168,-0.014374,0.996765,-0.017273,-0.052763,-0.021482,65.459259,23.347885,-147.620575,,,
729608670.429871,-0.073422,1.973567,56.361455,-0.028168,-0.014374,0.996765,-0.017273,-0.052763,-0.021482,65.459259,23.347885,-147.620575,,,
729608670.433282,-0.073422,1.973567,56.361455,-0.028168,-0.014374,0.996765,-0.017273,-0.052763,-0.021482,65.459259,23.347885,-147.620575,,,
729608670.436557,-0.076398,1.962097,56.355211,-0.026611,-0.013626,1.00705,0.000779,-0.039514,-0.024641,65.459259,23.347885,-147.620575,,,
729608670.439884,-0.075284,1.952997,56.348324,-0.026611,-0.013626,1.00705,0.000779,-0.039514,-0.024641,65.459259,23.347885,-147.620575,,,
729608670.44323,-0.075284,1.952997,56.348324,-0.026611,-0.013626,1.00705,0.000779,-0.039514,-0.024641,65.204346,23.332672,-147.458359,,,
729608670.446554,-0.07582,1.947427,56.341396,-0.02449,-0.011032,1.00296,0.008641,-0.018042,-0.026374,65.204346,23.332672,-147.458359,,,
729608670.449938,-0.074055,1.944704,56.334491,-0.02449,-0.011032,1.00296,0.008641,-0.018042,-0.026374,65.204346,23.332672,-147.458359,,,
729608670.453209,-0.074055,1.944704,56.334491,-0.02449,-0.011032,1.00296,0.008641,-0.018042,-0.026374,65.204346,23.332672,-147.458359,,,
729608670.456561,-0.075351,1.947141,56.327677,-0.029495,-0.006744,0.999268,0.006676,0.010635,-0.025393,65.204346,23.332672,-147.458359,,,
729608670.45988,-0.075068,1.953981,56.321305,-0.029495,-0.006744,0.999268,0.006676,0.010635,-0.025393,65.204346,23.332672,-147.458359,,,
729608670.463321,-0.075068,1.953981,56.321305,-0.029495,-0.006744,0.999268,0.006676,0.010635,-0.025393,65.204346,23.332672,-147.458359,,,
729608670.466595,-0.07716,1.964965,56.316159,-0.031906,-0.004166,0.995163,-0.002133,0.040676,-0.019078,65.204346,23.332672,-147.458359,,,
729608670.469869,-0.079079,1.979075,56.312537,-0.031906,-0.004166,0.995163,-0.002133,0.040676,-0.019078,65.204346,23.332672,-147.458359,,,
729608670.473223,-0.079079,1.979075,56.312537,-0.031906,-0.004166,0.995163,-0.002133,0.040676,-0.019078,65.204346,23.332672,-147.458359,,,
729608670.476607,-0.08229,1.994223,56.309648,-0.034592,-0.001694,0.988708,-0.009823,0.061131,-0.013195,65.204346,23.332672,-147.458359,,,
729608670.479871,-0.085585,2.011431,56.306569,-0.034592,-0.001694,0.988708,-0.009823,0.061131,-0.013195,65.204346,23.332672,-147.458359,,,
729608670.483201,-0.085585,2.011431,56.306569,-0.034592,-0.001694,0.988708,-0.009823,0.061131,-0.013195,65.375122,23.293869,-147.623566,,,
729608670.486544,-0.089047,2.027111,56.302761,-0.043686,-0.000366,0.988174,-0.00809,0.059339,-0.015097,65.375122,23.293869,-147.623566,,,
729608670.489881,-0.092566,2.042066,56.298222,-0.043686,-0.000366,0.988174,-0.00809,0.059339,-0.015097,65.375122,23.293869,-147.623566,,,
729608670.493164,-0.092566,2.042066,56.298222,-0.043686,-0.000366,0.988174,-0.00809,0.059339,-0.015097,65.375122,23.293869,-147.623566,,,
729608670.496553,-0.09811,2.052255,56.29301,-0.046616,0.002975,0.986038,-0.010212,0.045365,-0.02256,65.375122,23.293869,-147.623566,,,
729608670.499866,-0.102454,2.06044,56.287229,-0.046616,0.002975,0.986038,-0.010212,0.045365,-0.02256,65.375122,23.293869,-147.623566,,,
729608670.503217,-0.102454,2.06044,56.287229,-0.046616,0.002975,0.986038,-0.010212,0.045365,-0.02256,65.375122,23.293869,-147.623566,,,
729608670.506567,-0.111371,2.063129,56.281169,-0.052155,0.003433,0.979874,-0.01756,0.018964,-0.022183,65.375122,23.293869,-147.623566,,,
729608670.509894,-0.118337,2.06378,56.275443,-0.052155,0.003433,0.979874,-0.01756,0.018964,-0.022183,65.375122,23.293869,-147.623566,,,
729608670.513253,-0.118337,2.06378,56.275443,-0.052155,0.003433,0.979874,-0.01756,0.018964,-0.022183,65.375122,23.293869,-147.623566,,,
729608670.516556,-0.130413,2.057625,56.269577,-0.052994,0.00528,0.978226,-0.028589,-0.00706,-0.026041,65.375122,23.293869,-147.623566,,,
729608670.519879,-0.140396,2.05032,56.262989,-0.052994,0.00528,0.978226,-0.028589,-0.00706,-0.026041,65.375122,23.293869,-147.623566,,,
729608670.523205,-0.140396,2.05032,56.262989,-0.052994,0.00528,0.978226,-0.028589,-0.00706,-0.026041,65.267731,23.391159,-147.563492,,,
729608670.526642,-0.153245,2.036612,56.256116,-0.045334,0.006912,0.979279,-0.032402,-0.034727,-0.024759,65.267731,23.391159,-147.563492,,,
729608670.529875,-0.16426,2.024986,56.248949,-0.045334,0.006912,0.979279,-0.032402,-0.034727,-0.024759,65.267731,23.391159,-147.563492,,,
729608670.533231,-0.16426,2.024986,56.248949,-0.045334,0.006912,0.979279,-0.032402,-0.034727,-0.024759,65.267731,23.391159,-147.563492,,,
729608670.536547,-0.177588,2.010558,56.24186,-0.046539,0.003098,0.989319,-0.03725,-0.039865,-0.02727,65.267731,23.391159,-147.563492,,,
729608670.539881,-0.188057,2.000586,56.235923,-0.046539,0.003098,0.989319,-0.03725,-0.039865,-0.02727,65.267731,23.391159,-147.563492,,,
729608670.543226,-0.188057,2.000586,56.235923,-0.046539,0.003098,0.989319,-0.03725,-0.039865,-0.02727,65.267731,23.391159,-147.563492,,,
729608670.546563,-0.196129,1.99273,56.232298,-0.049164,-0.001755,1.004669,-0.025314,-0.024854,-0.013392,65.267731,23.391159,-147.563492,,,
729608670.549877,-0.20124,1.988467,56.23092,-0.049164,-0.001755,1.004669,-0.025314,-0.024854,-0.013392,65.267731,23.391159,-147.563492,,,
729608670.55324,-0.20124,1.988467,56.23092,-0.049164,-0.001755,1.004669,-0.025314,-0.024854,-0.013392,65.267731,23.391159,-147.563492,,,
729608670.556545,-0.203859,1.985534,56.230927,-0.044434,-0.006256,1.015015,-0.006065,-0.004426,-0.003365,65.267731,23.391159,-147.563492,,,
729608670.559881,-0.204485,1.986334,56.231712,-0.044434,-0.006256,1.015015,-0.006065,-0.004426,-0.003365,65.267731,23.391159,-147.563492,,,
729608670.563214,-0.204485,1.986334,56.231712,-0.044434,-0.006256,1.015015,-0.006065,-0.004426,-0.003365,65.130051,23.622955,-147.42157,,,
729608670.56661,-0.203098,1.992629,56.232829,-0.037567,-0.003754,1.010193,0.002675,0.019193,0.001735,65.130051,23.622955,-147.42157,,,
729608670.569958,-0.203331,1.998652,56.234105,-0.037567,-0.003754,1.010193,0.002675,0.019193,0.001735,65.130051,23.622955,-147.42157,,,
729608670.573223,-0.203331,1.998652,56.234105,-0.037567,-0.003754,1.010193,0.002675,0.019193,0.001735,65.130051,23.622955,-147.42157,,,
729608670.576555,-0.20328,2.009176,56.235337,-0.034744,0.006302,1.004059,-0.004403,0.030688,0.002284,65.130051,23.622955,-147.42157,,,
729608670.579872,-0.205509,2.016318,56.236556,-0.034744,0.006302,1.004059,-0.004403,0.030688,0.002284,65.130051,23.622955,-147.42157,,,
729608670.583211,-0.205509,2.016318,56.236556,-0.034744,0.006302,1.004059,-0.004403,0.030688,0.002284,65.130051,23.622955,-147.42157,,,
729608670.586545,-0.206378,2.026601,56.237635,-0.035416,0.008194,0.998947,-0.008939,0.021725,0.002192,65.130051,23.622955,-147.42157,,,
729608670.58987,-0.209444,2.029196,56.238443,-0.035416,0.008194,0.998947,-0.008939,0.021725,0.002192,65.130051,23.622955,-147.42157,,,
729608670.593207,-0.209444,2.029196,56.238443,-0.035416,0.008194,0.998947,-0.008939,0.021725,0.002192,65.130051,23.622955,-147.42157,,,
729608670.596565,-0.209802,2.033973,56.238793,-0.038651,0.00235,0.996262,-0.008714,-3.1e-05,-0.000966,65.130051,23.622955,-147.42157,,,
729608670.599877,-0.211552,2.027868,56.23813,-0.038651,0.00235,0.996262,-0.008714,-3.1e-05,-0.000966,65.130051,23.622955,-147.42157,,,
729608670.603208,-0.211552,2.027868,56.23813,-0.038651,0.00235,0.996262,-0.008714,-3.1e-05,-0.000966,65.130051,23.622955,-147.42157,,,
729608670.60658,-0.209543,2.02129,56.236493,-0.036667,0.002243,0.993622,-0.001624,-0.035235,-0.007925,65.115295,23.366959,-147.588348,,,
729608670.609921,-0.209861,2.007246,56.234245,-0.036667,0.002243,0.993622,-0.001624,-0.035235,-0.007925,65.115295,23.366959,-147.588348,,,
729608670.613218,-0.209861,2.007246,56.234245,-0.036667,0.002243,0.993622,-0.001624,-0.035235,-0.007925,65.115295,23.366959,-147.588348,,,
729608670.616637,-0.207929,1.996383,56.231871,-0.036438,0.002472,0.993561,0.000643,-0.04844,-0.009499,65.115295,23.366959,-147.588348,,,
729608670.619868,-0.208549,1.983784,56.2304,-0.036438,0.002472,0.993561,0.000643,-0.04844,-0.009499,65.115295,23.366959,-147.588348,,,
729608670.623308,-0.208549,1.983784,56.2304,-0.036438,0.002472,0.993561,0.000643,-0.04844,-0.009499,65.115295,23.366959,-147.588348,,,
729608670.626555,-0.208363,1.97717,56.230027,-0.033752,0.001862,1.002258,-0.004463,-0.034014,-0.002488,65.115295,23.366959,-147.588348,,,
729608670.629871,-0.209635,1.968348,56.230257,-0.033752,0.001862,1.002258,-0.004463,-0.034014,-0.002488,65.115295,23.366959,-147.588348,,,
729608670.633228,-0.209635,1.968348,56.230257,-0.033752,0.001862,1.002258,-0.004463,-0.034014,-0.002488,65.115295,23.366959,-147.588348,,,
729608670.636543,-0.210999,1.966208,56.231663,-0.029343,-0.001205,1.003006,-0.003977,-0.015438,0.002046,65.115295,23.366959,-147.588348,,,
729608670.639873,-0.212444,1.963421,56.233811,-0.029343,-0.001205,1.003006,-0.003977,-0.015438,0.002046,65.115295,23.366959,-147.588348,,,
729608670.64327,-0.212444,1.963421,56.233811,-0.029343,-0.001205,1.003006,-0.003977,-0.015438,0.002046,65.115295,23.366959,-147.588348,,,
729608670.646547,-0.215257,1.964439,56.236136,-0.029785,-0.001953,1.0047,-0.006878,0.003281,0.006436,65.388016,23.139526,-147.748337,,,
729608670.649883,-0.216658,1.964766,56.238273,-0.029785,-0.001953,1.0047,-0.006878,0.003281,0.006436,65.388016,23.139526,-147.748337,,,
729608670.653208,-0.216658,1.964766,56.238273,-0.029785,-0.001953,1.0047,-0.006878,0.003281,0.006436,65.388016,23.139526,-147.748337,,,
729608670.656606,-0.215076,1.96498,56.239873,-0.035309,0.000275,0.99913,-0.001099,0.004278,0.001771,65.388016,23.139526,-147.748337,,,
729608670.659762,-0.214271,1.962666,56.240985,-0.035309,0.000275,0.99913,-0.001099,0.004278,0.001771,65.388016,23.139526,-147.748337,,,
729608670.663237,-0.214271,1.962666,56.240985,-0.035309,0.000275,0.99913,-0.001099,0.004278,0.001771,65.388016,23.139526,-147.748337,,,
729608670.666552,-0.209073,1.957376,56.241205,-0.038452,-0.000534,0.998764,0.006089,-0.015402,-0.001397,65.388016,23.139526,-147.748337,,,
729608670.66987,-0.206387,1.949252,56.240993,-0.038452,-0.000534,0.998764,0.006089,-0.015402,-0.001397,65.388016,23.139526,-147.748337,,,
729608670.673221,-0.206387,1.949252,56.240993,-0.038452,-0.000534,0.998764,0.006089,-0.015402,-0.001397,65.388016,23.139526,-147.748337,,,
729608670.67655,-0.201292,1.940613,56.240443,-0.036224,-0.002228,0.998489,0.010392,-0.032227,-0.004815,65.388016,23.139526,-147.748337,,,
729608670.679869,-0.198387,1.929649,56.239293,-0.036224,-0.002228,0.998489,0.010392,-0.032227,-0.004815,65.388016,23.139526,-147.748337,,,
729608670.683213,-0.198387,1.929649,56.239293,-0.036224,-0.002228,0.998489,0.010392,-0.032227,-0.004815,65.388016,23.139526,-147.748337,,,
729608670.686561,-0.193812,1.920379,56.237731,-0.034332,-0.000824,0.99939,0.012695,-0.03416,-0.006971,65.142868,23.309418,-147.872543,,,
729608670.68987,-0.191017,1.911166,56.236038,-0.034332,-0.000824,0.99939,0.012695,-0.03416,-0.006971,65.142868,23.309418,-147.872543,,,
729608670.693266,-0.191017,1.911166,56.236038,-0.034332,-0.000824,0.99939,0.012695,-0.03416,-0.006971,65.142868,23.309418,-147.872543,,,
729608670.696553,-0.187403,1.904658,56.234868,-0.033295,0.000732,0.998276,0.009382,-0.022867,-0.00473,65.142868,23.309418,-147.872543,,,
729608670.69988,-0.185971,1.899595,56.234212,-0.033295,0.000732,0.998276,0.009382,-0.022867,-0.00473,65.142868,23.309418,-147.872543,,,
729608670.703209,-0.185971,1.899595,56.234212,-0.033295,0.000732,0.998276,0.009382,-0.022867,-0.00473,65.142868,23.309418,-147.872543,,,
729608670.706602,-0.183734,1.898338,56.233829,-0.029572,-0.001511,0.998749,-8e-05,-0.004438,-0.004683,65.142868,23.309418,-147.872543,,,
729608670.709866,-0.183455,1.900677,56.234197,-0.029572,-0.001511,0.998749,-8e-05,-0.004438,-0.004683,65.142868,23.309418,-147.872543,,,
729608670.713214,-0.183455,1.900677,56.234197,-0.029572,-0.001511,0.998749,-8e-05,-0.004438,-0.004683,65.142868,23.309418,-147.872543,,,
729608670.716554,-0.182063,1.906366,56.236293,-0.032593,-0.00441,1.000122,0.000217,0.023969,0.005734,65.142868,23.309418,-147.872543,,,
729608670.719871,-0.179692,1.915347,56.240847,-0.032593,-0.00441,1.000122,0.000217,0.023969,0.005734,65.142868,23.309418,-147.872543,,,
729608670.723219,-0.179692,1.915347,56.240847,-0.032593,-0.00441,1.000122,0.000217,0.023969,0.005734,65.142868,23.309418,-147.872543,,,
729608670.726542,-0.175745,1.925038,56.24756,-0.037552,-0.012833,1.004944,0.015403,0.042124,0.022743,64.981964,23.264908,-147.470703,,,
729608670.729869,-0.171265,1.937039,56.255243,-0.037552,-0.012833,1.004944,0.015403,0.042124,0.022743,64.981964,23.264908,-147.470703,,,
729608670.7333,-0.171265,1.937039,56.255243,-0.037552,-0.012833,1.004944,0.015403,0.042124,0.022743,64.981964,23.264908,-147.470703,,,
729608670.736528,-0.164927,1.949241,56.262723,-0.039948,-0.011124,1.00177,0.01709,0.048038,0.025249,64.981964,23.264908,-147.470703,,,
729608670.739876,-0.159224,1.961413,56.269692,-0.039948,-0.011124,1.00177,0.01709,0.048038,0.025249,64.981964,23.264908,-147.470703,,,
729608670.743222,-0.159224,1.961413,56.269692,-0.039948,-0.011124,1.00177,0.01709,0.048038,0.025249,64.981964,23.264908,-147.470703,,,
729608670.746611,-0.153482,1.973224,56.275952,-0.04126,-0.005478,0.998917,0.017846,0.041706,0.019674,64.981964,23.264908,-147.470703,,,
729608670.749863,-0.149324,1.981909,56.281885,-0.04126,-0.005478,0.998917,0.017846,0.041706,0.019674,64.981964,23.264908,-147.470703,,,
729608670.753206,-0.149324,1.981909,56.281885,-0.04126,-0.005478,0.998917,0.017846,0.041706,0.019674,64.981964,23.264908,-147.470703,,,
729608670.756563,-0.145103,1.987831,56.287286,-0.042099,-0.005188,0.992828,0.011967,0.022732,0.01574,64.981964,23.264908,-147.470703,,,
729608670.759867,-0.141361,1.98932,56.291639,-0.042099,-0.005188,0.992828,0.011967,0.022732,0.01574,64.981964,23.264908,-147.470703,,,
729608670.76322,-0.141361,1.98932,56.291639,-0.042099,-0.005188,0.992828,0.011967,0.022732,0.01574,64.981964,23.264908,-147.470703,,,
729608670.76656,-0.137147,1.987472,56.294692,-0.042175,-0.004807,0.989044,0.011893,-0.000291,0.009267,64.981964,23.264908,-147.470703,,,
729608670.769881,-0.133446,1.9821,56.296611,-0.042175,-0.004807,0.989044,0.011893,-0.000291,0.009267,65.147125,23.29039,-147.537399,,,
729608670.773252,-0.133446,1.9821,56.296611,-0.042175,-0.004807,0.989044,0.011893,-0.000291,0.009267,65.147125,23.29039,-147.537399,,,
729608670.776638,-0.130246,1.973014,56.298109,-0.035782,-0.003342,0.986191,0.010911,-0.026185,0.002106,65.147125,23.29039,-147.537399,,,
729608670.779872,-0.129507,1.961867,56.299419,-0.035782,-0.003342,0.986191,0.010911,-0.026185,0.002106,65.147125,23.29039,-147.537399,,,
729608670.783324,-0.129507,1.961867,56.299419,-0.035782,-0.003342,0.986191,0.010911,-0.026185,0.002106,65.147125,23.29039,-147.537399,,,
729608670.786535,-0.129461,1.947985,56.30122,-0.033035,-0.003662,0.982468,0.001028,-0.042152,0.004694,65.147125,23.29039,-147.537399,,,
729608670.78988,-0.130703,1.934738,56.303813,-0.033035,-0.003662,0.982468,0.001028,-0.042152,0.004694,65.147125,23.29039,-147.537399,,,
729608670.793222,-0.130703,1.934738,56.303813,-0.033035,-0.003662,0.982468,0.001028,-0.042152,0.004694,65.147125,23.29039,-147.537399,,,
729608670.796598,-0.13234,1.920975,56.307023,-0.028976,-0.008499,0.985443,-0.004929,-0.042576,0.010956,65.147125,23.29039,-147.537399,,,
729608670.79987,-0.132833,1.908467,56.311077,-0.028976,-0.008499,0.985443,-0.004929,-0.042576,0.010956,65.147125,23.29039,-147.537399,,,
729608670.803212,-0.132833,1.908467,56.311077,-0.028976,-0.008499,0.985443,-0.004929,-0.042576,0.010956,65.147125,23.29039,-147.537399,,,
729608670.806567,-0.134641,1.897881,56.315304,-0.025146,-0.012497,0.992462,0.002825,-0.035994,0.013207,65.147125,23.29039,-147.537399,,,
729608670.809873,-0.134076,1.887874,56.318973,-0.025146,-0.012497,0.992462,0.002825,-0.035994,0.013207,65.12645,23.243546,-147.808838,,,
729608670.813231,-0.134076,1.887874,56.318973,-0.025146,-0.012497,0.992462,0.002825,-0.035994,0.013207,65.12645,23.243546,-147.808838,,,
729608670.816552,-0.136209,1.88077,56.322279,-0.022339,-0.011444,0.992813,0.001748,-0.030215,0.009849,65.12645,23.243546,-147.808838,,,
729608670.819874,-0.135238,1.873053,56.324731,-0.022339,-0.011444,0.992813,0.001748,-0.030215,0.009849,65.12645,23.243546,-147.808838,,,
729608670.823224,-0.135238,1.873053,56.324731,-0.022339,-0.011444,0.992813,0.001748,-0.030215,0.009849,65.12645,23.243546,-147.808838,,,
729608670.826573,-0.135747,1.868571,56.32614,-0.01976,-0.008011,0.993484,0.005104,-0.023158,0.002968,65.12645,23.243546,-147.808838,,,
729608670.82989,-0.135224,1.860612,56.32639,-0.01976,-0.008011,0.993484,0.005104,-0.023158,0.002968,65.12645,23.243546,-147.808838,,,
729608670.833266,-0.135224,1.860612,56.32639,-0.01976,-0.008011,0.993484,0.005104,-0.023158,0.002968,65.12645,23.243546,-147.808838,,,
729608670.836564,-0.136748,1.853752,56.325933,-0.019836,-0.0056,0.987503,0.003479,-0.030838,-0.000679,65.12645,23.243546,-147.808838,,,
729608670.83999,-0.138897,1.843663,56.324812,-0.019836,-0.0056,0.987503,0.003479,-0.030838,-0.000679,65.12645,23.243546,-147.808838,,,
729608670.843241,-0.138897,1.843663,56.324812,-0.019836,-0.0056,0.987503,0.003479,-0.030838,-0.000679,65.12645,23.243546,-147.808838,,,
729608670.846649,-0.14325,1.837238,56.322554,-0.023376,-0.004578,0.985611,-0.010643,-0.031817,-0.007828,65.12645,23.243546,-147.808838,,,
729608670.849872,-0.1484,1.827728,56.320522,-0.023376,-0.004578,0.985611,-0.010643,-0.031817,-0.007828,65.256195,23.431595,-147.702988,,,
729608670.853213,-0.1484,1.827728,56.320522,-0.023376,-0.004578,0.985611,-0.010643,-0.031817,-0.007828,65.256195,23.431595,-147.702988,,,
729608670.856589,-0.154875,1.821125,56.319259,-0.023895,-0.005005,0.987518,-0.020156,-0.024683,-0.006305,65.256195,23.431595,-147.702988,,,
729608670.859873,-0.160901,1.814162,56.318193,-0.023895,-0.005005,0.987518,-0.020156,-0.024683,-0.006305,65.256195,23.431595,-147.702988,,,
729608670.863315,-0.160901,1.814162,56.318193,-0.023895,-0.005005,0.987518,-0.020156,-0.024683,-0.006305,65.256195,23.431595,-147.702988,,,
729608670.866559,-0.16665,1.809847,56.316983,-0.021408,-0.005203,0.993958,-0.02008,-0.012552,-0.005365,65.256195,23.431595,-147.702988,,,
729608670.869884,-0.172752,1.807538,56.314943,-0.021408,-0.005203,0.993958,-0.02008,-0.012552,-0.005365,65.256195,23.431595,-147.702988,,,
729608670.873276,-0.172752,1.807538,56.314943,-0.021408,-0.005203,0.993958,-0.02008,-0.012552,-0.005365,65.256195,23.431595,-147.702988,,,
729608670.876563,-0.180384,1.808008,56.311014,-0.019043,-0.002838,0.99826,-0.019328,0.003454,-0.015741,65.256195,23.431595,-147.702988,,,
729608670.879879,-0.187022,1.810507,56.305517,-0.019043,-0.002838,0.99826,-0.019328,0.003454,-0.015741,65.256195,23.431595,-147.702988,,,
729608670.883219,-0.187022,1.810507,56.305517,-0.019043,-0.002838,0.99826,-0.019328,0.003454,-0.015741,65.256195,23.431595,-147.702988,,,
729608670.886555,-0.196439,1.812593,56.299251,-0.01799,0.001678,0.997803,-0.022186,0.016773,-0.026283,65.256195,23.431595,-147.702988,,,
729608670.889875,-0.204784,1.816949,56.29233,-0.01799,0.001678,0.997803,-0.022186,0.016773,-0.026283,65.258606,23.194229,-147.497971,,,
729608670.893235,-0.204784,1.816949,56.29233,-0.01799,0.001678,0.997803,-0.022186,0.016773,-0.026283,65.258606,23.194229,-147.497971,,,
729608670.896607,-0.217175,1.819283,56.285669,-0.027023,-0.002869,0.992249,-0.032173,0.01981,-0.025074,65.258606,23.194229,-147.497971,,,
729608670.899874,-0.22882,1.82408,56.279617,-0.027023,-0.002869,0.992249,-0.032173,0.01981,-0.025074,65.258606,23.194229,-147.497971,,,
729608670.903213,-0.22882,1.82408,56.279617,-0.027023,-0.002869,0.992249,-0.032173,0.01981,-0.025074,65.258606,23.194229,-147.497971,,,
729608670.906546,-0.242797,1.82484,56.274324,-0.038956,-0.005432,0.992233,-0.042473,0.017717,-0.023151,65.258606,23.194229,-147.497971,,,
729608670.909882,-0.255056,1.827361,56.269702,-0.038956,-0.005432,0.992233,-0.042473,0.017717,-0.023151,65.258606,23.194229,-147.497971,,,
729608670.913233,-0.255056,1.827361,56.269702,-0.038956,-0.005432,0.992233,-0.042473,0.017717,-0.023151,65.258606,23.194229,-147.497971,,,
729608670.91656,-0.26646,1.82393,56.265733,-0.044586,-0.010315,1.00029,-0.035469,0.004311,-0.014641,65.258606,23.194229,-147.497971,,,
729608670.919881,-0.275532,1.82296,56.262329,-0.044586,-0.010315,1.00029,-0.035469,0.004311,-0.014641,65.258606,23.194229,-147.497971,,,
729608670.923276,-0.275532,1.82296,56.262329,-0.044586,-0.010315,1.00029,-0.035469,0.004311,-0.014641,65.258606,23.194229,-147.497971,,,
729608670.926554,-0.283076,1.819094,56.258953,-0.044083,-0.01152,1.006226,-0.023685,-0.003691,-0.014853,65.258606,23.194229,-147.497971,,,
729608670.92988,-0.28972,1.818579,56.255671,-0.044083,-0.01152,1.006226,-0.023685,-0.003691,-0.014853,65.258606,23.194229,-147.497971,,,
729608670.933217,-0.28972,1.818579,56.255671,-0.044083,-0.01152,1.006226,-0.023685,-0.003691,-0.014853,65.211838,23.400742,-147.362274,,,
729608670.93655,-0.295198,1.815405,56.252583,-0.042465,-0.008026,1.011703,-0.020361,-0.003582,-0.013556,65.211838,23.400742,-147.362274,,,
729608670.939875,-0.29982,1.813587,56.249615,-0.042465,-0.008026,1.011703,-0.020361,-0.003582,-0.013556,65.211838,23.400742,-147.362274,,,
729608670.943234,-0.29982,1.813587,56.249615,-0.042465,-0.008026,1.011703,-0.020361,-0.003582,-0.013556,65.211838,23.400742,-147.362274,,,
729608670.946615,-0.302777,1.807766,56.246701,-0.041794,-0.007034,1.013931,-0.008157,-0.008911,-0.009987,65.211838,23.400742,-147.362274,,,
729608670.949893,-0.304868,1.804489,56.243736,-0.041794,-0.007034,1.013931,-0.008157,-0.008911,-0.009987,65.211838,23.400742,-147.362274,,,
729608670.953213,-0.304868,1.804489,56.243736,-0.041794,-0.007034,1.013931,-0.008157,-0.008911,-0.009987,65.211838,23.400742,-147.362274,,,
729608670.956555,-0.306793,1.797881,56.239987,-0.037796,-0.005875,1.012329,-0.002556,-0.007281,-0.016173,65.211838,23.400742,-147.362274,,,
729608670.959878,-0.30834,1.795022,56.234926,-0.037796,-0.005875,1.012329,-0.002556,-0.007281,-0.016173,65.211838,23.400742,-147.362274,,,
729608670.963233,-0.30834,1.795022,56.234926,-0.037796,-0.005875,1.012329,-0.002556,-0.007281,-0.016173,65.211838,23.400742,-147.362274,,,
729608670.96656,-0.307517,1.787999,56.228631,-0.02887,-0.000122,1.011627,-0.00142,-0.008648,-0.024346,65.211838,23.400742,-147.362274,,,
729608670.969926,-0.307805,1.78529,56.221371,-0.02887,-0.000122,1.011627,-0.00142,-0.008648,-0.024346,65.211838,23.400742,-147.362274,,,
729608670.973211,-0.307805,1.78529,56.221371,-0.02887,-0.000122,1.011627,-0.00142,-0.008648,-0.024346,65.136688,23.539978,-147.549957,,,
729608670.976551,-0.305951,1.780245,56.213416,-0.026291,0.001831,1.010101,0.00298,-0.005285,-0.030708,65.136688,23.539978,-147.549957,,,
729608670.979917,-0.304504,1.777749,56.20523,-0.026291,0.001831,1.010101,0.00298,-0.005285,-0.030708,65.136688,23.539978,-147.549957,,,
729608670.983272,-0.304504,1.777749,56.20523,-0.026291,0.001831,1.010101,0.00298,-0.005285,-0.030708,65.136688,23.539978,-147.549957,,,
729608670.986541,-0.303306,1.776905,56.197347,-0.028732,-0.002548,1.008453,0.006674,-0.00202,-0.030032,65.136688,23.539978,-147.549957,,,
729608670.9899,-0.302366,1.775457,56.190149,-0.028732,-0.002548,1.008453,0.006674,-0.00202,-0.030032,65.136688,23.539978,-147.549957,,,
729608670.993205,-0.302366,1.775457,56.190149,-0.028732,-0.002548,1.008453,0.006674,-0.00202,-0.030032,65.136688,23.539978,-147.549957,,,
729608670.996546,-0.302254,1.778056,56.184195,-0.030991,-0.008759,1.00621,0.004944,-0.00115,-0.018729,65.136688,23.539978,-147.549957,,,
729608670.999902,-0.302112,1.77762,56.179837,-0.030991,-0.008759,1.00621,0.004944,-0.00115,-0.018729,65.136688,23.539978,-147.549957,,,
729608671.003207,-0.302112,1.77762,56.179837,-0.030991,-0.008759,1.00621,0.004944,-0.00115,-0.018729,65.136688,23.539978,-147.549957,,,
729608671.006544,-0.304406,1.780867,56.176864,-0.0327,-0.009995,1.002533,-0.005487,-0.000312,-0.012725,65.136688,23.539978,-147.549957,,,
729608671.009981,-0.305318,1.778343,56.175104,-0.0327,-0.009995,1.002533,-0.005487,-0.000312,-0.012725,65.136688,23.539978,-147.549957,,,
729608671.013208,-0.305318,1.778343,56.175104,-0.0327,-0.009995,1.002533,-0.005487,-0.000312,-0.012725,64.90477,23.468674,-147.445084,,,
729608671.016545,-0.306856,1.777832,56.174119,-0.034103,-0.009872,1.002487,0.000783,-0.009916,-0.004592,64.90477,23.468674,-147.445084,,,
729608671.01988,-0.305838,1.771903,56.173442,-0.034103,-0.009872,1.002487,0.000783,-0.009916,-0.004592,64.90477,23.468674,-147.445084,,,
729608671.023291,-0.305838,1.771903,56.173442,-0.034103,-0.009872,1.002487,0.000783,-0.009916,-0.004592,64.90477,23.468674,-147.445084,,,
729608671.026551,-0.303569,1.766797,56.172827,-0.03418,-0.010437,1.007034,0.011342,-0.026004,-0.004528,64.90477,23.468674,-147.445084,,,
729608671.029915,-0.298447,1.755253,56.171816,-0.03418,-0.010437,1.007034,0.011342,-0.026004,-0.004528,64.90477,23.468674,-147.445084,,,
729608671.033216,-0.298447,1.755253,56.171816,-0.03418,-0.010437,1.007034,0.011342,-0.026004,-0.004528,64.90477,23.468674,-147.445084,,,
729608671.036544,-0.291736,1.743513,56.170206,-0.029007,-0.010223,1.005569,0.026843,-0.050265,-0.00749,64.90477,23.468674,-147.445084,,,
729608671.039927,-0.283235,1.727782,56.168456,-0.029007,-0.010223,1.005569,0.026843,-0.050265,-0.00749,64.90477,23.468674,-147.445084,,,
729608671.043212,-0.283235,1.727782,56.168456,-0.029007,-0.010223,1.005569,0.026843,-0.050265,-0.00749,64.90477,23.468674,-147.445084,,,
729608671.046614,-0.273001,1.713765,56.166411,-0.022934,-0.006302,1.007019,0.034506,-0.048031,-0.007872,64.90477,23.468674,-147.445084,,,
729608671.049884,-0.263834,1.700838,56.163798,-0.022934,-0.006302,1.007019,0.034506,-0.048031,-0.007872,64.90477,23.468674,-147.445084,,,
729608671.053294,-0.263834,1.700838,56.163798,-0.022934,-0.006302,1.007019,0.034506,-0.048031,-0.007872,65.049866,23.387894,-147.331009,,,
729608671.056616,-0.253356,1.689551,56.160853,-0.014252,-0.000168,1.00621,0.03216,-0.033002,-0.01061,65.049866,23.387894,-147.331009,,,
729608671.059915,-0.245573,1.683796,56.157134,-0.014252,-0.000168,1.00621,0.03216,-0.033002,-0.01061,65.049866,23.387894,-147.331009,,,
729608671.063231,-0.245573,1.683796,56.157134,-0.014252,-0.000168,1.00621,0.03216,-0.033002,-0.01061,65.049866,23.387894,-147.331009,,,
729608671.066565,-0.238249,1.682026,56.152622,-0.006927,0.005249,1.002365,0.023334,-0.001502,-0.014747,65.049866,23.387894,-147.331009,,,
729608671.069876,-0.232971,1.685013,56.147683,-0.006927,0.005249,1.002365,0.023334,-0.001502,-0.014747,65.049866,23.387894,-147.331009,,,
729608671.073281,-0.232971,1.685013,56.147683,-0.006927,0.005249,1.002365,0.023334,-0.001502,-0.014747,65.049866,23.387894,-147.331009,,,
729608671.076551,-0.229172,1.691978,56.142663,-0.010788,0.004761,1.000549,0.014975,0.027396,-0.01846,65.049866,23.387894,-147.331009,,,
729608671.079891,-0.224918,1.701583,56.137641,-0.010788,0.004761,1.000549,0.014975,0.027396,-0.01846,65.049866,23.387894,-147.331009,,,
729608671.083277,-0.224918,1.701583,56.137641,-0.010788,0.004761,1.000549,0.014975,0.027396,-0.01846,65.049866,23.387894,-147.331009,,,
729608671.086603,-0.222262,1.713366,56.133019,-0.015518,0.001083,0.995468,0.015815,0.042571,-0.017564,65.049866,23.387894,-147.331009,,,
729608671.089916,-0.21759,1.724313,56.128635,-0.015518,0.001083,0.995468,0.015815,0.042571,-0.017564,65.049866,23.387894,-147.331009,,,
729608671.093203,-0.21759,1.724313,56.128635,-0.015518,0.001083,0.995468,0.015815,0.042571,-0.017564,65.049866,23.387894,-147.331009,,,
729608671.096548,-0.213753,1.734834,56.124073,-0.02449,0.001144,0.990814,0.020613,0.038579,-0.019419,64.713013,23.197327,-147.03537,,,
729608671.099932,-0.207645,1.742602,56.119252,-0.02449,0.001144,0.990814,0.020613,0.038579,-0.019419,64.713013,23.197327,-147.03537,,,
729608671.103199,-0.207645,1.742602,56.119252,-0.02449,0.001144,0.990814,0.020613,0.038579,-0.019419,64.713013,23.197327,-147.03537,,,
729608671.106566,-0.2037,1.749552,56.1144,-0.030045,0.001221,0.989059,0.022063,0.021855,-0.01839,64.713013,23.197327,-147.03537,,,
729608671.109905,-0.198165,1.752953,56.109929,-0.030045,0.001221,0.989059,0.022063,0.021855,-0.01839,64.713013,23.197327,-147.03537,,,
729608671.113305,-0.198165,1.752953,56.109929,-0.030045,0.001221,0.989059,0.022063,0.021855,-0.01839,64.713013,23.197327,-147.03537,,,
729608671.116541,-0.194402,1.75474,56.105922,-0.036407,0.005569,0.985199,0.019004,0.010198,-0.013666,64.713013,23.197327,-147.03537,,,
729608671.119889,-0.194402,1.754207,56.102289,-0.036407,0.005569,0.985199,0.019004,0.010198,-0.013666,64.713013,23.197327,-147.03537,,,
729608671.123229,-0.189609,1.754207,56.102289,-0.036407,0.005569,0.985199,0.019004,0.010198,-0.013666,64.713013,23.197327,-147.03537,,,
729608671.126623,-0.186851,1.750829,56.099189,-0.038086,0.006912,0.982803,0.015132,-0.00461,-0.012728,64.713013,23.197327,-147.03537,,,
729608671.12983,-0.186851,1.750829,56.099189,-0.038086,0.006912,0.982803,0.015132,-0.00461,-0.012728,64.713013,23.197327,-147.03537,,,
729608671.133274,-0.183734,1.748092,56.096258,-0.038086,0.006912,0.982803,0.015132,-0.00461,-0.012728,64.713013,23.197327,-147.03537,,,
729608671.136476,-0.182194,1.741016,56.093036,-0.03595,0.009521,0.981049,0.00664,-0.008972,-0.013579,64.997894,23.408081,-147.020493,,,
729608671.139889,-0.182194,1.741016,56.093036,-0.03595,0.009521,0.981049,0.00664,-0.008972,-0.013579,64.997894,23.408081,-147.020493,,,
729608671.143198,-0.181951,1.737883,56.090348,-0.03595,0.009521,0.981049,0.00664,-0.008972,-0.013579,64.997894,23.408081,-147.020493,,,
729608671.146553,-0.179236,1.728572,56.088822,-0.036331,0.00972,0.986938,0.003063,-0.003608,-0.005687,64.997894,23.408081,-147.020493,,,
729608671.149968,-0.176738,1.727507,56.088958,-0.036331,0.00972,0.986938,0.003063,-0.003608,-0.005687,64.997894,23.408081,-147.020493,,,
729608671.153197,-0.176738,1.727507,56.088958,-0.036331,0.00972,0.986938,0.003063,-0.003608,-0.005687,64.997894,23.408081,-147.020493,,,
729608671.156551,-0.170915,1.720729,56.090525,-0.039154,0.002991,0.9935,0.009367,0.000575,0.003294,64.997894,23.408081,-147.020493,,,
