Time (sec),Pitch (deg),Roll (deg),Yaw(deg),X-Acceleration (g),Y-Acceleration (g),Z-Acceleration (g),Pitch Rate (deg/sec),Roll Rate (deg/sec),Yaw Rate (deg/sec),Magnetic Field in X direction (uT),Magnetic Field in Y direction (uT),Magnetic Field in Z Direction (uT),Latitude (deg),Longitude (deg),Altitude (m)
729606355.384945,1.43396,1.408779,50.480721,0.014404,0.031082,0.979691,0.021495,0.032203,0.005051,64.59256,20.418091,-150.811157,,,
729606355.388172,1.432233,1.415016,50.480484,0.014404,0.031082,0.979691,0.001276,0.010446,-0.003881,64.59256,20.418091,-150.811157,,,
729606355.391639,1.432233,1.415016,50.480484,0.014404,0.031082,0.979691,0.001276,0.010446,-0.003881,64.59256,20.418091,-150.811157,,,
729606355.394854,1.430966,1.414935,50.478751,0.01123,0.030426,0.979111,0.001276,0.010446,-0.003881,64.59256,20.418091,-150.811157,,,
729606355.398173,1.426596,1.415204,50.474936,0.01123,0.030426,0.979111,-0.010147,0.000407,-0.013469,64.59256,20.418091,-150.811157,,,
729606355.401553,1.426596,1.415204,50.474936,0.01123,0.030426,0.979111,-0.010147,0.000407,-0.013469,64.59256,20.418091,-150.811157,,,
729606355.404928,1.42364,1.412208,50.468611,0.009338,0.031296,0.98912,-0.010147,0.000407,-0.013469,64.59256,20.418091,-150.811157,,,
729606355.40817,1.420325,1.40696,50.459737,0.009338,0.031296,0.98912,-0.008449,-0.014023,-0.03067,64.59256,20.418091,-150.811157,,,
729606355.41153,1.420325,1.40696,50.459737,0.009338,0.031296,0.98912,-0.008449,-0.014023,-0.03067,64.59256,20.418091,-150.811157,,,
729606355.41484,1.418623,1.403089,50.44925,0.002258,0.02887,0.996124,-0.008449,-0.014023,-0.03067,64.59256,20.418091,-150.811157,,,
729606355.418249,1.41738,1.398097,50.438145,0.002258,0.02887,0.996124,7.5e-05,-0.004956,-0.041723,64.749634,20.384125,-150.806427,,,
729606355.421499,1.41738,1.398097,50.438145,0.002258,0.02887,0.996124,7.5e-05,-0.004956,-0.041723,64.749634,20.384125,-150.806427,,,
729606355.426703,1.418705,1.399118,50.427141,-0.009735,0.021301,1.007034,7.5e-05,-0.004956,-0.041723,64.749634,20.384125,-150.806427,,,
729606355.427953,1.42097,1.394719,50.416638,-0.009735,0.021301,1.007034,0.009983,0.015373,-0.039429,64.749634,20.384125,-150.806427,,,
729606355.431531,1.42097,1.394719,50.416638,-0.009735,0.021301,1.007034,0.009983,0.015373,-0.039429,64.749634,20.384125,-150.806427,,,
729606355.434841,1.425,1.399905,50.406392,-0.021667,0.016006,1.008453,0.009983,0.015373,-0.039429,64.749634,20.384125,-150.806427,,,
729606355.438185,1.429501,1.395617,50.397084,-0.021667,0.016006,1.008453,0.017292,0.028015,-0.035907,64.749634,20.384125,-150.806427,,,
729606355.441596,1.429501,1.395617,50.397084,-0.021667,0.016006,1.008453,0.017292,0.028015,-0.035907,64.749634,20.384125,-150.806427,,,
729606355.444849,1.435039,1.4055,50.387786,-0.027451,0.021179,1.003998,0.017292,0.028015,-0.035907,64.749634,20.384125,-150.806427,,,
729606355.448177,1.441732,1.405193,50.379349,-0.027451,0.021179,1.003998,0.023654,0.046048,-0.029191,64.749634,20.384125,-150.806427,,,
729606355.451649,1.441732,1.405193,50.379349,-0.027451,0.021179,1.003998,0.023654,0.046048,-0.029191,64.749634,20.384125,-150.806427,,,
729606355.454867,1.448299,1.420615,50.371693,-0.034134,0.024734,1.001205,0.023654,0.046048,-0.029191,64.749634,20.384125,-150.806427,,,
729606355.458174,1.454349,1.423608,50.364824,-0.034134,0.024734,1.001205,0.020889,0.062696,-0.026172,64.801102,20.298965,-150.73204,,,
729606355.461529,1.454349,1.423608,50.364824,-0.034134,0.024734,1.001205,0.020889,0.062696,-0.026172,64.801102,20.298965,-150.73204,,,
729606355.464933,1.456403,1.440639,50.357683,-0.032516,0.032898,0.988907,0.020889,0.062696,-0.026172,64.801102,20.298965,-150.73204,,,
729606355.468194,1.457583,1.442745,50.35132,-0.032516,0.032898,0.988907,-0.00223,0.057253,-0.022802,64.801102,20.298965,-150.73204,,,
729606355.47153,1.457583,1.442745,50.35132,-0.032516,0.032898,0.988907,-0.00223,0.057253,-0.022802,64.801102,20.298965,-150.73204,,,
729606355.47486,1.454186,1.456487,50.344666,-0.038712,0.038132,0.978745,-0.00223,0.057253,-0.022802,64.801102,20.298965,-150.73204,,,
729606355.478199,1.449058,1.456197,50.338656,-0.038712,0.038132,0.978745,-0.019817,0.043151,-0.025678,64.801102,20.298965,-150.73204,,,
729606355.481498,1.449058,1.456197,50.338656,-0.038712,0.038132,0.978745,-0.019817,0.043151,-0.025678,64.801102,20.298965,-150.73204,,,
729606355.484866,1.440643,1.465397,50.333063,-0.04567,0.039352,0.975845,-0.019817,0.043151,-0.025678,64.801102,20.298965,-150.73204,,,
729606355.488172,1.431994,1.460091,50.328437,-0.04567,0.039352,0.975845,-0.032132,0.022524,-0.017549,64.801102,20.298965,-150.73204,,,
729606355.491546,1.431994,1.460091,50.328437,-0.04567,0.039352,0.975845,-0.032132,0.022524,-0.017549,64.801102,20.298965,-150.73204,,,
729606355.49485,1.420859,1.46232,50.324708,-0.048386,0.039536,0.972916,-0.032132,0.022524,-0.017549,64.801102,20.298965,-150.73204,,,
729606355.498174,1.409579,1.453555,50.322376,-0.048386,0.039536,0.972916,-0.038703,-0.005416,-0.013336,64.801102,20.298965,-150.73204,,,
729606355.501511,1.409579,1.453555,50.322376,-0.048386,0.039536,0.972916,-0.038703,-0.005416,-0.013336,64.677917,20.333115,-151.319183,,,
729606355.5049,1.397253,1.446877,50.320708,-0.045929,0.042068,0.972534,-0.038703,-0.005416,-0.013336,64.677917,20.333115,-151.319183,,,
729606355.508166,1.382811,1.434733,50.319311,-0.045929,0.042068,0.972534,-0.044476,-0.032227,-0.00921,64.677917,20.333115,-151.319183,,,
729606355.511507,1.382811,1.434733,50.319311,-0.045929,0.042068,0.972534,-0.044476,-0.032227,-0.00921,64.677917,20.333115,-151.319183,,,
729606355.514851,1.368991,1.423642,50.317984,-0.040878,0.039764,0.979172,-0.044476,-0.032227,-0.00921,64.677917,20.333115,-151.319183,,,
729606355.518203,1.353201,1.412378,50.316677,-0.040878,0.039764,0.979172,-0.048531,-0.034605,-0.008606,64.677917,20.333115,-151.319183,,,
729606355.521547,1.353201,1.412378,50.316677,-0.040878,0.039764,0.979172,-0.048531,-0.034605,-0.008606,64.677917,20.333115,-151.319183,,,
729606355.524876,1.3379,1.403109,50.315055,-0.037521,0.035934,0.991135,-0.048531,-0.034605,-0.008606,64.677917,20.333115,-151.319183,,,
729606355.528174,1.321808,1.397833,50.314257,-0.037521,0.035934,0.991135,-0.05344,-0.019463,-0.003857,64.677917,20.333115,-151.319183,,,
729606355.531583,1.321808,1.397833,50.314257,-0.037521,0.035934,0.991135,-0.05344,-0.019463,-0.003857,64.677917,20.333115,-151.319183,,,
729606355.534946,1.306409,1.393081,50.314873,-0.036438,0.027695,1.003082,-0.05344,-0.019463,-0.003857,64.677917,20.333115,-151.319183,,,
729606355.538168,1.293193,1.393294,50.316322,-0.036438,0.027695,1.003082,-0.049506,-0.009778,0.002698,64.677917,20.333115,-151.319183,,,
729606355.541502,1.293193,1.393294,50.316322,-0.036438,0.027695,1.003082,-0.049506,-0.009778,0.002698,64.690887,20.435364,-151.07135,,,
729606355.544873,1.279917,1.391248,50.31934,-0.038727,0.023758,1.008011,-0.049506,-0.009778,0.002698,64.690887,20.435364,-151.07135,,,
729606355.548166,1.271737,1.394101,50.324401,-0.038727,0.023758,1.008011,-0.04029,0.000454,0.012324,64.690887,20.435364,-151.07135,,,
729606355.551533,1.271737,1.394101,50.324401,-0.038727,0.023758,1.008011,-0.04029,0.000454,0.012324,64.690887,20.435364,-151.07135,,,
729606355.554859,1.262354,1.395579,50.3307,-0.041504,0.019165,1.015686,-0.04029,0.000454,0.012324,64.690887,20.435364,-151.07135,,,
729606355.558168,1.259092,1.406176,50.337384,-0.041504,0.019165,1.015686,-0.027935,0.018742,0.024443,64.690887,20.435364,-151.07135,,,
729606355.561518,1.259092,1.406176,50.337384,-0.041504,0.019165,1.015686,-0.027935,0.018742,0.024443,64.690887,20.435364,-151.07135,,,
729606355.564857,1.252936,1.412685,50.344574,-0.041077,0.019058,1.01973,-0.027935,0.018742,0.024443,64.690887,20.435364,-151.07135,,,
729606355.568191,1.25195,1.428613,50.351622,-0.041077,0.019058,1.01973,-0.018763,0.030416,0.024222,64.690887,20.435364,-151.07135,,,
729606355.571519,1.25195,1.428613,50.351622,-0.041077,0.019058,1.01973,-0.018763,0.030416,0.024222,64.690887,20.435364,-151.07135,,,
729606355.574842,1.247501,1.436293,50.359218,-0.043137,0.0233,1.013031,-0.018763,0.030416,0.024222,64.690887,20.435364,-151.07135,,,
729606355.578167,1.248244,1.452164,50.367354,-0.043137,0.0233,1.013031,-0.014438,0.030567,0.0283,64.690887,20.435364,-151.07135,,,
729606355.581502,1.248244,1.452164,50.367354,-0.043137,0.0233,1.013031,-0.014438,0.030567,0.0283,64.738739,20.654312,-150.960968,,,
729606355.584886,1.245056,1.458532,50.376622,-0.045013,0.023651,1.00769,-0.014438,0.030567,0.0283,64.738739,20.654312,-150.960968,,,
729606355.588187,1.248117,1.469277,50.386534,-0.045013,0.023651,1.00769,-0.007266,0.018697,0.033253,64.738739,20.654312,-150.960968,,,
729606355.59151,1.248117,1.469277,50.386534,-0.045013,0.023651,1.00769,-0.007266,0.018697,0.033253,64.738739,20.654312,-150.960968,,,
729606355.594945,1.248298,1.468513,50.396825,-0.045212,0.026184,1.004532,-0.007266,0.018697,0.033253,64.738739,20.654312,-150.960968,,,
729606355.598171,1.254751,1.467765,50.406148,-0.045212,0.026184,1.004532,0.009082,-0.016703,0.03186,64.738739,20.654312,-150.960968,,,
729606355.601564,1.254751,1.467765,50.406148,-0.045212,0.026184,1.004532,0.009082,-0.016703,0.03186,64.738739,20.654312,-150.960968,,,
729606355.60486,1.258653,1.457632,50.414095,-0.038269,0.030502,1.004364,0.009082,-0.016703,0.03186,64.738739,20.654312,-150.960968,,,
729606355.608174,1.266524,1.448939,50.421061,-0.038269,0.030502,1.004364,0.017391,-0.043124,0.02278,64.738739,20.654312,-150.960968,,,
729606355.611523,1.266524,1.448939,50.421061,-0.038269,0.030502,1.004364,0.017391,-0.043124,0.02278,64.738739,20.654312,-150.960968,,,
729606355.614868,1.272432,1.435899,50.427311,-0.035904,0.034454,1.002945,0.017391,-0.043124,0.02278,64.738739,20.654312,-150.960968,,,
729606355.618175,1.27937,1.429044,50.43321,-0.035904,0.034454,1.002945,0.022561,-0.032389,0.019395,64.738739,20.654312,-150.960968,,,
729606355.62159,1.27937,1.429044,50.43321,-0.035904,0.034454,1.002945,0.022561,-0.032389,0.019395,64.738739,20.654312,-150.960968,,,
729606355.624855,1.28568,1.420148,50.439996,-0.031891,0.033066,1.008514,0.022561,-0.032389,0.019395,64.749634,20.713577,-151.182953,,,
729606355.628172,1.291039,1.41879,50.447665,-0.031891,0.033066,1.008514,0.021305,-0.017803,0.026212,64.749634,20.713577,-151.182953,,,
729606355.63152,1.291039,1.41879,50.447665,-0.031891,0.033066,1.008514,0.021305,-0.017803,0.026212,64.749634,20.713577,-151.182953,,,
729606355.634848,1.295878,1.416166,50.45658,-0.029114,0.027496,1.004715,0.021305,-0.017803,0.026212,64.749634,20.713577,-151.182953,,,
729606355.638167,1.299473,1.425344,50.466841,-0.029114,0.027496,1.004715,0.017753,0.01737,0.035955,64.749634,20.713577,-151.182953,,,
729606355.641506,1.299473,1.425344,50.466841,-0.029114,0.027496,1.004715,0.017753,0.01737,0.035955,64.749634,20.713577,-151.182953,,,
729606355.644903,1.303887,1.435568,50.478719,-0.027359,0.023926,1.015137,0.017753,0.01737,0.035955,64.749634,20.713577,-151.182953,,,
729606355.648157,1.307183,1.453647,50.49155,-0.027359,0.023926,1.015137,0.013702,0.046263,0.044674,64.749634,20.713577,-151.182953,,,
729606355.651555,1.307183,1.453647,50.49155,-0.027359,0.023926,1.015137,0.013702,0.046263,0.044674,64.749634,20.713577,-151.182953,,,
729606355.65488,1.311264,1.466197,50.504888,-0.032104,0.0242,1.008179,0.013702,0.046263,0.044674,64.749634,20.713577,-151.182953,,,
729606355.658163,1.316042,1.48352,50.517606,-0.032104,0.0242,1.008179,0.014263,0.044071,0.046711,64.749634,20.713577,-151.182953,,,
729606355.661522,1.316042,1.48352,50.517606,-0.032104,0.0242,1.008179,0.014263,0.044071,0.046711,64.749634,20.713577,-151.182953,,,
729606355.66485,1.321182,1.491685,50.52953,-0.037277,0.022659,1.004013,0.014263,0.044071,0.046711,64.584595,20.501221,-150.878159,,,
729606355.668187,1.326606,1.502652,50.539783,-0.037277,0.022659,1.004013,0.016697,0.019678,0.034661,64.584595,20.501221,-150.878159,,,
729606355.671506,1.326606,1.502652,50.539783,-0.037277,0.022659,1.004013,0.016697,0.019678,0.034661,64.584595,20.501221,-150.878159,,,
729606355.674688,1.331188,1.503044,50.548389,-0.044128,0.021179,0.999954,0.016697,0.019678,0.034661,64.584595,20.501221,-150.878159,,,
729606355.678199,1.336581,1.504442,50.555641,-0.044128,0.021179,0.999954,0.018335,-0.011241,0.023584,64.584595,20.501221,-150.878159,,,
729606355.681554,1.336581,1.504442,50.555641,-0.044128,0.021179,0.999954,0.018335,-0.011241,0.023584,64.584595,20.501221,-150.878159,,,
729606355.684846,1.341673,1.495141,50.562434,-0.047852,0.015472,0.999954,0.018335,-0.011241,0.023584,64.584595,20.501221,-150.878159,,,
729606355.688189,1.349184,1.485023,50.569173,-0.047852,0.015472,0.999954,0.01919,-0.043353,0.021969,64.584595,20.501221,-150.878159,,,
729606355.69151,1.349184,1.485023,50.569173,-0.047852,0.015472,0.999954,0.01919,-0.043353,0.021969,64.584595,20.501221,-150.878159,,,
729606355.694907,1.354716,1.468484,50.576061,-0.048004,0.008804,0.999863,0.01919,-0.043353,0.021969,64.584595,20.501221,-150.878159,,,
729606355.698156,1.364012,1.454241,50.583306,-0.048004,0.008804,0.999863,0.022199,-0.056217,0.025461,64.584595,20.501221,-150.878159,,,
729606355.701506,1.364012,1.454241,50.583306,-0.048004,0.008804,0.999863,0.022199,-0.056217,0.025461,64.584595,20.501221,-150.878159,,,
729606355.704878,1.37223,1.438689,50.59114,-0.039276,0.005066,1.010208,0.022199,-0.056217,0.025461,64.534546,20.240952,-150.84581,,,
729606355.708283,1.383444,1.428808,50.599498,-0.039276,0.005066,1.010208,0.03487,-0.038574,0.02686,64.534546,20.240952,-150.84581,,,
729606355.711544,1.383444,1.428808,50.599498,-0.039276,0.005066,1.010208,0.03487,-0.038574,0.02686,64.534546,20.240952,-150.84581,,,
729606355.714853,1.394186,1.420541,50.609333,-0.033356,0.002457,1.018311,0.03487,-0.038574,0.02686,64.534546,20.240952,-150.84581,,,
729606355.71822,1.40637,1.417464,50.620971,-0.033356,0.002457,1.018311,0.040325,-0.010223,0.039174,64.534546,20.240952,-150.84581,,,
729606355.721526,1.40637,1.417464,50.620971,-0.033356,0.002457,1.018311,0.040325,-0.010223,0.039174,64.534546,20.240952,-150.84581,,,
729606355.724836,1.418435,1.418584,50.63469,-0.028824,0.001007,1.016647,0.040325,-0.010223,0.039174,64.534546,20.240952,-150.84581,,,
729606355.728172,1.429624,1.424615,50.65005,-0.028824,0.001007,1.016647,0.041724,0.01945,0.053077,64.534546,20.240952,-150.84581,,,
729606355.7316,1.429624,1.424615,50.65005,-0.028824,0.001007,1.016647,0.041724,0.01945,0.053077,64.534546,20.240952,-150.84581,,,
729606355.734847,1.440048,1.431826,50.666245,-0.021286,0.006439,1.005859,0.041724,0.01945,0.053077,64.534546,20.240952,-150.84581,,,
729606355.738167,1.448499,1.443471,50.682486,-0.021286,0.006439,1.005859,0.03019,0.033642,0.057645,64.534546,20.240952,-150.84581,,,
729606355.741506,1.448499,1.443471,50.682486,-0.021286,0.006439,1.005859,0.03019,0.033642,0.057645,64.534546,20.240952,-150.84581,,,
729606355.744943,1.454678,1.452057,50.697633,-0.014069,0.017593,0.990677,0.03019,0.033642,0.057645,64.708481,20.308731,-151.028397,,,
729606355.748225,1.457028,1.464854,50.710687,-0.014069,0.017593,0.990677,0.012371,0.030507,0.044582,64.708481,20.308731,-151.028397,,,
729606355.751532,1.457028,1.464854,50.710687,-0.014069,0.017593,0.990677,0.012371,0.030507,0.044582,64.708481,20.308731,-151.028397,,,
729606355.754851,1.456888,1.469666,50.721981,-0.009232,0.024826,0.978165,0.012371,0.030507,0.044582,64.708481,20.308731,-151.028397,,,
729606355.75818,1.451652,1.476052,50.731553,-0.009232,0.024826,0.978165,-0.012481,0.003834,0.031421,64.708481,20.308731,-151.028397,,,
729606355.761517,1.451652,1.476052,50.731553,-0.009232,0.024826,0.978165,-0.012481,0.003834,0.031421,64.708481,20.308731,-151.028397,,,
729606355.764848,1.444366,1.469788,50.739938,-0.015732,0.026352,0.968994,-0.012481,0.003834,0.031421,64.708481,20.308731,-151.028397,,,
729606355.768174,1.431472,1.466107,50.746953,-0.015732,0.026352,0.968994,-0.034898,-0.035768,0.022851,64.708481,20.308731,-151.028397,,,
729606355.771508,1.431472,1.466107,50.746953,-0.015732,0.026352,0.968994,-0.034898,-0.035768,0.022851,64.708481,20.308731,-151.028397,,,
729606355.77485,1.419629,1.449803,50.75301,-0.017029,0.025955,0.969666,-0.034898,-0.035768,0.022851,64.708481,20.308731,-151.028397,,,
729606355.777956,1.401832,1.436417,50.756846,-0.017029,0.025955,0.969666,-0.047861,-0.068247,0.011766,64.708481,20.308731,-151.028397,,,
729606355.781536,1.401832,1.436417,50.756846,-0.017029,0.025955,0.969666,-0.047861,-0.068247,0.011766,64.708481,20.308731,-151.028397,,,
729606355.78497,1.3861,1.413262,50.758472,-0.010117,0.028534,0.977478,-0.047861,-0.068247,0.011766,64.708481,20.308731,-151.028397,,,
729606355.788183,1.364322,1.392389,50.75794,-0.010117,0.028534,0.977478,-0.057385,-0.082089,-0.004608,64.355881,20.476624,-150.754669,,,
729606355.791512,1.364322,1.392389,50.75794,-0.010117,0.028534,0.977478,-0.057385,-0.082089,-0.004608,64.355881,20.476624,-150.754669,,,
729606355.794933,1.346406,1.367846,50.755705,-0.008286,0.026581,0.985931,-0.057385,-0.082089,-0.004608,64.355881,20.476624,-150.754669,,,
729606355.798162,1.322781,1.34727,50.751748,-0.008286,0.026581,0.985931,-0.065591,-0.07827,-0.017069,64.355881,20.476624,-150.754669,,,
729606355.801523,1.322781,1.34727,50.751748,-0.008286,0.026581,0.985931,-0.065591,-0.07827,-0.017069,64.355881,20.476624,-150.754669,,,
729606355.804834,1.303806,1.326503,50.746361,-0.007355,0.020203,0.997116,-0.065591,-0.07827,-0.017069,64.355881,20.476624,-150.754669,,,
729606355.808166,1.280401,1.309577,50.739893,-0.007355,0.020203,0.997116,-0.062994,-0.057547,-0.026291,64.355881,20.476624,-150.754669,,,
729606355.811497,1.280401,1.309577,50.739893,-0.007355,0.020203,0.997116,-0.062994,-0.057547,-0.026291,64.355881,20.476624,-150.754669,,,
729606355.814848,1.263487,1.295971,50.732792,-0.007324,0.013489,1.007401,-0.062994,-0.057547,-0.026291,64.355881,20.476624,-150.754669,,,
729606355.818215,1.246313,1.28544,50.725455,-0.007324,0.013489,1.007401,-0.050672,-0.03112,-0.028206,64.355881,20.476624,-150.754669,,,
729606355.821532,1.246313,1.28544,50.725455,-0.007324,0.013489,1.007401,-0.050672,-0.03112,-0.028206,64.355881,20.476624,-150.754669,,,
729606355.824838,1.234871,1.280893,50.71851,-0.014206,0.005295,1.020279,-0.050672,-0.03112,-0.028206,64.355881,20.476624,-150.754669,,,
729606355.828168,1.226287,1.27599,50.71203,-0.014206,0.005295,1.020279,-0.029239,-0.000854,-0.023747,64.410919,20.7509,-150.776596,,,
729606355.83161,1.226287,1.27599,50.71203,-0.014206,0.005295,1.020279,-0.029239,-0.000854,-0.023747,64.410919,20.7509,-150.776596,,,
729606355.83485,1.221411,1.277832,50.705976,-0.025345,-0.005112,1.020813,-0.029239,-0.000854,-0.023747,64.410919,20.7509,-150.776596,,,
729606355.838169,1.221205,1.278219,50.701534,-0.025345,-0.005112,1.020813,-0.003057,0.015382,-0.019488,64.410919,20.7509,-150.776596,,,
729606355.841507,1.221205,1.278219,50.701534,-0.025345,-0.005112,1.020813,-0.003057,0.015382,-0.019488,64.410919,20.7509,-150.776596,,,
729606355.844828,1.222511,1.284515,50.698906,-0.031372,-0.004959,1.014847,-0.003057,0.015382,-0.019488,64.410919,20.7509,-150.776596,,,
729606355.848165,1.2263,1.291243,50.697541,-0.031372,-0.004959,1.014847,0.011402,0.032212,-0.006169,64.410919,20.7509,-150.776596,,,
729606355.851508,1.2263,1.291243,50.697541,-0.031372,-0.004959,1.014847,0.011402,0.032212,-0.006169,64.410919,20.7509,-150.776596,,,
729606355.854928,1.229468,1.300771,50.696652,-0.036606,0.001129,1.005264,0.011402,0.032212,-0.006169,64.410919,20.7509,-150.776596,,,
729606355.85817,1.233971,1.308098,50.696252,-0.036606,0.001129,1.005264,0.011926,0.034385,-0.002485,64.410919,20.7509,-150.776596,,,
729606355.861251,1.233971,1.308098,50.696252,-0.036606,0.001129,1.005264,0.011926,0.034385,-0.002485,64.410919,20.7509,-150.776596,,,
729606355.864895,1.235309,1.318125,50.695597,-0.035156,0.012772,0.990997,0.011926,0.034385,-0.002485,64.410919,20.7509,-150.776596,,,
729606355.868184,1.236818,1.322152,50.694321,-0.035156,0.012772,0.990997,-0.001677,0.033882,-0.006053,64.30072,20.662994,-150.83667,,,
729606355.871531,1.236818,1.322152,50.694321,-0.035156,0.012772,0.990997,-0.001677,0.033882,-0.006053,64.30072,20.662994,-150.83667,,,
729606355.874884,1.234352,1.329353,50.692192,-0.033737,0.019562,0.977692,-0.001677,0.033882,-0.006053,64.30072,20.662994,-150.83667,,,
729606355.878169,1.230212,1.329297,50.689419,-0.033737,0.019562,0.977692,-0.015156,0.018594,-0.010296,64.30072,20.662994,-150.83667,,,
729606355.881601,1.230212,1.329297,50.689419,-0.033737,0.019562,0.977692,-0.015156,0.018594,-0.010296,64.30072,20.662994,-150.83667,,,
729606355.884847,1.222886,1.33262,50.686526,-0.037628,0.019394,0.968292,-0.015156,0.018594,-0.010296,64.30072,20.662994,-150.83667,,,
729606355.888172,1.212066,1.327781,50.684556,-0.037628,0.019394,0.968292,-0.033136,0.00544,-0.010968,64.30072,20.662994,-150.83667,,,
729606355.891522,1.212066,1.327781,50.684556,-0.037628,0.019394,0.968292,-0.033136,0.00544,-0.010968,64.30072,20.662994,-150.83667,,,
729606355.894907,1.198925,1.325749,50.682618,-0.034515,0.020279,0.962708,-0.033136,0.00544,-0.010968,64.30072,20.662994,-150.83667,,,
729606355.898158,1.180191,1.316324,50.680081,-0.034515,0.020279,0.962708,-0.056628,-0.013288,-0.010887,64.30072,20.662994,-150.83667,,,
729606355.901516,1.180191,1.316324,50.680081,-0.034515,0.020279,0.962708,-0.056628,-0.013288,-0.010887,64.30072,20.662994,-150.83667,,,
729606355.904857,1.161183,1.309032,50.676854,-0.027588,0.024109,0.959381,-0.056628,-0.013288,-0.010887,64.30072,20.662994,-150.83667,,,
729606355.908238,1.137108,1.298581,50.673079,-0.027588,0.024109,0.959381,-0.070585,-0.02984,-0.015869,64.30072,20.662994,-150.83667,,,
729606355.911508,1.137108,1.298581,50.673079,-0.027588,0.024109,0.959381,-0.070585,-0.02984,-0.015869,64.141281,20.698792,-151.08403,,,
729606355.914861,1.115135,1.288508,50.669132,-0.021576,0.024002,0.965591,-0.070585,-0.02984,-0.015869,64.141281,20.698792,-151.08403,,,
729606355.918179,1.086479,1.279654,50.664426,-0.021576,0.024002,0.965591,-0.083489,-0.034103,-0.02009,64.141281,20.698792,-151.08403,,,
729606355.92159,1.086479,1.279654,50.664426,-0.021576,0.024002,0.965591,-0.083489,-0.034103,-0.02009,64.141281,20.698792,-151.08403,,,
729606355.924847,1.061012,1.270291,50.658466,-0.015594,0.020905,0.970779,-0.083489,-0.034103,-0.02009,64.141281,20.698792,-151.08403,,,
729606355.928172,1.030591,1.265172,50.651642,-0.015594,0.020905,0.970779,-0.090587,-0.025591,-0.028406,64.141281,20.698792,-151.08403,,,
729606355.931497,1.030591,1.265172,50.651642,-0.015594,0.020905,0.970779,-0.090587,-0.025591,-0.028406,64.141281,20.698792,-151.08403,,,
729606355.934876,1.004023,1.258836,50.644397,-0.013535,0.015457,0.980591,-0.090587,-0.025591,-0.028406,64.141281,20.698792,-151.08403,,,
729606355.938168,0.975349,1.259856,50.637156,-0.013535,0.015457,0.980591,-0.08825,-0.009994,-0.02693,64.141281,20.698792,-151.08403,,,
729606355.941519,0.975349,1.259856,50.637156,-0.013535,0.015457,0.980591,-0.08825,-0.009994,-0.02693,64.141281,20.698792,-151.08403,,,
729606355.944849,0.950753,1.259511,50.630255,-0.01384,0.009735,0.993271,-0.08825,-0.009994,-0.02693,64.141281,20.698792,-151.08403,,,
729606355.94817,0.92889,1.266327,50.623193,-0.01384,0.009735,0.993271,-0.073191,0.011583,-0.028026,64.141281,20.698792,-151.08403,,,
729606355.95152,0.92889,1.266327,50.623193,-0.01384,0.009735,0.993271,-0.073191,0.011583,-0.028026,64.261063,20.922104,-151.030014,,,
729606355.954855,0.911065,1.2723,50.615484,-0.016144,0.003906,1.006882,-0.073191,0.011583,-0.028026,64.261063,20.922104,-151.030014,,,
729606355.958169,0.898923,1.285963,50.606331,-0.016144,0.003906,1.006882,-0.044762,0.031566,-0.03556,64.261063,20.922104,-151.030014,,,
729606355.961492,0.898923,1.285963,50.606331,-0.016144,0.003906,1.006882,-0.044762,0.031566,-0.03556,64.261063,20.922104,-151.030014,,,
729606355.964841,0.890072,1.297062,50.595881,-0.01622,0.000748,1.016479,-0.044762,0.031566,-0.03556,64.261063,20.922104,-151.030014,,,
729606355.968171,0.886507,1.315713,50.584773,-0.01622,0.000748,1.016479,-0.014736,0.05099,-0.0419,64.261063,20.922104,-151.030014,,,
729606355.971509,0.886507,1.315713,50.584773,-0.01622,0.000748,1.016479,-0.014736,0.05099,-0.0419,64.261063,20.922104,-151.030014,,,
729606355.974911,0.885207,1.332588,50.573618,-0.021042,-0.000946,1.018997,-0.014736,0.05099,-0.0419,64.261063,20.922104,-151.030014,,,
729606355.978164,0.885207,1.332588,50.573618,-0.021042,-0.000946,1.018997,-0.002221,0.068551,-0.043017,64.261063,20.922104,-151.030014,,,
729606355.981505,0.886752,1.3544,50.562691,-0.021042,-0.000946,1.018997,-0.002221,0.068551,-0.043017,64.261063,20.922104,-151.030014,,,
729606355.984856,0.887476,1.372835,50.552272,-0.028076,-0.000275,1.010361,-0.002221,0.068551,-0.043017,64.261063,20.922104,-151.030014,,,
729606355.98817,0.887476,1.391057,50.542244,-0.028076,-0.000275,1.010361,-0.001181,0.062802,-0.036158,64.261063,20.922104,-151.030014,,,
729606355.99152,0.889473,1.391057,50.542244,-0.028076,-0.000275,1.010361,-0.001181,0.062802,-0.036158,64.298477,21.029861,-150.978592,,,
729606355.994852,0.887488,1.407527,50.532411,-0.030472,0.004959,0.994766,-0.001181,0.062802,-0.036158,64.298477,21.029861,-150.978592,,,
729606355.998169,0.887488,1.407527,50.532411,-0.030472,0.004959,0.994766,-0.009301,0.058071,-0.035798,64.298477,21.029861,-150.978592,,,
729606356.001546,0.88578,1.422015,50.522756,-0.030472,0.004959,0.994766,-0.009301,0.058071,-0.035798,64.298477,21.029861,-150.978592,,,
729606356.004895,0.880718,1.43616,50.513059,-0.023819,0.013824,0.990448,-0.009301,0.058071,-0.035798,64.298477,21.029861,-150.978592,,,
729606356.008205,0.880718,1.43616,50.513059,-0.023819,0.013824,0.990448,-0.022191,0.038577,-0.036404,64.298477,21.029861,-150.978592,,,
729606356.011586,0.874619,1.443896,50.503542,-0.023819,0.013824,0.990448,-0.022191,0.038577,-0.036404,64.298477,21.029861,-150.978592,,,
729606356.01485,0.866451,1.450217,50.493924,-0.023041,0.018921,0.98436,-0.022191,0.038577,-0.036404,64.298477,21.029861,-150.978592,,,
729606356.018162,0.866451,1.450217,50.493924,-0.023041,0.018921,0.98436,-0.029115,0.010516,-0.036748,64.298477,21.029861,-150.978592,,,
729606356.021516,0.857869,1.44886,50.484621,-0.023041,0.018921,0.98436,-0.029115,0.010516,-0.036748,64.298477,21.029861,-150.978592,,,
729606356.024831,0.849258,1.447262,50.476133,-0.024323,0.017944,0.986542,-0.029115,0.010516,-0.036748,64.298477,21.029861,-150.978592,,,
729606356.028168,0.849258,1.447262,50.476133,-0.024323,0.017944,0.986542,-0.035895,-0.01154,-0.028215,64.298477,21.029861,-150.978592,,,
729606356.031501,0.83851,1.440856,50.468544,-0.024323,0.017944,0.986542,-0.035895,-0.01154,-0.028215,64.27182,21.019577,-150.54718,,,
729606356.034826,0.828763,1.435348,50.461884,-0.020401,0.018524,0.992599,-0.035895,-0.01154,-0.028215,64.27182,21.019577,-150.54718,,,
729606356.038163,0.828763,1.435348,50.461884,-0.020401,0.018524,0.992599,-0.03024,-0.021054,-0.024076,64.27182,21.019577,-150.54718,,,
729606356.041501,0.817261,1.425973,50.455649,-0.020401,0.018524,0.992599,-0.03024,-0.021054,-0.024076,64.27182,21.019577,-150.54718,,,
729606356.044841,0.809362,1.419274,50.449508,-0.012909,0.021576,0.997528,-0.03024,-0.021054,-0.024076,64.27182,21.019577,-150.54718,,,
729606356.048212,0.809362,1.419274,50.449508,-0.012909,0.021576,0.997528,-0.023875,-0.018868,-0.023188,64.27182,21.019577,-150.54718,,,
729606356.051576,0.79987,1.411035,50.443822,-0.012909,0.021576,0.997528,-0.023875,-0.018868,-0.023188,64.27182,21.019577,-150.54718,,,
729606356.054843,0.795272,1.407234,50.438207,-0.00441,0.025162,1.004181,-0.023875,-0.018868,-0.023188,64.27182,21.019577,-150.54718,,,
729606356.058264,0.795272,1.407234,50.438207,-0.00441,0.025162,1.004181,-0.016507,1.5e-05,-0.020992,64.27182,21.019577,-150.54718,,,
729606356.061511,0.787732,1.405905,50.432317,-0.00441,0.025162,1.004181,-0.016507,1.5e-05,-0.020992,64.27182,21.019577,-150.54718,,,
729606356.064903,0.783544,1.407525,50.426445,-0.004089,0.029541,1.010391,-0.016507,1.5e-05,-0.020992,64.27182,21.019577,-150.54718,,,
729606356.068157,0.783544,1.407525,50.426445,-0.004089,0.029541,1.010391,-0.013439,0.020904,-0.024148,64.27182,21.019577,-150.54718,,,
729606356.0715,0.776584,1.413368,50.421118,-0.004089,0.029541,1.010391,-0.013439,0.020904,-0.024148,64.224182,21.244247,-150.649475,,,
729606356.074834,0.772548,1.419064,50.4165,-0.007019,0.029846,1.007416,-0.013439,0.020904,-0.024148,64.224182,21.244247,-150.649475,,,
729606356.07826,0.772548,1.419064,50.4165,-0.007019,0.029846,1.007416,-0.016912,0.024411,-0.016381,64.224182,21.244247,-150.649475,,,
729606356.081526,0.766281,1.42595,50.412167,-0.007019,0.029846,1.007416,-0.016912,0.024411,-0.016381,64.224182,21.244247,-150.649475,,,
729606356.084926,0.759608,1.430613,50.407873,-0.006561,0.034317,1.003082,-0.016912,0.024411,-0.016381,64.224182,21.244247,-150.649475,,,
729606356.088162,0.759608,1.430613,50.407873,-0.006561,0.034317,1.003082,-0.016912,0.024411,-0.016381,64.224182,21.244247,-150.649475,,,
729606356.091601,0.752634,1.432242,50.403221,-0.006561,0.034317,1.003082,-0.023615,0.011291,-0.017261,64.224182,21.244247,-150.649475,,,
729606356.09483,0.744399,1.432193,50.397995,-0.008469,0.039368,0.996964,-0.023615,0.011291,-0.017261,64.224182,21.244247,-150.649475,,,
729606356.098213,0.744399,1.432193,50.397995,-0.008469,0.039368,0.996964,-0.029494,-0.0056,-0.022538,64.224182,21.244247,-150.649475,,,
729606356.101514,0.737802,1.429706,50.392354,-0.008469,0.039368,0.996964,-0.029494,-0.0056,-0.022538,64.224182,21.244247,-150.649475,,,
729606356.104831,0.730368,1.425496,50.38622,-0.016357,0.038071,1.00177,-0.029494,-0.0056,-0.022538,64.224182,21.244247,-150.649475,,,
729606356.108166,0.730368,1.425496,50.38622,-0.016357,0.038071,1.00177,-0.020842,-0.020256,-0.024186,64.224182,21.244247,-150.649475,,,
729606356.111536,0.725146,1.418626,50.379455,-0.016357,0.038071,1.00177,-0.020842,-0.020256,-0.024186,64.224182,21.244247,-150.649475,,,
729606356.114867,0.719733,1.410497,50.372199,-0.024857,0.033371,1.008408,-0.020842,-0.020256,-0.024186,64.395111,21.165131,-150.748032,,,
729606356.118189,0.719733,1.410497,50.372199,-0.024857,0.033371,1.008408,-0.020842,-0.020256,-0.024186,64.395111,21.165131,-150.748032,,,
729606356.121538,0.717151,1.398769,50.365642,-0.024857,0.033371,1.008408,-0.010441,-0.031788,-0.023852,64.395111,21.165131,-150.748032,,,
729606356.124626,0.71423,1.388895,50.359947,-0.029816,0.027023,1.012878,-0.010441,-0.031788,-0.023852,64.395111,21.165131,-150.748032,,,
729606356.128169,0.71423,1.388895,50.359947,-0.029816,0.027023,1.012878,-0.010441,-0.031788,-0.023852,64.395111,21.165131,-150.748032,,,
729606356.131294,0.715259,1.374467,50.355052,-0.029816,0.027023,1.012878,-0.003854,-0.028367,-0.022071,64.395111,21.165131,-150.748032,,,
729606356.134868,0.715452,1.365482,50.351081,-0.034729,0.024475,1.021774,-0.003854,-0.028367,-0.022071,64.395111,21.165131,-150.748032,,,
729606356.138186,0.715452,1.365482,50.351081,-0.034729,0.024475,1.021774,-0.003854,-0.028367,-0.022071,64.395111,21.165131,-150.748032,,,
729606356.141596,0.720899,1.349346,50.347884,-0.034729,0.024475,1.021774,0.006357,-0.027959,-0.014323,64.395111,21.165131,-150.748032,,,
729606356.144843,0.724867,1.340093,50.345652,-0.039215,0.01976,1.022675,0.006357,-0.027959,-0.014323,64.395111,21.165131,-150.748032,,,
729606356.148283,0.724867,1.340093,50.345652,-0.039215,0.01976,1.022675,0.006357,-0.027959,-0.014323,64.395111,21.165131,-150.748032,,,
729606356.151525,0.734538,1.324569,50.344882,-0.039215,0.01976,1.022675,0.019501,-0.030766,-0.003512,64.395111,21.165131,-150.748032,,,
729606356.154841,0.742746,1.315055,50.344747,-0.041489,0.015427,1.024673,0.019501,-0.030766,-0.003512,64.410873,21.204086,-150.770325,,,
729606356.158217,0.742746,1.315055,50.344747,-0.041489,0.015427,1.024673,0.019501,-0.030766,-0.003512,64.410873,21.204086,-150.770325,,,
729606356.161509,0.757968,1.3003,50.345234,-0.041489,0.015427,1.024673,0.040029,-0.029153,0.000483,64.410873,21.204086,-150.770325,,,
729606356.164828,0.772036,1.292372,50.346236,-0.040833,0.008911,1.029633,0.040029,-0.029153,0.000483,64.410873,21.204086,-150.770325,,,
729606356.168254,0.772036,1.292372,50.346236,-0.040833,0.008911,1.029633,0.040029,-0.029153,0.000483,64.410873,21.204086,-150.770325,,,
729606356.171505,0.794761,1.280727,50.347913,-0.040833,0.008911,1.029633,0.060587,-0.01931,0.004394,64.410873,21.204086,-150.770325,,,
729606356.17484,0.815781,1.276372,50.350847,-0.042786,0.005478,1.032227,0.060587,-0.01931,0.004394,64.410873,21.204086,-150.770325,,,
729606356.178216,0.815781,1.276372,50.350847,-0.042786,0.005478,1.032227,0.060587,-0.01931,0.004394,64.410873,21.204086,-150.770325,,,
729606356.181537,0.845287,1.269908,50.355181,-0.042786,0.005478,1.032227,0.084924,-0.008701,0.017471,64.410873,21.204086,-150.770325,,,
729606356.184836,0.87167,1.267806,50.361025,-0.043304,0.006836,1.027588,0.084924,-0.008701,0.017471,64.410873,21.204086,-150.770325,,,
729606356.1882,0.87167,1.267806,50.361025,-0.043304,0.006836,1.027588,0.084924,-0.008701,0.017471,64.410873,21.204086,-150.770325,,,
729606356.191508,0.903063,1.265946,50.369072,-0.043304,0.006836,1.027588,0.097843,-0.001737,0.028835,64.410873,21.204086,-150.770325,,,
729606356.194838,0.931133,1.265664,50.378767,-0.040314,0.012009,1.013153,0.097843,-0.001737,0.028835,64.350174,20.817917,-150.955917,,,
729606356.198159,0.931133,1.265664,50.378767,-0.040314,0.012009,1.013153,0.097843,-0.001737,0.028835,64.350174,20.817917,-150.955917,,,
729606356.201513,0.961597,1.267874,50.389606,-0.040314,0.012009,1.013153,0.099066,0.007201,0.041116,64.350174,20.817917,-150.955917,,,
729606356.204833,0.990066,1.270007,50.400843,-0.031113,0.021042,1.003372,0.099066,0.007201,0.041116,64.350174,20.817917,-150.955917,,,
729606356.208267,0.990066,1.270007,50.400843,-0.031113,0.021042,1.003372,0.099066,0.007201,0.041116,64.350174,20.817917,-150.955917,,,
729606356.211508,1.019776,1.274075,50.411127,-0.031113,0.021042,1.003372,0.098742,0.010069,0.037174,64.350174,20.817917,-150.955917,,,
729606356.21484,1.047057,1.274478,50.420712,-0.018646,0.031693,0.994431,0.098742,0.010069,0.037174,64.350174,20.817917,-150.955917,,,
729606356.218164,1.047057,1.274478,50.420712,-0.018646,0.031693,0.994431,0.098742,0.010069,0.037174,64.350174,20.817917,-150.955917,,,
729606356.221568,1.073668,1.275308,50.429773,-0.018646,0.031693,0.994431,0.091279,-0.006369,0.028563,64.350174,20.817917,-150.955917,,,
729606356.224835,1.097975,1.26955,50.437697,-0.017212,0.038315,0.983231,0.091279,-0.006369,0.028563,64.350174,20.817917,-150.955917,,,
729606356.22816,1.097975,1.26955,50.437697,-0.017212,0.038315,0.983231,0.091279,-0.006369,0.028563,64.350174,20.817917,-150.955917,,,
729606356.231521,1.120108,1.266313,50.444672,-0.017212,0.038315,0.983231,0.080406,-0.025137,0.024477,64.350174,20.817917,-150.955917,,,
729606356.234899,1.140023,1.255621,50.451142,-0.014664,0.036209,0.977737,0.080406,-0.025137,0.024477,64.142487,20.803406,-150.798737,,,
729606356.238166,1.140023,1.255621,50.451142,-0.014664,0.036209,0.977737,0.080406,-0.025137,0.024477,64.142487,20.803406,-150.798737,,,
729606356.241529,1.155411,1.248622,50.456194,-0.014664,0.036209,0.977737,0.058927,-0.043556,0.016537,64.142487,20.803406,-150.798737,,,
729606356.244832,1.170155,1.233193,50.459859,-0.009521,0.03746,0.974884,0.058927,-0.043556,0.016537,64.142487,20.803406,-150.798737,,,
729606356.248232,1.170155,1.233193,50.459859,-0.009521,0.03746,0.974884,0.058927,-0.043556,0.016537,64.142487,20.803406,-150.798737,,,
729606356.251505,1.179631,1.223156,50.46185,-0.009521,0.03746,0.974884,0.045114,-0.057446,0.006151,64.142487,20.803406,-150.798737,,,
729606356.254836,1.190244,1.206138,50.462543,-0.005417,0.032333,0.981018,0.045114,-0.057446,0.006151,64.142487,20.803406,-150.798737,,,
729606356.25818,1.190244,1.206138,50.462543,-0.005417,0.032333,0.981018,0.045114,-0.057446,0.006151,64.142487,20.803406,-150.798737,,,
729606356.261561,1.195491,1.196788,50.461739,-0.005417,0.032333,0.981018,0.032983,-0.057434,-0.003092,64.142487,20.803406,-150.798737,,,
729606356.264823,1.203575,1.181114,50.460496,-0.009491,0.023315,0.987244,0.032983,-0.057434,-0.003092,64.142487,20.803406,-150.798737,,,
729606356.268161,1.203575,1.181114,50.460496,-0.009491,0.023315,0.987244,0.032983,-0.057434,-0.003092,64.142487,20.803406,-150.798737,,,
729606356.271523,1.208461,1.17321,50.458842,-0.009491,0.023315,0.987244,0.026847,-0.051365,-0.007397,64.142487,20.803406,-150.798737,,,
729606356.274829,1.216932,1.158676,50.456864,-0.014679,0.013046,0.992737,0.026847,-0.051365,-0.007397,64.142487,20.803406,-150.798737,,,
729606356.278161,1.216932,1.158676,50.456864,-0.014679,0.013046,0.992737,0.026847,-0.051365,-0.007397,63.996552,20.620148,-150.78656,,,
729606356.281513,1.224691,1.152498,50.454434,-0.014679,0.013046,0.992737,0.030913,-0.040258,-0.009567,63.996552,20.620148,-150.78656,,,
729606356.284831,1.234471,1.144075,50.45212,-0.013901,0.006317,1.000168,0.030913,-0.040258,-0.009567,63.996552,20.620148,-150.78656,,,
729606356.288158,1.234471,1.144075,50.45212,-0.013901,0.006317,1.000168,0.030913,-0.040258,-0.009567,63.996552,20.620148,-150.78656,,,
729606356.291554,1.246406,1.142026,50.449663,-0.013901,0.006317,1.000168,0.038816,-0.011274,-0.008701,63.996552,20.620148,-150.78656,,,
729606356.294833,1.258332,1.142412,50.447031,-0.015717,0.003723,1.006226,0.038816,-0.011274,-0.008701,63.996552,20.620148,-150.78656,,,
729606356.298179,1.258332,1.142412,50.447031,-0.015717,0.003723,1.006226,0.038816,-0.011274,-0.008701,63.996552,20.620148,-150.78656,,,
729606356.301563,1.273996,1.146162,50.444834,-0.015717,0.003723,1.006226,0.046472,0.016907,-0.007175,63.996552,20.620148,-150.78656,,,
729606356.304822,1.287671,1.154171,50.442965,-0.022202,-0.000839,1.006073,0.046472,0.016907,-0.007175,63.996552,20.620148,-150.78656,,,
729606356.308181,1.287671,1.154171,50.442965,-0.022202,-0.000839,1.006073,0.046472,0.016907,-0.007175,63.996552,20.620148,-150.78656,,,
729606356.311518,1.304966,1.162656,50.441339,-0.022202,-0.000839,1.006073,0.051165,0.034317,-0.003537,63.996552,20.620148,-150.78656,,,
729606356.314826,1.317824,1.172148,50.439905,-0.025299,-0.002167,0.995621,0.051165,0.034317,-0.003537,63.996552,20.620148,-150.78656,,,
729606356.318163,1.317824,1.172148,50.439905,-0.025299,-0.002167,0.995621,0.051165,0.034317,-0.003537,63.887741,20.603333,-150.941223,,,
729606356.321513,1.332861,1.177479,50.438207,-0.025299,-0.002167,0.995621,0.041361,0.029789,-0.006717,63.887741,20.603333,-150.941223,,,
729606356.32484,1.342858,1.183342,50.435967,-0.028534,0.000916,0.983292,0.041361,0.029789,-0.006717,63.887741,20.603333,-150.941223,,,
729606356.328161,1.342858,1.183342,50.435967,-0.028534,0.000916,0.983292,0.041361,0.029789,-0.006717,63.887741,20.603333,-150.941223,,,
729606356.331509,1.353804,1.183385,50.433329,-0.028534,0.000916,0.983292,0.027668,0.017841,-0.012243,63.887741,20.603333,-150.941223,,,
729606356.334827,1.359612,1.185428,50.429668,-0.026474,0.003799,0.976227,0.027668,0.017841,-0.012243,63.887741,20.603333,-150.941223,,,
729606356.33823,1.359612,1.185428,50.429668,-0.026474,0.003799,0.976227,0.027668,0.017841,-0.012243,63.887741,20.603333,-150.941223,,,
729606356.341502,1.365492,1.179852,50.424772,-0.026474,0.003799,0.976227,0.017108,-0.00235,-0.018596,63.887741,20.603333,-150.941223,,,
729606356.344831,1.368949,1.177393,50.418911,-0.021118,0.00737,0.970016,0.017108,-0.00235,-0.018596,63.887741,20.603333,-150.941223,,,
729606356.348175,1.368949,1.177393,50.418911,-0.021118,0.00737,0.970016,0.017108,-0.00235,-0.018596,63.887741,20.603333,-150.941223,,,
729606356.351608,1.371103,1.171315,50.412717,-0.021118,0.00737,0.970016,0.011954,-0.006309,-0.024641,63.887741,20.603333,-150.941223,,,
729606356.354831,1.374434,1.168347,50.406258,-0.013184,0.008698,0.974274,0.011954,-0.006309,-0.024641,63.887741,20.603333,-150.941223,,,
729606356.358173,1.374434,1.168347,50.406258,-0.013184,0.008698,0.974274,0.011954,-0.006309,-0.024641,64.236404,20.279114,-150.862579,,,
729606356.361531,1.375119,1.165043,50.399722,-0.013184,0.008698,0.974274,0.011215,-0.002077,-0.025762,64.236404,20.279114,-150.862579,,,
729606356.364837,1.378381,1.165236,50.393621,-0.005539,0.01004,0.975388,0.011215,-0.002077,-0.025762,64.236404,20.279114,-150.862579,,,
729606356.368168,1.378381,1.165236,50.393621,-0.005539,0.01004,0.975388,0.011215,-0.002077,-0.025762,64.236404,20.279114,-150.862579,,,
729606356.371509,1.377605,1.167027,50.388363,-0.005539,0.01004,0.975388,0.010069,0.012186,-0.018171,64.236404,20.279114,-150.862579,,,
729606356.374836,1.378048,1.173578,50.383838,0.000198,0.016815,0.96965,0.010069,0.012186,-0.018171,64.236404,20.279114,-150.862579,,,
729606356.378244,1.378048,1.173578,50.383838,0.000198,0.016815,0.96965,0.010069,0.012186,-0.018171,64.236404,20.279114,-150.862579,,,
729606356.381498,1.372232,1.182195,50.380029,0.000198,0.016815,0.96965,-0.007345,0.035043,-0.015861,64.236404,20.279114,-150.862579,,,
729606356.384835,1.364994,1.192437,50.375741,0.003769,0.030243,0.960007,-0.007345,0.035043,-0.015861,64.236404,20.279114,-150.862579,,,
729606356.388168,1.364994,1.192437,50.375741,0.003769,0.030243,0.960007,-0.007345,0.035043,-0.015861,64.236404,20.279114,-150.862579,,,
729606356.391558,1.349798,1.202906,50.370744,0.003769,0.030243,0.960007,-0.038507,0.037764,-0.018219,64.236404,20.279114,-150.862579,,,
729606356.394818,1.33341,1.210392,50.365274,0.002899,0.039597,0.949524,-0.038507,0.037764,-0.018219,64.236404,20.279114,-150.862579,,,
729606356.398207,1.33341,1.210392,50.365274,0.002899,0.039597,0.949524,-0.038507,0.037764,-0.018219,64.236404,20.279114,-150.862579,,,
729606356.401513,1.309657,1.213707,50.35847,0.002899,0.039597,0.949524,-0.075901,0.012167,-0.027682,64.087021,20.66893,-151.268036,,,
729606356.404826,1.285199,1.210523,50.349885,-0.008102,0.042114,0.946854,-0.075901,0.012167,-0.027682,64.087021,20.66893,-151.268036,,,
729606356.408171,1.285199,1.210523,50.349885,-0.008102,0.042114,0.946854,-0.075901,0.012167,-0.027682,64.087021,20.66893,-151.268036,,,
729606356.411511,1.25727,1.204423,50.339586,-0.008102,0.042114,0.946854,-0.088516,-0.024368,-0.038369,64.087021,20.66893,-151.268036,,,
729606356.414827,1.230779,1.194588,50.328827,-0.019669,0.039185,0.965363,-0.088516,-0.024368,-0.038369,64.087021,20.66893,-151.268036,,,
729606356.41816,1.230779,1.194588,50.328827,-0.019669,0.039185,0.965363,-0.088516,-0.024368,-0.038369,64.087021,20.66893,-151.268036,,,
729606356.421512,1.20279,1.183863,50.318557,-0.019669,0.039185,0.965363,-0.091105,-0.037041,-0.040266,64.087021,20.66893,-151.268036,,,
729606356.424835,1.177746,1.172292,50.308619,-0.01683,0.031525,0.983566,-0.091105,-0.037041,-0.040266,64.087021,20.66893,-151.268036,,,
729606356.428163,1.177746,1.172292,50.308619,-0.01683,0.031525,0.983566,-0.091105,-0.037041,-0.040266,64.087021,20.66893,-151.268036,,,
729606356.431505,1.152563,1.16102,50.299574,-0.01683,0.031525,0.983566,-0.085253,-0.034914,-0.033792,64.087021,20.66893,-151.268036,,,
729606356.434835,1.128738,1.152029,50.291596,-0.008652,0.033447,0.993103,-0.085253,-0.034914,-0.033792,64.087021,20.66893,-151.268036,,,
729606356.438174,1.128738,1.152029,50.291596,-0.008652,0.033447,0.993103,-0.085253,-0.034914,-0.033792,64.087021,20.66893,-151.268036,,,
729606356.441555,1.103828,1.1451,50.284029,-0.008652,0.033447,0.993103,-0.081849,-0.018828,-0.032314,64.025711,20.810898,-150.767136,,,
729606356.444824,1.079314,1.143273,50.276643,-0.008377,0.03624,0.99765,-0.081849,-0.018828,-0.032314,64.025711,20.810898,-150.767136,,,
729606356.448219,1.079314,1.143273,50.276643,-0.008377,0.03624,0.99765,-0.081849,-0.018828,-0.032314,64.025711,20.810898,-150.767136,,,
729606356.45152,1.052883,1.142733,50.269453,-0.008377,0.03624,0.99765,-0.088458,0.008078,-0.028419,64.025711,20.810898,-150.767136,,,
729606356.454827,1.026624,1.147914,50.262176,-0.014969,0.032074,1.00621,-0.088458,0.008078,-0.028419,64.025711,20.810898,-150.767136,,,
729606356.458172,1.026624,1.147914,50.262176,-0.014969,0.032074,1.00621,-0.088458,0.008078,-0.028419,64.025711,20.810898,-150.767136,,,
729606356.461514,1.00169,1.15136,50.255062,-0.014969,0.032074,1.00621,-0.09015,0.025592,-0.028389,64.025711,20.810898,-150.767136,,,
729606356.464827,0.977878,1.157792,50.248153,-0.022964,0.028549,1.01091,-0.09015,0.025592,-0.028389,64.025711,20.810898,-150.767136,,,
729606356.468209,0.977878,1.157792,50.248153,-0.022964,0.028549,1.01091,-0.09015,0.025592,-0.028389,64.025711,20.810898,-150.767136,,,
729606356.471505,0.958395,1.159199,50.241986,-0.022964,0.028549,1.01091,-0.073973,0.01971,-0.024936,64.025711,20.810898,-150.767136,,,
729606356.474826,0.941315,1.162857,50.236781,-0.035751,0.019089,1.017929,-0.073973,0.01971,-0.024936,64.025711,20.810898,-150.767136,,,
729606356.478173,0.941315,1.162857,50.236781,-0.035751,0.019089,1.017929,-0.073973,0.01971,-0.024936,64.025711,20.810898,-150.767136,,,
729606356.481491,0.932171,1.161479,50.233253,-0.035751,0.019089,1.017929,-0.042888,0.01255,-0.01336,63.990051,20.912247,-151.140182,,,
729606356.484853,0.923469,1.162085,50.231388,-0.047852,0.010788,1.030136,-0.042888,0.01255,-0.01336,63.990051,20.912247,-151.140182,,,
729606356.488183,0.923469,1.162085,50.231388,-0.047852,0.010788,1.030136,-0.042888,0.01255,-0.01336,63.990051,20.912247,-151.140182,,,
729606356.491558,0.922811,1.159063,50.231136,-0.047852,0.010788,1.030136,-0.016809,-0.001343,-0.002994,63.990051,20.912247,-151.140182,,,
729606356.49482,0.921608,1.155486,50.232145,-0.050507,0.008148,1.028122,-0.016809,-0.001343,-0.002994,63.990051,20.912247,-151.140182,,,
729606356.498178,0.921608,1.155486,50.232145,-0.050507,0.008148,1.028122,-0.016809,-0.001343,-0.002994,63.990051,20.912247,-151.140182,,,
729606356.501509,0.926225,1.151964,50.233405,-0.050507,0.008148,1.028122,0.007562,-0.012087,0.004052,63.990051,20.912247,-151.140182,,,
729606356.504826,0.93039,1.14968,50.235011,-0.04451,0.013367,1.030273,0.007562,-0.012087,0.004052,63.990051,20.912247,-151.140182,,,
729606356.508193,0.93039,1.14968,50.235011,-0.04451,0.013367,1.030273,0.007562,-0.012087,0.004052,63.990051,20.912247,-151.140182,,,
729606356.511507,0.938388,1.148119,50.237296,-0.04451,0.013367,1.030273,0.022461,0.000843,0.005217,63.990051,20.912247,-151.140182,,,
729606356.514825,0.946375,1.14965,50.239607,-0.035034,0.021637,1.028152,0.022461,0.000843,0.005217,63.990051,20.912247,-151.140182,,,
729606356.518271,0.946375,1.14965,50.239607,-0.035034,0.021637,1.028152,0.022461,0.000843,0.005217,63.990051,20.912247,-151.140182,,,
729606356.521498,0.9584,1.150212,50.241784,-0.035034,0.021637,1.028152,0.036607,0.01187,0.006656,64.315186,20.74147,-150.987488,,,
729606356.524841,0.969922,1.154376,50.244063,-0.027298,0.023697,1.022995,0.036607,0.01187,0.006656,64.315186,20.74147,-150.987488,,,
729606356.527979,0.969922,1.154376,50.244063,-0.027298,0.023697,1.022995,0.036607,0.01187,0.006656,64.315186,20.74147,-150.987488,,,
729606356.53159,0.984051,1.158759,50.246256,-0.027298,0.023697,1.022995,0.042115,0.023665,0.007095,64.315186,20.74147,-150.987488,,,
729606356.534825,0.996991,1.165883,50.248648,-0.025711,0.024048,1.017838,0.042115,0.023665,0.007095,64.315186,20.74147,-150.987488,,,
729606356.538162,0.996991,1.165883,50.248648,-0.025711,0.024048,1.017838,0.042115,0.023665,0.007095,64.315186,20.74147,-150.987488,,,
729606356.541515,1.01254,1.172697,50.251857,-0.025711,0.024048,1.017838,0.048899,0.030278,0.010072,64.315186,20.74147,-150.987488,,,
729606356.54483,1.027089,1.179066,50.255647,-0.022964,0.023453,1.010864,0.048899,0.030278,0.010072,64.315186,20.74147,-150.987488,,,
729606356.548185,1.027089,1.179066,50.255647,-0.022964,0.023453,1.010864,0.048899,0.030278,0.010072,64.315186,20.74147,-150.987488,,,
729606356.551508,1.043253,1.185563,50.26019,-0.022964,0.023453,1.010864,0.054533,0.021685,0.017231,64.315186,20.74147,-150.987488,,,
729606356.554829,1.058431,1.19001,50.265106,-0.018509,0.026733,1.00061,0.054533,0.021685,0.017231,64.315186,20.74147,-150.987488,,,
729606356.558237,1.058431,1.19001,50.265106,-0.018509,0.026733,1.00061,0.054533,0.021685,0.017231,64.315186,20.74147,-150.987488,,,
729606356.561511,1.071753,1.199975,50.268867,-0.018509,0.026733,1.00061,0.050206,0.016459,0.011323,64.315186,20.74147,-150.987488,,,
729606356.564829,1.083632,1.202915,50.271047,-0.012711,0.03476,0.993088,0.050206,0.016459,0.011323,64.206635,20.75209,-150.669846,,,
729606356.568172,1.083632,1.202915,50.271047,-0.012711,0.03476,0.993088,0.050206,0.016459,0.011323,64.206635,20.75209,-150.669846,,,
729606356.57153,1.090707,1.2157,50.271277,-0.012711,0.03476,0.993088,0.037072,0.012364,0.000807,64.206635,20.75209,-150.669846,,,
729606356.574824,1.099122,1.218293,50.27106,-0.015411,0.035492,0.989304,0.037072,0.012364,0.000807,64.206635,20.75209,-150.669846,,,
729606356.578171,1.099122,1.218293,50.27106,-0.015411,0.035492,0.989304,0.037072,0.012364,0.000807,64.206635,20.75209,-150.669846,,,
729606356.581496,1.104895,1.22946,50.270556,-0.015411,0.035492,0.989304,0.026576,0.010339,-0.003245,64.206635,20.75209,-150.669846,,,
729606356.58483,1.11259,1.229603,50.270529,-0.020294,0.030838,0.991028,0.026576,0.010339,-0.003245,64.206635,20.75209,-150.669846,,,
729606356.588183,1.11259,1.229603,50.270529,-0.020294,0.030838,0.991028,0.026576,0.010339,-0.003245,64.206635,20.75209,-150.669846,,,
729606356.591537,1.119763,1.232904,50.27121,-0.020294,0.030838,0.991028,0.028188,-0.006414,0.002342,64.206635,20.75209,-150.669846,,,
729606356.594835,1.128236,1.229673,50.272742,-0.023987,0.024979,0.99025,0.028188,-0.006414,0.002342,64.206635,20.75209,-150.669846,,,
729606356.598241,1.128236,1.229673,50.272742,-0.023987,0.024979,0.99025,0.028188,-0.006414,0.002342,64.206635,20.75209,-150.669846,,,
729606356.601501,1.137703,1.22977,50.275909,-0.023987,0.024979,0.99025,0.032817,-0.006046,0.011544,64.206635,20.75209,-150.669846,,,
729606356.604831,1.147196,1.228296,50.281642,-0.029602,0.023178,0.99942,0.032817,-0.006046,0.011544,64.27269,20.66095,-150.821548,,,
729606356.608182,1.147196,1.228296,50.281642,-0.029602,0.023178,0.99942,0.032817,-0.006046,0.011544,64.27269,20.66095,-150.821548,,,
729606356.611554,1.157034,1.230523,50.289662,-0.029602,0.023178,0.99942,0.029966,0.003744,0.02535,64.27269,20.66095,-150.821548,,,
729606356.614816,1.165314,1.233472,50.299682,-0.028488,0.02301,1.000153,0.029966,0.003744,0.02535,64.27269,20.66095,-150.821548,,,
729606356.618161,1.165314,1.233472,50.299682,-0.028488,0.02301,1.000153,0.029966,0.003744,0.02535,64.27269,20.66095,-150.821548,,,
729606356.621511,1.173505,1.239981,50.31058,-0.028488,0.02301,1.000153,0.029571,0.024369,0.038558,64.27269,20.66095,-150.821548,,,
729606356.624831,1.180225,1.249043,50.321531,-0.021317,0.024307,1.002625,0.029571,0.024369,0.038558,64.27269,20.66095,-150.821548,,,
729606356.628194,1.180225,1.249043,50.321531,-0.021317,0.024307,1.002625,0.029571,0.024369,0.038558,64.27269,20.66095,-150.821548,,,
729606356.631507,1.186596,1.26003,50.33216,-0.021317,0.024307,1.002625,0.019533,0.042897,0.034687,64.27269,20.66095,-150.821548,,,
729606356.634828,1.190396,1.271172,50.341319,-0.015961,0.03215,0.996368,0.019533,0.042897,0.034687,64.27269,20.66095,-150.821548,,,
729606356.638225,1.190396,1.271172,50.341319,-0.015961,0.03215,0.996368,0.019533,0.042897,0.034687,64.27269,20.66095,-150.821548,,,
729606356.641507,1.194564,1.278696,50.349615,-0.015961,0.03215,0.996368,0.007812,0.037842,0.027105,64.27269,20.66095,-150.821548,,,
729606356.64483,1.194416,1.286636,50.357476,-0.022095,0.031128,0.986511,0.007812,0.037842,0.027105,64.221481,20.623886,-150.685486,,,
729606356.648172,1.194416,1.286636,50.357476,-0.022095,0.031128,0.986511,0.007812,0.037842,0.027105,64.221481,20.623886,-150.685486,,,
729606356.651559,1.196199,1.287998,50.366094,-0.022095,0.031128,0.986511,-0.005294,0.02164,0.030071,64.221481,20.623886,-150.685486,,,
729606356.654827,1.192213,1.288042,50.375975,-0.030899,0.022903,0.98613,-0.005294,0.02164,0.030071,64.221481,20.623886,-150.685486,,,
729606356.658183,1.192213,1.288042,50.375975,-0.030899,0.022903,0.98613,-0.005294,0.02164,0.030071,64.221481,20.623886,-150.685486,,,
729606356.661519,1.191087,1.281509,50.386368,-0.030899,0.022903,0.98613,-0.014861,-0.013625,0.034392,64.221481,20.623886,-150.685486,,,
729606356.664823,1.187812,1.272498,50.397116,-0.034286,0.016953,0.988586,-0.014861,-0.013625,0.034392,64.221481,20.623886,-150.685486,,,
729606356.668164,1.187812,1.272498,50.397116,-0.034286,0.016953,0.988586,-0.014861,-0.013625,0.034392,64.221481,20.623886,-150.685486,,,
729606356.671493,1.187444,1.259883,50.407707,-0.034286,0.016953,0.988586,-0.008933,-0.040616,0.035227,64.221481,20.623886,-150.685486,,,
729606356.674829,1.186417,1.244819,50.418073,-0.030167,0.016708,1.000763,-0.008933,-0.040616,0.035227,64.221481,20.623886,-150.685486,,,
729606356.678204,1.186417,1.244819,50.418073,-0.030167,0.016708,1.000763,-0.008933,-0.040616,0.035227,64.221481,20.623886,-150.685486,,,
729606356.681503,1.187065,1.230913,50.4278,-0.030167,0.016708,1.000763,-0.00281,-0.051986,0.031528,64.221481,20.623886,-150.685486,,,
729606356.684852,1.187018,1.217074,50.436816,-0.023026,0.016891,1.007111,-0.00281,-0.051986,0.031528,64.101471,20.563263,-150.710159,,,
729606356.688176,1.187018,1.217074,50.436816,-0.023026,0.016891,1.007111,-0.00281,-0.051986,0.031528,64.101471,20.563263,-150.710159,,,
729606356.691557,1.187781,1.209316,50.445891,-0.023026,0.016891,1.007111,6.2e-05,-0.035424,0.030869,64.101471,20.563263,-150.710159,,,
729606356.694817,1.188235,1.201761,50.455785,-0.014343,0.01619,1.014084,6.2e-05,-0.035424,0.030869,64.101471,20.563263,-150.710159,,,
729606356.69817,1.188235,1.201761,50.455785,-0.014343,0.01619,1.014084,6.2e-05,-0.035424,0.030869,64.101471,20.563263,-150.710159,,,
729606356.701499,1.188919,1.199357,50.467238,-0.014343,0.01619,1.014084,0.001109,-0.009175,0.039905,64.101471,20.563263,-150.710159,,,
729606356.704823,1.189337,1.197569,50.480978,-0.012695,0.013306,1.013275,0.001109,-0.009175,0.039905,64.101471,20.563263,-150.710159,,,
729606356.708171,1.189337,1.197569,50.480978,-0.012695,0.013306,1.013275,0.001109,-0.009175,0.039905,64.101471,20.563263,-150.710159,,,
729606356.711501,1.192437,1.197789,50.496361,-0.012695,0.013306,1.013275,0.005436,0.006318,0.051779,64.101471,20.563263,-150.710159,,,
729606356.71482,1.194465,1.201369,50.512443,-0.011505,0.010498,1.014938,0.005436,0.006318,0.051779,64.101471,20.563263,-150.710159,,,
729606356.718159,1.194465,1.201369,50.512443,-0.011505,0.010498,1.014938,0.005436,0.006318,0.051779,64.101471,20.563263,-150.710159,,,
729606356.721508,1.199736,1.205461,50.529023,-0.011505,0.010498,1.014938,0.008913,0.025665,0.056643,64.101471,20.563263,-150.710159,,,
729606356.724855,1.201582,1.211776,50.544733,-0.008163,0.015015,1.013489,0.008913,0.025665,0.056643,64.101471,20.563263,-150.710159,,,
729606356.728259,1.201582,1.211776,50.544733,-0.008163,0.015015,1.013489,0.008913,0.025665,0.056643,64.118866,20.62561,-150.377945,,,
729606356.731505,1.204742,1.21914,50.559192,-0.008163,0.015015,1.013489,0.001919,0.023695,0.050231,64.118866,20.62561,-150.377945,,,
729606356.73487,1.20523,1.222368,50.573192,-0.008286,0.018967,1.000397,0.001919,0.023695,0.050231,64.118866,20.62561,-150.377945,,,
729606356.738183,1.20523,1.222368,50.573192,-0.008286,0.018967,1.000397,0.001919,0.023695,0.050231,64.118866,20.62561,-150.377945,,,
729606356.741563,1.204766,1.22782,50.586371,-0.008286,0.018967,1.000397,-0.003023,0.008075,0.043379,64.118866,20.62561,-150.377945,,,
729606356.744897,1.204594,1.226308,50.597959,-0.012543,0.016937,0.998871,-0.003023,0.008075,0.043379,64.118866,20.62561,-150.377945,,,
729606356.748173,1.204594,1.226308,50.597959,-0.012543,0.016937,0.998871,-0.003023,0.008075,0.043379,64.118866,20.62561,-150.377945,,,
729606356.751504,1.204946,1.226712,50.607784,-0.012543,0.016937,0.998871,0.006598,-0.011369,0.033338,64.118866,20.62561,-150.377945,,,
729606356.754834,1.208081,1.21987,50.616232,-0.012329,0.01442,1.002213,0.006598,-0.011369,0.033338,64.118866,20.62561,-150.377945,,,
729606356.75819,1.208081,1.21987,50.616232,-0.012329,0.01442,1.002213,0.006598,-0.011369,0.033338,64.118866,20.62561,-150.377945,,,
729606356.761519,1.210926,1.213027,50.623202,-0.012329,0.01442,1.002213,0.01143,-0.02932,0.027086,64.118866,20.62561,-150.377945,,,
729606356.764857,1.214604,1.202826,50.629401,-0.01004,0.016708,0.99939,0.01143,-0.02932,0.027086,64.118866,20.62561,-150.377945,,,
729606356.768158,1.214604,1.202826,50.629401,-0.01004,0.016708,0.99939,0.01143,-0.02932,0.027086,63.953796,20.542389,-150.654724,,,
729606356.771492,1.215798,1.192194,50.634929,-0.01004,0.016708,0.99939,0.007119,-0.030241,0.020708,63.953796,20.542389,-150.654724,,,
729606356.774825,1.216228,1.18363,50.639986,-0.00708,0.018875,0.995468,0.007119,-0.030241,0.020708,63.953796,20.542389,-150.654724,,,
729606356.778226,1.216228,1.18363,50.639986,-0.00708,0.018875,0.995468,0.007119,-0.030241,0.020708,63.953796,20.542389,-150.654724,,,
729606356.781493,1.212851,1.174237,50.644414,-0.00708,0.018875,0.995468,-0.004176,-0.019666,0.013852,63.953796,20.542389,-150.654724,,,
729606356.784922,1.209724,1.167905,50.647975,-0.008209,0.019699,0.994781,-0.004176,-0.019666,0.013852,63.953796,20.542389,-150.654724,,,
729606356.788151,1.209724,1.167905,50.647975,-0.008209,0.019699,0.994781,-0.004176,-0.019666,0.013852,63.953796,20.542389,-150.654724,,,
729606356.791566,1.204381,1.158503,50.651426,-0.008209,0.019699,0.994781,-0.010411,-0.016785,0.008878,63.953796,20.542389,-150.654724,,,
729606356.794924,1.202028,1.152061,50.654829,-0.01091,0.01622,0.997101,-0.010411,-0.016785,0.008878,63.953796,20.542389,-150.654724,,,
729606356.798159,1.202028,1.152061,50.654829,-0.01091,0.01622,0.997101,-0.010411,-0.016785,0.008878,63.953796,20.542389,-150.654724,,,
729606356.801553,1.197788,1.143331,50.657434,-0.01091,0.01622,0.997101,-0.005783,-0.014935,0.006002,63.953796,20.542389,-150.654724,,,
729606356.804924,1.196881,1.140465,50.658538,-0.012589,0.01622,1.003967,-0.005783,-0.014935,0.006002,63.953796,20.542389,-150.654724,,,
729606356.808151,1.196881,1.140465,50.658538,-0.012589,0.01622,1.003967,-0.005783,-0.014935,0.006002,63.86412,20.670837,-150.732117,,,
729606356.811496,1.195987,1.135841,50.658424,-0.012589,0.01622,1.003967,-0.00159,0.002019,-0.001448,63.86412,20.670837,-150.732117,,,
729606356.814888,1.196374,1.138736,50.657468,-0.010757,0.017868,1.003326,-0.00159,0.002019,-0.001448,63.86412,20.670837,-150.732117,,,
729606356.818182,1.196374,1.138736,50.657468,-0.010757,0.017868,1.003326,-0.00159,0.002019,-0.001448,63.86412,20.670837,-150.732117,,,
729606356.821524,1.196703,1.140274,50.656259,-0.010757,0.017868,1.003326,0.002278,0.020849,-0.00777,63.86412,20.670837,-150.732117,,,
729606356.824831,1.197698,1.147552,50.654616,-0.010757,0.017868,1.003326,0.002278,0.020849,-0.00777,63.86412,20.670837,-150.732117,,,
729606356.828208,1.197698,1.147552,50.654616,-0.015366,0.019547,1.00119,0.002278,0.020849,-0.00777,63.86412,20.670837,-150.732117,,,
729606356.831522,1.197525,1.153603,50.652942,-0.015366,0.019547,1.00119,0.004635,0.031903,-0.007543,63.86412,20.670837,-150.732117,,,
729606356.834878,1.197525,1.162132,50.650591,-0.018646,0.022003,0.995377,0.004635,0.031903,-0.007543,63.86412,20.670837,-150.732117,,,
729606356.838174,1.199098,1.162132,50.650591,-0.018646,0.022003,0.995377,0.004635,0.031903,-0.007543,63.86412,20.670837,-150.732117,,,
729606356.841575,1.19941,1.166471,50.64732,-0.018646,0.022003,0.995377,0.005971,0.026346,-0.011048,63.86412,20.670837,-150.732117,,,
729606356.844822,1.202405,1.172165,50.643523,-0.018646,0.022003,0.995377,0.005971,0.026346,-0.011048,63.86412,20.670837,-150.732117,,,
729606356.848183,1.202405,1.172165,50.643523,-0.023941,0.025726,0.99202,0.005971,0.026346,-0.011048,64.028442,20.597183,-150.752274,,,
729606356.851507,1.206283,1.171752,50.639515,-0.023941,0.025726,0.99202,0.018379,0.012335,-0.017432,64.028442,20.597183,-150.752274,,,
729606356.854917,1.212196,1.173011,50.634965,-0.031647,0.020096,0.990738,0.018379,0.012335,-0.017432,64.028442,20.597183,-150.752274,,,
