Time (sec),Pitch (deg),Roll (deg),Yaw(deg),X-Acceleration (g),Y-Acceleration (g),Z-Acceleration (g),Pitch Rate (deg/sec),Roll Rate (deg/sec),Yaw Rate (deg/sec),Magnetic Field in X direction (uT),Magnetic Field in Y direction (uT),Magnetic Field in Z Direction (uT),Latitude (deg),Longitude (deg),Altitude (m)
729606738.929849,1.244624,0.127033,54.771796,-0.013046,0.024048,1.010468,0.018536,-0.011737,0.012808,62.907578,21.525742,-147.183716,,,
729606738.933296,1.249086,0.132361,54.776017,-0.013046,0.024048,1.010468,0.018536,-0.011737,0.012808,62.907578,21.525742,-147.183716,,,
729606738.936596,1.249086,0.132361,54.776017,-0.013046,0.024048,1.010468,0.018536,-0.011737,0.012808,62.907578,21.525742,-147.183716,,,
729606738.939861,1.255309,0.128845,54.780686,-0.006836,0.023392,1.008591,0.021633,-0.009893,0.015617,62.907578,21.525742,-147.183716,,,
729606738.943197,1.260786,0.134022,54.784897,-0.006836,0.023392,1.008591,0.021633,-0.009893,0.015617,62.907578,21.525742,-147.183716,,,
729606738.946625,1.260786,0.134022,54.784897,-0.006836,0.023392,1.008591,0.021633,-0.009893,0.015617,62.907578,21.525742,-147.183716,,,
729606738.949866,1.268388,0.133035,54.789268,-9.2e-05,0.025696,1.007523,0.027612,-0.002586,0.012763,62.907578,21.525742,-147.183716,,,
729606738.953189,1.276429,0.139556,54.793435,-9.2e-05,0.025696,1.007523,0.027612,-0.002586,0.012763,63.000809,21.439926,-147.336243,,,
729606738.956577,1.276429,0.139556,54.793435,-9.2e-05,0.025696,1.007523,0.027612,-0.002586,0.012763,63.000809,21.439926,-147.336243,,,
729606738.959866,1.285567,0.139716,54.797584,0.003754,0.026932,1.004089,0.033907,0.003853,0.011287,63.000809,21.439926,-147.336243,,,
729606738.963222,1.294331,0.146481,54.801757,0.003754,0.026932,1.004089,0.033907,0.003853,0.011287,63.000809,21.439926,-147.336243,,,
729606738.966533,1.294331,0.146481,54.801757,0.003754,0.026932,1.004089,0.033907,0.003853,0.011287,63.000809,21.439926,-147.336243,,,
729606738.969912,1.303381,0.145926,54.806422,0.002045,0.026031,0.997757,0.029331,0.003802,0.014095,63.000809,21.439926,-147.336243,,,
729606738.973215,1.312605,0.150896,54.811124,0.002045,0.026031,0.997757,0.029331,0.003802,0.014095,63.000809,21.439926,-147.336243,,,
729606738.976523,1.312605,0.150896,54.811124,0.002045,0.026031,0.997757,0.029331,0.003802,0.014095,63.000809,21.439926,-147.336243,,,
729606738.979869,1.320233,0.149048,54.815952,0.003265,0.022202,0.990402,0.02547,-0.005572,0.017571,63.000809,21.439926,-147.336243,,,
729606738.983285,1.327556,0.151816,54.820768,0.003265,0.022202,0.990402,0.02547,-0.005572,0.017571,63.000809,21.439926,-147.336243,,,
729606738.986533,1.327556,0.151816,54.820768,0.003265,0.022202,0.990402,0.02547,-0.005572,0.017571,63.000809,21.439926,-147.336243,,,
729606738.98987,1.334024,0.147136,54.825251,0.00946,0.02388,0.987122,0.022793,-0.01239,0.012421,63.000809,21.439926,-147.336243,,,
729606738.993188,1.340549,0.148743,54.827901,0.00946,0.02388,0.987122,0.022793,-0.01239,0.012421,62.782761,21.396622,-147.244385,,,
729606738.996579,1.340549,0.148743,54.827901,0.00946,0.02388,0.987122,0.022793,-0.01239,0.012421,62.782761,21.396622,-147.244385,,,
729606738.999866,1.345733,0.144701,54.828626,0.014008,0.029236,0.991882,0.016914,-0.011161,0.000205,62.782761,21.396622,-147.244385,,,
729606739.003277,1.350761,0.146054,54.827797,0.014008,0.029236,0.991882,0.016914,-0.011161,0.000205,62.782761,21.396622,-147.244385,,,
729606739.006531,1.350761,0.146054,54.827797,0.014008,0.029236,0.991882,0.016914,-0.011161,0.000205,62.782761,21.396622,-147.244385,,,
729606739.009939,1.354432,0.142123,54.826542,0.013306,0.026428,0.990967,0.011728,-0.009623,-0.007223,62.782761,21.396622,-147.244385,,,
729606739.013202,1.357201,0.142871,54.824701,0.013306,0.026428,0.990967,0.011728,-0.009623,-0.007223,62.782761,21.396622,-147.244385,,,
729606739.016533,1.357201,0.142871,54.824701,0.013306,0.026428,0.990967,0.011728,-0.009623,-0.007223,62.782761,21.396622,-147.244385,,,
729606739.019862,1.358951,0.141212,54.822476,0.012115,0.024399,0.990952,0.004755,-0.002258,-0.008948,62.782761,21.396622,-147.244385,,,
729606739.023297,1.35949,0.141416,54.819914,0.012115,0.024399,0.990952,0.004755,-0.002258,-0.008948,62.782761,21.396622,-147.244385,,,
729606739.026536,1.35949,0.141416,54.819914,0.012115,0.024399,0.990952,0.004755,-0.002258,-0.008948,62.782761,21.396622,-147.244385,,,
729606739.029874,1.359226,0.141151,54.817076,0.01033,0.024704,0.99176,-0.000841,0.001292,-0.011035,62.782761,21.396622,-147.244385,,,
729606739.033205,1.359344,0.139499,54.814035,0.01033,0.024704,0.99176,-0.000841,0.001292,-0.011035,62.782761,21.396622,-147.244385,,,
729606739.036523,1.359344,0.139499,54.814035,0.01033,0.024704,0.99176,-0.000841,0.001292,-0.011035,62.773605,21.347412,-147.507629,,,
729606739.039878,1.359062,0.140806,54.811041,0.011002,0.025269,0.992981,0.000957,0.007167,-0.01259,62.773605,21.347412,-147.507629,,,
729606739.043205,1.360223,0.140151,54.808316,0.011002,0.025269,0.992981,0.000957,0.007167,-0.01259,62.773605,21.347412,-147.507629,,,
729606739.046526,1.360223,0.140151,54.808316,0.011002,0.025269,0.992981,0.000957,0.007167,-0.01259,62.773605,21.347412,-147.507629,,,
729606739.049913,1.362221,0.142114,54.805337,0.003998,0.022018,0.993851,0.011732,0.008068,-0.011398,62.773605,21.347412,-147.507629,,,
729606739.053195,1.366361,0.141903,54.802606,0.003998,0.022018,0.993851,0.011732,0.008068,-0.011398,62.773605,21.347412,-147.507629,,,
729606739.056539,1.366361,0.141903,54.802606,0.003998,0.022018,0.993851,0.011732,0.008068,-0.011398,62.773605,21.347412,-147.507629,,,
729606739.059869,1.371794,0.143318,54.800438,-0.006073,0.017197,0.997604,0.018105,0.007813,-0.007572,62.773605,21.347412,-147.507629,,,
729606739.063233,1.377958,0.140188,54.799042,-0.006073,0.017197,0.997604,0.018105,0.007813,-0.007572,62.773605,21.347412,-147.507629,,,
729606739.066533,1.377958,0.140188,54.799042,-0.006073,0.017197,0.997604,0.018105,0.007813,-0.007572,62.773605,21.347412,-147.507629,,,
729606739.069878,1.384642,0.13957,54.798062,-0.007004,0.017105,0.99649,0.027079,-0.000338,-0.00343,62.773605,21.347412,-147.507629,,,
729606739.073207,1.391206,0.131553,54.797784,-0.007004,0.017105,0.99649,0.027079,-0.000338,-0.00343,62.773605,21.347412,-147.507629,,,
729606739.076592,1.391206,0.131553,54.797784,-0.007004,0.017105,0.99649,0.027079,-0.000338,-0.00343,62.895142,21.440796,-147.51886,,,
729606739.079871,1.396251,0.128642,54.798574,-0.009094,0.020981,0.992035,0.015967,-0.004407,0.002415,62.895142,21.440796,-147.51886,,,
729606739.083225,1.401115,0.118326,54.800545,-0.009094,0.020981,0.992035,0.015967,-0.004407,0.002415,62.895142,21.440796,-147.51886,,,
729606739.086524,1.401115,0.118326,54.800545,-0.009094,0.020981,0.992035,0.015967,-0.004407,0.002415,62.895142,21.440796,-147.51886,,,
729606739.089902,1.403371,0.114592,54.802595,-0.011566,0.022873,0.992447,0.006583,-0.010542,0.005742,62.895142,21.440796,-147.51886,,,
729606739.093218,1.405344,0.104333,54.804798,-0.011566,0.022873,0.992447,0.006583,-0.010542,0.005742,62.895142,21.440796,-147.51886,,,
729606739.096518,1.405344,0.104333,54.804798,-0.011566,0.022873,0.992447,0.006583,-0.010542,0.005742,62.895142,21.440796,-147.51886,,,
729606739.09993,1.40742,0.101334,54.806169,-0.003387,0.019897,0.997345,0.0066,-0.006344,0.004439,62.895142,21.440796,-147.51886,,,
729606739.10329,1.410478,0.094177,54.806913,-0.003387,0.019897,0.997345,0.0066,-0.006344,0.004439,62.895142,21.440796,-147.51886,,,
729606739.106526,1.410478,0.094177,54.806913,-0.003387,0.019897,0.997345,0.0066,-0.006344,0.004439,62.895142,21.440796,-147.51886,,,
729606739.109947,1.414372,0.094068,54.807029,0.000824,0.019501,1.007095,0.015561,0.003595,-0.001929,62.895142,21.440796,-147.51886,,,
729606739.11321,1.419518,0.088696,54.80703,0.000824,0.019501,1.007095,0.015561,0.003595,-0.001929,62.895142,21.440796,-147.51886,,,
729606739.116558,1.419518,0.088696,54.80703,0.000824,0.019501,1.007095,0.015561,0.003595,-0.001929,62.884399,21.553513,-147.469315,,,
729606739.119918,1.425345,0.089529,54.806774,0.003174,0.021683,1.006653,0.022046,0.007207,-0.000964,62.884399,21.553513,-147.469315,,,
729606739.123242,1.431742,0.086312,54.806639,0.003174,0.021683,1.006653,0.022046,0.007207,-0.000964,62.884399,21.553513,-147.469315,,,
729606739.126606,1.431742,0.086312,54.806639,0.003174,0.021683,1.006653,0.022046,0.007207,-0.000964,62.884399,21.553513,-147.469315,,,
729606739.129875,1.438558,0.088319,54.806786,-0.000671,0.023544,1.003265,0.022762,0.009198,-0.002142,62.884399,21.553513,-147.469315,,,
729606739.133219,1.444315,0.09054,54.807444,-0.000671,0.023544,1.003265,0.022762,0.009198,-0.002142,62.884399,21.553513,-147.469315,,,
729606739.136526,1.444315,0.09054,54.807444,-0.000671,0.023544,1.003265,0.022762,0.009198,-0.002142,62.884399,21.553513,-147.469315,,,
729606739.139925,1.449684,0.093539,54.808452,-0.003662,0.025024,0.99791,0.018012,0.013421,0.003842,62.884399,21.553513,-147.469315,,,
729606739.143191,1.451516,0.098123,54.809814,-0.003662,0.025024,0.99791,0.018012,0.013421,0.003842,62.884399,21.553513,-147.469315,,,
729606739.146528,1.451516,0.098123,54.809814,-0.003662,0.025024,0.99791,0.018012,0.013421,0.003842,62.884399,21.553513,-147.469315,,,
729606739.149873,1.45369,0.099222,54.811647,-0.008041,0.027252,0.991013,0.008649,0.006216,0.00551,62.884399,21.553513,-147.469315,,,
729606739.15325,1.453416,0.100469,54.813558,-0.008041,0.027252,0.991013,0.008649,0.006216,0.00551,62.884399,21.553513,-147.469315,,,
729606739.156564,1.453416,0.100469,54.813558,-0.008041,0.027252,0.991013,0.008649,0.006216,0.00551,62.870361,21.588501,-147.523285,,,
729606739.159883,1.454903,0.097993,54.814976,-0.010544,0.025604,0.992645,0.004605,-0.00512,0.003761,62.870361,21.588501,-147.523285,,,
729606739.1632,1.456104,0.098934,54.81575,-0.010544,0.025604,0.992645,0.004605,-0.00512,0.003761,62.870361,21.588501,-147.523285,,,
729606739.166528,1.456104,0.098934,54.81575,-0.010544,0.025604,0.992645,0.004605,-0.00512,0.003761,62.870361,21.588501,-147.523285,,,
729606739.169862,1.458635,0.094934,54.817056,-0.012146,0.019531,1.000198,0.006223,-0.01312,0.004789,62.870361,21.588501,-147.523285,,,
729606739.173206,1.461926,0.09366,54.81851,-0.012146,0.019531,1.000198,0.006223,-0.01312,0.004789,62.870361,21.588501,-147.523285,,,
729606739.176532,1.461926,0.09366,54.81851,-0.012146,0.019531,1.000198,0.006223,-0.01312,0.004789,62.870361,21.588501,-147.523285,,,
729606739.179936,1.468062,0.089978,54.820307,-0.011505,0.018326,1.003891,0.022838,-0.011044,0.005389,62.870361,21.588501,-147.523285,,,
729606739.183173,1.473449,0.086665,54.822474,-0.011505,0.018326,1.003891,0.022838,-0.011044,0.005389,62.870361,21.588501,-147.523285,,,
729606739.186525,1.473449,0.086665,54.822474,-0.011505,0.018326,1.003891,0.022838,-0.011044,0.005389,62.870361,21.588501,-147.523285,,,
729606739.189885,1.479888,0.085126,54.825053,-0.008301,0.016693,1.005936,0.025113,-0.00474,0.008605,62.870361,21.588501,-147.523285,,,
729606739.193296,1.484859,0.083222,54.828581,-0.008301,0.016693,1.005936,0.025113,-0.00474,0.008605,62.870361,21.588501,-147.523285,,,
729606739.196536,1.484859,0.083222,54.828581,-0.008301,0.016693,1.005936,0.025113,-0.00474,0.008605,62.870361,21.588501,-147.523285,,,
729606739.199886,1.490565,0.0838,54.832793,-0.008163,0.019348,1.001999,0.022825,0.004365,0.014115,63.014557,21.500031,-147.414825,,,
729606739.203217,1.494791,0.083845,54.837739,-0.008163,0.019348,1.001999,0.022825,0.004365,0.014115,63.014557,21.500031,-147.414825,,,
729606739.206607,1.494791,0.083845,54.837739,-0.008163,0.019348,1.001999,0.022825,0.004365,0.014115,63.014557,21.500031,-147.414825,,,
729606739.209879,1.499895,0.085615,54.843019,-0.009445,0.020477,1.000809,0.017415,0.009315,0.016841,63.014557,21.500031,-147.414825,,,
729606739.213206,1.505019,0.087225,54.847809,-0.009445,0.020477,1.000809,0.017415,0.009315,0.016841,63.014557,21.500031,-147.414825,,,
729606739.216603,1.505019,0.087225,54.847809,-0.009445,0.020477,1.000809,0.017415,0.009315,0.016841,63.014557,21.500031,-147.414825,,,
729606739.219988,1.510393,0.087872,54.851686,-0.004105,0.019806,0.999619,0.018678,0.004474,0.01304,63.014557,21.500031,-147.414825,,,
729606739.223225,1.515791,0.088814,54.854382,-0.004105,0.019806,0.999619,0.018678,0.004474,0.01304,63.014557,21.500031,-147.414825,,,
729606739.226544,1.515791,0.088814,54.854382,-0.004105,0.019806,0.999619,0.018678,0.004474,0.01304,63.014557,21.500031,-147.414825,,,
729606739.229877,1.521695,0.087239,54.855837,0.003632,0.024963,0.998932,0.022108,-0.002814,0.000834,63.014557,21.500031,-147.414825,,,
729606739.233294,1.528094,0.089232,54.855782,0.003632,0.024963,0.998932,0.022108,-0.002814,0.000834,63.014557,21.500031,-147.414825,,,
729606739.236532,1.528094,0.089232,54.855782,0.003632,0.024963,0.998932,0.022108,-0.002814,0.000834,63.014557,21.500031,-147.414825,,,
729606739.239855,1.534605,0.088136,54.854319,0.005707,0.025238,0.998001,0.020531,-0.000782,-0.008015,63.126953,21.437408,-147.501053,,,
729606739.24319,1.540685,0.091411,54.851713,0.005707,0.025238,0.998001,0.020531,-0.000782,-0.008015,63.126953,21.437408,-147.501053,,,
729606739.246613,1.540685,0.091411,54.851713,0.005707,0.025238,0.998001,0.020531,-0.000782,-0.008015,63.126953,21.437408,-147.501053,,,
729606739.249872,1.547249,0.091676,54.848567,0.004349,0.024979,0.996582,0.021347,0.004552,-0.011968,63.126953,21.437408,-147.501053,,,
729606739.253199,1.550766,0.096849,54.845413,0.004349,0.024979,0.996582,0.021347,0.004552,-0.011968,63.126953,21.437408,-147.501053,,,
729606739.256522,1.550766,0.096849,54.845413,0.004349,0.024979,0.996582,0.021347,0.004552,-0.011968,63.126953,21.437408,-147.501053,,,
729606739.259933,1.555144,0.09643,54.843037,0.000854,0.023651,0.988007,0.013691,0.003129,-0.010028,63.126953,21.437408,-147.501053,,,
729606739.263243,1.556827,0.098893,54.841416,0.000854,0.023651,0.988007,0.013691,0.003129,-0.010028,63.126953,21.437408,-147.501053,,,
729606739.266532,1.556827,0.098893,54.841416,0.000854,0.023651,0.988007,0.013691,0.003129,-0.010028,63.126953,21.437408,-147.501053,,,
729606739.269857,1.559369,0.098138,54.8408,-0.002914,0.019623,0.986588,0.007282,-0.000282,-0.003706,63.126953,21.437408,-147.501053,,,
729606739.273253,1.558806,0.099619,54.840423,-0.002914,0.019623,0.986588,0.007282,-0.000282,-0.003706,63.126953,21.437408,-147.501053,,,
729606739.276552,1.558806,0.099619,54.840423,-0.002914,0.019623,0.986588,0.007282,-0.000282,-0.003706,63.126953,21.437408,-147.501053,,,
729606739.279864,1.560098,0.097383,54.839833,0.001343,0.022827,0.991455,0.004478,-0.005684,-0.001121,62.76709,21.567154,-147.25238,,,
729606739.283207,1.559332,0.098132,54.838846,0.001343,0.022827,0.991455,0.004478,-0.005684,-0.001121,62.76709,21.567154,-147.25238,,,
729606739.286256,1.559332,0.098132,54.838846,0.001343,0.022827,0.991455,0.004478,-0.005684,-0.001121,62.76709,21.567154,-147.25238,,,
729606739.289911,1.559702,0.096726,54.837802,0.005264,0.02182,0.992264,0.001963,-0.002834,-0.005341,62.76709,21.567154,-147.25238,,,
729606739.293217,1.558872,0.099564,54.836613,0.005264,0.02182,0.992264,0.001963,-0.002834,-0.005341,62.76709,21.567154,-147.25238,,,
729606739.29653,1.558872,0.099564,54.836613,0.005264,0.02182,0.992264,0.001963,-0.002834,-0.005341,62.76709,21.567154,-147.25238,,,
729606739.299928,1.560512,0.100523,54.835408,0.004745,0.020966,0.997375,0.007893,0.00688,-0.005099,62.76709,21.567154,-147.25238,,,
729606739.303211,1.561313,0.10161,54.833882,0.004745,0.020966,0.997375,0.007893,0.00688,-0.005099,62.76709,21.567154,-147.25238,,,
729606739.306545,1.561313,0.10161,54.833882,0.004745,0.020966,0.997375,0.007893,0.00688,-0.005099,62.76709,21.567154,-147.25238,,,
729606739.309874,1.563817,0.10403,54.831306,0.008209,0.023453,0.996826,0.008878,0.010347,-0.008093,62.76709,21.567154,-147.25238,,,
729606739.313269,1.566172,0.104692,54.827655,0.008209,0.023453,0.996826,0.008878,0.010347,-0.008093,62.76709,21.567154,-147.25238,,,
729606739.316524,1.566172,0.104692,54.827655,0.008209,0.023453,0.996826,0.008878,0.010347,-0.008093,62.76709,21.567154,-147.25238,,,
729606739.319878,1.568223,0.109184,54.823054,0.009995,0.026642,0.994156,0.006339,0.017725,-0.018011,62.76709,21.567154,-147.25238,,,
729606739.323203,1.568516,0.111019,54.817972,0.009995,0.026642,0.994156,0.006339,0.017725,-0.018011,63.018173,21.147736,-147.500641,,,
729606739.326601,1.568516,0.111019,54.817972,0.009995,0.026642,0.994156,0.006339,0.017725,-0.018011,63.018173,21.147736,-147.500641,,,
729606739.329754,1.567947,0.11539,54.812857,0.003738,0.030334,0.983688,-0.000374,0.017703,-0.020538,63.018173,21.147736,-147.500641,,,
729606739.333224,1.565693,0.116279,54.807657,0.003738,0.030334,0.983688,-0.000374,0.017703,-0.020538,63.018173,21.147736,-147.500641,,,
729606739.336518,1.565693,0.116279,54.807657,0.003738,0.030334,0.983688,-0.000374,0.017703,-0.020538,63.018173,21.147736,-147.500641,,,
729606739.33988,1.563188,0.118201,54.801715,0.003571,0.031006,0.980179,-0.009743,0.009202,-0.019928,63.018173,21.147736,-147.500641,,,
729606739.343214,1.558038,0.117959,54.794785,0.003571,0.031006,0.980179,-0.009743,0.009202,-0.019928,63.018173,21.147736,-147.500641,,,
729606739.346523,1.558038,0.117959,54.794785,0.003571,0.031006,0.980179,-0.009743,0.009202,-0.019928,63.018173,21.147736,-147.500641,,,
729606739.349874,1.552272,0.117373,54.786856,0.003967,0.03598,0.980438,-0.018814,0.000499,-0.02924,63.018173,21.147736,-147.500641,,,
729606739.353268,1.544367,0.117312,54.777568,0.003967,0.03598,0.980438,-0.018814,0.000499,-0.02924,63.018173,21.147736,-147.500641,,,
729606739.356526,1.544367,0.117312,54.777568,0.003967,0.03598,0.980438,-0.018814,0.000499,-0.02924,63.018173,21.147736,-147.500641,,,
729606739.35988,1.537422,0.117831,54.768088,-0.000351,0.036484,0.988129,-0.023514,0.00394,-0.031892,63.018173,21.147736,-147.500641,,,
729606739.363205,1.530005,0.116834,54.760316,-0.000351,0.036484,0.988129,-0.023514,0.00394,-0.031892,62.836029,21.365433,-147.378769,,,
729606739.366589,1.530005,0.116834,54.760316,-0.000351,0.036484,0.988129,-0.023514,0.00394,-0.031892,62.836029,21.365433,-147.378769,,,
729606739.369888,1.523355,0.118881,54.754666,-0.009811,0.031631,0.990631,-0.025941,0.010763,-0.02112,62.836029,21.365433,-147.378769,,,
729606739.373202,1.514684,0.119349,54.751378,-0.009811,0.031631,0.990631,-0.025941,0.010763,-0.02112,62.836029,21.365433,-147.378769,,,
729606739.376538,1.514684,0.119349,54.751378,-0.009811,0.031631,0.990631,-0.025941,0.010763,-0.02112,62.836029,21.365433,-147.378769,,,
729606739.379927,1.506521,0.124572,54.749869,-0.016449,0.030319,0.996124,-0.028489,0.018441,-0.006701,62.836029,21.365433,-147.378769,,,
729606739.383195,1.496389,0.127091,54.749841,-0.016449,0.030319,0.996124,-0.028489,0.018441,-0.006701,62.836029,21.365433,-147.378769,,,
729606739.386525,1.496389,0.127091,54.749841,-0.016449,0.030319,0.996124,-0.028489,0.018441,-0.006701,62.836029,21.365433,-147.378769,,,
729606739.389872,1.485467,0.132669,54.750219,-0.016861,0.031952,0.997238,-0.035726,0.02245,-0.000462,62.836029,21.365433,-147.378769,,,
729606739.393225,1.471921,0.132787,54.750257,-0.016861,0.031952,0.997238,-0.035726,0.02245,-0.000462,62.836029,21.365433,-147.378769,,,
729606739.396534,1.471921,0.132787,54.750257,-0.016861,0.031952,0.997238,-0.035726,0.02245,-0.000462,62.836029,21.365433,-147.378769,,,
729606739.399877,1.456833,0.136672,54.749665,-0.017792,0.0345,0.996124,-0.052938,0.018635,-0.004478,62.836029,21.365433,-147.378769,,,
729606739.403186,1.441479,0.133774,54.748331,-0.017792,0.0345,0.996124,-0.052938,0.018635,-0.004478,62.920135,21.409119,-147.302017,,,
729606739.406607,1.441479,0.133774,54.748331,-0.017792,0.0345,0.996124,-0.052938,0.018635,-0.004478,62.920135,21.409119,-147.302017,,,
729606739.409865,1.42529,0.133267,54.745893,-0.020432,0.031982,1.000046,-0.057413,0.001287,-0.01022,62.920135,21.409119,-147.302017,,,
729606739.413188,1.411067,0.127935,54.743898,-0.020432,0.031982,1.000046,-0.057413,0.001287,-0.01022,62.920135,21.409119,-147.302017,,,
729606739.416536,1.411067,0.127935,54.743898,-0.020432,0.031982,1.000046,-0.057413,0.001287,-0.01022,62.920135,21.409119,-147.302017,,,
729606739.419949,1.397524,0.12262,54.74306,-0.021957,0.02446,1.009476,-0.046973,-0.017153,-0.004766,62.920135,21.409119,-147.302017,,,
729606739.423191,1.388161,0.114061,54.743643,-0.021957,0.02446,1.009476,-0.046973,-0.017153,-0.004766,62.920135,21.409119,-147.302017,,,
729606739.426537,1.388161,0.114061,54.743643,-0.021957,0.02446,1.009476,-0.046973,-0.017153,-0.004766,62.920135,21.409119,-147.302017,,,
729606739.429879,1.378571,0.107594,54.745999,-0.023392,0.014816,1.021973,-0.034466,-0.020351,0.008944,62.920135,21.409119,-147.302017,,,
729606739.433233,1.373499,0.098751,54.750483,-0.023392,0.014816,1.021973,-0.034466,-0.020351,0.008944,62.920135,21.409119,-147.302017,,,
729606739.436554,1.373499,0.098751,54.750483,-0.023392,0.014816,1.021973,-0.034466,-0.020351,0.008944,62.920135,21.409119,-147.302017,,,
729606739.439863,1.365542,0.093676,54.757165,-0.020935,0.008652,1.021698,-0.026087,-0.014027,0.023143,62.920135,21.409119,-147.302017,,,
729606739.443186,1.358947,0.092427,54.765391,-0.020935,0.008652,1.021698,-0.026087,-0.014027,0.023143,62.970886,21.402161,-147.363083,,,
729606739.446609,1.358947,0.092427,54.765391,-0.020935,0.008652,1.021698,-0.026087,-0.014027,0.023143,62.970886,21.402161,-147.363083,,,
729606739.449877,1.3492,0.093472,54.774489,-0.013626,0.009399,1.019531,-0.029978,0.00842,0.029777,62.970886,21.402161,-147.363083,,,
729606739.453247,1.339909,0.100831,54.784293,-0.013626,0.009399,1.019531,-0.029978,0.00842,0.029777,62.970886,21.402161,-147.363083,,,
729606739.45653,1.339909,0.100831,54.784293,-0.013626,0.009399,1.019531,-0.029978,0.00842,0.029777,62.970886,21.402161,-147.363083,,,
729606739.459878,1.328187,0.104078,54.794778,-0.005096,0.013718,1.007629,-0.039126,0.015235,0.035597,62.970886,21.402161,-147.363083,,,
729606739.463214,1.317844,0.114234,54.805154,-0.005096,0.013718,1.007629,-0.039126,0.015235,0.035597,62.970886,21.402161,-147.363083,,,
729606739.466535,1.317844,0.114234,54.805154,-0.005096,0.013718,1.007629,-0.039126,0.015235,0.035597,62.970886,21.402161,-147.363083,,,
729606739.469937,1.305541,0.117621,54.815534,-7.6e-05,0.017899,1.002502,-0.040719,0.015656,0.035396,62.970886,21.402161,-147.363083,,,
729606739.473192,1.295775,0.125373,54.825325,-7.6e-05,0.017899,1.002502,-0.040719,0.015656,0.035396,62.970886,21.402161,-147.363083,,,
729606739.476522,1.295775,0.125373,54.825325,-7.6e-05,0.017899,1.002502,-0.040719,0.015656,0.035396,62.970886,21.402161,-147.363083,,,
729606739.479869,1.283667,0.125208,54.834211,0.004654,0.016251,0.99939,-0.042141,0.005645,0.028354,62.970886,21.402161,-147.363083,,,
729606739.483323,1.274291,0.12992,54.842321,0.004654,0.016251,0.99939,-0.042141,0.005645,0.028354,62.970886,21.402161,-147.363083,,,
729606739.486524,1.274291,0.12992,54.842321,0.004654,0.016251,0.99939,-0.042141,0.005645,0.028354,62.896683,21.551697,-147.359711,,,
729606739.489874,1.262485,0.125975,54.850539,0.00499,0.013092,0.994781,-0.040309,-0.012337,0.026482,62.896683,21.551697,-147.359711,,,
729606739.493204,1.252543,0.129094,54.85842,0.00499,0.013092,0.994781,-0.040309,-0.012337,0.026482,62.896683,21.551697,-147.359711,,,
729606739.496601,1.252543,0.129094,54.85842,0.00499,0.013092,0.994781,-0.040309,-0.012337,0.026482,62.896683,21.551697,-147.359711,,,
729606739.49985,1.241228,0.123977,54.86649,0.001984,0.010162,0.998535,-0.037785,-0.016194,0.027679,62.896683,21.551697,-147.359711,,,
729606739.503238,1.229255,0.126323,54.874996,0.001984,0.010162,0.998535,-0.037785,-0.016194,0.027679,62.896683,21.551697,-147.359711,,,
729606739.506538,1.229255,0.126323,54.874996,0.001984,0.010162,0.998535,-0.037785,-0.016194,0.027679,62.896683,21.551697,-147.359711,,,
729606739.50994,1.216964,0.119941,54.883928,0.002838,0.011108,0.996857,-0.039477,-0.017198,0.030116,62.896683,21.551697,-147.359711,,,
729606739.513192,1.201926,0.123413,54.892124,0.002838,0.011108,0.996857,-0.039477,-0.017198,0.030116,62.896683,21.551697,-147.359711,,,
729606739.516533,1.201926,0.123413,54.892124,0.002838,0.011108,0.996857,-0.039477,-0.017198,0.030116,62.896683,21.551697,-147.359711,,,
729606739.519861,1.188704,0.12011,54.899736,0.009155,0.014801,0.996597,-0.046864,-0.010075,0.027065,62.896683,21.551697,-147.359711,,,
729606739.523278,1.172668,0.124876,54.906592,0.009155,0.014801,0.996597,-0.046864,-0.010075,0.027065,62.896683,21.551697,-147.359711,,,
729606739.526528,1.172668,0.124876,54.906592,0.009155,0.014801,0.996597,-0.046864,-0.010075,0.027065,62.872192,21.624817,-147.103851,,,
729606739.529874,1.159695,0.122221,54.912985,0.006317,0.012939,1.001907,-0.046394,-0.006193,0.018204,62.872192,21.624817,-147.103851,,,
729606739.533207,1.14647,0.121084,54.918666,0.006317,0.012939,1.001907,-0.046394,-0.006193,0.018204,62.872192,21.624817,-147.103851,,,
729606739.536588,1.14647,0.121084,54.918666,0.006317,0.012939,1.001907,-0.046394,-0.006193,0.018204,62.872192,21.624817,-147.103851,,,
729606739.539952,1.138771,0.112757,54.924347,0.003983,0.00209,1.002457,-0.027653,-0.028429,0.019974,62.872192,21.624817,-147.103851,,,
729606739.543245,1.133482,0.101539,54.929618,0.003983,0.00209,1.002457,-0.027653,-0.028429,0.019974,62.872192,21.624817,-147.103851,,,
729606739.54663,1.133482,0.101539,54.929618,0.003983,0.00209,1.002457,-0.027653,-0.028429,0.019974,62.872192,21.624817,-147.103851,,,
729606739.549873,1.133242,0.086422,54.934284,0.003784,0.000488,1.010925,0.000926,-0.047532,0.014478,62.872192,21.624817,-147.103851,,,
729606739.55319,1.136201,0.066331,54.939006,0.003784,0.000488,1.010925,0.000926,-0.047532,0.014478,62.872192,21.624817,-147.103851,,,
729606739.556518,1.136201,0.066331,54.939006,0.003784,0.000488,1.010925,0.000926,-0.047532,0.014478,62.872192,21.624817,-147.103851,,,
729606739.559865,1.141705,0.044843,54.944201,0.001709,0.000717,1.007538,0.020966,-0.074905,0.018959,62.872192,21.624817,-147.103851,,,
729606739.563185,1.147991,0.019604,54.949963,0.001709,0.000717,1.007538,0.020966,-0.074905,0.018959,62.872192,21.624817,-147.103851,,,
729606739.566532,1.147991,0.019604,54.949963,0.001709,0.000717,1.007538,0.020966,-0.074905,0.018959,62.829681,21.766434,-147.296661,,,
729606739.56986,1.158498,-0.001391,54.956109,0.001205,0.002991,1.006119,0.036371,-0.070366,0.023833,62.829681,21.766434,-147.296661,,,
729606739.573207,1.158498,-0.001391,54.961718,0.001205,0.002991,1.006119,0.036371,-0.070366,0.023833,62.829681,21.766434,-147.296661,,,
729606739.57659,1.169182,-0.020234,54.961718,0.001205,0.002991,1.006119,0.036371,-0.070366,0.023833,62.829681,21.766434,-147.296661,,,
729606739.579857,1.182145,-0.031013,54.965466,0.01535,0.018478,1.013153,0.04939,-0.035036,0.013088,62.829681,21.766434,-147.296661,,,
729606739.583199,1.193509,-0.033926,54.9667,0.01535,0.018478,1.013153,0.04939,-0.035036,0.013088,62.829681,21.766434,-147.296661,,,
729606739.586523,1.193509,-0.033926,54.9667,0.01535,0.018478,1.013153,0.04939,-0.035036,0.013088,62.829681,21.766434,-147.296661,,,
729606739.589857,1.207185,-0.030183,54.965476,0.029846,0.032272,1.006989,0.047797,0.017413,-0.002826,62.829681,21.766434,-147.296661,,,
729606739.593197,1.207185,-0.030183,54.965476,0.029846,0.032272,1.006989,0.047797,0.017413,-0.002826,62.829681,21.766434,-147.296661,,,
729606739.596536,1.21729,-0.023463,54.963512,0.029846,0.032272,1.006989,0.047797,0.017413,-0.002826,62.829681,21.766434,-147.296661,,,
729606739.59995,1.226504,-0.011147,54.961942,0.022919,0.034698,0.993286,0.034339,0.046118,-0.006728,62.829681,21.766434,-147.296661,,,
729606739.603206,1.226504,-0.011147,54.961472,0.022919,0.034698,0.993286,0.034339,0.046118,-0.006728,62.829681,21.766434,-147.296661,,,
729606739.606522,1.231177,0.001203,54.961472,0.022919,0.034698,0.993286,0.034339,0.046118,-0.006728,62.940369,21.443298,-147.276733,,,
729606739.609894,1.233993,0.018681,54.961315,0.006363,0.031158,0.98381,0.013158,0.063536,-0.000375,62.940369,21.443298,-147.276733,,,
729606739.613271,1.233993,0.018681,54.961315,0.006363,0.031158,0.98381,0.013158,0.063536,-0.000375,62.940369,21.443298,-147.276733,,,
729606739.61653,1.233024,0.030214,54.960351,0.006363,0.031158,0.98381,0.013158,0.063536,-0.000375,62.940369,21.443298,-147.276733,,,
729606739.61986,1.234269,0.037103,54.957095,0.008148,0.040421,0.972488,0.005205,0.026831,-0.013139,62.940369,21.443298,-147.276733,,,
729606739.6232,1.234269,0.037103,54.957095,0.008148,0.040421,0.972488,0.005205,0.026831,-0.013139,62.940369,21.443298,-147.276733,,,
729606739.626591,1.229978,0.035595,54.949707,0.008148,0.040421,0.972488,0.005205,0.026831,-0.013139,62.940369,21.443298,-147.276733,,,
729606739.629852,1.229209,0.03056,54.937269,0.013687,0.051025,0.969864,-0.00099,-0.016537,-0.044735,62.940369,21.443298,-147.276733,,,
729606739.633205,1.229209,0.03056,54.937269,0.013687,0.051025,0.969864,-0.00099,-0.016537,-0.044735,62.940369,21.443298,-147.276733,,,
729606739.636521,1.222631,0.019124,54.920224,0.013687,0.051025,0.969864,-0.00099,-0.016537,-0.044735,62.940369,21.443298,-147.276733,,,
729606739.639863,1.219095,0.005169,54.900313,0.008408,0.047913,0.975342,-0.01448,-0.048925,-0.069859,62.940369,21.443298,-147.276733,,,
729606739.643205,1.219095,0.005169,54.900313,0.008408,0.047913,0.975342,-0.01448,-0.048925,-0.069859,62.940369,21.443298,-147.276733,,,
729606739.646534,1.210325,-0.011982,54.87957,0.008408,0.047913,0.975342,-0.01448,-0.048925,-0.069859,62.940369,21.443298,-147.276733,,,
729606739.649868,1.20456,-0.030673,54.859753,-0.002777,0.041428,0.977722,-0.018047,-0.063611,-0.07223,62.798904,21.540894,-147.352966,,,
729606739.653189,1.20456,-0.030673,54.859753,-0.002777,0.041428,0.977722,-0.018047,-0.063611,-0.07223,62.798904,21.540894,-147.352966,,,
729606739.65654,1.195131,-0.051513,54.842783,-0.002777,0.041428,0.977722,-0.018047,-0.063611,-0.07223,62.798904,21.540894,-147.352966,,,
729606739.659878,1.188496,-0.070137,54.829337,-0.006714,0.034592,0.984497,-0.023065,-0.06326,-0.047272,62.798904,21.540894,-147.352966,,,
729606739.663184,1.188496,-0.070137,54.829337,-0.006714,0.034592,0.984497,-0.023065,-0.06326,-0.047272,62.798904,21.540894,-147.352966,,,
729606739.666576,1.182559,-0.095483,54.819908,-0.006714,0.034592,0.984497,-0.023065,-0.06326,-0.047272,62.798904,21.540894,-147.352966,,,
729606739.669852,1.176886,-0.110072,54.814261,-0.004608,0.031494,0.995987,-0.022084,-0.050484,-0.022424,62.798904,21.540894,-147.352966,,,
729606739.673196,1.176886,-0.110072,54.814261,-0.004608,0.031494,0.995987,-0.022084,-0.050484,-0.022424,62.798904,21.540894,-147.352966,,,
729606739.676539,1.175425,-0.133169,54.811546,-0.004608,0.031494,0.995987,-0.022084,-0.050484,-0.022424,62.798904,21.540894,-147.352966,,,
729606739.679862,1.171816,-0.141234,54.809913,0.002808,0.033966,1.005432,-0.012954,-0.025421,-0.005141,62.798904,21.540894,-147.352966,,,
729606739.683195,1.171816,-0.141234,54.809913,0.002808,0.033966,1.005432,-0.012954,-0.025421,-0.005141,62.798904,21.540894,-147.352966,,,
729606739.686596,1.172449,-0.150622,54.80894,0.002808,0.033966,1.005432,-0.012954,-0.025421,-0.005141,62.798904,21.540894,-147.352966,,,
729606739.689854,1.172522,-0.150485,54.807853,0.006516,0.035172,1.014404,-0.000327,0.005131,-0.005862,62.684174,21.506195,-147.253296,,,
729606739.693247,1.172522,-0.150485,54.807853,0.006516,0.035172,1.014404,-0.000327,0.005131,-0.005862,62.684174,21.506195,-147.253296,,,
729606739.696526,1.178116,-0.14943,54.806625,0.006516,0.035172,1.014404,-0.000327,0.005131,-0.005862,62.684174,21.506195,-147.253296,,,
729606739.699866,1.183594,-0.146793,54.804597,0.00708,0.034683,1.017822,0.021436,0.012737,-0.009368,62.684174,21.506195,-147.253296,,,
729606739.7032,1.183594,-0.146793,54.804597,0.00708,0.034683,1.017822,0.021436,0.012737,-0.009368,62.684174,21.506195,-147.253296,,,
729606739.706593,1.196975,-0.14795,54.80165,0.00708,0.034683,1.017822,0.021436,0.012737,-0.009368,62.684174,21.506195,-147.253296,,,
729606739.709859,1.206604,-0.146592,54.7987,0.000397,0.033783,1.013947,0.034402,0.005339,-0.013199,62.684174,21.506195,-147.253296,,,
729606739.713206,1.206604,-0.146592,54.7987,0.000397,0.033783,1.013947,0.034402,0.005339,-0.013199,62.684174,21.506195,-147.253296,,,
729606739.716546,1.223493,-0.151164,54.796384,0.000397,0.033783,1.013947,0.034402,0.005339,-0.013199,62.684174,21.506195,-147.253296,,,
729606739.71986,1.23405,-0.152636,54.793771,-0.008286,0.031448,1.013931,0.037369,-0.001493,-0.011169,62.684174,21.506195,-147.253296,,,
729606739.723204,1.23405,-0.152636,54.793771,-0.008286,0.031448,1.013931,0.037369,-0.001493,-0.011169,62.684174,21.506195,-147.253296,,,
729606739.726545,1.251002,-0.156344,54.790751,-0.008286,0.031448,1.013931,0.037369,-0.001493,-0.011169,62.684174,21.506195,-147.253296,,,
729606739.72988,1.262644,-0.160169,54.788366,-0.010635,0.030289,1.014297,0.040335,-0.011193,-0.010333,62.967484,21.477966,-147.285309,,,
729606739.733254,1.262644,-0.160169,54.788366,-0.010635,0.030289,1.014297,0.040335,-0.011193,-0.010333,62.967484,21.477966,-147.285309,,,
729606739.73652,1.277532,-0.160967,54.786674,-0.010635,0.030289,1.014297,0.040335,-0.011193,-0.010333,62.967484,21.477966,-147.285309,,,
729606739.739868,1.28875,-0.164818,54.785423,-0.010681,0.030533,1.012527,0.041327,-0.010881,-0.008028,62.967484,21.477966,-147.285309,,,
729606739.743198,1.28875,-0.164818,54.785423,-0.010681,0.030533,1.012527,0.041327,-0.010881,-0.008028,62.967484,21.477966,-147.285309,,,
729606739.746616,1.302529,-0.164163,54.784605,-0.010681,0.030533,1.012527,0.041327,-0.010881,-0.008028,62.967484,21.477966,-147.285309,,,
729606739.749844,1.313949,-0.166271,54.784101,-0.008743,0.027176,1.017197,0.040357,-0.004192,-0.001835,62.967484,21.477966,-147.285309,,,
729606739.75327,1.313949,-0.166271,54.784101,-0.008743,0.027176,1.017197,0.040357,-0.004192,-0.001835,62.967484,21.477966,-147.285309,,,
729606739.756521,1.32733,-0.165386,54.78356,-0.008743,0.027176,1.017197,0.040357,-0.004192,-0.001835,62.967484,21.477966,-147.285309,,,
729606739.759862,1.338052,-0.166062,54.783625,-0.007065,0.027161,1.015442,0.037355,0.002031,-0.000938,62.967484,21.477966,-147.285309,,,
729606739.763196,1.338052,-0.166062,54.783625,-0.007065,0.027161,1.015442,0.037355,0.002031,-0.000938,62.967484,21.477966,-147.285309,,,
729606739.76653,1.352029,-0.167238,54.784337,-0.007065,0.027161,1.015442,0.037355,0.002031,-0.000938,62.967484,21.477966,-147.285309,,,
729606739.769851,1.365058,-0.167704,54.785895,-0.010361,0.023331,1.012985,0.044299,0.002974,0.00609,62.953934,21.433899,-147.145737,,,
729606739.773255,1.365058,-0.167704,54.785895,-0.010361,0.023331,1.012985,0.044299,0.002974,0.00609,62.953934,21.433899,-147.145737,,,
729606739.776528,1.38115,-0.171127,54.789318,-0.010361,0.023331,1.012985,0.044299,0.002974,0.00609,62.953934,21.433899,-147.145737,,,
729606739.779859,1.397053,-0.174833,54.794447,-0.012741,0.018448,1.008591,0.056808,-0.010944,0.017116,62.953934,21.433899,-147.145737,,,
729606739.783205,1.397053,-0.174833,54.794447,-0.012741,0.018448,1.008591,0.056808,-0.010944,0.017116,62.953934,21.433899,-147.145737,,,
729606739.786536,1.416883,-0.181277,54.800919,-0.012741,0.018448,1.008591,0.056808,-0.010944,0.017116,62.953934,21.433899,-147.145737,,,
729606739.789859,1.435342,-0.188236,54.808072,-0.008728,0.018433,1.00679,0.067732,-0.020453,0.026164,62.953934,21.433899,-147.145737,,,
729606739.793196,1.435342,-0.188236,54.808072,-0.008728,0.018433,1.00679,0.067732,-0.020453,0.026164,62.953934,21.433899,-147.145737,,,
729606739.796535,1.454749,-0.194653,54.815281,-0.008728,0.018433,1.00679,0.067732,-0.020453,0.026164,62.953934,21.433899,-147.145737,,,
729606739.799858,1.471413,-0.205295,54.822269,-6.1e-05,0.024109,0.99678,0.060842,-0.032296,0.021325,62.953934,21.433899,-147.145737,,,
729606739.803196,1.471413,-0.205295,54.822269,-6.1e-05,0.024109,0.99678,0.060842,-0.032296,0.021325,62.953934,21.433899,-147.145737,,,
729606739.806541,1.487713,-0.210499,54.828482,-6.1e-05,0.024109,0.99678,0.060842,-0.032296,0.021325,62.953934,21.433899,-147.145737,,,
729606739.809856,1.500841,-0.220217,54.833545,0.008011,0.027863,0.991013,0.043448,-0.03163,0.015416,62.953934,21.433899,-147.145737,,,
729606739.813236,1.500841,-0.220217,54.833545,0.008011,0.027863,0.991013,0.043448,-0.03163,0.015416,62.809692,21.232407,-147.285614,,,
729606739.816528,1.512426,-0.224212,54.837172,0.008011,0.027863,0.991013,0.043448,-0.03163,0.015416,62.809692,21.232407,-147.285614,,,
729606739.819872,1.520586,-0.235287,54.840555,0.013351,0.030365,0.986221,0.028556,-0.034963,0.011993,62.809692,21.232407,-147.285614,,,
729606739.823275,1.520586,-0.235287,54.840555,0.013351,0.030365,0.986221,0.028556,-0.034963,0.011993,62.809692,21.232407,-147.285614,,,
729606739.826532,1.526491,-0.241428,54.842893,0.013351,0.030365,0.986221,0.028556,-0.034963,0.011993,62.809692,21.232407,-147.285614,,,
729606739.829854,1.529571,-0.252744,54.84411,0.019272,0.029724,0.981277,0.011327,-0.037981,0.003065,62.809692,21.232407,-147.285614,,,
729606739.83322,1.529571,-0.252744,54.84411,0.019272,0.029724,0.981277,0.011327,-0.037981,0.003065,62.809692,21.232407,-147.285614,,,
729606739.836518,1.53058,-0.258652,54.844013,0.019272,0.029724,0.981277,0.011327,-0.037981,0.003065,62.809692,21.232407,-147.285614,,,
729606739.839855,1.529794,-0.269253,54.843126,0.017258,0.025833,0.987946,-0.000717,-0.033682,-0.005782,62.809692,21.232407,-147.285614,,,
729606739.843211,1.529794,-0.269253,54.843126,0.017258,0.025833,0.987946,-0.000717,-0.033682,-0.005782,62.809692,21.232407,-147.285614,,,
729606739.846544,1.526604,-0.275143,54.842014,0.017258,0.025833,0.987946,-0.000717,-0.033682,-0.005782,62.809692,21.232407,-147.285614,,,
729606739.849851,1.521981,-0.287885,54.841361,0.014297,0.021896,0.98381,-0.016307,-0.039296,-0.005355,62.809692,21.232407,-147.285614,,,
729606739.853203,1.521981,-0.287885,54.841361,0.014297,0.021896,0.98381,-0.016307,-0.039296,-0.005355,62.717911,21.240891,-147.378952,,,
729606739.856529,1.514792,-0.295143,54.840444,0.014297,0.021896,0.98381,-0.016307,-0.039296,-0.005355,62.717911,21.240891,-147.378952,,,
729606739.859851,1.507578,-0.308503,54.839137,0.008499,0.019348,0.985519,-0.023696,-0.042033,-0.001332,62.717911,21.240891,-147.378952,,,
729606739.863275,1.507578,-0.308503,54.839137,0.008499,0.019348,0.985519,-0.023696,-0.042033,-0.001332,62.717911,21.240891,-147.378952,,,
729606739.866527,1.497795,-0.313999,54.837656,0.008499,0.019348,0.985519,-0.023696,-0.042033,-0.001332,62.717911,21.240891,-147.378952,,,
729606739.869873,1.490147,-0.326126,54.836408,0.005997,0.016327,0.994064,-0.027629,-0.042023,-0.00543,62.717911,21.240891,-147.378952,,,
729606739.873214,1.490147,-0.326126,54.836408,0.005997,0.016327,0.994064,-0.027629,-0.042023,-0.00543,62.717911,21.240891,-147.378952,,,
729606739.876598,1.482921,-0.333225,54.834853,0.005997,0.016327,0.994064,-0.027629,-0.042023,-0.00543,62.717911,21.240891,-147.378952,,,
729606739.879842,1.479693,-0.343922,54.833569,0.001999,0.01329,1.004044,-0.010635,-0.037263,-0.003893,62.717911,21.240891,-147.378952,,,
729606739.883201,1.479693,-0.343922,54.833569,0.001999,0.01329,1.004044,-0.010635,-0.037263,-0.003893,62.717911,21.240891,-147.378952,,,
729606739.886569,1.479171,-0.351629,54.832303,0.001999,0.01329,1.004044,-0.010635,-0.037263,-0.003893,62.717911,21.240891,-147.378952,,,
729606739.889846,1.480309,-0.35744,54.831236,-0.000122,0.010178,1.012772,0.003388,-0.019241,-0.005218,62.717911,21.240891,-147.378952,,,
729606739.893184,1.480309,-0.35744,54.831236,-0.000122,0.010178,1.012772,0.003388,-0.019241,-0.005218,62.546494,21.330032,-147.488541,,,
729606739.896534,1.483654,-0.362127,54.830808,-0.000122,0.010178,1.012772,0.003388,-0.019241,-0.005218,62.546494,21.330032,-147.488541,,,
729606739.899852,1.48859,-0.362831,54.831184,0.002213,0.011063,1.011276,0.01799,0.00137,-0.000499,62.546494,21.330032,-147.488541,,,
729606739.903182,1.48859,-0.362831,54.831184,0.002213,0.011063,1.011276,0.01799,0.00137,-0.000499,62.546494,21.330032,-147.488541,,,
729606739.906537,1.495936,-0.366366,54.832531,0.002213,0.011063,1.011276,0.01799,0.00137,-0.000499,62.546494,21.330032,-147.488541,,,
729606739.909859,1.50159,-0.365792,54.834219,0.002014,0.014084,1.001617,0.0193,0.004251,0.003953,62.546494,21.330032,-147.488541,,,
729606739.913188,1.50159,-0.365792,54.834219,0.002014,0.014084,1.001617,0.0193,0.004251,0.003953,62.546494,21.330032,-147.488541,,,
729606739.916585,1.507345,-0.370245,54.836522,0.002014,0.014084,1.001617,0.0193,0.004251,0.003953,62.546494,21.330032,-147.488541,,,
729606739.919853,1.511277,-0.370014,54.838425,-0.001846,0.018845,0.988342,0.012604,0.003288,0.003748,62.546494,21.330032,-147.488541,,,
729606739.923211,1.511277,-0.370014,54.838425,-0.001846,0.018845,0.988342,0.012604,0.003288,0.003748,62.546494,21.330032,-147.488541,,,
729606739.926535,1.512814,-0.374781,54.839974,-0.001846,0.018845,0.988342,0.012604,0.003288,0.003748,62.546494,21.330032,-147.488541,,,
729606739.929851,1.512567,-0.375975,54.840904,0.000137,0.024429,0.980682,-0.000908,-0.001703,0.001,62.546494,21.330032,-147.488541,,,
729606739.933203,1.512567,-0.375975,54.840904,0.000137,0.024429,0.980682,-0.000908,-0.001703,0.001,62.546494,21.330032,-147.488541,,,
729606739.936526,1.509689,-0.38045,54.840798,0.000137,0.024429,0.980682,-0.000908,-0.001703,0.001,62.5336,21.292603,-146.977463,,,
729606739.939851,1.507385,-0.382628,54.83943,0.011322,0.030853,0.978241,-0.008309,-0.003408,-0.006864,62.5336,21.292603,-146.977463,,,
729606739.943258,1.507385,-0.382628,54.83943,0.011322,0.030853,0.978241,-0.008309,-0.003408,-0.006864,62.5336,21.292603,-146.977463,,,
729606739.946537,1.502676,-0.386003,54.836361,0.011322,0.030853,0.978241,-0.008309,-0.003408,-0.006864,62.5336,21.292603,-146.977463,,,
729606739.949849,1.498975,-0.389868,54.832042,0.018326,0.03244,0.977905,-0.013259,-0.011851,-0.01686,62.5336,21.292603,-146.977463,,,
729606739.953185,1.498975,-0.389868,54.832042,0.018326,0.03244,0.977905,-0.013259,-0.011851,-0.01686,62.5336,21.292603,-146.977463,,,
729606739.956578,1.49249,-0.39251,54.826932,0.018326,0.03244,0.977905,-0.013259,-0.011851,-0.01686,62.5336,21.292603,-146.977463,,,
729606739.959853,1.487466,-0.395454,54.821876,0.018112,0.033524,0.978287,-0.01704,-0.00876,-0.018941,62.5336,21.292603,-146.977463,,,
729606739.963203,1.487466,-0.395454,54.821876,0.018112,0.033524,0.978287,-0.01704,-0.00876,-0.018941,62.5336,21.292603,-146.977463,,,
729606739.966529,1.477512,-0.395271,54.817232,0.018112,0.033524,0.978287,-0.01704,-0.00876,-0.018941,62.5336,21.292603,-146.977463,,,
729606739.969889,1.468338,-0.39707,54.813118,0.014801,0.03479,0.976868,-0.032435,-0.004186,-0.017048,62.5336,21.292603,-146.977463,,,
729606739.973193,1.468338,-0.39707,54.813118,0.014801,0.03479,0.976868,-0.032435,-0.004186,-0.017048,62.5336,21.292603,-146.977463,,,
729606739.97653,1.453472,-0.395514,54.809696,0.014801,0.03479,0.976868,-0.032435,-0.004186,-0.017048,62.452789,21.327454,-147.542236,,,
729606739.979851,1.439312,-0.395792,54.807063,0.007904,0.032913,0.975357,-0.049873,0.002318,-0.010134,62.452789,21.327454,-147.542236,,,
729606739.983254,1.439312,-0.395792,54.807063,0.007904,0.032913,0.975357,-0.049873,0.002318,-0.010134,62.452789,21.327454,-147.542236,,,
729606739.98651,1.420218,-0.39519,54.805443,0.007904,0.032913,0.975357,-0.049873,0.002318,-0.010134,62.452789,21.327454,-147.542236,,,
729606739.989856,1.402577,-0.396954,54.80467,0.00148,0.027878,0.978577,-0.060307,-0.002552,-0.00308,62.452789,21.327454,-147.542236,,,
729606739.993197,1.402577,-0.396954,54.80467,0.00148,0.027878,0.978577,-0.060307,-0.002552,-0.00308,62.452789,21.327454,-147.542236,,,
729606739.996581,1.384371,-0.398402,54.803582,0.00148,0.027878,0.978577,-0.060307,-0.002552,-0.00308,62.452789,21.327454,-147.542236,,,
729606739.999848,1.369619,-0.405765,54.80182,0.004852,0.025879,0.98912,-0.049914,-0.023743,-0.007857,62.452789,21.327454,-147.542236,,,
729606740.003208,1.369619,-0.405765,54.80182,0.004852,0.025879,0.98912,-0.049914,-0.023743,-0.007857,62.452789,21.327454,-147.542236,,,
729606740.006542,1.355362,-0.412141,54.798986,0.004852,0.025879,0.98912,-0.049914,-0.023743,-0.007857,62.452789,21.327454,-147.542236,,,
729606740.009853,1.342087,-0.422727,54.795116,0.005447,0.027481,0.995834,-0.045889,-0.034863,-0.015627,62.452789,21.327454,-147.542236,,,
729606740.013203,1.342087,-0.422727,54.795116,0.005447,0.027481,0.995834,-0.045889,-0.034863,-0.015627,62.452789,21.327454,-147.542236,,,
729606740.016518,1.329532,-0.432651,54.79132,0.005447,0.027481,0.995834,-0.045889,-0.034863,-0.015627,62.53656,21.535919,-147.206543,,,
729606740.019875,1.315701,-0.443454,54.789484,-0.004517,0.020523,0.998749,-0.048199,-0.036437,-0.00632,62.53656,21.535919,-147.206543,,,
729606740.023249,1.315701,-0.443454,54.789484,-0.004517,0.020523,0.998749,-0.048199,-0.036437,-0.00632,62.53656,21.535919,-147.206543,,,
729606740.02653,1.304214,-0.456241,54.790387,-0.004517,0.020523,0.998749,-0.048199,-0.036437,-0.00632,62.53656,21.535919,-147.206543,,,
729606740.029865,1.292091,-0.463959,54.793841,-0.008087,0.013336,1.009598,-0.040823,-0.023938,0.011469,62.53656,21.535919,-147.206543,,,
729606740.033205,1.292091,-0.463959,54.793841,-0.008087,0.013336,1.009598,-0.040823,-0.023938,0.011469,62.53656,21.535919,-147.206543,,,
729606740.036525,1.28372,-0.474831,54.799614,-0.008087,0.013336,1.009598,-0.040823,-0.023938,0.011469,62.53656,21.535919,-147.206543,,,
729606740.03985,1.274351,-0.479604,54.806409,0.001038,0.014984,1.010712,-0.027867,-0.015697,0.020716,62.53656,21.535919,-147.206543,,,
729606740.043205,1.274351,-0.479604,54.806409,0.001038,0.014984,1.010712,-0.027867,-0.015697,0.020716,62.53656,21.535919,-147.206543,,,
729606740.046582,1.270341,-0.485879,54.813024,0.001038,0.014984,1.010712,-0.027867,-0.015697,0.020716,62.53656,21.535919,-147.206543,,,
729606740.049842,1.26557,-0.485936,54.818575,0.012131,0.020493,1.015366,-0.014837,0.003857,0.020799,62.53656,21.535919,-147.206543,,,
729606740.053186,1.26557,-0.485936,54.818575,0.012131,0.020493,1.015366,-0.014837,0.003857,0.020799,62.53656,21.535919,-147.206543,,,
729606740.056514,1.265418,-0.486505,54.823109,0.012131,0.020493,1.015366,-0.014837,0.003857,0.020799,62.551422,21.43718,-147.004745,,,
729606740.059853,1.265073,-0.485668,54.826787,0.011246,0.022644,1.015747,-0.002409,0.005324,0.013006,62.551422,21.43718,-147.004745,,,
729606740.063198,1.265073,-0.485668,54.826787,0.011246,0.022644,1.015747,-0.002409,0.005324,0.013006,62.551422,21.43718,-147.004745,,,
729606740.066559,1.268952,-0.484534,54.829421,0.011246,0.022644,1.015747,-0.002409,0.005324,0.013006,62.551422,21.43718,-147.004745,,,
729606740.069855,1.27315,-0.487518,54.830754,0.010635,0.020844,1.011963,0.017283,-0.007416,0.003337,62.551422,21.43718,-147.004745,,,
729606740.073233,1.27315,-0.487518,54.830754,0.010635,0.020844,1.011963,0.017283,-0.007416,0.003337,62.551422,21.43718,-147.004745,,,
729606740.076529,1.281012,-0.489912,54.830999,0.010635,0.020844,1.011963,0.017283,-0.007416,0.003337,62.551422,21.43718,-147.004745,,,
729606740.079851,1.290199,-0.496335,54.830608,0.011703,0.02037,1.015549,0.034568,-0.02018,-0.003921,62.551422,21.43718,-147.004745,,,
729606740.083206,1.290199,-0.496335,54.830608,0.011703,0.02037,1.015549,0.034568,-0.02018,-0.003921,62.551422,21.43718,-147.004745,,,
729606740.086516,1.302669,-0.502662,54.829627,0.011703,0.02037,1.015549,0.034568,-0.02018,-0.003921,62.551422,21.43718,-147.004745,,,
729606740.089849,1.316185,-0.509988,54.82849,0.010101,0.019501,1.01619,0.045429,-0.020177,-0.006735,62.551422,21.43718,-147.004745,,,
729606740.093194,1.316185,-0.509988,54.82849,0.010101,0.019501,1.01619,0.045429,-0.020177,-0.006735,62.551422,21.43718,-147.004745,,,
729606740.096526,1.331585,-0.513435,54.827815,0.010101,0.019501,1.01619,0.045429,-0.020177,-0.006735,62.551422,21.43718,-147.004745,,,
729606740.099852,1.347599,-0.516737,54.827471,0.009735,0.017426,1.018295,0.056823,-0.009029,-0.00498,62.467316,21.470413,-146.995911,,,
729606740.103293,1.347599,-0.516737,54.827471,0.009735,0.017426,1.018295,0.056823,-0.009029,-0.00498,62.467316,21.470413,-146.995911,,,
729606740.106536,1.363329,-0.510353,54.826553,0.009735,0.017426,1.018295,0.056823,-0.009029,-0.00498,62.467316,21.470413,-146.995911,,,
729606740.109863,1.381961,-0.507369,54.825765,0.013412,0.019653,1.016083,0.06314,0.014225,-0.003769,62.467316,21.470413,-146.995911,,,
729606740.11326,1.381961,-0.507369,54.825765,0.013412,0.019653,1.016083,0.06314,0.014225,-0.003769,62.467316,21.470413,-146.995911,,,
729606740.116525,1.399295,-0.494828,54.825833,0.013412,0.019653,1.016083,0.06314,0.014225,-0.003769,62.467316,21.470413,-146.995911,,,
729606740.11985,1.41988,-0.4854,54.827197,0.012207,0.020248,1.011459,0.071212,0.034311,0.000689,62.467316,21.470413,-146.995911,,,
729606740.123197,1.41988,-0.4854,54.827197,0.012207,0.020248,1.011459,0.071212,0.034311,0.000689,62.467316,21.470413,-146.995911,,,
729606740.126589,1.439654,-0.473329,54.83005,0.012207,0.020248,1.011459,0.071212,0.034311,0.000689,62.467316,21.470413,-146.995911,,,
729606740.12985,1.461784,-0.46223,54.835132,0.002609,0.017944,1.003555,0.076906,0.041448,0.014336,62.467316,21.470413,-146.995911,,,
729606740.133196,1.461784,-0.46223,54.835132,0.002609,0.017944,1.003555,0.076906,0.041448,0.014336,62.467316,21.470413,-146.995911,,,
729606740.136517,1.483778,-0.453863,54.842059,0.002609,0.017944,1.003555,0.076906,0.041448,0.014336,62.467316,21.470413,-146.995911,,,
729606740.139849,1.506219,-0.445518,54.849764,-0.00235,0.017883,0.996872,0.081399,0.032628,0.028567,62.442307,21.221558,-146.954697,,,
729606740.143192,1.506219,-0.445518,54.849764,-0.00235,0.017883,0.996872,0.081399,0.032628,0.028567,62.442307,21.221558,-146.954697,,,
729606740.146519,1.527132,-0.441577,54.857437,-0.00235,0.017883,0.996872,0.081399,0.032628,0.028567,62.442307,21.221558,-146.954697,,,
729606740.149859,1.548683,-0.440366,54.864086,0.000916,0.028168,0.986755,0.077113,0.009179,0.019407,62.442307,21.221558,-146.954697,,,
729606740.153185,1.548683,-0.440366,54.864086,0.000916,0.028168,0.986755,0.077113,0.009179,0.019407,62.442307,21.221558,-146.954697,,,
729606740.156524,1.568209,-0.443295,54.869023,0.000916,0.028168,0.986755,0.077113,0.009179,0.019407,62.442307,21.221558,-146.954697,,,
729606740.15985,1.588096,-0.445204,54.872557,0.009033,0.034637,0.982132,0.06676,-0.003106,0.0074,62.442307,21.221558,-146.954697,,,
729606740.163192,1.588096,-0.445204,54.872557,0.009033,0.034637,0.982132,0.06676,-0.003106,0.0074,62.442307,21.221558,-146.954697,,,
729606740.166609,1.605402,-0.44762,54.875348,0.009033,0.034637,0.982132,0.06676,-0.003106,0.0074,62.442307,21.221558,-146.954697,,,
729606740.169844,1.624417,-0.448008,54.878426,0.01326,0.031555,0.990723,0.065729,0.000606,0.005706,62.442307,21.221558,-146.954697,,,
729606740.173204,1.624417,-0.448008,54.878426,0.01326,0.031555,0.990723,0.065729,0.000606,0.005706,62.442307,21.221558,-146.954697,,,
729606740.176528,1.641851,-0.447427,54.882534,0.01326,0.031555,0.990723,0.065729,0.000606,0.005706,62.442307,21.221558,-146.954697,,,
729606740.179846,1.661506,-0.444168,54.887434,0.016617,0.026962,0.990753,0.070062,0.013152,0.015413,62.43129,21.15625,-146.930435,,,
729606740.183197,1.661506,-0.444168,54.887434,0.016617,0.026962,0.990753,0.070062,0.013152,0.015413,62.43129,21.15625,-146.930435,,,
729606740.186515,1.67872,-0.440713,54.894026,0.016617,0.026962,0.990753,0.070062,0.013152,0.015413,62.43129,21.15625,-146.930435,,,
729606740.189847,1.698999,-0.433562,54.902427,0.020676,0.022995,0.990143,0.072746,0.030705,0.02792,62.43129,21.15625,-146.930435,,,
729606740.193176,1.698999,-0.433562,54.902427,0.020676,0.022995,0.990143,0.072746,0.030705,0.02792,62.43129,21.15625,-146.930435,,,
729606740.196538,1.718311,-0.42556,54.911498,0.020676,0.022995,0.990143,0.072746,0.030705,0.02792,62.43129,21.15625,-146.930435,,,
729606740.199845,1.739424,-0.413901,54.920047,0.023911,0.029037,0.984604,0.073309,0.045111,0.031573,62.43129,21.15625,-146.930435,,,
729606740.203183,1.739424,-0.413901,54.920047,0.023911,0.029037,0.984604,0.073309,0.045111,0.031573,62.43129,21.15625,-146.930435,,,
729606740.206611,1.757606,-0.402127,54.92767,0.023911,0.029037,0.984604,0.073309,0.045111,0.031573,62.43129,21.15625,-146.930435,,,
729606740.209868,1.777175,-0.388435,54.933735,0.024094,0.037354,0.974609,0.071639,0.050654,0.019727,62.43129,21.15625,-146.930435,,,
729606740.213213,1.777175,-0.388435,54.933735,0.024094,0.037354,0.974609,0.071639,0.050654,0.019727,62.43129,21.15625,-146.930435,,,
729606740.216535,1.792123,-0.370785,54.938327,0.024094,0.037354,0.974609,0.071639,0.050654,0.019727,62.43129,21.15625,-146.930435,,,
729606740.219904,1.807867,-0.355981,54.942084,0.020477,0.043961,0.971024,0.053637,0.053773,0.011097,62.43129,21.15625,-146.930435,,,
729606740.223223,1.807867,-0.355981,54.942084,0.020477,0.043961,0.971024,0.053637,0.053773,0.011097,62.706451,20.861816,-146.881973,,,
729606740.226534,1.818443,-0.33767,54.945192,0.020477,0.043961,0.971024,0.053637,0.053773,0.011097,62.706451,20.861816,-146.881973,,,
729606740.229855,1.82803,-0.323279,54.949098,0.010956,0.044617,0.968582,0.035238,0.050502,0.011599,62.706451,20.861816,-146.881973,,,
729606740.233277,1.82803,-0.323279,54.949098,0.010956,0.044617,0.968582,0.035238,0.050502,0.011599,62.706451,20.861816,-146.881973,,,
729606740.236524,1.834973,-0.310132,54.954775,0.010956,0.044617,0.968582,0.035238,0.050502,0.011599,62.706451,20.861816,-146.881973,,,
729606740.239846,1.839682,-0.299394,54.963053,-0.002808,0.037476,0.968369,0.015404,0.042676,0.028346,62.706451,20.861816,-146.881973,,,
729606740.243207,1.839682,-0.299394,54.963053,-0.002808,0.037476,0.968369,0.015404,0.042676,0.028346,62.706451,20.861816,-146.881973,,,
729606740.246609,1.84325,-0.291842,54.973321,-0.002808,0.037476,0.968369,0.015404,0.042676,0.028346,62.706451,20.861816,-146.881973,,,
729606740.249894,1.845294,-0.283614,54.98438,-0.006287,0.037781,0.97905,0.008204,0.033944,0.036714,62.706451,20.861816,-146.881973,,,
729606740.253187,1.845294,-0.283614,54.98438,-0.006287,0.037781,0.97905,0.008204,0.033944,0.036714,62.706451,20.861816,-146.881973,,,
729606740.256582,1.846506,-0.281623,54.995084,-0.006287,0.037781,0.97905,0.008204,0.033944,0.036714,62.706451,20.861816,-146.881973,,,
729606740.259902,1.848203,-0.278624,55.00285,0.002701,0.045914,0.983536,0.006954,0.013453,0.026171,62.706451,20.861816,-146.881973,,,
729606740.263188,1.848203,-0.278624,55.00285,0.002701,0.045914,0.983536,0.006954,0.013453,0.026171,62.827316,20.774063,-147.177841,,,
729606740.26654,1.848331,-0.282654,55.00741,0.002701,0.045914,0.983536,0.006954,0.013453,0.026171,62.827316,20.774063,-147.177841,,,
729606740.269897,1.848049,-0.285483,55.009014,0.007889,0.052734,0.987305,0.000972,-0.005192,0.006243,62.827316,20.774063,-147.177841,,,
729606740.273243,1.848049,-0.285483,55.009014,0.007889,0.052734,0.987305,0.000972,-0.005192,0.006243,62.827316,20.774063,-147.177841,,,
729606740.276514,1.844962,-0.29532,55.00854,0.007889,0.052734,0.987305,0.000972,-0.005192,0.006243,62.827316,20.774063,-147.177841,,,
729606740.279881,1.841525,-0.302969,55.00663,0.001663,0.048386,0.987076,-0.009559,-0.022978,-0.008486,62.827316,20.774063,-147.177841,,,
729606740.283203,1.841525,-0.302969,55.00663,0.001663,0.048386,0.987076,-0.009559,-0.022978,-0.008486,62.827316,20.774063,-147.177841,,,
729606740.286526,1.836735,-0.316754,55.004573,0.001663,0.048386,0.987076,-0.009559,-0.022978,-0.008486,62.827316,20.774063,-147.177841,,,
729606740.289939,1.830618,-0.325975,55.0028,-0.00296,0.039017,0.990311,-0.021178,-0.031515,-0.007666,62.827316,20.774063,-147.177841,,,
729606740.293195,1.830618,-0.325975,55.0028,-0.00296,0.039017,0.990311,-0.021178,-0.031515,-0.007666,62.827316,20.774063,-147.177841,,,
729606740.296545,1.82522,-0.339381,55.002025,-0.00296,0.039017,0.990311,-0.021178,-0.031515,-0.007666,62.827316,20.774063,-147.177841,,,
729606740.299886,1.8185,-0.348554,55.002729,0.000137,0.032578,0.998856,-0.021809,-0.028616,0.000635,62.827316,20.774063,-147.177841,,,
729606740.303187,1.8185,-0.348554,55.002729,0.000137,0.032578,0.998856,-0.021809,-0.028616,0.000635,62.724976,21.218292,-147.459198,,,
729606740.306537,1.814183,-0.360275,55.004729,0.000137,0.032578,0.998856,-0.021809,-0.028616,0.000635,62.724976,21.218292,-147.459198,,,
729606740.309889,1.809054,-0.367399,55.007586,-0.000336,0.029968,1.007111,-0.01862,-0.021324,0.008942,62.724976,21.218292,-147.459198,,,
729606740.313249,1.809054,-0.367399,55.007586,-0.000336,0.029968,1.007111,-0.01862,-0.021324,0.008942,62.724976,21.218292,-147.459198,,,
729606740.31654,1.807467,-0.370843,55.0118,-0.000336,0.029968,1.007111,-0.01862,-0.021324,0.008942,62.724976,21.218292,-147.459198,,,
729606740.319896,1.805522,-0.370852,55.017248,-0.007034,0.023636,1.018387,-0.007996,0.002772,0.018834,62.724976,21.218292,-147.459198,,,
729606740.323209,1.805522,-0.370852,55.017248,-0.007034,0.023636,1.018387,-0.007996,0.002772,0.018834,62.724976,21.218292,-147.459198,,,
729606740.326583,1.805637,-0.364699,55.024355,-0.007034,0.023636,1.018387,-0.007996,0.002772,0.018834,62.724976,21.218292,-147.459198,,,
729606740.32991,1.805599,-0.361209,55.033024,-0.009064,0.02005,1.019043,0.000332,0.017284,0.029825,62.724976,21.218292,-147.459198,,,
729606740.333191,1.805599,-0.361209,55.033024,-0.009064,0.02005,1.019043,0.000332,0.017284,0.029825,62.724976,21.218292,-147.459198,,,
729606740.336521,1.808275,-0.35302,55.042017,-0.009064,0.02005,1.019043,0.000332,0.017284,0.029825,62.724976,21.218292,-147.459198,,,
729606740.339936,1.808094,-0.349304,55.051394,-0.005539,0.021637,1.012985,0.000166,0.018186,0.032556,62.724976,21.218292,-147.459198,,,
729606740.343185,1.808094,-0.349304,55.051394,-0.005539,0.021637,1.012985,0.000166,0.018186,0.032556,62.674988,21.096573,-146.956253,,,
729606740.34655,1.810145,-0.345941,55.060673,-0.005539,0.021637,1.012985,0.000166,0.018186,0.032556,62.674988,21.096573,-146.956253,,,
729606740.349915,1.806727,-0.343003,55.069351,-0.005737,0.026932,1.00354,-0.012423,0.011796,0.027153,62.674988,21.096573,-146.956253,,,
729606740.353187,1.806727,-0.343003,55.069351,-0.005737,0.026932,1.00354,-0.012423,0.011796,0.027153,62.674988,21.096573,-146.956253,,,
729606740.356549,1.806142,-0.341522,55.077354,-0.005737,0.026932,1.00354,-0.012423,0.011796,0.027153,62.674988,21.096573,-146.956253,,,
729606740.359931,1.799576,-0.341504,55.084478,-0.003311,0.027039,0.999588,-0.020742,0.003331,0.02098,62.674988,21.096573,-146.956253,,,
729606740.363196,1.799576,-0.341504,55.084478,-0.003311,0.027039,0.999588,-0.020742,0.003331,0.02098,62.674988,21.096573,-146.956253,,,
729606740.366584,1.795678,-0.340963,55.090492,-0.003311,0.027039,0.999588,-0.020742,0.003331,0.02098,62.674988,21.096573,-146.956253,,,
729606740.369877,1.795678,-0.34616,55.095703,-0.003311,0.027039,0.999588,-0.023365,-0.011472,0.015817,62.674988,21.096573,-146.956253,,,
729606740.373199,1.788593,-0.34616,55.095703,-0.003891,0.024429,1.000992,-0.023365,-0.011472,0.015817,62.674988,21.096573,-146.956253,,,
729606740.376532,1.782549,-0.351604,55.099819,-0.003891,0.024429,1.000992,-0.023365,-0.011472,0.015817,62.674988,21.096573,-146.956253,,,
729606740.379864,1.782549,-0.351604,55.099819,0.000137,0.020386,1.000275,-0.021132,-0.03863,0.013241,62.674988,21.096573,-146.956253,,,
729606740.383179,1.776342,-0.363368,55.104041,0.000137,0.020386,1.000275,-0.021132,-0.03863,0.013241,62.625275,21.135849,-146.890167,,,
729606740.386515,1.770982,-0.373935,55.1083,0.000137,0.020386,1.000275,-0.021132,-0.03863,0.013241,62.625275,21.135849,-146.890167,,,
729606740.389932,1.770982,-0.385924,55.111516,0.006592,0.02095,1.005081,-0.019799,-0.040287,0.009347,62.625275,21.135849,-146.890167,,,
729606740.393242,1.765575,-0.385924,55.111516,0.006592,0.02095,1.005081,-0.019799,-0.040287,0.009347,62.625275,21.135849,-146.890167,,,
729606740.396521,1.759265,-0.392185,55.113714,0.006592,0.02095,1.005081,-0.019799,-0.040287,0.009347,62.625275,21.135849,-146.890167,,,
