Time (sec),Pitch (deg),Roll (deg),Yaw(deg),X-Acceleration (g),Y-Acceleration (g),Z-Acceleration (g),Pitch Rate (deg/sec),Roll Rate (deg/sec),Yaw Rate (deg/sec),Magnetic Field in X direction (uT),Magnetic Field in Y direction (uT),Magnetic Field in Z Direction (uT),Latitude (deg),Longitude (deg),Altitude (m)
729608588.839992,-2.755931,-0.526073,53.55825,0.029495,-0.045853,0.995697,0.006717,0.027468,0.008438,61.977814,25.694504,-146.121033,,,
729608588.843327,-2.759232,-0.520142,53.557126,0.036453,-0.037064,0.98996,0.000267,0.04822,-0.003843,61.977814,25.694504,-146.121033,,,
729608588.846761,-2.759232,-0.520142,53.557126,0.036453,-0.037064,0.98996,0.000267,0.04822,-0.003843,61.977814,25.694504,-146.121033,,,
729608588.849976,-2.760234,-0.504433,53.554545,0.036453,-0.037064,0.98996,0.000267,0.04822,-0.003843,61.977814,25.694504,-146.121033,,,
729608588.853353,-2.765579,-0.49103,53.549843,0.042465,-0.033066,0.987213,-0.008392,0.06995,-0.015828,61.977814,25.694504,-146.121033,,,
729608588.856658,-2.765579,-0.49103,53.549843,0.042465,-0.033066,0.987213,-0.008392,0.06995,-0.015828,61.977814,25.694504,-146.121033,,,
729608588.859991,-2.768857,-0.469283,53.543661,0.042465,-0.033066,0.987213,-0.008392,0.06995,-0.015828,61.977814,25.694504,-146.121033,,,
729608588.863423,-2.774352,-0.449765,53.536364,0.038254,-0.034576,0.980972,-0.011251,0.08876,-0.025376,61.977814,25.694504,-146.121033,,,
729608588.866674,-2.774352,-0.449765,53.536364,0.038254,-0.034576,0.980972,-0.011251,0.08876,-0.025376,61.977814,25.694504,-146.121033,,,
729608588.870021,-2.777527,-0.423707,53.528481,0.038254,-0.034576,0.980972,-0.011251,0.08876,-0.025376,61.977814,25.694504,-146.121033,,,
729608588.873322,-2.780736,-0.400728,53.51948,0.033936,-0.038177,0.979614,-0.00682,0.099186,-0.03084,61.977814,25.694504,-146.121033,,,
729608588.876722,-2.780736,-0.400728,53.51948,0.033936,-0.038177,0.979614,-0.00682,0.099186,-0.03084,61.977814,25.694504,-146.121033,,,
729608588.880024,-2.781602,-0.373127,53.510113,0.033936,-0.038177,0.979614,-0.00682,0.099186,-0.03084,62.379257,25.346191,-145.900116,,,
729608588.88334,-2.782757,-0.349981,53.500147,0.030777,-0.041397,0.977341,0.00045,0.099142,-0.036368,62.379257,25.346191,-145.900116,,,
729608588.886685,-2.782757,-0.349981,53.500147,0.030777,-0.041397,0.977341,0.00045,0.099142,-0.036368,62.379257,25.346191,-145.900116,,,
729608588.890084,-2.78381,-0.322182,53.489587,0.030777,-0.041397,0.977341,0.00045,0.099142,-0.036368,62.379257,25.346191,-145.900116,,,
729608588.893327,-2.788845,-0.2994,53.477786,0.024796,-0.038818,0.967178,-0.010489,0.09944,-0.04056,62.379257,25.346191,-145.900116,,,
729608588.89673,-2.788845,-0.2994,53.477786,0.024796,-0.038818,0.967178,-0.010489,0.09944,-0.04056,62.379257,25.346191,-145.900116,,,
729608588.900045,-2.793797,-0.272997,53.464902,0.024796,-0.038818,0.967178,-0.010489,0.09944,-0.04056,62.379257,25.346191,-145.900116,,,
729608588.903329,-2.801597,-0.252538,53.450203,0.019775,-0.035095,0.962128,-0.021404,0.096077,-0.05112,62.379257,25.346191,-145.900116,,,
729608588.906678,-2.801597,-0.252538,53.450203,0.019775,-0.035095,0.962128,-0.021404,0.096077,-0.05112,62.379257,25.346191,-145.900116,,,
729608588.910013,-2.809193,-0.228076,53.435435,0.019775,-0.035095,0.962128,-0.021404,0.096077,-0.05112,62.379257,25.346191,-145.900116,,,
729608588.913342,-2.818324,-0.212425,53.421258,0.012665,-0.040207,0.964066,-0.029337,0.08759,-0.052432,62.379257,25.346191,-145.900116,,,
729608588.916736,-2.818324,-0.212425,53.421258,0.012665,-0.040207,0.964066,-0.029337,0.08759,-0.052432,62.379257,25.346191,-145.900116,,,
729608588.919998,-2.828884,-0.189433,53.408385,0.012665,-0.040207,0.964066,-0.029337,0.08759,-0.052432,62.511414,25.403702,-146.14447,,,
729608588.923334,-2.837779,-0.176734,53.395736,0.00412,-0.046921,0.966812,-0.039725,0.086908,-0.043405,62.511414,25.403702,-146.14447,,,
729608588.926678,-2.837779,-0.176734,53.395736,0.00412,-0.046921,0.966812,-0.039725,0.086908,-0.043405,62.511414,25.403702,-146.14447,,,
729608588.930059,-2.850619,-0.153432,53.384994,0.00412,-0.046921,0.966812,-0.039725,0.086908,-0.043405,62.511414,25.403702,-146.14447,,,
729608588.933325,-2.861175,-0.140744,53.374733,-0.003571,-0.048706,0.97496,-0.047737,0.084226,-0.035733,62.511414,25.403702,-146.14447,,,
729608588.936681,-2.861175,-0.140744,53.374733,-0.003571,-0.048706,0.97496,-0.047737,0.084226,-0.035733,62.511414,25.403702,-146.14447,,,
729608588.939999,-2.876084,-0.118757,53.365933,-0.003571,-0.048706,0.97496,-0.047737,0.084226,-0.035733,62.511414,25.403702,-146.14447,,,
729608588.943324,-2.888886,-0.106943,53.35702,-0.009155,-0.046936,0.976334,-0.054849,0.075566,-0.030569,62.511414,25.403702,-146.14447,,,
729608588.946688,-2.888886,-0.106943,53.35702,-0.009155,-0.046936,0.976334,-0.054849,0.075566,-0.030569,62.511414,25.403702,-146.14447,,,
729608588.950023,-2.906366,-0.087128,53.347514,-0.009155,-0.046936,0.976334,-0.054849,0.075566,-0.030569,62.511414,25.403702,-146.14447,,,
729608588.953335,-2.922669,-0.074879,53.336964,-0.013306,-0.043976,0.979691,-0.066546,0.071092,-0.038392,62.511414,25.403702,-146.14447,,,
729608588.956732,-2.922669,-0.074879,53.336964,-0.013306,-0.043976,0.979691,-0.066546,0.071092,-0.038392,62.511414,25.403702,-146.14447,,,
729608588.960026,-2.942684,-0.05803,53.326558,-0.013306,-0.043976,0.979691,-0.066546,0.071092,-0.038392,62.720169,25.442627,-146.143219,,,
729608588.963361,-2.963996,-0.048822,53.315855,-0.018173,-0.044144,0.980026,-0.081224,0.054244,-0.03667,62.720169,25.442627,-146.143219,,,
729608588.966697,-2.963996,-0.048822,53.315855,-0.018173,-0.044144,0.980026,-0.081224,0.054244,-0.03667,62.720169,25.442627,-146.143219,,,
729608588.970082,-2.989863,-0.036329,53.305898,-0.018173,-0.044144,0.980026,-0.081224,0.054244,-0.03667,62.720169,25.442627,-146.143219,,,
729608588.973323,-3.016241,-0.030265,53.296544,-0.025269,-0.047516,0.97905,-0.098839,0.041152,-0.033601,62.720169,25.442627,-146.143219,,,
729608588.976694,-3.016241,-0.030265,53.296544,-0.025269,-0.047516,0.97905,-0.098839,0.041152,-0.033601,62.720169,25.442627,-146.143219,,,
729608588.98001,-3.045219,-0.022236,53.287643,-0.025269,-0.047516,0.97905,-0.098839,0.041152,-0.033601,62.720169,25.442627,-146.143219,,,
729608588.983325,-3.072956,-0.019146,53.27936,-0.028336,-0.051605,0.989838,-0.10446,0.024718,-0.029909,62.720169,25.442627,-146.143219,,,
729608588.986668,-3.072956,-0.019146,53.27936,-0.028336,-0.051605,0.989838,-0.10446,0.024718,-0.029909,62.720169,25.442627,-146.143219,,,
729608588.990005,-3.103588,-0.014761,53.272649,-0.028336,-0.051605,0.989838,-0.10446,0.024718,-0.029909,62.720169,25.442627,-146.143219,,,
729608588.993353,-3.133002,-0.013711,53.267526,-0.036469,-0.059341,0.996307,-0.108142,0.013315,-0.017846,62.720169,25.442627,-146.143219,,,
729608588.996743,-3.133002,-0.013711,53.267526,-0.036469,-0.059341,0.996307,-0.108142,0.013315,-0.017846,62.720169,25.442627,-146.143219,,,
729608589.000028,-3.164618,-0.009458,53.265047,-0.036469,-0.059341,0.996307,-0.108142,0.013315,-0.017846,62.720169,25.442627,-146.143219,,,
729608589.003342,-3.19418,-0.004853,53.265548,-0.042313,-0.06488,1.004272,-0.107508,0.020694,-0.001176,62.762619,25.841721,-146.287445,,,
729608589.006376,-3.19418,-0.004853,53.265548,-0.042313,-0.06488,1.004272,-0.107508,0.020694,-0.001176,62.762619,25.841721,-146.287445,,,
729608589.010055,-3.223623,0.00155,53.269097,-0.042313,-0.06488,1.004272,-0.107508,0.020694,-0.001176,62.762619,25.841721,-146.287445,,,
729608589.013337,-3.250803,0.008128,53.275728,-0.039169,-0.067368,1.012192,-0.097004,0.022279,0.022476,62.762619,25.841721,-146.287445,,,
729608589.01667,-3.250803,0.008128,53.275728,-0.039169,-0.067368,1.012192,-0.097004,0.022279,0.022476,62.762619,25.841721,-146.287445,,,
729608589.020087,-3.277198,0.014888,53.28555,-0.039169,-0.067368,1.012192,-0.097004,0.022279,0.022476,62.762619,25.841721,-146.287445,,,
729608589.02332,-3.300439,0.023524,53.298111,-0.038803,-0.067841,1.013138,-0.086481,0.027409,0.042603,62.762619,25.841721,-146.287445,,,
729608589.026679,-3.300439,0.023524,53.298111,-0.038803,-0.067841,1.013138,-0.086481,0.027409,0.042603,62.762619,25.841721,-146.287445,,,
729608589.030021,-3.322969,0.031482,53.312319,-0.038803,-0.067841,1.013138,-0.086481,0.027409,0.042603,62.762619,25.841721,-146.287445,,,
729608589.033333,-3.340997,0.042046,53.327902,-0.032333,-0.06662,1.016235,-0.071445,0.028308,0.050686,62.762619,25.841721,-146.287445,,,
729608589.036699,-3.340997,0.042046,53.327902,-0.032333,-0.06662,1.016235,-0.071445,0.028308,0.050686,62.762619,25.841721,-146.287445,,,
729608589.039997,-3.360133,0.049793,53.344672,-0.032333,-0.06662,1.016235,-0.071445,0.028308,0.050686,62.762619,25.841721,-146.287445,,,
729608589.043031,-3.374583,0.060835,53.362901,-0.025452,-0.065903,1.01207,-0.063999,0.024676,0.060634,62.869141,25.762344,-146.245743,,,
729608589.04679,-3.374583,0.060835,53.362901,-0.025452,-0.065903,1.01207,-0.063999,0.024676,0.060634,62.869141,25.762344,-146.245743,,,
729608589.050006,-3.392107,0.065729,53.380843,-0.025452,-0.065903,1.01207,-0.063999,0.024676,0.060634,62.869141,25.762344,-146.245743,,,
729608589.053337,-3.40615,0.076137,53.398078,-0.020325,-0.061874,1.00679,-0.060098,0.009724,0.059371,62.869141,25.762344,-146.245743,,,
729608589.056719,-3.40615,0.076137,53.398078,-0.020325,-0.061874,1.00679,-0.060098,0.009724,0.059371,62.869141,25.762344,-146.245743,,,
729608589.060016,-3.42353,0.077076,53.414262,-0.020325,-0.061874,1.00679,-0.060098,0.009724,0.059371,62.869141,25.762344,-146.245743,,,
729608589.063358,-3.436979,0.085148,53.430355,-0.011414,-0.055847,1.003448,-0.057105,-0.004076,0.051501,62.869141,25.762344,-146.245743,,,
729608589.066677,-3.436979,0.085148,53.430355,-0.011414,-0.055847,1.003448,-0.057105,-0.004076,0.051501,62.869141,25.762344,-146.245743,,,
729608589.070056,-3.453705,0.082214,53.444067,-0.011414,-0.055847,1.003448,-0.057105,-0.004076,0.051501,62.869141,25.762344,-146.245743,,,
729608589.073347,-3.4696,0.087735,53.456037,-0.006454,-0.059586,0.999741,-0.057256,-0.016025,0.038006,62.869141,25.762344,-146.245743,,,
729608589.076678,-3.4696,0.087735,53.456037,-0.006454,-0.059586,0.999741,-0.057256,-0.016025,0.038006,62.869141,25.762344,-146.245743,,,
729608589.08,-3.486111,0.080926,53.464924,-0.006454,-0.059586,0.999741,-0.057256,-0.016025,0.038006,62.869141,25.762344,-146.245743,,,
729608589.083334,-3.502287,0.08667,53.472897,-0.000885,-0.060211,1.003586,-0.054234,-0.026631,0.025052,62.53894,26.127304,-145.950546,,,
729608589.086687,-3.502287,0.08667,53.472897,-0.000885,-0.060211,1.003586,-0.054234,-0.026631,0.025052,62.53894,26.127304,-145.950546,,,
729608589.089998,-3.515841,0.078194,53.479393,-0.000885,-0.060211,1.003586,-0.054234,-0.026631,0.025052,62.53894,26.127304,-145.950546,,,
729608589.093338,-3.527682,0.081355,53.486592,-0.001862,-0.068146,1.009964,-0.038017,-0.034786,0.021538,62.53894,26.127304,-145.950546,,,
729608589.096664,-3.527682,0.081355,53.486592,-0.001862,-0.068146,1.009964,-0.038017,-0.034786,0.021538,62.53894,26.127304,-145.950546,,,
729608589.099998,-3.534504,0.069847,53.493511,-0.001862,-0.068146,1.009964,-0.038017,-0.034786,0.021538,62.53894,26.127304,-145.950546,,,
729608589.103334,-3.538898,0.072088,53.502187,-0.002518,-0.078461,1.01474,-0.011115,-0.035768,0.024463,62.53894,26.127304,-145.950546,,,
729608589.106724,-3.538898,0.072088,53.502187,-0.002518,-0.078461,1.01474,-0.011115,-0.035768,0.024463,62.53894,26.127304,-145.950546,,,
729608589.11,-3.537485,0.065053,53.511695,-0.002518,-0.078461,1.01474,-0.011115,-0.035768,0.024463,62.53894,26.127304,-145.950546,,,
729608589.113338,-3.53338,0.072175,53.523224,-0.000168,-0.085663,1.022003,0.019222,-0.012214,0.03488,62.53894,26.127304,-145.950546,,,
729608589.116671,-3.53338,0.072175,53.523224,-0.000168,-0.085663,1.022003,0.019222,-0.012214,0.03488,62.53894,26.127304,-145.950546,,,
729608589.120064,-3.523806,0.070583,53.535836,-0.000168,-0.085663,1.022003,0.019222,-0.012214,0.03488,62.53894,26.127304,-145.950546,,,
729608589.123341,-3.512011,0.081236,53.550363,0.000885,-0.088074,1.021652,0.046911,0.004387,0.046344,62.53894,26.127304,-145.950546,,,
729608589.126682,-3.512011,0.081236,53.550363,0.000885,-0.088074,1.021652,0.046911,0.004387,0.046344,62.545868,26.002609,-146.365707,,,
729608589.130001,-3.498192,0.087423,53.564292,0.000885,-0.088074,1.021652,0.046911,0.004387,0.046344,62.545868,26.002609,-146.365707,,,
729608589.133331,-3.48516,0.105262,53.577876,0.004852,-0.080597,1.014359,0.048343,0.040151,0.043661,62.545868,26.002609,-146.365707,,,
729608589.136676,-3.48516,0.105262,53.577876,0.004852,-0.080597,1.014359,0.048343,0.040151,0.043661,62.545868,26.002609,-146.365707,,,
729608589.140008,-3.472671,0.119914,53.589961,0.004852,-0.080597,1.014359,0.048343,0.040151,0.043661,62.545868,26.002609,-146.365707,,,
729608589.14333,-3.460818,0.140722,53.601346,0.010193,-0.074127,1.003845,0.039915,0.061492,0.03715,62.545868,26.002609,-146.365707,,,
729608589.146676,-3.460818,0.140722,53.601346,0.010193,-0.074127,1.003845,0.039915,0.061492,0.03715,62.545868,26.002609,-146.365707,,,
729608589.150005,-3.451308,0.159448,53.611621,0.010193,-0.074127,1.003845,0.039915,0.061492,0.03715,62.545868,26.002609,-146.365707,,,
729608589.153331,-3.44224,0.179403,53.621827,0.004684,-0.075546,0.996063,0.028265,0.067002,0.034979,62.545868,26.002609,-146.365707,,,
729608589.156674,-3.44224,0.179403,53.621827,0.004684,-0.075546,0.996063,0.028265,0.067002,0.034979,62.545868,26.002609,-146.365707,,,
729608589.160098,-3.434392,0.197399,53.632539,0.004684,-0.075546,0.996063,0.028265,0.067002,0.034979,62.545868,26.002609,-146.365707,,,
729608589.163338,-3.426509,0.214522,53.643741,-0.000107,-0.081268,0.992828,0.026815,0.062904,0.038429,62.545868,26.002609,-146.365707,,,
729608589.166683,-3.426509,0.214522,53.643741,-0.000107,-0.081268,0.992828,0.026815,0.062904,0.038429,62.693298,26.296478,-146.156052,,,
729608589.17001,-3.418425,0.230985,53.654518,-0.000107,-0.081268,0.992828,0.026815,0.062904,0.038429,62.693298,26.296478,-146.156052,,,
729608589.173332,-3.410586,0.244086,53.665086,0.000641,-0.079956,0.992416,0.030467,0.049994,0.035762,62.693298,26.296478,-146.156052,,,
729608589.176677,-3.410586,0.244086,53.665086,0.000641,-0.079956,0.992416,0.030467,0.049994,0.035762,62.693298,26.296478,-146.156052,,,
729608589.179996,-3.401585,0.255412,53.675751,0.000641,-0.079956,0.992416,0.030467,0.049994,0.035762,62.693298,26.296478,-146.156052,,,
729608589.183334,-3.397215,0.263965,53.68513,0.001389,-0.074875,0.988159,0.031219,0.03356,0.031345,62.693298,26.296478,-146.156052,,,
729608589.186744,-3.397215,0.263965,53.68513,0.001389,-0.074875,0.988159,0.031219,0.03356,0.031345,62.693298,26.296478,-146.156052,,,
729608589.189998,-3.38874,0.271714,53.693048,0.001389,-0.074875,0.988159,0.031219,0.03356,0.031345,62.693298,26.296478,-146.156052,,,
729608589.193328,-3.38808,0.277462,53.700024,0.005493,-0.06665,0.985245,0.027108,0.02653,0.024371,62.693298,26.296478,-146.156052,,,
729608589.196666,-3.38808,0.277462,53.700024,0.005493,-0.06665,0.985245,0.027108,0.02653,0.024371,62.693298,26.296478,-146.156052,,,
729608589.199994,-3.382346,0.284463,53.706908,0.005493,-0.06665,0.985245,0.027108,0.02653,0.024371,62.693298,26.296478,-146.156052,,,
729608589.203335,-3.386642,0.29058,53.713653,0.00592,-0.065109,0.981171,0.013094,0.027667,0.021059,62.693298,26.296478,-146.156052,,,
729608589.206665,-3.386642,0.29058,53.713653,0.00592,-0.065109,0.981171,0.013094,0.027667,0.021059,62.795197,26.174438,-145.89975,,,
729608589.209993,-3.383956,0.299326,53.721157,0.00592,-0.065109,0.981171,0.013094,0.027667,0.021059,62.795197,26.174438,-145.89975,,,
729608589.21334,-3.388698,0.30663,53.729601,0.004272,-0.066452,0.983917,0.007052,0.03511,0.028354,62.795197,26.174438,-145.89975,,,
729608589.21667,-3.388698,0.30663,53.729601,0.004272,-0.066452,0.983917,0.007052,0.03511,0.028354,62.795197,26.174438,-145.89975,,,
729608589.219989,-3.386211,0.317779,53.738965,0.004272,-0.066452,0.983917,0.007052,0.03511,0.028354,62.795197,26.174438,-145.89975,,,
729608589.223332,-3.387804,0.32458,53.748922,0.004715,-0.069229,0.990997,0.010013,0.042452,0.034072,62.795197,26.174438,-145.89975,,,
729608589.226757,-3.387804,0.32458,53.748922,0.004715,-0.069229,0.990997,0.010013,0.042452,0.034072,62.795197,26.174438,-145.89975,,,
729608589.230029,-3.385503,0.336352,53.760201,0.004715,-0.069229,0.990997,0.010013,0.042452,0.034072,62.795197,26.174438,-145.89975,,,
729608589.233326,-3.388138,0.345125,53.771952,-0.000626,-0.069366,0.989685,0.007267,0.048259,0.039691,62.795197,26.174438,-145.89975,,,
729608589.236668,-3.388138,0.345125,53.771952,-0.000626,-0.069366,0.989685,0.007267,0.048259,0.039691,62.795197,26.174438,-145.89975,,,
729608589.240069,-3.386435,0.359515,53.783862,-0.000626,-0.069366,0.989685,0.007267,0.048259,0.039691,62.795197,26.174438,-145.89975,,,
729608589.24331,-3.386435,0.372641,53.794753,-0.001083,-0.062515,0.989792,-0.00123,0.055356,0.036624,62.795197,26.174438,-145.89975,,,
729608589.246662,-3.392505,0.372641,53.794753,-0.001083,-0.062515,0.989792,-0.00123,0.055356,0.036624,62.997787,26.252411,-146.220428,,,
729608589.250008,-3.394086,0.3885,53.804867,-0.001083,-0.062515,0.989792,-0.00123,0.055356,0.036624,62.997787,26.252411,-146.220428,,,
729608589.253322,-3.403924,0.401896,53.813615,0.002121,-0.059357,0.988663,-0.01022,0.057663,0.029871,62.997787,26.252411,-146.220428,,,
729608589.256677,-3.403924,0.401896,53.813615,0.002121,-0.059357,0.988663,-0.01022,0.057663,0.029871,62.997787,26.252411,-146.220428,,,
729608589.259998,-3.40901,0.416367,53.820656,0.002121,-0.059357,0.988663,-0.01022,0.057663,0.029871,62.997787,26.252411,-146.220428,,,
729608589.263336,-3.40901,0.416367,53.825178,0.002594,-0.059677,0.982147,-0.025617,0.046191,0.013862,62.997787,26.252411,-146.220428,,,
729608589.266717,-3.422291,0.426076,53.825178,0.002594,-0.059677,0.982147,-0.025617,0.046191,0.013862,62.997787,26.252411,-146.220428,,,
729608589.269999,-3.432156,0.436324,53.827072,0.002594,-0.059677,0.982147,-0.025617,0.046191,0.013862,62.997787,26.252411,-146.220428,,,
729608589.273329,-3.446047,0.4403,53.826305,-0.000671,-0.06131,0.985382,-0.038178,0.030865,-0.003889,62.997787,26.252411,-146.220428,,,
729608589.276677,-3.446047,0.4403,53.826305,-0.000671,-0.06131,0.985382,-0.038178,0.030865,-0.003889,62.997787,26.252411,-146.220428,,,
729608589.280009,-3.457221,0.444195,53.823653,-0.000671,-0.06131,0.985382,-0.038178,0.030865,-0.003889,62.997787,26.252411,-146.220428,,,
729608589.283324,-3.457221,0.444195,53.823653,-0.002487,-0.068405,0.992783,-0.033275,0.004753,-0.013866,62.997787,26.252411,-146.220428,,,
729608589.28667,-3.469409,0.439491,53.819024,-0.002487,-0.068405,0.992783,-0.033275,0.004753,-0.013866,62.997787,26.252411,-146.220428,,,
729608589.290002,-3.478537,0.436747,53.813857,-0.002487,-0.068405,0.992783,-0.033275,0.004753,-0.013866,62.982239,26.388077,-146.230759,,,
729608589.293325,-3.488243,0.428607,53.80833,-0.005234,-0.075562,0.998779,-0.02589,-0.007028,-0.018657,62.982239,26.388077,-146.230759,,,
729608589.296722,-3.488243,0.428607,53.80833,-0.005234,-0.075562,0.998779,-0.02589,-0.007028,-0.018657,62.982239,26.388077,-146.230759,,,
729608589.299999,-3.495158,0.426129,53.804162,-0.005234,-0.075562,0.998779,-0.02589,-0.007028,-0.018657,62.982239,26.388077,-146.230759,,,
729608589.303327,-3.495158,0.426129,53.804162,-0.005234,-0.075562,0.998779,-0.013682,0.001353,-0.010677,62.982239,26.388077,-146.230759,,,
729608589.306766,-3.502791,0.421562,53.801327,-0.007904,-0.080673,1.00766,-0.013682,0.001353,-0.010677,62.982239,26.388077,-146.230759,,,
729608589.310022,-3.505163,0.422928,53.800329,-0.007904,-0.080673,1.00766,-0.013682,0.001353,-0.010677,62.982239,26.388077,-146.230759,,,
729608589.313391,-3.505163,0.422928,53.800329,-0.003601,-0.080521,1.014252,0.003027,0.012981,0.002329,62.982239,26.388077,-146.230759,,,
729608589.316661,-3.507287,0.42325,53.800692,-0.003601,-0.080521,1.014252,0.003027,0.012981,0.002329,62.982239,26.388077,-146.230759,,,
729608589.32006,-3.503868,0.428661,53.801733,-0.003601,-0.080521,1.014252,0.003027,0.012981,0.002329,62.982239,26.388077,-146.230759,,,
729608589.323317,-3.503868,0.428661,53.801733,-0.003601,-0.080521,1.014252,0.023201,0.032924,0.003248,62.982239,26.388077,-146.230759,,,
729608589.32667,-3.499379,0.434982,53.802396,0.000305,-0.077469,1.013855,0.023201,0.032924,0.003248,62.982239,26.388077,-146.230759,,,
729608589.329992,-3.491114,0.446036,53.802707,0.000305,-0.077469,1.013855,0.023201,0.032924,0.003248,62.989624,26.245529,-146.241074,,,
729608589.333345,-3.491114,0.446036,53.802707,0.003082,-0.069595,1.012177,0.037161,0.045518,-0.002298,62.989624,26.245529,-146.241074,,,
729608589.336665,-3.480122,0.455734,53.802189,0.003082,-0.069595,1.012177,0.037161,0.045518,-0.002298,62.989624,26.245529,-146.241074,,,
729608589.339993,-3.467893,0.469308,53.801174,0.003082,-0.069595,1.012177,0.037161,0.045518,-0.002298,62.989624,26.245529,-146.241074,,,
729608589.343326,-3.467893,0.469308,53.801174,0.003082,-0.069595,1.012177,0.046186,0.051673,-0.007294,62.989624,26.245529,-146.241074,,,
729608589.346664,-3.454811,0.479453,53.799358,0.006363,-0.063065,1.006805,0.046186,0.051673,-0.007294,62.989624,26.245529,-146.241074,,,
729608589.349991,-3.441754,0.493332,53.796593,0.006363,-0.063065,1.006805,0.046186,0.051673,-0.007294,62.989624,26.245529,-146.241074,,,
729608589.353319,-3.441754,0.493332,53.796593,0.006363,-0.063065,1.006805,0.044472,0.052345,-0.018846,62.989624,26.245529,-146.241074,,,
729608589.356682,-3.429828,0.50459,53.791655,0.004517,-0.057709,0.997574,0.044472,0.052345,-0.018846,62.989624,26.245529,-146.241074,,,
729608589.360053,-3.419763,0.519431,53.784285,0.004517,-0.057709,0.997574,0.044472,0.052345,-0.018846,62.989624,26.245529,-146.241074,,,
729608589.363374,-3.419763,0.519431,53.784285,0.004517,-0.057709,0.997574,0.022556,0.058681,-0.033898,62.989624,26.245529,-146.241074,,,
729608589.366672,-3.415151,0.532423,53.774778,0.006805,-0.052094,0.990372,0.022556,0.058681,-0.033898,62.989624,26.245529,-146.241074,,,
729608589.36999,-3.411824,0.547973,53.764776,0.006805,-0.052094,0.990372,0.022556,0.058681,-0.033898,63.122711,26.188385,-146.189972,,,
729608589.373328,-3.411824,0.547973,53.764776,0.006805,-0.052094,0.990372,0.001953,0.057194,-0.036644,63.122711,26.188385,-146.189972,,,
729608589.376668,-3.415457,0.561387,53.754272,-0.001007,-0.052307,0.985916,0.001953,0.057194,-0.036644,63.122711,26.188385,-146.189972,,,
729608589.37999,-3.41785,0.576338,53.743021,-0.001007,-0.052307,0.985916,0.001953,0.057194,-0.036644,63.122711,26.188385,-146.189972,,,
729608589.383355,-3.41785,0.576338,53.743021,-0.001007,-0.052307,0.985916,-0.013442,0.05951,-0.045913,63.122711,26.188385,-146.189972,,,
729608589.386702,-3.427662,0.590424,53.730292,-0.003235,-0.052292,0.985809,-0.013442,0.05951,-0.045913,63.122711,26.188385,-146.189972,,,
729608589.389993,-3.433856,0.604903,53.715589,-0.003235,-0.052292,0.985809,-0.013442,0.05951,-0.045913,63.122711,26.188385,-146.189972,,,
729608589.3934,-3.433856,0.604903,53.715589,-0.003235,-0.052292,0.985809,-0.024259,0.052731,-0.061027,63.122711,26.188385,-146.189972,,,
729608589.396654,-3.44752,0.616621,53.698904,-0.002182,-0.051544,0.985992,-0.024259,0.052731,-0.061027,63.122711,26.188385,-146.189972,,,
729608589.399993,-3.456785,0.628036,53.680946,-0.002182,-0.051544,0.985992,-0.024259,0.052731,-0.061027,63.122711,26.188385,-146.189972,,,
729608589.403327,-3.456785,0.628036,53.680946,-0.002182,-0.051544,0.985992,-0.024259,0.052731,-0.061027,63.122711,26.188385,-146.189972,,,
729608589.40669,-3.470784,0.635587,53.662016,-0.008667,-0.053162,0.986343,-0.028697,0.044513,-0.069738,63.122711,26.188385,-146.189972,,,
729608589.409983,-3.477987,0.64638,53.643128,-0.008667,-0.053162,0.986343,-0.028697,0.044513,-0.069738,63.503235,26.196793,-146.42955,,,
729608589.413394,-3.477987,0.64638,53.643128,-0.008667,-0.053162,0.986343,-0.016915,0.041716,-0.06554,63.503235,26.196793,-146.42955,,,
729608589.416654,-3.48646,0.652815,53.62438,-0.012802,-0.058365,0.99588,-0.016915,0.041716,-0.06554,63.503235,26.196793,-146.42955,,,
729608589.419993,-3.489379,0.662666,53.606265,-0.012802,-0.058365,0.99588,-0.016915,0.041716,-0.06554,63.503235,26.196793,-146.42955,,,
729608589.423326,-3.489379,0.662666,53.606265,-0.012802,-0.058365,0.99588,-0.016915,0.041716,-0.061113,63.503235,26.196793,-146.42955,,,
729608589.426743,-3.491378,0.666801,53.588663,-0.012314,-0.063263,0.997574,-0.003036,0.040229,-0.061113,63.503235,26.196793,-146.42955,,,
729608589.429992,-3.491635,0.677236,53.572129,-0.012314,-0.063263,0.997574,-0.003036,0.040229,-0.061113,63.503235,26.196793,-146.42955,,,
729608589.433326,-3.491635,0.677236,53.572129,-0.012314,-0.063263,0.997574,-0.003036,0.040229,-0.061113,63.503235,26.196793,-146.42955,,,
729608589.436675,-3.491184,0.683223,53.5554,-0.014526,-0.059479,0.993576,0.001324,0.046511,-0.056161,63.503235,26.196793,-146.42955,,,
729608589.439981,-3.491821,0.695392,53.539009,-0.014526,-0.059479,0.993576,0.001324,0.046511,-0.056161,63.503235,26.196793,-146.42955,,,
729608589.443395,-3.491821,0.695392,53.539009,-0.014526,-0.059479,0.993576,0.001324,0.046511,-0.056161,63.503235,26.196793,-146.42955,,,
729608589.44669,-3.491989,0.702267,53.52231,-0.013199,-0.052475,0.989517,-0.006333,0.052798,-0.056693,63.503235,26.196793,-146.42955,,,
729608589.450007,-3.49603,0.71639,53.506787,-0.013199,-0.052475,0.989517,-0.006333,0.052798,-0.056693,63.503235,26.196793,-146.42955,,,
729608589.453391,-3.49603,0.71639,53.506787,-0.013199,-0.052475,0.989517,-0.006333,0.052798,-0.056693,63.547073,26.088303,-146.306763,,,
729608589.456677,-3.50013,0.727219,53.491896,-0.01709,-0.053406,0.985779,-0.022358,0.061497,-0.050293,63.547073,26.088303,-146.306763,,,
729608589.460006,-3.508598,0.744533,53.478294,-0.01709,-0.053406,0.985779,-0.022358,0.061497,-0.050293,63.547073,26.088303,-146.306763,,,
729608589.463334,-3.508598,0.744533,53.478294,-0.01709,-0.053406,0.985779,-0.022358,0.061497,-0.050293,63.547073,26.088303,-146.306763,,,
729608589.466665,-3.516004,0.759747,53.465421,-0.014175,-0.054474,0.983749,-0.031,0.068377,-0.047206,63.547073,26.088303,-146.306763,,,
729608589.469996,-3.52583,0.777421,53.453254,-0.014175,-0.054474,0.983749,-0.031,0.068377,-0.047206,63.547073,26.088303,-146.306763,,,
729608589.473367,-3.52583,0.777421,53.453254,-0.014175,-0.054474,0.983749,-0.031,0.068377,-0.047206,63.547073,26.088303,-146.306763,,,
729608589.476735,-3.533765,0.789829,53.440594,-0.010818,-0.051285,0.980621,-0.033908,0.063314,-0.047685,63.547073,26.088303,-146.306763,,,
729608589.479985,-3.545958,0.805491,53.427693,-0.010818,-0.051285,0.980621,-0.033908,0.063314,-0.047685,63.547073,26.088303,-146.306763,,,
729608589.483374,-3.545958,0.805491,53.427693,-0.010818,-0.051285,0.980621,-0.033908,0.063314,-0.047685,63.547073,26.088303,-146.306763,,,
729608589.486664,-3.55739,0.818767,53.413943,-0.01062,-0.048279,0.978928,-0.049834,0.062194,-0.052981,63.547073,26.088303,-146.306763,,,
729608589.489999,-3.573535,0.834474,53.399136,-0.01062,-0.048279,0.978928,-0.049834,0.062194,-0.052981,63.547073,26.088303,-146.306763,,,
729608589.493368,-3.573535,0.834474,53.399136,-0.01062,-0.048279,0.978928,-0.049834,0.062194,-0.052981,63.608887,26.105392,-146.087357,,,
729608589.496656,-3.590836,0.848415,53.384716,-0.013016,-0.047775,0.975235,-0.063444,0.056758,-0.055021,63.608887,26.105392,-146.087357,,,
729608589.499998,-3.611955,0.862186,53.371553,-0.013016,-0.047775,0.975235,-0.063444,0.056758,-0.055021,63.608887,26.105392,-146.087357,,,
729608589.503509,-3.611955,0.862186,53.371553,-0.013016,-0.047775,0.975235,-0.063444,0.056758,-0.055021,63.608887,26.105392,-146.087357,,,
729608589.506657,-3.634187,0.875469,53.35918,-0.013672,-0.051773,0.977203,-0.077986,0.053861,-0.046112,63.608887,26.105392,-146.087357,,,
729608589.51,-3.657416,0.889655,53.347096,-0.013672,-0.051773,0.977203,-0.077986,0.053861,-0.046112,63.608887,26.105392,-146.087357,,,
729608589.513361,-3.657416,0.889655,53.347096,-0.013672,-0.051773,0.977203,-0.077986,0.053861,-0.046112,63.608887,26.105392,-146.087357,,,
729608589.516721,-3.680155,0.902452,53.334082,-0.01268,-0.053055,0.987305,-0.078037,0.052409,-0.047154,63.608887,26.105392,-146.087357,,,
729608589.519991,-3.702499,0.914497,53.320968,-0.01268,-0.053055,0.987305,-0.078037,0.052409,-0.047154,63.608887,26.105392,-146.087357,,,
729608589.523383,-3.702499,0.914497,53.320968,-0.01268,-0.053055,0.987305,-0.078037,0.052409,-0.047154,63.608887,26.105392,-146.087357,,,
729608589.526686,-3.722476,0.924556,53.309038,-0.017288,-0.052826,0.990952,-0.077812,0.043357,-0.044273,63.608887,26.105392,-146.087357,,,
729608589.529995,-3.744234,0.93344,53.298222,-0.017288,-0.052826,0.990952,-0.077812,0.043357,-0.044273,63.608887,26.105392,-146.087357,,,
729608589.53333,-3.744234,0.93344,53.298222,-0.017288,-0.052826,0.990952,-0.077812,0.043357,-0.044273,63.716309,26.257034,-146.247147,,,
729608589.536677,-3.762247,0.940255,53.28796,-0.023651,-0.057129,0.995651,-0.070926,0.030375,-0.037877,63.716309,26.257034,-146.247147,,,
729608589.539988,-3.78217,0.945514,53.278185,-0.023651,-0.057129,0.995651,-0.070926,0.030375,-0.037877,63.716309,26.257034,-146.247147,,,
729608589.543457,-3.78217,0.945514,53.278185,-0.023651,-0.057129,0.995651,-0.070926,0.030375,-0.037877,63.716309,26.257034,-146.247147,,,
729608589.546644,-3.799178,0.949498,53.26938,-0.021194,-0.058487,1.001572,-0.071419,0.019309,-0.034165,63.716309,26.257034,-146.247147,,,
729608589.549998,-3.819635,0.953752,53.262081,-0.021194,-0.058487,1.001572,-0.071419,0.019309,-0.034165,63.716309,26.257034,-146.247147,,,
729608589.553344,-3.819635,0.953752,53.262081,-0.021194,-0.058487,1.001572,-0.071419,0.019309,-0.034165,63.716309,26.257034,-146.247147,,,
729608589.556739,-3.837054,0.957122,53.256363,-0.029282,-0.059555,1.002792,-0.072711,0.020136,-0.023823,63.716309,26.257034,-146.247147,,,
729608589.559982,-3.858228,0.962362,53.252179,-0.029282,-0.059555,1.002792,-0.072711,0.020136,-0.023823,63.716309,26.257034,-146.247147,,,
729608589.563327,-3.858228,0.962362,53.252179,-0.029282,-0.059555,1.002792,-0.072711,0.020136,-0.023823,63.716309,26.257034,-146.247147,,,
729608589.56667,-3.874421,0.966225,53.249302,-0.032822,-0.06163,1.006424,-0.07321,0.022982,-0.009663,63.716309,26.257034,-146.247147,,,
729608589.569988,-3.896649,0.973051,53.248316,-0.032822,-0.06163,1.006424,-0.07321,0.022982,-0.009663,63.716309,26.257034,-146.247147,,,
729608589.573318,-3.896649,0.973051,53.248316,-0.032822,-0.06163,1.006424,-0.07321,0.022982,-0.009663,63.764206,26.643387,-146.302612,,,
729608589.576677,-3.91396,0.979366,53.249541,-0.03006,-0.06366,1.008926,-0.080222,0.029874,0.001656,63.764206,26.643387,-146.302612,,,
729608589.579992,-3.937497,0.987502,53.252872,-0.03006,-0.06366,1.008926,-0.080222,0.029874,0.001656,63.764206,26.643387,-146.302612,,,
729608589.583349,-3.937497,0.987502,53.252872,-0.03006,-0.06366,1.008926,-0.080222,0.029874,0.001656,63.764206,26.643387,-146.302612,,,
729608589.586678,-3.955661,0.993692,53.25726,-0.032913,-0.061066,1.00679,-0.080466,0.02806,0.011338,63.764206,26.643387,-146.302612,,,
729608589.589991,-3.977896,0.999156,53.262387,-0.032913,-0.061066,1.00679,-0.080466,0.02806,0.011338,63.764206,26.643387,-146.302612,,,
729608589.593322,-3.977896,0.999156,53.262387,-0.032913,-0.061066,1.00679,-0.080466,0.02806,0.011338,63.764206,26.643387,-146.302612,,,
729608589.596673,-3.994809,1.000295,53.267451,-0.028046,-0.059372,1.006454,-0.075218,0.01113,0.013677,63.764206,26.643387,-146.302612,,,
729608589.599988,-4.016469,0.999904,53.272219,-0.028046,-0.059372,1.006454,-0.075218,0.01113,0.013677,63.764206,26.643387,-146.302612,,,
729608589.60334,-4.016469,0.999904,53.272219,-0.028046,-0.059372,1.006454,-0.075218,0.01113,0.013677,63.764206,26.643387,-146.302612,,,
729608589.606673,-4.032264,0.995824,53.276823,-0.027954,-0.059265,1.006989,-0.071268,-0.008033,0.013069,63.764206,26.643387,-146.302612,,,
729608589.609984,-4.050786,0.989452,53.281015,-0.027954,-0.059265,1.006989,-0.071268,-0.008033,0.013069,63.764206,26.643387,-146.302612,,,
729608589.613323,-4.050786,0.989452,53.281015,-0.027954,-0.059265,1.006989,-0.071268,-0.008033,0.013069,63.764206,26.643387,-146.302612,,,
729608589.616679,-4.062753,0.981238,53.284245,-0.025406,-0.058105,1.007721,-0.05633,-0.033613,0.010398,63.704147,26.550735,-146.370361,,,
729608589.619991,-4.076639,0.967982,53.28746,-0.025406,-0.058105,1.007721,-0.05633,-0.033613,0.010398,63.704147,26.550735,-146.370361,,,
729608589.623417,-4.076639,0.967982,53.28746,-0.025406,-0.058105,1.007721,-0.05633,-0.033613,0.010398,63.704147,26.550735,-146.370361,,,
729608589.626671,-4.084361,0.954463,53.291545,-0.02594,-0.061523,1.012665,-0.038449,-0.049049,0.012948,63.704147,26.550735,-146.370361,,,
729608589.630085,-4.092526,0.938824,53.296471,-0.02594,-0.061523,1.012665,-0.038449,-0.049049,0.012948,63.704147,26.550735,-146.370361,,,
729608589.633341,-4.092526,0.938824,53.296471,-0.02594,-0.061523,1.012665,-0.038449,-0.049049,0.012948,63.704147,26.550735,-146.370361,,,
729608589.636735,-4.092945,0.925639,53.302362,-0.025848,-0.066681,1.021469,-0.013745,-0.053899,0.019057,63.704147,26.550735,-146.370361,,,
729608589.639984,-4.094205,0.909931,53.308504,-0.025848,-0.066681,1.021469,-0.013745,-0.053899,0.019057,63.704147,26.550735,-146.370361,,,
729608589.643336,-4.094205,0.909931,53.308504,-0.025848,-0.066681,1.021469,-0.013745,-0.053899,0.019057,63.704147,26.550735,-146.370361,,,
729608589.646668,-4.090583,0.900757,53.315143,-0.023132,-0.069153,1.024521,0.003964,-0.047012,0.018729,63.704147,26.550735,-146.370361,,,
729608589.650099,-4.08878,0.888992,53.320922,-0.023132,-0.069153,1.024521,0.003964,-0.047012,0.018729,63.704147,26.550735,-146.370361,,,
729608589.653351,-4.08878,0.888992,53.320922,-0.023132,-0.069153,1.024521,0.003964,-0.047012,0.018729,63.704147,26.550735,-146.370361,,,
729608589.656688,-4.084038,0.883835,53.326647,-0.022461,-0.065536,1.024155,0.011236,-0.027984,0.01789,63.613892,26.575333,-146.088013,,,
729608589.660073,-4.081341,0.875706,53.331747,-0.022461,-0.065536,1.024155,0.011236,-0.027984,0.01789,63.613892,26.575333,-146.088013,,,
729608589.663436,-4.081341,0.875706,53.331747,-0.022461,-0.065536,1.024155,0.011236,-0.027984,0.01789,63.613892,26.575333,-146.088013,,,
729608589.666705,-4.075543,0.873629,53.336535,-0.020676,-0.063171,1.018234,0.012114,-0.025542,0.013609,63.613892,26.575333,-146.088013,,,
729608589.670013,-4.07288,0.8671,53.340504,-0.020676,-0.063171,1.018234,0.012114,-0.025542,0.013609,63.613892,26.575333,-146.088013,,,
729608589.673334,-4.07288,0.8671,53.340504,-0.020676,-0.063171,1.018234,0.012114,-0.025542,0.013609,63.613892,26.575333,-146.088013,,,
729608589.676521,-4.068066,0.866771,53.343548,-0.019943,-0.062866,1.011063,0.004253,-0.014911,0.007596,63.613892,26.575333,-146.088013,,,
729608589.680022,-4.066454,0.863611,53.344468,-0.019943,-0.062866,1.011063,0.004253,-0.014911,0.007596,63.613892,26.575333,-146.088013,,,
729608589.683324,-4.066454,0.863611,53.344468,-0.019943,-0.062866,1.011063,0.004253,-0.014911,0.007596,63.613892,26.575333,-146.088013,,,
729608589.686674,-4.060735,0.86317,53.345261,-0.018463,-0.061096,1.011627,0.009212,-0.010337,0.002037,63.613892,26.575333,-146.088013,,,
729608589.689999,-4.05603,0.857861,53.346571,-0.018463,-0.061096,1.011627,0.009212,-0.010337,0.002037,63.613892,26.575333,-146.088013,,,
729608589.693336,-4.05603,0.857861,53.346571,-0.018463,-0.061096,1.011627,0.009212,-0.010337,0.002037,63.613892,26.575333,-146.088013,,,
729608589.696632,-4.046783,0.854455,53.348604,-0.026611,-0.067566,1.007767,0.021561,-0.019634,0.006281,63.645157,26.642761,-146.286697,,,
729608589.700007,-4.039009,0.847756,53.35033,-0.026611,-0.067566,1.007767,0.021561,-0.019634,0.006281,63.645157,26.642761,-146.286697,,,
729608589.703332,-4.039009,0.847756,53.35033,-0.026611,-0.067566,1.007767,0.021561,-0.019634,0.006281,63.645157,26.642761,-146.286697,,,
729608589.706671,-4.028021,0.842296,53.351807,-0.02301,-0.070648,1.006607,0.029477,-0.025884,0.003914,63.645157,26.642761,-146.286697,,,
729608589.710045,-4.018832,0.833688,53.352683,-0.02301,-0.070648,1.006607,0.029477,-0.025884,0.003914,63.645157,26.642761,-146.286697,,,
729608589.71337,-4.018832,0.833688,53.352683,-0.02301,-0.070648,1.006607,0.029477,-0.025884,0.003914,63.645157,26.642761,-146.286697,,,
729608589.716706,-4.008086,0.827446,53.354003,-0.024033,-0.069214,1.002914,0.036187,-0.029766,0.004893,63.645157,26.642761,-146.286697,,,
729608589.719998,-3.999041,0.818591,53.356146,-0.024033,-0.069214,1.002914,0.036187,-0.029766,0.004893,63.645157,26.642761,-146.286697,,,
729608589.723333,-3.999041,0.818591,53.356146,-0.024033,-0.069214,1.002914,0.036187,-0.029766,0.004893,63.645157,26.642761,-146.286697,,,
729608589.72669,-3.99032,0.812266,53.359588,-0.024689,-0.067047,0.997299,0.028718,-0.026774,0.009696,63.645157,26.642761,-146.286697,,,
729608589.729992,-3.983428,0.803892,53.363965,-0.024689,-0.067047,0.997299,0.028718,-0.026774,0.009696,63.645157,26.642761,-146.286697,,,
729608589.733326,-3.983428,0.803892,53.363965,-0.024689,-0.067047,0.997299,0.028718,-0.026774,0.009696,63.645157,26.642761,-146.286697,,,
729608589.736667,-3.975772,0.797213,53.369227,-0.020493,-0.068253,0.994415,0.021289,-0.025173,0.015349,63.645157,26.642761,-146.286697,,,
729608589.73999,-3.968716,0.788451,53.374774,-0.020493,-0.068253,0.994415,0.021289,-0.025173,0.015349,63.493469,26.458344,-146.533066,,,
729608589.743317,-3.968716,0.788451,53.374774,-0.020493,-0.068253,0.994415,0.021289,-0.025173,0.015349,63.493469,26.458344,-146.533066,,,
729608589.746656,-3.959614,0.781625,53.381234,-0.019455,-0.072464,0.997574,0.027809,-0.030863,0.021652,63.493469,26.458344,-146.533066,,,
729608589.750054,-3.951377,0.772493,53.388337,-0.019455,-0.072464,0.997574,0.027809,-0.030863,0.021652,63.493469,26.458344,-146.533066,,,
729608589.753333,-3.951377,0.772493,53.388337,-0.019455,-0.072464,0.997574,0.027809,-0.030863,0.021652,63.493469,26.458344,-146.533066,,,
729608589.756672,-3.941286,0.764805,53.395666,-0.018021,-0.075912,0.997375,0.027869,-0.032584,0.025445,63.493469,26.458344,-146.533066,,,
729608589.760001,-3.932683,0.754959,53.402169,-0.018021,-0.075912,0.997375,0.027869,-0.032584,0.025445,63.493469,26.458344,-146.533066,,,
729608589.763351,-3.932683,0.754959,53.402169,-0.018021,-0.075912,0.997375,0.027869,-0.032584,0.025445,63.493469,26.458344,-146.533066,,,
729608589.766673,-3.920927,0.746026,53.407514,-0.015274,-0.074371,0.996338,0.036278,-0.033396,0.016667,63.493469,26.458344,-146.533066,,,
729608589.77,-3.910565,0.735895,53.411957,-0.015274,-0.074371,0.996338,0.036278,-0.033396,0.016667,63.493469,26.458344,-146.533066,,,
729608589.77333,-3.910565,0.735895,53.411957,-0.015274,-0.074371,0.996338,0.036278,-0.033396,0.016667,63.493469,26.458344,-146.533066,,,
729608589.77667,-3.898284,0.729668,53.415983,-0.016083,-0.072403,0.998383,0.039397,-0.030692,0.012144,63.493469,26.458344,-146.533066,,,
729608589.780007,-3.886178,0.721377,53.419397,-0.016083,-0.072403,0.998383,0.039397,-0.030692,0.012144,63.404022,26.48967,-146.549377,,,
729608589.783377,-3.886178,0.721377,53.419397,-0.016083,-0.072403,0.998383,0.039397,-0.030692,0.012144,63.404022,26.48967,-146.549377,,,
729608589.78669,-3.87404,0.718255,53.422833,-0.017136,-0.076523,0.998413,0.046609,-0.024233,0.010771,63.404022,26.48967,-146.549377,,,
729608589.789999,-3.861307,0.712141,53.426539,-0.017136,-0.076523,0.998413,0.046609,-0.024233,0.010771,63.404022,26.48967,-146.549377,,,
729608589.79333,-3.861307,0.712141,53.426539,-0.017136,-0.076523,0.998413,0.046609,-0.024233,0.010771,63.404022,26.48967,-146.549377,,,
729608589.796697,-3.849876,0.710456,53.431407,-0.016373,-0.079834,0.992889,0.042264,-0.014284,0.014862,63.404022,26.48967,-146.549377,,,
729608589.8,-3.83927,0.707669,53.436996,-0.016373,-0.079834,0.992889,0.042264,-0.014284,0.014862,63.404022,26.48967,-146.549377,,,
729608589.803343,-3.83927,0.707669,53.436996,-0.016373,-0.079834,0.992889,0.042264,-0.014284,0.014862,63.404022,26.48967,-146.549377,,,
729608589.806687,-3.831509,0.710492,53.443861,-0.018555,-0.077621,0.984879,0.029611,-0.002504,0.023813,63.404022,26.48967,-146.549377,,,
729608589.809998,-3.825935,0.710631,53.45129,-0.018555,-0.077621,0.984879,0.029611,-0.002504,0.023813,63.404022,26.48967,-146.549377,,,
729608589.813328,-3.825935,0.710631,53.45129,-0.018555,-0.077621,0.984879,0.029611,-0.002504,0.023813,63.404022,26.48967,-146.549377,,,
729608589.81667,-3.821693,0.713966,53.459741,-0.013901,-0.073669,0.98114,0.017308,0.002423,0.026694,63.404022,26.48967,-146.549377,,,
729608589.820037,-3.817569,0.713907,53.468908,-0.013901,-0.073669,0.98114,0.017308,0.002423,0.026694,63.411346,26.404861,-146.503265,,,
729608589.823328,-3.817569,0.713907,53.468908,-0.013901,-0.073669,0.98114,0.017308,0.002423,0.026694,63.411346,26.404861,-146.503265,,,
729608589.82667,-3.815141,0.716778,53.479161,-0.013458,-0.074875,0.979416,0.010575,0.001952,0.034237,63.411346,26.404861,-146.503265,,,
729608589.829999,-3.811514,0.717141,53.489888,-0.013458,-0.074875,0.979416,0.010575,0.001952,0.034237,63.411346,26.404861,-146.503265,,,
729608589.833437,-3.811514,0.717141,53.489888,-0.013458,-0.074875,0.979416,0.010575,0.001952,0.034237,63.411346,26.404861,-146.503265,,,
729608589.836674,-3.809566,0.718213,53.501913,-0.01622,-0.074661,0.982101,0.016949,-0.000638,0.039172,63.411346,26.404861,-146.503265,,,
729608589.840001,-3.803812,0.716094,53.515405,-0.01622,-0.074661,0.982101,0.016949,-0.000638,0.039172,63.411346,26.404861,-146.503265,,,
729608589.843346,-3.803812,0.716094,53.515405,-0.01622,-0.074661,0.982101,0.016949,-0.000638,0.039172,63.411346,26.404861,-146.503265,,,
729608589.846667,-3.799689,0.714796,53.530701,-0.01474,-0.075836,0.982056,0.023538,-0.010937,0.049771,63.411346,26.404861,-146.503265,,,
729608589.849997,-3.793224,0.713346,53.547737,-0.01474,-0.075836,0.982056,0.023538,-0.010937,0.049771,63.411346,26.404861,-146.503265,,,
729608589.853326,-3.793224,0.713346,53.547737,-0.01474,-0.075836,0.982056,0.023538,-0.010937,0.049771,63.411346,26.404861,-146.503265,,,
729608589.856692,-3.788941,0.714408,53.566772,-0.015778,-0.073181,0.981598,0.02216,-0.002101,0.06256,63.411346,26.404861,-146.503265,,,
729608589.860004,-3.78439,0.71601,53.586553,-0.015778,-0.073181,0.981598,0.02216,-0.002101,0.06256,63.411346,26.404861,-146.503265,,,
729608589.863337,-3.78439,0.71601,53.586553,-0.015778,-0.073181,0.981598,0.02216,-0.002101,0.06256,63.401108,26.329468,-146.569534,,,
729608589.866681,-3.784153,0.720413,53.606778,-0.008194,-0.066284,0.981079,0.006675,0.00946,0.066936,63.401108,26.329468,-146.569534,,,
729608589.869995,-3.782877,0.724527,53.627193,-0.008194,-0.066284,0.981079,0.006675,0.00946,0.066936,63.401108,26.329468,-146.569534,,,
729608589.873392,-3.782877,0.724527,53.627193,-0.008194,-0.066284,0.981079,0.006675,0.00946,0.066936,63.401108,26.329468,-146.569534,,,
729608589.876673,-3.786842,0.730553,53.646961,-0.008026,-0.063843,0.98262,-0.001067,0.016721,0.068411,63.401108,26.329468,-146.569534,,,
729608589.879997,-3.787587,0.735125,53.665722,-0.008026,-0.063843,0.98262,-0.001067,0.016721,0.068411,63.401108,26.329468,-146.569534,,,
729608589.883335,-3.787587,0.735125,53.665722,-0.008026,-0.063843,0.98262,-0.001067,0.016721,0.068411,63.401108,26.329468,-146.569534,,,
729608589.886761,-3.791118,0.740552,53.682818,-0.003052,-0.063522,0.986389,0.002827,0.012798,0.057741,63.401108,26.329468,-146.569534,,,
729608589.889994,-3.789408,0.744364,53.697575,-0.003052,-0.063522,0.986389,0.002827,0.012798,0.057741,63.401108,26.329468,-146.569534,,,
729608589.893342,-3.789408,0.744364,53.697575,-0.003052,-0.063522,0.986389,0.002827,0.012798,0.057741,63.401108,26.329468,-146.569534,,,
729608589.89666,-3.788906,0.74944,53.709924,0.000717,-0.063461,0.991028,0.011203,0.013854,0.042982,63.401108,26.329468,-146.569534,,,
729608589.899993,-3.783949,0.754349,53.720025,0.000717,-0.063461,0.991028,0.011203,0.013854,0.042982,63.401108,26.329468,-146.569534,,,
729608589.90333,-3.783949,0.754349,53.720025,0.000717,-0.063461,0.991028,0.011203,0.013854,0.042982,63.463531,26.189133,-146.504562,,,
729608589.906684,-3.781287,0.762044,53.728722,-0.002365,-0.061157,0.994934,0.020973,0.028557,0.028633,63.463531,26.189133,-146.504562,,,
729608589.909991,-3.775865,0.772649,53.735673,-0.002365,-0.061157,0.994934,0.020973,0.028557,0.028633,63.463531,26.189133,-146.504562,,,
729608589.913325,-3.775865,0.772649,53.735673,-0.002365,-0.061157,0.994934,0.020973,0.028557,0.028633,63.463531,26.189133,-146.504562,,,
729608589.916669,-3.773314,0.78435,53.741144,-0.002258,-0.056931,0.992065,0.019123,0.041145,0.01583,63.463531,26.189133,-146.504562,,,
729608589.919987,-3.76748,0.794774,53.745427,-0.002258,-0.056931,0.992065,0.019123,0.041145,0.01583,63.463531,26.189133,-146.504562,,,
729608589.923332,-3.76748,0.794774,53.745427,-0.002258,-0.056931,0.992065,0.019123,0.041145,0.01583,63.463531,26.189133,-146.504562,,,
729608589.926728,-3.765867,0.807627,53.748458,-0.005096,-0.058899,0.985367,0.015537,0.045463,0.008863,63.463531,26.189133,-146.504562,,,
729608589.929988,-3.763724,0.823736,53.750133,-0.005096,-0.058899,0.985367,0.015537,0.045463,0.008863,63.463531,26.189133,-146.504562,,,
729608589.933373,-3.763724,0.823736,53.750133,-0.005096,-0.058899,0.985367,0.015537,0.045463,0.008863,63.463531,26.189133,-146.504562,,,
729608589.936665,-3.765907,0.841772,53.750565,-0.010971,-0.056839,0.987518,0.003262,0.065459,0.000849,63.463531,26.189133,-146.504562,,,
729608589.939993,-3.766509,0.857626,53.749972,-0.010971,-0.056839,0.987518,0.003262,0.065459,0.000849,63.463531,26.189133,-146.504562,,,
729608589.943341,-3.766509,0.857626,53.749972,-0.010971,-0.056839,0.987518,0.003262,0.065459,0.000849,63.657974,26.230255,-146.411179,,,
729608589.946654,-3.769345,0.86907,53.747883,-0.020767,-0.05481,0.977676,-0.005762,0.045333,-0.007104,63.657974,26.230255,-146.411179,,,
729608589.949993,-3.772896,0.878223,53.74384,-0.020767,-0.05481,0.977676,-0.005762,0.045333,-0.007104,63.657974,26.230255,-146.411179,,,
729608589.953431,-3.772896,0.878223,53.74384,-0.020767,-0.05481,0.977676,-0.005762,0.045333,-0.007104,63.657974,26.230255,-146.411179,,,
729608589.956668,-3.777492,0.882607,53.738117,-0.026291,-0.055832,0.98111,-0.014442,0.024189,-0.021748,63.657974,26.230255,-146.411179,,,
729608589.96,-3.782005,0.886033,53.732947,-0.026291,-0.055832,0.98111,-0.014442,0.024189,-0.021748,63.657974,26.230255,-146.411179,,,
729608589.96333,-3.782005,0.886033,53.732947,-0.026291,-0.055832,0.98111,-0.014442,0.024189,-0.021748,63.657974,26.230255,-146.411179,,,
729608589.966742,-3.786076,0.884371,53.728623,-0.03392,-0.064072,0.985458,-0.015002,0.007932,-0.016367,63.657974,26.230255,-146.411179,,,
729608589.969989,-3.788595,0.882087,53.724913,-0.03392,-0.064072,0.985458,-0.015002,0.007932,-0.016367,63.657974,26.230255,-146.411179,,,
729608589.973345,-3.788595,0.882087,53.724913,-0.03392,-0.064072,0.985458,-0.015002,0.007932,-0.016367,63.657974,26.230255,-146.411179,,,
729608589.976692,-3.788337,0.873777,53.721843,-0.035431,-0.071732,0.994568,-0.001181,-0.01513,-0.010286,63.657974,26.230255,-146.411179,,,
729608589.979985,-3.785865,0.867983,53.719983,-0.035431,-0.071732,0.994568,-0.001181,-0.01513,-0.010286,63.657974,26.230255,-146.411179,,,
729608589.983331,-3.785865,0.867983,53.719983,-0.035431,-0.071732,0.994568,-0.001181,-0.01513,-0.010286,63.558914,26.26329,-146.465607,,,
729608589.98668,-3.779233,0.857986,53.718567,-0.030914,-0.073746,1.003159,0.021649,-0.02092,-0.005264,63.558914,26.26329,-146.465607,,,
729608589.989996,-3.771763,0.852494,53.717721,-0.030914,-0.073746,1.003159,0.021649,-0.02092,-0.005264,63.558914,26.26329,-146.465607,,,
729608589.993392,-3.771763,0.852494,53.717721,-0.030914,-0.073746,1.003159,0.021649,-0.02092,-0.005264,63.558914,26.26329,-146.465607,,,
729608589.996658,-3.761597,0.845023,53.717435,-0.029114,-0.073837,1.003708,0.029394,-0.009765,0.000561,63.558914,26.26329,-146.465607,,,
729608590.000024,-3.753108,0.84415,53.718599,-0.029114,-0.073837,1.003708,0.029394,-0.009765,0.000561,63.558914,26.26329,-146.465607,,,
729608590.003393,-3.753108,0.84415,53.718599,-0.029114,-0.073837,1.003708,0.029394,-0.009765,0.000561,63.558914,26.26329,-146.465607,,,
729608590.006676,-3.742422,0.842733,53.720481,-0.02597,-0.071091,1.001633,0.030448,0.012276,0.004055,63.558914,26.26329,-146.465607,,,
729608590.009901,-3.73302,0.847413,53.724126,-0.02597,-0.071091,1.001633,0.030448,0.012276,0.004055,63.558914,26.26329,-146.465607,,,
729608590.013339,-3.73302,0.847413,53.724126,-0.02597,-0.071091,1.001633,0.030448,0.012276,0.004055,63.558914,26.26329,-146.465607,,,
729608590.016723,-3.720949,0.852824,53.729461,-0.027344,-0.072861,1.003311,0.035066,0.02437,0.016744,63.558914,26.26329,-146.465607,,,
729608590.019981,-3.710358,0.861331,53.736176,-0.027344,-0.072861,1.003311,0.035066,0.02437,0.016744,63.558914,26.26329,-146.465607,,,
729608590.023322,-3.710358,0.861331,53.736176,-0.027344,-0.072861,1.003311,0.035066,0.02437,0.016744,63.740982,26.328751,-146.229065,,,
729608590.026674,-3.696826,0.870822,53.743664,-0.030136,-0.074051,0.99942,0.040622,0.032194,0.024476,63.740982,26.328751,-146.229065,,,
729608590.02999,-3.685412,0.879835,53.751622,-0.030136,-0.074051,0.99942,0.040622,0.032194,0.024476,63.740982,26.328751,-146.229065,,,
729608590.033321,-3.685412,0.879835,53.751622,-0.030136,-0.074051,0.99942,0.040622,0.032194,0.024476,63.740982,26.328751,-146.229065,,,
729608590.036679,-3.672096,0.892189,53.760478,-0.028381,-0.070648,0.99826,0.037197,0.036026,0.028522,63.740982,26.328751,-146.229065,,,
729608590.039986,-3.663186,0.901438,53.770106,-0.028381,-0.070648,0.99826,0.037197,0.036026,0.028522,63.740982,26.328751,-146.229065,,,
729608590.043354,-3.663186,0.901438,53.770106,-0.028381,-0.070648,0.99826,0.037197,0.036026,0.028522,63.740982,26.328751,-146.229065,,,
729608590.046738,-3.654947,0.913768,53.780394,-0.0271,-0.067169,0.987885,0.024681,0.027999,0.03371,63.740982,26.328751,-146.229065,,,
729608590.050014,-3.649859,0.919088,53.790115,-0.0271,-0.067169,0.987885,0.024681,0.027999,0.03371,63.740982,26.328751,-146.229065,,,
729608590.053427,-3.649859,0.919088,53.790115,-0.0271,-0.067169,0.987885,0.024681,0.027999,0.03371,63.740982,26.328751,-146.229065,,,
729608590.05668,-3.648464,0.928984,53.799925,-0.022964,-0.062286,0.981384,0.009915,0.010223,0.03163,63.740982,26.328751,-146.229065,,,
729608590.060009,-3.647257,0.929929,53.809445,-0.022964,-0.062286,0.981384,0.009915,0.010223,0.03163,63.740982,26.328751,-146.229065,,,
729608590.063336,-3.647257,0.929929,53.809445,-0.022964,-0.062286,0.981384,0.009915,0.010223,0.03163,63.740982,26.328751,-146.229065,,,
729608590.066666,-3.651301,0.933954,53.819876,-0.020203,-0.064255,0.977325,-0.006356,-0.003787,0.032016,63.872452,26.094025,-146.156952,,,
729608590.070044,-3.654031,0.930721,53.830682,-0.020203,-0.064255,0.977325,-0.006356,-0.003787,0.032016,63.872452,26.094025,-146.156952,,,
729608590.073348,-3.654031,0.930721,53.830682,-0.020203,-0.064255,0.977325,-0.006356,-0.003787,0.032016,63.872452,26.094025,-146.156952,,,
729608590.076674,-3.660493,0.928898,53.841916,-0.017532,-0.066956,0.980957,-0.008433,-0.020427,0.034735,63.872452,26.094025,-146.156952,,,
729608590.080065,-3.664729,0.920419,53.852447,-0.017532,-0.066956,0.980957,-0.008433,-0.020427,0.034735,63.872452,26.094025,-146.156952,,,
729608590.083336,-3.664729,0.920419,53.852447,-0.017532,-0.066956,0.980957,-0.008433,-0.020427,0.034735,63.872452,26.094025,-146.156952,,,
729608590.086682,-3.671598,0.915189,53.863225,-0.007523,-0.062363,0.980835,-0.017465,-0.03043,0.033682,63.872452,26.094025,-146.156952,,,
729608590.089995,-3.676735,0.907297,53.873764,-0.007523,-0.062363,0.980835,-0.017465,-0.03043,0.033682,63.872452,26.094025,-146.156952,,,
729608590.093407,-3.676735,0.907297,53.873764,-0.007523,-0.062363,0.980835,-0.017465,-0.03043,0.033682,63.872452,26.094025,-146.156952,,,
729608590.096749,-3.684731,0.903953,53.884481,-0.00621,-0.06282,0.986847,-0.020183,-0.02115,0.035477,63.872452,26.094025,-146.156952,,,
729608590.100045,-3.691202,0.899086,53.895311,-0.00621,-0.06282,0.986847,-0.020183,-0.02115,0.035477,63.872452,26.094025,-146.156952,,,
729608590.103343,-3.691202,0.899086,53.895311,-0.00621,-0.06282,0.986847,-0.020183,-0.02115,0.035477,63.872452,26.094025,-146.156952,,,
729608590.106724,-3.699666,0.900366,53.906722,-0.001022,-0.06311,0.990723,-0.0215,-0.011486,0.036105,63.707764,26.462524,-146.104294,,,
729608590.109999,-3.704609,0.899695,53.917918,-0.001022,-0.06311,0.990723,-0.0215,-0.011486,0.036105,63.707764,26.462524,-146.104294,,,
729608590.113334,-3.704609,0.899695,53.917918,-0.001022,-0.06311,0.990723,-0.0215,-0.011486,0.036105,63.707764,26.462524,-146.104294,,,
729608590.116656,-3.710616,0.905334,53.929316,0.000504,-0.063705,0.994263,-0.01653,0.004934,0.039592,63.707764,26.462524,-146.104294,,,
729608590.120046,-3.713946,0.907344,53.940496,0.000504,-0.063705,0.994263,-0.01653,0.004934,0.039592,63.707764,26.462524,-146.104294,,,
729608590.123336,-3.713946,0.907344,53.940496,0.000504,-0.063705,0.994263,-0.01653,0.004934,0.039592,63.707764,26.462524,-146.104294,,,
729608590.126677,-3.718679,0.912605,53.951332,-0.001724,-0.062927,0.992874,-0.012685,0.004154,0.035086,63.707764,26.462524,-146.104294,,,
729608590.129996,-3.72328,0.913821,53.960879,-0.001724,-0.062927,0.992874,-0.012685,0.004154,0.035086,63.707764,26.462524,-146.104294,,,
729608590.133408,-3.72328,0.913821,53.960879,-0.001724,-0.062927,0.992874,-0.012685,0.004154,0.035086,63.707764,26.462524,-146.104294,,,
729608590.136665,-3.729719,0.917603,53.96928,-0.003281,-0.058136,0.982468,-0.022257,0.005929,0.027821,63.707764,26.462524,-146.104294,,,
729608590.140028,-3.738411,0.916575,53.976126,-0.003281,-0.058136,0.982468,-0.022257,0.005929,0.027821,63.707764,26.462524,-146.104294,,,
729608590.143393,-3.738411,0.916575,53.976126,-0.003281,-0.058136,0.982468,-0.022257,0.005929,0.027821,63.707764,26.462524,-146.104294,,,
729608590.14669,-3.749402,0.914592,53.982026,-0.00148,-0.054962,0.977036,-0.039713,-0.009366,0.016879,64.039185,26.358063,-146.100479,,,
729608590.150028,-3.764244,0.908465,53.986692,-0.00148,-0.054962,0.977036,-0.039713,-0.009366,0.016879,64.039185,26.358063,-146.100479,,,
729608590.153341,-3.764244,0.908465,53.986692,-0.00148,-0.054962,0.977036,-0.039713,-0.009366,0.016879,64.039185,26.358063,-146.100479,,,
729608590.15676,-3.782976,0.900873,53.990022,-0.00264,-0.05571,0.972443,-0.065845,-0.032502,0.009561,64.039185,26.358063,-146.100479,,,
729608590.160043,-3.804381,0.889889,53.991322,-0.00264,-0.05571,0.972443,-0.065845,-0.032502,0.009561,64.039185,26.358063,-146.100479,,,
729608590.163322,-3.804381,0.889889,53.991322,-0.00264,-0.05571,0.972443,-0.065845,-0.032502,0.009561,64.039185,26.358063,-146.100479,,,
729608590.16666,-3.828618,0.876383,53.990348,-0.00354,-0.056915,0.978775,-0.08521,-0.042025,-0.006709,64.039185,26.358063,-146.100479,,,
729608590.170043,-3.855388,0.863231,53.98769,-0.00354,-0.056915,0.978775,-0.08521,-0.042025,-0.006709,64.039185,26.358063,-146.100479,,,
729608590.173337,-3.855388,0.863231,53.98769,-0.00354,-0.056915,0.978775,-0.08521,-0.042025,-0.006709,64.039185,26.358063,-146.100479,,,
729608590.176675,-3.881799,0.847336,53.984123,-0.004654,-0.060638,0.988174,-0.093759,-0.041871,-0.018945,64.039185,26.358063,-146.100479,,,
729608590.180016,-3.908811,0.834022,53.980363,-0.004654,-0.060638,0.988174,-0.093759,-0.041871,-0.018945,64.039185,26.358063,-146.100479,,,
729608590.183319,-3.908811,0.834022,53.980363,-0.004654,-0.060638,0.988174,-0.093759,-0.041871,-0.018945,64.039185,26.358063,-146.100479,,,
729608590.186656,-3.933864,0.819747,53.976337,-0.008163,-0.067886,0.996719,-0.092985,-0.03688,-0.01713,63.802551,26.530319,-146.203476,,,
729608590.190033,-3.957615,0.809803,53.972917,-0.008163,-0.067886,0.996719,-0.092985,-0.03688,-0.01713,63.802551,26.530319,-146.203476,,,
729608590.193404,-3.957615,0.809803,53.972917,-0.008163,-0.067886,0.996719,-0.092985,-0.03688,-0.01713,63.802551,26.530319,-146.203476,,,
729608590.196655,-3.977181,0.79742,53.970366,-0.013123,-0.07782,1.013367,-0.07062,-0.027524,-0.009712,63.802551,26.530319,-146.203476,,,
729608590.200039,-3.994608,0.791083,53.969632,-0.013123,-0.07782,1.013367,-0.07062,-0.027524,-0.009712,63.802551,26.530319,-146.203476,,,
729608590.203399,-3.994608,0.791083,53.969632,-0.013123,-0.07782,1.013367,-0.07062,-0.027524,-0.009712,63.802551,26.530319,-146.203476,,,
729608590.206659,-4.007407,0.783718,53.969955,-0.015182,-0.086319,1.018921,-0.047369,-0.008113,0.000223,63.802551,26.530319,-146.203476,,,
729608590.210042,-4.007407,0.782896,53.971399,-0.015182,-0.086319,1.018921,-0.047369,-0.008113,0.000223,63.802551,26.530319,-146.203476,,,
729608590.213318,-4.017716,0.782896,53.971399,-0.015182,-0.086319,1.018921,-0.047369,-0.008113,0.000223,63.802551,26.530319,-146.203476,,,
729608590.21666,-4.021113,0.779981,53.973503,-0.018616,-0.088623,1.02388,-0.022012,0.007127,0.006048,63.802551,26.530319,-146.203476,,,
729608590.21999,-4.021113,0.779981,53.973503,-0.018616,-0.088623,1.02388,-0.022012,0.007127,0.006048,63.802551,26.530319,-146.203476,,,
729608590.223345,-4.023811,0.781612,53.976502,-0.018616,-0.088623,1.02388,-0.022012,0.007127,0.006048,63.802551,26.530319,-146.203476,,,
729608590.226653,-4.020557,0.781567,53.979368,-0.018982,-0.08963,1.02179,-0.001043,0.014664,0.008563,63.802551,26.530319,-146.203476,,,
729608590.230113,-4.020213,0.786732,53.982285,-0.018982,-0.08963,1.02179,-0.001043,0.014664,0.008563,63.322174,26.561234,-146.243912,,,
729608590.233383,-4.020213,0.786732,53.982285,-0.018982,-0.08963,1.02179,-0.001043,0.014664,0.008563,63.322174,26.561234,-146.243912,,,
729608590.236652,-4.016016,0.788665,53.984417,-0.018097,-0.085281,1.019089,0.001995,0.020904,0.006697,63.322174,26.561234,-146.243912,,,
729608590.240019,-4.016016,0.788665,53.984417,-0.018097,-0.085281,1.019089,0.001995,0.020904,0.006697,63.322174,26.561234,-146.243912,,,
729608590.243326,-4.015163,0.79383,53.985928,-0.018097,-0.085281,1.019089,0.001995,0.020904,0.006697,63.322174,26.561234,-146.243912,,,
729608590.246659,-4.011712,0.795445,53.986288,-0.017014,-0.080292,1.009705,0.001477,0.017923,0.000841,63.322174,26.561234,-146.243912,,,
729608590.250009,-4.011712,0.795445,53.986288,-0.017014,-0.080292,1.009705,0.001477,0.017923,0.000841,63.322174,26.561234,-146.243912,,,
729608590.253347,-4.01271,0.799257,53.986034,-0.017014,-0.080292,1.009705,0.001477,0.017923,0.000841,63.322174,26.561234,-146.243912,,,
729608590.256655,-4.011888,0.799313,53.984756,-0.013718,-0.076279,1.000671,-0.007236,0.013281,-0.004726,63.322174,26.561234,-146.243912,,,
729608590.260088,-4.011888,0.799313,53.984756,-0.013718,-0.076279,1.000671,-0.007236,0.013281,-0.004726,63.322174,26.561234,-146.243912,,,
729608590.263317,-4.014896,0.801233,53.982784,-0.013718,-0.076279,1.000671,-0.007236,0.013281,-0.004726,63.322174,26.561234,-146.243912,,,
729608590.266662,-4.017421,0.80004,53.979737,-0.007599,-0.074799,0.996231,-0.015236,0.007718,-0.012733,63.322174,26.561234,-146.243912,,,
729608590.269987,-4.017421,0.80004,53.979737,-0.007599,-0.074799,0.996231,-0.015236,0.007718,-0.012733,63.808044,26.530197,-146.168655,,,
729608590.273391,-4.022527,0.800078,53.976495,-0.007599,-0.074799,0.996231,-0.015236,0.007718,-0.012733,63.808044,26.530197,-146.168655,,,
729608590.276648,-4.028558,0.798106,53.97287,-0.004807,-0.075592,0.990753,-0.015047,3.3e-05,-0.015227,63.808044,26.530197,-146.168655,,,
729608590.279989,-4.028558,0.798106,53.97287,-0.004807,-0.075592,0.990753,-0.015047,3.3e-05,-0.015227,63.808044,26.530197,-146.168655,,,
729608590.28334,-4.031774,0.795886,53.9682,-0.004807,-0.075592,0.990753,-0.015047,3.3e-05,-0.015227,63.808044,26.530197,-146.168655,,,
729608590.286663,-4.034687,0.792052,53.962513,0.001511,-0.077927,0.99881,0.002422,-0.010983,-0.021318,63.808044,26.530197,-146.168655,,,
