Time (sec),Pitch (deg),Roll (deg),Yaw(deg),X-Acceleration (g),Y-Acceleration (g),Z-Acceleration (g),Pitch Rate (deg/sec),Roll Rate (deg/sec),Yaw Rate (deg/sec),Magnetic Field in X direction (uT),Magnetic Field in Y direction (uT),Magnetic Field in Z Direction (uT),Latitude (deg),Longitude (deg),Altitude (m)
729607130.18156,0.611362,1.867705,51.621591,-0.013931,0.005585,1.020172,0.024514,-0.001944,-0.016799,64.330826,21.725937,-147.586044,,,
729607130.184886,0.620075,1.863475,51.615703,-0.013931,0.005585,1.020172,0.024514,-0.001944,-0.016799,64.330826,21.725937,-147.586044,,,
729607130.188223,0.629664,1.867524,51.608431,-0.012909,0.010101,1.017136,0.035518,0.017215,-0.024537,64.330826,21.725937,-147.586044,,,
729607130.191561,0.629664,1.867524,51.608431,-0.012909,0.010101,1.017136,0.035518,0.017215,-0.024537,64.330826,21.725937,-147.586044,,,
729607130.194969,0.641221,1.869111,51.60056,-0.012909,0.010101,1.017136,0.035518,0.017215,-0.024537,64.330826,21.725937,-147.586044,,,
729607130.198207,0.653355,1.876678,51.592529,-0.018204,0.009033,1.016495,0.042049,0.030303,-0.026863,64.330826,21.725937,-147.586044,,,
729607130.20155,0.653355,1.876678,51.592529,-0.018204,0.009033,1.016495,0.042049,0.030303,-0.026863,64.330826,21.725937,-147.586044,,,
729607130.204897,0.665087,1.876825,51.584725,-0.018204,0.009033,1.016495,0.042049,0.030303,-0.026863,64.330826,21.725937,-147.586044,,,
729607130.208209,0.677505,1.882247,51.577402,-0.026169,0.008148,1.003891,0.042594,0.019614,-0.023405,64.330826,21.725937,-147.586044,,,
729607130.211562,0.677505,1.882247,51.577402,-0.026169,0.008148,1.003891,0.042594,0.019614,-0.023405,64.330826,21.725937,-147.586044,,,
729607130.214635,0.68808,1.877861,51.570904,-0.026169,0.008148,1.003891,0.042594,0.019614,-0.023405,64.330826,21.725937,-147.586044,,,
729607130.218248,0.698486,1.87714,51.564082,-0.028381,0.008591,0.993744,0.037947,-0.001678,-0.024369,64.488724,21.625778,-147.633347,,,
729607130.221609,0.698486,1.87714,51.564082,-0.028381,0.008591,0.993744,0.037947,-0.001678,-0.024369,64.488724,21.625778,-147.633347,,,
729607130.224899,0.706345,1.866957,51.555985,-0.028381,0.008591,0.993744,0.037947,-0.001678,-0.024369,64.488724,21.625778,-147.633347,,,
729607130.228211,0.713261,1.85982,51.546578,-0.024002,0.017319,0.988525,0.028345,-0.02124,-0.036145,64.488724,21.625778,-147.633347,,,
729607130.231552,0.713261,1.85982,51.546578,-0.024002,0.017319,0.988525,0.028345,-0.02124,-0.036145,64.488724,21.625778,-147.633347,,,
729607130.23488,0.717538,1.845875,51.535767,-0.024002,0.017319,0.988525,0.028345,-0.02124,-0.036145,64.488724,21.625778,-147.633347,,,
729607130.238215,0.721988,1.835339,51.524035,-0.023727,0.018921,0.987335,0.016101,-0.034002,-0.042529,64.488724,21.625778,-147.633347,,,
729607130.241558,0.721988,1.835339,51.524035,-0.023727,0.018921,0.987335,0.016101,-0.034002,-0.042529,64.488724,21.625778,-147.633347,,,
729607130.244899,0.723906,1.819897,51.512379,-0.023727,0.018921,0.987335,0.016101,-0.034002,-0.042529,64.488724,21.625778,-147.633347,,,
729607130.248216,0.728954,1.809067,51.500748,-0.02623,0.011841,0.996155,0.020791,-0.035648,-0.04138,64.488724,21.625778,-147.633347,,,
729607130.251543,0.728954,1.809067,51.500748,-0.02623,0.011841,0.996155,0.020791,-0.035648,-0.04138,64.488724,21.625778,-147.633347,,,
729607130.254907,0.732439,1.793593,51.488949,-0.02623,0.011841,0.996155,0.020791,-0.035648,-0.04138,64.488724,21.625778,-147.633347,,,
729607130.258212,0.739393,1.787189,51.476755,-0.022964,0.012222,1.001312,0.024483,-0.020107,-0.043263,64.440521,21.397812,-147.463776,,,
729607130.261636,0.739393,1.787189,51.476755,-0.022964,0.012222,1.001312,0.024483,-0.020107,-0.043263,64.440521,21.397812,-147.463776,,,
729607130.264883,0.74634,1.776162,51.465137,-0.022964,0.012222,1.001312,0.024483,-0.020107,-0.043263,64.440521,21.397812,-147.463776,,,
729607130.268232,0.754801,1.77712,51.454654,-0.025467,0.016708,1.003403,0.031392,0.005981,-0.037086,64.440521,21.397812,-147.463776,,,
729607130.271575,0.754801,1.77712,51.454654,-0.025467,0.016708,1.003403,0.031392,0.005981,-0.037086,64.440521,21.397812,-147.463776,,,
729607130.274885,0.76244,1.772964,51.44584,-0.025467,0.016708,1.003403,0.031392,0.005981,-0.037086,64.440521,21.397812,-147.463776,,,
729607130.278215,0.770045,1.778358,51.438357,-0.02948,0.015549,0.998474,0.031166,0.024328,-0.02467,64.440521,21.397812,-147.463776,,,
729607130.281572,0.770045,1.778358,51.438357,-0.02948,0.015549,0.998474,0.031166,0.024328,-0.02467,64.440521,21.397812,-147.463776,,,
729607130.284881,0.776221,1.780485,51.432044,-0.02948,0.015549,0.998474,0.031166,0.024328,-0.02467,64.440521,21.397812,-147.463776,,,
729607130.28826,0.782602,1.786773,51.426151,-0.032532,0.016006,0.990707,0.021721,0.023642,-0.020211,64.440521,21.397812,-147.463776,,,
729607130.29157,0.782602,1.786773,51.426151,-0.032532,0.016006,0.990707,0.021721,0.023642,-0.020211,64.440521,21.397812,-147.463776,,,
729607130.294879,0.786118,1.789295,51.420386,-0.032532,0.016006,0.990707,0.021721,0.023642,-0.020211,64.440521,21.397812,-147.463776,,,
729607130.298289,0.789511,1.789795,51.414834,-0.039032,0.015732,0.98053,0.014448,0.004924,-0.021093,64.654556,21.304825,-147.302536,,,
729607130.301548,0.789511,1.789795,51.414834,-0.039032,0.015732,0.98053,0.014448,0.004924,-0.021093,64.654556,21.304825,-147.302536,,,
729607130.304895,0.79097,1.785892,51.408841,-0.039032,0.015732,0.98053,0.014448,0.004924,-0.021093,64.654556,21.304825,-147.302536,,,
729607130.308265,0.791384,1.781879,51.402223,-0.043198,0.016647,0.98053,0.002732,-0.012215,-0.024723,64.654556,21.304825,-147.302536,,,
729607130.311617,0.791384,1.781879,51.402223,-0.043198,0.016647,0.98053,0.002732,-0.012215,-0.024723,64.654556,21.304825,-147.302536,,,
729607130.314892,0.792265,1.771336,51.395904,-0.043198,0.016647,0.98053,0.002732,-0.012215,-0.024723,64.654556,21.304825,-147.302536,,,
729607130.318249,0.79111,1.761226,51.390712,-0.044678,0.015701,0.981033,-0.003253,-0.031861,-0.018566,64.654556,21.304825,-147.302536,,,
729607130.321555,0.79111,1.761226,51.390712,-0.044678,0.015701,0.981033,-0.003253,-0.031861,-0.018566,64.654556,21.304825,-147.302536,,,
729607130.324933,0.789707,1.74613,51.387062,-0.044678,0.015701,0.981033,-0.003253,-0.031861,-0.018566,64.654556,21.304825,-147.302536,,,
729607130.328217,0.786791,1.733009,51.384332,-0.045624,0.013123,0.983734,-0.009619,-0.044503,-0.011982,64.654556,21.304825,-147.302536,,,
729607130.331579,0.786791,1.733009,51.384332,-0.045624,0.013123,0.983734,-0.009619,-0.044503,-0.011982,64.654556,21.304825,-147.302536,,,
729607130.334887,0.782849,1.717961,51.38264,-0.045624,0.013123,0.983734,-0.009619,-0.044503,-0.011982,64.654556,21.304825,-147.302536,,,
729607130.338292,0.77988,1.706935,51.38194,-0.044922,0.01355,0.989136,-0.009106,-0.036466,-0.003981,64.654556,21.304825,-147.302536,,,
729607130.341564,0.77988,1.706935,51.38194,-0.044922,0.01355,0.989136,-0.009106,-0.036466,-0.003981,64.405197,21.560883,-147.578934,,,
729607130.344889,0.77818,1.695861,51.38186,-0.044922,0.01355,0.989136,-0.009106,-0.036466,-0.003981,64.405197,21.560883,-147.578934,,,
729607130.348268,0.777347,1.692184,51.382418,-0.036087,0.016083,1.001541,-0.003765,-0.00994,0.000736,64.405197,21.560883,-147.578934,,,
729607130.351546,0.777347,1.692184,51.382418,-0.036087,0.016083,1.001541,-0.003765,-0.00994,0.000736,64.405197,21.560883,-147.578934,,,
729607130.354894,0.776863,1.690945,51.384185,-0.036087,0.016083,1.001541,-0.003765,-0.00994,0.000736,64.405197,21.560883,-147.578934,,,
729607130.358211,0.775279,1.692152,51.386875,-0.033203,0.018158,0.996338,-0.005152,0.007117,0.008667,64.405197,21.560883,-147.578934,,,
729607130.361615,0.775279,1.692152,51.386875,-0.033203,0.018158,0.996338,-0.005152,0.007117,0.008667,64.405197,21.560883,-147.578934,,,
729607130.364877,0.77348,1.694984,51.390758,-0.033203,0.018158,0.996338,-0.005152,0.007117,0.008667,64.405197,21.560883,-147.578934,,,
729607130.368262,0.769691,1.699189,51.395154,-0.035156,0.016266,0.988632,-0.012738,0.019621,0.011497,64.405197,21.560883,-147.578934,,,
729607130.371562,0.769691,1.699189,51.395154,-0.035156,0.016266,0.988632,-0.012738,0.019621,0.011497,64.405197,21.560883,-147.578934,,,
729607130.374639,0.765366,1.706236,51.399294,-0.035156,0.016266,0.988632,-0.012738,0.019621,0.011497,64.405197,21.560883,-147.578934,,,
729607130.378261,0.760191,1.709103,51.403928,-0.035751,0.014816,0.988693,-0.018321,0.0164,0.016121,64.405197,21.560883,-147.578934,,,
729607130.381563,0.760191,1.709103,51.403928,-0.035751,0.014816,0.988693,-0.018321,0.0164,0.016121,64.323044,21.495163,-147.393387,,,
729607130.384882,0.755917,1.715121,51.40947,-0.035751,0.014816,0.988693,-0.018321,0.0164,0.016121,64.323044,21.495163,-147.393387,,,
729607130.388266,0.752005,1.713209,51.415616,-0.039383,0.013275,0.987915,-0.011534,-0.002089,0.018699,64.323044,21.495163,-147.393387,,,
729607130.391556,0.752005,1.713209,51.415616,-0.039383,0.013275,0.987915,-0.011534,-0.002089,0.018699,64.323044,21.495163,-147.393387,,,
729607130.394897,0.749852,1.715594,51.421817,-0.039383,0.013275,0.987915,-0.011534,-0.002089,0.018699,64.323044,21.495163,-147.393387,,,
729607130.398206,0.749852,1.715594,51.421817,-0.042953,0.012238,0.993118,-0.01017,-0.01946,0.021721,64.323044,21.495163,-147.393387,,,
729607130.401547,0.74725,1.70859,51.428279,-0.042953,0.012238,0.993118,-0.01017,-0.01946,0.021721,64.323044,21.495163,-147.393387,,,
729607130.404898,0.744707,1.707273,51.434104,-0.042953,0.012238,0.993118,-0.01017,-0.01946,0.021721,64.323044,21.495163,-147.393387,,,
729607130.408215,0.744707,1.707273,51.434104,-0.042953,0.012238,0.993118,-0.014573,-0.024663,0.017278,64.323044,21.495163,-147.393387,,,
729607130.411611,0.740813,1.699211,51.439366,-0.036545,0.012955,0.99469,-0.014573,-0.024663,0.017278,64.323044,21.495163,-147.393387,,,
729607130.414886,0.736247,1.699651,51.44423,-0.036545,0.012955,0.99469,-0.014573,-0.024663,0.017278,64.323044,21.495163,-147.393387,,,
729607130.418271,0.736247,1.699651,51.44423,-0.036545,0.012955,0.99469,-0.017837,-0.016478,0.012302,64.323044,21.495163,-147.393387,,,
729607130.421538,0.730456,1.69395,51.448772,-0.029236,0.015289,0.998917,-0.017837,-0.016478,0.012302,64.251648,21.624039,-147.507599,,,
729607130.424878,0.723829,1.695479,51.452706,-0.029236,0.015289,0.998917,-0.017837,-0.016478,0.012302,64.251648,21.624039,-147.507599,,,
729607130.428236,0.723829,1.695479,51.452706,-0.0298,0.012177,1.001114,-0.026165,-0.006605,0.011255,64.251648,21.624039,-147.507599,,,
729607130.431562,0.716528,1.693475,51.45666,-0.0298,0.012177,1.001114,-0.026165,-0.006605,0.011255,64.251648,21.624039,-147.507599,,,
729607130.434896,0.710722,1.69458,51.461102,-0.0298,0.012177,1.001114,-0.026165,-0.006605,0.011255,64.251648,21.624039,-147.507599,,,
729607130.438233,0.710722,1.69458,51.461102,-0.0298,0.012177,1.001114,-0.026165,-0.006605,0.011255,64.251648,21.624039,-147.507599,,,
729607130.441568,0.705563,1.695131,51.466323,-0.030853,0.010208,1.008011,-0.016951,0.007168,0.01803,64.251648,21.624039,-147.507599,,,
729607130.444889,0.703335,1.698062,51.472506,-0.030853,0.010208,1.008011,-0.016951,0.007168,0.01803,64.251648,21.624039,-147.507599,,,
729607130.448295,0.703335,1.698149,51.479405,-0.030243,0.010468,1.004425,-0.010421,0.003506,0.021797,64.251648,21.624039,-147.507599,,,
729607130.451599,0.700359,1.698149,51.479405,-0.030243,0.010468,1.004425,-0.010421,0.003506,0.021797,64.251648,21.624039,-147.507599,,,
729607130.454889,0.698384,1.70104,51.486732,-0.030243,0.010468,1.004425,-0.010421,0.003506,0.021797,64.251648,21.624039,-147.507599,,,
729607130.458295,0.698384,1.70104,51.486732,-0.026306,0.009781,1.001053,-0.010236,0.004443,0.027154,64.251648,21.624039,-147.507599,,,
729607130.461617,0.695664,1.701489,51.494988,-0.026306,0.009781,1.001053,-0.010236,0.004443,0.027154,64.251648,21.624039,-147.507599,,,
729607130.464877,0.692535,1.704939,51.502667,-0.026306,0.009781,1.001053,-0.010236,0.004443,0.027154,64.336731,21.766006,-147.281601,,,
729607130.468256,0.692535,1.704939,51.502667,-0.026306,0.009781,1.001053,-0.011686,-0.003204,0.019661,64.336731,21.766006,-147.281601,,,
729607130.471574,0.688519,1.70333,51.508687,-0.020645,0.013657,0.998734,-0.011686,-0.003204,0.019661,64.336731,21.766006,-147.281601,,,
729607130.474972,0.68475,1.7053,51.513222,-0.020645,0.013657,0.998734,-0.011686,-0.003204,0.019661,64.336731,21.766006,-147.281601,,,
729607130.47824,0.68475,1.7053,51.513222,-0.020645,0.013657,0.998734,-0.011686,-0.003204,0.019661,64.336731,21.766006,-147.281601,,,
729607130.481554,0.681495,1.700123,51.515801,-0.017517,0.015717,0.99617,-0.00957,-0.013361,0.006882,64.336731,21.766006,-147.281601,,,
729607130.484877,0.679913,1.69906,51.516671,-0.017517,0.015717,0.99617,-0.00957,-0.013361,0.006882,64.336731,21.766006,-147.281601,,,
729607130.488274,0.679913,1.69906,51.516671,-0.017517,0.015717,0.99617,-0.00957,-0.013361,0.006882,64.336731,21.766006,-147.281601,,,
729607130.491546,0.678755,1.691687,51.51662,-0.020279,0.011658,1.001511,-0.004294,-0.0218,6.5e-05,64.336731,21.766006,-147.281601,,,
729607130.494896,0.678851,1.6843,51.516288,-0.020279,0.011658,1.001511,-0.004294,-0.0218,6.5e-05,64.336731,21.766006,-147.281601,,,
729607130.498249,0.678851,1.6843,51.516288,-0.020279,0.011658,1.001511,-0.004294,-0.0218,6.5e-05,64.336731,21.766006,-147.281601,,,
729607130.50155,0.680056,1.674715,51.516565,-0.025146,0.003159,1.005157,0.00497,-0.031852,0.000114,64.336731,21.766006,-147.281601,,,
729607130.504906,0.683451,1.665944,51.517121,-0.025146,0.003159,1.005157,0.00497,-0.031852,0.000114,64.361359,21.705811,-147.765656,,,
729607130.508212,0.683451,1.665944,51.517121,-0.025146,0.003159,1.005157,0.00497,-0.031852,0.000114,64.361359,21.705811,-147.765656,,,
729607130.511609,0.68758,1.659444,51.517471,-0.024521,0.004578,1.01265,0.015945,-0.018166,0.000187,64.361359,21.705811,-147.765656,,,
729607130.514875,0.692329,1.656354,51.517701,-0.024521,0.004578,1.01265,0.015945,-0.018166,0.000187,64.361359,21.705811,-147.765656,,,
729607130.518251,0.692329,1.656354,51.517701,-0.024521,0.004578,1.01265,0.015945,-0.018166,0.000187,64.361359,21.705811,-147.765656,,,
729607130.521541,0.698973,1.65436,51.518099,-0.023056,0.008362,1.013855,0.026058,-0.005681,-0.000479,64.361359,21.705811,-147.765656,,,
729607130.524953,0.706859,1.654338,51.518849,-0.023056,0.008362,1.013855,0.026058,-0.005681,-0.000479,64.361359,21.705811,-147.765656,,,
729607130.528208,0.706859,1.654338,51.518849,-0.023056,0.008362,1.013855,0.026058,-0.005681,-0.000479,64.361359,21.705811,-147.765656,,,
729607130.531578,0.716284,1.654607,51.519839,-0.024261,0.009933,1.010696,0.035839,0.001521,0.00353,64.361359,21.705811,-147.765656,,,
729607130.534889,0.725332,1.656231,51.520617,-0.024261,0.009933,1.010696,0.035839,0.001521,0.00353,64.361359,21.705811,-147.765656,,,
729607130.538292,0.725332,1.656231,51.520617,-0.024261,0.009933,1.010696,0.035839,0.001521,0.00353,64.361359,21.705811,-147.765656,,,
729607130.541558,0.734002,1.658209,51.520577,-0.019791,0.013092,1.003677,0.030032,0.009099,5.2e-05,64.361359,21.705811,-147.765656,,,
729607130.544883,0.741051,1.657064,51.519389,-0.019791,0.013092,1.003677,0.030032,0.009099,5.2e-05,64.271408,21.601028,-147.517593,,,
729607130.548244,0.741051,1.657064,51.519389,-0.019791,0.013092,1.003677,0.030032,0.009099,5.2e-05,64.271408,21.601028,-147.517593,,,
729607130.551574,0.746803,1.656284,51.516798,-0.01619,0.01651,0.991135,0.020287,-0.002386,-0.008063,64.271408,21.601028,-147.517593,,,
729607130.554887,0.751056,1.649159,51.512391,-0.01619,0.01651,0.991135,0.020287,-0.002386,-0.008063,64.271408,21.601028,-147.517593,,,
729607130.558253,0.751056,1.649159,51.512391,-0.01619,0.01651,0.991135,0.020287,-0.002386,-0.008063,64.271408,21.601028,-147.517593,,,
729607130.561551,0.7533,1.644152,51.505977,-0.018997,0.017502,0.986679,0.009018,-0.014436,-0.022325,64.271408,21.601028,-147.517593,,,
729607130.564951,0.755256,1.632962,51.498304,-0.018997,0.017502,0.986679,0.009018,-0.014436,-0.022325,64.271408,21.601028,-147.517593,,,
729607130.568236,0.755256,1.632962,51.498304,-0.018997,0.017502,0.986679,0.009018,-0.014436,-0.022325,64.271408,21.601028,-147.517593,,,
729607130.571559,0.756433,1.625859,51.490225,-0.021042,0.015976,0.989334,0.005899,-0.024598,-0.031321,64.271408,21.601028,-147.517593,,,
729607130.574889,0.756425,1.615014,51.4827,-0.021042,0.015976,0.989334,0.005899,-0.024598,-0.031321,64.271408,21.601028,-147.517593,,,
729607130.578338,0.756425,1.615014,51.4827,-0.021042,0.015976,0.989334,0.005899,-0.024598,-0.031321,64.271408,21.601028,-147.517593,,,
729607130.581557,0.757339,1.607193,51.475661,-0.026245,0.010315,0.994965,0.003925,-0.023152,-0.025638,64.271408,21.601028,-147.517593,,,
729607130.58491,0.756054,1.599616,51.468941,-0.026245,0.010315,0.994965,0.003925,-0.023152,-0.025638,64.187927,21.63707,-147.412872,,,
729607130.588223,0.756054,1.599616,51.468941,-0.026245,0.010315,0.994965,0.003925,-0.023152,-0.025638,64.187927,21.63707,-147.412872,,,
729607130.591547,0.756561,1.595224,51.462523,-0.027206,0.012543,0.996414,0.004723,-0.012269,-0.024668,64.187927,21.63707,-147.412872,,,
729607130.594903,0.756049,1.591677,51.455859,-0.027206,0.012543,0.996414,0.004723,-0.012269,-0.024668,64.187927,21.63707,-147.412872,,,
729607130.598211,0.756049,1.591677,51.455859,-0.027206,0.012543,0.996414,0.004723,-0.012269,-0.024668,64.187927,21.63707,-147.412872,,,
729607130.601545,0.757033,1.592488,51.449376,-0.027786,0.016006,1.001526,0.006039,0.003714,-0.025015,64.187927,21.63707,-147.412872,,,
729607130.604964,0.757938,1.592284,51.44354,-0.027786,0.016006,1.001526,0.006039,0.003714,-0.025015,64.187927,21.63707,-147.412872,,,
729607130.608212,0.757938,1.592284,51.44354,-0.027786,0.016006,1.001526,0.006039,0.003714,-0.025015,64.187927,21.63707,-147.412872,,,
729607130.611569,0.76074,1.59543,51.438333,-0.03508,0.014984,1.001312,0.009881,0.016615,-0.020623,64.187927,21.63707,-147.412872,,,
729607130.614892,0.763831,1.598712,51.43395,-0.03508,0.014984,1.001312,0.009881,0.016615,-0.020623,64.187927,21.63707,-147.412872,,,
729607130.618239,0.763831,1.598712,51.43395,-0.03508,0.014984,1.001312,0.009881,0.016615,-0.020623,64.187927,21.63707,-147.412872,,,
729607130.621549,0.767597,1.605671,51.430421,-0.040543,0.011063,1.000809,0.01164,0.027608,-0.012077,64.187927,21.63707,-147.412872,,,
729607130.624934,0.772074,1.608554,51.42813,-0.040543,0.011063,1.000809,0.01164,0.027608,-0.012077,64.187927,21.63707,-147.412872,,,
729607130.628216,0.772074,1.608554,51.42813,-0.040543,0.011063,1.000809,0.01164,0.027608,-0.012077,64.322571,21.469818,-147.612076,,,
729607130.631553,0.776171,1.615719,51.426296,-0.039383,0.010361,1.000626,0.015614,0.026647,-0.007827,64.322571,21.469818,-147.612076,,,
729607130.63488,0.780972,1.616291,51.424599,-0.039383,0.010361,1.000626,0.015614,0.026647,-0.007827,64.322571,21.469818,-147.612076,,,
729607130.638231,0.780972,1.616291,51.424599,-0.039383,0.010361,1.000626,0.015614,0.026647,-0.007827,64.322571,21.469818,-147.612076,,,
729607130.641563,0.784656,1.621426,51.42258,-0.037979,0.011414,0.994797,0.013027,0.019938,-0.00734,64.322571,21.469818,-147.612076,,,
729607130.644942,0.788143,1.623154,51.419847,-0.037979,0.011414,0.994797,0.013027,0.019938,-0.00734,64.322571,21.469818,-147.612076,,,
729607130.648211,0.788143,1.623154,51.419847,-0.037979,0.011414,0.994797,0.013027,0.019938,-0.00734,64.322571,21.469818,-147.612076,,,
729607130.651555,0.78953,1.6282,51.416188,-0.037811,0.015762,0.993805,0.004257,0.018611,-0.015061,64.322571,21.469818,-147.612076,,,
729607130.654875,0.789278,1.630548,51.411728,-0.037811,0.015762,0.993805,0.004257,0.018611,-0.015061,64.322571,21.469818,-147.612076,,,
729607130.658262,0.789278,1.630548,51.411728,-0.037811,0.015762,0.993805,0.004257,0.018611,-0.015061,64.322571,21.469818,-147.612076,,,
729607130.661562,0.787489,1.634789,51.407218,-0.036331,0.021225,0.98848,-0.005775,0.019671,-0.016473,64.322571,21.469818,-147.612076,,,
729607130.664897,0.784407,1.638382,51.404052,-0.036331,0.021225,0.98848,-0.005775,0.019671,-0.016473,64.322571,21.469818,-147.612076,,,
729607130.668242,0.784407,1.638382,51.404052,-0.036331,0.021225,0.98848,-0.005775,0.019671,-0.016473,64.405396,21.530685,-147.298492,,,
729607130.671406,0.781985,1.641781,51.402666,-0.042496,0.016983,0.990372,-0.008605,0.014454,-0.005125,64.405396,21.530685,-147.298492,,,
729607130.674929,0.77932,1.643168,51.4034,-0.042496,0.016983,0.990372,-0.008605,0.014454,-0.005125,64.405396,21.530685,-147.298492,,,
729607130.678223,0.77932,1.643168,51.4034,-0.042496,0.016983,0.990372,-0.008605,0.014454,-0.005125,64.405396,21.530685,-147.298492,,,
729607130.681556,0.775651,1.644931,51.405411,-0.045517,0.01059,0.993378,-0.011831,0.012161,0.00582,64.405396,21.530685,-147.298492,,,
729607130.684961,0.77173,1.645959,51.408014,-0.045517,0.01059,0.993378,-0.011831,0.012161,0.00582,64.405396,21.530685,-147.298492,,,
729607130.688213,0.77173,1.645959,51.408014,-0.045517,0.01059,0.993378,-0.011831,0.012161,0.00582,64.405396,21.530685,-147.298492,,,
729607130.691572,0.7665,1.645972,51.41099,-0.039612,0.010941,0.992935,-0.017433,0.003281,0.008287,64.405396,21.530685,-147.298492,,,
729607130.694892,0.760743,1.6499,51.413011,-0.039612,0.010941,0.992935,-0.017433,0.003281,0.008287,64.405396,21.530685,-147.298492,,,
729607130.698297,0.760743,1.6499,51.413011,-0.039612,0.010941,0.992935,-0.017433,0.003281,0.008287,64.405396,21.530685,-147.298492,,,
729607130.701588,0.754843,1.64879,51.414175,-0.031555,0.012161,0.996704,-0.0237,-0.002001,0.003624,64.405396,21.530685,-147.298492,,,
729607130.704882,0.748221,1.650981,51.414281,-0.031555,0.012161,0.996704,-0.0237,-0.002001,0.003624,64.405396,21.530685,-147.298492,,,
729607130.708223,0.748221,1.650981,51.414281,-0.031555,0.012161,0.996704,-0.0237,-0.002001,0.003624,64.183197,21.512878,-147.431549,,,
729607130.711644,0.741991,1.646819,51.412653,-0.023941,0.01326,0.996933,-0.020192,-0.014985,-0.006616,64.183197,21.512878,-147.431549,,,
729607130.714889,0.735698,1.646041,51.40953,-0.023941,0.01326,0.996933,-0.020192,-0.014985,-0.006616,64.183197,21.512878,-147.431549,,,
729607130.718213,0.735698,1.646041,51.40953,-0.023941,0.01326,0.996933,-0.020192,-0.014985,-0.006616,64.183197,21.512878,-147.431549,,,
729607130.721548,0.731065,1.639952,51.405474,-0.021484,0.011932,1.001892,-0.015273,-0.019365,-0.015955,64.183197,21.512878,-147.431549,,,
729607130.724945,0.726827,1.638375,51.401273,-0.021484,0.011932,1.001892,-0.015273,-0.019365,-0.015955,64.183197,21.512878,-147.431549,,,
729607130.728222,0.726827,1.638375,51.401273,-0.021484,0.011932,1.001892,-0.015273,-0.019365,-0.015955,64.183197,21.512878,-147.431549,,,
729607130.731577,0.722066,1.631931,51.397882,-0.020538,0.007339,1.006287,-0.014722,-0.019224,-0.013716,64.183197,21.512878,-147.431549,,,
729607130.734904,0.718049,1.629569,51.395449,-0.020538,0.007339,1.006287,-0.014722,-0.019224,-0.013716,64.183197,21.512878,-147.431549,,,
729607130.738281,0.718049,1.629569,51.395449,-0.020538,0.007339,1.006287,-0.014722,-0.019224,-0.013716,64.183197,21.512878,-147.431549,,,
729607130.741566,0.712892,1.624102,51.39316,-0.016785,0.001678,1.004623,-0.018912,-0.013771,-0.009214,64.183197,21.512878,-147.431549,,,
729607130.744897,0.709583,1.624692,51.390457,-0.016785,0.001678,1.004623,-0.018912,-0.013771,-0.009214,64.183197,21.512878,-147.431549,,,
729607130.748263,0.709583,1.624692,51.390457,-0.016785,0.001678,1.004623,-0.018912,-0.013771,-0.009214,64.310287,21.519592,-147.635498,,,
729607130.751558,0.705482,1.623006,51.387646,-0.012268,0.003586,1.011597,-0.013101,-0.003217,-0.013236,64.310287,21.519592,-147.635498,,,
729607130.754893,0.70418,1.63059,51.38407,-0.012268,0.003586,1.011597,-0.013101,-0.003217,-0.013236,64.310287,21.519592,-147.635498,,,
729607130.758207,0.70418,1.63059,51.38407,-0.012268,0.003586,1.011597,-0.013101,-0.003217,-0.013236,64.310287,21.519592,-147.635498,,,
729607130.761618,0.705065,1.63296,51.379752,-0.010406,0.006775,1.012848,0.00555,0.009008,-0.018124,64.310287,21.519592,-147.635498,,,
729607130.764904,0.708157,1.644827,51.374288,-0.010406,0.006775,1.012848,0.00555,0.009008,-0.018124,64.310287,21.519592,-147.635498,,,
729607130.768222,0.708157,1.644827,51.374288,-0.010406,0.006775,1.012848,0.00555,0.009008,-0.018124,64.310287,21.519592,-147.635498,,,
729607130.771547,0.714133,1.651942,51.367765,-0.010422,0.006378,1.013397,0.020193,0.029939,-0.023072,64.310287,21.519592,-147.635498,,,
729607130.774949,0.721071,1.66452,51.360168,-0.010422,0.006378,1.013397,0.020193,0.029939,-0.023072,64.310287,21.519592,-147.635498,,,
729607130.778216,0.721071,1.66452,51.360168,-0.010422,0.006378,1.013397,0.020193,0.029939,-0.023072,64.310287,21.519592,-147.635498,,,
729607130.781571,0.728537,1.676634,51.351882,-0.010635,0.014404,1.000443,0.026131,0.04681,-0.030204,64.310287,21.519592,-147.635498,,,
729607130.784883,0.735217,1.690442,51.343298,-0.010635,0.014404,1.000443,0.026131,0.04681,-0.030204,64.310287,21.519592,-147.635498,,,
729607130.788304,0.735217,1.690442,51.343298,-0.010635,0.014404,1.000443,0.026131,0.04681,-0.030204,64.310287,21.519592,-147.635498,,,
729607130.791548,0.739324,1.70491,51.334844,-0.018829,0.020828,0.979248,0.015485,0.053128,-0.030277,64.201965,21.51828,-147.822403,,,
729607130.794889,0.739867,1.714428,51.326751,-0.018829,0.020828,0.979248,0.015485,0.053128,-0.030277,64.201965,21.51828,-147.822403,,,
729607130.798252,0.739867,1.714428,51.326751,-0.018829,0.020828,0.979248,0.015485,0.053128,-0.030277,64.201965,21.51828,-147.822403,,,
729607130.801567,0.737102,1.725499,51.319121,-0.028168,0.021942,0.957443,-0.008159,0.041677,-0.02962,64.201965,21.51828,-147.822403,,,
729607130.804907,0.73012,1.729337,51.311867,-0.028168,0.021942,0.957443,-0.008159,0.041677,-0.02962,64.201965,21.51828,-147.822403,,,
729607130.808228,0.73012,1.729337,51.311867,-0.028168,0.021942,0.957443,-0.008159,0.041677,-0.02962,64.201965,21.51828,-147.822403,,,
729607130.811561,0.719669,1.731958,51.304403,-0.029602,0.020447,0.947266,-0.034065,0.010576,-0.026203,64.201965,21.51828,-147.822403,,,
729607130.814944,0.704495,1.724631,51.297642,-0.029602,0.020447,0.947266,-0.034065,0.010576,-0.026203,64.201965,21.51828,-147.822403,,,
729607130.818212,0.704495,1.724631,51.297642,-0.029602,0.020447,0.947266,-0.034065,0.010576,-0.026203,64.201965,21.51828,-147.822403,,,
729607130.821556,0.689288,1.718388,51.291481,-0.035965,0.013672,0.952347,-0.051625,-0.018551,-0.026323,64.201965,21.51828,-147.822403,,,
729607130.824886,0.671357,1.703342,51.285352,-0.035965,0.013672,0.952347,-0.051625,-0.018551,-0.026323,64.201965,21.51828,-147.822403,,,
729607130.828271,0.671357,1.703342,51.285352,-0.035965,0.013672,0.952347,-0.051625,-0.018551,-0.026323,64.201965,21.51828,-147.822403,,,
729607130.831551,0.656387,1.694297,51.279184,-0.038605,0.015076,0.976059,-0.050446,-0.027692,-0.021755,64.459946,21.719727,-147.940018,,,
729607130.834876,0.641097,1.677772,51.273842,-0.038605,0.015076,0.976059,-0.050446,-0.027692,-0.021755,64.459946,21.719727,-147.940018,,,
729607130.838222,0.641097,1.677772,51.273842,-0.038605,0.015076,0.976059,-0.050446,-0.027692,-0.021755,64.459946,21.719727,-147.940018,,,
729607130.841648,0.626839,1.671389,51.269212,-0.033707,0.01564,0.991348,-0.047295,-0.018104,-0.020675,64.459946,21.719727,-147.940018,,,
729607130.844897,0.611076,1.661385,51.264541,-0.033707,0.01564,0.991348,-0.047295,-0.018104,-0.020675,64.459946,21.719727,-147.940018,,,
729607130.848231,0.611076,1.661385,51.264541,-0.033707,0.01564,0.991348,-0.047295,-0.018104,-0.020675,64.459946,21.719727,-147.940018,,,
729607130.851556,0.595881,1.662509,51.259582,-0.032257,0.01004,0.99971,-0.051837,0.007539,-0.01912,64.459946,21.719727,-147.940018,,,
729607130.854885,0.58024,1.658008,51.254066,-0.032257,0.01004,0.99971,-0.051837,0.007539,-0.01912,64.459946,21.719727,-147.940018,,,
729607130.858209,0.58024,1.658008,51.254066,-0.032257,0.01004,0.99971,-0.051837,0.007539,-0.01912,64.459946,21.719727,-147.940018,,,
729607130.861565,0.564597,1.665702,51.24773,-0.032349,0.008453,1.000031,-0.055108,0.02927,-0.024062,64.459946,21.719727,-147.940018,,,
729607130.864944,0.549919,1.670209,51.240881,-0.032349,0.008453,1.000031,-0.055108,0.02927,-0.024062,64.459946,21.719727,-147.940018,,,
729607130.868203,0.549919,1.670209,51.240881,-0.032349,0.008453,1.000031,-0.055108,0.02927,-0.024062,64.459946,21.719727,-147.940018,,,
729607130.871557,0.53299,1.68255,51.234403,-0.042633,0.007996,1.003326,-0.059208,0.048176,-0.026525,64.519348,21.506714,-147.312073,,,
729607130.874891,0.518839,1.692347,51.229972,-0.042633,0.007996,1.003326,-0.059208,0.048176,-0.026525,64.519348,21.506714,-147.312073,,,
729607130.878294,0.518839,1.692347,51.229972,-0.042633,0.007996,1.003326,-0.059208,0.048176,-0.026525,64.519348,21.506714,-147.312073,,,
729607130.881562,0.503547,1.702734,51.228195,-0.053925,0.001144,1.003433,-0.052855,0.03879,-0.008557,64.519348,21.506714,-147.312073,,,
729607130.884877,0.491894,1.710671,51.2291,-0.053925,0.001144,1.003433,-0.052855,0.03879,-0.008557,64.519348,21.506714,-147.312073,,,
729607130.888227,0.491894,1.710671,51.2291,-0.053925,0.001144,1.003433,-0.052855,0.03879,-0.008557,64.519348,21.506714,-147.312073,,,
729607130.891627,0.479272,1.715446,51.23265,-0.064926,-0.006073,1.004242,-0.044816,0.020292,0.011597,64.519348,21.506714,-147.312073,,,
729607130.894886,0.470445,1.719346,51.238664,-0.064926,-0.006073,1.004242,-0.044816,0.020292,0.011597,64.519348,21.506714,-147.312073,,,
729607130.898217,0.470445,1.719346,51.238664,-0.064926,-0.006073,1.004242,-0.044816,0.020292,0.011597,64.519348,21.506714,-147.312073,,,
729607130.901563,0.460657,1.721333,51.246876,-0.063766,-0.005966,1.009644,-0.034718,0.01073,0.025431,64.519348,21.506714,-147.312073,,,
729607130.904898,0.452504,1.72801,51.256195,-0.063766,-0.005966,1.009644,-0.034718,0.01073,0.025431,64.519348,21.506714,-147.312073,,,
729607130.90823,0.452504,1.72801,51.256195,-0.063766,-0.005966,1.009644,-0.034718,0.01073,0.025431,64.519348,21.506714,-147.312073,,,
729607130.911579,0.443422,1.731024,51.265856,-0.053253,-0.001465,1.013702,-0.031732,0.013797,0.033877,64.576492,21.760559,-147.301025,,,
729607130.914878,0.435944,1.73665,51.275341,-0.053253,-0.001465,1.013702,-0.031732,0.013797,0.033877,64.576492,21.760559,-147.301025,,,
729607130.918211,0.435944,1.73665,51.275341,-0.053253,-0.001465,1.013702,-0.031732,0.013797,0.033877,64.576492,21.760559,-147.301025,,,
729607130.921552,0.427292,1.739198,51.28417,-0.037476,0.005661,1.011749,-0.028879,0.014375,0.02895,64.576492,21.760559,-147.301025,,,
729607130.92489,0.420555,1.741108,51.291955,-0.037476,0.005661,1.011749,-0.028879,0.014375,0.02895,64.576492,21.760559,-147.301025,,,
729607130.928272,0.420555,1.741108,51.291955,-0.037476,0.005661,1.011749,-0.028879,0.014375,0.02895,64.576492,21.760559,-147.301025,,,
729607130.931562,0.413545,1.73999,51.298399,-0.02803,0.009872,1.00444,-0.027004,-0.001031,0.019163,64.576492,21.760559,-147.301025,,,
729607130.934879,0.407683,1.737294,51.303691,-0.02803,0.009872,1.00444,-0.027004,-0.001031,0.019163,64.576492,21.760559,-147.301025,,,
729607130.938243,0.407683,1.737294,51.303691,-0.02803,0.009872,1.00444,-0.027004,-0.001031,0.019163,64.576492,21.760559,-147.301025,,,
729607130.941552,0.40213,1.732521,51.308137,-0.022507,0.011429,1.00322,-0.018649,-0.016005,0.014619,64.576492,21.760559,-147.301025,,,
729607130.944906,0.39723,1.727934,51.311631,-0.022507,0.011429,1.00322,-0.018649,-0.016005,0.014619,64.576492,21.760559,-147.301025,,,
729607130.948233,0.39723,1.727934,51.311631,-0.022507,0.011429,1.00322,-0.018649,-0.016005,0.014619,64.576492,21.760559,-147.301025,,,
729607130.951552,0.391781,1.719899,51.314051,-0.015274,0.013077,1.001389,-0.018461,-0.025099,0.005781,64.576492,21.760559,-147.301025,,,
729607130.954879,0.386108,1.71987,51.315289,-0.015274,0.013077,1.001389,-0.018461,-0.025099,0.005781,64.606537,21.801743,-147.621445,,,
729607130.958208,0.386108,1.71987,51.315289,-0.015274,0.013077,1.001389,-0.018461,-0.025099,0.005781,64.606537,21.801743,-147.621445,,,
729607130.961572,0.380866,1.714162,51.315067,-0.010071,0.015198,1.006775,-0.018574,-0.014648,-0.00223,64.606537,21.801743,-147.621445,,,
729607130.964972,0.37361,1.723396,51.313653,-0.010071,0.015198,1.006775,-0.018574,-0.014648,-0.00223,64.606537,21.801743,-147.621445,,,
729607130.968278,0.37361,1.723396,51.313653,-0.010071,0.015198,1.006775,-0.018574,-0.014648,-0.00223,64.606537,21.801743,-147.621445,,,
729607130.97161,0.367813,1.722725,51.312024,-0.00946,0.011536,1.010483,-0.023054,-0.0003,-0.008978,64.606537,21.801743,-147.621445,,,
729607130.974871,0.359551,1.74097,51.309933,-0.00946,0.011536,1.010483,-0.023054,-0.0003,-0.008978,64.606537,21.801743,-147.621445,,,
729607130.978293,0.359551,1.74097,51.309933,-0.00946,0.011536,1.010483,-0.023054,-0.0003,-0.008978,64.606537,21.801743,-147.621445,,,
729607130.981551,0.354469,1.745274,51.307858,-0.014252,0.009201,1.012451,-0.017279,0.019426,-0.009633,64.606537,21.801743,-147.621445,,,
729607130.984879,0.348077,1.764008,51.306168,-0.014252,0.009201,1.012451,-0.017279,0.019426,-0.009633,64.606537,21.801743,-147.621445,,,
729607130.988218,0.348077,1.764008,51.306168,-0.014252,0.009201,1.012451,-0.017279,0.019426,-0.009633,64.606537,21.801743,-147.621445,,,
729607130.991628,0.34478,1.769848,51.304918,-0.022491,0.00679,1.013336,-0.01178,0.024229,-0.005252,64.606537,21.801743,-147.621445,,,
729607130.994884,0.340697,1.782641,51.303717,-0.022491,0.00679,1.013336,-0.01178,0.024229,-0.005252,64.70195,21.862595,-147.719467,,,
729607130.998224,0.340697,1.782641,51.303717,-0.022491,0.00679,1.013336,-0.01178,0.024229,-0.005252,64.70195,21.862595,-147.719467,,,
729607131.001549,0.337175,1.787421,51.302694,-0.02655,0.006866,1.006851,-0.012012,0.022357,-0.005924,64.70195,21.862595,-147.719467,,,
729607131.004964,0.334131,1.791341,51.302012,-0.02655,0.006866,1.006851,-0.012012,0.022357,-0.005924,64.70195,21.862595,-147.719467,,,
729607131.008228,0.334131,1.791341,51.302012,-0.02655,0.006866,1.006851,-0.012012,0.022357,-0.005924,64.70195,21.862595,-147.719467,,,
729607131.01156,0.331343,1.793734,51.301736,-0.031326,0.005005,1.001038,-0.010153,0.00845,-0.004412,64.70195,21.862595,-147.719467,,,
729607131.014893,0.329969,1.792255,51.302079,-0.031326,0.005005,1.001038,-0.010153,0.00845,-0.004412,64.70195,21.862595,-147.719467,,,
729607131.018248,0.329969,1.792255,51.302079,-0.031326,0.005005,1.001038,-0.010153,0.00845,-0.004412,64.70195,21.862595,-147.719467,,,
729607131.021543,0.328143,1.792341,51.303408,-0.037994,0.007019,1.003448,-0.005912,0.003472,0.00182,64.70195,21.862595,-147.719467,,,
729607131.024883,0.32911,1.786373,51.305957,-0.037994,0.007019,1.003448,-0.005912,0.003472,0.00182,64.70195,21.862595,-147.719467,,,
729607131.028207,0.32911,1.786373,51.305957,-0.037994,0.007019,1.003448,-0.005912,0.003472,0.00182,64.70195,21.862595,-147.719467,,,
729607131.031544,0.331323,1.784231,51.309293,-0.037872,0.008148,1.012085,0.005281,-0.004421,0.010246,64.70195,21.862595,-147.719467,,,
729607131.03488,0.336952,1.77245,51.31297,-0.037872,0.008148,1.012085,0.005281,-0.004421,0.010246,64.729202,21.769348,-147.660721,,,
729607131.038225,0.336952,1.77245,51.31297,-0.037872,0.008148,1.012085,0.005281,-0.004421,0.010246,64.729202,21.769348,-147.660721,,,
729607131.041603,0.341805,1.76708,51.316271,-0.036728,0.006104,1.010147,0.017595,-0.016011,0.009754,64.729202,21.769348,-147.660721,,,
729607131.044867,0.349454,1.750518,51.319266,-0.036728,0.006104,1.010147,0.017595,-0.016011,0.009754,64.729202,21.769348,-147.660721,,,
729607131.048226,0.349454,1.750518,51.319266,-0.036728,0.006104,1.010147,0.017595,-0.016011,0.009754,64.729202,21.769348,-147.660721,,,
729607131.051548,0.355975,1.743001,51.32199,-0.031815,0.00769,1.008362,0.02071,-0.021746,0.00684,64.729202,21.769348,-147.660721,,,
729607131.054913,0.362284,1.726067,51.323973,-0.031815,0.00769,1.008362,0.02071,-0.021746,0.00684,64.729202,21.769348,-147.660721,,,
729607131.058213,0.362284,1.726067,51.323973,-0.031815,0.00769,1.008362,0.02071,-0.021746,0.00684,64.729202,21.769348,-147.660721,,,
729607131.061567,0.366185,1.716739,51.324875,-0.029861,0.012344,0.999573,0.013524,-0.029606,0.00217,64.729202,21.769348,-147.660721,,,
729607131.064881,0.369457,1.7009,51.325158,-0.029861,0.012344,0.999573,0.013524,-0.029606,0.00217,64.729202,21.769348,-147.660721,,,
729607131.06821,0.369457,1.7009,51.325158,-0.029861,0.012344,0.999573,0.013524,-0.029606,0.00217,64.729202,21.769348,-147.660721,,,
729607131.07154,0.370794,1.69032,51.324947,-0.025909,0.01387,0.996689,0.00674,-0.033082,-0.00315,64.729202,21.769348,-147.660721,,,
729607131.074917,0.370727,1.676919,51.324095,-0.025909,0.01387,0.996689,0.00674,-0.033082,-0.00315,64.729202,21.769348,-147.660721,,,
729607131.07822,0.370727,1.676919,51.324095,-0.025909,0.01387,0.996689,0.00674,-0.033082,-0.00315,64.492126,21.831451,-147.753326,,,
729607131.081629,0.370145,1.665774,51.322249,-0.023087,0.013138,0.993698,-0.000288,-0.035952,-0.006739,64.492126,21.831451,-147.753326,,,
729607131.084883,0.370098,1.65468,51.319753,-0.023087,0.013138,0.993698,-0.000288,-0.035952,-0.006739,64.492126,21.831451,-147.753326,,,
729607131.088318,0.370098,1.65468,51.319753,-0.023087,0.013138,0.993698,-0.000288,-0.035952,-0.006739,64.492126,21.831451,-147.753326,,,
729607131.091621,0.371056,1.645214,51.31749,-0.027222,0.014069,1.001694,0.004264,-0.029872,-0.011827,64.492126,21.831451,-147.753326,,,
729607131.09498,0.372975,1.639764,51.316038,-0.027222,0.014069,1.001694,0.004264,-0.029872,-0.011827,64.492126,21.831451,-147.753326,,,
729607131.098239,0.372975,1.639764,51.316038,-0.027222,0.014069,1.001694,0.004264,-0.029872,-0.011827,64.492126,21.831451,-147.753326,,,
729607131.101631,0.376929,1.633433,51.315208,-0.039108,0.0103,1.008835,0.012528,-0.019886,-0.003021,64.492126,21.831451,-147.753326,,,
729607131.104893,0.38279,1.633094,51.315106,-0.039108,0.0103,1.008835,0.012528,-0.019886,-0.003021,64.492126,21.831451,-147.753326,,,
729607131.10828,0.38279,1.633094,51.315106,-0.039108,0.0103,1.008835,0.012528,-0.019886,-0.003021,64.492126,21.831451,-147.753326,,,
729607131.111555,0.389654,1.629558,51.315942,-0.041016,0.006302,1.008972,0.022258,-0.010421,0.000875,64.492126,21.831451,-147.753326,,,
729607131.114916,0.397429,1.631176,51.316448,-0.041016,0.006302,1.008972,0.022258,-0.010421,0.000875,64.492126,21.831451,-147.753326,,,
729607131.118251,0.397429,1.631176,51.316448,-0.041016,0.006302,1.008972,0.022258,-0.010421,0.000875,64.544922,21.872055,-147.43541,,,
729607131.121549,0.405056,1.629758,51.316405,-0.034653,0.009735,1.001373,0.028209,-0.002536,7.9e-05,64.544922,21.872055,-147.43541,,,
729607131.124909,0.412378,1.631913,51.316239,-0.034653,0.009735,1.001373,0.028209,-0.002536,7.9e-05,64.544922,21.872055,-147.43541,,,
729607131.12823,0.412378,1.631913,51.316239,-0.034653,0.009735,1.001373,0.028209,-0.002536,7.9e-05,64.544922,21.872055,-147.43541,,,
729607131.131605,0.41991,1.631468,51.316068,-0.036102,0.012711,0.994675,0.027003,-0.000194,3.6e-05,64.544922,21.872055,-147.43541,,,
729607131.13487,0.42726,1.631697,51.315769,-0.036102,0.012711,0.994675,0.027003,-0.000194,3.6e-05,64.544922,21.872055,-147.43541,,,
729607131.13822,0.42726,1.631697,51.315769,-0.036102,0.012711,0.994675,0.027003,-0.000194,3.6e-05,64.544922,21.872055,-147.43541,,,
729607131.141539,0.433719,1.630645,51.315502,-0.036163,0.00769,0.992706,0.023224,0.00134,-0.00102,64.544922,21.872055,-147.43541,,,
729607131.144905,0.441166,1.62906,51.315822,-0.036163,0.00769,0.992706,0.023224,0.00134,-0.00102,64.544922,21.872055,-147.43541,,,
729607131.148227,0.441166,1.62906,51.315822,-0.036163,0.00769,0.992706,0.023224,0.00134,-0.00102,64.544922,21.872055,-147.43541,,,
729607131.151542,0.447711,1.625908,51.31741,-0.039062,0.002991,0.990463,0.024318,-0.009452,0.005595,64.544922,21.872055,-147.43541,,,
729607131.154897,0.456032,1.619708,51.319974,-0.039062,0.002991,0.990463,0.024318,-0.009452,0.005595,64.544922,21.872055,-147.43541,,,
729607131.158201,0.456032,1.619708,51.319974,-0.039062,0.002991,0.990463,0.024318,-0.009452,0.005595,64.400208,21.695419,-147.666885,,,
729607131.161558,0.463597,1.615144,51.322775,-0.040955,0.002609,0.991928,0.02692,-0.012354,0.009807,64.400208,21.695419,-147.666885,,,
729607131.164883,0.472647,1.609627,51.326099,-0.040955,0.002609,0.991928,0.02692,-0.012354,0.009807,64.400208,21.695419,-147.666885,,,
729607131.168218,0.472647,1.609627,51.326099,-0.040955,0.002609,0.991928,0.02692,-0.012354,0.009807,64.400208,21.695419,-147.666885,,,
729607131.171544,0.481434,1.607787,51.329446,-0.035614,0.002899,0.99556,0.029297,-0.006789,0.009096,64.400208,21.695419,-147.666885,,,
729607131.174892,0.491922,1.608379,51.332731,-0.035614,0.002899,0.99556,0.029297,-0.006789,0.009096,64.400208,21.695419,-147.666885,,,
729607131.178233,0.491922,1.608379,51.332731,-0.035614,0.002899,0.99556,0.029297,-0.006789,0.009096,64.400208,21.695419,-147.666885,,,
729607131.181646,0.501565,1.608914,51.336488,-0.032394,0.002716,0.992371,0.033294,0.005325,0.013753,64.400208,21.695419,-147.666885,,,
729607131.184866,0.501565,1.608914,51.336488,-0.032394,0.002716,0.992371,0.033294,0.005325,0.013753,64.400208,21.695419,-147.666885,,,
729607131.18824,0.510859,1.616722,51.34106,-0.032394,0.002716,0.992371,0.033294,0.005325,0.013753,64.400208,21.695419,-147.666885,,,
729607131.191565,0.519809,1.618908,51.346713,-0.030716,0.000137,0.992142,0.030774,0.011643,0.020108,64.400208,21.695419,-147.666885,,,
729607131.194873,0.527439,1.625342,51.353009,-0.030716,0.000137,0.992142,0.030774,0.011643,0.020108,64.400208,21.695419,-147.666885,,,
729607131.198224,0.527439,1.625342,51.353009,-0.030716,0.000137,0.992142,0.030774,0.011643,0.020108,64.469269,21.696976,-147.350891,,,
729607131.201547,0.534839,1.62764,51.359371,-0.029175,0.008469,0.984375,0.02611,0.007224,0.019153,64.469269,21.696976,-147.350891,,,
729607131.204974,0.542193,1.634032,51.365171,-0.029175,0.008469,0.984375,0.02611,0.007224,0.019153,64.469269,21.696976,-147.350891,,,
729607131.208215,0.542193,1.634032,51.365171,-0.029175,0.008469,0.984375,0.02611,0.007224,0.019153,64.469269,21.696976,-147.350891,,,
729607131.211556,0.548499,1.637266,51.370468,-0.027161,0.00705,0.986023,0.023117,0.01615,0.017636,64.469269,21.696976,-147.350891,,,
729607131.214899,0.548499,1.642409,51.375732,-0.027161,0.00705,0.986023,0.023117,0.01615,0.017636,64.469269,21.696976,-147.350891,,,
729607131.218211,0.554118,1.642409,51.375732,-0.027161,0.00705,0.986023,0.023117,0.01615,0.017636,64.469269,21.696976,-147.350891,,,
729607131.221557,0.558811,1.641276,51.380688,-0.023819,0.005859,0.983765,0.016533,0.000361,0.015568,64.469269,21.696976,-147.350891,,,
729607131.224893,0.558811,1.641276,51.380688,-0.023819,0.005859,0.983765,0.016533,0.000361,0.015568,64.469269,21.696976,-147.350891,,,
729607131.228226,0.562898,1.641456,51.384494,-0.023819,0.005859,0.983765,0.016533,0.000361,0.015568,64.469269,21.696976,-147.350891,,,
729607131.231552,0.56728,1.635713,51.387419,-0.017273,0.008636,0.982361,0.01183,-0.015433,0.007185,64.469269,21.696976,-147.350891,,,
729607131.234877,0.56728,1.635713,51.387419,-0.017273,0.008636,0.982361,0.01183,-0.015433,0.007185,64.469269,21.696976,-147.350891,,,
729607131.238259,0.569618,1.634919,51.388757,-0.017273,0.008636,0.982361,0.01183,-0.015433,0.007185,64.469269,21.696976,-147.350891,,,
729607131.241549,0.573279,1.629929,51.388073,-0.01268,0.010696,0.990387,0.01664,-0.014887,-0.00385,64.317947,21.571823,-147.629395,,,
729607131.244952,0.573279,1.629929,51.388073,-0.01268,0.010696,0.990387,0.01664,-0.014887,-0.00385,64.317947,21.571823,-147.629395,,,
729607131.248212,0.574996,1.630975,51.385735,-0.01268,0.010696,0.990387,0.01664,-0.014887,-0.00385,64.317947,21.571823,-147.629395,,,
729607131.251547,0.577601,1.628056,51.382793,-0.011414,0.006683,0.995071,0.009892,-0.008065,-0.011211,64.317947,21.571823,-147.629395,,,
729607131.254885,0.577601,1.628056,51.382793,-0.011414,0.006683,0.995071,0.009892,-0.008065,-0.011211,64.317947,21.571823,-147.629395,,,
729607131.258297,0.578193,1.629633,51.379669,-0.011414,0.006683,0.995071,0.009892,-0.008065,-0.011211,64.317947,21.571823,-147.629395,,,
729607131.261546,0.579271,1.631177,51.376636,-0.011658,0.003174,0.994492,0.006642,0.008918,-0.010902,64.317947,21.571823,-147.629395,,,
729607131.264893,0.579271,1.631177,51.376636,-0.011658,0.003174,0.994492,0.006642,0.008918,-0.010902,64.317947,21.571823,-147.629395,,,
729607131.268259,0.577837,1.637689,51.374122,-0.011658,0.003174,0.994492,0.006642,0.008918,-0.010902,64.317947,21.571823,-147.629395,,,
729607131.27155,0.577285,1.644541,51.372693,-0.02034,0.000366,0.99794,-0.002915,0.029948,-0.005372,64.317947,21.571823,-147.629395,,,
729607131.274898,0.577285,1.644541,51.372693,-0.02034,0.000366,0.99794,-0.002915,0.029948,-0.005372,64.317947,21.571823,-147.629395,,,
729607131.278006,0.574658,1.652981,51.372885,-0.02034,0.000366,0.99794,-0.002915,0.029948,-0.005372,64.317947,21.571823,-147.629395,,,
729607131.28158,0.574131,1.659863,51.37421,-0.028992,-0.005066,0.995163,-0.001663,0.026887,0.003625,64.233627,21.669479,-147.652145,,,
729607131.284886,0.574131,1.659863,51.37421,-0.028992,-0.005066,0.995163,-0.001663,0.026887,0.003625,64.233627,21.669479,-147.652145,,,
729607131.288226,0.574058,1.665434,51.376577,-0.028992,-0.005066,0.995163,-0.001663,0.026887,0.003625,64.233627,21.669479,-147.652145,,,
729607131.291565,0.575777,1.669757,51.379987,-0.030579,-0.002274,0.998703,0.007291,0.017125,0.010334,64.233627,21.669479,-147.652145,,,
729607131.294956,0.575777,1.669757,51.379987,-0.030579,-0.002274,0.998703,0.007291,0.017125,0.010334,64.233627,21.669479,-147.652145,,,
729607131.298213,0.578468,1.671974,51.384043,-0.030579,-0.002274,0.998703,0.007291,0.017125,0.010334,64.233627,21.669479,-147.652145,,,
729607131.301582,0.582645,1.67408,51.388416,-0.031281,0.001541,1.00322,0.014974,0.009915,0.013683,64.233627,21.669479,-147.652145,,,
729607131.304899,0.582645,1.67408,51.388416,-0.031281,0.001541,1.00322,0.014974,0.009915,0.013683,64.233627,21.669479,-147.652145,,,
729607131.308294,0.586645,1.671919,51.392597,-0.031281,0.001541,1.00322,0.014974,0.009915,0.013683,64.233627,21.669479,-147.652145,,,
729607131.311543,0.591208,1.672943,51.395771,-0.027374,0.005371,1.001724,0.015134,0.007234,0.011435,64.233627,21.669479,-147.652145,,,
729607131.314894,0.591208,1.672943,51.395771,-0.027374,0.005371,1.001724,0.015134,0.007234,0.011435,64.233627,21.669479,-147.652145,,,
729607131.318208,0.594797,1.667482,51.397429,-0.027374,0.005371,1.001724,0.015134,0.007234,0.011435,64.233627,21.669479,-147.652145,,,
729607131.321554,0.597012,1.667449,51.397558,-0.016891,0.011871,0.993439,0.008543,0.002496,-0.001589,64.125122,21.441055,-147.513428,,,
729607131.324898,0.597012,1.667449,51.397558,-0.016891,0.011871,0.993439,0.008543,0.002496,-0.001589,64.125122,21.441055,-147.513428,,,
729607131.328216,0.597684,1.659779,51.396162,-0.016891,0.011871,0.993439,0.008543,0.002496,-0.001589,64.125122,21.441055,-147.513428,,,
729607131.331547,0.597561,1.661614,51.393404,-0.014206,0.013901,0.993393,-0.002131,0.009145,-0.009703,64.125122,21.441055,-147.513428,,,
729607131.334885,0.597561,1.661614,51.393404,-0.014206,0.013901,0.993393,-0.002131,0.009145,-0.009703,64.125122,21.441055,-147.513428,,,
729607131.338237,0.595795,1.656839,51.390581,-0.014206,0.013901,0.993393,-0.002131,0.009145,-0.009703,64.125122,21.441055,-147.513428,,,
729607131.341542,0.594648,1.661342,51.38846,-0.018951,0.013794,0.998932,-0.004255,0.019682,-0.010042,64.125122,21.441055,-147.513428,,,
729607131.344952,0.594648,1.661342,51.38846,-0.018951,0.013794,0.998932,-0.004255,0.019682,-0.010042,64.125122,21.441055,-147.513428,,,
729607131.348225,0.592402,1.659422,51.387557,-0.018951,0.013794,0.998932,-0.004255,0.019682,-0.010042,64.125122,21.441055,-147.513428,,,
729607131.351547,0.592736,1.66395,51.387565,-0.02272,0.013885,0.998825,0.001798,0.020151,-0.002373,64.125122,21.441055,-147.513428,,,
729607131.354893,0.592736,1.66395,51.387565,-0.02272,0.013885,0.998825,0.001798,0.020151,-0.002373,64.125122,21.441055,-147.513428,,,
729607131.358268,0.590801,1.666457,51.388042,-0.02272,0.013885,0.998825,0.001798,0.020151,-0.002373,64.125122,21.441055,-147.513428,,,
729607131.361543,0.590751,1.670293,51.388626,-0.026764,0.013947,0.997131,0.003164,0.014964,0.00336,64.322067,21.791824,-147.422241,,,
729607131.364888,0.590751,1.670293,51.388626,-0.026764,0.013947,0.997131,0.003164,0.014964,0.00336,64.322067,21.791824,-147.422241,,,
729607131.368211,0.5866,1.673394,51.388982,-0.026764,0.013947,0.997131,0.003164,0.014964,0.00336,64.322067,21.791824,-147.422241,,,
729607131.371548,0.583695,1.674976,51.389081,-0.027039,0.016022,0.987762,-0.009269,0.007003,-0.000248,64.322067,21.791824,-147.422241,,,
729607131.374897,0.583695,1.674976,51.389081,-0.027039,0.016022,0.987762,-0.009269,0.007003,-0.000248,64.322067,21.791824,-147.422241,,,
729607131.378232,0.576278,1.675791,51.388654,-0.027039,0.016022,0.987762,-0.009269,0.007003,-0.000248,64.322067,21.791824,-147.422241,,,
729607131.381547,0.569647,1.673695,51.387211,-0.028549,0.016266,0.985199,-0.022518,-0.00378,-0.006971,64.322067,21.791824,-147.422241,,,
729607131.384876,0.569647,1.673695,51.387211,-0.028549,0.016266,0.985199,-0.022518,-0.00378,-0.006971,64.322067,21.791824,-147.422241,,,
729607131.388233,0.560153,1.670872,51.385041,-0.028549,0.016266,0.985199,-0.022518,-0.00378,-0.006971,64.322067,21.791824,-147.422241,,,
729607131.39155,0.550989,1.666298,51.382488,-0.030594,0.015594,0.988998,-0.032178,-0.015203,-0.01168,64.322067,21.791824,-147.422241,,,
729607131.394872,0.550989,1.666298,51.382488,-0.030594,0.015594,0.988998,-0.032178,-0.015203,-0.01168,64.322067,21.791824,-147.422241,,,
729607131.398274,0.541981,1.656927,51.379986,-0.030594,0.015594,0.988998,-0.032178,-0.015203,-0.01168,64.322067,21.791824,-147.422241,,,
729607131.401542,0.53435,1.648009,51.378197,-0.034073,0.009888,0.993423,-0.028959,-0.027229,-0.008257,64.322067,21.791824,-147.422241,,,
729607131.404901,0.53435,1.648009,51.378197,-0.034073,0.009888,0.993423,-0.028959,-0.027229,-0.008257,64.209442,21.514328,-147.39357,,,
729607131.408224,0.528608,1.631708,51.378093,-0.034073,0.009888,0.993423,-0.028959,-0.027229,-0.008257,64.209442,21.514328,-147.39357,,,
729607131.41155,0.523073,1.623075,51.378802,-0.038589,0.004578,1.006378,-0.018444,-0.025176,0.00175,64.209442,21.514328,-147.39357,,,
729607131.414888,0.523073,1.623075,51.378802,-0.038589,0.004578,1.006378,-0.018444,-0.025176,0.00175,64.209442,21.514328,-147.39357,,,
729607131.418219,0.519687,1.610503,51.380148,-0.038589,0.004578,1.006378,-0.018444,-0.025176,0.00175,64.209442,21.514328,-147.39357,,,
729607131.421546,0.516016,1.603902,51.382695,-0.036148,0.002441,1.010101,-0.010379,-0.017225,0.006767,64.209442,21.514328,-147.39357,,,
729607131.424948,0.516016,1.603902,51.382695,-0.036148,0.002441,1.010101,-0.010379,-0.017225,0.006767,64.209442,21.514328,-147.39357,,,
729607131.428212,0.514383,1.594695,51.385758,-0.036148,0.002441,1.010101,-0.010379,-0.017225,0.006767,64.209442,21.514328,-147.39357,,,
729607131.431549,0.512224,1.59025,51.389047,-0.031418,0.008392,1.005066,-0.010171,-0.014169,0.008487,64.209442,21.514328,-147.39357,,,
729607131.434873,0.512224,1.59025,51.389047,-0.031418,0.008392,1.005066,-0.010171,-0.014169,0.008487,64.209442,21.514328,-147.39357,,,
729607131.438294,0.510362,1.585967,51.392121,-0.031418,0.008392,1.005066,-0.010171,-0.014169,0.008487,64.209442,21.514328,-147.39357,,,
729607131.441542,0.50668,1.584535,51.393715,-0.023407,0.011032,1.002701,-0.011868,-0.001211,0.002853,64.209442,21.514328,-147.39357,,,
729607131.44487,0.50668,1.584535,51.393715,-0.023407,0.011032,1.002701,-0.011868,-0.001211,0.002853,64.235825,21.659561,-147.464554,,,
729607131.448225,0.503288,1.583502,51.394229,-0.023407,0.011032,1.002701,-0.011868,-0.001211,0.002853,64.235825,21.659561,-147.464554,,,
729607131.451546,0.499058,1.581738,51.393405,-0.015869,0.012695,0.995026,-0.018014,-0.001688,-0.005373,64.235825,21.659561,-147.464554,,,
729607131.454892,0.499058,1.581738,51.393405,-0.015869,0.012695,0.995026,-0.018014,-0.001688,-0.005373,64.235825,21.659561,-147.464554,,,
729607131.458232,0.496392,1.579582,51.390282,-0.015869,0.012695,0.995026,-0.018014,-0.001688,-0.005373,64.235825,21.659561,-147.464554,,,
729607131.461545,0.492208,1.577054,51.385423,-0.0103,0.013245,0.993973,-0.010787,-0.007596,-0.019551,64.235825,21.659561,-147.464554,,,
729607131.464867,0.492208,1.577054,51.385423,-0.0103,0.013245,0.993973,-0.010787,-0.007596,-0.019551,64.235825,21.659561,-147.464554,,,
729607131.468222,0.490697,1.576419,51.379292,-0.0103,0.013245,0.993973,-0.010787,-0.007596,-0.019551,64.235825,21.659561,-147.464554,,,
729607131.471538,0.48767,1.576664,51.372553,-0.012817,0.011307,0.99263,-0.009105,0.003443,-0.025086,64.235825,21.659561,-147.464554,,,
729607131.474962,0.48767,1.576664,51.372553,-0.012817,0.011307,0.99263,-0.009105,0.003443,-0.025086,64.235825,21.659561,-147.464554,,,
729607131.478215,0.485799,1.580627,51.365977,-0.012817,0.011307,0.99263,-0.009105,0.003443,-0.025086,64.235825,21.659561,-147.464554,,,
729607131.481547,0.483056,1.584177,51.360127,-0.017334,0.006577,0.989807,-0.008238,0.014431,-0.023321,64.235825,21.659561,-147.464554,,,
729607131.48488,0.483056,1.584177,51.360127,-0.017334,0.006577,0.989807,-0.008238,0.014431,-0.023321,64.23793,21.790558,-147.671692,,,
729607131.488203,0.48026,1.592693,51.355497,-0.017334,0.006577,0.989807,-0.008238,0.014431,-0.023321,64.23793,21.790558,-147.671692,,,
729607131.491549,0.477818,1.598175,51.352612,-0.022263,0.004333,0.984833,-0.008728,0.02094,-0.010996,64.23793,21.790558,-147.671692,,,
729607131.494892,0.477818,1.598175,51.352612,-0.022263,0.004333,0.984833,-0.008728,0.02094,-0.010996,64.23793,21.790558,-147.671692,,,
729607131.498223,0.474461,1.609133,51.35141,-0.022263,0.004333,0.984833,-0.008728,0.02094,-0.010996,64.23793,21.790558,-147.671692,,,
729607131.501548,0.472497,1.616374,51.350902,-0.026337,0.004059,0.990662,-0.004537,0.03046,-0.003895,64.23793,21.790558,-147.671692,,,
729607131.504892,0.472497,1.616374,51.350902,-0.026337,0.004059,0.990662,-0.004537,0.03046,-0.003895,64.23793,21.790558,-147.671692,,,
729607131.508218,0.468889,1.625202,51.350622,-0.026337,0.004059,0.990662,-0.004537,0.03046,-0.003895,64.23793,21.790558,-147.671692,,,
729607131.511544,0.465326,1.630039,51.350865,-0.02771,0.007446,0.986176,-0.011502,0.018692,-0.000772,64.23793,21.790558,-147.671692,,,
729607131.514951,0.465326,1.630039,51.350865,-0.02771,0.007446,0.986176,-0.011502,0.018692,-0.000772,64.23793,21.790558,-147.671692,,,
729607131.518237,0.462306,1.63445,51.35087,-0.02771,0.007446,0.986176,-0.011502,0.018692,-0.000772,64.23793,21.790558,-147.671692,,,
729607131.521542,0.458396,1.638678,51.350025,-0.03125,0.004074,0.991257,-0.013228,0.016899,-0.005595,64.23793,21.790558,-147.671692,,,
729607131.524882,0.458396,1.638678,51.350025,-0.03125,0.004074,0.991257,-0.013228,0.016899,-0.005595,64.235397,21.754547,-147.337769,,,
729607131.528302,0.45472,1.638331,51.348237,-0.03125,0.004074,0.991257,-0.013228,0.016899,-0.005595,64.235397,21.754547,-147.337769,,,
729607131.53154,0.450351,1.640288,51.345166,-0.032425,0.004715,0.999542,-0.013275,0.00829,-0.012859,64.235397,21.754547,-147.337769,,,
729607131.534889,0.450351,1.640288,51.345166,-0.032425,0.004715,0.999542,-0.013275,0.00829,-0.012859,64.235397,21.754547,-147.337769,,,
729607131.53823,0.447613,1.634266,51.341356,-0.032425,0.004715,0.999542,-0.013275,0.00829,-0.012859,64.235397,21.754547,-147.337769,,,
729607131.541548,0.44439,1.635581,51.337682,-0.038193,0.00351,1.001678,-0.009331,0.004864,-0.013492,64.235397,21.754547,-147.337769,,,
729607131.544892,0.44439,1.635581,51.337682,-0.038193,0.00351,1.001678,-0.009331,0.004864,-0.013492,64.235397,21.754547,-147.337769,,,
729607131.548206,0.442712,1.62997,51.33472,-0.038193,0.00351,1.001678,-0.009331,0.004864,-0.013492,64.235397,21.754547,-147.337769,,,
729607131.55155,0.440848,1.632635,51.332444,-0.044403,0.002243,1.009247,-0.008118,0.015101,-0.007919,64.235397,21.754547,-147.337769,,,
729607131.554931,0.440848,1.632635,51.332444,-0.044403,0.002243,1.009247,-0.008118,0.015101,-0.007919,64.235397,21.754547,-147.337769,,,
729607131.558209,0.440205,1.62852,51.330797,-0.044403,0.002243,1.009247,-0.008118,0.015101,-0.007919,64.235397,21.754547,-147.337769,,,
729607131.561548,0.439201,1.630325,51.329144,-0.041351,0.00499,1.004303,-0.000374,0.008248,-0.005806,64.235397,21.754547,-147.337769,,,
729607131.56488,0.439201,1.630325,51.329144,-0.041351,0.00499,1.004303,-0.000374,0.008248,-0.005806,64.235397,21.754547,-147.337769,,,
729607131.568216,0.437535,1.627982,51.327609,-0.041351,0.00499,1.004303,-0.000374,0.008248,-0.005806,64.224518,22.081558,-147.711349,,,
729607131.571552,0.436191,1.629961,51.325494,-0.035248,0.009796,1.003387,-0.001972,0.008766,-0.008388,64.224518,22.081558,-147.711349,,,
729607131.574881,0.436191,1.629961,51.325494,-0.035248,0.009796,1.003387,-0.001972,0.008766,-0.008388,64.224518,22.081558,-147.711349,,,
729607131.578223,0.434039,1.630922,51.32224,-0.035248,0.009796,1.003387,-0.001972,0.008766,-0.008388,64.224518,22.081558,-147.711349,,,
729607131.581546,0.432366,1.633384,51.31807,-0.031998,0.012894,0.996231,-0.005251,0.010321,-0.016219,64.224518,22.081558,-147.711349,,,
729607131.584872,0.432366,1.633384,51.31807,-0.031998,0.012894,0.996231,-0.005251,0.010321,-0.016219,64.224518,22.081558,-147.711349,,,
729607131.58823,0.430043,1.635647,51.313455,-0.031998,0.012894,0.996231,-0.005251,0.010321,-0.016219,64.224518,22.081558,-147.711349,,,
729607131.591573,0.428059,1.63897,51.309316,-0.034149,0.011581,0.994751,-0.004883,0.01432,-0.015357,64.224518,22.081558,-147.711349,,,
729607131.594937,0.428059,1.63897,51.309316,-0.034149,0.011581,0.994751,-0.004883,0.01432,-0.015357,64.224518,22.081558,-147.711349,,,
729607131.598217,0.425845,1.642464,51.306227,-0.034149,0.011581,0.994751,-0.004883,0.01432,-0.015357,64.224518,22.081558,-147.711349,,,
729607131.601547,0.424385,1.64416,51.30372,-0.034988,0.009033,0.993759,-0.004311,0.009418,-0.011131,64.224518,22.081558,-147.711349,,,
729607131.604874,0.424385,1.64416,51.30372,-0.034988,0.009033,0.993759,-0.004311,0.009418,-0.011131,64.224518,22.081558,-147.711349,,,
729607131.608288,0.423084,1.646233,51.301299,-0.034988,0.009033,0.993759,-0.004311,0.009418,-0.011131,64.33313,21.946915,-147.422806,,,
729607131.611535,0.423481,1.647614,51.298998,-0.029999,0.00769,0.992126,0.000978,0.007884,-0.009445,64.33313,21.946915,-147.422806,,,
729607131.614864,0.423481,1.647614,51.298998,-0.029999,0.00769,0.992126,0.000978,0.007884,-0.009445,64.33313,21.946915,-147.422806,,,
729607131.618209,0.42425,1.652829,51.297119,-0.029999,0.00769,0.992126,0.000978,0.007884,-0.009445,64.33313,21.946915,-147.422806,,,
729607131.621548,0.426104,1.657906,51.296105,-0.028046,0.011261,0.999283,0.007033,0.020223,-0.006644,64.33313,21.946915,-147.422806,,,
729607131.62488,0.426104,1.657906,51.296105,-0.028046,0.011261,0.999283,0.007033,0.020223,-0.006644,64.33313,21.946915,-147.422806,,,
729607131.62821,0.426999,1.670546,51.295704,-0.028046,0.011261,0.999283,0.007033,0.020223,-0.006644,64.33313,21.946915,-147.422806,,,
729607131.63155,0.428836,1.678956,51.296266,-0.028503,0.011414,0.999832,0.007763,0.032858,0.000474,64.33313,21.946915,-147.422806,,,
729607131.634874,0.428836,1.678956,51.296266,-0.028503,0.011414,0.999832,0.007763,0.032858,0.000474,64.33313,21.946915,-147.422806,,,
729607131.638237,0.429891,1.695096,51.298111,-0.028503,0.011414,0.999832,0.007763,0.032858,0.000474,64.33313,21.946915,-147.422806,,,
729607131.641553,0.432395,1.706345,51.300826,-0.028107,0.008423,1.00322,0.010328,0.042641,0.006627,64.33313,21.946915,-147.422806,,,
729607131.644969,0.432395,1.706345,51.300826,-0.028107,0.008423,1.00322,0.010328,0.042641,0.006627,64.33313,21.946915,-147.422806,,,
729607131.648198,0.435303,1.720673,51.303647,-0.028107,0.008423,1.00322,0.010328,0.042641,0.006627,64.465515,21.883942,-147.36763,,,
