Time (sec),Pitch (deg),Roll (deg),Yaw(deg),X-Acceleration (g),Y-Acceleration (g),Z-Acceleration (g),Pitch Rate (deg/sec),Roll Rate (deg/sec),Yaw Rate (deg/sec),Magnetic Field in X direction (uT),Magnetic Field in Y direction (uT),Magnetic Field in Z Direction (uT),Latitude (deg),Longitude (deg),Altitude (m)
729608310.473772,0.454373,-2.826848,53.932267,0.079178,0.009247,0.983887,0.018452,0.015055,-0.002459,60.265106,22.913315,-146.753876,,,
729608310.477107,0.454373,-2.826848,53.932267,0.079178,0.009247,0.983887,0.018452,0.015055,-0.002459,60.265106,22.913315,-146.753876,,,
729608310.48046,0.459563,-2.822145,53.931388,0.079178,0.009247,0.983887,0.018452,0.015055,-0.002459,60.265106,22.913315,-146.753876,,,
729608310.483776,0.462134,-2.807072,53.929049,0.083862,0.004517,0.98288,0.023605,0.040738,-0.013313,60.265106,22.913315,-146.753876,,,
729608310.487141,0.462134,-2.807072,53.925286,0.083862,0.004517,0.98288,0.023605,0.040738,-0.013313,60.265106,22.913315,-146.753876,,,
729608310.490458,0.468514,-2.795439,53.925286,0.083862,0.004517,0.98288,0.023605,0.040738,-0.013313,60.363129,22.997864,-146.451141,,,
729608310.493838,0.472679,-2.775972,53.919915,0.086197,0.006561,0.981949,0.03031,0.057278,-0.027368,60.363129,22.997864,-146.451141,,,
729608310.497106,0.472679,-2.775972,53.919915,0.086197,0.006561,0.981949,0.03031,0.057278,-0.027368,60.363129,22.997864,-146.451141,,,
729608310.500462,0.482023,-2.760363,53.912815,0.086197,0.006561,0.981949,0.03031,0.057278,-0.027368,60.363129,22.997864,-146.451141,,,
729608310.503776,0.490013,-2.741004,53.904224,0.083969,0.007767,0.979904,0.041465,0.063108,-0.034493,60.363129,22.997864,-146.451141,,,
729608310.507229,0.502598,-2.723761,53.894856,0.083969,0.007767,0.979904,0.041465,0.063108,-0.034493,60.363129,22.997864,-146.451141,,,
729608310.51044,0.502598,-2.723761,53.894856,0.083969,0.007767,0.979904,0.041465,0.063108,-0.034493,60.363129,22.997864,-146.451141,,,
729608310.513844,0.513058,-2.705712,53.885333,0.076263,0.003967,0.974884,0.040814,0.063104,-0.038226,60.363129,22.997864,-146.451141,,,
729608310.517136,0.513058,-2.705712,53.885333,0.076263,0.003967,0.974884,0.040814,0.063104,-0.038226,60.363129,22.997864,-146.451141,,,
729608310.520548,0.52555,-2.688859,53.875732,0.076263,0.003967,0.974884,0.040814,0.063104,-0.038226,60.363129,22.997864,-146.451141,,,
729608310.523816,0.53431,-2.673958,53.865188,0.074493,0.010147,0.96524,0.034889,0.05511,-0.043443,60.363129,22.997864,-146.451141,,,
729608310.527148,0.53431,-2.673958,53.865188,0.074493,0.010147,0.96524,0.034889,0.05511,-0.043443,60.363129,22.997864,-146.451141,,,
729608310.530519,0.543355,-2.659283,53.85303,0.074493,0.010147,0.96524,0.034889,0.05511,-0.043443,60.239273,22.79509,-146.694214,,,
729608310.533881,0.549502,-2.64909,53.839516,0.068893,0.020523,0.958099,0.016729,0.043622,-0.05381,60.239273,22.79509,-146.694214,,,
729608310.537135,0.549502,-2.64909,53.839516,0.068893,0.020523,0.958099,0.016729,0.043622,-0.05381,60.239273,22.79509,-146.694214,,,
729608310.540477,0.554846,-2.637479,53.824707,0.068893,0.020523,0.958099,0.016729,0.043622,-0.05381,60.239273,22.79509,-146.694214,,,
729608310.543788,0.556746,-2.634184,53.808122,0.069077,0.024811,0.95961,-0.001625,0.033251,-0.064124,60.239273,22.79509,-146.694214,,,
729608310.547148,0.556746,-2.634184,53.808122,0.069077,0.024811,0.95961,-0.001625,0.033251,-0.064124,60.239273,22.79509,-146.694214,,,
729608310.550467,0.556233,-2.626321,53.78962,0.069077,0.024811,0.95961,-0.001625,0.033251,-0.064124,60.239273,22.79509,-146.694214,,,
729608310.55378,0.554519,-2.627816,53.769869,0.066772,0.024277,0.961334,-0.013035,0.024718,-0.073326,60.239273,22.79509,-146.694214,,,
729608310.557116,0.554519,-2.627816,53.769869,0.066772,0.024277,0.961334,-0.013035,0.024718,-0.073326,60.239273,22.79509,-146.694214,,,
729608310.560531,0.551783,-2.621571,53.749054,0.066772,0.024277,0.961334,-0.013035,0.024718,-0.073326,60.239273,22.79509,-146.694214,,,
729608310.563777,0.548409,-2.624541,53.727329,0.058517,0.022202,0.96936,-0.011519,0.013292,-0.077856,60.239273,22.79509,-146.694214,,,
729608310.567136,0.548409,-2.624541,53.727329,0.058517,0.022202,0.96936,-0.011519,0.013292,-0.077856,60.239273,22.79509,-146.694214,,,
729608310.570441,0.546119,-2.621663,53.705048,0.058517,0.022202,0.96936,-0.011519,0.013292,-0.077856,60.666199,22.971359,-146.828552,,,
729608310.57378,0.542883,-2.624994,53.683111,0.052246,0.017853,0.973602,-0.015089,0.014779,-0.07667,60.666199,22.971359,-146.828552,,,
729608310.577143,0.542883,-2.624994,53.683111,0.052246,0.017853,0.973602,-0.015089,0.014779,-0.07667,60.666199,22.971359,-146.828552,,,
729608310.580481,0.539219,-2.62062,53.662034,0.052246,0.017853,0.973602,-0.015089,0.014779,-0.07667,60.666199,22.971359,-146.828552,,,
729608310.583781,0.535123,-2.619682,53.64254,0.044296,0.014328,0.975235,-0.01724,0.032793,-0.066415,60.666199,22.971359,-146.828552,,,
729608310.587145,0.535123,-2.619682,53.64254,0.044296,0.014328,0.975235,-0.01724,0.032793,-0.066415,60.666199,22.971359,-146.828552,,,
729608310.590466,0.530705,-2.611445,53.624276,0.044296,0.014328,0.975235,-0.01724,0.032793,-0.066415,60.666199,22.971359,-146.828552,,,
729608310.59378,0.525271,-2.605581,53.607734,0.038483,0.012848,0.986557,-0.017083,0.044256,-0.052696,60.666199,22.971359,-146.828552,,,
729608310.5972,0.525271,-2.605581,53.607734,0.038483,0.012848,0.986557,-0.017083,0.044256,-0.052696,60.666199,22.971359,-146.828552,,,
729608310.600467,0.520576,-2.594235,53.593493,0.038483,0.012848,0.986557,-0.017083,0.044256,-0.052696,60.666199,22.971359,-146.828552,,,
729608310.603776,0.515139,-2.586784,53.581133,0.03006,0.011063,0.989532,-0.021763,0.03931,-0.040451,60.666199,22.971359,-146.828552,,,
729608310.607133,0.515139,-2.586784,53.581133,0.03006,0.011063,0.989532,-0.021763,0.03931,-0.040451,60.666199,22.971359,-146.828552,,,
729608310.610443,0.508587,-2.576076,53.56982,0.03006,0.011063,0.989532,-0.021763,0.03931,-0.040451,60.424591,22.965179,-146.880096,,,
729608310.613783,0.502267,-2.568042,53.559242,0.024887,0.011688,0.992249,-0.027162,0.039571,-0.035765,60.424591,22.965179,-146.880096,,,
729608310.617122,0.502267,-2.568042,53.559242,0.024887,0.011688,0.992249,-0.027162,0.039571,-0.035765,60.424591,22.965179,-146.880096,,,
729608310.620452,0.494841,-2.556982,53.549214,0.024887,0.011688,0.992249,-0.027162,0.039571,-0.035765,60.424591,22.965179,-146.880096,,,
729608310.623774,0.489075,-2.549871,53.540339,0.023361,0.014816,0.995087,-0.026649,0.035506,-0.028599,60.424591,22.965179,-146.880096,,,
729608310.627116,0.489075,-2.549871,53.540339,0.023361,0.014816,0.995087,-0.026649,0.035506,-0.028599,60.424591,22.965179,-146.880096,,,
729608310.630526,0.481562,-2.541041,53.532704,0.023361,0.014816,0.995087,-0.026649,0.035506,-0.028599,60.424591,22.965179,-146.880096,,,
729608310.633767,0.475311,-2.53641,53.525616,0.025436,0.01329,0.997375,-0.030027,0.025984,-0.021191,60.424591,22.965179,-146.880096,,,
729608310.63716,0.475311,-2.53641,53.525616,0.025436,0.01329,0.997375,-0.030027,0.025984,-0.021191,60.424591,22.965179,-146.880096,,,
729608310.640438,0.466431,-2.529216,53.519414,0.025436,0.01329,0.997375,-0.030027,0.025984,-0.021191,60.424591,22.965179,-146.880096,,,
729608310.643792,0.458487,-2.523961,53.514461,0.027878,0.015839,0.997253,-0.033245,0.026313,-0.014493,60.424591,22.965179,-146.880096,,,
729608310.647164,0.458487,-2.523961,53.514461,0.027878,0.015839,0.997253,-0.033245,0.026313,-0.014493,60.424591,22.965179,-146.880096,,,
729608310.650534,0.448204,-2.516557,53.511289,0.027878,0.015839,0.997253,-0.033245,0.026313,-0.014493,60.424591,22.965179,-146.880096,,,
729608310.653781,0.439357,-2.511011,53.511038,0.029907,0.01561,0.996643,-0.03813,0.030048,0.008037,60.656235,22.677902,-146.555786,,,
729608310.657138,0.439357,-2.511011,53.511038,0.029907,0.01561,0.996643,-0.03813,0.030048,0.008037,60.656235,22.677902,-146.555786,,,
729608310.660452,0.428664,-2.502759,53.514088,0.029907,0.01561,0.996643,-0.03813,0.030048,0.008037,60.656235,22.677902,-146.555786,,,
729608310.663789,0.417457,-2.492616,53.520423,0.03273,0.015564,0.995239,-0.042807,0.047522,0.030794,60.656235,22.677902,-146.555786,,,
729608310.667135,0.417457,-2.492616,53.520423,0.03273,0.015564,0.995239,-0.042807,0.047522,0.030794,60.656235,22.677902,-146.555786,,,
729608310.670442,0.404405,-2.47866,53.530124,0.03273,0.015564,0.995239,-0.042807,0.047522,0.030794,60.656235,22.677902,-146.555786,,,
729608310.673786,0.392419,-2.461775,53.543119,0.036591,0.013138,0.99588,-0.040893,0.06777,0.053233,60.656235,22.677902,-146.555786,,,
729608310.677181,0.392419,-2.461775,53.543119,0.036591,0.013138,0.99588,-0.040893,0.06777,0.053233,60.656235,22.677902,-146.555786,,,
729608310.680448,0.380448,-2.443355,53.558901,0.036591,0.013138,0.99588,-0.040893,0.06777,0.053233,60.656235,22.677902,-146.555786,,,
729608310.683775,0.369252,-2.422706,53.576692,0.039093,0.014084,1.000381,-0.040298,0.067662,0.065167,60.656235,22.677902,-146.555786,,,
729608310.687139,0.369252,-2.422706,53.576692,0.039093,0.014084,1.000381,-0.040298,0.067662,0.065167,60.656235,22.677902,-146.555786,,,
729608310.690495,0.355858,-2.404834,53.595692,0.039093,0.014084,1.000381,-0.040298,0.067662,0.065167,60.656235,22.677902,-146.555786,,,
729608310.69377,0.340675,-2.385477,53.614678,0.042633,0.024399,0.987671,-0.060104,0.057672,0.064167,60.84111,22.917267,-146.867203,,,
729608310.697111,0.340675,-2.385477,53.614678,0.042633,0.024399,0.987671,-0.060104,0.057672,0.064167,60.84111,22.917267,-146.867203,,,
729608310.700467,0.321083,-2.37054,53.632084,0.042633,0.024399,0.987671,-0.060104,0.057672,0.064167,60.84111,22.917267,-146.867203,,,
729608310.703774,0.299118,-2.354564,53.647736,0.04422,0.036682,0.98317,-0.089779,0.036734,0.053812,60.84111,22.917267,-146.867203,,,
729608310.707122,0.299118,-2.354564,53.647736,0.04422,0.036682,0.98317,-0.089779,0.036734,0.053812,60.84111,22.917267,-146.867203,,,
729608310.710447,0.270586,-2.346603,53.662511,0.04422,0.036682,0.98317,-0.089779,0.036734,0.053812,60.84111,22.917267,-146.867203,,,
729608310.713818,0.23929,-2.338982,53.676171,0.049957,0.039062,0.976822,-0.122952,0.005453,0.046505,60.84111,22.917267,-146.867203,,,
729608310.717214,0.23929,-2.338982,53.676171,0.049957,0.039062,0.976822,-0.122952,0.005453,0.046505,60.84111,22.917267,-146.867203,,,
729608310.720485,0.202653,-2.340102,53.688604,0.049957,0.039062,0.976822,-0.122952,0.005453,0.046505,60.84111,22.917267,-146.867203,,,
729608310.723787,0.166068,-2.342702,53.700409,0.048386,0.030548,0.98053,-0.138311,-0.027729,0.041908,60.84111,22.917267,-146.867203,,,
729608310.727132,0.166068,-2.342702,53.700409,0.048386,0.030548,0.98053,-0.138311,-0.027729,0.041908,60.84111,22.917267,-146.867203,,,
729608310.730481,0.125519,-2.353447,53.710734,0.048386,0.030548,0.98053,-0.138311,-0.027729,0.041908,60.84111,22.917267,-146.867203,,,
729608310.733786,0.08804,-2.366113,53.718916,0.045074,0.020844,0.991928,-0.136683,-0.067526,0.028004,60.509308,23.17067,-146.731781,,,
729608310.737118,0.08804,-2.366113,53.718916,0.045074,0.020844,0.991928,-0.136683,-0.067526,0.028004,60.509308,23.17067,-146.731781,,,
729608310.740466,0.0481,-2.386742,53.725411,0.045074,0.020844,0.991928,-0.136683,-0.067526,0.028004,60.509308,23.17067,-146.731781,,,
729608310.743781,0.014168,-2.40721,53.730869,0.046951,0.013718,1.004364,-0.122722,-0.080952,0.021074,60.509308,23.17067,-146.731781,,,
729608310.747111,0.014168,-2.40721,53.730869,0.046951,0.013718,1.004364,-0.122722,-0.080952,0.021074,60.509308,23.17067,-146.731781,,,
729608310.75046,-0.02042,-2.431171,53.735867,0.046951,0.013718,1.004364,-0.122722,-0.080952,0.021074,60.509308,23.17067,-146.731781,,,
729608310.753775,-0.048651,-2.453022,53.740868,0.045776,0.004013,1.017639,-0.103203,-0.076214,0.022007,60.509308,23.17067,-146.731781,,,
729608310.757196,-0.048651,-2.453022,53.740868,0.045776,0.004013,1.017639,-0.103203,-0.076214,0.022007,60.509308,23.17067,-146.731781,,,
729608310.760452,-0.07764,-2.475214,53.746723,0.045776,0.004013,1.017639,-0.103203,-0.076214,0.022007,60.509308,23.17067,-146.731781,,,
729608310.763902,-0.100503,-2.491704,53.752887,0.044922,-0.006485,1.027008,-0.084513,-0.047654,0.02289,60.509308,23.17067,-146.731781,,,
729608310.767121,-0.100503,-2.491704,53.752887,0.044922,-0.006485,1.027008,-0.084513,-0.047654,0.02289,60.509308,23.17067,-146.731781,,,
729608310.770524,-0.123768,-2.504265,53.759663,0.044922,-0.006485,1.027008,-0.084513,-0.047654,0.02289,60.509308,23.17067,-146.731781,,,
729608310.773926,-0.137448,-2.510731,53.767809,0.046967,-0.010971,1.038422,-0.049804,-0.008193,0.03256,60.506516,23.312576,-146.793945,,,
729608310.777121,-0.137448,-2.510731,53.767809,0.046967,-0.010971,1.038422,-0.049804,-0.008193,0.03256,60.506516,23.312576,-146.793945,,,
729608310.780505,-0.151505,-2.512198,53.777341,0.046967,-0.010971,1.038422,-0.049804,-0.008193,0.03256,60.506516,23.312576,-146.793945,,,
729608310.783795,-0.153072,-2.508716,53.787513,0.046295,-0.011597,1.04541,-0.024641,0.024808,0.037463,60.506516,23.312576,-146.793945,,,
729608310.787164,-0.153072,-2.508716,53.787513,0.046295,-0.011597,1.04541,-0.024641,0.024808,0.037463,60.506516,23.312576,-146.793945,,,
729608310.790459,-0.160312,-2.501641,53.797494,0.046295,-0.011597,1.04541,-0.024641,0.024808,0.037463,60.506516,23.312576,-146.793945,,,
729608310.793782,-0.154346,-2.49263,53.807244,0.041107,-0.01123,1.039413,-0.004741,0.046197,0.028782,60.506516,23.312576,-146.793945,,,
729608310.797126,-0.154346,-2.49263,53.807244,0.041107,-0.01123,1.039413,-0.004741,0.046197,0.028782,60.506516,23.312576,-146.793945,,,
729608310.800453,-0.156084,-2.479831,53.815915,0.041107,-0.01123,1.039413,-0.004741,0.046197,0.028782,60.506516,23.312576,-146.793945,,,
729608310.803777,-0.148626,-2.468332,53.82377,0.038254,-0.010239,1.03273,0.005224,0.049157,0.025101,60.506516,23.312576,-146.793945,,,
729608310.807225,-0.148626,-2.468332,53.82377,0.038254,-0.010239,1.03273,0.005224,0.049157,0.025101,60.506516,23.312576,-146.793945,,,
729608310.810463,-0.147836,-2.455939,53.831312,0.038254,-0.010239,1.03273,0.005224,0.049157,0.025101,60.506516,23.312576,-146.793945,,,
729608310.813821,-0.140113,-2.446568,53.838211,0.038544,-0.009491,1.022781,0.012621,0.032767,0.018764,60.506516,23.312576,-146.793945,,,
729608310.817124,-0.140113,-2.446568,53.838211,0.038544,-0.009491,1.022781,0.012621,0.032767,0.018764,60.674438,23.371323,-146.737213,,,
729608310.820513,-0.135637,-2.43959,53.84437,0.038544,-0.009491,1.022781,0.012621,0.032767,0.018764,60.674438,23.371323,-146.737213,,,
729608310.823775,-0.125223,-2.436948,53.849273,0.037766,-0.012283,1.014389,0.029524,0.0056,0.007272,60.674438,23.371323,-146.737213,,,
729608310.827126,-0.125223,-2.436948,53.849273,0.037766,-0.012283,1.014389,0.029524,0.0056,0.007272,60.674438,23.371323,-146.737213,,,
729608310.830448,-0.116989,-2.436917,53.852452,0.037766,-0.012283,1.014389,0.029524,0.0056,0.007272,60.674438,23.371323,-146.737213,,,
729608310.833788,-0.104891,-2.44088,53.854366,0.036758,-0.013092,1.012512,0.04009,-0.017437,0.000958,60.674438,23.371323,-146.737213,,,
729608310.837138,-0.104891,-2.44088,53.854366,0.036758,-0.013092,1.012512,0.04009,-0.017437,0.000958,60.674438,23.371323,-146.737213,,,
729608310.840446,-0.092234,-2.44687,53.856316,0.036758,-0.013092,1.012512,0.04009,-0.017437,0.000958,60.674438,23.371323,-146.737213,,,
729608310.843782,-0.077332,-2.455534,53.858837,0.035812,-0.015869,1.009384,0.061934,-0.029787,0.004148,60.674438,23.371323,-146.737213,,,
729608310.847216,-0.077332,-2.455534,53.858837,0.035812,-0.015869,1.009384,0.061934,-0.029787,0.004148,60.674438,23.371323,-146.737213,,,
729608310.850485,-0.059772,-2.464725,53.861792,0.035812,-0.015869,1.009384,0.061934,-0.029787,0.004148,60.674438,23.371323,-146.737213,,,
729608310.853829,-0.041539,-2.473409,53.864979,0.03714,-0.017456,1.010147,0.074216,-0.020991,0.007432,60.674438,23.371323,-146.737213,,,
729608310.857147,-0.041539,-2.473409,53.864979,0.03714,-0.017456,1.010147,0.074216,-0.020991,0.007432,60.520264,23.42688,-146.258179,,,
729608310.860486,-0.019922,-2.479194,53.868832,0.03714,-0.017456,1.010147,0.074216,-0.020991,0.007432,60.520264,23.42688,-146.258179,,,
729608310.863811,0.000325,-2.48202,53.874053,0.039001,-0.014893,1.012497,0.07793,0.004564,0.015567,60.520264,23.42688,-146.258179,,,
729608310.867141,0.000325,-2.48202,53.874053,0.039001,-0.014893,1.012497,0.07793,0.004564,0.015567,60.520264,23.42688,-146.258179,,,
729608310.870545,0.022,-2.481308,53.879834,0.039001,-0.014893,1.012497,0.07793,0.004564,0.015567,60.520264,23.42688,-146.258179,,,
729608310.873776,0.041099,-2.476334,53.885641,0.046158,-0.012939,1.003281,0.06774,0.032556,0.014497,60.520264,23.42688,-146.258179,,,
729608310.87713,0.041099,-2.476334,53.885641,0.046158,-0.012939,1.003281,0.06774,0.032556,0.014497,60.520264,23.42688,-146.258179,,,
729608310.880464,0.060117,-2.467861,53.891195,0.046158,-0.012939,1.003281,0.06774,0.032556,0.014497,60.520264,23.42688,-146.258179,,,
729608310.883777,0.076137,-2.45562,53.895982,0.049606,-0.005707,0.99559,0.059068,0.048986,0.009972,60.520264,23.42688,-146.258179,,,
729608310.887133,0.076137,-2.45562,53.895982,0.049606,-0.005707,0.99559,0.059068,0.048986,0.009972,60.520264,23.42688,-146.258179,,,
729608310.890451,0.092588,-2.442994,53.900428,0.049606,-0.005707,0.99559,0.059068,0.048986,0.009972,60.520264,23.42688,-146.258179,,,
729608310.893783,0.107185,-2.430813,53.905048,0.046326,-0.004181,0.991821,0.05609,0.037887,0.012336,60.520264,23.42688,-146.258179,,,
729608310.897138,0.107185,-2.430813,53.905048,0.046326,-0.004181,0.991821,0.05609,0.037887,0.012336,60.486328,23.205658,-146.654999,,,
729608310.900462,0.122166,-2.421109,53.909314,0.046326,-0.004181,0.991821,0.05609,0.037887,0.012336,60.486328,23.205658,-146.654999,,,
729608310.903774,0.134029,-2.413429,53.912593,0.045624,-0.003693,0.979156,0.043095,0.018696,0.006748,60.486328,23.205658,-146.654999,,,
729608310.907208,0.134029,-2.413429,53.912593,0.045624,-0.003693,0.979156,0.043095,0.018696,0.006748,60.486328,23.205658,-146.654999,,,
729608310.910459,0.146078,-2.409687,53.915028,0.045624,-0.003693,0.979156,0.043095,0.018696,0.006748,60.486328,23.205658,-146.654999,,,
729608310.913828,0.154468,-2.407532,53.916826,0.045151,0.000153,0.975555,0.033759,0.00083,0.002182,60.486328,23.205658,-146.654999,,,
729608310.917212,0.154468,-2.407532,53.916826,0.045151,0.000153,0.975555,0.033759,0.00083,0.002182,60.486328,23.205658,-146.654999,,,
729608310.92051,0.163765,-2.408027,53.918423,0.045151,0.000153,0.975555,0.033759,0.00083,0.002182,60.486328,23.205658,-146.654999,,,
729608310.923777,0.167671,-2.409246,53.919755,0.047119,0.00177,0.976349,0.022052,-0.009523,0.001994,60.486328,23.205658,-146.654999,,,
729608310.927122,0.167671,-2.409246,53.919755,0.047119,0.00177,0.976349,0.022052,-0.009523,0.001994,60.486328,23.205658,-146.654999,,,
729608310.930488,0.172631,-2.412926,53.920992,0.047119,0.00177,0.976349,0.022052,-0.009523,0.001994,60.486328,23.205658,-146.654999,,,
729608310.933787,0.171719,-2.41519,53.922035,0.047653,0.005753,0.972778,0.008801,-0.008835,-0.002173,60.486328,23.205658,-146.654999,,,
729608310.937161,0.171719,-2.41519,53.922035,0.047653,0.005753,0.972778,0.008801,-0.008835,-0.002173,60.486328,23.205658,-146.654999,,,
729608310.940461,0.173121,-2.418231,53.921555,0.047653,0.005753,0.972778,0.008801,-0.008835,-0.002173,60.475861,23.298233,-146.681366,,,
729608310.943787,0.16914,-2.419877,53.919904,0.053131,0.009476,0.975082,0.000241,-0.008662,-0.009618,60.475861,23.298233,-146.681366,,,
729608310.947124,0.16914,-2.419877,53.919904,0.053131,0.009476,0.975082,0.000241,-0.008662,-0.009618,60.475861,23.298233,-146.681366,,,
729608310.950442,0.168359,-2.422588,53.917758,0.053131,0.009476,0.975082,0.000241,-0.008662,-0.009618,60.475861,23.298233,-146.681366,,,
729608310.953784,0.162433,-2.424947,53.914795,0.054153,0.006866,0.978653,-0.009999,-0.003928,-0.011941,60.475861,23.298233,-146.681366,,,
729608310.957192,0.162433,-2.424947,53.914795,0.054153,0.006866,0.978653,-0.009999,-0.003928,-0.011941,60.475861,23.298233,-146.681366,,,
729608310.960456,0.160206,-2.426001,53.9122,0.054153,0.006866,0.978653,-0.009999,-0.003928,-0.011941,60.475861,23.298233,-146.681366,,,
729608310.963783,0.154221,-2.428351,53.91074,0.047165,0.002518,0.979904,-0.016062,0.001276,-0.007081,60.475861,23.298233,-146.681366,,,
729608310.967127,0.154221,-2.428351,53.91074,0.047165,0.002518,0.979904,-0.016062,0.001276,-0.007081,60.475861,23.298233,-146.681366,,,
729608310.970523,0.149526,-2.428486,53.909482,0.047165,0.002518,0.979904,-0.016062,0.001276,-0.007081,60.475861,23.298233,-146.681366,,,
729608310.973769,0.14154,-2.429904,53.907811,0.043777,0.002762,0.980667,-0.026387,0.004555,-0.006212,60.475861,23.298233,-146.681366,,,
729608310.977129,0.14154,-2.429904,53.907811,0.043777,0.002762,0.980667,-0.026387,0.004555,-0.006212,60.475861,23.298233,-146.681366,,,
729608310.980496,0.13379,-2.429664,53.90578,0.043777,0.002762,0.980667,-0.026387,0.004555,-0.006212,60.337418,23.275742,-146.952744,,,
729608310.983793,0.123537,-2.430012,53.902921,0.042511,0.007523,0.984573,-0.033434,0.008918,-0.012677,60.337418,23.275742,-146.952744,,,
729608310.987134,0.123537,-2.430012,53.902921,0.042511,0.007523,0.984573,-0.033434,0.008918,-0.012677,60.337418,23.275742,-146.952744,,,
729608310.990454,0.11315,-2.428568,53.899374,0.042511,0.007523,0.984573,-0.033434,0.008918,-0.012677,60.337418,23.275742,-146.952744,,,
729608310.993784,0.100571,-2.428336,53.896199,0.036957,0.004608,0.98616,-0.041209,0.005394,-0.009899,60.337418,23.275742,-146.952744,,,
729608310.997161,0.100571,-2.428336,53.896199,0.036957,0.004608,0.98616,-0.041209,0.005394,-0.009899,60.337418,23.275742,-146.952744,,,
729608311.000451,0.087543,-2.427096,53.893859,0.036957,0.004608,0.98616,-0.041209,0.005394,-0.009899,60.337418,23.275742,-146.952744,,,
729608311.003774,0.073068,-2.427038,53.892627,0.029999,0.00061,0.988708,-0.0511,0.007946,-0.002862,60.337418,23.275742,-146.952744,,,
729608311.007108,0.073068,-2.427038,53.892627,0.029999,0.00061,0.988708,-0.0511,0.007946,-0.002862,60.337418,23.275742,-146.952744,,,
729608311.010446,0.05828,-2.425775,53.891885,0.029999,0.00061,0.988708,-0.0511,0.007946,-0.002862,60.337418,23.275742,-146.952744,,,
729608311.013782,0.043743,-2.426181,53.891606,0.027283,-0.001343,0.994308,-0.05505,0.000332,0.004397,60.337418,23.275742,-146.952744,,,
729608311.017124,0.043743,-2.426181,53.891606,0.027283,-0.001343,0.994308,-0.05505,0.000332,0.004397,60.337418,23.275742,-146.952744,,,
729608311.020502,0.028052,-2.42795,53.892417,0.027283,-0.001343,0.994308,-0.05505,0.000332,0.004397,60.340042,23.101715,-146.768188,,,
729608311.023769,0.013292,-2.43412,53.894409,0.027267,-0.001694,0.994507,-0.054994,-0.02104,0.009519,60.340042,23.101715,-146.768188,,,
729608311.027123,0.013292,-2.43412,53.894409,0.027267,-0.001694,0.994507,-0.054994,-0.02104,0.009519,60.340042,23.101715,-146.768188,,,
729608311.030443,-0.002899,-2.440604,53.897649,0.027267,-0.001694,0.994507,-0.054994,-0.02104,0.009519,60.340042,23.101715,-146.768188,,,
729608311.033775,-0.017247,-2.451624,53.90182,0.025803,-0.001663,0.994965,-0.052165,-0.033977,0.015092,60.340042,23.101715,-146.768188,,,
729608311.037113,-0.017247,-2.451624,53.90182,0.025803,-0.001663,0.994965,-0.052165,-0.033977,0.015092,60.340042,23.101715,-146.768188,,,
729608311.040447,-0.03226,-2.462744,53.906125,0.025803,-0.001663,0.994965,-0.052165,-0.033977,0.015092,60.340042,23.101715,-146.768188,,,
729608311.043774,-0.045792,-2.476465,53.910737,0.032425,-0.001389,0.999557,-0.045124,-0.041451,0.018891,60.340042,23.101715,-146.768188,,,
729608311.047174,-0.045792,-2.476465,53.910737,0.032425,-0.001389,0.999557,-0.045124,-0.041451,0.018891,60.340042,23.101715,-146.768188,,,
729608311.050453,-0.058905,-2.489055,53.915921,0.032425,-0.001389,0.999557,-0.045124,-0.041451,0.018891,60.340042,23.101715,-146.768188,,,
729608311.053787,-0.06913,-2.501276,53.921542,0.04274,-0.001434,1.00798,-0.027517,-0.035276,0.018442,60.340042,23.101715,-146.768188,,,
729608311.057211,-0.06913,-2.501276,53.921542,0.04274,-0.001434,1.00798,-0.027517,-0.035276,0.018442,60.340042,23.101715,-146.768188,,,
729608311.060446,-0.076169,-2.511972,53.927295,0.04274,-0.001434,1.00798,-0.027517,-0.035276,0.018442,60.292435,23.440536,-146.938339,,,
729608311.063815,-0.078344,-2.520793,53.932945,0.048874,0.001114,1.013718,-0.005363,-0.020855,0.018953,60.292435,23.440536,-146.938339,,,
729608311.067131,-0.078344,-2.520793,53.932945,0.048874,0.001114,1.013718,-0.005363,-0.020855,0.018953,60.292435,23.440536,-146.938339,,,
729608311.070539,-0.079728,-2.526292,53.93826,0.048874,0.001114,1.013718,-0.005363,-0.020855,0.018953,60.292435,23.440536,-146.938339,,,
729608311.073779,-0.077109,-2.526734,53.943083,0.053802,0.004013,1.014679,0.008672,0.009432,0.015927,60.292435,23.440536,-146.938339,,,
729608311.077106,-0.077109,-2.526734,53.943083,0.053802,0.004013,1.014679,0.008672,0.009432,0.015927,60.292435,23.440536,-146.938339,,,
729608311.080472,-0.074109,-2.523649,53.947942,0.053802,0.004013,1.014679,0.008672,0.009432,0.015927,60.292435,23.440536,-146.938339,,,
729608311.083776,-0.069264,-2.512814,53.952916,0.058609,0.010757,1.012497,0.015234,0.040241,0.013025,60.292435,23.440536,-146.938339,,,
729608311.087112,-0.069264,-2.512814,53.952916,0.058609,0.010757,1.012497,0.015234,0.040241,0.013025,60.292435,23.440536,-146.938339,,,
729608311.090438,-0.065432,-2.501582,53.957108,0.058609,0.010757,1.012497,0.015234,0.040241,0.013025,60.292435,23.440536,-146.938339,,,
729608311.093772,-0.062101,-2.484338,53.960088,0.05658,0.018478,1.000183,0.009718,0.054453,0.007282,60.292435,23.440536,-146.938339,,,
729608311.097111,-0.062101,-2.484338,53.960088,0.05658,0.018478,1.000183,0.009718,0.054453,0.007282,60.292435,23.440536,-146.938339,,,
729608311.100465,-0.060193,-2.470031,53.962257,0.05658,0.018478,1.000183,0.009718,0.054453,0.007282,60.292435,23.440536,-146.938339,,,
729608311.103812,-0.06071,-2.450766,53.963287,0.050476,0.022751,0.988571,-0.003768,0.05315,0.001097,60.429886,23.143661,-146.63327,,,
729608311.107123,-0.06071,-2.450766,53.963287,0.050476,0.022751,0.988571,-0.003768,0.05315,0.001097,60.429886,23.143661,-146.63327,,,
729608311.11051,-0.062858,-2.436515,53.963182,0.050476,0.022751,0.988571,-0.003768,0.05315,0.001097,60.429886,23.143661,-146.63327,,,
729608311.113815,-0.065319,-2.420781,53.96335,0.041443,0.022217,0.982788,-0.007222,0.035332,-0.001408,60.429886,23.143661,-146.63327,,,
729608311.117116,-0.065319,-2.420781,53.96335,0.041443,0.022217,0.982788,-0.007222,0.035332,-0.001408,60.429886,23.143661,-146.63327,,,
729608311.120443,-0.067292,-2.413108,53.964012,0.041443,0.022217,0.982788,-0.007222,0.035332,-0.001408,60.429886,23.143661,-146.63327,,,
729608311.123817,-0.0682,-2.406272,53.964999,0.032776,0.01828,0.983536,0.003686,0.003516,0.003176,60.429886,23.143661,-146.63327,,,
729608311.127115,-0.0682,-2.406272,53.964999,0.032776,0.01828,0.983536,0.003686,0.003516,0.003176,60.429886,23.143661,-146.63327,,,
729608311.130475,-0.067208,-2.407393,53.966086,0.032776,0.01828,0.983536,0.003686,0.003516,0.003176,60.429886,23.143661,-146.63327,,,
729608311.133833,-0.064937,-2.410737,53.966315,0.031631,0.014603,0.988922,0.012545,-0.017669,-0.003147,60.429886,23.143661,-146.63327,,,
729608311.137166,-0.064937,-2.410737,53.966315,0.031631,0.014603,0.988922,0.012545,-0.017669,-0.003147,60.429886,23.143661,-146.63327,,,
729608311.140503,-0.0617,-2.41745,53.966249,0.031631,0.014603,0.988922,0.012545,-0.017669,-0.003147,60.429886,23.143661,-146.63327,,,
729608311.143841,-0.056903,-2.427286,53.967187,0.028931,0.015732,0.99646,0.01995,-0.028262,0.002637,60.392715,23.336487,-147.008423,,,
729608311.147194,-0.056903,-2.427286,53.967187,0.028931,0.015732,0.99646,0.01995,-0.028262,0.002637,60.392715,23.336487,-147.008423,,,
729608311.150444,-0.05059,-2.436374,53.969111,0.028931,0.015732,0.99646,0.01995,-0.028262,0.002637,60.392715,23.336487,-147.008423,,,
729608311.153788,-0.041075,-2.447332,53.971563,0.027695,0.010986,1.002396,0.038363,-0.026015,0.005202,60.392715,23.336487,-147.008423,,,
729608311.157115,-0.041075,-2.447332,53.971563,0.027695,0.010986,1.002396,0.038363,-0.026015,0.005202,60.392715,23.336487,-147.008423,,,
729608311.160497,-0.030115,-2.455471,53.974715,0.027695,0.010986,1.002396,0.038363,-0.026015,0.005202,60.392715,23.336487,-147.008423,,,
729608311.163816,-0.015506,-2.466628,53.978501,0.031586,0.005249,1.00795,0.049724,-0.021976,0.014448,60.392715,23.336487,-147.008423,,,
729608311.167116,-0.015506,-2.466628,53.978501,0.031586,0.005249,1.00795,0.049724,-0.021976,0.014448,60.392715,23.336487,-147.008423,,,
729608311.170459,-0.001393,-2.473159,53.983784,0.031586,0.005249,1.00795,0.049724,-0.021976,0.014448,60.392715,23.336487,-147.008423,,,
729608311.173808,0.016447,-2.481257,53.991458,0.028534,0.002045,1.002808,0.049402,-0.002013,0.026277,60.392715,23.336487,-147.008423,,,
729608311.177122,0.016447,-2.481257,53.991458,0.028534,0.002045,1.002808,0.049402,-0.002013,0.026277,60.392715,23.336487,-147.008423,,,
729608311.180487,0.030287,-2.482133,54.001119,0.028534,0.002045,1.002808,0.049402,-0.002013,0.026277,60.392715,23.336487,-147.008423,,,
729608311.183901,0.04879,-2.483205,54.012133,0.030655,0.004532,1.003067,0.04438,0.009352,0.037195,60.391769,23.091583,-146.86055,,,
729608311.187169,0.04879,-2.483205,54.012133,0.030655,0.004532,1.003067,0.04438,0.009352,0.037195,60.391769,23.091583,-146.86055,,,
729608311.190439,0.060074,-2.48053,54.023434,0.030655,0.004532,1.003067,0.04438,0.009352,0.037195,60.391769,23.091583,-146.86055,,,
729608311.19384,0.075427,-2.47767,54.034475,0.041351,0.007111,0.997452,0.036841,0.019937,0.036341,60.391769,23.091583,-146.86055,,,
729608311.197124,0.075427,-2.47767,54.034475,0.041351,0.007111,0.997452,0.036841,0.019937,0.036341,60.391769,23.091583,-146.86055,,,
729608311.200446,0.084582,-2.472422,54.044773,0.041351,0.007111,0.997452,0.036841,0.019937,0.036341,60.391769,23.091583,-146.86055,,,
729608311.203864,0.084582,-2.472422,54.044773,0.041351,0.007111,0.997452,0.028319,0.030999,0.027495,60.391769,23.091583,-146.86055,,,
729608311.207134,0.096909,-2.462978,54.053565,0.044571,0.006912,0.994431,0.028319,0.030999,0.027495,60.391769,23.091583,-146.86055,,,
729608311.210537,0.104297,-2.454455,54.061645,0.044571,0.006912,0.994431,0.028319,0.030999,0.027495,60.391769,23.091583,-146.86055,,,
729608311.213797,0.104297,-2.454455,54.061645,0.044571,0.006912,0.994431,0.030262,0.026577,0.027843,60.391769,23.091583,-146.86055,,,
729608311.217135,0.114868,-2.443423,54.069762,0.045868,0.00441,0.996536,0.030262,0.026577,0.027843,60.391769,23.091583,-146.86055,,,
729608311.220439,0.1228,-2.437252,54.078121,0.045868,0.00441,0.996536,0.030262,0.026577,0.027843,60.391769,23.091583,-146.86055,,,
729608311.22386,0.1228,-2.437252,54.078121,0.045868,0.00441,0.996536,0.033242,0.007977,0.026965,60.53331,23.122345,-146.760986,,,
729608311.227105,0.134567,-2.430462,54.086835,0.043198,-0.001587,0.990417,0.033242,0.007977,0.026965,60.53331,23.122345,-146.760986,,,
729608311.230443,0.143158,-2.429712,54.095056,0.043198,-0.001587,0.990417,0.033242,0.007977,0.026965,60.53331,23.122345,-146.760986,,,
729608311.233849,0.143158,-2.429712,54.095056,0.043198,-0.001587,0.990417,0.033242,0.007977,0.026965,60.53331,23.122345,-146.760986,,,
729608311.237202,0.153553,-2.428187,54.102962,0.040146,-0.003815,0.98526,0.032319,-0.011334,0.026462,60.53331,23.122345,-146.760986,,,
729608311.240495,0.161432,-2.432328,54.111126,0.040146,-0.003815,0.98526,0.032319,-0.011334,0.026462,60.53331,23.122345,-146.760986,,,
729608311.243835,0.161432,-2.432328,54.111126,0.040146,-0.003815,0.98526,0.032319,-0.011334,0.026462,60.53331,23.122345,-146.760986,,,
729608311.24715,0.171683,-2.433197,54.120084,0.039459,-0.006882,0.988663,0.038293,-0.010717,0.030487,60.53331,23.122345,-146.760986,,,
729608311.250457,0.183139,-2.437154,54.130746,0.039459,-0.006882,0.988663,0.038293,-0.010717,0.030487,60.53331,23.122345,-146.760986,,,
729608311.253897,0.183139,-2.437154,54.130746,0.039459,-0.006882,0.988663,0.038293,-0.010717,0.030487,60.53331,23.122345,-146.760986,,,
729608311.257115,0.197727,-2.437146,54.143419,0.039124,-0.014908,0.999344,0.062685,-0.004891,0.045925,60.53331,23.122345,-146.760986,,,
729608311.260443,0.215579,-2.43917,54.15779,0.039124,-0.014908,0.999344,0.062685,-0.004891,0.045925,60.53331,23.122345,-146.760986,,,
729608311.263867,0.215579,-2.43917,54.15779,0.039124,-0.014908,0.999344,0.062685,-0.004891,0.045925,60.53331,23.122345,-146.760986,,,
729608311.267137,0.236421,-2.435196,54.172578,0.044846,-0.017609,1.006897,0.081976,0.009638,0.043942,60.604599,23.053238,-146.945129,,,
729608311.270441,0.258731,-2.431903,54.186844,0.044846,-0.017609,1.006897,0.081976,0.009638,0.043942,60.604599,23.053238,-146.945129,,,
729608311.273859,0.258731,-2.431903,54.186844,0.044846,-0.017609,1.006897,0.081976,0.009638,0.043942,60.604599,23.053238,-146.945129,,,
729608311.277133,0.280822,-2.422136,54.200607,0.049957,-0.008972,1.002762,0.074507,0.04663,0.039841,60.604599,23.053238,-146.945129,,,
729608311.280475,0.300857,-2.408931,54.214097,0.049957,-0.008972,1.002762,0.074507,0.04663,0.039841,60.604599,23.053238,-146.945129,,,
729608311.283821,0.300857,-2.408931,54.214097,0.049957,-0.008972,1.002762,0.074507,0.04663,0.039841,60.604599,23.053238,-146.945129,,,
729608311.287173,0.318178,-2.392655,54.227448,0.047714,-0.001785,0.993317,0.051964,0.067837,0.041917,60.604599,23.053238,-146.945129,,,
729608311.290429,0.330939,-2.372708,54.240402,0.047714,-0.001785,0.993317,0.051964,0.067837,0.041917,60.604599,23.053238,-146.945129,,,
729608311.293784,0.330939,-2.372708,54.240402,0.047714,-0.001785,0.993317,0.051964,0.067837,0.041917,60.604599,23.053238,-146.945129,,,
729608311.29711,0.339593,-2.352653,54.25311,0.048859,0.003326,0.981995,0.022725,0.076483,0.040286,60.604599,23.053238,-146.945129,,,
729608311.300449,0.344619,-2.331803,54.265367,0.048859,0.003326,0.981995,0.022725,0.076483,0.040286,60.604599,23.053238,-146.945129,,,
729608311.30382,0.344619,-2.331803,54.265367,0.048859,0.003326,0.981995,0.022725,0.076483,0.040286,60.604599,23.053238,-146.945129,,,
729608311.307114,0.345462,-2.313316,54.276845,0.042648,0.002289,0.977173,0.003994,0.064283,0.037259,60.886719,22.949036,-147.020111,,,
729608311.310443,0.346048,-2.296284,54.287714,0.042648,0.002289,0.977173,0.003994,0.064283,0.037259,60.886719,22.949036,-147.020111,,,
729608311.313887,0.346048,-2.296284,54.287714,0.042648,0.002289,0.977173,0.003994,0.064283,0.037259,60.886719,22.949036,-147.020111,,,
729608311.317152,0.344347,-2.282783,54.298671,0.037781,-0.002579,0.981171,0.008205,0.040615,0.039661,60.886719,22.949036,-147.020111,,,
729608311.320447,0.345657,-2.273143,54.310272,0.037781,-0.002579,0.981171,0.008205,0.040615,0.039661,60.886719,22.949036,-147.020111,,,
729608311.323924,0.345657,-2.273143,54.310272,0.037781,-0.002579,0.981171,0.008205,0.040615,0.039661,60.886719,22.949036,-147.020111,,,
729608311.327115,0.345679,-2.267801,54.322189,0.033218,-0.008118,0.988892,0.017079,0.012741,0.040473,60.886719,22.949036,-147.020111,,,
729608311.330476,0.350251,-2.265795,54.334176,0.033218,-0.008118,0.988892,0.017079,0.012741,0.040473,60.886719,22.949036,-147.020111,,,
729608311.333857,0.350251,-2.265795,54.334176,0.033218,-0.008118,0.988892,0.017079,0.012741,0.040473,60.886719,22.949036,-147.020111,,,
729608311.337106,0.350981,-2.265468,54.345634,0.039917,-0.008469,0.988327,0.019028,-0.001117,0.036446,60.886719,22.949036,-147.020111,,,
729608311.340459,0.354974,-2.265817,54.35587,0.039917,-0.008469,0.988327,0.019028,-0.001117,0.036446,60.886719,22.949036,-147.020111,,,
729608311.343782,0.354974,-2.265817,54.35587,0.039917,-0.008469,0.988327,0.019028,-0.001117,0.036446,60.886719,22.949036,-147.020111,,,
729608311.347109,0.352001,-2.26617,54.365312,0.044693,-0.002838,0.989227,0.007294,0.002827,0.03369,60.750504,22.972473,-146.886871,,,
729608311.350438,0.353936,-2.265551,54.374829,0.044693,-0.002838,0.989227,0.007294,0.002827,0.03369,60.750504,22.972473,-146.886871,,,
729608311.353785,0.353936,-2.265551,54.374829,0.044693,-0.002838,0.989227,0.007294,0.002827,0.03369,60.750504,22.972473,-146.886871,,,
729608311.357112,0.349624,-2.265769,54.384335,0.050003,-0.001556,0.987442,-0.002826,0.021139,0.028441,60.750504,22.972473,-146.886871,,,
729608311.360443,0.348205,-2.259869,54.393912,0.050003,-0.001556,0.987442,-0.002826,0.021139,0.028441,60.750504,22.972473,-146.886871,,,
729608311.363773,0.348205,-2.259869,54.393912,0.050003,-0.001556,0.987442,-0.002826,0.021139,0.028441,60.750504,22.972473,-146.886871,,,
729608311.367124,0.343078,-2.253153,54.403847,0.054337,0.001541,0.991898,-0.012911,0.036365,0.034252,60.750504,22.972473,-146.886871,,,
729608311.370444,0.338686,-2.242809,54.413992,0.054337,0.001541,0.991898,-0.012911,0.036365,0.034252,60.750504,22.972473,-146.886871,,,
729608311.373844,0.338686,-2.242809,54.413992,0.054337,0.001541,0.991898,-0.012911,0.036365,0.034252,60.750504,22.972473,-146.886871,,,
729608311.377104,0.331656,-2.234189,54.424198,0.051346,-0.000259,0.993591,-0.021705,0.048129,0.032699,60.750504,22.972473,-146.886871,,,
729608311.380485,0.323724,-2.221076,54.433594,0.051346,-0.000259,0.993591,-0.021705,0.048129,0.032699,60.750504,22.972473,-146.886871,,,
729608311.383812,0.323724,-2.221076,54.433594,0.051346,-0.000259,0.993591,-0.021705,0.048129,0.032699,60.750504,22.972473,-146.886871,,,
729608311.387123,0.313643,-2.20919,54.441647,0.052277,0.00293,0.99585,-0.034167,0.050777,0.024693,60.763,22.891342,-146.972824,,,
729608311.390438,0.303335,-2.195808,54.449183,0.052277,0.00293,0.99585,-0.034167,0.050777,0.024693,60.763,22.891342,-146.972824,,,
729608311.39387,0.303335,-2.195808,54.449183,0.052277,0.00293,0.99585,-0.034167,0.050777,0.024693,60.763,22.891342,-146.972824,,,
729608311.397172,0.292092,-2.184841,54.457004,0.046692,0.00293,0.995544,-0.031058,0.040984,0.028838,60.763,22.891342,-146.972824,,,
729608311.400414,0.283304,-2.174468,54.46492,0.046692,0.00293,0.995544,-0.031058,0.040984,0.028838,60.763,22.891342,-146.972824,,,
729608311.403764,0.283304,-2.174468,54.46492,0.046692,0.00293,0.995544,-0.031058,0.040984,0.028838,60.763,22.891342,-146.972824,,,
729608311.407167,0.272254,-2.165928,54.472993,0.041473,-0.003281,1.003052,-0.022814,0.021722,0.02826,60.763,22.891342,-146.972824,,,
729608311.41046,0.264561,-2.16153,54.480729,0.041473,-0.003281,1.003052,-0.022814,0.021722,0.02826,60.763,22.891342,-146.972824,,,
729608311.413789,0.264561,-2.16153,54.480729,0.041473,-0.003281,1.003052,-0.022814,0.021722,0.02826,60.763,22.891342,-146.972824,,,
729608311.417139,0.254924,-2.159562,54.488035,0.042847,-0.00592,1.002792,-0.01577,0.001516,0.024906,60.763,22.891342,-146.972824,,,
729608311.420442,0.249164,-2.160652,54.495255,0.042847,-0.00592,1.002792,-0.01577,0.001516,0.024906,60.763,22.891342,-146.972824,,,
729608311.42384,0.249164,-2.160652,54.495255,0.042847,-0.00592,1.002792,-0.01577,0.001516,0.024906,60.763,22.891342,-146.972824,,,
729608311.427126,0.241278,-2.16473,54.501991,0.037308,-0.005051,1.004196,-0.018803,-0.006707,0.021207,60.763,22.891342,-146.972824,,,
729608311.430454,0.234802,-2.167388,54.508211,0.037308,-0.005051,1.004196,-0.018803,-0.006707,0.021207,60.690735,23.212753,-147.160889,,,
729608311.433778,0.234802,-2.167388,54.508211,0.037308,-0.005051,1.004196,-0.018803,-0.006707,0.021207,60.690735,23.212753,-147.160889,,,
729608311.437225,0.226217,-2.172822,54.514389,0.039444,0.000214,1.006729,-0.023608,-0.005792,0.021026,60.690735,23.212753,-147.160889,,,
729608311.440446,0.218558,-2.175013,54.520455,0.039444,0.000214,1.006729,-0.023608,-0.005792,0.021026,60.690735,23.212753,-147.160889,,,
729608311.443801,0.218558,-2.175013,54.520455,0.039444,0.000214,1.006729,-0.023608,-0.005792,0.021026,60.690735,23.212753,-147.160889,,,
729608311.44715,0.209274,-2.179719,54.525921,0.040054,-0.000809,1.006256,-0.029358,0.006666,0.02046,60.690735,23.212753,-147.160889,,,
729608311.450498,0.200682,-2.178316,54.531183,0.040054,-0.000809,1.006256,-0.029358,0.006666,0.02046,60.690735,23.212753,-147.160889,,,
729608311.453814,0.200682,-2.178316,54.531183,0.040054,-0.000809,1.006256,-0.029358,0.006666,0.02046,60.690735,23.212753,-147.160889,,,
729608311.457127,0.191945,-2.178961,54.536281,0.040298,-0.0047,1.009079,-0.026273,0.018111,0.014866,60.690735,23.212753,-147.160889,,,
729608311.460436,0.185131,-2.174374,54.541241,0.040298,-0.0047,1.009079,-0.026273,0.018111,0.014866,60.690735,23.212753,-147.160889,,,
729608311.46381,0.185131,-2.174374,54.541241,0.040298,-0.0047,1.009079,-0.026273,0.018111,0.014866,60.690735,23.212753,-147.160889,,,
729608311.467203,0.180139,-2.173205,54.546741,0.042603,-0.010742,1.009186,-0.006679,0.01806,0.020015,60.690735,23.212753,-147.160889,,,
729608311.47044,0.177746,-2.169349,54.552748,0.042603,-0.010742,1.009186,-0.006679,0.01806,0.020015,60.849258,23.322144,-147.128326,,,
729608311.473844,0.177746,-2.169349,54.552748,0.042603,-0.010742,1.009186,-0.006679,0.01806,0.020015,60.849258,23.322144,-147.128326,,,
729608311.477119,0.177124,-2.170234,54.559104,0.035507,-0.01445,1.004395,0.001426,0.005861,0.022813,60.849258,23.322144,-147.128326,,,
729608311.480448,0.176004,-2.169335,54.565966,0.035507,-0.01445,1.004395,0.001426,0.005861,0.022813,60.849258,23.322144,-147.128326,,,
729608311.483774,0.176004,-2.169335,54.565966,0.035507,-0.01445,1.004395,0.001426,0.005861,0.022813,60.849258,23.322144,-147.128326,,,
729608311.48718,0.171761,-2.170672,54.57325,0.033112,-0.01564,0.987335,-0.019366,0.000614,0.022637,60.849258,23.322144,-147.128326,,,
729608311.490436,0.16487,-2.171334,54.580345,0.033112,-0.01564,0.987335,-0.019366,0.000614,0.022637,60.849258,23.322144,-147.128326,,,
729608311.493792,0.16487,-2.171334,54.580345,0.033112,-0.01564,0.987335,-0.019366,0.000614,0.022637,60.849258,23.322144,-147.128326,,,
729608311.497107,0.151235,-2.17422,54.587158,0.035217,-0.011627,0.979065,-0.050672,-0.004998,0.021198,60.849258,23.322144,-147.128326,,,
729608311.500442,0.13512,-2.177331,54.593586,0.035217,-0.011627,0.979065,-0.050672,-0.004998,0.021198,60.849258,23.322144,-147.128326,,,
729608311.503785,0.13512,-2.177331,54.593586,0.035217,-0.011627,0.979065,-0.050672,-0.004998,0.021198,60.849258,23.322144,-147.128326,,,
729608311.507126,0.113198,-2.181862,54.599509,0.041199,-0.009308,0.969101,-0.079606,-0.015751,0.020408,60.849258,23.322144,-147.128326,,,
729608311.510436,0.089401,-2.187506,54.604999,0.041199,-0.009308,0.969101,-0.079606,-0.015751,0.020408,60.854507,23.399719,-147.103302,,,
729608311.513874,0.089401,-2.187506,54.604999,0.041199,-0.009308,0.969101,-0.079606,-0.015751,0.020408,60.854507,23.399719,-147.103302,,,
729608311.517179,0.062024,-2.194787,54.608989,0.047485,-0.010056,0.968506,-0.093251,-0.027535,0.010684,60.854507,23.399719,-147.103302,,,
729608311.52044,0.034752,-2.204045,54.611345,0.047485,-0.010056,0.968506,-0.093251,-0.027535,0.010684,60.854507,23.399719,-147.103302,,,
729608311.52385,0.034752,-2.204045,54.611345,0.047485,-0.010056,0.968506,-0.093251,-0.027535,0.010684,60.854507,23.399719,-147.103302,,,
729608311.52713,0.00718,-2.216002,54.612278,0.053024,-0.01236,0.972809,-0.094942,-0.043471,0.001664,60.854507,23.399719,-147.103302,,,
729608311.530456,-0.019421,-2.229476,54.611088,0.053024,-0.01236,0.972809,-0.094942,-0.043471,0.001664,60.854507,23.399719,-147.103302,,,
729608311.533813,-0.019421,-2.229476,54.611088,0.053024,-0.01236,0.972809,-0.094942,-0.043471,0.001664,60.854507,23.399719,-147.103302,,,
729608311.537187,-0.044165,-2.244713,54.608477,0.057495,-0.016006,0.977875,-0.078852,-0.051567,-0.009215,60.854507,23.399719,-147.103302,,,
729608311.540442,-0.065528,-2.260693,54.604666,0.057495,-0.016006,0.977875,-0.078852,-0.051567,-0.009215,60.854507,23.399719,-147.103302,,,
729608311.54379,-0.065528,-2.260693,54.604666,0.057495,-0.016006,0.977875,-0.078852,-0.051567,-0.009215,60.854507,23.399719,-147.103302,,,
729608311.547125,-0.085957,-2.275378,54.599679,0.064087,-0.015793,0.98819,-0.060937,-0.033017,-0.02157,60.854507,23.399719,-147.103302,,,
729608311.550475,-0.1021,-2.284842,54.594029,0.064087,-0.015793,0.98819,-0.060937,-0.033017,-0.02157,60.938446,23.443985,-146.886429,,,
729608311.553677,-0.1021,-2.284842,54.594029,0.064087,-0.015793,0.98819,-0.060937,-0.033017,-0.02157,60.938446,23.443985,-146.886429,,,
729608311.557157,-0.118418,-2.289223,54.588074,0.06076,-0.016281,0.995987,-0.042607,0.000734,-0.020668,60.938446,23.443985,-146.886429,,,
729608311.560523,-0.130747,-2.288389,54.582298,0.06076,-0.016281,0.995987,-0.042607,0.000734,-0.020668,60.938446,23.443985,-146.886429,,,
729608311.563787,-0.130747,-2.288389,54.582298,0.06076,-0.016281,0.995987,-0.042607,0.000734,-0.020668,60.938446,23.443985,-146.886429,,,
729608311.567123,-0.145286,-2.278082,54.576798,0.058289,-0.01387,1.002319,-0.036622,0.054218,-0.021944,60.938446,23.443985,-146.886429,,,
729608311.570359,-0.155392,-2.261795,54.570262,0.058289,-0.01387,1.002319,-0.036622,0.054218,-0.021944,60.938446,23.443985,-146.886429,,,
729608311.573835,-0.155392,-2.261795,54.570262,0.058289,-0.01387,1.002319,-0.036622,0.054218,-0.021944,60.938446,23.443985,-146.886429,,,
729608311.577105,-0.167728,-2.238499,54.561861,0.061035,-0.007568,1.004471,-0.035014,0.093416,-0.032935,60.938446,23.443985,-146.886429,,,
729608311.580538,-0.17813,-2.212192,54.551741,0.061035,-0.007568,1.004471,-0.035014,0.093416,-0.032935,60.938446,23.443985,-146.886429,,,
729608311.58382,-0.17813,-2.212192,54.551741,0.061035,-0.007568,1.004471,-0.035014,0.093416,-0.032935,60.938446,23.443985,-146.886429,,,
729608311.587125,-0.190869,-2.182934,54.540353,0.050766,0.000702,0.997009,-0.043685,0.110084,-0.041701,60.938446,23.443985,-146.886429,,,
729608311.590435,-0.203435,-2.152205,54.528137,0.050766,0.000702,0.997009,-0.043685,0.110084,-0.041701,60.938446,23.443985,-146.886429,,,
729608311.593794,-0.203435,-2.152205,54.528137,0.050766,0.000702,0.997009,-0.043685,0.110084,-0.041701,61.014969,23.556976,-147.206482,,,
729608311.597119,-0.218789,-2.124647,54.514999,0.036407,0.006027,0.990753,-0.051661,0.098094,-0.046827,61.014969,23.556976,-147.206482,,,
729608311.600437,-0.233296,-2.098059,54.501242,0.036407,0.006027,0.990753,-0.051661,0.098094,-0.046827,61.014969,23.556976,-147.206482,,,
729608311.603788,-0.233296,-2.098059,54.501242,0.036407,0.006027,0.990753,-0.051661,0.098094,-0.046827,61.014969,23.556976,-147.206482,,,
729608311.607105,-0.249753,-2.081276,54.486754,0.026245,0.005966,0.987549,-0.052964,0.0583,-0.05231,61.014969,23.556976,-147.206482,,,
729608311.610447,-0.265178,-2.067134,54.471729,0.026245,0.005966,0.987549,-0.052964,0.0583,-0.05231,61.014969,23.556976,-147.206482,,,
729608311.61379,-0.265178,-2.067134,54.471729,0.026245,0.005966,0.987549,-0.052964,0.0583,-0.05231,61.014969,23.556976,-147.206482,,,
729608311.617139,-0.283136,-2.064641,54.456901,0.014526,0.000412,0.986496,-0.051261,0.014472,-0.049115,61.014969,23.556976,-147.206482,,,
729608311.620297,-0.297424,-2.062378,54.441893,0.014526,0.000412,0.986496,-0.051261,0.014472,-0.049115,61.014969,23.556976,-147.206482,,,
729608311.623861,-0.297424,-2.062378,54.441893,0.014526,0.000412,0.986496,-0.051261,0.014472,-0.049115,61.014969,23.556976,-147.206482,,,
729608311.627106,-0.313013,-2.071549,54.426373,0.009689,0.000183,0.995178,-0.04502,-0.016928,-0.050707,61.014969,23.556976,-147.206482,,,
729608311.630514,-0.324936,-2.077954,54.411202,0.009689,0.000183,0.995178,-0.04502,-0.016928,-0.050707,61.014969,23.556976,-147.206482,,,
729608311.633764,-0.324936,-2.077954,54.411202,0.009689,0.000183,0.995178,-0.04502,-0.016928,-0.050707,61.073303,23.444839,-147.05928,,,
729608311.63718,-0.337186,-2.091815,54.397055,0.012817,0.002136,1.006104,-0.03137,-0.023295,-0.046457,61.073303,23.444839,-147.05928,,,
729608311.640459,-0.345763,-2.099758,54.384465,0.012817,0.002136,1.006104,-0.03137,-0.023295,-0.046457,61.073303,23.444839,-147.05928,,,
729608311.643813,-0.345763,-2.099758,54.384465,0.012817,0.002136,1.006104,-0.03137,-0.023295,-0.046457,61.073303,23.444839,-147.05928,,,
729608311.647143,-0.3543,-2.111304,54.373695,0.014099,-0.001068,1.01738,-0.019429,-0.012137,-0.033521,61.073303,23.444839,-147.05928,,,
729608311.650463,-0.3582,-2.114683,54.365224,0.014099,-0.001068,1.01738,-0.019429,-0.012137,-0.033521,61.073303,23.444839,-147.05928,,,
729608311.653789,-0.3582,-2.114683,54.365224,0.014099,-0.001068,1.01738,-0.019429,-0.012137,-0.033521,61.073303,23.444839,-147.05928,,,
729608311.657113,-0.360884,-2.121463,54.358476,0.01915,-0.005783,1.026947,0.002013,0.008382,-0.024304,61.073303,23.444839,-147.05928,,,
729608311.660436,-0.359514,-2.119453,54.352838,0.01915,-0.005783,1.026947,0.002013,0.008382,-0.024304,61.073303,23.444839,-147.05928,,,
729608311.663788,-0.359514,-2.119453,54.352838,0.01915,-0.005783,1.026947,0.002013,0.008382,-0.024304,61.073303,23.444839,-147.05928,,,
729608311.667111,-0.355536,-2.11999,54.347589,0.021469,-0.00145,1.027145,0.013936,0.023074,-0.018449,61.073303,23.444839,-147.05928,,,
729608311.670559,-0.351549,-2.114198,54.342448,0.021469,-0.00145,1.027145,0.013936,0.023074,-0.018449,61.073303,23.444839,-147.05928,,,
729608311.673807,-0.351549,-2.114198,54.342448,0.021469,-0.00145,1.027145,0.013936,0.023074,-0.018449,60.946213,23.451538,-146.862076,,,
729608311.677171,-0.343993,-2.108089,54.337434,0.02359,0.003387,1.019012,0.020901,0.031708,-0.018592,60.946213,23.451538,-146.862076,,,
729608311.680465,-0.338563,-2.09982,54.33277,0.02359,0.003387,1.019012,0.020901,0.031708,-0.018592,60.946213,23.451538,-146.862076,,,
729608311.683821,-0.338563,-2.09982,54.33277,0.02359,0.003387,1.019012,0.020901,0.031708,-0.018592,60.946213,23.451538,-146.862076,,,
729608311.687213,-0.330405,-2.089565,54.32845,0.025131,0.005615,1.01712,0.018452,0.030856,-0.019043,60.946213,23.451538,-146.862076,,,
729608311.690448,-0.324647,-2.082173,54.324612,0.025131,0.005615,1.01712,0.018452,0.030856,-0.019043,60.946213,23.451538,-146.862076,,,
729608311.693802,-0.324647,-2.082173,54.324612,0.025131,0.005615,1.01712,0.018452,0.030856,-0.019043,60.946213,23.451538,-146.862076,,,
729608311.697212,-0.316783,-2.072695,54.321518,0.022659,0.004013,1.012894,0.023231,0.017067,-0.013147,60.946213,23.451538,-146.862076,,,
729608311.700439,-0.310782,-2.069276,54.318919,0.022659,0.004013,1.012894,0.023231,0.017067,-0.013147,60.946213,23.451538,-146.862076,,,
729608311.703774,-0.310782,-2.069276,54.318919,0.022659,0.004013,1.012894,0.023231,0.017067,-0.013147,60.946213,23.451538,-146.862076,,,
729608311.707121,-0.303032,-2.060804,54.317076,0.017975,-0.000381,1.012497,0.02818,0.004407,-0.004651,60.946213,23.451538,-146.862076,,,
729608311.710441,-0.295106,-2.060266,54.316508,0.017975,-0.000381,1.012497,0.02818,0.004407,-0.004651,60.946213,23.451538,-146.862076,,,
729608311.713781,-0.295106,-2.060266,54.316508,0.017975,-0.000381,1.012497,0.02818,0.004407,-0.004651,60.946213,23.451538,-146.862076,,,
729608311.717122,-0.284736,-2.054702,54.317621,0.022354,-0.002411,1.011902,0.029896,-0.001912,0.005488,61.019806,23.536209,-146.904343,,,
729608311.720442,-0.276029,-2.056553,54.319482,0.022354,-0.002411,1.011902,0.029896,-0.001912,0.005488,61.019806,23.536209,-146.904343,,,
729608311.723875,-0.276029,-2.056553,54.319482,0.022354,-0.002411,1.011902,0.029896,-0.001912,0.005488,61.019806,23.536209,-146.904343,,,
729608311.72713,-0.266006,-2.053683,54.321674,0.027817,-0.001434,1.009415,0.029795,-0.006868,0.008507,61.019806,23.536209,-146.904343,,,
729608311.730441,-0.257188,-2.057185,54.324607,0.027817,-0.001434,1.009415,0.029795,-0.006868,0.008507,61.019806,23.536209,-146.904343,,,
729608311.733785,-0.257188,-2.057185,54.324607,0.027817,-0.001434,1.009415,0.029795,-0.006868,0.008507,61.019806,23.536209,-146.904343,,,
729608311.737182,-0.247391,-2.055986,54.327984,0.034164,-4.6e-05,1.010178,0.038552,-0.011581,0.006461,61.019806,23.536209,-146.904343,,,
729608311.740432,-0.236238,-2.060208,54.330947,0.034164,-4.6e-05,1.010178,0.038552,-0.011581,0.006461,61.019806,23.536209,-146.904343,,,
729608311.7438,-0.236238,-2.060208,54.330947,0.034164,-4.6e-05,1.010178,0.038552,-0.011581,0.006461,61.019806,23.536209,-146.904343,,,
729608311.747121,-0.22398,-2.0609,54.333684,0.041962,0.000198,1.008987,0.046926,-0.013687,0.005835,61.019806,23.536209,-146.904343,,,
729608311.750436,-0.210709,-2.065389,54.336377,0.041962,0.000198,1.008987,0.046926,-0.013687,0.005835,61.019806,23.536209,-146.904343,,,
729608311.753785,-0.210709,-2.065389,54.336377,0.041962,0.000198,1.008987,0.046926,-0.013687,0.005835,61.019806,23.536209,-146.904343,,,
729608311.757118,-0.194802,-2.065826,54.338893,0.045319,-0.000961,1.008942,0.055077,-0.010892,0.006119,60.78447,23.518646,-147.036469,,,
729608311.760428,-0.178958,-2.069342,54.341992,0.045319,-0.000961,1.008942,0.055077,-0.010892,0.006119,60.78447,23.518646,-147.036469,,,
729608311.763872,-0.178958,-2.069342,54.341992,0.045319,-0.000961,1.008942,0.055077,-0.010892,0.006119,60.78447,23.518646,-147.036469,,,
729608311.767121,-0.160919,-2.068965,54.346656,0.04364,-0.004913,1.008652,0.058792,0.000473,0.016367,60.78447,23.518646,-147.036469,,,
729608311.770437,-0.144829,-2.069425,54.35258,0.04364,-0.004913,1.008652,0.058792,0.000473,0.016367,60.78447,23.518646,-147.036469,,,
729608311.773792,-0.144829,-2.069425,54.35258,0.04364,-0.004913,1.008652,0.058792,0.000473,0.016367,60.78447,23.518646,-147.036469,,,
729608311.777122,-0.128696,-2.065798,54.358758,0.046875,-0.00145,1.004898,0.048912,0.008403,0.016266,60.78447,23.518646,-147.036469,,,
729608311.78045,-0.115302,-2.064137,54.364324,0.046875,-0.00145,1.004898,0.048912,0.008403,0.016266,60.78447,23.518646,-147.036469,,,
729608311.783789,-0.115302,-2.064137,54.364324,0.046875,-0.00145,1.004898,0.048912,0.008403,0.016266,60.78447,23.518646,-147.036469,,,
729608311.787175,-0.102569,-2.058687,54.368295,0.053146,0.006912,0.998886,0.039753,0.009565,0.005135,60.78447,23.518646,-147.036469,,,
729608311.790438,-0.092247,-2.056362,54.370511,0.053146,0.006912,0.998886,0.039753,0.009565,0.005135,60.78447,23.518646,-147.036469,,,
729608311.793791,-0.092247,-2.056362,54.370511,0.053146,0.006912,0.998886,0.039753,0.009565,0.005135,60.78447,23.518646,-147.036469,,,
729608311.797118,-0.084332,-2.051751,54.372028,0.05069,0.009125,0.992645,0.02608,0.006702,0.004133,60.996826,23.517105,-147.021332,,,
729608311.800444,-0.078315,-2.051286,54.374029,0.05069,0.009125,0.992645,0.02608,0.006702,0.004133,60.996826,23.517105,-147.021332,,,
729608311.803788,-0.078315,-2.051286,54.374029,0.05069,0.009125,0.992645,0.02608,0.006702,0.004133,60.996826,23.517105,-147.021332,,,
729608311.807139,-0.073861,-2.049158,54.376562,0.045807,0.003189,0.989212,0.012609,0.00014,0.006843,60.996826,23.517105,-147.021332,,,
729608311.81048,-0.070355,-2.049704,54.37951,0.045807,0.003189,0.989212,0.012609,0.00014,0.006843,60.996826,23.517105,-147.021332,,,
729608311.81382,-0.070355,-2.049704,54.37951,0.045807,0.003189,0.989212,0.012609,0.00014,0.006843,60.996826,23.517105,-147.021332,,,
729608311.817108,-0.067632,-2.050333,54.382177,0.047028,-0.001419,0.988159,0.007164,-0.005574,0.006463,60.996826,23.517105,-147.021332,,,
729608311.820449,-0.065688,-2.053737,54.384314,0.047028,-0.001419,0.988159,0.007164,-0.005574,0.006463,60.996826,23.517105,-147.021332,,,
729608311.823886,-0.065688,-2.053737,54.384314,0.047028,-0.001419,0.988159,0.007164,-0.005574,0.006463,60.996826,23.517105,-147.021332,,,
729608311.82712,-0.063731,-2.058984,54.38584,0.048599,-0.002304,0.988052,0.00577,-0.011668,-0.001768,60.996826,23.517105,-147.021332,,,
729608311.830436,-0.062347,-2.062908,54.386191,0.048599,-0.002304,0.988052,0.00577,-0.011668,-0.001768,60.996826,23.517105,-147.021332,,,
729608311.83379,-0.062347,-2.062908,54.386191,0.048599,-0.002304,0.988052,0.00577,-0.011668,-0.001768,60.996826,23.517105,-147.021332,,,
729608311.837134,-0.060001,-2.068108,54.385688,0.048355,-0.004196,0.992569,0.013118,-0.008686,-0.004928,60.779678,23.304794,-147.189331,,,
729608311.840436,-0.056825,-2.072033,54.385393,0.048355,-0.004196,0.992569,0.013118,-0.008686,-0.004928,60.779678,23.304794,-147.189331,,,
729608311.843775,-0.056825,-2.072033,54.385393,0.048355,-0.004196,0.992569,0.013118,-0.008686,-0.004928,60.779678,23.304794,-147.189331,,,
729608311.847105,-0.053566,-2.078603,54.386435,0.046295,-0.005447,0.992538,0.017421,-0.015616,0.005814,60.779678,23.304794,-147.189331,,,
729608311.850437,-0.048916,-2.083566,54.388677,0.046295,-0.005447,0.992538,0.017421,-0.015616,0.005814,60.779678,23.304794,-147.189331,,,
729608311.853784,-0.048916,-2.083566,54.388677,0.046295,-0.005447,0.992538,0.017421,-0.015616,0.005814,60.779678,23.304794,-147.189331,,,
729608311.857115,-0.045283,-2.089596,54.392149,0.041168,-0.009689,0.993759,0.013212,-0.005858,0.013285,60.779678,23.304794,-147.189331,,,
729608311.860434,-0.041914,-2.0922,54.396413,0.041168,-0.009689,0.993759,0.013212,-0.005858,0.013285,60.779678,23.304794,-147.189331,,,
729608311.863862,-0.041914,-2.0922,54.396413,0.041168,-0.009689,0.993759,0.013212,-0.005858,0.013285,60.779678,23.304794,-147.189331,,,
729608311.867107,-0.038858,-2.097006,54.400627,0.041443,-0.006729,0.994553,0.005814,0.003669,0.014073,60.779678,23.304794,-147.189331,,,
729608311.870445,-0.037765,-2.096387,54.404921,0.041443,-0.006729,0.994553,0.005814,0.003669,0.014073,60.779678,23.304794,-147.189331,,,
729608311.87379,-0.037765,-2.096387,54.404921,0.041443,-0.006729,0.994553,0.005814,0.003669,0.014073,60.779678,23.304794,-147.189331,,,
729608311.877201,-0.035098,-2.098465,54.408942,0.043121,-0.00206,0.995605,0.002701,0.013061,0.011557,60.779678,23.304794,-147.189331,,,
729608311.880455,-0.035326,-2.095335,54.412456,0.043121,-0.00206,0.995605,0.002701,0.013061,0.011557,60.93985,23.194672,-146.86731,,,
729608311.883789,-0.035326,-2.095335,54.412456,0.043121,-0.00206,0.995605,0.002701,0.013061,0.011557,60.93985,23.194672,-146.86731,,,
729608311.887124,-0.034596,-2.094523,54.415574,0.03981,-0.001328,0.996979,-8.5e-05,0.012263,0.007578,60.93985,23.194672,-146.86731,,,
729608311.89044,-0.035717,-2.091822,54.418233,0.03981,-0.001328,0.996979,-8.5e-05,0.012263,0.007578,60.93985,23.194672,-146.86731,,,
729608311.893793,-0.035717,-2.091822,54.418233,0.03981,-0.001328,0.996979,-8.5e-05,0.012263,0.007578,60.93985,23.194672,-146.86731,,,
729608311.897116,-0.036766,-2.09395,54.419994,0.038147,-0.00206,0.997116,-0.002981,-0.000906,0.000435,60.93985,23.194672,-146.86731,,,
729608311.900446,-0.037971,-2.095992,54.420213,0.038147,-0.00206,0.997116,-0.002981,-0.000906,0.000435,60.93985,23.194672,-146.86731,,,
729608311.903808,-0.037971,-2.095992,54.420213,0.038147,-0.00206,0.997116,-0.002981,-0.000906,0.000435,60.93985,23.194672,-146.86731,,,
729608311.907115,-0.040412,-2.103756,54.418659,0.036102,0.000397,0.991409,-0.007255,-0.016442,-0.00872,60.93985,23.194672,-146.86731,,,
729608311.910435,-0.043513,-2.109634,54.41616,0.036102,0.000397,0.991409,-0.007255,-0.016442,-0.00872,60.93985,23.194672,-146.86731,,,
729608311.91379,-0.043513,-2.109634,54.41616,0.036102,0.000397,0.991409,-0.007255,-0.016442,-0.00872,60.93985,23.194672,-146.86731,,,
729608311.917163,-0.047198,-2.119187,54.413524,0.034332,0.002136,0.994049,-0.008668,-0.02138,-0.011137,60.93985,23.194672,-146.86731,,,
729608311.920435,-0.04975,-2.12658,54.410843,0.034332,0.002136,0.994049,-0.008668,-0.02138,-0.011137,60.836151,23.244385,-147.018021,,,
729608311.923792,-0.04975,-2.12658,54.410843,0.034332,0.002136,0.994049,-0.008668,-0.02138,-0.011137,60.836151,23.244385,-147.018021,,,
729608311.927133,-0.051437,-2.137836,54.408473,0.035019,-0.00325,1.000488,0.004549,-0.026313,-0.010219,60.836151,23.244385,-147.018021,,,
729608311.930443,-0.049574,-2.145889,54.405941,0.035019,-0.00325,1.000488,0.004549,-0.026313,-0.010219,60.836151,23.244385,-147.018021,,,
729608311.933779,-0.049574,-2.145889,54.405941,0.035019,-0.00325,1.000488,0.004549,-0.026313,-0.010219,60.836151,23.244385,-147.018021,,,
