Time (sec),Pitch (deg),Roll (deg),Yaw(deg),X-Acceleration (g),Y-Acceleration (g),Z-Acceleration (g),Pitch Rate (deg/sec),Roll Rate (deg/sec),Yaw Rate (deg/sec),Magnetic Field in X direction (uT),Magnetic Field in Y direction (uT),Magnetic Field in Z Direction (uT),Latitude (deg),Longitude (deg),Altitude (m)
729608392.960408,0.456269,0.874436,52.797068,-0.028748,-0.007767,0.980804,-0.057656,-0.027624,-0.033604,65.113846,22.169281,-148.158768,,,
729608392.96366,0.456269,0.874436,52.797068,-0.028748,-0.007767,0.980804,-0.057656,-0.027624,-0.033604,65.113846,22.169281,-148.158768,,,
729608392.966971,0.435327,0.859554,52.78747,-0.022629,-0.00679,0.975266,-0.078717,-0.044634,-0.037852,65.113846,22.169281,-148.158768,,,
729608392.970376,0.412261,0.845931,52.776421,-0.022629,-0.00679,0.975266,-0.078717,-0.044634,-0.037852,65.113846,22.169281,-148.158768,,,
729608392.973673,0.412261,0.845931,52.776421,-0.022629,-0.00679,0.975266,-0.078717,-0.044634,-0.037852,65.113846,22.169281,-148.158768,,,
729608392.97695,0.386016,0.829698,52.763458,-0.007492,0.006012,0.982452,-0.090908,-0.041517,-0.054488,65.113846,22.169281,-148.158768,,,
729608392.980276,0.359228,0.817147,52.748515,-0.007492,0.006012,0.982452,-0.090908,-0.041517,-0.054488,64.70079,22.303452,-148.087753,,,
729608392.983666,0.359228,0.817147,52.748515,-0.007492,0.006012,0.982452,-0.100728,-0.028985,-0.060404,64.70079,22.303452,-148.087753,,,
729608392.986947,0.329094,0.803943,52.732092,0.000732,0.012558,0.993286,-0.100728,-0.028985,-0.060404,64.70079,22.303452,-148.087753,,,
729608392.990289,0.299536,0.796284,52.715289,0.000732,0.012558,0.993286,-0.100728,-0.028985,-0.060404,64.70079,22.303452,-148.087753,,,
729608392.993619,0.299536,0.796284,52.715289,0.000732,0.012558,0.993286,-0.100728,-0.028985,-0.060404,64.70079,22.303452,-148.087753,,,
729608392.997037,0.267777,0.79029,52.698475,0.001633,-0.001266,1.001633,-0.097743,-0.00977,-0.060481,64.70079,22.303452,-148.087753,,,
729608393.000302,0.240135,0.787302,52.681797,0.001633,-0.001266,1.001633,-0.097743,-0.00977,-0.060481,64.70079,22.303452,-148.087753,,,
729608393.003644,0.240135,0.787302,52.681797,0.001633,-0.001266,1.001633,-0.097743,-0.00977,-0.060481,64.70079,22.303452,-148.087753,,,
729608393.006939,0.211931,0.785334,52.665848,0.002213,-0.009796,1.007004,-0.082219,-0.001858,-0.056211,64.70079,22.303452,-148.087753,,,
729608393.010381,0.188822,0.784547,52.650554,0.002213,-0.009796,1.007004,-0.082219,-0.001858,-0.056211,64.70079,22.303452,-148.087753,,,
729608393.013653,0.188822,0.784547,52.650554,0.002213,-0.009796,1.007004,-0.082219,-0.001858,-0.056211,64.70079,22.303452,-148.087753,,,
729608393.016951,0.164907,0.785712,52.635391,-0.004196,-0.010925,1.010666,-0.065766,0.00701,-0.056927,64.70079,22.303452,-148.087753,,,
729608393.020301,0.14586,0.785871,52.619565,-0.004196,-0.010925,1.010666,-0.065766,0.00701,-0.056927,64.70079,22.303452,-148.087753,,,
729608393.023701,0.14586,0.785871,52.619565,-0.004196,-0.010925,1.010666,-0.065766,0.00701,-0.056927,65.092438,22.605286,-148.243423,,,
729608393.026947,0.126778,0.78668,52.602927,-0.004669,-0.002426,1.008957,-0.053027,-0.005132,-0.064934,65.092438,22.605286,-148.243423,,,
729608393.030293,0.111448,0.784003,52.584706,-0.004669,-0.002426,1.008957,-0.053027,-0.005132,-0.064934,65.092438,22.605286,-148.243423,,,
729608393.033665,0.111448,0.784003,52.584706,-0.004669,-0.002426,1.008957,-0.053027,-0.005132,-0.064934,65.092438,22.605286,-148.243423,,,
729608393.037016,0.095345,0.783428,52.564808,-0.004807,0.004608,1.005539,-0.042378,-0.016307,-0.075154,65.092438,22.605286,-148.243423,,,
729608393.040272,0.082691,0.778829,52.543265,-0.004807,0.004608,1.005539,-0.042378,-0.016307,-0.075154,65.092438,22.605286,-148.243423,,,
729608393.043673,0.082691,0.778829,52.543265,-0.004807,0.004608,1.005539,-0.042378,-0.016307,-0.075154,65.092438,22.605286,-148.243423,,,
729608393.046946,0.068268,0.778289,52.520755,-0.006775,0.006165,1.003418,-0.036422,-0.011038,-0.080282,65.092438,22.605286,-148.243423,,,
729608393.050283,0.056307,0.774386,52.498108,-0.006775,0.006165,1.003418,-0.036422,-0.011038,-0.080282,65.092438,22.605286,-148.243423,,,
729608393.053644,0.056307,0.774386,52.498108,-0.006775,0.006165,1.003418,-0.036422,-0.011038,-0.080282,65.092438,22.605286,-148.243423,,,
729608393.056935,0.045138,0.771478,52.475094,-0.008072,0.005035,1.003998,-0.030552,-0.004799,-0.083257,65.092438,22.605286,-148.243423,,,
729608393.060284,0.035204,0.770498,52.452232,-0.008072,0.005035,1.003998,-0.030552,-0.004799,-0.083257,65.092438,22.605286,-148.243423,,,
729608393.063672,0.035204,0.770498,52.452232,-0.008072,0.005035,1.003998,-0.030552,-0.004799,-0.083257,64.88475,22.397415,-147.911575,,,
729608393.066944,0.028202,0.768833,52.429172,-0.011505,0.009079,1.007767,-0.030989,0.012289,-0.08383,64.88475,22.397415,-147.911575,,,
729608393.070254,0.01851,0.772234,52.405507,-0.011505,0.009079,1.007767,-0.030989,0.012289,-0.08383,64.88475,22.397415,-147.911575,,,
729608393.07366,0.01851,0.772234,52.405507,-0.011505,0.009079,1.007767,-0.030989,0.012289,-0.08383,64.88475,22.397415,-147.911575,,,
729608393.076976,0.010253,0.772829,52.381272,-0.014511,0.01178,1.001862,-0.028478,0.023144,-0.089894,64.88475,22.397415,-147.911575,,,
729608393.080278,0.001195,0.778542,52.356059,-0.014511,0.01178,1.001862,-0.028478,0.023144,-0.089894,64.88475,22.397415,-147.911575,,,
729608393.083654,0.001195,0.778542,52.356059,-0.014511,0.01178,1.001862,-0.028478,0.023144,-0.089894,64.88475,22.397415,-147.911575,,,
729608393.08702,-0.009439,0.780211,52.330643,-0.021194,0.014175,0.997803,-0.028378,0.021826,-0.088467,64.88475,22.397415,-147.911575,,,
729608393.090268,-0.017441,0.784684,52.306468,-0.021194,0.014175,0.997803,-0.028378,0.021826,-0.088467,64.88475,22.397415,-147.911575,,,
729608393.093652,-0.017441,0.784684,52.306468,-0.021194,0.014175,0.997803,-0.028378,0.021826,-0.088467,64.88475,22.397415,-147.911575,,,
729608393.096954,-0.02751,0.784492,52.284284,-0.031845,0.011093,0.995239,-0.021281,0.012949,-0.073859,64.88475,22.397415,-147.911575,,,
729608393.100277,-0.034066,0.786342,52.264343,-0.031845,0.011093,0.995239,-0.021281,0.012949,-0.073859,64.88475,22.397415,-147.911575,,,
729608393.103612,-0.034066,0.786342,52.264343,-0.031845,0.011093,0.995239,-0.021281,0.012949,-0.073859,64.953735,22.731308,-147.793091,,,
729608393.106955,-0.040559,0.784709,52.246595,-0.039719,0.00473,0.995575,-0.009066,0.00428,-0.059999,64.953735,22.731308,-147.793091,,,
729608393.110274,-0.043757,0.784819,52.229947,-0.039719,0.00473,0.995575,-0.009066,0.00428,-0.059999,64.953735,22.731308,-147.793091,,,
729608393.113675,-0.043757,0.784819,52.229947,-0.039719,0.00473,0.995575,-0.009066,0.00428,-0.059999,64.953735,22.731308,-147.793091,,,
729608393.11695,-0.044711,0.781635,52.213627,-0.033478,0.005203,0.995941,-0.002728,-0.003889,-0.057321,64.953735,22.731308,-147.793091,,,
729608393.120279,-0.045986,0.780319,52.197793,-0.033478,0.005203,0.995941,-0.002728,-0.003889,-0.057321,64.953735,22.731308,-147.793091,,,
729608393.123623,-0.045986,0.780319,52.197793,-0.033478,0.005203,0.995941,-0.002728,-0.003889,-0.057321,64.953735,22.731308,-147.793091,,,
729608393.127024,-0.04544,0.777793,52.182549,-0.027237,0.011963,0.995819,-0.003709,0.002897,-0.053342,64.953735,22.731308,-147.793091,,,
729608393.130276,-0.048072,0.778282,52.168503,-0.027237,0.011963,0.995819,-0.003709,0.002897,-0.053342,64.953735,22.731308,-147.793091,,,
729608393.133621,-0.048072,0.778282,52.168503,-0.027237,0.011963,0.995819,-0.003709,0.002897,-0.053342,64.953735,22.731308,-147.793091,,,
729608393.136955,-0.050261,0.777856,52.155919,-0.028442,0.015625,0.994247,-0.010125,0.009714,-0.042493,64.953735,22.731308,-147.793091,,,
729608393.140271,-0.05348,0.77927,52.144643,-0.028442,0.015625,0.994247,-0.010125,0.009714,-0.042493,64.953735,22.731308,-147.793091,,,
729608393.143609,-0.05348,0.77927,52.144643,-0.028442,0.015625,0.994247,-0.010125,0.009714,-0.042493,65.008102,22.647079,-148.372772,,,
729608393.146969,-0.054393,0.781076,52.134197,-0.028351,0.008072,0.99556,-0.004468,0.019772,-0.036585,65.008102,22.647079,-148.372772,,,
729608393.150266,-0.056177,0.786286,52.123979,-0.028351,0.008072,0.99556,-0.004468,0.019772,-0.036585,65.008102,22.647079,-148.372772,,,
729608393.153679,-0.056177,0.786286,52.123979,-0.028351,0.008072,0.99556,-0.004468,0.019772,-0.036585,65.008102,22.647079,-148.372772,,,
729608393.157178,-0.053478,0.79306,52.113977,-0.025269,0.008881,1.00766,-2.1e-05,0.03208,-0.035875,65.008102,22.647079,-148.372772,,,
729608393.160251,-0.053594,0.800341,52.10441,-0.025269,0.008881,1.00766,-2.1e-05,0.03208,-0.035875,65.008102,22.647079,-148.372772,,,
729608393.163617,-0.053594,0.800341,52.10441,-0.025269,0.008881,1.00766,-2.1e-05,0.03208,-0.035875,65.008102,22.647079,-148.372772,,,
729608393.167019,-0.050466,0.807844,52.09525,-0.022324,0.011902,1.003616,-0.003676,0.024005,-0.031377,65.008102,22.647079,-148.372772,,,
729608393.170273,-0.052458,0.814428,52.086925,-0.022324,0.011902,1.003616,-0.003676,0.024005,-0.031377,65.008102,22.647079,-148.372772,,,
729608393.173624,-0.052458,0.814428,52.086925,-0.022324,0.011902,1.003616,-0.003676,0.024005,-0.031377,65.008102,22.647079,-148.372772,,,
729608393.17697,-0.053569,0.826351,52.079889,-0.028061,0.011078,0.996185,-0.020371,0.032793,-0.021768,65.008102,22.647079,-148.372772,,,
729608393.180279,-0.061029,0.83515,52.074644,-0.028061,0.011078,0.996185,-0.020371,0.032793,-0.021768,65.008102,22.647079,-148.372772,,,
729608393.183605,-0.061029,0.83515,52.074644,-0.028061,0.011078,0.996185,-0.020371,0.032793,-0.021768,65.008102,22.647079,-148.372772,,,
729608393.186965,-0.068597,0.848224,52.072065,-0.032333,0.008072,0.995316,-0.037292,0.015689,-0.006753,65.219681,22.646103,-148.253586,,,
729608393.190278,-0.079498,0.851252,52.071634,-0.032333,0.008072,0.995316,-0.037292,0.015689,-0.006753,65.219681,22.646103,-148.253586,,,
729608393.193671,-0.079498,0.851252,52.071634,-0.032333,0.008072,0.995316,-0.037292,0.015689,-0.006753,65.219681,22.646103,-148.253586,,,
729608393.196967,-0.089795,0.855504,52.072373,-0.033493,0.003601,0.990036,-0.038952,-0.012958,0.001503,65.219681,22.646103,-148.253586,,,
729608393.200276,-0.100804,0.850077,52.073166,-0.033493,0.003601,0.990036,-0.038952,-0.012958,0.001503,65.219681,22.646103,-148.253586,,,
729608393.203617,-0.100804,0.850077,52.073166,-0.033493,0.003601,0.990036,-0.038952,-0.012958,0.001503,65.219681,22.646103,-148.253586,,,
729608393.206984,-0.108229,0.84428,52.073248,-0.029343,0.002289,0.996887,-0.030901,-0.039046,-0.006011,65.219681,22.646103,-148.253586,,,
729608393.210277,-0.116981,0.831248,52.07269,-0.029343,0.002289,0.996887,-0.030901,-0.039046,-0.006011,65.219681,22.646103,-148.253586,,,
729608393.213621,-0.116981,0.831248,52.07269,-0.029343,0.002289,0.996887,-0.030901,-0.039046,-0.006011,65.219681,22.646103,-148.253586,,,
729608393.216968,-0.120712,0.820044,52.072067,-0.021957,0.000839,1.003845,-0.024792,-0.049412,-0.00533,65.219681,22.646103,-148.253586,,,
729608393.220281,-0.127694,0.805776,52.072189,-0.021957,0.000839,1.003845,-0.024792,-0.049412,-0.00533,65.219681,22.646103,-148.253586,,,
729608393.223634,-0.127694,0.805776,52.072189,-0.021957,0.000839,1.003845,-0.024792,-0.049412,-0.00533,65.219681,22.646103,-148.253586,,,
729608393.226973,-0.131319,0.797642,52.073645,-0.018402,-0.001251,1.012344,-0.025086,-0.032381,0.005051,65.055374,22.749847,-148.223343,,,
729608393.230275,-0.138816,0.787382,52.076187,-0.018402,-0.001251,1.012344,-0.025086,-0.032381,0.005051,65.055374,22.749847,-148.223343,,,
729608393.23361,-0.138816,0.787382,52.076187,-0.018402,-0.001251,1.012344,-0.025086,-0.032381,0.005051,65.055374,22.749847,-148.223343,,,
729608393.236962,-0.143565,0.781296,52.079076,-0.012344,-0.005737,1.01297,-0.022485,-0.024246,0.009668,65.055374,22.749847,-148.223343,,,
729608393.240297,-0.150574,0.773316,52.082427,-0.012344,-0.005737,1.01297,-0.022485,-0.024246,0.009668,65.055374,22.749847,-148.223343,,,
729608393.24369,-0.150574,0.773316,52.082427,-0.012344,-0.005737,1.01297,-0.022485,-0.024246,0.009668,65.055374,22.749847,-148.223343,,,
729608393.246947,-0.153863,0.768502,52.085863,-0.006058,-0.004166,1.011719,-0.020226,-0.02156,0.007742,65.055374,22.749847,-148.223343,,,
729608393.250275,-0.159947,0.76199,52.088307,-0.006058,-0.004166,1.011719,-0.020226,-0.02156,0.007742,65.055374,22.749847,-148.223343,,,
729608393.253625,-0.159947,0.76199,52.088307,-0.006058,-0.004166,1.011719,-0.020226,-0.02156,0.007742,65.055374,22.749847,-148.223343,,,
729608393.256996,-0.162168,0.7589,52.089823,-0.001953,0.000626,1.01445,-0.014189,-0.018605,0.003061,65.055374,22.749847,-148.223343,,,
729608393.260277,-0.166472,0.752538,52.090937,-0.001953,0.000626,1.01445,-0.014189,-0.018605,0.003061,65.055374,22.749847,-148.223343,,,
729608393.263623,-0.166472,0.752538,52.090937,-0.001953,0.000626,1.01445,-0.014189,-0.018605,0.003061,65.055374,22.749847,-148.223343,,,
729608393.266951,-0.166466,0.751411,52.091841,0.00029,-0.001068,1.011353,-0.008512,-0.01649,0.001361,64.794083,22.55661,-148.128723,,,
729608393.270272,-0.16958,0.745855,52.092229,0.00029,-0.001068,1.011353,-0.008512,-0.01649,0.001361,64.794083,22.55661,-148.128723,,,
729608393.27362,-0.16958,0.745855,52.092229,0.00029,-0.001068,1.011353,-0.008512,-0.01649,0.001361,64.794083,22.55661,-148.128723,,,
729608393.276945,-0.171248,0.745175,52.092059,0.004242,-0.002182,1.009705,-0.012716,-0.019076,-0.005214,64.794083,22.55661,-148.128723,,,
729608393.280281,-0.174995,0.738118,52.091102,0.004242,-0.002182,1.009705,-0.012716,-0.019076,-0.005214,64.794083,22.55661,-148.128723,,,
729608393.283659,-0.174995,0.738118,52.091102,0.004242,-0.002182,1.009705,-0.012716,-0.019076,-0.005214,64.794083,22.55661,-148.128723,,,
729608393.286953,-0.178835,0.735371,52.089458,0.003235,0.00238,1.003464,-0.021507,-0.023222,-0.011244,64.794083,22.55661,-148.128723,,,
729608393.290279,-0.185245,0.72679,52.087225,0.003235,0.00238,1.003464,-0.021507,-0.023222,-0.011244,64.794083,22.55661,-148.128723,,,
729608393.293621,-0.185245,0.72679,52.087225,0.003235,0.00238,1.003464,-0.021507,-0.023222,-0.011244,64.794083,22.55661,-148.128723,,,
729608393.297006,-0.19066,0.72052,52.083908,0.005829,0.005081,1.000748,-0.02289,-0.031199,-0.012149,64.794083,22.55661,-148.128723,,,
729608393.300271,-0.197656,0.711038,52.080168,0.005829,0.005081,1.000748,-0.02289,-0.031199,-0.012149,64.794083,22.55661,-148.128723,,,
729608393.303618,-0.197656,0.711038,52.080168,0.005829,0.005081,1.000748,-0.02289,-0.031199,-0.012149,64.794083,22.55661,-148.128723,,,
729608393.306976,-0.203958,0.702506,52.076087,0.005646,0.00441,1.003525,-0.019605,-0.035871,-0.018931,64.695328,22.820374,-148.111938,,,
729608393.310277,-0.209779,0.69132,52.07099,0.005646,0.00441,1.003525,-0.019605,-0.035871,-0.018931,64.695328,22.820374,-148.111938,,,
729608393.313618,-0.209779,0.69132,52.07099,0.005646,0.00441,1.003525,-0.019605,-0.035871,-0.018931,64.695328,22.820374,-148.111938,,,
729608393.316954,-0.213945,0.681515,52.065455,0.000977,0.001633,1.006531,-0.007696,-0.031629,-0.021123,64.695328,22.820374,-148.111938,,,
729608393.320279,-0.215342,0.671879,52.059714,0.000977,0.001633,1.006531,-0.007696,-0.031629,-0.021123,64.695328,22.820374,-148.111938,,,
729608393.323606,-0.215342,0.671879,52.059714,0.000977,0.001633,1.006531,-0.007696,-0.031629,-0.021123,64.695328,22.820374,-148.111938,,,
729608393.326949,-0.213988,0.66203,52.053349,0.000565,-0.002716,1.015518,0.014349,-0.025567,-0.022226,64.695328,22.820374,-148.111938,,,
729608393.330284,-0.209516,0.654678,52.046631,0.000565,-0.002716,1.015518,0.014349,-0.025567,-0.022226,64.695328,22.820374,-148.111938,,,
729608393.333627,-0.209516,0.654678,52.046631,0.000565,-0.002716,1.015518,0.014349,-0.025567,-0.022226,64.695328,22.820374,-148.111938,,,
729608393.337044,-0.202949,0.647071,52.039848,0.004303,-0.002151,1.010284,0.021287,-0.009151,-0.024728,64.695328,22.820374,-148.111938,,,
729608393.340273,-0.195876,0.644413,52.033142,0.004303,-0.002151,1.010284,0.021287,-0.009151,-0.024728,64.695328,22.820374,-148.111938,,,
729608393.343631,-0.195876,0.644413,52.033142,0.004303,-0.002151,1.010284,0.021287,-0.009151,-0.024728,64.695328,22.820374,-148.111938,,,
729608393.346961,-0.187435,0.641908,52.026565,0.00116,-0.000198,1.006714,0.029604,0.01242,-0.024549,64.695328,22.820374,-148.111938,,,
729608393.350281,-0.179275,0.644839,52.020114,0.00116,-0.000198,1.006714,0.029604,0.01242,-0.024549,64.660873,22.733749,-147.971436,,,
729608393.353624,-0.179275,0.644839,52.020114,0.00116,-0.000198,1.006714,0.029604,0.01242,-0.024549,64.660873,22.733749,-147.971436,,,
729608393.356973,-0.170107,0.646191,52.013537,0.000977,0.000473,1.004242,0.031968,0.023503,-0.025754,64.660873,22.733749,-147.971436,,,
729608393.360276,-0.160062,0.652122,52.005994,0.000977,0.000473,1.004242,0.031968,0.023503,-0.025754,64.660873,22.733749,-147.971436,,,
729608393.363658,-0.160062,0.652122,52.005994,0.000977,0.000473,1.004242,0.031968,0.023503,-0.025754,64.660873,22.733749,-147.971436,,,
729608393.36696,-0.148847,0.654455,51.997523,0.002258,0.003281,0.998367,0.039257,0.027675,-0.032152,64.660873,22.733749,-147.971436,,,
729608393.370281,-0.138324,0.661487,51.988632,0.002258,0.003281,0.998367,0.039257,0.027675,-0.032152,64.660873,22.733749,-147.971436,,,
729608393.373625,-0.138324,0.661487,51.988632,0.002258,0.003281,0.998367,0.039257,0.027675,-0.032152,64.660873,22.733749,-147.971436,,,
729608393.377018,-0.126199,0.665087,51.979046,-0.002258,0.007767,0.99472,0.036482,0.031124,-0.036014,64.660873,22.733749,-147.971436,,,
729608393.380274,-0.116913,0.673331,51.969356,-0.002258,0.007767,0.99472,0.036482,0.031124,-0.036014,64.660873,22.733749,-147.971436,,,
729608393.383626,-0.116913,0.673331,51.969356,-0.002258,0.007767,0.99472,0.036482,0.031124,-0.036014,64.660873,22.733749,-147.971436,,,
729608393.386962,-0.107359,0.67565,51.960515,-0.010117,0.007034,0.988464,0.027655,0.021987,-0.02778,64.660873,22.733749,-147.971436,,,
729608393.390277,-0.100034,0.679727,51.952836,-0.010117,0.007034,0.988464,0.027655,0.021987,-0.02778,64.72963,22.594772,-148.3694,,,
729608393.393614,-0.100034,0.679727,51.952836,-0.010117,0.007034,0.988464,0.027655,0.021987,-0.02778,64.72963,22.594772,-148.3694,,,
729608393.396963,-0.091826,0.676403,51.946147,-0.019226,0.003922,0.979889,0.025783,-0.003864,-0.023822,64.72963,22.594772,-148.3694,,,
729608393.400279,-0.084595,0.673871,51.939565,-0.019226,0.003922,0.979889,0.025783,-0.003864,-0.023822,64.72963,22.594772,-148.3694,,,
729608393.403674,-0.084595,0.673871,51.939565,-0.019226,0.003922,0.979889,0.025783,-0.003864,-0.023822,64.72963,22.594772,-148.3694,,,
729608393.406956,-0.07746,0.665246,51.932127,-0.019989,0.004242,0.97879,0.025709,-0.025921,-0.026546,64.72963,22.594772,-148.3694,,,
729608393.410278,-0.071182,0.656718,51.923978,-0.019989,0.004242,0.97879,0.025709,-0.025921,-0.026546,64.72963,22.594772,-148.3694,,,
729608393.413626,-0.071182,0.656718,51.923978,-0.019989,0.004242,0.97879,0.025709,-0.025921,-0.026546,64.72963,22.594772,-148.3694,,,
729608393.417022,-0.065828,0.642786,51.916032,-0.018814,0.005234,0.975632,0.021219,-0.03564,-0.026222,64.72963,22.594772,-148.3694,,,
729608393.420274,-0.060132,0.631375,51.909072,-0.018814,0.005234,0.975632,0.021219,-0.03564,-0.026222,64.72963,22.594772,-148.3694,,,
729608393.42362,-0.060132,0.631375,51.909072,-0.018814,0.005234,0.975632,0.021219,-0.03564,-0.026222,64.72963,22.594772,-148.3694,,,
729608393.426991,-0.054475,0.615767,51.903509,-0.020599,0.00676,0.980469,0.017807,-0.036004,-0.018544,64.72963,22.594772,-148.3694,,,
729608393.43029,-0.049656,0.604776,51.898681,-0.020599,0.00676,0.980469,0.017807,-0.036004,-0.018544,64.602768,22.378265,-148.200912,,,
729608393.433608,-0.049656,0.604776,51.898681,-0.020599,0.00676,0.980469,0.017807,-0.036004,-0.018544,64.602768,22.378265,-148.200912,,,
729608393.436966,-0.044989,0.592887,51.894539,-0.023041,0.003647,0.986923,0.019358,-0.022432,-0.012973,64.602768,22.378265,-148.200912,,,
729608393.44027,-0.040118,0.586697,51.891882,-0.023041,0.003647,0.986923,0.019358,-0.022432,-0.012973,64.602768,22.378265,-148.200912,,,
729608393.443695,-0.040118,0.586697,51.891882,-0.023041,0.003647,0.986923,0.019358,-0.022432,-0.012973,64.602768,22.378265,-148.200912,,,
729608393.446955,-0.034587,0.579841,51.890091,-0.022583,0.000595,1.000351,0.020069,-0.002966,-0.005256,64.602768,22.378265,-148.200912,,,
729608393.450278,-0.028874,0.578494,51.888865,-0.022583,0.000595,1.000351,0.020069,-0.002966,-0.005256,64.602768,22.378265,-148.200912,,,
729608393.453632,-0.028874,0.578494,51.888865,-0.022583,0.000595,1.000351,0.020069,-0.002966,-0.005256,64.602768,22.378265,-148.200912,,,
729608393.457006,-0.019442,0.578207,51.888516,-0.016922,0.003052,0.999863,0.030312,0.023344,0.000358,64.602768,22.378265,-148.200912,,,
729608393.46027,-0.010675,0.585007,51.889121,-0.016922,0.003052,0.999863,0.030312,0.023344,0.000358,64.602768,22.378265,-148.200912,,,
729608393.463623,-0.010675,0.585007,51.889121,-0.016922,0.003052,0.999863,0.030312,0.023344,0.000358,64.602768,22.378265,-148.200912,,,
729608393.46697,2.2e-05,0.594557,51.891205,-0.019821,0.003021,1.00415,0.032963,0.043995,0.009767,64.602768,22.378265,-148.200912,,,
729608393.470321,0.009142,0.606535,51.89501,-0.019821,0.003021,1.00415,0.032963,0.043995,0.009767,64.602768,22.378265,-148.200912,,,
729608393.473613,0.009142,0.606535,51.89501,-0.019821,0.003021,1.00415,0.032963,0.043995,0.009767,64.860168,22.413681,-148.271683,,,
729608393.476953,0.017955,0.620063,51.899776,-0.019135,0.002975,0.996368,0.023318,0.042438,0.016947,64.860168,22.413681,-148.271683,,,
729608393.480271,0.023478,0.631098,51.904865,-0.019135,0.002975,0.996368,0.023318,0.042438,0.016947,64.860168,22.413681,-148.271683,,,
729608393.483693,0.023478,0.631098,51.904865,-0.019135,0.002975,0.996368,0.023318,0.042438,0.016947,64.860168,22.413681,-148.271683,,,
729608393.486961,0.02802,0.642669,51.910462,-0.014069,0.009613,0.985901,0.013322,0.027784,0.019846,64.860168,22.413681,-148.271683,,,
729608393.490276,0.030568,0.64771,51.915712,-0.014069,0.009613,0.985901,0.013322,0.027784,0.019846,64.860168,22.413681,-148.271683,,,
729608393.493629,0.030568,0.64771,51.915712,-0.014069,0.009613,0.985901,0.013322,0.027784,0.019846,64.860168,22.413681,-148.271683,,,
729608393.497013,0.033285,0.650341,51.919601,-0.011185,0.015076,0.979935,0.005222,-0.007163,0.009086,64.860168,22.413681,-148.271683,,,
729608393.500264,0.03416,0.646575,51.922312,-0.011185,0.015076,0.979935,0.005222,-0.007163,0.009086,64.860168,22.413681,-148.271683,,,
729608393.503622,0.03416,0.646575,51.922312,-0.011185,0.015076,0.979935,0.005222,-0.007163,0.009086,64.860168,22.413681,-148.271683,,,
729608393.506941,0.034547,0.641748,51.924201,-0.01123,0.013947,0.98027,-0.006447,-0.027433,0.004629,64.860168,22.413681,-148.271683,,,
729608393.510271,0.031748,0.63254,51.925709,-0.01123,0.013947,0.98027,-0.006447,-0.027433,0.004629,64.860168,22.413681,-148.271683,,,
729608393.513634,0.031748,0.63254,51.925709,-0.01123,0.013947,0.98027,-0.006447,-0.027433,0.004629,64.538361,22.46019,-148.012314,,,
729608393.516947,0.028668,0.625493,51.926952,-0.011002,0.011353,0.985428,-0.01647,-0.03022,0.001695,64.538361,22.46019,-148.012314,,,
729608393.520278,0.023719,0.615689,51.928406,-0.011002,0.011353,0.985428,-0.01647,-0.03022,0.001695,64.538361,22.46019,-148.012314,,,
729608393.52367,0.023719,0.615689,51.928406,-0.011002,0.011353,0.985428,-0.01647,-0.03022,0.001695,64.538361,22.46019,-148.012314,,,
729608393.526956,0.018403,0.608591,51.930848,-0.009613,0.007111,0.993927,-0.016985,-0.029302,0.009645,64.538361,22.46019,-148.012314,,,
729608393.530276,0.013995,0.599182,51.934239,-0.009613,0.007111,0.993927,-0.016985,-0.029302,0.009645,64.538361,22.46019,-148.012314,,,
729608393.533621,0.013995,0.599182,51.934239,-0.009613,0.007111,0.993927,-0.016985,-0.029302,0.009645,64.538361,22.46019,-148.012314,,,
729608393.537087,0.011701,0.592729,51.93881,-0.012268,0.003326,0.999084,-0.004451,-0.021107,0.013779,64.538361,22.46019,-148.012314,,,
729608393.540266,0.010585,0.58623,51.944205,-0.012268,0.003326,0.999084,-0.004451,-0.021107,0.013779,64.538361,22.46019,-148.012314,,,
729608393.543626,0.010585,0.58623,51.944205,-0.012268,0.003326,0.999084,-0.004451,-0.021107,0.013779,64.538361,22.46019,-148.012314,,,
729608393.547001,0.012314,0.583585,51.949988,-0.010605,0.001572,1.009003,0.012,-0.005045,0.021923,64.538361,22.46019,-148.012314,,,
729608393.550283,0.015874,0.581696,51.957029,-0.010605,0.001572,1.009003,0.012,-0.005045,0.021923,64.538361,22.46019,-148.012314,,,
729608393.553615,0.015874,0.581696,51.957029,-0.010605,0.001572,1.009003,0.012,-0.005045,0.021923,64.646408,22.348358,-148.112732,,,
729608393.556946,0.022516,0.585878,51.96504,-0.008148,0.000244,1.015167,0.02677,0.01755,0.029442,64.646408,22.348358,-148.112732,,,
729608393.560282,0.030628,0.591148,51.973933,-0.008148,0.000244,1.015167,0.02677,0.01755,0.029442,64.646408,22.348358,-148.112732,,,
729608393.563684,0.030628,0.591148,51.973933,-0.008148,0.000244,1.015167,0.02677,0.01755,0.029442,64.646408,22.348358,-148.112732,,,
729608393.566945,0.042436,0.601701,51.983979,-0.007721,0.000626,1.020309,0.040385,0.045944,0.037538,64.646408,22.348358,-148.112732,,,
729608393.570274,0.054402,0.614692,51.995194,-0.007721,0.000626,1.020309,0.040385,0.045944,0.037538,64.646408,22.348358,-148.112732,,,
729608393.573683,0.054402,0.614692,51.995194,-0.007721,0.000626,1.020309,0.040385,0.045944,0.037538,64.646408,22.348358,-148.112732,,,
729608393.577047,0.070468,0.632873,52.007424,-0.008942,-0.002594,1.020966,0.046293,0.075693,0.045589,64.646408,22.348358,-148.112732,,,
729608393.58031,0.084036,0.655083,52.020999,-0.008942,-0.002594,1.020966,0.046293,0.075693,0.045589,64.646408,22.348358,-148.112732,,,
729608393.583694,0.084036,0.655083,52.020999,-0.008942,-0.002594,1.020966,0.046293,0.075693,0.045589,64.646408,22.348358,-148.112732,,,
729608393.586973,0.101533,0.679988,52.035928,-0.011353,-0.002106,1.01915,0.051565,0.093624,0.054894,64.646408,22.348358,-148.112732,,,
729608393.590282,0.116207,0.705443,52.051524,-0.011353,-0.002106,1.01915,0.051565,0.093624,0.054894,64.646408,22.348358,-148.112732,,,
729608393.593618,0.116207,0.705443,52.051524,-0.011353,-0.002106,1.01915,0.051565,0.093624,0.054894,64.629257,22.452103,-147.879761,,,
729608393.596951,0.134205,0.727487,52.067552,-0.011276,0.001389,1.011734,0.056733,0.071199,0.052903,64.629257,22.452103,-147.879761,,,
729608393.600283,0.15086,0.746142,52.082878,-0.011276,0.001389,1.011734,0.056733,0.071199,0.052903,64.629257,22.452103,-147.879761,,,
729608393.603719,0.15086,0.746142,52.082878,-0.011276,0.001389,1.011734,0.056733,0.071199,0.052903,64.629257,22.452103,-147.879761,,,
729608393.606953,0.170079,0.76099,52.096662,-0.007294,0.006454,1.004196,0.062705,0.049163,0.044336,64.629257,22.452103,-147.879761,,,
729608393.610277,0.187901,0.773447,52.108862,-0.007294,0.006454,1.004196,0.062705,0.049163,0.044336,64.629257,22.452103,-147.879761,,,
729608393.613626,0.187901,0.773447,52.108862,-0.007294,0.006454,1.004196,0.062705,0.049163,0.044336,64.629257,22.452103,-147.879761,,,
729608393.617015,0.206147,0.781915,52.119524,0.00061,0.013885,0.998093,0.064746,0.027726,0.032182,64.629257,22.452103,-147.879761,,,
729608393.62027,0.224592,0.788484,52.128676,0.00061,0.013885,0.998093,0.064746,0.027726,0.032182,64.629257,22.452103,-147.879761,,,
729608393.623624,0.224592,0.788484,52.128676,0.00061,0.013885,0.998093,0.064746,0.027726,0.032182,64.629257,22.452103,-147.879761,,,
729608393.626957,0.242766,0.793223,52.13686,0.00499,0.014404,0.995499,0.067443,0.021408,0.026724,64.629257,22.452103,-147.879761,,,
729608393.630273,0.262306,0.79879,52.145128,0.00499,0.014404,0.995499,0.067443,0.021408,0.026724,64.629257,22.452103,-147.879761,,,
729608393.633625,0.262306,0.79879,52.145128,0.00499,0.014404,0.995499,0.067443,0.021408,0.026724,64.629257,22.452103,-147.879761,,,
729608393.636959,0.282401,0.804493,52.153095,0.010635,0.011368,0.997818,0.07868,0.032792,0.025007,64.772644,22.114471,-148.36293,,,
729608393.640271,0.305898,0.813542,52.160743,0.010635,0.011368,0.997818,0.07868,0.032792,0.025007,64.772644,22.114471,-148.36293,,,
729608393.643701,0.305898,0.813542,52.160743,0.010635,0.011368,0.997818,0.07868,0.032792,0.025007,64.772644,22.114471,-148.36293,,,
729608393.646963,0.331094,0.824133,52.167771,0.013046,0.009415,1.007492,0.099181,0.056372,0.023544,64.772644,22.114471,-148.36293,,,
729608393.650276,0.359972,0.840206,52.173829,0.013046,0.009415,1.007492,0.099181,0.056372,0.023544,64.772644,22.114471,-148.36293,,,
729608393.653627,0.359972,0.840206,52.173829,0.013046,0.009415,1.007492,0.099181,0.056372,0.023544,64.772644,22.114471,-148.36293,,,
729608393.657014,0.389266,0.858008,52.180179,0.01181,0.01239,1.012955,0.112013,0.085785,0.021728,64.772644,22.114471,-148.36293,,,
729608393.660268,0.421074,0.881929,52.186819,0.01181,0.01239,1.012955,0.112013,0.085785,0.021728,64.772644,22.114471,-148.36293,,,
729608393.663631,0.421074,0.881929,52.186819,0.01181,0.01239,1.012955,0.112013,0.085785,0.021728,64.772644,22.114471,-148.36293,,,
729608393.666971,0.449655,0.909531,52.193776,0.010544,0.016937,1.004425,0.103526,0.114046,0.023739,64.772644,22.114471,-148.36293,,,
729608393.670279,0.478728,0.942493,52.200141,0.010544,0.016937,1.004425,0.103526,0.114046,0.023739,64.772644,22.114471,-148.36293,,,
729608393.673635,0.478728,0.942493,52.200141,0.010544,0.016937,1.004425,0.103526,0.114046,0.023739,64.772644,22.114471,-148.36293,,,
729608393.676971,0.503591,0.976522,52.204548,0.011612,0.025833,0.995743,0.092243,0.127207,0.008413,65.171204,21.861145,-148.509506,,,
729608393.680271,0.529292,1.01208,52.206465,0.011612,0.025833,0.995743,0.092243,0.127207,0.008413,65.171204,21.861145,-148.509506,,,
729608393.683618,0.529292,1.01208,52.206465,0.011612,0.025833,0.995743,0.092243,0.127207,0.008413,65.171204,21.861145,-148.509506,,,
729608393.686953,0.552508,1.044052,52.206253,0.006592,0.032898,0.989517,0.084973,0.114843,-0.003069,65.171204,21.861145,-148.509506,,,
729608393.690323,0.575927,1.075365,52.204418,0.006592,0.032898,0.989517,0.084973,0.114843,-0.003069,65.171204,21.861145,-148.509506,,,
729608393.693682,0.575927,1.075365,52.204418,0.006592,0.032898,0.989517,0.084973,0.114843,-0.003069,65.171204,21.861145,-148.509506,,,
729608393.696968,0.598677,1.099062,52.200893,-0.006165,0.027756,0.983521,0.077214,0.089671,-0.015677,65.171204,21.861145,-148.509506,,,
729608393.700278,0.620177,1.122963,52.196031,-0.006165,0.027756,0.983521,0.077214,0.089671,-0.015677,65.171204,21.861145,-148.509506,,,
729608393.703632,0.620177,1.122963,52.196031,-0.006165,0.027756,0.983521,0.077214,0.089671,-0.015677,65.171204,21.861145,-148.509506,,,
729608393.707011,0.641411,1.136729,52.190382,-0.018387,0.02066,0.979599,0.067743,0.064609,-0.020556,65.171204,21.861145,-148.509506,,,
729608393.710268,0.660284,1.152341,52.184667,-0.018387,0.02066,0.979599,0.067743,0.064609,-0.020556,65.171204,21.861145,-148.509506,,,
729608393.713618,0.660284,1.152341,52.184667,-0.018387,0.02066,0.979599,0.067743,0.064609,-0.020556,65.171204,21.861145,-148.509506,,,
729608393.716946,0.679524,1.156851,52.179589,-0.031265,0.017502,0.980743,0.067476,0.035465,-0.016723,65.393585,21.40918,-148.545975,,,
729608393.720298,0.698707,1.165981,52.175551,-0.031265,0.017502,0.980743,0.067476,0.035465,-0.016723,65.393585,21.40918,-148.545975,,,
729608393.723625,0.698707,1.165981,52.175551,-0.031265,0.017502,0.980743,0.067476,0.035465,-0.016723,65.393585,21.40918,-148.545975,,,
729608393.726973,0.717212,1.164297,52.172987,-0.043945,0.011703,0.986099,0.070429,0.021377,-0.008742,65.393585,21.40918,-148.545975,,,
729608393.730286,0.73656,1.169357,52.171174,-0.043945,0.011703,0.986099,0.070429,0.021377,-0.008742,65.393585,21.40918,-148.545975,,,
729608393.733699,0.73656,1.169357,52.171174,-0.043945,0.011703,0.986099,0.070429,0.021377,-0.008742,65.393585,21.40918,-148.545975,,,
729608393.736945,0.755566,1.165155,52.171294,-0.046799,0.006607,0.990494,0.065212,0.015998,0.007174,65.393585,21.40918,-148.545975,,,
729608393.740292,0.773929,1.169085,52.17391,-0.046799,0.006607,0.990494,0.065212,0.015998,0.007174,65.393585,21.40918,-148.545975,,,
729608393.743622,0.773929,1.169085,52.17391,-0.046799,0.006607,0.990494,0.065212,0.015998,0.007174,65.393585,21.40918,-148.545975,,,
729608393.747009,0.791743,1.166643,52.178679,-0.052658,0.001205,0.991272,0.059614,0.026918,0.023261,65.393585,21.40918,-148.545975,,,
729608393.750027,0.791743,1.166643,52.178679,-0.052658,0.001205,0.991272,0.059614,0.026918,0.023261,65.393585,21.40918,-148.545975,,,
729608393.753654,0.808871,1.173473,52.185071,-0.052658,0.001205,0.991272,0.059614,0.026918,0.023261,65.393585,21.40918,-148.545975,,,
729608393.756946,0.826615,1.174238,52.192394,-0.050659,0.004074,0.992249,0.057731,0.026576,0.028199,65.302322,21.835876,-148.67778,,,
729608393.760333,0.842664,1.180338,52.200116,-0.050659,0.004074,0.992249,0.057731,0.026576,0.028199,65.302322,21.835876,-148.67778,,,
729608393.763629,0.842664,1.180338,52.200116,-0.050659,0.004074,0.992249,0.057731,0.026576,0.028199,65.302322,21.835876,-148.67778,,,
729608393.76696,0.861542,1.181129,52.207929,-0.046967,0.006378,0.993652,0.054017,0.024794,0.024175,65.302322,21.835876,-148.67778,,,
729608393.770315,0.877867,1.186777,52.215248,-0.046967,0.006378,0.993652,0.054017,0.024794,0.024175,65.302322,21.835876,-148.67778,,,
729608393.773675,0.877867,1.186777,52.215248,-0.046967,0.006378,0.993652,0.054017,0.024794,0.024175,65.302322,21.835876,-148.67778,,,
729608393.776937,0.895703,1.189185,52.222338,-0.044891,0.007767,0.995865,0.052046,0.023104,0.024913,65.302322,21.835876,-148.67778,,,
729608393.78036,0.909748,1.194525,52.229388,-0.044891,0.007767,0.995865,0.052046,0.023104,0.024913,65.302322,21.835876,-148.67778,,,
729608393.783616,0.909748,1.194525,52.229388,-0.044891,0.007767,0.995865,0.052046,0.023104,0.024913,65.302322,21.835876,-148.67778,,,
729608393.787027,0.92274,1.19832,52.237918,-0.047287,0.0056,0.98996,0.036136,0.020816,0.034533,65.302322,21.835876,-148.67778,,,
729608393.790279,0.93293,1.202838,52.248679,-0.047287,0.0056,0.98996,0.036136,0.020816,0.034533,65.302322,21.835876,-148.67778,,,
729608393.793616,0.93293,1.202838,52.248679,-0.047287,0.0056,0.98996,0.036136,0.020816,0.034533,65.302322,21.835876,-148.67778,,,
729608393.796965,0.942494,1.206878,52.260841,-0.050385,0.001709,0.991364,0.0291,0.011824,0.04324,65.302322,21.835876,-148.67778,,,
729608393.800354,0.950563,1.208572,52.273884,-0.050385,0.001709,0.991364,0.0291,0.011824,0.04324,65.482971,21.378113,-148.72644,,,
729608393.803611,0.950563,1.208572,52.273884,-0.050385,0.001709,0.991364,0.0291,0.011824,0.04324,65.482971,21.378113,-148.72644,,,
729608393.806966,0.957853,1.211793,52.287309,-0.047302,0.001556,0.993164,0.023703,-0.002126,0.043558,65.482971,21.378113,-148.72644,,,
729608393.810299,0.965078,1.209488,52.300135,-0.047302,0.001556,0.993164,0.023703,-0.002126,0.043558,65.482971,21.378113,-148.72644,,,
729608393.813689,0.965078,1.209488,52.300135,-0.047302,0.001556,0.993164,0.023703,-0.002126,0.043558,65.482971,21.378113,-148.72644,,,
729608393.816933,0.970685,1.210957,52.312685,-0.035339,0.003372,0.993393,0.023546,-0.006771,0.046121,65.482971,21.378113,-148.72644,,,
729608393.820334,0.977367,1.20766,52.326226,-0.035339,0.003372,0.993393,0.023546,-0.006771,0.046121,65.482971,21.378113,-148.72644,,,
729608393.823623,0.977367,1.20766,52.326226,-0.035339,0.003372,0.993393,0.023546,-0.006771,0.046121,65.482971,21.378113,-148.72644,,,
729608393.826951,0.980453,1.212969,52.340249,-0.028519,0.004608,0.997391,0.019559,0.002613,0.050159,65.482971,21.378113,-148.72644,,,
729608393.830343,0.986059,1.212724,52.355483,-0.028519,0.004608,0.997391,0.019559,0.002613,0.050159,65.482971,21.378113,-148.72644,,,
729608393.833612,0.986059,1.212724,52.355483,-0.028519,0.004608,0.997391,0.019559,0.002613,0.050159,65.482971,21.378113,-148.72644,,,
729608393.83694,0.987818,1.222166,52.371867,-0.021317,0.002182,0.99649,0.018498,0.013365,0.052849,65.482971,21.378113,-148.72644,,,
729608393.84027,0.987818,1.225598,52.388058,-0.021317,0.002182,0.99649,0.018498,0.013365,0.052849,65.485794,21.407394,-148.630005,,,
729608393.843628,0.992881,1.225598,52.388058,-0.021317,0.002182,0.99649,0.018498,0.013365,0.052849,65.485794,21.407394,-148.630005,,,
729608393.846956,0.994865,1.238595,52.402362,-0.011703,0.006439,0.997162,0.015259,0.028733,0.043292,65.485794,21.407394,-148.630005,,,
729608393.850394,0.998833,1.245414,52.414298,-0.011703,0.006439,0.997162,0.015259,0.028733,0.043292,65.485794,21.407394,-148.630005,,,
729608393.853607,0.998833,1.245414,52.414298,-0.011703,0.006439,0.997162,0.015259,0.028733,0.043292,65.485794,21.407394,-148.630005,,,
729608393.856953,0.998847,1.259202,52.423625,-0.00148,0.017639,0.994537,0.005061,0.029852,0.027239,65.485794,21.407394,-148.630005,,,
729608393.860268,0.998847,1.259202,52.423625,-0.00148,0.017639,0.994537,0.005061,0.029852,0.027239,65.485794,21.407394,-148.630005,,,
729608393.863681,0.99952,1.267285,52.431345,-0.00148,0.017639,0.994537,0.005061,0.029852,0.027239,65.485794,21.407394,-148.630005,,,
729608393.866942,0.9952,1.282393,52.437812,-0.003754,0.021301,0.989441,-0.012334,0.03791,0.019293,65.485794,21.407394,-148.630005,,,
729608393.870302,0.9952,1.282393,52.437812,-0.003754,0.021301,0.989441,-0.012334,0.03791,0.019293,65.485794,21.407394,-148.630005,,,
729608393.873632,0.990053,1.292574,52.443737,-0.003754,0.021301,0.989441,-0.012334,0.03791,0.019293,65.485794,21.407394,-148.630005,,,
729608393.876938,0.978959,1.309436,52.449588,-0.008469,0.016525,0.988403,-0.03438,0.036542,0.020983,65.485794,21.407394,-148.630005,,,
729608393.880283,0.978959,1.309436,52.449588,-0.008469,0.016525,0.988403,-0.03438,0.036542,0.020983,65.407928,21.635162,-148.671768,,,
729608393.883625,0.969701,1.31761,52.455912,-0.008469,0.016525,0.988403,-0.03438,0.036542,0.020983,65.407928,21.635162,-148.671768,,,
729608393.886938,0.955382,1.330602,52.462699,-0.014847,0.010468,0.989395,-0.037041,0.014856,0.025016,65.407928,21.635162,-148.671768,,,
729608393.890326,0.955382,1.330602,52.462699,-0.014847,0.010468,0.989395,-0.037041,0.014856,0.025016,65.407928,21.635162,-148.671768,,,
729608393.893623,0.944123,1.333017,52.46981,-0.014847,0.010468,0.989395,-0.037041,0.014856,0.025016,65.407928,21.635162,-148.671768,,,
729608393.896939,0.929103,1.336136,52.475995,-0.018875,0.00795,0.99057,-0.040823,-0.010229,0.016618,65.407928,21.635162,-148.671768,,,
729608393.900288,0.929103,1.336136,52.475995,-0.018875,0.00795,0.99057,-0.040823,-0.010229,0.016618,65.407928,21.635162,-148.671768,,,
729608393.903663,0.91699,1.331559,52.480673,-0.018875,0.00795,0.99057,-0.040823,-0.010229,0.016618,65.407928,21.635162,-148.671768,,,
729608393.906934,0.901602,1.326333,52.48342,-0.014328,0.012177,0.993622,-0.04277,-0.029697,0.005054,65.407928,21.635162,-148.671768,,,
729608393.910288,0.901602,1.326333,52.48342,-0.014328,0.012177,0.993622,-0.04277,-0.029697,0.005054,65.407928,21.635162,-148.671768,,,
729608393.913619,0.888999,1.31712,52.48551,-0.014328,0.012177,0.993622,-0.04277,-0.029697,0.005054,65.407928,21.635162,-148.671768,,,
729608393.916941,0.872889,1.307361,52.487476,-0.013809,0.014755,0.997192,-0.046301,-0.031851,0.00479,65.407928,21.635162,-148.671768,,,
729608393.920266,0.872889,1.307361,52.487476,-0.013809,0.014755,0.997192,-0.046301,-0.031851,0.00479,65.365616,21.775879,-148.494812,,,
729608393.923622,0.859244,1.297653,52.489496,-0.013809,0.014755,0.997192,-0.046301,-0.031851,0.00479,65.365616,21.775879,-148.494812,,,
729608393.926937,0.842324,1.28732,52.49165,-0.013779,0.010696,0.999176,-0.047785,-0.027029,0.004526,65.365616,21.775879,-148.494812,,,
729608393.930329,0.842324,1.28732,52.49165,-0.013779,0.010696,0.999176,-0.047785,-0.027029,0.004526,65.365616,21.775879,-148.494812,,,
729608393.933604,0.828283,1.279746,52.493742,-0.013779,0.010696,0.999176,-0.047785,-0.027029,0.004526,65.365616,21.775879,-148.494812,,,
729608393.936948,0.815157,1.269438,52.496326,-0.01683,0.006516,1.006287,-0.042275,-0.009912,0.007372,65.365616,21.775879,-148.494812,,,
729608393.940281,0.815157,1.269438,52.496326,-0.01683,0.006516,1.006287,-0.042275,-0.009912,0.007372,65.365616,21.775879,-148.494812,,,
729608393.94367,0.804559,1.266411,52.499886,-0.01683,0.006516,1.006287,-0.042275,-0.009912,0.007372,65.365616,21.775879,-148.494812,,,
729608393.946936,0.79967,1.261077,52.505018,-0.022034,0.000671,1.020889,-0.010604,0.011954,0.019633,65.365616,21.775879,-148.494812,,,
729608393.950271,0.79967,1.261077,52.505018,-0.022034,0.000671,1.020889,-0.010604,0.011954,0.019633,65.365616,21.775879,-148.494812,,,
729608393.953622,0.797722,1.264471,52.51229,-0.022034,0.000671,1.020889,-0.010604,0.011954,0.019633,65.365616,21.775879,-148.494812,,,
729608393.956941,0.801869,1.267231,52.522182,-0.029648,-0.00647,1.03746,0.019114,0.039841,0.037126,65.365616,21.775879,-148.494812,,,
729608393.960293,0.801869,1.267231,52.522182,-0.029648,-0.00647,1.03746,0.019114,0.039841,0.037126,65.365616,21.775879,-148.494812,,,
729608393.963635,0.8086,1.278493,52.53348,-0.029648,-0.00647,1.03746,0.019114,0.039841,0.037126,65.471786,21.906296,-148.712265,,,
729608393.966934,0.817218,1.292316,52.54535,-0.030197,-0.007355,1.037735,0.031724,0.075704,0.043865,65.471786,21.906296,-148.712265,,,
729608393.970333,0.817218,1.292316,52.54535,-0.030197,-0.007355,1.037735,0.031724,0.075704,0.043865,65.471786,21.906296,-148.712265,,,
729608393.973615,0.826886,1.313479,52.55759,-0.030197,-0.007355,1.037735,0.031724,0.075704,0.043865,65.471786,21.906296,-148.712265,,,
729608393.976951,0.835202,1.336738,52.570176,-0.02681,0.002563,1.028336,0.031449,0.096339,0.041515,65.471786,21.906296,-148.712265,,,
729608393.980281,0.835202,1.336738,52.570176,-0.02681,0.002563,1.028336,0.031449,0.096339,0.041515,65.471786,21.906296,-148.712265,,,
729608393.983694,0.844822,1.363449,52.582586,-0.02681,0.002563,1.028336,0.031449,0.096339,0.041515,65.471786,21.906296,-148.712265,,,
729608393.986953,0.85378,1.3886,52.594406,-0.021759,0.013443,1.015793,0.035343,0.094369,0.038738,65.471786,21.906296,-148.712265,,,
729608393.990287,0.85378,1.3886,52.594406,-0.021759,0.013443,1.015793,0.035343,0.094369,0.038738,65.471786,21.906296,-148.712265,,,
729608393.993631,0.864474,1.413696,52.605751,-0.021759,0.013443,1.015793,0.035343,0.094369,0.038738,65.471786,21.906296,-148.712265,,,
729608393.996946,0.874733,1.432597,52.616263,-0.019211,0.019821,1.000122,0.034497,0.065859,0.032332,65.471786,21.906296,-148.712265,,,
729608394.000288,0.874733,1.432597,52.616263,-0.019211,0.019821,1.000122,0.034497,0.065859,0.032332,65.471786,21.906296,-148.712265,,,
729608394.003637,0.884287,1.449587,52.62499,-0.019211,0.019821,1.000122,0.034497,0.065859,0.032332,65.798889,21.573196,-148.981094,,,
729608394.006947,0.891785,1.458387,52.631706,-0.017029,0.027512,0.979111,0.023583,0.030555,0.015319,65.798889,21.573196,-148.981094,,,
729608394.010332,0.891785,1.458387,52.631706,-0.017029,0.027512,0.979111,0.023583,0.030555,0.015319,65.798889,21.573196,-148.981094,,,
729608394.013618,0.897445,1.465079,52.635671,-0.017029,0.027512,0.979111,0.023583,0.030555,0.015319,65.798889,21.573196,-148.981094,,,
729608394.016949,0.898865,1.464447,52.637608,-0.009781,0.040115,0.969162,0.006144,0.00057,0.002613,65.798889,21.573196,-148.981094,,,
729608394.020283,0.898865,1.464447,52.637608,-0.009781,0.040115,0.969162,0.006144,0.00057,0.002613,65.798889,21.573196,-148.981094,,,
729608394.02368,0.89992,1.462861,52.638312,-0.009781,0.040115,0.969162,0.006144,0.00057,0.002613,65.798889,21.573196,-148.981094,,,
729608394.026944,0.896407,1.457078,52.638213,-0.009476,0.043182,0.967865,-0.002284,-0.013625,-0.004516,65.798889,21.573196,-148.981094,,,
729608394.030286,0.896407,1.457078,52.638213,-0.009476,0.043182,0.967865,-0.002284,-0.013625,-0.004516,65.798889,21.573196,-148.981094,,,
729608394.033643,0.895335,1.452304,52.638061,-0.009476,0.043182,0.967865,-0.002284,-0.013625,-0.004516,65.798889,21.573196,-148.981094,,,
729608394.037055,0.890454,1.448613,52.63748,-0.012711,0.035736,0.979141,-0.001734,-0.009517,-0.008368,65.798889,21.573196,-148.981094,,,
729608394.040271,0.890454,1.448613,52.63748,-0.012711,0.035736,0.979141,-0.001734,-0.009517,-0.008368,65.798889,21.573196,-148.981094,,,
729608394.04361,0.890344,1.445855,52.635821,-0.012711,0.035736,0.979141,-0.001734,-0.009517,-0.008368,65.723404,21.768204,-148.602966,,,
729608394.046945,0.884916,1.445747,52.633339,-0.009109,0.028854,0.986511,-0.004061,0.006303,-0.011461,65.723404,21.768204,-148.602966,,,
729608394.050345,0.884916,1.445747,52.633339,-0.009109,0.028854,0.986511,-0.004061,0.006303,-0.011461,65.723404,21.768204,-148.602966,,,
729608394.053628,0.882944,1.447277,52.629818,-0.009109,0.028854,0.986511,-0.004061,0.006303,-0.011461,65.723404,21.768204,-148.602966,,,
729608394.056938,0.875961,1.45315,52.625124,-0.012314,0.025986,0.988205,-0.012719,0.035595,-0.02145,65.723404,21.768204,-148.602966,,,
729608394.06029,0.875961,1.45315,52.625124,-0.012314,0.025986,0.988205,-0.012719,0.035595,-0.02145,65.723404,21.768204,-148.602966,,,
729608394.063664,0.871963,1.46251,52.619893,-0.012314,0.025986,0.988205,-0.012719,0.035595,-0.02145,65.723404,21.768204,-148.602966,,,
729608394.066933,0.866114,1.474537,52.614421,-0.022339,0.025436,0.997192,-0.019413,0.051707,-0.024266,65.723404,21.768204,-148.602966,,,
729608394.070283,0.866114,1.474537,52.614421,-0.022339,0.025436,0.997192,-0.019413,0.051707,-0.024266,65.723404,21.768204,-148.602966,,,
729608394.073629,0.861101,1.488587,52.609115,-0.022339,0.025436,0.997192,-0.019413,0.051707,-0.024266,65.723404,21.768204,-148.602966,,,
729608394.076975,0.856296,1.50159,52.603908,-0.035965,0.018829,0.994598,-0.015254,0.053756,-0.02075,65.723404,21.768204,-148.602966,,,
729608394.080298,0.856296,1.50159,52.603908,-0.035965,0.018829,0.994598,-0.015254,0.053756,-0.02075,65.723404,21.768204,-148.602966,,,
729608394.083608,0.851377,1.516448,52.598657,-0.035965,0.018829,0.994598,-0.015254,0.053756,-0.02075,65.723404,21.61412,-148.683243,,,
729608394.086944,0.849615,1.528924,52.593894,-0.047668,0.011353,0.995026,-0.012788,0.048651,-0.019642,65.801285,21.61412,-148.683243,,,
729608394.090376,0.849615,1.528924,52.593894,-0.047668,0.011353,0.995026,-0.012788,0.048651,-0.019642,65.801285,21.61412,-148.683243,,,
729608394.093607,0.845657,1.541927,52.589218,-0.047668,0.011353,0.995026,-0.012788,0.048651,-0.019642,65.801285,21.61412,-148.683243,,,
729608394.096949,0.846482,1.549127,52.585028,-0.054611,0.009689,0.991653,-0.010656,0.028387,-0.013001,65.801285,21.61412,-148.683243,,,
729608394.100294,0.846482,1.549127,52.585028,-0.054611,0.009689,0.991653,-0.010656,0.028387,-0.013001,65.801285,21.61412,-148.683243,,,
729608394.10368,0.843495,1.555713,52.581546,-0.054611,0.009689,0.991653,-0.010656,0.028387,-0.013001,65.801285,21.61412,-148.683243,,,
729608394.106943,0.847547,1.553915,52.578988,-0.058197,0.007462,0.989899,-0.006738,0.003483,-0.009672,65.801285,21.61412,-148.683243,,,
729608394.110291,0.847547,1.553915,52.578988,-0.058197,0.007462,0.989899,-0.006738,0.003483,-0.009672,65.801285,21.61412,-148.683243,,,
729608394.113632,0.845682,1.552545,52.577299,-0.058197,0.007462,0.989899,-0.006738,0.003483,-0.009672,65.801285,21.61412,-148.683243,,,
729608394.116947,0.850784,1.544085,52.576813,-0.058334,0.002472,0.989777,0.000225,-0.021385,0.000943,65.801285,21.61412,-148.683243,,,
729608394.120288,0.850784,1.544085,52.576813,-0.058334,0.002472,0.989777,0.000225,-0.021385,0.000943,65.801285,21.61412,-148.683243,,,
729608394.123627,0.850764,1.537276,52.578105,-0.058334,0.002472,0.989777,0.000225,-0.021385,0.000943,65.801285,21.61412,-148.683243,,,
729608394.126951,0.855971,1.524586,52.581488,-0.056122,0.001053,0.99617,0.006712,-0.029984,0.014763,65.925079,21.578125,-148.568451,,,
729608394.13034,0.855971,1.524586,52.581488,-0.056122,0.001053,0.99617,0.006712,-0.029984,0.014763,65.925079,21.578125,-148.568451,,,
729608394.133622,0.858159,1.514687,52.586489,-0.056122,0.001053,0.99617,0.006712,-0.029984,0.014763,65.925079,21.578125,-148.568451,,,
729608394.136948,0.863683,1.500932,52.592599,-0.046188,0.002869,0.997986,0.0088,-0.023332,0.020707,65.925079,21.578125,-148.568451,,,
729608394.140296,0.863683,1.500932,52.592599,-0.046188,0.002869,0.997986,0.0088,-0.023332,0.020707,65.925079,21.578125,-148.568451,,,
729608394.143675,0.866132,1.494536,52.599257,-0.046188,0.002869,0.997986,0.0088,-0.023332,0.020707,65.925079,21.578125,-148.568451,,,
729608394.146947,0.869929,1.490259,52.606458,-0.031113,0.010086,0.999161,0.002089,0.006343,0.024697,65.925079,21.578125,-148.568451,,,
729608394.150292,0.869929,1.490259,52.606458,-0.031113,0.010086,0.999161,0.002089,0.006343,0.024697,65.925079,21.578125,-148.568451,,,
729608394.15363,0.8704,1.492217,52.613743,-0.031113,0.010086,0.999161,0.002089,0.006343,0.024697,65.925079,21.578125,-148.568451,,,
729608394.156951,0.871297,1.499402,52.621288,-0.020401,0.017593,0.999054,-0.00818,0.033643,0.026167,65.925079,21.578125,-148.568451,,,
729608394.160284,0.871297,1.499402,52.621288,-0.020401,0.017593,0.999054,-0.00818,0.033643,0.026167,65.925079,21.578125,-148.568451,,,
729608394.163637,0.868564,1.509524,52.629176,-0.020401,0.017593,0.999054,-0.00818,0.033643,0.026167,65.925079,21.578125,-148.568451,,,
729608394.166945,0.863863,1.527064,52.636908,-0.0168,0.017227,0.995361,-0.016214,0.052124,0.025479,65.875198,21.700943,-148.893341,,,
729608394.17028,0.863863,1.527064,52.636908,-0.0168,0.017227,0.995361,-0.016214,0.052124,0.025479,65.875198,21.700943,-148.893341,,,
729608394.173639,0.858331,1.539852,52.643858,-0.0168,0.017227,0.995361,-0.016214,0.052124,0.025479,65.875198,21.700943,-148.893341,,,
729608394.176948,0.850742,1.556869,52.649333,-0.0168,0.019043,0.9879,-0.025208,0.033035,0.013652,65.875198,21.700943,-148.893341,,,
729608394.180345,0.850742,1.556869,52.649333,-0.0168,0.019043,0.9879,-0.025208,0.033035,0.013652,65.875198,21.700943,-148.893341,,,
729608394.183608,0.843654,1.564774,52.65393,-0.0168,0.019043,0.9879,-0.025208,0.033035,0.013652,65.875198,21.700943,-148.893341,,,
729608394.186951,0.833768,1.57761,52.657544,-0.018753,0.022629,0.982269,-0.029826,0.013327,0.008401,65.875198,21.700943,-148.893341,,,
729608394.190304,0.833768,1.57761,52.657544,-0.018753,0.022629,0.982269,-0.029826,0.013327,0.008401,65.875198,21.700943,-148.893341,,,
729608394.193661,0.824448,1.57936,52.66082,-0.018753,0.022629,0.982269,-0.029826,0.013327,0.008401,65.875198,21.700943,-148.893341,,,
729608394.196942,0.812948,1.585523,52.663872,-0.023209,0.018951,0.984344,-0.029702,-0.015685,0.007259,65.875198,21.700943,-148.893341,,,
729608394.200302,0.812948,1.585523,52.663872,-0.023209,0.018951,0.984344,-0.029702,-0.015685,0.007259,65.875198,21.700943,-148.893341,,,
729608394.203624,0.804322,1.579701,52.666767,-0.023209,0.018951,0.984344,-0.029702,-0.015685,0.007259,65.875198,21.700943,-148.893341,,,
729608394.206948,0.793017,1.579229,52.669125,-0.027344,0.01297,0.990509,-0.027146,-0.031062,0.005452,65.529602,21.785507,-148.455917,,,
729608394.210284,0.793017,1.579229,52.669125,-0.027344,0.01297,0.990509,-0.027146,-0.031062,0.005452,65.529602,21.785507,-148.455917,,,
729608394.213621,0.784946,1.569968,52.671742,-0.027344,0.01297,0.990509,-0.027146,-0.031062,0.005452,65.529602,21.785507,-148.455917,,,
729608394.216947,0.773866,1.567413,52.674341,-0.024719,0.011658,0.996185,-0.029038,-0.019612,0.00738,65.529602,21.785507,-148.455917,,,
729608394.220332,0.773866,1.567413,52.674341,-0.024719,0.011658,0.996185,-0.029038,-0.019612,0.00738,65.529602,21.785507,-148.455917,,,
729608394.223746,0.765144,1.561003,52.677004,-0.024719,0.011658,0.996185,-0.029038,-0.019612,0.00738,65.529602,21.785507,-148.455917,,,
729608394.226946,0.754042,1.560619,52.680065,-0.017822,0.012817,1.002808,-0.035346,0.002402,0.007914,65.529602,21.785507,-148.455917,,,
729608394.23037,0.754042,1.560619,52.680065,-0.017822,0.012817,1.002808,-0.035346,0.002402,0.007914,65.529602,21.785507,-148.455917,,,
729608394.233616,0.743969,1.560786,52.683331,-0.017822,0.012817,1.002808,-0.035346,0.002402,0.007914,65.529602,21.785507,-148.455917,,,
729608394.236951,0.73426,1.562657,52.686505,-0.015778,0.012985,1.004929,-0.034763,0.019829,0.006783,65.529602,21.785507,-148.455917,,,
729608394.240292,0.73426,1.562657,52.686505,-0.015778,0.012985,1.004929,-0.034763,0.019829,0.006783,65.529602,21.785507,-148.455917,,,
729608394.243717,0.72428,1.568232,52.689205,-0.015778,0.012985,1.004929,-0.034763,0.019829,0.006783,65.529602,21.785507,-148.455917,,,
729608394.246943,0.715771,1.573468,52.691594,-0.018021,0.011581,1.005707,-0.031397,0.03286,0.004266,65.529602,21.785507,-148.455917,,,
729608394.250289,0.715771,1.573468,52.691594,-0.018021,0.011581,1.005707,-0.031397,0.03286,0.004266,65.756653,21.688446,-148.535355,,,
729608394.253624,0.706727,1.582089,52.693323,-0.018021,0.011581,1.005707,-0.031397,0.03286,0.004266,65.756653,21.688446,-148.535355,,,
729608394.256944,0.700558,1.587451,52.694486,-0.022797,0.011078,1.005997,-0.023135,0.026573,0.002641,65.756653,21.688446,-148.535355,,,
729608394.260283,0.700558,1.587451,52.694486,-0.022797,0.011078,1.005997,-0.023135,0.026573,0.002641,65.756653,21.688446,-148.535355,,,
729608394.263625,0.694108,1.594232,52.695639,-0.022797,0.011078,1.005997,-0.023135,0.026573,0.002641,65.756653,21.688446,-148.535355,,,
729608394.26695,0.6912,1.596478,52.696962,-0.030319,0.009628,1.005325,-0.010333,0.016136,0.00449,65.756653,21.688446,-148.535355,,,
729608394.270359,0.6912,1.596478,52.696962,-0.030319,0.009628,1.005325,-0.010333,0.016136,0.00449,65.756653,21.688446,-148.535355,,,
729608394.273624,0.687049,1.59933,52.698753,-0.030319,0.009628,1.005325,-0.010333,0.016136,0.00449,65.756653,21.688446,-148.535355,,,
729608394.276957,0.685716,1.598166,52.700273,-0.033157,0.008835,1.00499,-0.008535,0.001549,0.002502,65.756653,21.688446,-148.535355,,,
729608394.280301,0.685716,1.598166,52.700273,-0.033157,0.008835,1.00499,-0.008535,0.001549,0.002502,65.756653,21.688446,-148.535355,,,
729608394.283676,0.683064,1.59722,52.701035,-0.033157,0.008835,1.00499,-0.008535,0.001549,0.002502,65.756653,21.688446,-148.535355,,,
729608394.286932,0.681778,1.594075,52.701596,-0.031998,0.009933,1.002365,-0.007311,-0.011071,-0.003891,65.756653,21.688446,-148.535355,,,
729608394.290281,0.681778,1.594075,52.701596,-0.031998,0.009933,1.002365,-0.007311,-0.011071,-0.003891,65.718796,21.677475,-148.452789,,,
729608394.293639,0.679737,1.589388,52.701768,-0.031998,0.009933,1.002365,-0.007311,-0.011071,-0.003891,65.718796,21.677475,-148.452789,,,
729608394.296936,0.6772,1.583082,52.701664,-0.029099,0.014328,1.000519,-0.009904,-0.020552,-0.003327,65.718796,21.677475,-148.452789,,,
729608394.300294,0.6772,1.583082,52.701664,-0.029099,0.014328,1.000519,-0.009904,-0.020552,-0.003327,65.718796,21.677475,-148.452789,,,
729608394.303601,0.674839,1.576013,52.701892,-0.029099,0.014328,1.000519,-0.009904,-0.020552,-0.003327,65.718796,21.677475,-148.452789,,,
729608394.307005,0.673376,1.566002,52.702338,-0.029236,0.012024,0.999588,-0.005718,-0.026167,-0.001008,65.718796,21.677475,-148.452789,,,
729608394.31035,0.673376,1.566002,52.702338,-0.029236,0.012024,0.999588,-0.005718,-0.026167,-0.001008,65.718796,21.677475,-148.452789,,,
729608394.313612,0.672059,1.556897,52.702654,-0.029236,0.012024,0.999588,-0.005718,-0.026167,-0.001008,65.718796,21.677475,-148.452789,,,
729608394.316952,0.671663,1.544786,52.702891,-0.027374,0.008865,1.004089,-3.7e-05,-0.027953,-0.001236,65.718796,21.677475,-148.452789,,,
729608394.320281,0.671663,1.544786,52.702891,-0.027374,0.008865,1.004089,-3.7e-05,-0.027953,-0.001236,65.718796,21.677475,-148.452789,,,
729608394.323682,0.6708,1.537019,52.702959,-0.027374,0.008865,1.004089,-3.7e-05,-0.027953,-0.001236,65.718796,21.677475,-148.452789,,,
729608394.326981,0.66941,1.528767,52.703542,-0.024796,0.007782,1.004913,-0.006303,-0.009737,0.003126,65.718796,21.677475,-148.452789,,,
729608394.330286,0.66941,1.528767,52.703542,-0.024796,0.007782,1.004913,-0.006303,-0.009737,0.003126,65.533691,21.745377,-148.617401,,,
729608394.333647,0.667226,1.526057,52.705619,-0.024796,0.007782,1.004913,-0.006303,-0.009737,0.003126,65.533691,21.745377,-148.617401,,,
729608394.336948,0.663802,1.525636,52.708652,-0.024551,0.009949,1.008179,-0.012877,0.019066,0.008219,65.533691,21.745377,-148.617401,,,
729608394.340281,0.663802,1.525636,52.708652,-0.024551,0.009949,1.008179,-0.012877,0.019066,0.008219,65.533691,21.745377,-148.617401,,,
729608394.343614,0.660239,1.53136,52.711601,-0.024551,0.009949,1.008179,-0.012877,0.019066,0.008219,65.533691,21.745377,-148.617401,,,
729608394.346947,0.656677,1.541229,52.714013,-0.023453,0.013214,1.010452,-0.011614,0.046583,0.004541,65.533691,21.745377,-148.617401,,,
729608394.350344,0.656677,1.541229,52.714013,-0.023453,0.013214,1.010452,-0.011614,0.046583,0.004541,65.533691,21.745377,-148.617401,,,
729608394.353628,0.653497,1.553934,52.715686,-0.023453,0.013214,1.010452,-0.011614,0.046583,0.004541,65.533691,21.745377,-148.617401,,,
729608394.356949,0.649375,1.569895,52.71714,-0.022964,0.013382,1.007172,-0.009188,0.056234,0.003281,65.533691,21.745377,-148.617401,,,
729608394.360273,0.649375,1.569895,52.71714,-0.022964,0.013382,1.007172,-0.009188,0.056234,0.003281,65.533691,21.745377,-148.617401,,,
729608394.36362,0.646105,1.585171,52.718484,-0.022964,0.013382,1.007172,-0.009188,0.056234,0.003281,65.533691,21.745377,-148.617401,,,
729608394.366944,0.643461,1.600623,52.719715,-0.029144,0.012573,1.000366,-0.005166,0.045743,0.002696,65.533691,21.745377,-148.617401,,,
729608394.37028,0.643461,1.600623,52.719715,-0.029144,0.012573,1.000366,-0.005166,0.045743,0.002696,65.692734,21.836533,-148.632477,,,
729608394.373682,0.642018,1.611936,52.721078,-0.029144,0.012573,1.000366,-0.005166,0.045743,0.002696,65.692734,21.836533,-148.632477,,,
729608394.376939,0.642295,1.620357,52.722486,-0.034988,0.012482,0.995193,0.000354,0.022164,0.003088,65.692734,21.836533,-148.632477,,,
729608394.380291,0.642295,1.620357,52.722486,-0.034988,0.012482,0.995193,0.000354,0.022164,0.003088,65.692734,21.836533,-148.632477,,,
729608394.383638,0.643084,1.625497,52.723627,-0.034988,0.012482,0.995193,0.000354,0.022164,0.003088,65.692734,21.836533,-148.632477,,,
729608394.386948,0.645315,1.628897,52.724312,-0.038147,0.010727,0.995789,0.009898,0.011827,0.00228,65.692734,21.836533,-148.632477,,,
729608394.390289,0.645315,1.628897,52.724312,-0.038147,0.010727,0.995789,0.009898,0.011827,0.00228,65.692734,21.836533,-148.632477,,,
729608394.393614,0.648582,1.631342,52.724886,-0.038147,0.010727,0.995789,0.009898,0.011827,0.00228,65.692734,21.836533,-148.632477,,,
729608394.396945,0.653546,1.634182,52.726438,-0.037949,0.005035,0.998596,0.026704,0.01752,0.007782,65.692734,21.836533,-148.632477,,,
729608394.400345,0.653546,1.634182,52.726438,-0.037949,0.005035,0.998596,0.026704,0.01752,0.007782,65.692734,21.836533,-148.632477,,,
729608394.403628,0.661818,1.638831,52.730067,-0.037949,0.005035,0.998596,0.026704,0.01752,0.007782,65.692734,21.836533,-148.632477,,,
729608394.406946,0.672397,1.645385,52.735973,-0.035233,-0.002197,1.008072,0.043137,0.039397,0.028122,65.692734,21.836533,-148.632477,,,
729608394.410279,0.672397,1.645385,52.735973,-0.035233,-0.002197,1.008072,0.043137,0.039397,0.028122,65.692734,21.836533,-148.632477,,,
729608394.413692,0.685978,1.657275,52.744703,-0.035233,-0.002197,1.008072,0.043137,0.039397,0.028122,65.887619,21.954224,-148.630859,,,
729608394.416935,0.700439,1.673541,52.756045,-0.032669,-0.004089,1.013,0.053775,0.075149,0.043754,65.887619,21.954224,-148.630859,,,
729608394.42028,0.700439,1.673541,52.756045,-0.032669,-0.004089,1.013,0.053775,0.075149,0.043754,65.887619,21.954224,-148.630859,,,
729608394.42362,0.71586,1.695758,52.768629,-0.032669,-0.004089,1.013,0.053775,0.075149,0.043754,65.887619,21.954224,-148.630859,,,
729608394.426962,0.729872,1.719696,52.781548,-0.024445,0.005798,1.002197,0.044668,0.095839,0.043815,65.887619,21.954224,-148.630859,,,
