Time (sec),Pitch (deg),Roll (deg),Yaw(deg),X-Acceleration (g),Y-Acceleration (g),Z-Acceleration (g),Pitch Rate (deg/sec),Roll Rate (deg/sec),Yaw Rate (deg/sec),Magnetic Field in X direction (uT),Magnetic Field in Y direction (uT),Magnetic Field in Z Direction (uT),Latitude (deg),Longitude (deg),Altitude (m)
729607088.401757,1.571084,2.091248,49.049517,-0.023117,0.027466,0.97374,-0.004359,-0.026844,0.005372,64.335114,20.491135,-146.995605,,,
729607088.405161,1.567217,2.082052,49.051101,-0.023117,0.027466,0.97374,-0.004359,-0.026844,0.005372,64.335114,20.491135,-146.995605,,,
729607088.408389,1.567217,2.082052,49.051101,-0.023117,0.027466,0.97374,-0.004359,-0.026844,0.005372,64.335114,20.491135,-146.995605,,,
729607088.411732,1.561592,2.070726,49.052013,-0.024734,0.031555,0.972092,-0.022149,-0.034382,0.002811,64.335114,20.491135,-146.995605,,,
729607088.415091,1.553597,2.05721,49.052642,-0.024734,0.031555,0.972092,-0.022149,-0.034382,0.002811,64.335114,20.491135,-146.995605,,,
729607088.418395,1.553597,2.05721,49.052642,-0.024734,0.031555,0.972092,-0.022149,-0.034382,0.002811,64.335114,20.491135,-146.995605,,,
729607088.421736,1.542911,2.045242,49.05285,-0.02478,0.032013,0.972626,-0.038002,-0.037663,-0.000663,64.335114,20.491135,-146.995605,,,
729607088.42513,1.529916,2.035583,49.052892,-0.02478,0.032013,0.972626,-0.038002,-0.037663,-0.000663,64.335114,20.491135,-146.995605,,,
729607088.428419,1.529916,2.035583,49.052892,-0.02478,0.032013,0.972626,-0.038002,-0.037663,-0.000663,64.335114,20.491135,-146.995605,,,
729607088.431745,1.516757,2.025065,49.052869,-0.027588,0.028076,0.979691,-0.045917,-0.03173,-0.003618,64.335114,20.491135,-146.995605,,,
729607088.435108,1.501315,2.01713,49.053106,-0.027588,0.028076,0.979691,-0.045917,-0.03173,-0.003618,64.157455,20.457275,-147.65271,,,
729607088.438489,1.501315,2.01713,49.053106,-0.027588,0.028076,0.979691,-0.045917,-0.03173,-0.003618,64.157455,20.457275,-147.65271,,,
729607088.441792,1.487821,2.008441,49.054078,-0.03006,0.022369,0.991074,-0.044113,-0.027049,0.004223,64.157455,20.457275,-147.65271,,,
729607088.445126,1.473921,1.999209,49.05576,-0.03006,0.022369,0.991074,-0.044113,-0.027049,0.004223,64.157455,20.457275,-147.65271,,,
729607088.448403,1.473921,1.999209,49.05576,-0.03006,0.022369,0.991074,-0.044113,-0.027049,0.004223,64.157455,20.457275,-147.65271,,,
729607088.451803,1.464337,1.993777,49.057951,-0.030838,0.018311,1.002731,-0.036894,-0.016643,0.002955,64.157455,20.457275,-147.65271,,,
729607088.455084,1.455733,1.984614,49.060075,-0.030838,0.018311,1.002731,-0.036894,-0.016643,0.002955,64.157455,20.457275,-147.65271,,,
729607088.458512,1.455733,1.984614,49.060075,-0.030838,0.018311,1.002731,-0.036894,-0.016643,0.002955,64.157455,20.457275,-147.65271,,,
729607088.461752,1.449106,1.980786,49.061706,-0.031158,0.015533,1.007095,-0.022754,-0.010706,0.003601,64.157455,20.457275,-147.65271,,,
729607088.465094,1.443361,1.972275,49.063894,-0.031158,0.015533,1.007095,-0.022754,-0.010706,0.003601,64.157455,20.457275,-147.65271,,,
729607088.468438,1.443361,1.972275,49.063894,-0.031158,0.015533,1.007095,-0.022754,-0.010706,0.003601,64.157455,20.457275,-147.65271,,,
729607088.471807,1.439068,1.969252,49.066756,-0.034912,0.015625,1.003723,-0.015324,-0.005745,0.008799,64.157455,20.457275,-147.65271,,,
729607088.475174,1.436018,1.961135,49.07076,-0.034912,0.015625,1.003723,-0.015324,-0.005745,0.008799,64.157455,20.457275,-147.65271,,,
729607088.478393,1.436018,1.961135,49.07076,-0.034912,0.015625,1.003723,-0.015324,-0.005745,0.008799,64.212952,20.797012,-147.456177,,,
729607088.481732,1.433788,1.957309,49.076219,-0.042023,0.012665,0.999466,-0.008429,-0.007041,0.017088,64.212952,20.797012,-147.456177,,,
729607088.485128,1.432866,1.947698,49.082102,-0.042023,0.012665,0.999466,-0.008429,-0.007041,0.017088,64.212952,20.797012,-147.456177,,,
729607088.488397,1.432866,1.947698,49.082102,-0.042023,0.012665,0.999466,-0.008429,-0.007041,0.017088,64.212952,20.797012,-147.456177,,,
729607088.491739,1.430281,1.942227,49.087398,-0.034561,0.015503,0.994415,-0.010128,-0.014525,0.018256,64.212952,20.797012,-147.456177,,,
729607088.495072,1.428381,1.931859,49.091854,-0.034561,0.015503,0.994415,-0.010128,-0.014525,0.018256,64.212952,20.797012,-147.456177,,,
729607088.498498,1.428381,1.931859,49.091854,-0.034561,0.015503,0.994415,-0.010128,-0.014525,0.018256,64.212952,20.797012,-147.456177,,,
729607088.501741,1.423101,1.925461,49.095005,-0.028885,0.025238,0.992279,-0.01694,-0.019928,0.009304,64.212952,20.797012,-147.456177,,,
729607088.505079,1.417465,1.915694,49.097399,-0.028885,0.025238,0.992279,-0.01694,-0.019928,0.009304,64.212952,20.797012,-147.456177,,,
729607088.508411,1.417465,1.915694,49.097399,-0.028885,0.025238,0.992279,-0.01694,-0.019928,0.009304,64.212952,20.797012,-147.456177,,,
729607088.511798,1.409153,1.90992,49.098715,-0.028336,0.029633,0.986542,-0.028127,-0.015343,0.002318,64.212952,20.797012,-147.456177,,,
729607088.515082,1.399817,1.90306,49.100032,-0.028336,0.029633,0.986542,-0.028127,-0.015343,0.002318,64.212952,20.797012,-147.456177,,,
729607088.518274,1.399817,1.90306,49.100032,-0.028336,0.029633,0.986542,-0.028127,-0.015343,0.002318,64.259705,20.652985,-147.696884,,,
729607088.521761,1.388761,1.899083,49.102057,-0.026062,0.027756,0.988998,-0.039354,-0.00927,0.002996,64.259705,20.652985,-147.696884,,,
729607088.525081,1.376643,1.894865,49.104708,-0.026062,0.027756,0.988998,-0.039354,-0.00927,0.002996,64.259705,20.652985,-147.696884,,,
729607088.528409,1.376643,1.894865,49.104708,-0.026062,0.027756,0.988998,-0.039354,-0.00927,0.002996,64.259705,20.652985,-147.696884,,,
729607088.531748,1.366199,1.892698,49.108049,-0.023727,0.024033,0.990555,-0.03691,-0.006506,0.009208,64.259705,20.652985,-147.696884,,,
729607088.53507,1.355292,1.889077,49.112302,-0.023727,0.024033,0.990555,-0.03691,-0.006506,0.009208,64.259705,20.652985,-147.696884,,,
729607088.538458,1.355292,1.889077,49.112302,-0.023727,0.024033,0.990555,-0.03691,-0.006506,0.009208,64.259705,20.652985,-147.696884,,,
729607088.541736,1.34687,1.885352,49.117162,-0.02562,0.021683,0.989471,-0.028548,-0.009337,0.016442,64.259705,20.652985,-147.696884,,,
729607088.545076,1.337744,1.880188,49.121964,-0.02562,0.021683,0.989471,-0.028548,-0.009337,0.016442,64.259705,20.652985,-147.696884,,,
729607088.5484,1.337744,1.880188,49.121964,-0.02562,0.021683,0.989471,-0.028548,-0.009337,0.016442,64.259705,20.652985,-147.696884,,,
729607088.551805,1.330793,1.876019,49.126173,-0.026703,0.022537,0.988403,-0.022508,-0.010695,0.012747,64.259705,20.652985,-147.696884,,,
729607088.555079,1.321838,1.874857,49.129939,-0.026703,0.022537,0.988403,-0.022508,-0.010695,0.012747,64.259705,20.652985,-147.696884,,,
729607088.558425,1.321838,1.874857,49.129939,-0.026703,0.022537,0.988403,-0.022508,-0.010695,0.012747,64.158981,20.900742,-147.326172,,,
729607088.561727,1.313841,1.871144,49.133199,-0.026459,0.028275,0.985306,-0.027865,-0.008615,0.008063,64.158981,20.900742,-147.326172,,,
729607088.565151,1.302916,1.871493,49.136006,-0.026459,0.028275,0.985306,-0.027865,-0.008615,0.008063,64.158981,20.900742,-147.326172,,,
729607088.568396,1.302916,1.871493,49.136006,-0.026459,0.028275,0.985306,-0.027865,-0.008615,0.008063,64.158981,20.900742,-147.326172,,,
729607088.571745,1.29261,1.868448,49.138599,-0.028137,0.030579,0.983948,-0.033478,-0.006755,0.006669,64.158981,20.900742,-147.326172,,,
729607088.575076,1.280626,1.865218,49.140704,-0.028137,0.030579,0.983948,-0.033478,-0.006755,0.006669,64.158981,20.900742,-147.326172,,,
729607088.578461,1.280626,1.865218,49.140704,-0.028137,0.030579,0.983948,-0.033478,-0.006755,0.006669,64.158981,20.900742,-147.326172,,,
729607088.581735,1.268882,1.861721,49.142803,-0.032349,0.027191,0.987915,-0.039871,-0.009353,0.002698,64.158981,20.900742,-147.326172,,,
729607088.585077,1.258222,1.855726,49.145182,-0.032349,0.027191,0.987915,-0.039871,-0.009353,0.002698,64.158981,20.900742,-147.326172,,,
729607088.588466,1.258222,1.855726,49.145182,-0.032349,0.027191,0.987915,-0.039871,-0.009353,0.002698,64.158981,20.900742,-147.326172,,,
729607088.591787,1.24682,1.850036,49.147557,-0.036118,0.022537,0.990417,-0.037919,-0.014235,0.007986,64.158981,20.900742,-147.326172,,,
729607088.59507,1.238972,1.842093,49.149943,-0.036118,0.022537,0.990417,-0.037919,-0.014235,0.007986,64.158981,20.900742,-147.326172,,,
729607088.598395,1.238972,1.842093,49.149943,-0.036118,0.022537,0.990417,-0.037919,-0.014235,0.007986,64.38356,20.704849,-147.496643,,,
729607088.601736,1.231404,1.835366,49.151589,-0.032471,0.022171,0.998108,-0.027142,-0.022444,0.003902,64.38356,20.704849,-147.496643,,,
729607088.605164,1.226042,1.824001,49.152086,-0.032471,0.022171,0.998108,-0.027142,-0.022444,0.003902,64.38356,20.704849,-147.496643,,,
729607088.608409,1.226042,1.824001,49.152086,-0.032471,0.022171,0.998108,-0.027142,-0.022444,0.003902,64.38356,20.704849,-147.496643,,,
729607088.611748,1.22076,1.815601,49.152019,-0.031342,0.023438,0.998444,-0.017117,-0.025858,-0.003959,64.38356,20.704849,-147.496643,,,
729607088.615069,1.21751,1.804515,49.151287,-0.031342,0.023438,0.998444,-0.017117,-0.025858,-0.003959,64.38356,20.704849,-147.496643,,,
729607088.618472,1.21751,1.804515,49.151287,-0.031342,0.023438,0.998444,-0.017117,-0.025858,-0.003959,64.38356,20.704849,-147.496643,,,
729607088.621738,1.215774,1.798828,49.150161,-0.031693,0.021591,1.004486,-0.008002,-0.01593,-0.004607,64.38356,20.704849,-147.496643,,,
729607088.62515,1.216511,1.792842,49.149868,-0.031693,0.021591,1.004486,-0.008002,-0.01593,-0.004607,64.38356,20.704849,-147.496643,,,
729607088.628396,1.216511,1.792842,49.149868,-0.031693,0.021591,1.004486,-0.008002,-0.01593,-0.004607,64.38356,20.704849,-147.496643,,,
729607088.631783,1.218724,1.791531,49.150129,-0.030762,0.017227,1.007416,0.005448,-0.001008,-0.000534,64.38356,20.704849,-147.496643,,,
729607088.635074,1.222458,1.790073,49.151934,-0.030762,0.017227,1.007416,0.005448,-0.001008,-0.000534,64.38356,20.704849,-147.496643,,,
729607088.638397,1.222458,1.790073,49.151934,-0.030762,0.017227,1.007416,0.005448,-0.001008,-0.000534,64.38356,20.704849,-147.496643,,,
729607088.641742,1.226469,1.792313,49.15569,-0.037582,0.014099,1.002594,0.015546,0.009692,0.014214,64.207001,20.778793,-147.375977,,,
729607088.645122,1.232843,1.795878,49.160728,-0.037582,0.014099,1.002594,0.015546,0.009692,0.014214,64.207001,20.778793,-147.375977,,,
729607088.648397,1.232843,1.795878,49.160728,-0.037582,0.014099,1.002594,0.015546,0.009692,0.014214,64.207001,20.778793,-147.375977,,,
729607088.651758,1.237154,1.803903,49.166169,-0.034027,0.021713,1.003296,0.015401,0.033282,0.019513,64.207001,20.778793,-147.375977,,,
729607088.65509,1.241825,1.811887,49.171443,-0.034027,0.021713,1.003296,0.015401,0.033282,0.019513,64.207001,20.778793,-147.375977,,,
729607088.658426,1.241825,1.811887,49.171443,-0.034027,0.021713,1.003296,0.015401,0.033282,0.019513,64.207001,20.778793,-147.375977,,,
729607088.661748,1.242632,1.820573,49.175815,-0.030075,0.033051,0.98761,0.002822,0.034818,0.013948,64.207001,20.778793,-147.375977,,,
729607088.665077,1.242262,1.829645,49.178678,-0.030075,0.033051,0.98761,0.002822,0.034818,0.013948,64.207001,20.778793,-147.375977,,,
729607088.66843,1.242262,1.829645,49.178678,-0.030075,0.033051,0.98761,0.002822,0.034818,0.013948,64.207001,20.778793,-147.375977,,,
729607088.671767,1.239767,1.835381,49.180479,-0.032166,0.034271,0.980789,-0.011247,0.024029,0.003873,64.207001,20.778793,-147.375977,,,
729607088.675073,1.236163,1.838863,49.180927,-0.032166,0.034271,0.980789,-0.011247,0.024029,0.003873,64.207001,20.778793,-147.375977,,,
729607088.678411,1.236163,1.838863,49.180927,-0.032166,0.034271,0.980789,-0.011247,0.024029,0.003873,64.207001,20.778793,-147.375977,,,
729607088.681784,1.231335,1.836201,49.180022,-0.035217,0.029282,0.97821,-0.018741,-0.006084,-0.004162,64.440948,20.412582,-147.464417,,,
729607088.685074,1.226242,1.828247,49.178693,-0.035217,0.029282,0.97821,-0.018741,-0.006084,-0.004162,64.440948,20.412582,-147.464417,,,
729607088.688409,1.226242,1.828247,49.178693,-0.035217,0.029282,0.97821,-0.018741,-0.006084,-0.004162,64.440948,20.412582,-147.464417,,,
729607088.691742,1.222191,1.816194,49.178027,-0.040024,0.025177,0.983871,-0.01623,-0.03935,-0.001679,64.440948,20.412582,-147.464417,,,
729607088.695144,1.220737,1.801713,49.177632,-0.040024,0.025177,0.983871,-0.01623,-0.03935,-0.001679,64.440948,20.412582,-147.464417,,,
729607088.698397,1.220737,1.801713,49.177632,-0.040024,0.025177,0.983871,-0.01623,-0.03935,-0.001679,64.440948,20.412582,-147.464417,,,
729607088.701754,1.221104,1.786643,49.177305,-0.040573,0.022003,1.001938,0.001779,-0.050012,-0.000131,64.440948,20.412582,-147.464417,,,
729607088.705088,1.22388,1.772541,49.177635,-0.040573,0.022003,1.001938,0.001779,-0.050012,-0.000131,64.440948,20.412582,-147.464417,,,
729607088.708474,1.22388,1.772541,49.177635,-0.040573,0.022003,1.001938,0.001779,-0.050012,-0.000131,64.440948,20.412582,-147.464417,,,
729607088.711733,1.228943,1.761048,49.178408,-0.037994,0.019531,1.0112,0.018326,-0.038567,0.004011,64.440948,20.412582,-147.464417,,,
729607088.715073,1.23428,1.755616,49.17955,-0.037994,0.019531,1.0112,0.018326,-0.038567,0.004011,64.440948,20.412582,-147.464417,,,
729607088.718392,1.23428,1.755616,49.17955,-0.037994,0.019531,1.0112,0.018326,-0.038567,0.004011,64.440948,20.412582,-147.464417,,,
729607088.721755,1.241535,1.7563,49.180822,-0.033691,0.020676,1.017975,0.025382,0.006666,0.001652,64.102615,20.758362,-147.330536,,,
729607088.725054,1.246808,1.767265,49.182136,-0.033691,0.020676,1.017975,0.025382,0.006666,0.001652,64.102615,20.758362,-147.330536,,,
729607088.728413,1.246808,1.767265,49.182136,-0.033691,0.020676,1.017975,0.025382,0.006666,0.001652,64.102615,20.758362,-147.330536,,,
729607088.731761,1.252887,1.780683,49.184656,-0.03772,0.020279,1.015625,0.022553,0.052024,0.006815,64.102615,20.758362,-147.330536,,,
729607088.735085,1.259178,1.796914,49.18856,-0.03772,0.020279,1.015625,0.022553,0.052024,0.006815,64.102615,20.758362,-147.330536,,,
729607088.738409,1.259178,1.796914,49.18856,-0.03772,0.020279,1.015625,0.022553,0.052024,0.006815,64.102615,20.758362,-147.330536,,,
729607088.741742,1.263383,1.812999,49.193881,-0.051834,0.014404,1.00267,0.015508,0.059156,0.015032,64.102615,20.758362,-147.330536,,,
729607088.74515,1.270135,1.826641,49.201167,-0.051834,0.014404,1.00267,0.015508,0.059156,0.015032,64.102615,20.758362,-147.330536,,,
729607088.748395,1.270135,1.826641,49.201167,-0.051834,0.014404,1.00267,0.015508,0.059156,0.015032,64.102615,20.758362,-147.330536,,,
729607088.751748,1.275002,1.836191,49.209799,-0.063507,0.008591,0.997208,0.020332,0.034765,0.02964,64.102615,20.758362,-147.330536,,,
729607088.755067,1.284308,1.841183,49.219423,-0.063507,0.008591,0.997208,0.020332,0.034765,0.02964,64.102615,20.758362,-147.330536,,,
729607088.75846,1.284308,1.841183,49.219423,-0.063507,0.008591,0.997208,0.020332,0.034765,0.02964,64.102615,20.758362,-147.330536,,,
729607088.761734,1.294024,1.83935,49.230292,-0.064713,0.005417,0.997421,0.03131,-0.001106,0.035191,64.102615,20.758362,-147.330536,,,
729607088.765085,1.306525,1.835348,49.240988,-0.064713,0.005417,0.997421,0.03131,-0.001106,0.035191,64.066757,20.838974,-147.503052,,,
729607088.768397,1.306525,1.835348,49.240988,-0.064713,0.005417,0.997421,0.03131,-0.001106,0.035191,64.066757,20.838974,-147.503052,,,
729607088.771795,1.319249,1.826192,49.250756,-0.054062,0.006973,0.996429,0.043386,-0.030193,0.032897,64.066757,20.838974,-147.503052,,,
729607088.775051,1.319249,1.820339,49.259833,-0.054062,0.006973,0.996429,0.043386,-0.030193,0.032897,64.066757,20.838974,-147.503052,,,
729607088.778405,1.333118,1.820339,49.259833,-0.054062,0.006973,0.996429,0.043386,-0.030193,0.032897,64.066757,20.838974,-147.503052,,,
729607088.781746,1.347201,1.810519,49.268586,-0.035614,0.011612,0.997147,0.047371,-0.031397,0.03152,64.066757,20.838974,-147.503052,,,
729607088.785065,1.3606,1.806351,49.277335,-0.035614,0.011612,0.997147,0.047371,-0.031397,0.03152,64.066757,20.838974,-147.503052,,,
729607088.788402,1.3606,1.806351,49.277335,-0.035614,0.011612,0.997147,0.047371,-0.031397,0.03152,64.066757,20.838974,-147.503052,,,
729607088.791724,1.373788,1.801263,49.286277,-0.021606,0.012039,0.993774,0.04311,-0.014032,0.032565,64.066757,20.838974,-147.503052,,,
729607088.795129,1.38503,1.801874,49.295874,-0.021606,0.012039,0.993774,0.04311,-0.014032,0.032565,64.066757,20.838974,-147.503052,,,
729607088.7984,1.38503,1.801874,49.295874,-0.021606,0.012039,0.993774,0.04311,-0.014032,0.032565,64.066757,20.838974,-147.503052,,,
729607088.801736,1.3963,1.805072,49.306335,-0.009995,0.014633,0.991608,0.038114,0.015215,0.034975,64.066757,20.838974,-147.503052,,,
729607088.805055,1.3963,1.813289,49.317022,-0.009995,0.014633,0.991608,0.038114,0.015215,0.034975,64.057098,20.659134,-147.480743,,,
729607088.80839,1.405839,1.813289,49.317022,-0.009995,0.014633,0.991608,0.038114,0.015215,0.034975,64.057098,20.659134,-147.480743,,,
729607088.811736,1.41545,1.824032,49.327596,-0.000687,0.01886,0.993744,0.032411,0.042138,0.035617,64.057098,20.659134,-147.480743,,,
729607088.815065,1.41545,1.824032,49.327596,-0.000687,0.01886,0.993744,0.032411,0.042138,0.035617,64.057098,20.659134,-147.480743,,,
729607088.818407,1.423517,1.841155,49.337292,-0.000687,0.01886,0.993744,0.032411,0.042138,0.035617,64.057098,20.659134,-147.480743,,,
729607088.821726,1.432567,1.853583,49.34574,0.004715,0.022491,0.986023,0.030798,0.049035,0.031807,64.057098,20.659134,-147.480743,,,
729607088.825081,1.432567,1.876387,49.351447,0.004715,0.022491,0.986023,0.030798,0.049035,0.031807,64.057098,20.659134,-147.480743,,,
729607088.828405,1.438335,1.876387,49.351447,0.004715,0.022491,0.986023,0.030798,0.049035,0.031807,64.057098,20.659134,-147.480743,,,
729607088.831723,1.445311,1.885498,49.354915,0.005173,0.028564,0.980698,0.023503,0.037797,0.010013,64.057098,20.659134,-147.480743,,,
729607088.835154,1.445311,1.885498,49.354915,0.005173,0.028564,0.980698,0.023503,0.037797,0.010013,64.057098,20.659134,-147.480743,,,
729607088.838402,1.447638,1.904609,49.355981,0.005173,0.028564,0.980698,0.023503,0.037797,0.010013,64.057098,20.659134,-147.480743,,,
729607088.841736,1.450711,1.908302,49.354867,0.001328,0.030228,0.978912,0.011094,0.01424,-0.005102,64.057098,20.659134,-147.480743,,,
729607088.845072,1.450711,1.908302,49.354867,0.001328,0.030228,0.978912,0.011094,0.01424,-0.005102,64.209717,20.644897,-147.714905,,,
729607088.848462,1.448489,1.919656,49.350815,0.001328,0.030228,0.978912,0.011094,0.01424,-0.005102,64.209717,20.644897,-147.714905,,,
729607088.851731,1.447453,1.919672,49.344492,-7.6e-05,0.02916,0.979691,-0.0035,0.002151,-0.022207,64.209717,20.644897,-147.714905,,,
729607088.855085,1.447453,1.919672,49.344492,-7.6e-05,0.02916,0.979691,-0.0035,0.002151,-0.022207,64.209717,20.644897,-147.714905,,,
729607088.858402,1.442507,1.923509,49.335877,-7.6e-05,0.02916,0.979691,-0.0035,0.002151,-0.022207,64.209717,20.644897,-147.714905,,,
729607088.861735,1.438785,1.922941,49.326405,-0.003708,0.02803,0.985031,-0.010059,0.001283,-0.033591,64.209717,20.644897,-147.714905,,,
729607088.865057,1.438785,1.922941,49.326405,-0.003708,0.02803,0.985031,-0.010059,0.001283,-0.033591,64.209717,20.644897,-147.714905,,,
729607088.868412,1.432601,1.922888,49.316699,-0.003708,0.02803,0.985031,-0.010059,0.001283,-0.033591,64.209717,20.644897,-147.714905,,,
729607088.871728,1.428647,1.926971,49.306692,-0.012146,0.025772,0.998825,-0.015069,0.015147,-0.037585,64.209717,20.644897,-147.714905,,,
729607088.875078,1.428647,1.926971,49.306692,-0.012146,0.025772,0.998825,-0.015069,0.015147,-0.037585,64.209717,20.644897,-147.714905,,,
729607088.878402,1.423327,1.928611,49.297295,-0.012146,0.025772,0.998825,-0.015069,0.015147,-0.037585,64.209717,20.644897,-147.714905,,,
729607088.881735,1.419796,1.937583,49.288507,-0.022247,0.019409,1.005493,-0.012302,0.035131,-0.032162,64.209717,20.644897,-147.714905,,,
729607088.885064,1.419796,1.937583,49.288507,-0.022247,0.019409,1.005493,-0.012302,0.035131,-0.032162,64.177628,20.662064,-147.425476,,,
729607088.888448,1.415301,1.938836,49.28078,-0.022247,0.019409,1.005493,-0.012302,0.035131,-0.032162,64.177628,20.662064,-147.425476,,,
729607088.891726,1.412075,1.949814,49.274685,-0.033401,0.01178,1.003479,-0.006955,0.040126,-0.024174,64.177628,20.662064,-147.425476,,,
729607088.895079,1.412075,1.949814,49.274685,-0.033401,0.01178,1.003479,-0.006955,0.040126,-0.024174,64.177628,20.662064,-147.425476,,,
729607088.898403,1.408365,1.950175,49.270463,-0.033401,0.01178,1.003479,-0.006955,0.040126,-0.024174,64.177628,20.662064,-147.425476,,,
729607088.901726,1.404648,1.962054,49.267077,-0.044281,0.011887,1.007019,-0.01034,0.045904,-0.013556,64.177628,20.662064,-147.425476,,,
729607088.905078,1.404648,1.962054,49.267077,-0.044281,0.011887,1.007019,-0.01034,0.045904,-0.013556,64.177628,20.662064,-147.425476,,,
729607088.908414,1.399724,1.958154,49.265094,-0.044281,0.011887,1.007019,-0.01034,0.045904,-0.013556,64.177628,20.662064,-147.425476,,,
729607088.911732,1.393544,1.965927,49.263735,-0.053192,0.015244,0.99971,-0.020673,0.030679,-0.007124,64.177628,20.662064,-147.425476,,,
729607088.915136,1.393544,1.965927,49.263735,-0.053192,0.015244,0.99971,-0.020673,0.030679,-0.007124,64.177628,20.662064,-147.425476,,,
729607088.918391,1.388237,1.95523,49.263616,-0.053192,0.015244,0.99971,-0.020673,0.030679,-0.007124,64.177628,20.662064,-147.425476,,,
729607088.921726,1.381197,1.95657,49.263248,-0.054611,0.016464,0.997879,-0.024285,0.006446,-0.003303,64.177628,20.662064,-147.425476,,,
729607088.925055,1.381197,1.95657,49.263248,-0.054611,0.016464,0.997879,-0.024285,0.006446,-0.003303,64.161652,20.866974,-147.600891,,,
729607088.928466,1.374471,1.940827,49.263764,-0.054611,0.016464,0.997879,-0.024285,0.006446,-0.003303,64.161652,20.866974,-147.600891,,,
729607088.931723,1.365844,1.939579,49.264665,-0.050858,0.018143,0.999542,-0.027692,-0.002442,0.000131,64.161652,20.866974,-147.600891,,,
729607088.93507,1.365844,1.939579,49.264665,-0.050858,0.018143,0.999542,-0.027692,-0.002442,0.000131,64.161652,20.866974,-147.600891,,,
729607088.938398,1.358004,1.924186,49.26618,-0.050858,0.018143,0.999542,-0.027692,-0.002442,0.000131,64.161652,20.866974,-147.600891,,,
729607088.941722,1.348863,1.92291,49.267936,-0.044922,0.021225,0.999741,-0.033671,-0.003136,0.005771,64.161652,20.866974,-147.600891,,,
729607088.945068,1.348863,1.92291,49.267936,-0.044922,0.021225,0.999741,-0.033671,-0.003136,0.005771,64.161652,20.866974,-147.600891,,,
729607088.948409,1.339884,1.910489,49.271177,-0.044922,0.021225,0.999741,-0.033671,-0.003136,0.005771,64.161652,20.866974,-147.600891,,,
729607088.951718,1.33052,1.908887,49.274893,-0.039673,0.022018,1.001648,-0.032727,-0.002009,0.011132,64.161652,20.866974,-147.600891,,,
729607088.955163,1.33052,1.908887,49.274893,-0.039673,0.022018,1.001648,-0.032727,-0.002009,0.011132,64.161652,20.866974,-147.600891,,,
729607088.958398,1.322364,1.901483,49.279128,-0.039673,0.022018,1.001648,-0.032727,-0.002009,0.011132,64.161652,20.866974,-147.600891,,,
729607088.961728,1.315629,1.901993,49.283611,-0.036774,0.023087,1.003036,-0.024895,0.005505,0.012611,64.161652,20.866974,-147.600891,,,
729607088.965066,1.315629,1.901993,49.283611,-0.036774,0.023087,1.003036,-0.024895,0.005505,0.012611,64.161652,20.866974,-147.600891,,,
729607088.96847,1.308708,1.899646,49.288074,-0.036774,0.023087,1.003036,-0.024895,0.005505,0.012611,64.167007,20.955795,-147.563583,,,
729607088.971722,1.303353,1.899702,49.292327,-0.035263,0.028732,1.002335,-0.01923,0.005572,0.010842,64.167007,20.955795,-147.563583,,,
729607088.975073,1.303353,1.899702,49.292327,-0.035263,0.028732,1.002335,-0.01923,0.005572,0.010842,64.167007,20.955795,-147.563583,,,
729607088.978396,1.295195,1.901873,49.296722,-0.035263,0.028732,1.002335,-0.01923,0.005572,0.010842,64.167007,20.955795,-147.563583,,,
729607088.981726,1.288372,1.902043,49.301558,-0.039551,0.029449,0.997375,-0.021289,0.003714,0.014201,64.167007,20.955795,-147.563583,,,
729607088.985056,1.288372,1.902043,49.301558,-0.039551,0.029449,0.997375,-0.021289,0.003714,0.014201,64.167007,20.955795,-147.563583,,,
729607088.9884,1.279194,1.908691,49.306846,-0.039551,0.029449,0.997375,-0.021289,0.003714,0.014201,64.167007,20.955795,-147.563583,,,
729607088.991719,1.271145,1.90896,49.312708,-0.04425,0.02742,0.998322,-0.028061,0.003254,0.019322,64.167007,20.955795,-147.563583,,,
729607088.995118,1.271145,1.90896,49.312708,-0.04425,0.02742,0.998322,-0.028061,0.003254,0.019322,64.167007,20.955795,-147.563583,,,
729607088.998393,1.262124,1.919229,49.318301,-0.04425,0.02742,0.998322,-0.028061,0.003254,0.019322,64.167007,20.955795,-147.563583,,,
729607089.001809,1.254988,1.919151,49.323977,-0.043472,0.027679,1.005188,-0.024012,0.003184,0.017751,64.167007,20.955795,-147.563583,,,
729607089.005066,1.254988,1.919151,49.323977,-0.043472,0.027679,1.005188,-0.024012,0.003184,0.017751,64.167007,20.955795,-147.563583,,,
729607089.008405,1.247443,1.927759,49.328668,-0.043472,0.027679,1.005188,-0.024012,0.003184,0.017751,64.404312,20.88208,-147.503784,,,
729607089.011735,1.241812,1.926567,49.332042,-0.041534,0.02681,1.008621,-0.016789,0.002165,0.011452,64.404312,20.88208,-147.503784,,,
729607089.01508,1.241812,1.926567,49.332042,-0.041534,0.02681,1.008621,-0.016789,0.002165,0.011452,64.404312,20.88208,-147.503784,,,
729607089.0185,1.236463,1.931771,49.333579,-0.041534,0.02681,1.008621,-0.016789,0.002165,0.011452,64.404312,20.88208,-147.503784,,,
729607089.021722,1.233556,1.930074,49.334168,-0.042511,0.022171,1.013916,-0.010265,-0.002442,0.000704,64.404312,20.88208,-147.503784,,,
729607089.025073,1.233556,1.930074,49.334168,-0.042511,0.022171,1.013916,-0.010265,-0.002442,0.000704,64.404312,20.88208,-147.503784,,,
729607089.028417,1.232114,1.931678,49.334041,-0.042511,0.022171,1.013916,-0.010265,-0.002442,0.000704,64.404312,20.88208,-147.503784,,,
729607089.031745,1.231429,1.929429,49.333584,-0.045242,0.013931,1.017227,-0.003024,-0.004412,-0.004443,64.404312,20.88208,-147.503784,,,
729607089.035104,1.231429,1.929429,49.333584,-0.045242,0.013931,1.017227,-0.003024,-0.004412,-0.004443,64.404312,20.88208,-147.503784,,,
729607089.03841,1.232637,1.930194,49.332503,-0.045242,0.013931,1.017227,-0.003024,-0.004412,-0.004443,64.404312,20.88208,-147.503784,,,
729607089.041721,1.236162,1.930299,49.330609,-0.045425,0.008713,1.02211,0.014222,0.000705,-0.006754,64.404312,20.88208,-147.503784,,,
729607089.045055,1.236162,1.930299,49.330609,-0.045425,0.008713,1.02211,0.014222,0.000705,-0.006754,64.404312,20.88208,-147.503784,,,
729607089.048394,1.243098,1.933226,49.32848,-0.045425,0.008713,1.02211,0.014222,0.000705,-0.006754,64.445633,20.857864,-147.365814,,,
729607089.051736,1.251584,1.937857,49.326307,-0.04158,0.009964,1.027054,0.031303,0.019278,-0.00934,64.445633,20.857864,-147.365814,,,
729607089.055146,1.251584,1.937857,49.326307,-0.04158,0.009964,1.027054,0.031303,0.019278,-0.00934,64.445633,20.857864,-147.365814,,,
729607089.058386,1.264397,1.945748,49.324636,-0.04158,0.009964,1.027054,0.031303,0.019278,-0.00934,64.445633,20.857864,-147.365814,,,
729607089.061769,1.278964,1.954912,49.324233,-0.049011,0.008408,1.02417,0.050299,0.035193,-0.004592,64.445633,20.857864,-147.365814,,,
729607089.065084,1.278964,1.954912,49.324233,-0.049011,0.008408,1.02417,0.050299,0.035193,-0.004592,64.445633,20.857864,-147.365814,,,
729607089.068462,1.2975,1.970018,49.325304,-0.049011,0.008408,1.02417,0.050299,0.035193,-0.004592,64.445633,20.857864,-147.365814,,,
729607089.07172,1.316742,1.981694,49.328643,-0.0522,0.006729,1.017609,0.064781,0.045796,0.010028,64.445633,20.857864,-147.365814,,,
729607089.07507,1.316742,1.981694,49.328643,-0.0522,0.006729,1.017609,0.064781,0.045796,0.010028,64.445633,20.857864,-147.365814,,,
729607089.078435,1.337584,1.997634,49.334359,-0.0522,0.006729,1.017609,0.064781,0.045796,0.010028,64.445633,20.857864,-147.365814,,,
729607089.08177,1.357319,2.008133,49.341614,-0.055847,0.008636,1.000549,0.068255,0.038097,0.02723,64.445633,20.857864,-147.365814,,,
729607089.085116,1.357319,2.008133,49.341614,-0.055847,0.008636,1.000549,0.068255,0.038097,0.02723,64.445633,20.857864,-147.365814,,,
729607089.088466,1.376695,2.019816,49.349875,-0.055847,0.008636,1.000549,0.068255,0.038097,0.02723,64.445633,20.857864,-147.365814,,,
729607089.091734,1.393713,2.025345,49.359051,-0.049789,0.013947,0.988083,0.058183,0.023803,0.032911,64.341614,20.918274,-147.28125,,,
729607089.095143,1.393713,2.025345,49.359051,-0.049789,0.013947,0.988083,0.058183,0.023803,0.032911,64.341614,20.918274,-147.28125,,,
729607089.098401,1.407915,2.030036,49.367564,-0.049789,0.013947,0.988083,0.058183,0.023803,0.032911,64.341614,20.918274,-147.28125,,,
729607089.101731,1.418925,2.027916,49.375334,-0.038712,0.019836,0.977325,0.039423,-0.005049,0.028277,64.341614,20.918274,-147.28125,,,
729607089.105063,1.418925,2.027916,49.375334,-0.038712,0.019836,0.977325,0.039423,-0.005049,0.028277,64.341614,20.918274,-147.28125,,,
729607089.108463,1.427021,2.024406,49.381869,-0.038712,0.019836,0.977325,0.039423,-0.005049,0.028277,64.341614,20.918274,-147.28125,,,
729607089.11172,1.435097,2.012165,49.386872,-0.031357,0.020111,0.976273,0.02603,-0.039448,0.016409,64.341614,20.918274,-147.28125,,,
729607089.115081,1.435097,2.012165,49.386872,-0.031357,0.020111,0.976273,0.02603,-0.039448,0.016409,64.341614,20.918274,-147.28125,,,
729607089.118415,1.44003,2.001243,49.39014,-0.031357,0.020111,0.976273,0.02603,-0.039448,0.016409,64.341614,20.918274,-147.28125,,,
729607089.121719,1.447788,1.984657,49.392088,-0.029739,0.017365,0.985275,0.027731,-0.054525,0.007021,64.341614,20.918274,-147.28125,,,
729607089.12509,1.447788,1.984657,49.392088,-0.029739,0.017365,0.985275,0.027731,-0.054525,0.007021,64.341614,20.918274,-147.28125,,,
729607089.128389,1.453151,1.970521,49.39325,-0.029739,0.017365,0.985275,0.027731,-0.054525,0.007021,64.341614,20.918274,-147.28125,,,
729607089.131768,1.464108,1.953232,49.395063,-0.029572,0.013016,0.995926,0.037194,-0.057313,0.004137,64.152145,20.894913,-147.479538,,,
729607089.135078,1.464108,1.953232,49.395063,-0.029572,0.013016,0.995926,0.037194,-0.057313,0.004137,64.152145,20.894913,-147.479538,,,
729607089.138406,1.475122,1.941666,49.398422,-0.029572,0.013016,0.995926,0.037194,-0.057313,0.004137,64.152145,20.894913,-147.479538,,,
729607089.141729,1.491312,1.92842,49.403054,-0.023651,0.010193,1.001495,0.057205,-0.041491,0.015418,64.152145,20.894913,-147.479538,,,
729607089.145149,1.491312,1.92842,49.403054,-0.023651,0.010193,1.001495,0.057205,-0.041491,0.015418,64.152145,20.894913,-147.479538,,,
729607089.148405,1.504633,1.925066,49.407708,-0.023651,0.010193,1.001495,0.057205,-0.041491,0.015418,64.152145,20.894913,-147.479538,,,
729607089.151736,1.522476,1.917562,49.412554,-0.011902,0.018677,0.993179,0.064361,-0.024274,0.017421,64.152145,20.894913,-147.479538,,,
729607089.155069,1.522476,1.917562,49.412554,-0.011902,0.018677,0.993179,0.064361,-0.024274,0.017421,64.152145,20.894913,-147.479538,,,
729607089.158462,1.536321,1.924226,49.415992,-0.011902,0.018677,0.993179,0.064361,-0.024274,0.017421,64.152145,20.894913,-147.479538,,,
729607089.161727,1.552882,1.927266,49.418063,-0.005249,0.024109,0.988159,0.058873,0.016862,0.008321,64.152145,20.894913,-147.479538,,,
729607089.165072,1.552882,1.927266,49.418063,-0.005249,0.024109,0.988159,0.058873,0.016862,0.008321,64.152145,20.894913,-147.479538,,,
729607089.168428,1.564075,1.944237,49.418577,-0.005249,0.024109,0.988159,0.058873,0.016862,0.008321,64.152145,20.894913,-147.479538,,,
729607089.171721,1.576407,1.953425,49.418034,-0.00737,0.029343,0.977798,0.045734,0.035597,-0.000138,64.018753,20.751434,-147.320984,,,
729607089.175069,1.576407,1.953425,49.418034,-0.00737,0.029343,0.977798,0.045734,0.035597,-0.000138,64.018753,20.751434,-147.320984,,,
729607089.178399,1.584802,1.968884,49.41656,-0.00737,0.029343,0.977798,0.045734,0.035597,-0.000138,64.018753,20.751434,-147.320984,,,
729607089.181718,1.593416,1.978062,49.414468,-0.012268,0.031082,0.969742,0.029612,0.037113,-0.009594,64.018753,20.751434,-147.320984,,,
729607089.185145,1.593416,1.978062,49.414468,-0.012268,0.031082,0.969742,0.029612,0.037113,-0.009594,64.018753,20.751434,-147.320984,,,
729607089.188404,1.599622,1.985715,49.411131,-0.012268,0.031082,0.969742,0.029612,0.037113,-0.009594,64.018753,20.751434,-147.320984,,,
729607089.191732,1.606346,1.989737,49.407105,-0.020416,0.030151,0.962708,0.022398,0.01772,-0.013542,64.018753,20.751434,-147.320984,,,
729607089.195074,1.606346,1.989737,49.407105,-0.020416,0.030151,0.962708,0.022398,0.01772,-0.013542,64.018753,20.751434,-147.320984,,,
729607089.198459,1.610408,1.988631,49.401972,-0.020416,0.030151,0.962708,0.022398,0.01772,-0.013542,64.018753,20.751434,-147.320984,,,
729607089.201721,1.614988,1.987221,49.39449,-0.018692,0.030014,0.964691,0.016054,-0.002206,-0.027354,64.018753,20.751434,-147.320984,,,
729607089.205081,1.614988,1.987221,49.39449,-0.018692,0.030014,0.964691,0.016054,-0.002206,-0.027354,64.018753,20.751434,-147.320984,,,
729607089.208391,1.616272,1.98147,49.384695,-0.018692,0.030014,0.964691,0.016054,-0.002206,-0.027354,64.018753,20.751434,-147.320984,,,
729607089.211722,1.618397,1.975529,49.37264,-0.010681,0.035431,0.963684,0.008803,-0.019549,-0.044353,64.11026,20.636185,-147.6035,,,
729607089.215066,1.618397,1.975529,49.37264,-0.010681,0.035431,0.963684,0.008803,-0.019549,-0.044353,64.11026,20.636185,-147.6035,,,
729607089.218398,1.616566,1.968208,49.358495,-0.010681,0.035431,0.963684,0.008803,-0.019549,-0.044353,64.11026,20.636185,-147.6035,,,
729607089.221727,1.615613,1.964891,49.342858,-0.011246,0.035965,0.970886,-0.001131,-0.012702,-0.058069,64.11026,20.636185,-147.6035,,,
729607089.225108,1.615613,1.964891,49.342858,-0.011246,0.035965,0.970886,-0.001131,-0.012702,-0.058069,64.11026,20.636185,-147.6035,,,
729607089.228399,1.611203,1.960631,49.32673,-0.011246,0.035965,0.970886,-0.001131,-0.012702,-0.058069,64.11026,20.636185,-147.6035,,,
729607089.231726,1.607171,1.962673,49.310502,-0.016647,0.029633,0.974228,-0.014564,0.008166,-0.058025,64.11026,20.636185,-147.6035,,,
729607089.235063,1.607171,1.962673,49.310502,-0.016647,0.029633,0.974228,-0.014564,0.008166,-0.058025,64.11026,20.636185,-147.6035,,,
729607089.238456,1.601533,1.962343,49.295446,-0.016647,0.029633,0.974228,-0.014564,0.008166,-0.058025,64.11026,20.636185,-147.6035,,,
729607089.241721,1.595893,1.970961,49.281503,-0.022934,0.0233,0.985779,-0.014162,0.033944,-0.051761,64.11026,20.636185,-147.6035,,,
729607089.244964,1.595893,1.970961,49.281503,-0.022934,0.0233,0.985779,-0.014162,0.033944,-0.051761,64.11026,20.636185,-147.6035,,,
729607089.248423,1.589902,1.976326,49.269066,-0.022934,0.0233,0.985779,-0.014162,0.033944,-0.051761,64.11026,20.636185,-147.6035,,,
729607089.25172,1.583733,1.990397,49.25808,-0.028397,0.025024,0.990646,-0.020392,0.05052,-0.040218,64.11026,20.636185,-147.6035,,,
729607089.255061,1.583733,1.990397,49.25808,-0.028397,0.025024,0.990646,-0.020392,0.05052,-0.040218,64.271881,20.396194,-147.293533,,,
729607089.25841,1.577835,2.001278,49.248325,-0.028397,0.025024,0.990646,-0.020392,0.05052,-0.040218,64.271881,20.396194,-147.293533,,,
729607089.261729,1.571443,2.019477,49.239035,-0.03717,0.02449,0.991119,-0.023292,0.065115,-0.035417,64.271881,20.396194,-147.293533,,,
729607089.265142,1.571443,2.019477,49.239035,-0.03717,0.02449,0.991119,-0.023292,0.065115,-0.035417,64.271881,20.396194,-147.293533,,,
729607089.268412,1.563805,2.033746,49.230325,-0.03717,0.02449,0.991119,-0.023292,0.065115,-0.035417,64.271881,20.396194,-147.293533,,,
729607089.271731,1.553878,2.051899,49.22163,-0.044022,0.025208,0.99054,-0.032644,0.064574,-0.030842,64.271881,20.396194,-147.293533,,,
729607089.27507,1.553878,2.051899,49.22163,-0.044022,0.025208,0.99054,-0.032644,0.064574,-0.030842,64.271881,20.396194,-147.293533,,,
729607089.278464,1.543099,2.065337,49.213435,-0.044022,0.025208,0.99054,-0.032644,0.064574,-0.030842,64.271881,20.396194,-147.293533,,,
729607089.281717,1.530575,2.080044,49.20638,-0.048187,0.027039,0.989517,-0.040666,0.055675,-0.029175,64.271881,20.396194,-147.293533,,,
729607089.285084,1.530575,2.080044,49.20638,-0.048187,0.027039,0.989517,-0.040666,0.055675,-0.029175,64.271881,20.396194,-147.293533,,,
729607089.288388,1.517949,2.086897,49.200572,-0.048187,0.027039,0.989517,-0.040666,0.055675,-0.029175,64.271881,20.396194,-147.293533,,,
729607089.291738,1.504659,2.095566,49.195448,-0.057037,0.022812,0.992432,-0.045767,0.033728,-0.021659,64.271881,20.396194,-147.293533,,,
729607089.295058,1.504659,2.095566,49.195448,-0.057037,0.022812,0.992432,-0.045767,0.033728,-0.021659,64.426193,20.545624,-147.359833,,,
729607089.298402,1.492764,2.094207,49.191427,-0.057037,0.022812,0.992432,-0.045767,0.033728,-0.021659,64.426193,20.545624,-147.359833,,,
729607089.301732,1.479626,2.095725,49.187817,-0.053802,0.026199,0.997635,-0.043816,0.007379,-0.016339,64.426193,20.545624,-147.359833,,,
729607089.305135,1.479626,2.095725,49.187817,-0.053802,0.026199,0.997635,-0.043816,0.007379,-0.016339,64.426193,20.545624,-147.359833,,,
729607089.308395,1.467175,2.089734,49.184835,-0.053802,0.026199,0.997635,-0.043816,0.007379,-0.016339,64.426193,20.545624,-147.359833,,,
729607089.311736,1.453341,2.088695,49.182112,-0.048004,0.031815,1.002518,-0.048683,-0.003226,-0.015087,64.426193,20.545624,-147.359833,,,
729607089.315055,1.453341,2.088695,49.182112,-0.048004,0.031815,1.002518,-0.048683,-0.003226,-0.015087,64.426193,20.545624,-147.359833,,,
729607089.318456,1.439265,2.083432,49.180175,-0.048004,0.031815,1.002518,-0.048683,-0.003226,-0.015087,64.426193,20.545624,-147.359833,,,
729607089.321727,1.424974,2.083448,49.17924,-0.046829,0.029297,1.007935,-0.050142,0.00462,-0.005089,64.426193,20.545624,-147.359833,,,
729607089.325061,1.424974,2.083448,49.17924,-0.046829,0.029297,1.007935,-0.050142,0.00462,-0.005089,64.426193,20.545624,-147.359833,,,
729607089.328498,1.411575,2.080802,49.179866,-0.046829,0.029297,1.007935,-0.050142,0.00462,-0.005089,64.426193,20.545624,-147.359833,,,
729607089.331737,1.400044,2.081625,49.1818,-0.041641,0.02594,1.016541,-0.042034,0.009992,0.00123,64.426193,20.545624,-147.359833,,,
729607089.335064,1.400044,2.081625,49.1818,-0.041641,0.02594,1.016541,-0.042034,0.009992,0.00123,64.520844,20.643051,-147.185516,,,
729607089.338406,1.389573,2.080734,49.184006,-0.041641,0.02594,1.016541,-0.042034,0.009992,0.00123,64.520844,20.643051,-147.185516,,,
729607089.341731,1.379753,2.082295,49.186183,-0.034241,0.02681,1.017776,-0.036167,0.005077,0.006463,64.520844,20.643051,-147.185516,,,
729607089.345136,1.379753,2.082295,49.186183,-0.034241,0.02681,1.017776,-0.036167,0.005077,0.006463,64.520844,20.643051,-147.185516,,,
729607089.348399,1.370424,2.086963,49.187936,-0.034241,0.02681,1.017776,-0.036167,0.005077,0.006463,64.520844,20.643051,-147.185516,,,
729607089.351729,1.361164,2.09024,49.188656,-0.033127,0.02887,1.021622,-0.031354,0.015956,0.001393,64.520844,20.643051,-147.185516,,,
729607089.355056,1.361164,2.09024,49.188656,-0.033127,0.02887,1.021622,-0.031354,0.015956,0.001393,64.520844,20.643051,-147.185516,,,
729607089.358387,1.353504,2.098416,49.188451,-0.033127,0.02887,1.021622,-0.031354,0.015956,0.001393,64.520844,20.643051,-147.185516,,,
729607089.361728,1.346118,2.102397,49.187632,-0.03334,0.028854,1.023621,-0.025562,0.015405,-0.003337,64.520844,20.643051,-147.185516,,,
729607089.365065,1.346118,2.102397,49.187632,-0.03334,0.028854,1.023621,-0.025562,0.015405,-0.003337,64.520844,20.643051,-147.185516,,,
729607089.368407,1.339779,2.112637,49.186586,-0.03334,0.028854,1.023621,-0.025562,0.015405,-0.003337,64.520844,20.643051,-147.185516,,,
729607089.371721,1.333992,2.114438,49.186052,-0.035873,0.026352,1.021988,-0.017098,0.007051,-0.004251,64.520844,20.643051,-147.185516,,,
729607089.375054,1.333992,2.114438,49.186052,-0.035873,0.026352,1.021988,-0.017098,0.007051,-0.004251,64.434158,20.766022,-147.548706,,,
729607089.378398,1.329382,2.125249,49.185043,-0.035873,0.026352,1.021988,-0.017098,0.007051,-0.004251,64.434158,20.766022,-147.548706,,,
729607089.381745,1.325757,2.124976,49.184276,-0.037674,0.026978,1.023865,-0.012108,0.003499,-0.005391,64.434158,20.766022,-147.548706,,,
729607089.385126,1.325757,2.124976,49.184276,-0.037674,0.026978,1.023865,-0.012108,0.003499,-0.005391,64.434158,20.766022,-147.548706,,,
729607089.388377,1.324137,2.130453,49.183562,-0.037674,0.026978,1.023865,-0.012108,0.003499,-0.005391,64.434158,20.766022,-147.548706,,,
729607089.391734,1.322761,2.128229,49.183134,-0.033905,0.028214,1.022034,-0.004761,-0.005076,-0.002687,64.434158,20.766022,-147.548706,,,
729607089.395058,1.322761,2.128229,49.183134,-0.033905,0.028214,1.022034,-0.004761,-0.005076,-0.002687,64.434158,20.766022,-147.548706,,,
729607089.398452,1.323585,2.129563,49.182478,-0.033905,0.028214,1.022034,-0.004761,-0.005076,-0.002687,64.434158,20.766022,-147.548706,,,
729607089.401721,1.323108,2.125322,49.181337,-0.035217,0.027313,1.021103,-0.00242,-0.012269,-0.004546,64.434158,20.766022,-147.548706,,,
729607089.405114,1.323108,2.125322,49.181337,-0.035217,0.027313,1.021103,-0.00242,-0.012269,-0.004546,64.434158,20.766022,-147.548706,,,
729607089.408422,1.32505,2.12354,49.179907,-0.035217,0.027313,1.021103,-0.00242,-0.012269,-0.004546,64.434158,20.766022,-147.548706,,,
729607089.411731,1.327368,2.117103,49.178173,-0.033615,0.025528,1.022461,0.004925,-0.018455,-0.007461,64.434158,20.766022,-147.548706,,,
729607089.4151,1.327368,2.117103,49.178173,-0.033615,0.025528,1.022461,0.004925,-0.018455,-0.007461,64.434158,20.766022,-147.548706,,,
729607089.418408,1.331031,2.110665,49.175666,-0.033615,0.025528,1.022461,0.004925,-0.018455,-0.007461,64.396759,20.776535,-147.34523,,,
729607089.421724,1.336597,2.103813,49.17218,-0.032806,0.024277,1.027069,0.017064,-0.020519,-0.01514,64.396759,20.776535,-147.34523,,,
729607089.42515,1.336597,2.103813,49.17218,-0.032806,0.024277,1.027069,0.017064,-0.020519,-0.01514,64.396759,20.776535,-147.34523,,,
729607089.428404,1.345125,2.096148,49.167612,-0.032806,0.024277,1.027069,0.017064,-0.020519,-0.01514,64.396759,20.776535,-147.34523,,,
729607089.431722,1.355585,2.090315,49.162721,-0.03688,0.02655,1.027771,0.036467,-0.018572,-0.017919,64.396759,20.776535,-147.34523,,,
729607089.435075,1.355585,2.090315,49.162721,-0.03688,0.02655,1.027771,0.036467,-0.018572,-0.017919,64.396759,20.776535,-147.34523,,,
729607089.438396,1.36898,2.083516,49.15831,-0.03688,0.02655,1.027771,0.036467,-0.018572,-0.017919,64.396759,20.776535,-147.34523,,,
729607089.441723,1.383368,2.077568,49.155095,-0.03743,0.024048,1.021896,0.053125,-0.015896,-0.010922,64.396759,20.776535,-147.34523,,,
729607089.445079,1.383368,2.077568,49.155095,-0.03743,0.024048,1.021896,0.053125,-0.015896,-0.010922,64.396759,20.776535,-147.34523,,,
729607089.448401,1.399383,2.070453,49.153578,-0.03743,0.024048,1.021896,0.053125,-0.015896,-0.010922,64.396759,20.776535,-147.34523,,,
729607089.451722,1.415696,2.063845,49.153429,-0.041153,0.020935,1.012283,0.060655,-0.022511,0.002329,64.396759,20.776535,-147.34523,,,
729607089.455078,1.415696,2.063845,49.153429,-0.041153,0.020935,1.012283,0.060655,-0.022511,0.002329,64.396759,20.776535,-147.34523,,,
729607089.458409,1.432337,2.057328,49.15429,-0.041153,0.020935,1.012283,0.060655,-0.022511,0.002329,64.394287,20.755905,-147.27713,,,
729607089.461732,1.44848,2.050772,49.155292,-0.04068,0.023453,1.00177,0.055224,-0.020295,0.007343,64.394287,20.755905,-147.27713,,,
729607089.465128,1.44848,2.050772,49.155292,-0.04068,0.023453,1.00177,0.055224,-0.020295,0.007343,64.394287,20.755905,-147.27713,,,
729607089.468391,1.464042,2.042763,49.155692,-0.04068,0.023453,1.00177,0.055224,-0.020295,0.007343,64.394287,20.755905,-147.27713,,,
729607089.471753,1.478751,2.033091,49.154487,-0.032822,0.032043,0.991226,0.049902,-0.030353,-0.004613,64.394287,20.755905,-147.27713,,,
729607089.475085,1.478751,2.033091,49.154487,-0.032822,0.032043,0.991226,0.049902,-0.030353,-0.004613,64.394287,20.755905,-147.27713,,,
729607089.478464,1.492907,2.021545,49.151298,-0.032822,0.032043,0.991226,0.049902,-0.030353,-0.004613,64.394287,20.755905,-147.27713,,,
729607089.481717,1.505836,2.010502,49.146807,-0.029495,0.035858,0.990433,0.04483,-0.03422,-0.017218,64.394287,20.755905,-147.27713,,,
729607089.485083,1.505836,2.010502,49.146807,-0.029495,0.035858,0.990433,0.04483,-0.03422,-0.017218,64.394287,20.755905,-147.27713,,,
729607089.488399,1.51789,2.000479,49.141594,-0.029495,0.035858,0.990433,0.04483,-0.03422,-0.017218,64.394287,20.755905,-147.27713,,,
729607089.491793,1.529517,1.991028,49.13698,-0.035095,0.027359,0.996246,0.039442,-0.028958,-0.016194,64.394287,20.755905,-147.27713,,,
729607089.495075,1.529517,1.991028,49.13698,-0.035095,0.027359,0.996246,0.039442,-0.028958,-0.016194,64.394287,20.755905,-147.27713,,,
729607089.498386,1.540386,1.980931,49.134085,-0.035095,0.027359,0.996246,0.039442,-0.028958,-0.016194,64.278305,20.496231,-147.362488,,,
729607089.501723,1.550871,1.971161,49.132497,-0.035721,0.020782,0.988647,0.037259,-0.03221,-0.007493,64.278305,20.496231,-147.362488,,,
729607089.505137,1.550871,1.971161,49.132497,-0.035721,0.020782,0.988647,0.037259,-0.03221,-0.007493,64.278305,20.496231,-147.362488,,,
729607089.508402,1.560276,1.960229,49.131535,-0.035721,0.020782,0.988647,0.037259,-0.03221,-0.007493,64.278305,20.496231,-147.362488,,,
729607089.511799,1.569906,1.950898,49.130846,-0.033081,0.023285,0.985641,0.032146,-0.032293,-0.002229,64.278305,20.496231,-147.362488,,,
729607089.515084,1.569906,1.950898,49.130846,-0.033081,0.023285,0.985641,0.032146,-0.032293,-0.002229,64.278305,20.496231,-147.362488,,,
729607089.518453,1.578488,1.944095,49.129913,-0.033081,0.023285,0.985641,0.032146,-0.032293,-0.002229,64.278305,20.496231,-147.362488,,,
729607089.521759,1.586875,1.938264,49.128299,-0.027695,0.026962,0.988434,0.031692,-0.017448,-0.003667,64.278305,20.496231,-147.362488,,,
729607089.525067,1.586875,1.938264,49.128299,-0.027695,0.026962,0.988434,0.031692,-0.017448,-0.003667,64.278305,20.496231,-147.362488,,,
729607089.528405,1.594803,1.936243,49.125953,-0.027695,0.026962,0.988434,0.031692,-0.017448,-0.003667,64.278305,20.496231,-147.362488,,,
729607089.531724,1.603976,1.932038,49.123038,-0.028915,0.026657,0.985458,0.031798,-0.009876,-0.010382,64.278305,20.496231,-147.362488,,,
729607089.53506,1.603976,1.932038,49.123038,-0.028915,0.026657,0.985458,0.031798,-0.009876,-0.010382,64.278305,20.496231,-147.362488,,,
729607089.538386,1.612231,1.93112,49.119694,-0.028915,0.026657,0.985458,0.031798,-0.009876,-0.010382,64.245285,20.710068,-147.135208,,,
729607089.541714,1.622728,1.925949,49.116275,-0.030014,0.025223,0.985764,0.036828,-0.014814,-0.013625,64.245285,20.710068,-147.135208,,,
729607089.545113,1.622728,1.925949,49.116275,-0.030014,0.025223,0.985764,0.036828,-0.014814,-0.013625,64.245285,20.710068,-147.135208,,,
729607089.548396,1.632399,1.922761,49.112322,-0.030014,0.025223,0.985764,0.036828,-0.014814,-0.013625,64.245285,20.710068,-147.135208,,,
729607089.551743,1.641937,1.91627,49.108759,-0.035217,0.022369,0.979935,0.033601,-0.020564,-0.012169,64.245285,20.710068,-147.135208,,,
729607089.555071,1.641937,1.91627,49.108759,-0.035217,0.022369,0.979935,0.033601,-0.020564,-0.012169,64.245285,20.710068,-147.135208,,,
729607089.558488,1.652297,1.908007,49.106151,-0.035217,0.022369,0.979935,0.033601,-0.020564,-0.012169,64.245285,20.710068,-147.135208,,,
729607089.561785,1.660332,1.902343,49.104382,-0.042099,0.020294,0.980408,0.031728,-0.018008,-0.004697,64.245285,20.710068,-147.135208,,,
729607089.565069,1.660332,1.902343,49.104382,-0.042099,0.020294,0.980408,0.031728,-0.018008,-0.004697,64.245285,20.710068,-147.135208,,,
729607089.568395,1.667927,1.896818,49.104055,-0.042099,0.020294,0.980408,0.031728,-0.018008,-0.004697,64.245285,20.710068,-147.135208,,,
729607089.571766,1.673235,1.892985,49.104729,-0.039978,0.021729,0.981247,0.021536,-0.010739,-0.000321,64.245285,20.710068,-147.135208,,,
729607089.575065,1.673235,1.892985,49.104729,-0.039978,0.021729,0.981247,0.021536,-0.010739,-0.000321,64.245285,20.710068,-147.135208,,,
729607089.578398,1.676607,1.892002,49.105414,-0.039978,0.021729,0.981247,0.021536,-0.010739,-0.000321,64.245285,20.710068,-147.135208,,,
729607089.581719,1.680278,1.889968,49.105613,-0.039978,0.021729,0.981247,0.015308,-0.00456,0.000168,64.227371,20.649399,-147.44429,,,
729607089.585123,1.680278,1.889968,49.105613,-0.03273,0.0233,0.982025,0.015308,-0.00456,0.000168,64.227371,20.649399,-147.44429,,,
729607089.588391,1.681309,1.889695,49.104857,-0.03273,0.0233,0.982025,0.015308,-0.00456,0.000168,64.227371,20.649399,-147.44429,,,
729607089.591787,1.683365,1.888809,49.103345,-0.031143,0.026062,0.981979,0.009777,-0.002569,-0.008604,64.227371,20.649399,-147.44429,,,
729607089.595069,1.683365,1.888809,49.103345,-0.031143,0.026062,0.981979,0.009777,-0.002569,-0.008604,64.227371,20.649399,-147.44429,,,
729607089.598451,1.684168,1.887765,49.100361,-0.031143,0.026062,0.981979,0.009777,-0.002569,-0.008604,64.227371,20.649399,-147.44429,,,
729607089.601716,1.684168,1.887765,49.100361,-0.031143,0.026062,0.981979,0.00516,0.004966,-0.016462,64.227371,20.649399,-147.44429,,,
729607089.605069,1.685388,1.888056,49.096113,-0.029861,0.02655,0.982254,0.00516,0.004966,-0.016462,64.227371,20.649399,-147.44429,,,
729607089.608397,1.685642,1.886694,49.091506,-0.029861,0.02655,0.982254,0.00516,0.004966,-0.016462,64.227371,20.649399,-147.44429,,,
729607089.611781,1.685642,1.888076,49.086741,-0.028885,0.025864,0.979385,1.3e-05,0.00613,-0.016736,64.227371,20.649399,-147.44429,,,
729607089.614903,1.685467,1.888076,49.086741,-0.028885,0.025864,0.979385,1.3e-05,0.00613,-0.016736,64.227371,20.649399,-147.44429,,,
729607089.618416,1.683292,1.889384,49.082041,-0.028885,0.025864,0.979385,1.3e-05,0.00613,-0.016736,64.227371,20.649399,-147.44429,,,
729607089.621775,1.683292,1.889384,49.077722,-0.028885,0.025864,0.979385,-0.012276,0.015132,-0.016019,64.185608,20.58345,-147.22261,,,
729607089.625049,1.680067,1.892894,49.077722,-0.028534,0.026367,0.978165,-0.012276,0.015132,-0.016019,64.185608,20.58345,-147.22261,,,
729607089.628402,1.675808,1.896817,49.073989,-0.028534,0.026367,0.978165,-0.012276,0.015132,-0.016019,64.185608,20.58345,-147.22261,,,
729607089.631721,1.675808,1.896817,49.073989,-0.028534,0.026367,0.978165,-0.012276,0.015132,-0.016019,64.185608,20.58345,-147.22261,,,
729607089.635138,1.671575,1.901324,49.070643,-0.032028,0.027222,0.97821,-0.013914,0.018446,-0.014126,64.185608,20.58345,-147.22261,,,
729607089.638421,1.6657,1.908639,49.067555,-0.032028,0.027222,0.97821,-0.013914,0.018446,-0.014126,64.185608,20.58345,-147.22261,,,
729607089.641762,1.6657,1.908639,49.067555,-0.032028,0.027222,0.97821,-0.013914,0.018446,-0.014126,64.185608,20.58345,-147.22261,,,
729607089.645072,1.659668,1.915491,49.064589,-0.031937,0.030136,0.982513,-0.021713,0.028952,-0.014065,64.185608,20.58345,-147.22261,,,
729607089.648389,1.651232,1.925532,49.061691,-0.031937,0.030136,0.982513,-0.021713,0.028952,-0.014065,64.185608,20.58345,-147.22261,,,
729607089.651731,1.651232,1.925532,49.061691,-0.031937,0.030136,0.982513,-0.021713,0.028952,-0.014065,64.185608,20.58345,-147.22261,,,
729607089.655069,1.643066,1.931893,49.05902,-0.032578,0.031403,0.982315,-0.029545,0.024055,-0.009145,64.185608,20.58345,-147.22261,,,
729607089.65839,1.633796,1.938491,49.056963,-0.032578,0.031403,0.982315,-0.029545,0.024055,-0.009145,64.185608,20.58345,-147.22261,,,
729607089.661793,1.633796,1.938491,49.056963,-0.032578,0.031403,0.982315,-0.029545,0.024055,-0.009145,64.473129,20.433884,-147.464554,,,
729607089.665057,1.624145,1.943333,49.055598,-0.037506,0.028229,0.986237,-0.034281,0.0191,-0.009307,64.473129,20.433884,-147.464554,,,
729607089.668397,1.613063,1.946764,49.054772,-0.037506,0.028229,0.986237,-0.034281,0.0191,-0.009307,64.473129,20.433884,-147.464554,,,
729607089.671797,1.613063,1.946764,49.054772,-0.037506,0.028229,0.986237,-0.034281,0.0191,-0.009307,64.473129,20.433884,-147.464554,,,
729607089.675078,1.602618,1.950258,49.054084,-0.040527,0.023315,0.993774,-0.03312,0.014128,-0.005704,64.473129,20.433884,-147.464554,,,
729607089.67839,1.593147,1.952603,49.053239,-0.040527,0.023315,0.993774,-0.03312,0.014128,-0.005704,64.473129,20.433884,-147.464554,,,
729607089.681728,1.593147,1.952603,49.053239,-0.040527,0.023315,0.993774,-0.03312,0.014128,-0.005704,64.473129,20.433884,-147.464554,,,
729607089.684913,1.585392,1.955686,49.052622,-0.039139,0.02536,1.00058,-0.028173,0.011588,-0.006572,64.473129,20.433884,-147.464554,,,
729607089.688419,1.578036,1.958457,49.051563,-0.039139,0.02536,1.00058,-0.028173,0.011588,-0.006572,64.473129,20.433884,-147.464554,,,
729607089.691722,1.578036,1.958457,49.051563,-0.039139,0.02536,1.00058,-0.028173,0.011588,-0.006572,64.473129,20.433884,-147.464554,,,
729607089.695064,1.570537,1.963604,49.050039,-0.033676,0.028641,1.005341,-0.022466,0.020215,-0.006809,64.473129,20.433884,-147.464554,,,
729607089.698389,1.562428,1.968153,49.048643,-0.033676,0.028641,1.005341,-0.022466,0.020215,-0.006809,64.473129,20.433884,-147.464554,,,
729607089.701739,1.562428,1.968153,49.048643,-0.033676,0.028641,1.005341,-0.022466,0.020215,-0.006809,64.473129,20.433884,-147.464554,,,
729607089.705068,1.553952,1.97546,49.047075,-0.03215,0.030594,1.004471,-0.026986,0.029907,-0.006657,64.459366,20.517807,-147.688309,,,
729607089.708449,1.544742,1.982241,49.046005,-0.03215,0.030594,1.004471,-0.026986,0.029907,-0.006657,64.459366,20.517807,-147.688309,,,
729607089.711763,1.544742,1.982241,49.046005,-0.03215,0.030594,1.004471,-0.026986,0.029907,-0.006657,64.459366,20.517807,-147.688309,,,
729607089.715055,1.534592,1.991218,49.045947,-0.033493,0.026733,1.000565,-0.033015,0.033081,-0.004495,64.459366,20.517807,-147.688309,,,
729607089.7184,1.52489,1.997548,49.04646,-0.033493,0.026733,1.000565,-0.033015,0.033081,-0.004495,64.459366,20.517807,-147.688309,,,
729607089.721788,1.52489,1.997548,49.04646,-0.033493,0.026733,1.000565,-0.033015,0.033081,-0.004495,64.459366,20.517807,-147.688309,,,
729607089.725067,1.514993,2.001559,49.046544,-0.037354,0.026825,1.00235,-0.034737,0.017169,0.000115,64.459366,20.517807,-147.688309,,,
729607089.728397,1.506818,2.001005,49.04685,-0.037354,0.026825,1.00235,-0.034737,0.017169,0.000115,64.459366,20.517807,-147.688309,,,
729607089.731778,1.506818,2.001005,49.04685,-0.037354,0.026825,1.00235,-0.034737,0.017169,0.000115,64.459366,20.517807,-147.688309,,,
729607089.735127,1.497909,1.998688,49.047333,-0.036072,0.028732,1.005646,-0.031281,-0.004321,-0.002774,64.459366,20.517807,-147.688309,,,
729607089.738408,1.489825,1.994771,49.047148,-0.036072,0.028732,1.005646,-0.031281,-0.004321,-0.002774,64.459366,20.517807,-147.688309,,,
729607089.741775,1.489825,1.994771,49.047148,-0.036072,0.028732,1.005646,-0.031281,-0.004321,-0.002774,64.459366,20.517807,-147.688309,,,
729607089.745059,1.480581,1.99072,49.045699,-0.032715,0.025543,1.011368,-0.031136,-0.011538,-0.008735,64.469406,20.486633,-147.650146,,,
729607089.748444,1.472201,1.989522,49.04272,-0.032715,0.025543,1.011368,-0.031136,-0.011538,-0.008735,64.469406,20.486633,-147.650146,,,
729607089.751756,1.472201,1.989522,49.04272,-0.032715,0.025543,1.011368,-0.031136,-0.011538,-0.008735,64.469406,20.486633,-147.650146,,,
729607089.755068,1.464641,1.98673,49.039167,-0.026611,0.025558,1.01712,-0.026225,-0.008776,-0.013939,64.469406,20.486633,-147.650146,,,
729607089.758405,1.458049,1.987718,49.035338,-0.026611,0.025558,1.01712,-0.026225,-0.008776,-0.013939,64.469406,20.486633,-147.650146,,,
729607089.761893,1.458049,1.987718,49.035338,-0.026611,0.025558,1.01712,-0.026225,-0.008776,-0.013939,64.469406,20.486633,-147.650146,,,
729607089.765059,1.453319,1.987146,49.031749,-0.028992,0.023056,1.023575,-0.01309,0.001327,-0.015031,64.469406,20.486633,-147.650146,,,
729607089.768407,1.450435,1.987833,49.028613,-0.028992,0.023056,1.023575,-0.01309,0.001327,-0.015031,64.469406,20.486633,-147.650146,,,
729607089.771739,1.450435,1.987833,49.028613,-0.028992,0.023056,1.023575,-0.01309,0.001327,-0.015031,64.469406,20.486633,-147.650146,,,
729607089.775126,1.449514,1.987993,49.026041,-0.032837,0.019562,1.023773,-0.002023,0.000751,-0.009431,64.469406,20.486633,-147.650146,,,
729607089.77839,1.451364,1.987005,49.024204,-0.032837,0.019562,1.023773,-0.002023,0.000751,-0.009431,64.469406,20.486633,-147.650146,,,
729607089.781734,1.451364,1.987005,49.024204,-0.032837,0.019562,1.023773,-0.002023,0.000751,-0.009431,64.469406,20.486633,-147.650146,,,
729607089.785078,1.453675,1.986535,49.022786,-0.032043,0.021423,1.017609,0.012112,0.001656,-0.009008,64.490829,20.492874,-147.630402,,,
729607089.788472,1.457539,1.985152,49.021315,-0.032043,0.021423,1.017609,0.012112,0.001656,-0.009008,64.490829,20.492874,-147.630402,,,
729607089.791724,1.457539,1.985152,49.021315,-0.032043,0.021423,1.017609,0.012112,0.001656,-0.009008,64.490829,20.492874,-147.630402,,,
729607089.795082,1.461134,1.986495,49.019487,-0.032043,0.022842,1.016815,0.01463,0.004865,-0.007333,64.490829,20.492874,-147.630402,,,
729607089.798398,1.465978,1.988761,49.017434,-0.032043,0.022842,1.016815,0.01463,0.004865,-0.007333,64.490829,20.492874,-147.630402,,,
729607089.801774,1.465978,1.988761,49.017434,-0.032043,0.022842,1.016815,0.01463,0.004865,-0.007333,64.490829,20.492874,-147.630402,,,
729607089.805073,1.472042,1.991173,49.015253,-0.031754,0.026306,1.01767,0.018959,0.011073,-0.008804,64.490829,20.492874,-147.630402,,,
729607089.808395,1.479832,1.994674,49.01252,-0.031754,0.026306,1.01767,0.018959,0.011073,-0.008804,64.490829,20.492874,-147.630402,,,
729607089.811726,1.479832,1.994674,49.01252,-0.031754,0.026306,1.01767,0.018959,0.011073,-0.008804,64.490829,20.492874,-147.630402,,,
729607089.815119,1.488073,1.997234,49.008886,-0.030838,0.029724,1.014557,0.030926,0.014229,-0.012127,64.490829,20.492874,-147.630402,,,
729607089.818389,1.497245,1.999469,49.004424,-0.030838,0.029724,1.014557,0.030926,0.014229,-0.012127,64.490829,20.492874,-147.630402,,,
729607089.821739,1.497245,1.999469,49.004424,-0.030838,0.029724,1.014557,0.030926,0.014229,-0.012127,64.490829,20.492874,-147.630402,,,
729607089.82506,1.505997,2.001018,48.999691,-0.032257,0.030762,1.008804,0.031252,0.00697,-0.016558,64.417053,20.443054,-147.548294,,,
729607089.828464,1.513054,1.999816,48.99504,-0.032257,0.030762,1.008804,0.031252,0.00697,-0.016558,64.417053,20.443054,-147.548294,,,
729607089.83173,1.513054,1.999816,48.99504,-0.032257,0.030762,1.008804,0.031252,0.00697,-0.016558,64.417053,20.443054,-147.548294,,,
729607089.835084,1.518998,1.998821,48.990577,-0.035721,0.030899,0.999557,0.02233,0.000399,-0.015236,64.417053,20.443054,-147.548294,,,
729607089.838396,1.523265,1.992196,48.986026,-0.035721,0.030899,0.999557,0.02233,0.000399,-0.015236,64.417053,20.443054,-147.548294,,,
729607089.841801,1.523265,1.992196,48.986026,-0.035721,0.030899,0.999557,0.02233,0.000399,-0.015236,64.417053,20.443054,-147.548294,,,
729607089.845106,1.52688,1.986584,48.980384,-0.036377,0.032166,0.993546,0.013036,-0.016198,-0.02042,64.417053,20.443054,-147.548294,,,
729607089.848405,1.528581,1.977161,48.973399,-0.036377,0.032166,0.993546,0.013036,-0.016198,-0.02042,64.417053,20.443054,-147.548294,,,
729607089.851743,1.528581,1.977161,48.973399,-0.036377,0.032166,0.993546,0.013036,-0.016198,-0.02042,64.417053,20.443054,-147.548294,,,
729607089.855128,1.530527,1.969543,48.965395,-0.036057,0.033127,0.994385,0.008818,-0.024007,-0.029746,64.417053,20.443054,-147.548294,,,
729607089.858391,1.531095,1.961303,48.956918,-0.036057,0.033127,0.994385,0.008818,-0.024007,-0.029746,64.417053,20.443054,-147.548294,,,
729607089.861744,1.531095,1.961303,48.956918,-0.036057,0.033127,0.994385,0.008818,-0.024007,-0.029746,64.417053,20.443054,-147.548294,,,
729607089.865061,1.533592,1.953977,48.948379,-0.041779,0.029968,1.001373,0.009131,-0.022724,-0.027825,64.417053,20.443054,-147.548294,,,
729607089.868445,1.535508,1.945973,48.940497,-0.041779,0.029968,1.001373,0.009131,-0.022724,-0.027825,64.291641,20.506332,-147.577118,,,
