Time (sec),Pitch (deg),Roll (deg),Yaw(deg),X-Acceleration (g),Y-Acceleration (g),Z-Acceleration (g),Pitch Rate (deg/sec),Roll Rate (deg/sec),Yaw Rate (deg/sec),Magnetic Field in X direction (uT),Magnetic Field in Y direction (uT),Magnetic Field in Z Direction (uT),Latitude (deg),Longitude (deg),Altitude (m)
729600637.737317,-1.57289,1.447209,-9.853997,-0.016464,-0.037369,0.994537,-0.01719,-0.006592,-0.017036,71.473343,13.300125,-150.662888,,,
729600637.740668,-1.577245,1.443783,-9.858955,-0.016464,-0.037369,0.994537,-0.01719,-0.006592,-0.017036,71.473343,13.300125,-150.662888,,,
729600637.743998,-1.577245,1.443783,-9.858955,-0.016464,-0.037369,0.994537,-0.01719,-0.006592,-0.017036,71.473343,13.300125,-150.662888,,,
729600637.747354,-1.579279,1.436304,-9.864971,-0.018417,-0.037888,1.000183,0.001029,-0.014771,-0.023423,71.473343,13.300125,-150.662888,,,
729600637.750688,-1.578802,1.430003,-9.871519,-0.018417,-0.037888,1.000183,0.001029,-0.014771,-0.023423,71.473343,13.300125,-150.662888,,,
729600637.754002,-1.578802,1.430003,-9.871519,-0.018417,-0.037888,1.000183,0.001029,-0.014771,-0.023423,71.473343,13.300125,-150.662888,,,
729600637.757322,-1.577029,1.419004,-9.878405,-0.022339,-0.039841,1.003082,0.01029,-0.024157,-0.024896,71.473343,13.300125,-150.662888,,,
729600637.760679,-1.574478,1.409986,-9.885536,-0.022339,-0.039841,1.003082,0.01029,-0.024157,-0.024896,71.473343,13.300125,-150.662888,,,
729600637.764018,-1.574478,1.409986,-9.885536,-0.022339,-0.039841,1.003082,0.01029,-0.024157,-0.024896,71.473343,13.300125,-150.662888,,,
729600637.76736,-1.573166,1.395855,-9.893342,-0.0271,-0.038193,0.998367,0.000823,-0.033392,-0.029117,71.473343,13.300125,-150.662888,,,
729600637.770762,-1.574328,1.38449,-9.901123,-0.0271,-0.038193,0.998367,0.000823,-0.033392,-0.029117,71.473343,13.300125,-150.662888,,,
729600637.773984,-1.574328,1.38449,-9.901123,-0.0271,-0.038193,0.998367,0.000823,-0.033392,-0.029117,71.420486,13.196091,-150.575333,,,
729600637.777499,-1.577772,1.367809,-9.909079,-0.025543,-0.033234,0.989929,-0.017514,-0.04091,-0.030005,71.420486,13.196091,-150.575333,,,
729600637.780625,-1.584367,1.355072,-9.917226,-0.025543,-0.033234,0.989929,-0.017514,-0.04091,-0.030005,71.420486,13.196091,-150.575333,,,
729600637.784081,-1.584367,1.355072,-9.917226,-0.025543,-0.033234,0.989929,-0.017514,-0.04091,-0.030005,71.420486,13.196091,-150.575333,,,
729600637.787361,-1.593341,1.339082,-9.926199,-0.026093,-0.030762,0.988861,-0.031917,-0.03757,-0.035398,71.420486,13.196091,-150.575333,,,
729600637.790662,-1.60322,1.32842,-9.935342,-0.026093,-0.030762,0.988861,-0.031917,-0.03757,-0.035398,71.420486,13.196091,-150.575333,,,
729600637.794053,-1.60322,1.32842,-9.935342,-0.026093,-0.030762,0.988861,-0.031917,-0.03757,-0.035398,71.420486,13.196091,-150.575333,,,
729600637.797332,-1.614407,1.31907,-9.944237,-0.027008,-0.031754,0.999008,-0.0315,-0.013406,-0.033238,71.420486,13.196091,-150.575333,,,
729600637.8007,-1.623357,1.315804,-9.952946,-0.027008,-0.031754,0.999008,-0.0315,-0.013406,-0.033238,71.420486,13.196091,-150.575333,,,
729600637.803973,-1.623357,1.315804,-9.952946,-0.027008,-0.031754,0.999008,-0.0315,-0.013406,-0.033238,71.420486,13.196091,-150.575333,,,
729600637.807428,-1.632179,1.315066,-9.961167,-0.025757,-0.038208,1.010529,-0.019712,0.011809,-0.029316,71.420486,13.196091,-150.575333,,,
729600637.810653,-1.636734,1.318722,-9.968329,-0.025757,-0.038208,1.010529,-0.019712,0.011809,-0.029316,71.420486,13.196091,-150.575333,,,
729600637.814023,-1.636734,1.318722,-9.968329,-0.025757,-0.038208,1.010529,-0.019712,0.011809,-0.029316,71.420486,13.196091,-150.575333,,,
729600637.817358,-1.6403,1.323699,-9.974215,-0.028992,-0.044632,1.016479,-0.00291,0.028541,-0.019863,71.322632,13.082413,-150.674301,,,
729600637.820697,-1.640422,1.330762,-9.97888,-0.028992,-0.044632,1.016479,-0.00291,0.028541,-0.019863,71.322632,13.082413,-150.674301,,,
729600637.824039,-1.640422,1.330762,-9.97888,-0.028992,-0.044632,1.016479,-0.00291,0.028541,-0.019863,71.322632,13.082413,-150.674301,,,
729600637.827318,-1.640567,1.336996,-9.982627,-0.033875,-0.043564,1.01387,0.007187,0.026949,-0.013092,71.322632,13.082413,-150.674301,,,
729600637.830649,-1.637685,1.342248,-9.986236,-0.033875,-0.043564,1.01387,0.007187,0.026949,-0.013092,71.322632,13.082413,-150.674301,,,
729600637.834064,-1.637685,1.342248,-9.986236,-0.033875,-0.043564,1.01387,0.007187,0.026949,-0.013092,71.322632,13.082413,-150.674301,,,
729600637.837339,-1.634438,1.344902,-9.99013,-0.035934,-0.037888,1.008987,0.022198,0.008183,-0.014756,71.322632,13.082413,-150.674301,,,
729600637.840655,-1.627678,1.344622,-9.994021,-0.035934,-0.037888,1.008987,0.022198,0.008183,-0.014756,71.322632,13.082413,-150.674301,,,
729600637.844018,-1.627678,1.344622,-9.994021,-0.035934,-0.037888,1.008987,0.022198,0.008183,-0.014756,71.322632,13.082413,-150.674301,,,
729600637.847336,-1.621585,1.341903,-9.99801,-0.037994,-0.032944,1.003189,0.026829,-0.012486,-0.01543,71.322632,13.082413,-150.674301,,,
729600637.850782,-1.614076,1.33584,-10.002165,-0.037994,-0.032944,1.003189,0.026829,-0.012486,-0.01543,71.322632,13.082413,-150.674301,,,
729600637.854041,-1.614076,1.33584,-10.002165,-0.037994,-0.032944,1.003189,0.026829,-0.012486,-0.01543,71.322632,13.082413,-150.674301,,,
729600637.857418,-1.606678,1.328071,-10.006622,-0.037003,-0.028885,1.000366,0.03147,-0.02682,-0.01751,71.300629,13.325104,-150.9543,,,
729600637.860728,-1.597693,1.318555,-10.011752,-0.037003,-0.028885,1.000366,0.03147,-0.02682,-0.01751,71.300629,13.325104,-150.9543,,,
729600637.863983,-1.597693,1.318555,-10.011752,-0.037003,-0.028885,1.000366,0.03147,-0.02682,-0.01751,71.300629,13.325104,-150.9543,,,
729600637.86739,-1.588817,1.308435,-10.017545,-0.032944,-0.022842,1.00238,0.03323,-0.035966,-0.022228,71.300629,13.325104,-150.9543,,,
729600637.870643,-1.580328,1.296915,-10.023386,-0.032944,-0.022842,1.00238,0.03323,-0.035966,-0.022228,71.300629,13.325104,-150.9543,,,
729600637.874036,-1.580328,1.296915,-10.023386,-0.032944,-0.022842,1.00238,0.03323,-0.035966,-0.022228,71.300629,13.325104,-150.9543,,,
729600637.877364,-1.574253,1.285885,-10.028578,-0.029953,-0.021164,0.999619,0.023692,-0.036228,-0.018038,71.300629,13.325104,-150.9543,,,
729600637.880663,-1.56829,1.274838,-10.033216,-0.029953,-0.021164,0.999619,0.023692,-0.036228,-0.018038,71.300629,13.325104,-150.9543,,,
729600637.884079,-1.56829,1.274838,-10.033216,-0.029953,-0.021164,0.999619,0.023692,-0.036228,-0.018038,71.300629,13.325104,-150.9543,,,
729600637.88749,-1.564724,1.264917,-10.037152,-0.02919,-0.021469,0.996902,0.021127,-0.032423,-0.013244,71.300629,13.325104,-150.9543,,,
729600637.890647,-1.558315,1.255622,-10.040159,-0.02919,-0.021469,0.996902,0.021127,-0.032423,-0.013244,71.300629,13.325104,-150.9543,,,
729600637.894024,-1.558315,1.255622,-10.040159,-0.02919,-0.021469,0.996902,0.021127,-0.032423,-0.013244,71.300629,13.325104,-150.9543,,,
729600637.897334,-1.552949,1.249612,-10.042319,-0.026184,-0.022003,1.004822,0.033281,-0.019441,-0.007392,71.293549,13.110458,-150.286575,,,
729600637.90072,-1.542404,1.243679,-10.044471,-0.026184,-0.022003,1.004822,0.033281,-0.019441,-0.007392,71.293549,13.110458,-150.286575,,,
729600637.903977,-1.542404,1.243679,-10.044471,-0.026184,-0.022003,1.004822,0.033281,-0.019441,-0.007392,71.293549,13.110458,-150.286575,,,
729600637.907313,-1.531792,1.241758,-10.047001,-0.021393,-0.020538,1.011169,0.049839,-0.006042,-0.010101,71.293549,13.110458,-150.286575,,,
729600637.910676,-1.516866,1.240762,-10.050087,-0.021393,-0.020538,1.011169,0.049839,-0.006042,-0.010101,71.293549,13.110458,-150.286575,,,
729600637.913997,-1.516866,1.240762,-10.050087,-0.021393,-0.020538,1.011169,0.049839,-0.006042,-0.010101,71.293549,13.110458,-150.286575,,,
729600637.917387,-1.502302,1.244662,-10.053664,-0.014236,-0.018539,1.009628,0.05698,0.011109,-0.013884,71.293549,13.110458,-150.286575,,,
729600637.920682,-1.485564,1.247752,-10.058233,-0.014236,-0.018539,1.009628,0.05698,0.011109,-0.013884,71.293549,13.110458,-150.286575,,,
729600637.924078,-1.485564,1.247752,-10.058233,-0.014236,-0.018539,1.009628,0.05698,0.011109,-0.013884,71.293549,13.110458,-150.286575,,,
729600637.927352,-1.46946,1.254951,-10.063597,-0.016815,-0.013794,1.00531,0.059611,0.020981,-0.019922,71.293549,13.110458,-150.286575,,,
729600637.930652,-1.453096,1.259655,-10.069693,-0.016815,-0.013794,1.00531,0.059611,0.020981,-0.019922,71.293549,13.110458,-150.286575,,,
729600637.934037,-1.453096,1.259655,-10.069693,-0.016815,-0.013794,1.00531,0.059611,0.020981,-0.019922,71.293549,13.110458,-150.286575,,,
729600637.937306,-1.437733,1.266705,-10.07543,-0.022781,-0.011581,0.996887,0.053679,0.021518,-0.017927,71.233383,12.951447,-150.675537,,,
729600637.940642,-1.423276,1.271009,-10.079748,-0.022781,-0.011581,0.996887,0.053679,0.021518,-0.017927,71.233383,12.951447,-150.675537,,,
729600637.943988,-1.423276,1.271009,-10.079748,-0.022781,-0.011581,0.996887,0.053679,0.021518,-0.017927,71.233383,12.951447,-150.675537,,,
729600637.947307,-1.409724,1.275401,-10.082905,-0.030106,-0.012543,0.992615,0.043562,0.012386,-0.010325,71.233383,12.951447,-150.675537,,,
729600637.950686,-1.3977,1.27711,-10.085318,-0.030106,-0.012543,0.992615,0.043562,0.012386,-0.010325,71.233383,12.951447,-150.675537,,,
729600637.954032,-1.3977,1.27711,-10.085318,-0.030106,-0.012543,0.992615,0.043562,0.012386,-0.010325,71.233383,12.951447,-150.675537,,,
729600637.95736,-1.385991,1.278786,-10.087327,-0.033463,-0.017487,0.990814,0.038082,0.003437,-0.007836,71.233383,12.951447,-150.675537,,,
729600637.960679,-1.375465,1.278696,-10.089204,-0.033463,-0.017487,0.990814,0.038082,0.003437,-0.007836,71.233383,12.951447,-150.675537,,,
729600637.964037,-1.375465,1.278696,-10.089204,-0.033463,-0.017487,0.990814,0.038082,0.003437,-0.007836,71.233383,12.951447,-150.675537,,,
729600637.967381,-1.364976,1.278725,-10.091162,-0.0298,-0.017746,0.990845,0.035447,-0.001918,-0.008607,71.233383,12.951447,-150.675537,,,
729600637.97071,-1.355376,1.276203,-10.093792,-0.0298,-0.017746,0.990845,0.035447,-0.001918,-0.008607,71.233383,12.951447,-150.675537,,,
729600637.974062,-1.355376,1.276203,-10.093792,-0.0298,-0.017746,0.990845,0.035447,-0.001918,-0.008607,71.233383,12.951447,-150.675537,,,
729600637.977428,-1.346091,1.272727,-10.096506,-0.029846,-0.017456,0.990524,0.030178,-0.011527,-0.009404,71.233383,12.951447,-150.675537,,,
729600637.98065,-1.337671,1.267165,-10.098808,-0.029846,-0.017456,0.990524,0.030178,-0.011527,-0.009404,71.006241,12.946686,-150.328094,,,
729600637.984059,-1.337671,1.267165,-10.098808,-0.029846,-0.017456,0.990524,0.030178,-0.011527,-0.009404,71.006241,12.946686,-150.328094,,,
729600637.987344,-1.329145,1.259253,-10.100493,-0.028671,-0.017059,0.991608,0.027791,-0.023433,-0.00499,71.006241,12.946686,-150.328094,,,
729600637.990659,-1.321288,1.251137,-10.100894,-0.028671,-0.017059,0.991608,0.027791,-0.023433,-0.00499,71.006241,12.946686,-150.328094,,,
729600637.994042,-1.321288,1.251137,-10.100894,-0.028671,-0.017059,0.991608,0.027791,-0.023433,-0.00499,71.006241,12.946686,-150.328094,,,
729600637.997342,-1.312395,1.241221,-10.1001,-0.028641,-0.018356,0.993225,0.02781,-0.026637,0.00353,71.006241,12.946686,-150.328094,,,
729600638.000734,-1.303777,1.233329,-10.098669,-0.028641,-0.018356,0.993225,0.02781,-0.026637,0.00353,71.006241,12.946686,-150.328094,,,
729600638.003993,-1.303777,1.233329,-10.098669,-0.028641,-0.018356,0.993225,0.02781,-0.026637,0.00353,71.006241,12.946686,-150.328094,,,
729600638.007354,-1.292493,1.226609,-10.096459,-0.024414,-0.021423,0.997986,0.035183,-0.016272,0.009186,71.006241,12.946686,-150.328094,,,
729600638.010658,-1.281617,1.222636,-10.093943,-0.024414,-0.021423,0.997986,0.035183,-0.016272,0.009186,71.006241,12.946686,-150.328094,,,
729600638.013979,-1.281617,1.222636,-10.093943,-0.024414,-0.021423,0.997986,0.035183,-0.016272,0.009186,71.006241,12.946686,-150.328094,,,
729600638.017437,-1.267032,1.221992,-10.091762,-0.019089,-0.021698,1.002121,0.049128,0.002077,0.007034,71.006241,12.946686,-150.328094,,,
729600638.020681,-1.252471,1.222996,-10.08971,-0.019089,-0.021698,1.002121,0.049128,0.002077,0.007034,71.016541,12.716003,-150.331573,,,
729600638.024063,-1.252471,1.222996,-10.08971,-0.019089,-0.021698,1.002121,0.049128,0.002077,0.007034,71.016541,12.716003,-150.331573,,,
729600638.02737,-1.236124,1.227731,-10.087908,-0.014847,-0.018707,1.001816,0.053583,0.015828,0.005139,71.016541,12.716003,-150.331573,,,
729600638.030657,-1.220442,1.231952,-10.085454,-0.014847,-0.018707,1.001816,0.053583,0.015828,0.005139,71.016541,12.716003,-150.331573,,,
729600638.034055,-1.220442,1.231952,-10.085454,-0.014847,-0.018707,1.001816,0.053583,0.015828,0.005139,71.016541,12.716003,-150.331573,,,
729600638.037409,-1.203953,1.238495,-10.081559,-0.021362,-0.018311,0.993927,0.055672,0.0193,0.015017,71.016541,12.716003,-150.331573,,,
729600638.040651,-1.188268,1.243579,-10.077085,-0.021362,-0.018311,0.993927,0.055672,0.0193,0.015017,71.016541,12.716003,-150.331573,,,
729600638.043982,-1.188268,1.243579,-10.077085,-0.021362,-0.018311,0.993927,0.055672,0.0193,0.015017,71.016541,12.716003,-150.331573,,,
729600638.047337,-1.172687,1.250752,-10.072369,-0.025833,-0.019501,0.992813,0.051772,0.024808,0.016444,71.016541,12.716003,-150.331573,,,
729600638.050692,-1.158459,1.257348,-10.067348,-0.025833,-0.019501,0.992813,0.051772,0.024808,0.016444,71.016541,12.716003,-150.331573,,,
729600638.054004,-1.158459,1.257348,-10.067348,-0.025833,-0.019501,0.992813,0.051772,0.024808,0.016444,71.016541,12.716003,-150.331573,,,
729600638.057356,-1.144622,1.265293,-10.062117,-0.022049,-0.018387,0.991196,0.044843,0.025135,0.017603,71.016541,12.716003,-150.331573,,,
729600638.060681,-1.132782,1.27089,-10.05671,-0.022049,-0.018387,0.991196,0.044843,0.025135,0.017603,70.972946,12.589722,-150.256271,,,
729600638.063978,-1.132782,1.27089,-10.05671,-0.022049,-0.018387,0.991196,0.044843,0.025135,0.017603,70.972946,12.589722,-150.256271,,,
729600638.06742,-1.122622,1.275653,-10.050506,-0.030685,-0.020096,0.98317,0.030798,0.011497,0.022643,70.972946,12.589722,-150.256271,,,
729600638.070652,-1.115296,1.276482,-10.043747,-0.030685,-0.020096,0.98317,0.030798,0.011497,0.022643,70.972946,12.589722,-150.256271,,,
729600638.074014,-1.115296,1.276482,-10.043747,-0.030685,-0.020096,0.98317,0.030798,0.011497,0.022643,70.972946,12.589722,-150.256271,,,
729600638.077338,-1.109746,1.275334,-10.036761,-0.034897,-0.016983,0.97963,0.018333,-0.007547,0.023887,70.972946,12.589722,-150.256271,,,
729600638.080638,-1.105886,1.271438,-10.029006,-0.034897,-0.016983,0.97963,0.018333,-0.007547,0.023887,70.972946,12.589722,-150.256271,,,
729600638.084036,-1.105886,1.271438,-10.029006,-0.034897,-0.016983,0.97963,0.018333,-0.007547,0.023887,70.972946,12.589722,-150.256271,,,
729600638.087374,-1.104615,1.265788,-10.019816,-0.037949,-0.017929,0.982483,0.002651,-0.019944,0.033558,70.972946,12.589722,-150.256271,,,
729600638.090643,-1.104049,1.258736,-10.008939,-0.037949,-0.017929,0.982483,0.002651,-0.019944,0.033558,70.972946,12.589722,-150.256271,,,
729600638.094065,-1.104049,1.258736,-10.008939,-0.037949,-0.017929,0.982483,0.002651,-0.019944,0.033558,70.972946,12.589722,-150.256271,,,
729600638.097409,-1.103992,1.249413,-9.996232,-0.042511,-0.028,0.991104,0.000706,-0.030041,0.046377,70.972946,12.589722,-150.256271,,,
729600638.100777,-1.103411,1.240587,-9.982176,-0.042511,-0.028,0.991104,0.000706,-0.030041,0.046377,70.836349,12.762985,-150.506454,,,
729600638.104025,-1.103411,1.240587,-9.982176,-0.042511,-0.028,0.991104,0.000706,-0.030041,0.046377,70.836349,12.762985,-150.506454,,,
729600638.107397,-1.101532,1.231671,-9.967685,-0.038025,-0.031448,0.998642,0.008038,-0.025554,0.049737,70.836349,12.762985,-150.506454,,,
729600638.11068,-1.098983,1.224115,-9.953342,-0.038025,-0.031448,0.998642,0.008038,-0.025554,0.049737,70.836349,12.762985,-150.506454,,,
729600638.114004,-1.098983,1.224115,-9.953342,-0.038025,-0.031448,0.998642,0.008038,-0.025554,0.049737,70.836349,12.762985,-150.506454,,,
729600638.117388,-1.096035,1.217205,-9.939539,-0.032639,-0.033234,1.005508,0.010032,-0.024665,0.045954,70.836349,12.762985,-150.506454,,,
729600638.121192,-1.093342,1.209154,-9.926267,-0.032639,-0.033234,1.005508,0.010032,-0.024665,0.045954,70.836349,12.762985,-150.506454,,,
729600638.123965,-1.093342,1.209154,-9.926267,-0.032639,-0.033234,1.005508,0.010032,-0.024665,0.045954,70.836349,12.762985,-150.506454,,,
729600638.127385,-1.090119,1.200607,-9.913779,-0.028763,-0.03212,1.001541,0.014609,-0.031869,0.040537,70.836349,12.762985,-150.506454,,,
729600638.130787,-1.085578,1.191269,-9.902311,-0.028763,-0.03212,1.001541,0.014609,-0.031869,0.040537,70.836349,12.762985,-150.506454,,,
729600638.134023,-1.085578,1.191269,-9.902311,-0.028763,-0.03212,1.001541,0.014609,-0.031869,0.040537,70.836349,12.762985,-150.506454,,,
729600638.137369,-1.079909,1.182903,-9.89163,-0.02652,-0.030975,1.005219,0.021967,-0.028502,0.035156,70.836349,12.762985,-150.506454,,,
729600638.140658,-1.072256,1.173852,-9.882062,-0.02652,-0.030975,1.005219,0.021967,-0.028502,0.035156,70.836349,12.762985,-150.506454,,,
729600638.144032,-1.072256,1.173852,-9.882062,-0.02652,-0.030975,1.005219,0.021967,-0.028502,0.035156,70.921097,12.709641,-150.430023,,,
729600638.147351,-1.061829,1.166548,-9.872882,-0.021744,-0.032806,1.011124,0.042472,-0.031187,0.032576,70.921097,12.709641,-150.430023,,,
729600638.150706,-1.049001,1.157002,-9.863806,-0.021744,-0.032806,1.011124,0.042472,-0.031187,0.032576,70.921097,12.709641,-150.430023,,,
729600638.15403,-1.049001,1.157002,-9.863806,-0.021744,-0.032806,1.011124,0.042472,-0.031187,0.032576,70.921097,12.709641,-150.430023,,,
729600638.157321,-1.034582,1.150074,-9.85503,-0.022552,-0.034302,1.010895,0.05085,-0.031002,0.030362,70.921097,12.709641,-150.430023,,,
729600638.160678,-1.019627,1.140558,-9.845249,-0.022552,-0.034302,1.010895,0.05085,-0.031002,0.030362,70.921097,12.709641,-150.430023,,,
729600638.163993,-1.019627,1.140558,-9.845249,-0.022552,-0.034302,1.010895,0.05085,-0.031002,0.030362,70.921097,12.709641,-150.430023,,,
729600638.167386,-1.006157,1.133553,-9.834244,-0.021927,-0.031815,1.004929,0.046685,-0.035189,0.038395,70.921097,12.709641,-150.430023,,,
729600638.170738,-0.994035,1.122624,-9.822561,-0.021927,-0.031815,1.004929,0.046685,-0.035189,0.038395,70.921097,12.709641,-150.430023,,,
729600638.174084,-0.994035,1.122624,-9.822561,-0.021927,-0.031815,1.004929,0.046685,-0.035189,0.038395,70.921097,12.709641,-150.430023,,,
729600638.177347,-0.986557,1.115886,-9.810123,-0.019577,-0.027206,0.990952,0.027356,-0.030973,0.042886,70.921097,12.709641,-150.430023,,,
729600638.180661,-0.980594,1.107231,-9.797869,-0.019577,-0.027206,0.990952,0.027356,-0.030973,0.042886,70.921097,12.709641,-150.430023,,,
729600638.184036,-0.980594,1.107231,-9.797869,-0.019577,-0.027206,0.990952,0.027356,-0.030973,0.042886,70.785538,12.531998,-150.034073,,,
729600638.187416,-0.980523,1.103191,-9.786071,-0.006943,-0.019989,0.986404,0.003528,-0.016967,0.038914,70.785538,12.531998,-150.034073,,,
729600638.190641,-0.98104,1.098709,-9.774998,-0.006943,-0.019989,0.986404,0.003528,-0.016967,0.038914,70.785538,12.531998,-150.034073,,,
729600638.194008,-0.98104,1.098709,-9.774998,-0.006943,-0.019989,0.986404,0.003528,-0.016967,0.038914,70.785538,12.531998,-150.034073,,,
729600638.197414,-0.987323,1.099225,-9.765298,-0.001175,-0.017609,0.990372,-0.018258,0.004355,0.028687,70.785538,12.531998,-150.034073,,,
729600638.200697,-0.993123,1.101651,-9.757121,-0.001175,-0.017609,0.990372,-0.018258,0.004355,0.028687,70.785538,12.531998,-150.034073,,,
729600638.203999,-0.993123,1.101651,-9.757121,-0.001175,-0.017609,0.990372,-0.018258,0.004355,0.028687,70.785538,12.531998,-150.034073,,,
729600638.207328,-1.002396,1.10909,-9.750599,0.002121,-0.016174,0.990082,-0.026905,0.029555,0.016817,70.785538,12.531998,-150.034073,,,
729600638.210644,-1.01102,1.118627,-9.745157,0.002121,-0.016174,0.990082,-0.026905,0.029555,0.016817,70.785538,12.531998,-150.034073,,,
729600638.213998,-1.01102,1.118627,-9.745157,0.002121,-0.016174,0.990082,-0.026905,0.029555,0.016817,70.785538,12.531998,-150.034073,,,
729600638.21738,-1.022674,1.131376,-9.739287,0.000748,-0.015625,0.991302,-0.032998,0.046091,0.019598,70.785538,12.531998,-150.034073,,,
729600638.220677,-1.031852,1.144253,-9.732513,0.000748,-0.015625,0.991302,-0.032998,0.046091,0.019598,70.785538,12.531998,-150.034073,,,
729600638.223976,-1.031852,1.144253,-9.732513,0.000748,-0.015625,0.991302,-0.032998,0.046091,0.019598,70.960236,12.507675,-150.34285,,,
729600638.227335,-1.042612,1.156698,-9.725235,-0.008835,-0.020233,0.990463,-0.026614,0.041686,0.023217,70.960236,12.507675,-150.34285,,,
729600638.230689,-1.049259,1.167639,-9.71812,-0.008835,-0.020233,0.990463,-0.026614,0.041686,0.023217,70.960236,12.507675,-150.34285,,,
729600638.234044,-1.049259,1.167639,-9.71812,-0.008835,-0.020233,0.990463,-0.026614,0.041686,0.023217,70.960236,12.507675,-150.34285,,,
729600638.237344,-1.055569,1.179337,-9.711711,-0.008621,-0.021042,0.990753,-0.007697,0.044684,0.018623,70.960236,12.507675,-150.34285,,,
729600638.240643,-1.055995,1.190904,-9.707315,-0.008621,-0.021042,0.990753,-0.007697,0.044684,0.018623,70.960236,12.507675,-150.34285,,,
729600638.244013,-1.055995,1.190904,-9.707315,-0.008621,-0.021042,0.990753,-0.007697,0.044684,0.018623,70.960236,12.507675,-150.34285,,,
729600638.247342,-1.054663,1.200944,-9.706096,-0.002747,-0.025192,1.003403,0.018642,0.033551,-0.002988,70.960236,12.507675,-150.34285,,,
729600638.250698,-1.047983,1.208074,-9.708714,-0.002747,-0.025192,1.003403,0.018642,0.033551,-0.002988,70.960236,12.507675,-150.34285,,,
729600638.25401,-1.047983,1.208074,-9.708714,-0.002747,-0.025192,1.003403,0.018642,0.033551,-0.002988,70.960236,12.507675,-150.34285,,,
729600638.25732,-1.039758,1.210818,-9.713796,-0.0,-0.024139,1.001511,0.037191,0.009535,-0.019679,70.960236,12.507675,-150.34285,,,
729600638.260695,-1.029473,1.210784,-9.720108,-0.0,-0.024139,1.001511,0.037191,0.009535,-0.019679,70.960236,12.507675,-150.34285,,,
729600638.264069,-1.029473,1.210784,-9.720108,-0.0,-0.024139,1.001511,0.037191,0.009535,-0.019679,70.960236,12.507675,-150.34285,,,
729600638.267325,-1.019787,1.205028,-9.727497,-0.010742,-0.019867,0.996048,0.033864,-0.01084,-0.026864,70.821259,12.39534,-150.379013,,,
729600638.270648,-1.010359,1.199872,-9.73465,-0.010742,-0.019867,0.996048,0.033864,-0.01084,-0.026864,70.821259,12.39534,-150.379013,,,
729600638.273976,-1.010359,1.199872,-9.73465,-0.010742,-0.019867,0.996048,0.033864,-0.01084,-0.026864,70.821259,12.39534,-150.379013,,,
729600638.277317,-1.001926,1.18904,-9.741082,-0.014252,-0.010727,0.991394,0.027042,-0.028296,-0.021616,70.821259,12.39534,-150.379013,,,
729600638.280724,-0.995155,1.179078,-9.746634,-0.014252,-0.010727,0.991394,0.027042,-0.028296,-0.021616,70.821259,12.39534,-150.379013,,,
729600638.284021,-0.995155,1.179078,-9.746634,-0.014252,-0.010727,0.991394,0.027042,-0.028296,-0.021616,70.821259,12.39534,-150.379013,,,
729600638.287357,-0.989293,1.16434,-9.752118,-0.008347,-0.007339,0.993607,0.018951,-0.035642,-0.020854,70.821259,12.39534,-150.379013,,,
729600638.290723,-0.984594,1.153957,-9.758474,-0.008347,-0.007339,0.993607,0.018951,-0.035642,-0.020854,70.821259,12.39534,-150.379013,,,
729600638.294008,-0.984594,1.153957,-9.758474,-0.008347,-0.007339,0.993607,0.018951,-0.035642,-0.020854,70.821259,12.39534,-150.379013,,,
729600638.29732,-0.980616,1.141924,-9.766326,-0.000305,-0.001068,0.993896,0.014592,-0.027969,-0.031012,70.821259,12.39534,-150.379013,,,
729600638.300741,-0.977377,1.134679,-9.775603,-0.000305,-0.001068,0.993896,0.014592,-0.027969,-0.031012,70.821259,12.39534,-150.379013,,,
729600638.304044,-0.977377,1.134679,-9.775603,-0.000305,-0.001068,0.993896,0.014592,-0.027969,-0.031012,70.821259,12.39534,-150.379013,,,
729600638.307384,-0.975858,1.128968,-9.786588,0.007751,0.005554,0.99881,0.006624,-0.005981,-0.042889,70.754211,12.455643,-150.441422,,,
729600638.310743,-0.974626,1.128054,-9.79896,0.007751,0.005554,0.99881,0.006624,-0.005981,-0.042889,70.754211,12.455643,-150.441422,,,
729600638.313987,-0.974626,1.128054,-9.79896,0.007751,0.005554,0.99881,0.006624,-0.005981,-0.042889,70.754211,12.455643,-150.441422,,,
729600638.317386,-0.974871,1.128262,-9.811774,0.007645,0.006516,0.998749,0.002856,0.015213,-0.045806,70.754211,12.455643,-150.441422,,,
729600638.320689,-0.975693,1.133054,-9.824291,0.007645,0.006516,0.998749,0.002856,0.015213,-0.045806,70.754211,12.455643,-150.441422,,,
729600638.323998,-0.975693,1.133054,-9.824291,0.007645,0.006516,0.998749,0.002856,0.015213,-0.045806,70.754211,12.455643,-150.441422,,,
729600638.327363,-0.978434,1.137198,-9.835995,0.000427,0.004318,0.9944,-0.002851,0.031762,-0.039939,70.754211,12.455643,-150.441422,,,
729600638.330659,-0.979622,1.146363,-9.846673,0.000427,0.004318,0.9944,-0.002851,0.031762,-0.039939,70.754211,12.455643,-150.441422,,,
729600638.334049,-0.979622,1.146363,-9.846673,0.000427,0.004318,0.9944,-0.002851,0.031762,-0.039939,70.754211,12.455643,-150.441422,,,
729600638.337345,-0.981379,1.155319,-9.857095,-0.006866,-0.000748,0.99617,-0.000357,0.049144,-0.037793,70.754211,12.455643,-150.441422,,,
729600638.340638,-0.980134,1.169141,-9.867377,-0.006866,-0.000748,0.99617,-0.000357,0.049144,-0.037793,70.754211,12.455643,-150.441422,,,
729600638.344,-0.980134,1.169141,-9.867377,-0.006866,-0.000748,0.99617,-0.000357,0.049144,-0.037793,70.754211,12.455643,-150.441422,,,
729600638.347324,-0.974906,1.183997,-9.877782,-0.010452,-0.004028,1.005997,0.026907,0.064225,-0.037938,70.852676,12.404282,-150.61116,,,
729600638.350715,-0.965088,1.201113,-9.889287,-0.010452,-0.004028,1.005997,0.026907,0.064225,-0.037938,70.852676,12.404282,-150.61116,,,
729600638.354022,-0.965088,1.201113,-9.889287,-0.010452,-0.004028,1.005997,0.026907,0.064225,-0.037938,70.852676,12.404282,-150.61116,,,
729600638.35732,-0.949394,1.215816,-9.901598,-0.010284,-0.006012,1.017578,0.059867,0.056315,-0.042632,70.852676,12.404282,-150.61116,,,
729600638.360725,-0.931344,1.23017,-9.91444,-0.010284,-0.006012,1.017578,0.059867,0.056315,-0.042632,70.852676,12.404282,-150.61116,,,
729600638.364073,-0.931344,1.23017,-9.91444,-0.010284,-0.006012,1.017578,0.059867,0.056315,-0.042632,70.852676,12.404282,-150.61116,,,
729600638.367178,-0.909516,1.238831,-9.928004,-0.019592,-0.012421,1.010742,0.074396,0.034956,-0.047049,70.852676,12.404282,-150.61116,,,
729600638.370666,-0.888411,1.244631,-9.941222,-0.019592,-0.012421,1.010742,0.074396,0.034956,-0.047049,70.852676,12.404282,-150.61116,,,
729600638.373991,-0.888411,1.244631,-9.941222,-0.019592,-0.012421,1.010742,0.074396,0.034956,-0.047049,70.852676,12.404282,-150.61116,,,
729600638.377317,-0.865418,1.241166,-9.953555,-0.033981,-0.012665,0.997482,0.06821,-0.002304,-0.040529,70.852676,12.404282,-150.61116,,,
729600638.380695,-0.848045,1.236806,-9.964183,-0.033981,-0.012665,0.997482,0.06821,-0.002304,-0.040529,70.852676,12.404282,-150.61116,,,
729600638.384017,-0.848045,1.236806,-9.964183,-0.033981,-0.012665,0.997482,0.06821,-0.002304,-0.040529,70.852676,12.404282,-150.61116,,,
729600638.387344,-0.831067,1.22316,-9.973401,-0.037384,-0.008957,0.984314,0.042531,-0.034567,-0.030783,70.949417,12.363953,-150.574554,,,
729600638.390736,-0.821203,1.211073,-9.981227,-0.037384,-0.008957,0.984314,0.042531,-0.034567,-0.030783,70.949417,12.363953,-150.574554,,,
729600638.393983,-0.821203,1.211073,-9.981227,-0.037384,-0.008957,0.984314,0.042531,-0.034567,-0.030783,70.949417,12.363953,-150.574554,,,
729600638.397319,-0.810987,1.193795,-9.988192,-0.037888,-0.00708,0.980927,0.022769,-0.042004,-0.024812,70.949417,12.363953,-150.574554,,,
729600638.400762,-0.804358,1.181444,-9.995489,-0.037888,-0.00708,0.980927,0.022769,-0.042004,-0.024812,70.949417,12.363953,-150.574554,,,
729600638.403972,-0.804358,1.181444,-9.995489,-0.037888,-0.00708,0.980927,0.022769,-0.042004,-0.024812,70.949417,12.363953,-150.574554,,,
729600638.40731,-0.794394,1.168296,-10.003195,-0.0271,-0.007889,0.996429,0.027425,-0.028028,-0.027291,70.949417,12.363953,-150.574554,,,
729600638.410688,-0.794394,1.161283,-10.010758,-0.0271,-0.007889,0.996429,0.027425,-0.028028,-0.027291,70.949417,12.363953,-150.574554,,,
729600638.413974,-0.786999,1.161283,-10.010758,-0.0271,-0.007889,0.996429,0.027425,-0.028028,-0.027291,70.949417,12.363953,-150.574554,,,
729600638.417352,-0.778226,1.156371,-10.017823,-0.023926,-0.013687,1.007019,0.024558,-0.001055,-0.023702,70.949417,12.363953,-150.574554,,,
729600638.420673,-0.771235,1.15616,-10.023371,-0.023926,-0.013687,1.007019,0.024558,-0.001055,-0.023702,70.949417,12.363953,-150.574554,,,
729600638.424021,-0.771235,1.15616,-10.023371,-0.023926,-0.013687,1.007019,0.024558,-0.001055,-0.023702,70.949417,12.363953,-150.574554,,,
729600638.42739,-0.763069,1.156336,-10.026962,-0.032303,-0.018509,1.00412,0.02263,0.012037,-0.009994,70.949417,12.363953,-150.574554,,,
729600638.430636,-0.763069,1.156336,-10.026962,-0.032303,-0.018509,1.00412,0.02263,0.012037,-0.009994,71.03717,12.136536,-150.413071,,,
729600638.434052,-0.757044,1.159082,-10.029109,-0.032303,-0.018509,1.00412,0.02263,0.012037,-0.009994,71.03717,12.136536,-150.413071,,,
729600638.437316,-0.751057,1.160348,-10.029261,-0.035263,-0.017197,0.997299,0.016176,0.011298,0.00393,71.03717,12.136536,-150.413071,,,
729600638.440666,-0.751057,1.160348,-10.029261,-0.035263,-0.017197,0.997299,0.016176,0.011298,0.00393,71.03717,12.136536,-150.413071,,,
729600638.44404,-0.746184,1.162495,-10.027234,-0.035263,-0.017197,0.997299,0.016176,0.011298,0.00393,71.03717,12.136536,-150.413071,,,
729600638.447333,-0.739031,1.164833,-10.024489,-0.037445,-0.018265,0.995865,0.031883,0.006344,0.009166,71.03717,12.136536,-150.413071,,,
729600638.450716,-0.739031,1.165737,-10.02224,-0.037445,-0.018265,0.995865,0.031883,0.006344,0.009166,71.03717,12.136536,-150.413071,,,
729600638.454023,-0.72888,1.165737,-10.02224,-0.037445,-0.018265,0.995865,0.031883,0.006344,0.009166,71.03717,12.136536,-150.413071,,,
729600638.457317,-0.715227,1.168105,-10.020856,-0.027527,-0.01976,1.002289,0.055615,0.000134,0.003454,71.03717,12.136536,-150.413071,,,
729600638.460792,-0.698029,1.167513,-10.02067,-0.027527,-0.01976,1.002289,0.055615,0.000134,0.003454,71.03717,12.136536,-150.413071,,,
729600638.46399,-0.698029,1.167513,-10.02067,-0.027527,-0.01976,1.002289,0.055615,0.000134,0.003454,71.03717,12.136536,-150.413071,,,
729600638.467372,-0.677552,1.169086,-10.022135,-0.0224,-0.021088,1.003586,0.074658,-0.004994,-0.007943,71.03717,12.136536,-150.413071,,,
729600638.470643,-0.677552,1.169086,-10.022135,-0.0224,-0.021088,1.003586,0.074658,-0.004994,-0.007943,70.915848,12.136261,-150.396301,,,
729600638.473995,-0.655621,1.165886,-10.025141,-0.0224,-0.021088,1.003586,0.074658,-0.004994,-0.007943,70.915848,12.136261,-150.396301,,,
729600638.477318,-0.632438,1.163423,-10.028289,-0.025055,-0.019913,0.995605,0.079406,-0.016862,-0.009035,70.915848,12.136261,-150.396301,,,
729600638.480637,-0.632438,1.163423,-10.028289,-0.025055,-0.019913,0.995605,0.079406,-0.016862,-0.009035,70.915848,12.136261,-150.396301,,,
729600638.484104,-0.610612,1.157306,-10.03085,-0.025055,-0.019913,0.995605,0.079406,-0.016862,-0.009035,70.915848,12.136261,-150.396301,,,
729600638.487369,-0.590997,1.151301,-10.032714,-0.029968,-0.013885,0.98526,0.062416,-0.019753,-0.00458,70.915848,12.136261,-150.396301,,,
729600638.490715,-0.590997,1.151301,-10.032714,-0.029968,-0.013885,0.98526,0.062416,-0.019753,-0.00458,70.915848,12.136261,-150.396301,,,
729600638.494023,-0.575114,1.144384,-10.033233,-0.029968,-0.013885,0.98526,0.062416,-0.019753,-0.00458,70.915848,12.136261,-150.396301,,,
729600638.497317,-0.564353,1.137583,-10.032559,-0.030685,-0.011871,0.979294,0.033284,-0.026603,0.003084,70.915848,12.136261,-150.396301,,,
729600638.500725,-0.564353,1.137583,-10.032559,-0.030685,-0.011871,0.979294,0.033284,-0.026603,0.003084,70.915848,12.136261,-150.396301,,,
729600638.503991,-0.556898,1.128688,-10.030544,-0.030685,-0.011871,0.979294,0.033284,-0.026603,0.003084,70.915848,12.136261,-150.396301,,,
729600638.507316,-0.554903,1.121527,-10.027868,-0.025803,-0.012039,0.972763,0.005115,-0.028872,0.006969,70.915848,12.136261,-150.396301,,,
729600638.510652,-0.554903,1.121527,-10.027868,-0.025803,-0.012039,0.972763,0.005115,-0.028872,0.006969,70.690094,12.063705,-150.238556,,,
729600638.514017,-0.555187,1.113858,-10.025333,-0.025803,-0.012039,0.972763,0.005115,-0.028872,0.006969,70.690094,12.063705,-150.238556,,,
729600638.517356,-0.559556,1.112211,-10.022603,-0.021515,-0.011276,0.977692,-0.015186,-0.005951,0.007774,70.690094,12.063705,-150.238556,,,
729600638.520719,-0.559556,1.112211,-10.022603,-0.021515,-0.011276,0.977692,-0.015186,-0.005951,0.007774,70.690094,12.063705,-150.238556,,,
729600638.524032,-0.565172,1.111654,-10.019325,-0.021515,-0.011276,0.977692,-0.015186,-0.005951,0.007774,70.690094,12.063705,-150.238556,,,
729600638.527336,-0.573517,1.116731,-10.015523,-0.019943,-0.015366,0.986206,-0.024885,0.017025,0.011072,70.690094,12.063705,-150.238556,,,
729600638.530693,-0.573517,1.116731,-10.015523,-0.019943,-0.015366,0.986206,-0.024885,0.017025,0.011072,70.690094,12.063705,-150.238556,,,
729600638.534055,-0.581622,1.12163,-10.011398,-0.019943,-0.015366,0.986206,-0.024885,0.017025,0.011072,70.690094,12.063705,-150.238556,,,
729600638.537297,-0.591279,1.128562,-10.006358,-0.017303,-0.017487,0.988373,-0.025175,0.02555,0.017346,70.690094,12.063705,-150.238556,,,
729600638.540655,-0.591279,1.128562,-10.006358,-0.017303,-0.017487,0.988373,-0.025175,0.02555,0.017346,70.690094,12.063705,-150.238556,,,
729600638.544042,-0.598036,1.135383,-10.00108,-0.017303,-0.017487,0.988373,-0.025175,0.02555,0.017346,70.690094,12.063705,-150.238556,,,
729600638.547293,-0.605638,1.143576,-9.996424,-0.013901,-0.01593,0.989853,-0.019449,0.032011,0.013089,70.690094,12.063705,-150.238556,,,
729600638.55068,-0.605638,1.143576,-9.996424,-0.013901,-0.01593,0.989853,-0.019449,0.032011,0.013089,70.848862,12.063782,-150.111435,,,
729600638.554006,-0.610556,1.151814,-9.992268,-0.013901,-0.01593,0.989853,-0.019449,0.032011,0.013089,70.848862,12.063782,-150.111435,,,
729600638.557307,-0.614851,1.160235,-9.989002,-0.013855,-0.017715,0.989548,-0.007607,0.025627,0.007038,70.848862,12.063782,-150.111435,,,
729600638.560745,-0.614851,1.160235,-9.989002,-0.013855,-0.017715,0.989548,-0.007607,0.025627,0.007038,70.848862,12.063782,-150.111435,,,
729600638.564003,-0.616471,1.165415,-9.986561,-0.013855,-0.017715,0.989548,-0.007607,0.025627,0.007038,70.848862,12.063782,-150.111435,,,
729600638.567378,-0.616981,1.169509,-9.984272,-0.01561,-0.016159,0.985992,0.002875,0.005991,0.006026,70.848862,12.063782,-150.111435,,,
729600638.570685,-0.616981,1.169509,-9.984272,-0.01561,-0.016159,0.985992,0.002875,0.005991,0.006026,70.848862,12.063782,-150.111435,,,
729600638.573988,-0.615758,1.169004,-9.982458,-0.01561,-0.016159,0.985992,0.002875,0.005991,0.006026,70.848862,12.063782,-150.111435,,,
729600638.577304,-0.614693,1.166327,-9.981078,-0.017792,-0.014008,0.988876,0.004144,-0.018877,0.002948,70.848862,12.063782,-150.111435,,,
729600638.580748,-0.614693,1.166327,-9.981078,-0.017792,-0.014008,0.988876,0.004144,-0.018877,0.002948,70.848862,12.063782,-150.111435,,,
729600638.584042,-0.614496,1.158415,-9.980043,-0.017792,-0.014008,0.988876,0.004144,-0.018877,0.002948,70.848862,12.063782,-150.111435,,,
729600638.587359,-0.616126,1.148183,-9.979494,-0.015961,-0.012756,0.984024,-0.007295,-0.03989,-0.000706,70.848862,12.063782,-150.111435,,,
729600638.590645,-0.616126,1.148183,-9.979494,-0.015961,-0.012756,0.984024,-0.007295,-0.03989,-0.000706,70.848862,12.063782,-150.111435,,,
729600638.594013,-0.619402,1.135196,-9.979345,-0.015961,-0.012756,0.984024,-0.007295,-0.03989,-0.000706,70.971451,12.06395,-150.384857,,,
729600638.597315,-0.624837,1.121038,-9.98019,-0.014771,-0.010651,0.986084,-0.021149,-0.049078,-0.007923,70.971451,12.06395,-150.384857,,,
729600638.600709,-0.624837,1.121038,-9.98019,-0.014771,-0.010651,0.986084,-0.021149,-0.049078,-0.007923,70.971451,12.06395,-150.384857,,,
729600638.604007,-0.632324,1.105919,-9.98212,-0.014771,-0.010651,0.986084,-0.021149,-0.049078,-0.007923,70.971451,12.06395,-150.384857,,,
729600638.607311,-0.642975,1.090509,-9.983952,-0.011383,-0.008224,0.990433,-0.038258,-0.05139,-0.007564,70.971451,12.06395,-150.384857,,,
729600638.610651,-0.642975,1.090509,-9.983952,-0.011383,-0.008224,0.990433,-0.038258,-0.05139,-0.007564,70.971451,12.06395,-150.384857,,,
729600638.61399,-0.655509,1.074845,-9.984585,-0.011383,-0.008224,0.990433,-0.038258,-0.05139,-0.007564,70.971451,12.06395,-150.384857,,,
729600638.61736,-0.670851,1.059115,-9.983688,-0.016373,-0.013535,0.989426,-0.053493,-0.049471,0.002882,70.971451,12.06395,-150.384857,,,
729600638.620733,-0.670851,1.059115,-9.983688,-0.016373,-0.013535,0.989426,-0.053493,-0.049471,0.002882,70.971451,12.06395,-150.384857,,,
729600638.624011,-0.686791,1.04488,-9.981891,-0.016373,-0.013535,0.989426,-0.053493,-0.049471,0.002882,70.971451,12.06395,-150.384857,,,
729600638.627343,-0.70443,1.032647,-9.979032,-0.015808,-0.015366,0.995392,-0.061658,-0.032254,0.010211,70.971451,12.06395,-150.384857,,,
729600638.630655,-0.70443,1.032647,-9.979032,-0.015808,-0.015366,0.995392,-0.061658,-0.032254,0.010211,70.971451,12.06395,-150.384857,,,
729600638.634066,-0.722676,1.02391,-9.974928,-0.015808,-0.015366,0.995392,-0.061658,-0.032254,0.010211,70.782593,12.255203,-150.616516,,,
729600638.637311,-0.74115,1.016744,-9.970674,-0.01358,-0.015381,1.003189,-0.059446,-0.018596,0.011308,70.782593,12.255203,-150.616516,,,
729600638.64066,-0.74115,1.016744,-9.970674,-0.01358,-0.015381,1.003189,-0.059446,-0.018596,0.011308,70.782593,12.255203,-150.616516,,,
729600638.643993,-0.758739,1.011367,-9.966121,-0.01358,-0.015381,1.003189,-0.059446,-0.018596,0.011308,70.782593,12.255203,-150.616516,,,
729600638.647402,-0.77699,1.00683,-9.96122,-0.011719,-0.016373,1.002167,-0.062079,-0.011972,0.013744,70.782593,12.255203,-150.616516,,,
729600638.650724,-0.77699,1.00683,-9.96122,-0.011719,-0.016373,1.002167,-0.062079,-0.011972,0.013744,70.782593,12.255203,-150.616516,,,
729600638.654003,-0.7946,1.002128,-9.957174,-0.011719,-0.016373,1.002167,-0.062079,-0.011972,0.013744,70.782593,12.255203,-150.616516,,,
729600638.657315,-0.810719,0.996934,-9.954793,-0.010269,-0.015228,1.004684,-0.052091,-0.01478,0.002319,70.782593,12.255203,-150.616516,,,
729600638.66068,-0.810719,0.996934,-9.954793,-0.010269,-0.015228,1.004684,-0.052091,-0.01478,0.002319,70.782593,12.255203,-150.616516,,,
729600638.663991,-0.823395,0.992205,-9.954681,-0.010269,-0.015228,1.004684,-0.052091,-0.01478,0.002319,70.782593,12.255203,-150.616516,,,
729600638.667368,-0.831232,0.988713,-9.95661,-0.003571,-0.016708,1.016434,-0.020005,-0.004838,-0.011338,70.782593,12.255203,-150.616516,,,
729600638.670642,-0.831232,0.988713,-9.95661,-0.003571,-0.016708,1.016434,-0.020005,-0.004838,-0.011338,70.782593,12.255203,-150.616516,,,
729600638.673984,-0.834802,0.98652,-9.960583,-0.003571,-0.016708,1.016434,-0.020005,-0.004838,-0.011338,70.567932,12.339996,-150.684814,,,
729600638.677318,-0.832863,0.983718,-9.96626,-0.001312,-0.018661,1.026169,0.01188,-0.004515,-0.022659,70.567932,12.339996,-150.684814,,,
729600638.680698,-0.832863,0.983718,-9.96626,-0.001312,-0.018661,1.026169,0.01188,-0.004515,-0.022659,70.567932,12.339996,-150.684814,,,
729600638.684053,-0.828475,0.980915,-9.972044,-0.001312,-0.018661,1.026169,0.01188,-0.004515,-0.022659,70.567932,12.339996,-150.684814,,,
729600638.687443,-0.820606,0.976753,-9.977512,-0.009064,-0.019989,1.022095,0.031919,-0.010498,-0.020052,70.567932,12.339996,-150.684814,,,
729600638.690653,-0.820606,0.976753,-9.977512,-0.009064,-0.019989,1.022095,0.031919,-0.010498,-0.020052,70.567932,12.339996,-150.684814,,,
729600638.693995,-0.811656,0.972061,-9.983364,-0.009064,-0.019989,1.022095,0.031919,-0.010498,-0.020052,70.567932,12.339996,-150.684814,,,
729600638.697341,-0.802976,0.966759,-9.989193,-0.014221,-0.01535,1.013626,0.030231,-0.014833,-0.019967,70.567932,12.339996,-150.684814,,,
729600638.700723,-0.802976,0.966759,-9.989193,-0.014221,-0.01535,1.013626,0.030231,-0.014833,-0.019967,70.567932,12.339996,-150.684814,,,
729600638.703991,-0.795443,0.96081,-9.994402,-0.014221,-0.01535,1.013626,0.030231,-0.014833,-0.019967,70.567932,12.339996,-150.684814,,,
729600638.707309,-0.790484,0.953561,-9.999429,-0.016403,-0.011642,0.999649,0.013815,-0.021688,-0.018937,70.567932,12.339996,-150.684814,,,
729600638.71064,-0.790484,0.953561,-9.999429,-0.016403,-0.011642,0.999649,0.013815,-0.021688,-0.018937,70.567932,12.339996,-150.684814,,,
729600638.713974,-0.787934,0.945997,-10.004617,-0.016403,-0.011642,0.999649,0.013815,-0.021688,-0.018937,70.689774,12.141663,-150.476044,,,
729600638.717349,-0.787836,0.936849,-10.009555,-0.016968,-0.010498,0.99295,-0.001691,-0.02866,-0.017408,70.689774,12.141663,-150.476044,,,
729600638.720632,-0.787836,0.936849,-10.009555,-0.016968,-0.010498,0.99295,-0.001691,-0.02866,-0.017408,70.689774,12.141663,-150.476044,,,
729600638.723999,-0.788577,0.927701,-10.014519,-0.016968,-0.010498,0.99295,-0.001691,-0.02866,-0.017408,70.689774,12.141663,-150.476044,,,
729600638.727303,-0.789298,0.919062,-10.020743,-0.017044,-0.009857,0.99559,0.000181,-0.019815,-0.026067,70.689774,12.141663,-150.476044,,,
729600638.730683,-0.789298,0.919062,-10.020743,-0.017044,-0.009857,0.99559,0.000181,-0.019815,-0.026067,70.689774,12.141663,-150.476044,,,
729600638.734059,-0.7898,0.91335,-10.027734,-0.017044,-0.009857,0.99559,0.000181,-0.019815,-0.026067,70.689774,12.141663,-150.476044,,,
729600638.73732,-0.790315,0.908512,-10.034842,-0.01503,-0.008698,1.001968,0.002206,-0.005116,-0.026761,70.689774,12.141663,-150.476044,,,
729600638.740661,-0.790315,0.908512,-10.034842,-0.01503,-0.008698,1.001968,0.002206,-0.005116,-0.026761,70.689774,12.141663,-150.476044,,,
729600638.744079,-0.789817,0.906464,-10.042195,-0.01503,-0.008698,1.001968,0.002206,-0.005116,-0.026761,70.689774,12.141663,-150.476044,,,
729600638.747298,-0.788464,0.903386,-10.049062,-0.017609,-0.011993,1.001434,0.010569,0.003463,-0.022972,70.689774,12.141663,-150.476044,,,
729600638.750709,-0.788464,0.903386,-10.049062,-0.017609,-0.011993,1.001434,0.010569,0.003463,-0.022972,70.689774,12.141663,-150.476044,,,
729600638.753979,-0.78509,0.903841,-10.055157,-0.017609,-0.011993,1.001434,0.010569,0.003463,-0.022972,70.689774,12.141663,-150.476044,,,
729600638.757309,-0.780529,0.903442,-10.060987,-0.022324,-0.013962,1.003799,0.024308,0.010134,-0.020698,70.634521,12.364441,-150.816849,,,
729600638.760646,-0.780529,0.903442,-10.060987,-0.022324,-0.013962,1.003799,0.024308,0.010134,-0.020698,70.634521,12.364441,-150.816849,,,
729600638.76399,-0.772784,0.906638,-10.066377,-0.022324,-0.013962,1.003799,0.024308,0.010134,-0.020698,70.634521,12.364441,-150.816849,,,
729600638.767357,-0.763538,0.911545,-10.071376,-0.022079,-0.016312,1.006378,0.040173,0.026549,-0.017654,70.634521,12.364441,-150.816849,,,
729600638.770633,-0.763538,0.911545,-10.071376,-0.022079,-0.016312,1.006378,0.040173,0.026549,-0.017654,70.634521,12.364441,-150.816849,,,
729600638.773992,-0.750855,0.917865,-10.075702,-0.022079,-0.016312,1.006378,0.040173,0.026549,-0.017654,70.634521,12.364441,-150.816849,,,
729600638.77732,-0.735401,0.923426,-10.079905,-0.022079,-0.022217,1.009903,0.06027,0.022489,-0.01648,70.634521,12.364441,-150.816849,,,
729600638.780703,-0.735401,0.923426,-10.079905,-0.022079,-0.022217,1.009903,0.06027,0.022489,-0.01648,70.634521,12.364441,-150.816849,,,
729600638.784033,-0.718014,0.928026,-10.084421,-0.022079,-0.022217,1.009903,0.06027,0.022489,-0.01648,70.634521,12.364441,-150.816849,,,
729600638.787303,-0.700577,0.931127,-10.089325,-0.024811,-0.017776,1.00174,0.059324,0.010339,-0.019251,70.634521,12.364441,-150.816849,,,
729600638.790659,-0.700577,0.931127,-10.089325,-0.024811,-0.017776,1.00174,0.059324,0.010339,-0.019251,70.634521,12.364441,-150.816849,,,
729600638.794011,-0.684835,0.931908,-10.09459,-0.024811,-0.017776,1.00174,0.059324,0.010339,-0.019251,70.634521,12.364441,-150.816849,,,
729600638.797302,-0.67088,0.930423,-10.099124,-0.031235,-0.015015,0.98674,0.04469,-0.006127,-0.014443,70.655685,12.050659,-150.417999,,,
729600638.800749,-0.67088,0.930423,-10.099124,-0.031235,-0.015015,0.98674,0.04469,-0.006127,-0.014443,70.655685,12.050659,-150.417999,,,
729600638.804036,-0.659278,0.926318,-10.102972,-0.031235,-0.015015,0.98674,0.04469,-0.006127,-0.014443,70.655685,12.050659,-150.417999,,,
729600638.807297,-0.649747,0.919757,-10.10657,-0.028671,-0.011734,0.981384,0.028895,-0.023599,-0.012938,70.655685,12.050659,-150.417999,,,
729600638.810655,-0.649747,0.919757,-10.10657,-0.028671,-0.011734,0.981384,0.028895,-0.023599,-0.012938,70.655685,12.050659,-150.417999,,,
729600638.813989,-0.642686,0.911857,-10.10995,-0.028671,-0.011734,0.981384,0.028895,-0.023599,-0.012938,70.655685,12.050659,-150.417999,,,
729600638.817349,-0.637903,0.903286,-10.112754,-0.027527,-0.010132,0.982971,0.01085,-0.027311,-0.009242,70.655685,12.050659,-150.417999,,,
729600638.820635,-0.637903,0.903286,-10.112754,-0.027527,-0.010132,0.982971,0.01085,-0.027311,-0.009242,70.655685,12.050659,-150.417999,,,
729600638.823993,-0.636294,0.893805,-10.114595,-0.027527,-0.010132,0.982971,0.01085,-0.027311,-0.009242,70.655685,12.050659,-150.417999,,,
729600638.827308,-0.637239,0.884403,-10.114906,-0.028763,-0.011566,0.981384,-0.005081,-0.03205,0.001137,70.655685,12.050659,-150.417999,,,
729600638.830639,-0.637239,0.884403,-10.114906,-0.028763,-0.011566,0.981384,-0.005081,-0.03205,0.001137,70.655685,12.050659,-150.417999,,,
729600638.834036,-0.639577,0.874475,-10.114117,-0.028763,-0.011566,0.981384,-0.005081,-0.03205,0.001137,70.655685,12.050659,-150.417999,,,
729600638.837299,-0.643207,0.866617,-10.112529,-0.026718,-0.009338,0.988327,-0.011314,-0.024121,0.006547,70.52153,11.922928,-150.607391,,,
729600638.840643,-0.643207,0.866617,-10.112529,-0.026718,-0.009338,0.988327,-0.011314,-0.024121,0.006547,70.52153,11.922928,-150.607391,,,
729600638.843991,-0.646571,0.859174,-10.110322,-0.026718,-0.009338,0.988327,-0.011314,-0.024121,0.006547,70.52153,11.922928,-150.607391,,,
729600638.847399,-0.650794,0.853912,-10.10805,-0.017456,-0.01004,0.997879,-0.009073,-0.016132,0.006971,70.52153,11.922928,-150.607391,,,
729600638.850696,-0.650794,0.853912,-10.10805,-0.017456,-0.01004,0.997879,-0.009073,-0.016132,0.006971,70.52153,11.922928,-150.607391,,,
729600638.854072,-0.65331,0.849617,-10.105679,-0.017456,-0.01004,0.997879,-0.009073,-0.016132,0.006971,70.52153,11.922928,-150.607391,,,
729600638.857302,-0.656765,0.848344,-10.10346,-0.01297,-0.008667,0.999847,-0.005478,-0.002756,0.005919,70.52153,11.922928,-150.607391,,,
729600638.860655,-0.656765,0.848344,-10.10346,-0.01297,-0.008667,0.999847,-0.005478,-0.002756,0.005919,70.52153,11.922928,-150.607391,,,
729600638.863986,-0.657989,0.847482,-10.101864,-0.01297,-0.008667,0.999847,-0.005478,-0.002756,0.005919,70.52153,11.922928,-150.607391,,,
729600638.867348,-0.659484,0.850225,-10.100764,-0.010559,-0.009903,1.000473,-0.002065,0.007664,0.002318,70.52153,11.922928,-150.607391,,,
729600638.870674,-0.659484,0.850225,-10.100764,-0.010559,-0.009903,1.000473,-0.002065,0.007664,0.002318,70.52153,11.922928,-150.607391,,,
729600638.873984,-0.658777,0.851147,-10.100169,-0.010559,-0.009903,1.000473,-0.002065,0.007664,0.002318,70.52153,11.922928,-150.607391,,,
729600638.877311,-0.655637,0.85477,-10.100544,-0.008286,-0.010788,1.000641,0.017842,0.009161,-0.004359,70.494675,11.78833,-150.599854,,,
729600638.880724,-0.655637,0.85477,-10.100544,-0.008286,-0.010788,1.000641,0.017842,0.009161,-0.004359,70.494675,11.78833,-150.599854,,,
729600638.884047,-0.649422,0.856454,-10.101886,-0.008286,-0.010788,1.000641,0.017842,0.009161,-0.004359,70.494675,11.78833,-150.599854,,,
729600638.887309,-0.641067,0.860388,-10.103973,-0.007996,-0.01152,1.004242,0.031663,0.010649,-0.009453,70.494675,11.78833,-150.599854,,,
729600638.890656,-0.641067,0.860388,-10.103973,-0.007996,-0.01152,1.004242,0.031663,0.010649,-0.009453,70.494675,11.78833,-150.599854,,,
729600638.894042,-0.631465,0.862283,-10.106761,-0.007996,-0.01152,1.004242,0.031663,0.010649,-0.009453,70.494675,11.78833,-150.599854,,,
729600638.897306,-0.62093,0.865572,-10.110078,-0.007751,-0.009979,1.001617,0.038166,0.005462,-0.013184,70.494675,11.78833,-150.599854,,,
729600638.90069,-0.62093,0.865572,-10.110078,-0.007751,-0.009979,1.001617,0.038166,0.005462,-0.013184,70.494675,11.78833,-150.599854,,,
729600638.903975,-0.610976,0.864875,-10.113729,-0.007751,-0.009979,1.001617,0.038166,0.005462,-0.013184,70.494675,11.78833,-150.599854,,,
729600638.907314,-0.602976,0.86438,-10.117419,-0.014267,-0.008667,0.992966,0.024501,-0.008758,-0.013842,70.494675,11.78833,-150.599854,,,
729600638.910642,-0.602976,0.86438,-10.117419,-0.014267,-0.008667,0.992966,0.024501,-0.008758,-0.013842,70.494675,11.78833,-150.599854,,,
729600638.913999,-0.597508,0.86027,-10.120449,-0.014267,-0.008667,0.992966,0.024501,-0.008758,-0.013842,70.494675,11.78833,-150.599854,,,
729600638.917351,-0.594941,0.856285,-10.12263,-0.019684,-0.004669,0.984177,0.003429,-0.017616,-0.008351,70.494675,11.78833,-150.599854,,,
729600638.920639,-0.594941,0.856285,-10.12263,-0.019684,-0.004669,0.984177,0.003429,-0.017616,-0.008351,70.755905,11.582703,-150.56076,,,
729600638.923972,-0.595886,0.849321,-10.123857,-0.019684,-0.004669,0.984177,0.003429,-0.017616,-0.008351,70.755905,11.582703,-150.56076,,,
729600638.927313,-0.599769,0.84105,-10.124231,-0.020905,-0.006393,0.982376,-0.01811,-0.026461,-0.002721,70.755905,11.582703,-150.56076,,,
729600638.930713,-0.599769,0.84105,-10.124231,-0.020905,-0.006393,0.982376,-0.01811,-0.026461,-0.002721,70.755905,11.582703,-150.56076,,,
729600638.934034,-0.606085,0.832417,-10.123929,-0.020905,-0.006393,0.982376,-0.01811,-0.026461,-0.002721,70.755905,11.582703,-150.56076,,,
729600638.937299,-0.613862,0.823187,-10.122871,-0.017715,-0.006454,0.986557,-0.030196,-0.028615,0.002423,70.755905,11.582703,-150.56076,,,
729600638.940651,-0.613862,0.823187,-10.122871,-0.017715,-0.006454,0.986557,-0.030196,-0.028615,0.002423,70.755905,11.582703,-150.56076,,,
729600638.943981,-0.622379,0.81473,-10.121325,-0.017715,-0.006454,0.986557,-0.030196,-0.028615,0.002423,70.755905,11.582703,-150.56076,,,
729600638.947312,-0.629168,0.807227,-10.119536,-0.014008,-0.007294,0.993118,-0.019593,-0.016165,0.004369,70.755905,11.582703,-150.56076,,,
729600638.95069,-0.629168,0.807227,-10.119536,-0.014008,-0.007294,0.993118,-0.019593,-0.016165,0.004369,70.755905,11.582703,-150.56076,,,
729600638.953978,-0.633902,0.802885,-10.117712,-0.014008,-0.007294,0.993118,-0.019593,-0.016165,0.004369,70.755905,11.582703,-150.56076,,,
729600638.957303,-0.636112,0.800356,-10.116089,-0.007523,-0.010376,1.005402,-0.001922,0.002133,0.00329,70.755905,11.582703,-150.56076,,,
729600638.960633,-0.636112,0.800356,-10.116089,-0.007523,-0.010376,1.005402,-0.001922,0.002133,0.00329,70.596069,11.786804,-150.433838,,,
729600638.964052,-0.635052,0.801211,-10.114625,-0.007523,-0.010376,1.005402,-0.001922,0.002133,0.00329,70.596069,11.786804,-150.433838,,,
729600638.967349,-0.631339,0.802848,-10.113542,-0.004654,-0.00972,1.009964,0.016253,0.016191,0.000929,70.596069,11.786804,-150.433838,,,
729600638.970708,-0.631339,0.802848,-10.113542,-0.004654,-0.00972,1.009964,0.016253,0.016191,0.000929,70.596069,11.786804,-150.433838,,,
729600638.973986,-0.626454,0.80635,-10.11302,-0.004654,-0.00972,1.009964,0.016253,0.016191,0.000929,70.596069,11.786804,-150.433838,,,
729600638.97731,-0.620484,0.808266,-10.112788,-0.008224,-0.006409,1.00502,0.022286,0.00967,-0.000939,70.596069,11.786804,-150.433838,,,
729600638.980656,-0.620484,0.808266,-10.112788,-0.008224,-0.006409,1.00502,0.022286,0.00967,-0.000939,70.596069,11.786804,-150.433838,,,
729600638.98408,-0.613779,0.809696,-10.11287,-0.008224,-0.006409,1.00502,0.022286,0.00967,-0.000939,70.596069,11.786804,-150.433838,,,
729600638.987307,-0.606115,0.809706,-10.113266,-0.011444,-0.004959,0.997849,0.025796,-0.002496,-0.003076,70.596069,11.786804,-150.433838,,,
729600638.990657,-0.606115,0.809706,-10.113266,-0.011444,-0.004959,0.997849,0.025796,-0.002496,-0.003076,70.596069,11.786804,-150.433838,,,
729600638.994076,-0.59946,0.807085,-10.113812,-0.011444,-0.004959,0.997849,0.025796,-0.002496,-0.003076,70.596069,11.786804,-150.433838,,,
729600638.997309,-0.592555,0.803886,-10.114473,-0.01355,-0.004974,0.990646,0.020635,-0.014579,-0.004062,70.596069,11.786804,-150.433838,,,
729600639.000707,-0.592555,0.803886,-10.114473,-0.01355,-0.004974,0.990646,0.020635,-0.014579,-0.004062,70.686356,11.783539,-150.363129,,,
729600639.003985,-0.588201,0.79808,-10.114815,-0.01355,-0.004974,0.990646,0.020635,-0.014579,-0.004062,70.686356,11.783539,-150.363129,,,
729600639.007353,-0.585959,0.792592,-10.114672,-0.017303,-0.005371,0.98671,0.002489,-0.017879,-0.000997,70.686356,11.783539,-150.363129,,,
729600639.010669,-0.585959,0.792592,-10.114672,-0.017303,-0.005371,0.98671,0.002489,-0.017879,-0.000997,70.686356,11.783539,-150.363129,,,
729600639.013979,-0.586918,0.786787,-10.114688,-0.017303,-0.005371,0.98671,0.002489,-0.017879,-0.000997,70.686356,11.783539,-150.363129,,,
729600639.01737,-0.589037,0.782472,-10.114845,-0.014053,-0.006332,0.990143,-0.009126,-0.010364,-0.002162,70.686356,11.783539,-150.363129,,,
729600639.020634,-0.589037,0.782472,-10.114845,-0.014053,-0.006332,0.990143,-0.009126,-0.010364,-0.002162,70.686356,11.783539,-150.363129,,,
729600639.023985,-0.591884,0.779372,-10.114948,-0.014053,-0.006332,0.990143,-0.009126,-0.010364,-0.002162,70.686356,11.783539,-150.363129,,,
729600639.027305,-0.594255,0.778631,-10.115279,-0.009659,-0.005905,0.996033,-0.008172,0.007387,-0.00373,70.686356,11.783539,-150.363129,,,
729600639.03064,-0.594255,0.778631,-10.115279,-0.009659,-0.005905,0.996033,-0.008172,0.007387,-0.00373,70.686356,11.783539,-150.363129,,,
729600639.034038,-0.596691,0.780941,-10.115668,-0.009659,-0.005905,0.996033,-0.008172,0.007387,-0.00373,70.686356,11.783539,-150.363129,,,
729600639.037302,-0.598741,0.784598,-10.11543,-0.015121,-0.011841,1.002274,-0.005699,0.0257,0.000807,70.686356,11.783539,-150.363129,,,
729600639.040732,-0.598741,0.784598,-10.11543,-0.015121,-0.011841,1.002274,-0.005699,0.0257,0.000807,70.686356,11.783539,-150.363129,,,
729600639.044053,-0.600024,0.791326,-10.114257,-0.015121,-0.011841,1.002274,-0.005699,0.0257,0.000807,70.668182,11.899673,-150.579147,,,
729600639.047369,-0.600062,0.797156,-10.112051,-0.020584,-0.014923,0.999207,0.001255,0.028212,0.008219,70.668182,11.899673,-150.579147,,,
729600639.050695,-0.600062,0.797156,-10.112051,-0.020584,-0.014923,0.999207,0.001255,0.028212,0.008219,70.668182,11.899673,-150.579147,,,
729600639.054027,-0.598788,0.80394,-10.109352,-0.020584,-0.014923,0.999207,0.001255,0.028212,0.008219,70.668182,11.899673,-150.579147,,,
729600639.057312,-0.593899,0.808761,-10.106234,-0.022552,-0.012802,0.995926,0.020696,0.019593,0.011453,70.668182,11.899673,-150.579147,,,
729600639.060686,-0.593899,0.808761,-10.106234,-0.022552,-0.012802,0.995926,0.020696,0.019593,0.011453,70.668182,11.899673,-150.579147,,,
729600639.064006,-0.586626,0.81329,-10.102927,-0.022552,-0.012802,0.995926,0.020696,0.019593,0.011453,70.668182,11.899673,-150.579147,,,
729600639.067348,-0.575972,0.816958,-10.099987,-0.021301,-0.01207,0.999313,0.038817,0.01486,0.00917,70.668182,11.899673,-150.579147,,,
729600639.070633,-0.575972,0.816958,-10.099987,-0.021301,-0.01207,0.999313,0.038817,0.01486,0.00917,70.668182,11.899673,-150.579147,,,
729600639.073971,-0.564462,0.82035,-10.097568,-0.021301,-0.01207,0.999313,0.038817,0.01486,0.00917,70.668182,11.899673,-150.579147,,,
729600639.077303,-0.551652,0.823384,-10.09548,-0.021942,-0.01326,0.995651,0.043192,0.011918,0.006913,70.668182,11.899673,-150.579147,,,
729600639.080698,-0.551652,0.823384,-10.09548,-0.021942,-0.01326,0.995651,0.043192,0.011918,0.006913,70.668182,11.899673,-150.579147,,,
729600639.084016,-0.540367,0.825053,-10.092932,-0.021942,-0.01326,0.995651,0.043192,0.011918,0.006913,70.885941,11.831467,-150.610535,,,
729600639.087297,-0.540367,0.825053,-10.092932,-0.021255,-0.012054,0.987549,0.030724,0.004251,0.009531,70.885941,11.831467,-150.610535,,,
729600639.090646,-0.530366,0.826144,-10.089972,-0.021255,-0.012054,0.987549,0.030724,0.004251,0.009531,70.885941,11.831467,-150.610535,,,
729600639.093999,-0.522813,0.826887,-10.086571,-0.021255,-0.012054,0.987549,0.030724,0.004251,0.009531,70.885941,11.831467,-150.610535,,,
729600639.097293,-0.522813,0.826887,-10.086571,-0.017929,-0.010788,0.98407,0.018804,0.011683,0.013036,70.885941,11.831467,-150.610535,,,
729600639.10069,-0.51637,0.828328,-10.082641,-0.017929,-0.010788,0.98407,0.018804,0.011683,0.013036,70.885941,11.831467,-150.610535,,,
729600639.103984,-0.512381,0.831975,-10.078482,-0.017929,-0.010788,0.98407,0.018804,0.011683,0.013036,70.885941,11.831467,-150.610535,,,
729600639.107292,-0.512381,0.831975,-10.078482,-0.018936,-0.008881,0.984802,0.005218,0.02707,0.015349,70.885941,11.831467,-150.610535,,,
729600639.110655,-0.510269,0.837391,-10.07397,-0.018936,-0.008881,0.984802,0.005218,0.02707,0.015349,70.885941,11.831467,-150.610535,,,
729600639.113983,-0.509583,0.845237,-10.069042,-0.018936,-0.008881,0.984802,0.005218,0.02707,0.015349,70.885941,11.831467,-150.610535,,,
729600639.117352,-0.509583,0.845237,-10.069042,-0.017441,-0.008163,0.986572,-0.003662,0.0415,0.018276,70.885941,11.831467,-150.610535,,,
729600639.120723,-0.510765,0.855487,-10.063674,-0.017441,-0.008163,0.986572,-0.003662,0.0415,0.018276,70.885941,11.831467,-150.610535,,,
729600639.123978,-0.512476,0.866576,-10.05798,-0.017441,-0.008163,0.986572,-0.003662,0.0415,0.018276,70.572525,11.768967,-150.475922,,,
729600639.127307,-0.512476,0.866576,-10.05798,-0.017441,-0.008163,0.986572,-0.004867,0.036819,0.019823,70.572525,11.768967,-150.475922,,,
729600639.130684,-0.515207,0.878114,-10.052044,-0.01918,-0.002472,0.984848,-0.004867,0.036819,0.019823,70.572525,11.768967,-150.475922,,,
729600639.13405,-0.516415,0.887384,-10.045533,-0.01918,-0.002472,0.984848,-0.004867,0.036819,0.019823,70.572525,11.768967,-150.475922,,,
729600639.137439,-0.516415,0.896721,-10.037857,-0.023315,-0.000992,0.986053,-0.00318,0.029884,0.02788,70.572525,11.768967,-150.475922,,,
729600639.140651,-0.517788,0.896721,-10.037857,-0.023315,-0.000992,0.986053,-0.00318,0.029884,0.02788,70.572525,11.768967,-150.475922,,,
729600639.144008,-0.517669,0.904077,-10.029645,-0.023315,-0.000992,0.986053,-0.00318,0.029884,0.02788,70.572525,11.768967,-150.475922,,,
729600639.14732,-0.517669,0.904077,-10.029645,-0.02272,-0.00351,0.989594,0.01113,0.019403,0.024567,70.572525,11.768967,-150.475922,,,
729600639.150698,-0.515994,0.91064,-10.021937,-0.02272,-0.00351,0.989594,0.01113,0.019403,0.024567,70.572525,11.768967,-150.475922,,,
729600639.15397,-0.510998,0.914421,-10.014659,-0.02272,-0.00351,0.989594,0.01113,0.019403,0.024567,70.572525,11.768967,-150.475922,,,
729600639.157334,-0.510998,0.914421,-10.014659,-0.017502,-0.008453,0.995911,0.035642,0.011675,0.019646,70.572525,11.768967,-150.475922,,,
729600639.160694,-0.503172,0.918326,-10.008128,-0.017502,-0.008453,0.995911,0.035642,0.011675,0.019646,70.572525,11.768967,-150.475922,,,
729600639.16399,-0.491687,0.921047,-10.002893,-0.017502,-0.008453,0.995911,0.035642,0.011675,0.019646,70.816391,11.409088,-150.449799,,,
729600639.167374,-0.491687,0.921047,-10.002893,-0.017502,-0.008453,0.995911,0.053041,0.025888,0.01175,70.816391,11.409088,-150.449799,,,
729600639.170719,-0.478033,0.926186,-9.998832,-0.010193,-0.01564,1.00647,0.053041,0.025888,0.01175,70.816391,11.409088,-150.449799,,,
729600639.174001,-0.461583,0.933585,-9.995591,-0.010193,-0.01564,1.00647,0.053041,0.025888,0.01175,70.816391,11.409088,-150.449799,,,
729600639.177353,-0.461583,0.933585,-9.995591,-0.00705,-0.015182,1.009155,0.065374,0.036601,0.010698,70.816391,11.409088,-150.449799,,,
729600639.180656,-0.443633,0.94301,-9.992532,-0.00705,-0.015182,1.009155,0.065374,0.036601,0.010698,70.816391,11.409088,-150.449799,,,
