Time (sec),Pitch (deg),Roll (deg),Yaw(deg),X-Acceleration (g),Y-Acceleration (g),Z-Acceleration (g),Pitch Rate (deg/sec),Roll Rate (deg/sec),Yaw Rate (deg/sec),Magnetic Field in X direction (uT),Magnetic Field in Y direction (uT),Magnetic Field in Z Direction (uT),Latitude (deg),Longitude (deg),Altitude (m)
729608772.226587,-1.207858,-2.166864,60.493551,0.05191,-0.011444,0.977341,-0.065926,-0.081751,-0.033047,61.127533,24.859253,-146.603638,,,
729608772.229924,-1.232472,-2.186599,60.483806,0.051697,-0.020172,0.979706,-0.065926,-0.081751,-0.033047,61.127533,24.859253,-146.603638,,,
729608772.233241,-1.252156,-2.210799,60.473264,0.051697,-0.020172,0.979706,-0.068076,-0.080787,-0.035607,61.127533,24.859253,-146.603638,,,
729608772.236582,-1.252156,-2.210799,60.473264,0.051697,-0.020172,0.979706,-0.068076,-0.080787,-0.035607,61.127533,24.859253,-146.603638,,,
729608772.239911,-1.275479,-2.23214,60.461939,0.052567,-0.017044,0.9841,-0.068076,-0.080787,-0.035607,60.93187,24.96109,-146.297607,,,
729608772.243242,-1.294582,-2.253858,60.450504,0.052567,-0.017044,0.9841,-0.068927,-0.073076,-0.039247,60.93187,24.96109,-146.297607,,,
729608772.246634,-1.294582,-2.253858,60.450504,0.052567,-0.017044,0.9841,-0.068927,-0.073076,-0.039247,60.93187,24.96109,-146.297607,,,
729608772.249915,-1.313585,-2.274341,60.439631,0.049454,-0.015793,0.98616,-0.068927,-0.073076,-0.039247,60.93187,24.96109,-146.297607,,,
729608772.253227,-1.330763,-2.292092,60.429881,0.049454,-0.015793,0.98616,-0.059472,-0.057064,-0.03353,60.93187,24.96109,-146.297607,,,
729608772.256601,-1.330763,-2.292092,60.429881,0.049454,-0.015793,0.98616,-0.059472,-0.057064,-0.03353,60.93187,24.96109,-146.297607,,,
729608772.259948,-1.346764,-2.308589,60.421211,0.049606,-0.022003,0.997574,-0.059472,-0.057064,-0.03353,60.93187,24.96109,-146.297607,,,
729608772.263249,-1.362332,-2.318223,60.41374,0.049606,-0.022003,0.997574,-0.054521,-0.031862,-0.024882,60.93187,24.96109,-146.297607,,,
729608772.266586,-1.362332,-2.318223,60.41374,0.049606,-0.022003,0.997574,-0.054521,-0.031862,-0.024882,60.93187,24.96109,-146.297607,,,
729608772.269944,-1.375499,-2.329432,60.407075,0.049515,-0.024567,1.001221,-0.054521,-0.031862,-0.024882,60.93187,24.96109,-146.297607,,,
729608772.273225,-1.389643,-2.335057,60.401167,0.049515,-0.024567,1.001221,-0.051463,-0.015015,-0.022877,60.93187,24.96109,-146.297607,,,
729608772.276586,-1.389643,-2.335057,60.401167,0.049515,-0.024567,1.001221,-0.051463,-0.015015,-0.022877,60.93187,24.96109,-146.297607,,,
729608772.279924,-1.401139,-2.344195,60.39557,0.046097,-0.021652,0.993088,-0.051463,-0.015015,-0.022877,60.93187,24.96109,-146.297607,,,
729608772.283237,-1.41459,-2.343754,60.389786,0.046097,-0.021652,0.993088,-0.046676,0.003816,-0.019301,60.867249,25.239105,-146.703903,,,
729608772.286645,-1.41459,-2.343754,60.389786,0.046097,-0.021652,0.993088,-0.046676,0.003816,-0.019301,60.867249,25.239105,-146.703903,,,
729608772.289911,-1.423461,-2.34492,60.382753,0.048584,-0.015137,1.0065,-0.046676,0.003816,-0.019301,60.867249,25.239105,-146.703903,,,
729608772.293231,-1.435877,-2.340156,60.374753,0.048584,-0.015137,1.0065,-0.044935,0.020663,-0.028531,60.867249,25.239105,-146.703903,,,
729608772.296587,-1.435877,-2.340156,60.374753,0.048584,-0.015137,1.0065,-0.044935,0.020663,-0.028531,60.867249,25.239105,-146.703903,,,
729608772.299962,-1.442923,-2.341252,60.365302,0.057053,-0.012833,0.994644,-0.044935,0.020663,-0.028531,60.867249,25.239105,-146.703903,,,
729608772.30323,-1.452874,-2.340953,60.355118,0.057053,-0.012833,0.994644,-0.035171,0.00391,-0.035797,60.867249,25.239105,-146.703903,,,
729608772.306628,-1.452874,-2.340953,60.355118,0.057053,-0.012833,0.994644,-0.035171,0.00391,-0.035797,60.867249,25.239105,-146.703903,,,
729608772.309904,-1.457961,-2.348959,60.344587,0.046417,-0.017014,0.988724,-0.035171,0.00391,-0.035797,60.867249,25.239105,-146.703903,,,
729608772.31323,-1.462843,-2.357389,60.333126,0.046417,-0.017014,0.988724,-0.018547,-0.027876,-0.041327,60.867249,25.239105,-146.703903,,,
729608772.316577,-1.462843,-2.357389,60.333126,0.046417,-0.017014,0.988724,-0.018547,-0.027876,-0.041327,60.867249,25.239105,-146.703903,,,
729608772.319918,-1.463426,-2.373035,60.320053,0.042267,-0.017365,0.989349,-0.018547,-0.027876,-0.041327,60.867249,25.239105,-146.703903,,,
729608772.323231,-1.464484,-2.386818,60.305094,0.042267,-0.017365,0.989349,-0.002782,-0.044383,-0.05396,60.79425,25.108444,-146.811813,,,
729608772.326624,-1.464484,-2.386818,60.305094,0.042267,-0.017365,0.989349,-0.002782,-0.044383,-0.05396,60.79425,25.108444,-146.811813,,,
729608772.32995,-1.461638,-2.405393,60.287612,0.051956,-0.010345,0.988831,-0.002782,-0.044383,-0.05396,60.79425,25.108444,-146.811813,,,
729608772.333228,-1.461869,-2.420165,60.268632,0.051956,-0.010345,0.988831,-0.004621,-0.045956,-0.066219,60.79425,25.108444,-146.811813,,,
729608772.336584,-1.461869,-2.420165,60.268632,0.051956,-0.010345,0.988831,-0.004621,-0.045956,-0.066219,60.79425,25.108444,-146.811813,,,
729608772.33996,-1.460613,-2.435945,60.25,0.051147,-0.008301,0.983688,-0.004621,-0.045956,-0.066219,60.79425,25.108444,-146.811813,,,
729608772.343224,-1.461321,-2.446691,60.232689,0.051147,-0.008301,0.983688,-0.004831,-0.031249,-0.063639,60.79425,25.108444,-146.811813,,,
729608772.346595,-1.461321,-2.446691,60.232689,0.051147,-0.008301,0.983688,-0.004831,-0.031249,-0.063639,60.79425,25.108444,-146.811813,,,
729608772.349905,-1.462207,-2.457142,60.216713,0.042755,-0.01767,0.986801,-0.004831,-0.031249,-0.063639,60.79425,25.108444,-146.811813,,,
729608772.353232,-1.463268,-2.463657,60.202209,0.042755,-0.01767,0.986801,-0.002873,-0.018789,-0.051004,60.79425,25.108444,-146.811813,,,
729608772.356688,-1.463268,-2.463657,60.202209,0.042755,-0.01767,0.986801,-0.002873,-0.018789,-0.051004,60.79425,25.108444,-146.811813,,,
729608772.359969,-1.462753,-2.471371,60.188408,0.041519,-0.022461,0.988983,-0.002873,-0.018789,-0.051004,60.79425,25.108444,-146.811813,,,
729608772.363243,-1.461397,-2.476694,60.175036,0.041519,-0.022461,0.988983,0.002011,-0.015076,-0.049442,60.874649,25.255463,-146.705933,,,
729608772.366675,-1.461397,-2.476694,60.175036,0.041519,-0.022461,0.988983,0.002011,-0.015076,-0.049442,60.874649,25.255463,-146.705933,,,
729608772.369903,-1.454457,-2.48166,60.161354,0.044571,-0.019684,0.991928,0.002011,-0.015076,-0.049442,60.874649,25.255463,-146.705933,,,
729608772.373241,-1.445981,-2.485369,60.147284,0.044571,-0.019684,0.991928,0.027606,-0.007038,-0.05315,60.874649,25.255463,-146.705933,,,
729608772.376588,-1.445981,-2.485369,60.147284,0.044571,-0.019684,0.991928,0.027606,-0.007038,-0.05315,60.874649,25.255463,-146.705933,,,
729608772.379983,-1.430945,-2.491988,60.132543,0.042389,-0.019257,1.000595,0.027606,-0.007038,-0.05315,60.874649,25.255463,-146.705933,,,
729608772.383255,-1.418073,-2.493872,60.117628,0.042389,-0.019257,1.000595,0.042889,-0.000276,-0.055589,60.874649,25.255463,-146.705933,,,
729608772.386704,-1.418073,-2.493872,60.117628,0.042389,-0.019257,1.000595,0.042889,-0.000276,-0.055589,60.874649,25.255463,-146.705933,,,
729608772.389941,-1.401383,-2.497031,60.103344,0.04332,-0.018921,0.995728,0.042889,-0.000276,-0.055589,60.874649,25.255463,-146.705933,,,
729608772.393239,-1.388259,-2.495331,60.08986,0.04332,-0.018921,0.995728,0.04525,0.009728,-0.050591,60.874649,25.255463,-146.705933,,,
729608772.396589,-1.388259,-2.495331,60.08986,0.04332,-0.018921,0.995728,0.04525,0.009728,-0.050591,60.874649,25.255463,-146.705933,,,
729608772.399911,-1.374389,-2.492183,60.077161,0.038925,-0.017929,0.989532,0.04525,0.009728,-0.050591,60.874649,25.255463,-146.705933,,,
729608772.403239,-1.363676,-2.489938,60.065241,0.038925,-0.017929,0.989532,0.03639,0.011851,-0.046167,61.019958,24.78598,-146.641006,,,
729608772.406631,-1.363676,-2.489938,60.065241,0.038925,-0.017929,0.989532,0.03639,0.011851,-0.046167,61.019958,24.78598,-146.641006,,,
729608772.409919,-1.351567,-2.490017,60.053467,0.038925,-0.012619,0.980118,0.03639,0.011851,-0.046167,61.019958,24.78598,-146.641006,,,
729608772.413228,-1.344815,-2.488245,60.041264,0.038925,-0.012619,0.980118,0.020462,0.009012,-0.045836,61.019958,24.78598,-146.641006,,,
729608772.416575,-1.344815,-2.488245,60.041264,0.038925,-0.012619,0.980118,0.020462,0.009012,-0.045836,61.019958,24.78598,-146.641006,,,
729608772.419911,-1.334855,-2.490063,60.029102,0.036789,-0.009583,0.975784,0.020462,0.009012,-0.045836,61.019958,24.78598,-146.641006,,,
729608772.423242,-1.32987,-2.48904,60.017906,0.036789,-0.009583,0.975784,0.013687,0.007983,-0.03978,61.019958,24.78598,-146.641006,,,
729608772.426562,-1.32987,-2.48904,60.017906,0.036789,-0.009583,0.975784,0.013687,0.007983,-0.03978,61.019958,24.78598,-146.641006,,,
729608772.429931,-1.32168,-2.490672,60.007833,0.03302,-0.014603,0.983444,0.013687,0.007983,-0.03978,61.019958,24.78598,-146.641006,,,
729608772.433231,-1.314638,-2.492845,59.999179,0.03302,-0.014603,0.983444,0.024359,-0.005837,-0.031195,61.019958,24.78598,-146.641006,,,
729608772.436588,-1.314638,-2.492845,59.999179,0.03302,-0.014603,0.983444,0.024359,-0.005837,-0.031195,61.019958,24.78598,-146.641006,,,
729608772.4399,-1.305159,-2.49532,59.991148,0.032715,-0.021683,0.993042,0.024359,-0.005837,-0.031195,61.019958,24.78598,-146.641006,,,
729608772.443233,-1.29383,-2.498202,59.983399,0.032715,-0.021683,0.993042,0.040103,-0.006824,-0.030858,61.019958,24.78598,-146.641006,,,
729608772.44658,-1.29383,-2.498202,59.983399,0.032715,-0.021683,0.993042,0.040103,-0.006824,-0.030858,60.957169,24.997665,-146.81041,,,
729608772.449902,-1.279173,-2.500146,59.976313,0.039078,-0.020752,1.000122,0.040103,-0.006824,-0.030858,60.957169,24.997665,-146.81041,,,
729608772.453238,-1.262228,-2.501075,59.969836,0.039078,-0.020752,1.000122,0.057158,0.003165,-0.027367,60.957169,24.997665,-146.81041,,,
729608772.456643,-1.262228,-2.501075,59.969836,0.039078,-0.020752,1.000122,0.057158,0.003165,-0.027367,60.957169,24.997665,-146.81041,,,
729608772.459902,-1.242381,-2.501096,59.963566,0.044067,-0.016876,1.001846,0.057158,0.003165,-0.027367,60.957169,24.997665,-146.81041,,,
729608772.463242,-1.221891,-2.49977,59.957679,0.044067,-0.016876,1.001846,0.072017,0.006071,-0.022731,60.957169,24.997665,-146.81041,,,
729608772.466566,-1.221891,-2.49977,59.957679,0.044067,-0.016876,1.001846,0.072017,0.006071,-0.022731,60.957169,24.997665,-146.81041,,,
729608772.469901,-1.199423,-2.495699,59.952519,0.046112,-0.016312,0.998322,0.072017,0.006071,-0.022731,60.957169,24.997665,-146.81041,,,
729608772.473237,-1.177628,-2.488813,59.947662,0.046112,-0.016312,0.998322,0.075646,0.026249,-0.021505,60.957169,24.997665,-146.81041,,,
729608772.476578,-1.177628,-2.488813,59.947662,0.046112,-0.016312,0.998322,0.075646,0.026249,-0.021505,60.957169,24.997665,-146.81041,,,
729608772.479906,-1.155146,-2.47911,59.942741,0.049759,-0.01413,1.000687,0.075646,0.026249,-0.021505,60.957169,24.997665,-146.81041,,,
729608772.483331,-1.132805,-2.469327,59.936696,0.049759,-0.01413,1.000687,0.074433,0.038284,-0.02436,60.957169,24.997665,-146.81041,,,
729608772.486572,-1.132805,-2.469327,59.936696,0.049759,-0.01413,1.000687,0.074433,0.038284,-0.02436,60.99353,24.816315,-146.818634,,,
729608772.489924,-1.10827,-2.457138,59.92938,0.049713,-0.005661,0.997543,0.074433,0.038284,-0.02436,60.99353,24.816315,-146.818634,,,
729608772.49323,-1.083704,-2.446306,59.921,0.049713,-0.005661,0.997543,0.087148,0.042494,-0.03318,60.99353,24.816315,-146.818634,,,
729608772.496629,-1.083704,-2.446306,59.921,0.049713,-0.005661,0.997543,0.087148,0.042494,-0.03318,60.99353,24.816315,-146.818634,,,
729608772.499907,-1.054247,-2.434768,59.911203,0.044189,-0.00856,1.000626,0.087148,0.042494,-0.03318,60.99353,24.816315,-146.818634,,,
729608772.503246,-1.024936,-2.425679,59.900695,0.044189,-0.00856,1.000626,0.100325,0.035654,-0.043249,60.99353,24.816315,-146.818634,,,
729608772.506659,-1.024936,-2.425679,59.900695,0.044189,-0.00856,1.000626,0.100325,0.035654,-0.043249,60.99353,24.816315,-146.818634,,,
729608772.51,-0.991587,-2.415671,59.890487,0.037338,-0.014862,1.002518,0.100325,0.035654,-0.043249,60.99353,24.816315,-146.818634,,,
729608772.51324,-0.958759,-2.410071,59.881412,0.037338,-0.014862,1.002518,0.116123,0.023356,-0.037991,60.99353,24.816315,-146.818634,,,
729608772.516592,-0.958759,-2.410071,59.881412,0.037338,-0.014862,1.002518,0.116123,0.023356,-0.037991,60.99353,24.816315,-146.818634,,,
729608772.519918,-0.926843,-2.403721,59.87418,0.026962,-0.022522,0.996704,0.116123,0.023356,-0.037991,60.99353,24.816315,-146.818634,,,
729608772.523247,-0.893696,-2.402558,59.869255,0.026962,-0.022522,0.996704,0.115162,0.008572,-0.022931,60.99353,24.816315,-146.818634,,,
729608772.526572,-0.893696,-2.402558,59.869255,0.026962,-0.022522,0.996704,0.115162,0.008572,-0.022931,61.034241,24.618027,-146.442596,,,
729608772.529908,-0.861451,-2.401283,59.866901,0.022034,-0.023773,0.995956,0.115162,0.008572,-0.022931,61.034241,24.618027,-146.442596,,,
729608772.533309,-0.8261,-2.403545,59.866074,0.022034,-0.023773,0.995956,0.122379,-0.00466,-0.009153,61.034241,24.618027,-146.442596,,,
729608772.536614,-0.8261,-2.403545,59.866074,0.022034,-0.023773,0.995956,0.122379,-0.00466,-0.009153,61.034241,24.618027,-146.442596,,,
729608772.539903,-0.790558,-2.407151,59.866403,0.028488,-0.020477,1.00351,0.122379,-0.00466,-0.009153,61.034241,24.618027,-146.442596,,,
729608772.543236,-0.75241,-2.411936,59.867781,0.028488,-0.020477,1.00351,0.133625,-0.013036,-0.003413,61.034241,24.618027,-146.442596,,,
729608772.546582,-0.75241,-2.411936,59.867781,0.028488,-0.020477,1.00351,0.133625,-0.013036,-0.003413,61.034241,24.618027,-146.442596,,,
729608772.549962,-0.713743,-2.417728,59.869335,0.03508,-0.020172,1.005722,0.133625,-0.013036,-0.003413,61.034241,24.618027,-146.442596,,,
729608772.553249,-0.672037,-2.420457,59.871489,0.03508,-0.020172,1.005722,0.144596,-0.005664,0.000298,61.034241,24.618027,-146.442596,,,
729608772.556622,-0.672037,-2.420457,59.871489,0.03508,-0.020172,1.005722,0.144596,-0.005664,0.000298,61.034241,24.618027,-146.442596,,,
729608772.559912,-0.629835,-2.422209,59.874732,0.04071,-0.019974,1.011948,0.144596,-0.005664,0.000298,61.034241,24.618027,-146.442596,,,
729608772.563252,-0.586132,-2.418361,59.878559,0.04071,-0.019974,1.011948,0.155072,0.015355,0.00751,61.034241,24.618027,-146.442596,,,
729608772.566563,-0.586132,-2.418361,59.878559,0.04071,-0.019974,1.011948,0.155072,0.015355,0.00751,60.971344,24.453979,-146.523529,,,
729608772.569898,-0.543396,-2.413503,59.88304,0.0513,-0.017319,1.007141,0.155072,0.015355,0.00751,60.971344,24.453979,-146.523529,,,
729608772.573259,-0.503643,-2.402285,59.88807,0.0513,-0.017319,1.007141,0.138816,0.041356,0.011338,60.971344,24.453979,-146.523529,,,
729608772.576652,-0.503643,-2.402285,59.88807,0.0513,-0.017319,1.007141,0.138816,0.041356,0.011338,60.971344,24.453979,-146.523529,,,
729608772.579977,-0.466115,-2.389764,59.893149,0.055649,-0.011566,0.993698,0.138816,0.041356,0.011338,60.971344,24.453979,-146.523529,,,
729608772.583258,-0.466115,-2.374253,59.897681,0.055649,-0.011566,0.993698,0.11944,0.058386,0.010351,60.971344,24.453979,-146.523529,,,
729608772.586584,-0.432878,-2.374253,59.897681,0.055649,-0.011566,0.993698,0.11944,0.058386,0.010351,60.971344,24.453979,-146.523529,,,
729608772.589964,-0.404941,-2.358132,59.900838,0.054016,-0.001663,0.983673,0.11944,0.058386,0.010351,60.971344,24.453979,-146.523529,,,
729608772.593321,-0.379713,-2.343203,59.901946,0.054016,-0.001663,0.983673,0.088805,0.055408,-0.001769,60.971344,24.453979,-146.523529,,,
729608772.596573,-0.379713,-2.343203,59.901946,0.054016,-0.001663,0.983673,0.088805,0.055408,-0.001769,60.971344,24.453979,-146.523529,,,
729608772.599914,-0.361759,-2.326627,59.901387,0.054138,0.00444,0.977951,0.088805,0.055408,-0.001769,60.971344,24.453979,-146.523529,,,
729608772.603299,-0.361759,-2.317061,59.899794,0.054138,0.00444,0.977951,0.073025,0.036924,-0.009327,60.971344,24.453979,-146.523529,,,
729608772.606593,-0.341265,-2.317061,59.899794,0.054138,0.00444,0.977951,0.073025,0.036924,-0.009327,60.971344,24.453979,-146.523529,,,
729608772.609914,-0.326926,-2.305476,59.898456,0.045288,-0.002838,0.979355,0.073025,0.036924,-0.009327,60.853424,23.991562,-146.980484,,,
729608772.613269,-0.308345,-2.303352,59.898234,0.045288,-0.002838,0.979355,0.064965,0.009556,-0.003686,60.853424,23.991562,-146.980484,,,
729608772.6166,-0.308345,-2.303352,59.898234,0.045288,-0.002838,0.979355,0.064965,0.009556,-0.003686,60.853424,23.991562,-146.980484,,,
729608772.619924,-0.296177,-2.298323,59.898875,0.035797,-0.013412,0.980103,0.064965,0.009556,-0.003686,60.853424,23.991562,-146.980484,,,
729608772.623261,-0.296177,-2.298323,59.898875,0.035797,-0.013412,0.980103,0.055257,0.001139,0.004117,60.853424,23.991562,-146.980484,,,
729608772.626637,-0.281217,-2.299044,59.900506,0.035797,-0.013412,0.980103,0.055257,0.001139,0.004117,60.853424,23.991562,-146.980484,,,
729608772.6299,-0.272713,-2.296835,59.903316,0.033356,-0.014542,0.984283,0.055257,0.001139,0.004117,60.853424,23.991562,-146.980484,,,
729608772.633242,-0.272713,-2.296835,59.903316,0.033356,-0.014542,0.984283,0.040608,0.006359,0.012424,60.853424,23.991562,-146.980484,,,
729608772.636566,-0.260863,-2.295705,59.90741,0.033356,-0.014542,0.984283,0.040608,0.006359,0.012424,60.853424,23.991562,-146.980484,,,
729608772.639994,-0.25536,-2.292851,59.912622,0.032913,-0.011719,0.99028,0.040608,0.006359,0.012424,60.853424,23.991562,-146.980484,,,
729608772.643241,-0.25536,-2.292851,59.912622,0.032913,-0.011719,0.99028,0.040608,0.006359,0.012424,60.853424,23.991562,-146.980484,,,
729608772.646585,-0.247447,-2.2896,59.918316,0.032913,-0.011719,0.99028,0.028079,0.01333,0.018443,60.853424,23.991562,-146.980484,,,
729608772.649899,-0.246808,-2.287332,59.923457,0.034714,-0.006958,0.991287,0.028079,0.01333,0.018443,60.989914,24.098694,-146.82431,,,
729608772.653266,-0.246808,-2.287332,59.923457,0.034714,-0.006958,0.991287,0.028079,0.026291,0.007977,60.989914,24.098694,-146.82431,,,
729608772.656612,-0.24528,-2.281462,59.92721,0.034714,-0.006958,0.991287,0.003247,0.026291,0.007977,60.989914,24.098694,-146.82431,,,
729608772.659936,-0.249232,-2.279778,59.929575,0.038269,-0.000824,0.988647,0.003247,0.026291,0.007977,60.989914,24.098694,-146.82431,,,
729608772.663352,-0.249232,-2.279778,59.929575,0.038269,-0.000824,0.988647,0.003247,0.026291,0.007977,60.989914,24.098694,-146.82431,,,
729608772.66658,-0.25202,-2.273143,59.931234,0.038269,-0.000824,0.988647,-0.010064,0.026717,0.00272,60.989914,24.098694,-146.82431,,,
729608772.669902,-0.257028,-2.272641,59.932993,0.034714,-0.00174,0.991333,-0.010064,0.026717,0.00272,60.989914,24.098694,-146.82431,,,
729608772.673299,-0.257028,-2.272641,59.932993,0.034714,-0.00174,0.991333,-0.010064,0.026717,0.00272,60.989914,24.098694,-146.82431,,,
729608772.67661,-0.263507,-2.268333,59.93547,0.034714,-0.00174,0.991333,-0.020959,0.017063,0.008374,60.989914,24.098694,-146.82431,,,
729608772.679953,-0.268539,-2.271364,59.938966,0.031662,-0.009048,0.99147,-0.020959,0.017063,0.008374,60.989914,24.098694,-146.82431,,,
729608772.683279,-0.268539,-2.271364,59.938966,0.031662,-0.009048,0.99147,-0.020959,0.017063,0.008374,60.989914,24.098694,-146.82431,,,
729608772.686591,-0.275795,-2.271577,59.942614,0.031662,-0.009048,0.99147,-0.022041,0.001544,0.012141,60.989914,24.098694,-146.82431,,,
729608772.689902,-0.280683,-2.278217,59.945654,0.027679,-0.012924,0.996277,-0.022041,0.001544,0.012141,61.016068,23.939377,-146.713455,,,
729608772.693285,-0.280683,-2.278217,59.945654,0.027679,-0.012924,0.996277,-0.022041,0.001544,0.012141,61.016068,23.939377,-146.713455,,,
729608772.696591,-0.286919,-2.283411,59.94927,0.027679,-0.012924,0.996277,-0.022061,-0.01679,0.0119,61.016068,23.939377,-146.713455,,,
729608772.699977,-0.294245,-2.290285,59.953792,0.031982,-0.014542,0.999649,-0.022061,-0.01679,0.0119,61.016068,23.939377,-146.713455,,,
729608772.703286,-0.294245,-2.290285,59.953792,0.031982,-0.014542,0.999649,-0.022061,-0.01679,0.0119,61.016068,23.939377,-146.713455,,,
729608772.706583,-0.300557,-2.299202,59.958823,0.031982,-0.014542,0.999649,-0.020317,-0.028544,0.016211,61.016068,23.939377,-146.713455,,,
729608772.7099,-0.310754,-2.305843,59.964248,0.033859,-0.015289,1.000839,-0.020317,-0.028544,0.016211,61.016068,23.939377,-146.713455,,,
729608772.71333,-0.310754,-2.305843,59.964248,0.033859,-0.015289,1.000839,-0.020317,-0.028544,0.016211,61.016068,23.939377,-146.713455,,,
729608772.716577,-0.317883,-2.313383,59.969631,0.033859,-0.015289,1.000839,-0.023851,-0.022655,0.018184,61.016068,23.939377,-146.713455,,,
729608772.719901,-0.326728,-2.318531,59.974034,0.037994,-0.014618,1.00795,-0.023851,-0.022655,0.018184,61.016068,23.939377,-146.713455,,,
729608772.723264,-0.326728,-2.318531,59.974034,0.037994,-0.014618,1.00795,-0.023851,-0.022655,0.018184,61.016068,23.939377,-146.713455,,,
729608772.726566,-0.333334,-2.326821,59.977616,0.037994,-0.014618,1.00795,-0.019886,-0.026342,0.013448,61.016068,23.939377,-146.713455,,,
729608772.729894,-0.341527,-2.33423,59.981173,0.042191,-0.013672,1.008926,-0.019886,-0.026342,0.013448,61.148041,24.08876,-146.923355,,,
729608772.733281,-0.341527,-2.33423,59.981173,0.042191,-0.013672,1.008926,-0.019886,-0.026342,0.013448,61.148041,24.08876,-146.923355,,,
729608772.736572,-0.349764,-2.344606,59.984457,0.042191,-0.013672,1.008926,-0.025758,-0.033078,0.010926,61.148041,24.08876,-146.923355,,,
729608772.739899,-0.358531,-2.353512,59.987978,0.039871,-0.014725,1.003723,-0.025758,-0.033078,0.010926,61.148041,24.08876,-146.923355,,,
729608772.743263,-0.358531,-2.353512,59.987978,0.039871,-0.014725,1.003723,-0.025758,-0.033078,0.010926,61.148041,24.08876,-146.923355,,,
729608772.746573,-0.368728,-2.36321,59.992908,0.039871,-0.014725,1.003723,-0.03612,-0.029443,0.015815,61.148041,24.08876,-146.923355,,,
729608772.7499,-0.376834,-2.374104,59.999206,0.034821,-0.020233,1.008957,-0.03612,-0.029443,0.015815,61.148041,24.08876,-146.923355,,,
729608772.753232,-0.376834,-2.374104,59.999206,0.034821,-0.020233,1.008957,-0.03612,-0.029443,0.015815,61.148041,24.08876,-146.923355,,,
729608772.756586,-0.385493,-2.390826,60.006098,0.034821,-0.020233,1.008957,-0.028176,-0.053217,0.02518,61.148041,24.08876,-146.923355,,,
729608772.759933,-0.39285,-2.407578,60.012595,0.037964,-0.020172,1.010971,-0.028176,-0.053217,0.02518,61.148041,24.08876,-146.923355,,,
729608772.763372,-0.39285,-2.407578,60.012595,0.037964,-0.020172,1.010971,-0.028176,-0.053217,0.02518,61.148041,24.08876,-146.923355,,,
729608772.766587,-0.399251,-2.427747,60.01793,0.037964,-0.020172,1.010971,-0.019163,-0.065151,0.016134,61.148041,24.08876,-146.923355,,,
729608772.769902,-0.406495,-2.443311,60.021937,0.043152,-0.012314,1.014893,-0.019163,-0.065151,0.016134,61.148041,24.08876,-146.923355,,,
729608772.773237,-0.406495,-2.443311,60.021937,0.043152,-0.012314,1.014893,-0.019163,-0.065151,0.016134,60.909119,23.887238,-146.532928,,,
729608772.776674,-0.412561,-2.463671,60.024077,0.043152,-0.012314,1.014893,-0.019204,-0.066031,0.007749,60.909119,23.887238,-146.532928,,,
729608772.779898,-0.421275,-2.479919,60.025274,0.051163,-0.005463,1.013611,-0.019204,-0.066031,0.007749,60.909119,23.887238,-146.532928,,,
729608772.783249,-0.421275,-2.479919,60.025274,0.051163,-0.005463,1.013611,-0.019204,-0.066031,0.007749,60.909119,23.887238,-146.532928,,,
729608772.786579,-0.428748,-2.499467,60.026559,0.051163,-0.005463,1.013611,-0.02464,-0.063724,0.003494,60.909119,23.887238,-146.532928,,,
729608772.789929,-0.439899,-2.514143,60.027732,0.055237,-0.002243,1.008591,-0.02464,-0.063724,0.003494,60.909119,23.887238,-146.532928,,,
729608772.793241,-0.439899,-2.514143,60.027732,0.055237,-0.002243,1.008591,-0.02464,-0.063724,0.003494,60.909119,23.887238,-146.532928,,,
729608772.796579,-0.4503,-2.529632,60.02823,0.055237,-0.002243,1.008591,-0.034544,-0.051941,0.002484,60.909119,23.887238,-146.532928,,,
729608772.799899,-0.464394,-2.539916,60.028626,0.054108,-0.00296,1.005264,-0.034544,-0.051941,0.002484,60.909119,23.887238,-146.532928,,,
729608772.803318,-0.464394,-2.539916,60.028626,0.054108,-0.00296,1.005264,-0.034544,-0.051941,0.002484,60.909119,23.887238,-146.532928,,,
729608772.806575,-0.477107,-2.551362,60.029188,0.054108,-0.00296,1.005264,-0.045676,-0.03566,0.003371,60.909119,23.887238,-146.532928,,,
729608772.809905,-0.491743,-2.560733,60.030181,0.050903,-0.004105,1.006088,-0.045676,-0.03566,0.003371,60.909119,23.887238,-146.532928,,,
729608772.813252,-0.491743,-2.560733,60.030181,0.050903,-0.004105,1.006088,-0.045676,-0.03566,0.003371,61.083374,23.888474,-146.744797,,,
729608772.816634,-0.504298,-2.571701,60.031566,0.050903,-0.004105,1.006088,-0.04544,-0.035538,0.004888,61.083374,23.888474,-146.744797,,,
729608772.819898,-0.517111,-2.582061,60.032549,0.045288,-0.004517,1.007965,-0.04544,-0.035538,0.004888,61.083374,23.888474,-146.744797,,,
729608772.82323,-0.517111,-2.582061,60.032549,0.045288,-0.004517,1.007965,-0.04544,-0.035538,0.004888,61.083374,23.888474,-146.744797,,,
729608772.826582,-0.527861,-2.594194,60.032565,0.045288,-0.004517,1.007965,-0.035415,-0.039422,0.000706,61.083374,23.888474,-146.744797,,,
729608772.829906,-0.53879,-2.604258,60.031991,0.043793,-0.002731,1.015137,-0.035415,-0.039422,0.000706,61.083374,23.888474,-146.744797,,,
729608772.833234,-0.53879,-2.604258,60.031991,0.043793,-0.002731,1.015137,-0.035415,-0.039422,0.000706,61.083374,23.888474,-146.744797,,,
729608772.836588,-0.544081,-2.619345,60.03139,0.043793,-0.002731,1.015137,-0.020146,-0.049481,-0.004743,61.083374,23.888474,-146.744797,,,
729608772.839904,-0.550993,-2.631416,60.03056,0.043991,-0.00415,1.0121,-0.020146,-0.049481,-0.004743,61.083374,23.888474,-146.744797,,,
729608772.843311,-0.550993,-2.631416,60.03056,0.043991,-0.00415,1.0121,-0.020146,-0.049481,-0.004743,61.083374,23.888474,-146.744797,,,
729608772.84658,-0.553079,-2.647692,60.029673,0.043991,-0.00415,1.0121,-0.007222,-0.052238,-0.003792,61.083374,23.888474,-146.744797,,,
729608772.849901,-0.555697,-2.663979,60.028403,0.048004,-0.007233,1.01329,-0.007222,-0.052238,-0.003792,61.083374,23.888474,-146.744797,,,
729608772.853233,-0.555697,-2.663979,60.028403,0.048004,-0.007233,1.01329,-0.007222,-0.052238,-0.003792,60.829926,23.991898,-146.373932,,,
729608772.856584,-0.55511,-2.683532,60.026267,0.048004,-0.007233,1.01329,0.003057,-0.065681,-0.007988,60.829926,23.991898,-146.373932,,,
729608772.859899,-0.553208,-2.703848,60.022909,0.050369,-0.006943,1.007645,0.003057,-0.065681,-0.007988,60.829926,23.991898,-146.373932,,,
729608772.86326,-0.553208,-2.703848,60.022909,0.050369,-0.006943,1.007645,0.003057,-0.065681,-0.007988,60.829926,23.991898,-146.373932,,,
729608772.866624,-0.552471,-2.723274,60.018306,0.050369,-0.006943,1.007645,0.002149,-0.066118,-0.01607,60.829926,23.991898,-146.373932,,,
729608772.869896,-0.550487,-2.74346,60.013205,0.049835,-0.004471,1.00415,0.002149,-0.066118,-0.01607,60.829926,23.991898,-146.373932,,,
729608772.87325,-0.550487,-2.74346,60.013205,0.049835,-0.004471,1.00415,0.002149,-0.066118,-0.01607,60.829926,23.991898,-146.373932,,,
729608772.876574,-0.550278,-2.760861,60.008332,0.049835,-0.004471,1.00415,0.001876,-0.055392,-0.019886,60.829926,23.991898,-146.373932,,,
729608772.8799,-0.547009,-2.779886,60.003972,0.048569,-0.009949,1.005142,0.001876,-0.055392,-0.019886,60.829926,23.991898,-146.373932,,,
729608772.883237,-0.547009,-2.779886,60.003972,0.048569,-0.009949,1.005142,0.001876,-0.055392,-0.019886,60.829926,23.991898,-146.373932,,,
729608772.886578,-0.544766,-2.796535,59.999339,0.048569,-0.009949,1.005142,0.008349,-0.055382,-0.019348,60.829926,23.991898,-146.373932,,,
729608772.889931,-0.539009,-2.814108,59.993911,0.0504,-0.012833,1.00824,0.008349,-0.055382,-0.019348,60.829926,23.991898,-146.373932,,,
729608772.893302,-0.539009,-2.814108,59.993911,0.0504,-0.012833,1.00824,0.008349,-0.055382,-0.019348,60.829926,23.991898,-146.373932,,,
729608772.896582,-0.533289,-2.830971,59.987393,0.0504,-0.012833,1.00824,0.020439,-0.053675,-0.024577,60.823273,24.101349,-146.125793,,,
729608772.899898,-0.524534,-2.847647,59.979873,0.051239,-0.012894,1.002975,0.020439,-0.053675,-0.024577,60.823273,24.101349,-146.125793,,,
729608772.903237,-0.524534,-2.847647,59.979873,0.051239,-0.012894,1.002975,0.020439,-0.053675,-0.024577,60.823273,24.101349,-146.125793,,,
729608772.906646,-0.515341,-2.86498,59.97155,0.051239,-0.012894,1.002975,0.029705,-0.057303,-0.03398,60.823273,24.101349,-146.125793,,,
729608772.909893,-0.503454,-2.87936,59.963352,0.053314,-0.011856,1.001144,0.029705,-0.057303,-0.03398,60.823273,24.101349,-146.125793,,,
729608772.913254,-0.503454,-2.87936,59.963352,0.053314,-0.011856,1.001144,0.029705,-0.057303,-0.03398,60.823273,24.101349,-146.125793,,,
729608772.916574,-0.492931,-2.894899,59.955447,0.053314,-0.011856,1.001144,0.036762,-0.050263,-0.031841,60.823273,24.101349,-146.125793,,,
729608772.919899,-0.481662,-2.906368,59.947451,0.05304,-0.013168,0.991882,0.036762,-0.050263,-0.031841,60.823273,24.101349,-146.125793,,,
729608772.923228,-0.481662,-2.906368,59.947451,0.05304,-0.013168,0.991882,0.036762,-0.050263,-0.031841,60.823273,24.101349,-146.125793,,,
729608772.926581,-0.472463,-2.918764,59.939766,0.05304,-0.013168,0.991882,0.031779,-0.041094,-0.028776,60.823273,24.101349,-146.125793,,,
729608772.929899,-0.463969,-2.927606,59.931856,0.053284,-0.011856,0.983978,0.031779,-0.041094,-0.028776,60.823273,24.101349,-146.125793,,,
729608772.933238,-0.463969,-2.927606,59.931856,0.053284,-0.011856,0.983978,0.031779,-0.041094,-0.028776,60.823273,24.101349,-146.125793,,,
729608772.936589,-0.457274,-2.936742,59.923352,0.053284,-0.011856,0.983978,0.026228,-0.02742,-0.031454,60.744537,24.125031,-146.401505,,,
729608772.939898,-0.449866,-2.944398,59.914659,0.057175,-0.008438,0.98494,0.026228,-0.02742,-0.031454,60.744537,24.125031,-146.401505,,,
729608772.943253,-0.449866,-2.944398,59.914659,0.057175,-0.008438,0.98494,0.026228,-0.02742,-0.031454,60.744537,24.125031,-146.401505,,,
729608772.946588,-0.441313,-2.95161,59.905799,0.057175,-0.008438,0.98494,0.027565,-0.020325,-0.033471,60.744537,24.125031,-146.401505,,,
729608772.949896,-0.430985,-2.958031,59.896324,0.056534,-0.007431,0.983093,0.027565,-0.020325,-0.033471,60.744537,24.125031,-146.401505,,,
729608772.953241,-0.430985,-2.958031,59.896324,0.056534,-0.007431,0.983093,0.027565,-0.020325,-0.033471,60.744537,24.125031,-146.401505,,,
729608772.95663,-0.420895,-2.9643,59.886444,0.056534,-0.007431,0.983093,0.035051,-0.019793,-0.038235,60.744537,24.125031,-146.401505,,,
729608772.959888,-0.410118,-2.969013,59.87643,0.056244,-0.008453,0.983841,0.035051,-0.019793,-0.038235,60.744537,24.125031,-146.401505,,,
729608772.963253,-0.410118,-2.969013,59.87643,0.056244,-0.008453,0.983841,0.035051,-0.019793,-0.038235,60.744537,24.125031,-146.401505,,,
729608772.966575,-0.399343,-2.974417,59.866591,0.056244,-0.008453,0.983841,0.037065,-0.014887,-0.037792,60.744537,24.125031,-146.401505,,,
729608772.969934,-0.391183,-2.978834,59.857419,0.055954,-0.00795,0.978851,0.037065,-0.014887,-0.037792,60.744537,24.125031,-146.401505,,,
729608772.973269,-0.391183,-2.978834,59.857419,0.055954,-0.00795,0.978851,0.037065,-0.014887,-0.037792,60.744537,24.125031,-146.401505,,,
729608772.97661,-0.382791,-2.982969,59.848707,0.055954,-0.00795,0.978851,0.030383,-0.009383,-0.033258,60.640015,23.924438,-146.489944,,,
729608772.979908,-0.378325,-2.984125,59.840906,0.053497,-0.006134,0.976334,0.030383,-0.009383,-0.033258,60.640015,23.924438,-146.489944,,,
729608772.983343,-0.378325,-2.984125,59.840906,0.053497,-0.006134,0.976334,0.030383,-0.009383,-0.033258,60.640015,23.924438,-146.489944,,,
729608772.986585,-0.374146,-2.983063,59.833321,0.053497,-0.006134,0.976334,0.013779,0.008025,-0.025352,60.640015,23.924438,-146.489944,,,
729608772.989922,-0.373347,-2.98028,59.825762,0.057495,-0.005676,0.977997,0.013779,0.008025,-0.025352,60.640015,23.924438,-146.489944,,,
729608772.993251,-0.373347,-2.98028,59.825762,0.057495,-0.005676,0.977997,0.013779,0.008025,-0.025352,60.640015,23.924438,-146.489944,,,
729608772.996652,-0.372573,-2.976782,59.818328,0.057495,-0.005676,0.977997,0.002626,0.013398,-0.026596,60.640015,23.924438,-146.489944,,,
729608772.999971,-0.374905,-2.973964,59.810215,0.058029,-0.002029,0.975098,0.002626,0.013398,-0.026596,60.640015,23.924438,-146.489944,,,
729608773.003236,-0.374905,-2.973964,59.810215,0.058029,-0.002029,0.975098,0.002626,0.013398,-0.026596,60.640015,23.924438,-146.489944,,,
729608773.006588,-0.377064,-2.970832,59.801826,0.058029,-0.002029,0.975098,-0.007935,0.013539,-0.030136,60.640015,23.924438,-146.489944,,,
729608773.009897,-0.383721,-2.968356,59.79351,0.047028,-0.000397,0.97496,-0.007935,0.013539,-0.030136,60.640015,23.924438,-146.489944,,,
729608773.013247,-0.383721,-2.968356,59.79351,0.047028,-0.000397,0.97496,-0.007935,0.013539,-0.030136,60.640015,23.924438,-146.489944,,,
729608773.016562,-0.390798,-2.966797,59.786474,0.047028,-0.000397,0.97496,-0.02745,0.00857,-0.026901,60.691177,23.98082,-146.47998,,,
729608773.019894,-0.400359,-2.969523,59.781687,0.037537,-0.001633,0.977966,-0.02745,0.00857,-0.026901,60.691177,23.98082,-146.47998,,,
729608773.023249,-0.400359,-2.969523,59.781687,0.037537,-0.001633,0.977966,-0.02745,0.00857,-0.026901,60.691177,23.98082,-146.47998,,,
729608773.026582,-0.411041,-2.973485,59.779167,0.037537,-0.001633,0.977966,-0.036069,-0.010494,-0.008584,60.691177,23.98082,-146.47998,,,
729608773.029902,-0.423185,-2.981679,59.778408,0.035507,-0.008347,0.979111,-0.036069,-0.010494,-0.008584,60.691177,23.98082,-146.47998,,,
729608773.033295,-0.423185,-2.981679,59.778408,0.035507,-0.008347,0.979111,-0.036069,-0.010494,-0.008584,60.691177,23.98082,-146.47998,,,
729608773.036577,-0.436361,-2.990468,59.778192,0.035507,-0.008347,0.979111,-0.04574,-0.030961,0.000155,60.691177,23.98082,-146.47998,,,
729608773.039901,-0.450367,-3.002479,59.777692,0.042831,-0.005051,0.984879,-0.04574,-0.030961,0.000155,60.691177,23.98082,-146.47998,,,
729608773.043247,-0.450367,-3.002479,59.777692,0.042831,-0.005051,0.984879,-0.04574,-0.030961,0.000155,60.691177,23.98082,-146.47998,,,
729608773.046621,-0.46335,-3.015304,59.777227,0.042831,-0.005051,0.984879,-0.042841,-0.041961,-0.001886,60.691177,23.98082,-146.47998,,,
729608773.049889,-0.475446,-3.030986,59.776609,0.053787,-0.000824,0.990524,-0.042841,-0.041961,-0.001886,60.691177,23.98082,-146.47998,,,
729608773.053243,-0.475446,-3.030986,59.776609,0.053787,-0.000824,0.990524,-0.042841,-0.041961,-0.001886,60.691177,23.98082,-146.47998,,,
729608773.056722,-0.487969,-3.045554,59.775605,0.053787,-0.000824,0.990524,-0.038861,-0.047521,-0.001423,60.691177,23.98082,-146.47998,,,
729608773.059892,-0.500602,-3.059805,59.775509,0.055359,-7.6e-05,0.993378,-0.038861,-0.047521,-0.001423,60.347229,24.229279,-146.611328,,,
729608773.063255,-0.500602,-3.059805,59.775509,0.055359,-7.6e-05,0.993378,-0.038861,-0.047521,-0.001423,60.347229,24.229279,-146.611328,,,
729608773.066589,-0.513923,-3.072301,59.776922,0.055359,-7.6e-05,0.993378,-0.045437,-0.040687,0.005519,60.347229,24.229279,-146.611328,,,
729608773.069898,-0.52811,-3.084609,59.78028,0.055222,-0.00473,0.995178,-0.045437,-0.040687,0.005519,60.347229,24.229279,-146.611328,,,
729608773.073313,-0.52811,-3.084609,59.78028,0.055222,-0.00473,0.995178,-0.045437,-0.040687,0.005519,60.347229,24.229279,-146.611328,,,
729608773.076568,-0.543926,-3.095415,59.785657,0.055222,-0.00473,0.995178,-0.050542,-0.03736,0.020315,60.347229,24.229279,-146.611328,,,
729608773.079898,-0.559224,-3.106231,59.792585,0.056412,-0.006714,0.995621,-0.050542,-0.03736,0.020315,60.347229,24.229279,-146.611328,,,
729608773.083232,-0.559224,-3.106231,59.792585,0.056412,-0.006714,0.995621,-0.050542,-0.03736,0.020315,60.347229,24.229279,-146.611328,,,
729608773.086584,-0.576607,-3.114791,59.800964,0.056412,-0.006714,0.995621,-0.058891,-0.027713,0.029945,60.347229,24.229279,-146.611328,,,
729608773.089897,-0.593461,-3.123173,59.809825,0.057739,-0.002365,0.998596,-0.058891,-0.027713,0.029945,60.347229,24.229279,-146.611328,,,
729608773.093242,-0.593461,-3.123173,59.809825,0.057739,-0.002365,0.998596,-0.058891,-0.027713,0.029945,60.347229,24.229279,-146.611328,,,
729608773.096626,-0.613303,-3.133195,59.818476,0.057739,-0.002365,0.998596,-0.068496,-0.028734,0.034103,60.347229,24.229279,-146.611328,,,
729608773.099892,-0.631958,-3.142849,59.827328,0.052353,-0.000198,0.995438,-0.068496,-0.028734,0.034103,60.53125,24.213104,-146.217499,,,
729608773.103239,-0.631958,-3.142849,59.827328,0.052353,-0.000198,0.995438,-0.068496,-0.028734,0.034103,60.53125,24.213104,-146.217499,,,
729608773.106558,-0.653279,-3.160511,59.837541,0.052353,-0.000198,0.995438,-0.072213,-0.060259,0.038455,60.53125,24.213104,-146.217499,,,
729608773.109897,-0.673933,-3.179321,59.849717,0.046173,-0.004364,0.995361,-0.072213,-0.060259,0.038455,60.53125,24.213104,-146.217499,,,
729608773.113242,-0.673933,-3.179321,59.849717,0.046173,-0.004364,0.995361,-0.072213,-0.060259,0.038455,60.53125,24.213104,-146.217499,,,
729608773.11658,-0.696683,-3.208476,59.86309,0.046173,-0.004364,0.995361,-0.077013,-0.099409,0.047597,60.53125,24.213104,-146.217499,,,
729608773.119933,-0.718579,-3.238672,59.87717,0.045837,-0.006073,0.997147,-0.077013,-0.099409,0.047597,60.53125,24.213104,-146.217499,,,
729608773.123311,-0.718579,-3.238672,59.87717,0.045837,-0.006073,0.997147,-0.077013,-0.099409,0.047597,60.53125,24.213104,-146.217499,,,
729608773.126588,-0.741125,-3.277939,59.891277,0.045837,-0.006073,0.997147,-0.074032,-0.135261,0.052333,60.53125,24.213104,-146.217499,,,
729608773.12991,-0.760187,-3.319376,59.904772,0.054153,-0.000534,1.004181,-0.074032,-0.135261,0.052333,60.53125,24.213104,-146.217499,,,
729608773.133304,-0.760187,-3.319376,59.904772,0.054153,-0.000534,1.004181,-0.074032,-0.135261,0.052333,60.53125,24.213104,-146.217499,,,
729608773.136588,-0.7813,-3.3645,59.917558,0.054153,-0.000534,1.004181,-0.069089,-0.155315,0.049698,60.53125,24.213104,-146.217499,,,
729608773.139905,-0.795875,-3.408458,59.929667,0.063919,0.002731,1.013306,-0.069089,-0.155315,0.049698,60.373749,24.543884,-146.234253,,,
729608773.143248,-0.795875,-3.408458,59.929667,0.063919,0.002731,1.013306,-0.069089,-0.155315,0.049698,60.373749,24.543884,-146.234253,,,
729608773.146641,-0.812623,-3.451495,59.940637,0.063919,0.002731,1.013306,-0.056653,-0.147309,0.038508,60.373749,24.543884,-146.234253,,,
729608773.149894,-0.824074,-3.489142,59.950186,0.072693,0.000839,1.023972,-0.056653,-0.147309,0.038508,60.373749,24.543884,-146.234253,,,
729608773.153253,-0.824074,-3.489142,59.950186,0.072693,0.000839,1.023972,-0.056653,-0.147309,0.038508,60.373749,24.543884,-146.234253,,,
729608773.156622,-0.836622,-3.523814,59.958533,0.072693,0.000839,1.023972,-0.039611,-0.117535,0.032173,60.373749,24.543884,-146.234253,,,
729608773.159929,-0.844037,-3.551407,59.966139,0.079208,-0.003342,1.029907,-0.039611,-0.117535,0.032173,60.373749,24.543884,-146.234253,,,
729608773.163253,-0.844037,-3.551407,59.966139,0.079208,-0.003342,1.029907,-0.039611,-0.117535,0.032173,60.373749,24.543884,-146.234253,,,
729608773.166611,-0.851192,-3.574322,59.972653,0.079208,-0.003342,1.029907,-0.021925,-0.078927,0.025078,60.373749,24.543884,-146.234253,,,
729608773.169899,-0.852167,-3.58837,59.978367,0.078751,-0.00827,1.03154,-0.021925,-0.078927,0.025078,60.373749,24.543884,-146.234253,,,
729608773.173334,-0.852167,-3.58837,59.978367,0.078751,-0.00827,1.03154,-0.021925,-0.078927,0.025078,60.373749,24.543884,-146.234253,,,
729608773.176575,-0.852579,-3.597425,59.983295,0.078751,-0.00827,1.03154,-0.001005,-0.028055,0.014106,60.373749,24.543884,-146.234253,,,
729608773.179906,-0.844579,-3.598749,59.986609,0.077682,-0.008575,1.032883,-0.001005,-0.028055,0.014106,60.05957,24.534317,-146.42569,,,
729608773.183241,-0.844579,-3.598749,59.986609,0.077682,-0.008575,1.032883,-0.001005,-0.028055,0.014106,60.05957,24.534317,-146.42569,,,
729608773.18659,-0.836926,-3.598013,59.988486,0.077682,-0.008575,1.032883,0.030613,0.005699,0.005715,60.05957,24.534317,-146.42569,,,
729608773.189896,-0.822764,-3.590076,59.989648,0.075531,-0.013336,1.02153,0.030613,0.005699,0.005715,60.05957,24.534317,-146.42569,,,
729608773.193235,-0.822764,-3.590076,59.989648,0.075531,-0.013336,1.02153,0.030613,0.005699,0.005715,60.05957,24.534317,-146.42569,,,
729608773.19658,-0.81022,-3.584947,59.990108,0.075531,-0.013336,1.02153,0.043911,0.021863,-0.002655,60.05957,24.534317,-146.42569,,,
729608773.199896,-0.793705,-3.572327,59.990474,0.063675,-0.013031,1.005402,0.043911,0.021863,-0.002655,60.05957,24.534317,-146.42569,,,
729608773.203246,-0.793705,-3.572327,59.990474,0.063675,-0.013031,1.005402,0.043911,0.021863,-0.002655,60.05957,24.534317,-146.42569,,,
729608773.206577,-0.777496,-3.565126,59.991502,0.063675,-0.013031,1.005402,0.057201,0.029975,-0.001372,60.05957,24.534317,-146.42569,,,
729608773.209897,-0.755996,-3.555138,59.993658,0.053284,-0.015503,0.994736,0.057201,0.029975,-0.001372,60.05957,24.534317,-146.42569,,,
729608773.21324,-0.755996,-3.555138,59.993658,0.053284,-0.015503,0.994736,0.057201,0.029975,-0.001372,60.05957,24.534317,-146.42569,,,
729608773.216577,-0.736259,-3.551435,59.996764,0.053284,-0.015503,0.994736,0.070106,0.014407,0.007339,60.05957,24.534317,-146.42569,,,
729608773.219893,-0.710942,-3.549907,60.000923,0.051849,-0.018097,0.983292,0.070106,0.014407,0.007339,60.05957,24.534317,-146.42569,,,
729608773.22323,-0.710942,-3.549907,60.000923,0.051849,-0.018097,0.983292,0.070106,0.014407,0.007339,60.006317,24.447189,-146.480331,,,
729608773.226557,-0.68972,-3.551636,60.004992,0.051849,-0.018097,0.983292,0.077255,-0.003913,0.008802,60.006317,24.447189,-146.480331,,,
729608773.229896,-0.66476,-3.55774,60.008238,0.053238,-0.013794,0.972183,0.077255,-0.003913,0.008802,60.006317,24.447189,-146.480331,,,
729608773.233294,-0.66476,-3.55774,60.008238,0.053238,-0.013794,0.972183,0.077255,-0.003913,0.008802,60.006317,24.447189,-146.480331,,,
729608773.236563,-0.645583,-3.563526,60.01111,0.053238,-0.013794,0.972183,0.067945,-0.014662,0.005474,60.006317,24.447189,-146.480331,,,
729608773.239917,-0.62613,-3.575234,60.013954,0.059891,-0.006851,0.966827,0.067945,-0.014662,0.005474,60.006317,24.447189,-146.480331,,,
729608773.243244,-0.62613,-3.575234,60.013954,0.059891,-0.006851,0.966827,0.067945,-0.014662,0.005474,60.006317,24.447189,-146.480331,,,
729608773.246622,-0.612553,-3.583657,60.016988,0.059891,-0.006851,0.966827,0.048305,-0.026878,0.0066,60.006317,24.447189,-146.480331,,,
729608773.249887,-0.60127,-3.596726,60.019526,0.063751,-0.007782,0.963974,0.048305,-0.026878,0.0066,60.006317,24.447189,-146.480331,,,
729608773.253242,-0.60127,-3.596726,60.019526,0.063751,-0.007782,0.963974,0.048305,-0.026878,0.0066,60.006317,24.447189,-146.480331,,,
729608773.256574,-0.594027,-3.605681,60.021234,0.063751,-0.007782,0.963974,0.030491,-0.026742,0.001956,60.006317,24.447189,-146.480331,,,
729608773.259892,-0.587269,-3.61816,60.021529,0.073502,-0.006012,0.962479,0.030491,-0.026742,0.001956,60.006317,24.447189,-146.480331,,,
729608773.263248,-0.587269,-3.61816,60.021529,0.073502,-0.006012,0.962479,0.030491,-0.026742,0.001956,59.869507,24.370972,-146.623672,,,
729608773.266676,-0.581694,-3.628422,60.020423,0.073502,-0.006012,0.962479,0.014659,-0.032944,-0.003477,59.869507,24.370972,-146.623672,,,
729608773.269937,-0.576614,-3.641889,60.018714,0.072403,-0.005142,0.966156,0.014659,-0.032944,-0.003477,59.869507,24.370972,-146.623672,,,
729608773.273329,-0.576614,-3.641889,60.018714,0.072403,-0.005142,0.966156,0.014659,-0.032944,-0.003477,59.869507,24.370972,-146.623672,,,
729608773.276582,-0.57114,-3.653386,60.01715,0.072403,-0.005142,0.966156,0.019576,-0.039553,-0.007938,59.869507,24.370972,-146.623672,,,
729608773.279901,-0.566277,-3.666133,60.015367,0.065826,-0.013336,0.977066,0.019576,-0.039553,-0.007938,59.869507,24.370972,-146.623672,,,
729608773.283242,-0.566277,-3.666133,60.015367,0.065826,-0.013336,0.977066,0.019576,-0.039553,-0.007938,59.869507,24.370972,-146.623672,,,
729608773.286658,-0.561143,-3.676749,60.013198,0.065826,-0.013336,0.977066,0.01476,-0.032595,-0.010289,59.869507,24.370972,-146.623672,,,
729608773.289883,-0.556817,-3.683786,60.011431,0.064285,-0.016388,0.980988,0.01476,-0.032595,-0.010289,59.869507,24.370972,-146.623672,,,
729608773.293244,-0.556817,-3.683786,60.011431,0.064285,-0.016388,0.980988,0.01476,-0.032595,-0.010289,59.869507,24.370972,-146.623672,,,
729608773.296581,-0.552249,-3.690857,60.009974,0.064285,-0.016388,0.980988,0.014908,-0.019897,-0.008164,59.869507,24.370972,-146.623672,,,
729608773.299892,-0.550033,-3.693281,60.00856,0.063812,-0.020813,0.986038,0.014908,-0.019897,-0.008164,59.869507,24.370972,-146.623672,,,
729608773.303224,-0.550033,-3.693281,60.00856,0.063812,-0.020813,0.986038,0.014908,-0.019897,-0.008164,59.833328,24.336273,-146.797241,,,
729608773.306626,-0.5467,-3.695624,60.007393,0.063812,-0.020813,0.986038,0.01195,-0.008465,-0.007755,59.833328,24.336273,-146.797241,,,
729608773.309895,-0.5467,-3.695624,60.007393,0.059769,-0.024231,0.993225,0.01195,-0.008465,-0.007755,59.833328,24.336273,-146.797241,,,
729608773.313298,-0.545706,-3.69339,60.0067,0.059769,-0.024231,0.993225,0.01195,-0.008465,-0.007755,59.833328,24.336273,-146.797241,,,
729608773.316562,-0.543841,-3.691127,60.006553,0.059769,-0.024231,0.993225,0.006005,0.0113,-0.001702,59.833328,24.336273,-146.797241,,,
729608773.319904,-0.541452,-3.685489,60.008089,0.053009,-0.028122,0.996628,0.006005,0.0113,-0.001702,59.833328,24.336273,-146.797241,,,
729608773.323238,-0.541452,-3.685489,60.008089,0.053009,-0.028122,0.996628,0.006005,0.0113,-0.001702,59.833328,24.336273,-146.797241,,,
729608773.326633,-0.538015,-3.679984,60.011472,0.053009,-0.028122,0.996628,0.013214,0.023548,0.010896,59.833328,24.336273,-146.797241,,,
729608773.329886,-0.538015,-3.679984,60.011472,0.047501,-0.030853,1.003098,0.013214,0.023548,0.010896,59.833328,24.336273,-146.797241,,,
729608773.333262,-0.531611,-3.675038,60.016459,0.047501,-0.030853,1.003098,0.013214,0.023548,0.010896,59.833328,24.336273,-146.797241,,,
729608773.336653,-0.524182,-3.671845,60.022247,0.047501,-0.030853,1.003098,0.027729,0.01692,0.016685,59.833328,24.336273,-146.797241,,,
729608773.339921,-0.524182,-3.671845,60.026971,0.050964,-0.031082,0.996674,0.027729,0.01692,0.016685,59.833328,24.336273,-146.797241,,,
729608773.34324,-0.515919,-3.671839,60.026971,0.050964,-0.031082,0.996674,0.027729,0.01692,0.016685,59.881668,24.152908,-146.257355,,,
729608773.34657,-0.507963,-3.668774,60.030156,0.050964,-0.031082,0.996674,0.030782,0.012753,0.008572,59.881668,24.152908,-146.257355,,,
729608773.349924,-0.507963,-3.668774,60.030156,0.057709,-0.020905,0.988556,0.030782,0.012753,0.008572,59.881668,24.152908,-146.257355,,,
729608773.353319,-0.499601,-3.668663,60.031951,0.057709,-0.020905,0.988556,0.030782,0.012753,0.008572,59.881668,24.152908,-146.257355,,,
729608773.356575,-0.492537,-3.66568,60.033003,0.057709,-0.020905,0.988556,0.029146,0.013144,-0.000285,59.881668,24.152908,-146.257355,,,
729608773.3599,-0.492537,-3.66568,60.033003,0.062119,-0.014755,0.983459,0.029146,0.013144,-0.000285,59.881668,24.152908,-146.257355,,,
729608773.363253,-0.485627,-3.663714,60.033441,0.062119,-0.014755,0.983459,0.029146,0.013144,-0.000285,59.881668,24.152908,-146.257355,,,
729608773.366618,-0.478261,-3.660338,60.032845,0.062119,-0.014755,0.983459,0.024432,0.014169,-0.004774,59.881668,24.152908,-146.257355,,,
729608773.369957,-0.478261,-3.660338,60.032845,0.062119,-0.014755,0.983459,0.024432,0.014169,-0.004774,59.881668,24.152908,-146.257355,,,
729608773.37324,-0.472583,-3.656939,60.030597,0.065384,-0.016129,0.978104,0.024432,0.014169,-0.004774,59.881668,24.152908,-146.257355,,,
729608773.376593,-0.466682,-3.652546,60.02681,0.065384,-0.016129,0.978104,0.019087,0.019507,-0.013607,59.881668,24.152908,-146.257355,,,
729608773.379965,-0.466682,-3.652546,60.02681,0.065384,-0.016129,0.978104,0.019087,0.019507,-0.013607,59.881668,24.152908,-146.257355,,,
729608773.383254,-0.463659,-3.647494,60.022298,0.069199,-0.01059,0.973831,0.019087,0.019507,-0.013607,59.881668,24.152908,-146.257355,,,
729608773.386558,-0.460231,-3.641044,60.018101,0.069199,-0.01059,0.973831,0.010984,0.024737,-0.020351,60.006104,24.107666,-146.486969,,,
729608773.389898,-0.460231,-3.641044,60.018101,0.069199,-0.01059,0.973831,0.010984,0.024737,-0.020351,60.006104,24.107666,-146.486969,,,
729608773.393296,-0.460684,-3.632198,60.014581,0.066238,-0.006882,0.974838,0.010984,0.024737,-0.020351,60.006104,24.107666,-146.486969,,,
729608773.396583,-0.459713,-3.620834,60.010972,0.066238,-0.006882,0.974838,0.003644,0.042327,-0.014386,60.006104,24.107666,-146.486969,,,
729608773.399902,-0.459713,-3.620834,60.010972,0.063583,-0.006744,0.977722,0.003644,0.042327,-0.014386,60.006104,24.107666,-146.486969,,,
729608773.403255,-0.463526,-3.606789,60.007091,0.063583,-0.006744,0.977722,0.003644,0.042327,-0.014386,60.006104,24.107666,-146.486969,,,
729608773.406554,-0.465836,-3.593842,60.002767,0.063583,-0.006744,0.977722,-0.011099,0.04819,-0.017739,60.006104,24.107666,-146.486969,,,
729608773.409969,-0.465836,-3.593842,60.002767,0.063583,-0.006744,0.977722,-0.011099,0.04819,-0.017739,60.006104,24.107666,-146.486969,,,
729608773.413255,-0.474218,-3.57813,59.997855,0.062485,-0.00209,0.975525,-0.011099,0.04819,-0.017739,60.006104,24.107666,-146.486969,,,
729608773.416561,-0.480229,-3.565872,59.992559,0.062485,-0.00209,0.975525,-0.017375,0.045823,-0.019771,60.006104,24.107666,-146.486969,,,
729608773.419986,-0.480229,-3.565872,59.992559,0.062485,-0.00209,0.975525,-0.017375,0.045823,-0.019771,60.006104,24.107666,-146.486969,,,
729608773.423235,-0.491538,-3.551719,59.987621,0.06105,-0.001389,0.976517,-0.017375,0.045823,-0.019771,60.006104,24.107666,-146.486969,,,
729608773.426572,-0.499609,-3.542411,59.983611,0.06105,-0.001389,0.976517,-0.028245,0.037415,-0.012463,59.985855,24.290588,-146.726913,,,
729608773.429953,-0.499609,-3.542411,59.983611,0.06105,-0.001389,0.976517,-0.028245,0.037415,-0.012463,59.985855,24.290588,-146.726913,,,
729608773.433231,-0.512659,-3.534826,59.980192,0.057434,-0.002853,0.978638,-0.028245,0.037415,-0.012463,59.985855,24.290588,-146.726913,,,
729608773.436566,-0.523532,-3.531699,59.977026,0.057434,-0.002853,0.978638,-0.037289,0.013754,-0.00997,59.985855,24.290588,-146.726913,,,
729608773.439918,-0.523532,-3.531699,59.977026,0.057434,-0.002853,0.978638,-0.037289,0.013754,-0.00997,59.985855,24.290588,-146.726913,,,
729608773.443319,-0.538818,-3.530796,59.973432,0.060135,-0.004135,0.977325,-0.037289,0.013754,-0.00997,59.985855,24.290588,-146.726913,,,
729608773.446564,-0.555524,-3.531154,59.969019,0.060135,-0.004135,0.977325,-0.057375,0.002818,-0.013298,59.985855,24.290588,-146.726913,,,
729608773.449952,-0.555524,-3.531154,59.969019,0.060135,-0.004135,0.977325,-0.057375,0.002818,-0.013298,59.985855,24.290588,-146.726913,,,
729608773.453242,-0.575615,-3.532291,59.964005,0.059845,0.000473,0.983109,-0.057375,0.002818,-0.013298,59.985855,24.290588,-146.726913,,,
729608773.456574,-0.596045,-3.532771,59.958852,0.059845,0.000473,0.983109,-0.071858,0.002538,-0.016116,59.985855,24.290588,-146.726913,,,
729608773.45995,-0.596045,-3.532771,59.958852,0.059845,0.000473,0.983109,-0.071858,0.002538,-0.016116,59.985855,24.290588,-146.726913,,,
729608773.463251,-0.618412,-3.535975,59.953953,0.059341,-0.000366,0.992477,-0.071858,0.002538,-0.016116,59.985855,24.290588,-146.726913,,,
729608773.466573,-0.640433,-3.538348,59.949091,0.059341,-0.000366,0.992477,-0.076441,-0.005866,-0.010972,60.079514,24.502792,-146.750977,,,
729608773.470019,-0.640433,-3.538348,59.949091,0.059341,-0.000366,0.992477,-0.076441,-0.005866,-0.010972,60.079514,24.502792,-146.750977,,,
729608773.473228,-0.66121,-3.543987,59.944636,0.055023,-0.008118,1.000122,-0.076441,-0.005866,-0.010972,60.079514,24.502792,-146.750977,,,
729608773.476576,-0.682027,-3.548508,59.940968,0.055023,-0.008118,1.000122,-0.074021,-0.01186,-0.008025,60.079514,24.502792,-146.750977,,,
729608773.479933,-0.682027,-3.548508,59.940968,0.055023,-0.008118,1.000122,-0.074021,-0.01186,-0.008025,60.079514,24.502792,-146.750977,,,
729608773.483298,-0.70003,-3.555191,59.938238,0.054489,-0.011856,1.007416,-0.074021,-0.01186,-0.008025,60.079514,24.502792,-146.750977,,,
729608773.486566,-0.717508,-3.562657,59.936646,0.054489,-0.011856,1.007416,-0.05993,-0.021977,-0.003425,60.079514,24.502792,-146.750977,,,
729608773.489899,-0.717508,-3.562657,59.936646,0.054489,-0.011856,1.007416,-0.05993,-0.021977,-0.003425,60.079514,24.502792,-146.750977,,,
729608773.493255,-0.732266,-3.572061,59.936106,0.058075,-0.016174,1.014801,-0.05993,-0.021977,-0.003425,60.079514,24.502792,-146.750977,,,
729608773.496573,-0.747805,-3.582285,59.936151,0.058075,-0.016174,1.014801,-0.054731,-0.032358,0.001972,60.079514,24.502792,-146.750977,,,
729608773.499911,-0.747805,-3.582285,59.936151,0.058075,-0.016174,1.014801,-0.054731,-0.032358,0.001972,60.079514,24.502792,-146.750977,,,
729608773.503254,-0.759012,-3.594081,59.935971,0.0569,-0.016022,1.014511,-0.054731,-0.032358,0.001972,60.079514,24.502792,-146.750977,,,
729608773.50658,-0.772592,-3.606623,59.935665,0.0569,-0.016022,1.014511,-0.045469,-0.038575,0.001932,60.199844,24.536255,-146.574448,,,
729608773.509961,-0.772592,-3.606623,59.935665,0.0569,-0.016022,1.014511,-0.045469,-0.038575,0.001932,60.199844,24.536255,-146.574448,,,
729608773.513284,-0.781111,-3.618691,59.935083,0.061111,-0.013504,1.016052,-0.045469,-0.038575,0.001932,60.199844,24.536255,-146.574448,,,
729608773.516565,-0.791479,-3.632883,59.933945,0.061111,-0.013504,1.016052,-0.037543,-0.04644,-0.001843,60.199844,24.536255,-146.574448,,,
729608773.519919,-0.791479,-3.632883,59.933945,0.061111,-0.013504,1.016052,-0.037543,-0.04644,-0.001843,60.199844,24.536255,-146.574448,,,
729608773.523312,-0.798517,-3.646849,59.93252,0.067947,-0.012711,1.016937,-0.037543,-0.04644,-0.001843,60.199844,24.536255,-146.574448,,,
729608773.526564,-0.807815,-3.661504,59.930392,0.067947,-0.012711,1.016937,-0.032538,-0.048265,-0.007498,60.199844,24.536255,-146.574448,,,
729608773.529905,-0.807815,-3.661504,59.930392,0.067947,-0.012711,1.016937,-0.032538,-0.048265,-0.007498,60.199844,24.536255,-146.574448,,,
729608773.533324,-0.813532,-3.67358,59.927464,0.070465,-0.01178,1.012985,-0.032538,-0.048265,-0.007498,60.199844,24.536255,-146.574448,,,
729608773.536564,-0.823703,-3.684223,59.923595,0.070465,-0.01178,1.012985,-0.037731,-0.033694,-0.014579,60.199844,24.536255,-146.574448,,,
729608773.539923,-0.823703,-3.684223,59.923595,0.070465,-0.01178,1.012985,-0.037731,-0.033694,-0.014579,60.199844,24.536255,-146.574448,,,
729608773.543248,-0.830193,-3.691831,59.918414,0.074051,-0.007614,1.009903,-0.037731,-0.033694,-0.014579,60.199844,24.536255,-146.574448,,,
729608773.546571,-0.842457,-3.698819,59.912738,0.074051,-0.007614,1.009903,-0.042013,-0.020745,-0.019957,60.199844,24.536255,-146.574448,,,
729608773.549901,-0.842457,-3.698819,59.912738,0.074051,-0.007614,1.009903,-0.042013,-0.020745,-0.019957,60.0215,24.400574,-146.64769,,,
729608773.553258,-0.852057,-3.70081,59.907091,0.07193,-0.006805,1.009628,-0.042013,-0.020745,-0.019957,60.0215,24.400574,-146.64769,,,
729608773.556574,-0.863974,-3.702675,59.902043,0.07193,-0.006805,1.009628,-0.043107,-0.001739,-0.017316,60.0215,24.400574,-146.64769,,,
729608773.559982,-0.863974,-3.702675,59.902043,0.07193,-0.006805,1.009628,-0.043107,-0.001739,-0.017316,60.0215,24.400574,-146.64769,,,
729608773.563236,-0.873531,-3.698318,59.898108,0.062485,-0.016495,1.013214,-0.043107,-0.001739,-0.017316,60.0215,24.400574,-146.64769,,,
729608773.566571,-0.882352,-3.696556,59.895184,0.062485,-0.016495,1.013214,-0.031607,0.008255,-0.008691,60.0215,24.400574,-146.64769,,,
729608773.569897,-0.882352,-3.696556,59.895184,0.062485,-0.016495,1.013214,-0.031607,0.008255,-0.008691,60.0215,24.400574,-146.64769,,,
729608773.573296,-0.888318,-3.692283,59.892811,0.05899,-0.023849,1.017212,-0.031607,0.008255,-0.008691,60.0215,24.400574,-146.64769,,,
729608773.576562,-0.892158,-3.691175,59.890229,0.05899,-0.023849,1.017212,-0.01524,0.007606,-0.008434,60.0215,24.400574,-146.64769,,,
729608773.580011,-0.892158,-3.691175,59.890229,0.05899,-0.023849,1.017212,-0.01524,0.007606,-0.008434,60.0215,24.400574,-146.64769,,,
729608773.583231,-0.89381,-3.687126,59.887735,0.062302,-0.0242,1.014221,-0.01524,0.007606,-0.008434,60.0215,24.400574,-146.64769,,,
729608773.586575,-0.893801,-3.685708,59.886182,0.062302,-0.0242,1.014221,0.000478,0.00988,-0.009178,60.0215,24.400574,-146.64769,,,
729608773.589903,-0.893801,-3.685708,59.886182,0.062302,-0.0242,1.014221,0.000478,0.00988,-0.009178,59.930328,24.505402,-146.596283,,,
729608773.593261,-0.89242,-3.681718,59.886005,0.06073,-0.020859,1.010605,0.000478,0.00988,-0.009178,59.930328,24.505402,-146.596283,,,
729608773.596572,-0.890171,-3.679288,59.886692,0.06073,-0.020859,1.010605,0.009184,0.010762,0.002469,59.930328,24.505402,-146.596283,,,
729608773.599966,-0.890171,-3.679288,59.886692,0.06073,-0.020859,1.010605,0.009184,0.010762,0.002469,59.930328,24.505402,-146.596283,,,
729608773.603249,-0.88615,-3.675764,59.887844,0.063522,-0.019608,1.005859,0.009184,0.010762,0.002469,59.930328,24.505402,-146.596283,,,
729608773.606571,-0.882274,-3.670624,59.888763,0.063522,-0.019608,1.005859,0.013886,0.021308,0.001207,59.930328,24.505402,-146.596283,,,
729608773.609914,-0.882274,-3.670624,59.888763,0.063522,-0.019608,1.005859,0.013886,0.021308,0.001207,59.930328,24.505402,-146.596283,,,
729608773.613306,-0.876901,-3.665592,59.889309,0.071075,-0.014236,1.001602,0.013886,0.021308,0.001207,59.930328,24.505402,-146.596283,,,
729608773.616565,-0.871634,-3.659071,59.890175,0.071075,-0.014236,1.001602,0.018906,0.023861,-0.001172,59.930328,24.505402,-146.596283,,,
729608773.61991,-0.871634,-3.659071,59.890175,0.071075,-0.014236,1.001602,0.018906,0.023861,-0.001172,59.930328,24.505402,-146.596283,,,
729608773.623254,-0.86405,-3.655081,59.89157,0.069153,-0.013641,0.993591,0.018906,0.023861,-0.001172,59.930328,24.505402,-146.596283,,,
729608773.626572,-0.857719,-3.648841,59.892942,0.069153,-0.013641,0.993591,0.021974,0.026697,0.000607,59.930328,24.505402,-146.596283,,,
729608773.629904,-0.857719,-3.648841,59.892942,0.069153,-0.013641,0.993591,0.021974,0.026697,0.000607,60.070557,24.395813,-146.382278,,,
729608773.633251,-0.849571,-3.645518,59.894049,0.066803,-0.010483,0.98671,0.021974,0.026697,0.000607,60.070557,24.395813,-146.382278,,,
729608773.636571,-0.844793,-3.640731,59.894602,0.066803,-0.010483,0.98671,0.016692,0.019286,-0.000399,60.070557,24.395813,-146.382278,,,
729608773.639961,-0.844793,-3.640731,59.894602,0.066803,-0.010483,0.98671,0.016692,0.019286,-0.000399,60.070557,24.395813,-146.382278,,,
729608773.643254,-0.8409,-3.637454,59.89415,0.072159,-0.006424,0.975739,0.016692,0.019286,-0.000399,60.070557,24.395813,-146.382278,,,
729608773.646571,-0.84021,-3.633914,59.892231,0.072159,-0.006424,0.975739,0.001053,0.015974,-0.007623,60.070557,24.395813,-146.382278,,,
729608773.64991,-0.84021,-3.633914,59.892231,0.072159,-0.006424,0.975739,0.001053,0.015974,-0.007623,60.070557,24.395813,-146.382278,,,
729608773.653304,-0.843895,-3.629368,59.888737,0.073776,-0.000534,0.970642,0.001053,0.015974,-0.007623,60.070557,24.395813,-146.382278,,,
729608773.656564,-0.846944,-3.627994,59.883795,0.073776,-0.000534,0.970642,-0.008556,0.00598,-0.017136,60.070557,24.395813,-146.382278,,,
729608773.659931,-0.846944,-3.627994,59.883795,0.073776,-0.000534,0.970642,-0.008556,0.00598,-0.017136,60.070557,24.395813,-146.382278,,,
729608773.663258,-0.854333,-3.626388,59.877532,0.074005,0.001465,0.973022,-0.008556,0.00598,-0.017136,60.070557,24.395813,-146.382278,,,
729608773.666573,-0.859678,-3.625498,59.870469,0.074005,0.001465,0.973022,-0.019839,0.005476,-0.025684,60.070557,24.395813,-146.382278,,,
729608773.669952,-0.859678,-3.625498,59.870469,0.074005,0.001465,0.973022,-0.019839,0.005476,-0.025684,60.070557,24.395813,-146.382278,,,
729608773.67324,-0.8669,-3.623682,59.863346,0.069626,-0.003952,0.98317,-0.019839,0.005476,-0.025684,60.393677,24.342117,-146.363327,,,
