Time (sec),Pitch (deg),Roll (deg),Yaw(deg),X-Acceleration (g),Y-Acceleration (g),Z-Acceleration (g),Pitch Rate (deg/sec),Roll Rate (deg/sec),Yaw Rate (deg/sec),Magnetic Field in X direction (uT),Magnetic Field in Y direction (uT),Magnetic Field in Z Direction (uT),Latitude (deg),Longitude (deg),Altitude (m)
729606830.759508,1.401505,-0.111863,57.46299,0.001724,0.030746,0.987015,-0.084408,-0.040358,-0.030725,61.970596,21.712341,-148.097427,,,
729606830.762841,1.376927,-0.11474,57.455046,0.000931,0.025543,1.001465,-0.086609,-0.007972,-0.027733,61.970596,21.712341,-148.097427,,,
729606830.766188,1.376927,-0.11474,57.455046,0.000931,0.025543,1.001465,-0.086609,-0.007972,-0.027733,61.970596,21.712341,-148.097427,,,
729606830.769512,1.355111,-0.111984,57.44796,0.000931,0.025543,1.001465,-0.086609,-0.007972,-0.027733,61.970596,21.712341,-148.097427,,,
729606830.772955,1.33642,-0.104423,57.442398,-0.002289,0.020218,1.020203,-0.063829,0.030404,-0.01826,61.970596,21.712341,-148.097427,,,
729606830.776231,1.33642,-0.104423,57.442398,-0.002289,0.020218,1.020203,-0.063829,0.030404,-0.01826,61.970596,21.712341,-148.097427,,,
729606830.779547,1.323266,-0.090094,57.438633,-0.002289,0.020218,1.020203,-0.063829,0.030404,-0.01826,61.970596,21.712341,-148.097427,,,
729606830.782845,1.312503,-0.076081,57.436621,-0.010239,0.014984,1.028,-0.035722,0.050656,-0.010218,62.087952,21.656967,-148.23555,,,
729606830.786175,1.312503,-0.076081,57.436621,-0.010239,0.014984,1.028,-0.035722,0.050656,-0.010218,62.087952,21.656967,-148.23555,,,
729606830.789515,1.304443,-0.054415,57.435951,-0.010239,0.014984,1.028,-0.035722,0.050656,-0.010218,62.087952,21.656967,-148.23555,,,
729606830.792843,1.295955,-0.037251,57.436541,-0.016525,0.011444,1.014999,-0.027076,0.06377,0.000671,62.087952,21.656967,-148.23555,,,
729606830.796176,1.295955,-0.037251,57.436541,-0.016525,0.011444,1.014999,-0.027076,0.06377,0.000671,62.087952,21.656967,-148.23555,,,
729606830.799509,1.288386,-0.013838,57.437366,-0.016525,0.011444,1.014999,-0.027076,0.06377,0.000671,62.087952,21.656967,-148.23555,,,
729606830.802842,1.280517,0.003397,57.438389,-0.018478,0.012909,1.008194,-0.027049,0.061651,0.003133,62.087952,21.656967,-148.23555,,,
729606830.806264,1.280517,0.003397,57.438389,-0.018478,0.012909,1.008194,-0.027049,0.061651,0.003133,62.087952,21.656967,-148.23555,,,
729606830.809508,1.273942,0.017836,57.439143,-0.018478,0.012909,1.008194,-0.027049,0.061651,0.003133,62.087952,21.656967,-148.23555,,,
729606830.812851,1.264523,0.029587,57.439421,-0.020905,0.018234,0.997101,-0.031153,0.043199,-0.001233,62.087952,21.656967,-148.23555,,,
729606830.81627,1.264523,0.029587,57.439421,-0.020905,0.018234,0.997101,-0.031153,0.043199,-0.001233,62.087952,21.656967,-148.23555,,,
729606830.81952,1.257746,0.036578,57.439309,-0.020905,0.018234,0.997101,-0.031153,0.043199,-0.001233,62.087952,21.656967,-148.23555,,,
729606830.822853,1.24714,0.046131,57.437992,-0.019821,0.020508,1.000061,-0.038187,0.036549,-0.007697,61.983597,21.800323,-148.094391,,,
729606830.826197,1.24714,0.046131,57.437992,-0.019821,0.020508,1.000061,-0.038187,0.036549,-0.007697,61.983597,21.800323,-148.094391,,,
729606830.829504,1.237867,0.052987,57.435326,-0.019821,0.020508,1.000061,-0.038187,0.036549,-0.007697,61.983597,21.800323,-148.094391,,,
729606830.832849,1.225225,0.059602,57.431841,-0.01825,0.023102,1.003922,-0.042448,0.027673,-0.012131,61.983597,21.800323,-148.094391,,,
729606830.836165,1.225225,0.059602,57.431841,-0.01825,0.023102,1.003922,-0.042448,0.027673,-0.012131,61.983597,21.800323,-148.094391,,,
729606830.83955,1.215004,0.061313,57.427862,-0.01825,0.023102,1.003922,-0.042448,0.027673,-0.012131,61.983597,21.800323,-148.094391,,,
729606830.842964,1.204537,0.059085,57.424138,-0.015671,0.021027,1.003662,-0.03268,-0.00406,-0.015866,61.983597,21.800323,-148.094391,,,
729606830.846201,1.204537,0.059085,57.424138,-0.015671,0.021027,1.003662,-0.03268,-0.00406,-0.015866,61.983597,21.800323,-148.094391,,,
729606830.849524,1.196402,0.051825,57.420809,-0.015671,0.021027,1.003662,-0.03268,-0.00406,-0.015866,61.983597,21.800323,-148.094391,,,
729606830.852847,1.18894,0.04144,57.417222,-0.018158,0.020569,1.010452,-0.025638,-0.034409,-0.013542,61.983597,21.800323,-148.094391,,,
729606830.856174,1.18894,0.04144,57.417222,-0.018158,0.020569,1.010452,-0.025638,-0.034409,-0.013542,61.983597,21.800323,-148.094391,,,
729606830.859509,1.181455,0.030386,57.413738,-0.018158,0.020569,1.010452,-0.025638,-0.034409,-0.013542,61.983597,21.800323,-148.094391,,,
729606830.862858,1.175091,0.017133,57.410652,-0.016525,0.018616,1.009705,-0.019877,-0.045418,-0.011761,61.983597,21.800323,-148.094391,,,
729606830.86619,1.175091,0.017133,57.410652,-0.016525,0.018616,1.009705,-0.019877,-0.045418,-0.011761,62.273926,21.960022,-148.173874,,,
729606830.8696,1.167489,0.009361,57.408041,-0.016525,0.018616,1.009705,-0.019877,-0.045418,-0.011761,62.273926,21.960022,-148.173874,,,
729606830.872834,1.161559,-0.003183,57.405731,-0.00795,0.018677,1.013565,-0.021436,-0.041085,-0.00816,62.273926,21.960022,-148.173874,,,
729606830.876171,1.161559,-0.003183,57.405731,-0.00795,0.018677,1.013565,-0.021436,-0.041085,-0.00816,62.273926,21.960022,-148.173874,,,
729606830.879523,1.153194,-0.006506,57.403078,-0.00795,0.018677,1.013565,-0.021436,-0.041085,-0.00816,62.273926,21.960022,-148.173874,,,
729606830.882832,1.147629,-0.01439,57.401002,0.00148,0.018738,1.014755,-0.018302,-0.024665,-0.008435,62.273926,21.960022,-148.173874,,,
729606830.886164,1.147629,-0.01439,57.401002,0.00148,0.018738,1.014755,-0.018302,-0.024665,-0.008435,62.273926,21.960022,-148.173874,,,
729606830.889507,1.141741,-0.010712,57.3989,0.00148,0.018738,1.014755,-0.018302,-0.024665,-0.008435,62.273926,21.960022,-148.173874,,,
729606830.892839,1.138327,-0.011838,57.396671,0.006897,0.022293,1.017975,-0.011399,-0.000341,-0.008201,62.273926,21.960022,-148.173874,,,
729606830.896232,1.138327,-0.011838,57.396671,0.006897,0.022293,1.017975,-0.011399,-0.000341,-0.008201,62.273926,21.960022,-148.173874,,,
729606830.899512,1.135262,-1.4e-05,57.39419,0.006897,0.022293,1.017975,-0.011399,-0.000341,-0.008201,62.273926,21.960022,-148.173874,,,
729606830.902847,1.132036,0.006929,57.391899,0.005188,0.02533,1.018875,-0.012084,0.026829,-0.011372,62.273926,21.960022,-148.173874,,,
729606830.906226,1.132036,0.006929,57.391899,0.005188,0.02533,1.018875,-0.012084,0.026829,-0.011372,62.340652,21.976547,-148.144867,,,
729606830.90956,1.129609,0.024115,57.390141,0.005188,0.02533,1.018875,-0.012084,0.026829,-0.011372,62.340652,21.976547,-148.144867,,,
729606830.912873,1.127536,0.033498,57.389517,3.1e-05,0.022491,1.015594,-0.00861,0.035521,-0.004322,62.340652,21.976547,-148.144867,,,
729606830.916191,1.127536,0.033498,57.389517,3.1e-05,0.022491,1.015594,-0.00861,0.035521,-0.004322,62.340652,21.976547,-148.144867,,,
729606830.919607,1.126786,0.046561,57.389644,3.1e-05,0.022491,1.015594,-0.00861,0.035521,-0.004322,62.340652,21.976547,-148.144867,,,
729606830.922838,1.126643,0.049984,57.390465,-0.002869,0.019989,1.011658,0.001237,0.017071,0.002885,62.340652,21.976547,-148.144867,,,
729606830.926177,1.126643,0.049984,57.390465,-0.002869,0.019989,1.011658,0.001237,0.017071,0.002885,62.340652,21.976547,-148.144867,,,
729606830.929517,1.127712,0.054107,57.391338,-0.002869,0.019989,1.011658,0.001237,0.017071,0.002885,62.340652,21.976547,-148.144867,,,
729606830.932837,1.129734,0.047627,57.391871,-0.000168,0.023254,1.005341,0.005995,-0.019357,0.000226,62.340652,21.976547,-148.144867,,,
729606830.936196,1.129734,0.047627,57.391871,-0.000168,0.023254,1.005341,0.005995,-0.019357,0.000226,62.340652,21.976547,-148.144867,,,
729606830.939522,1.132484,0.042591,57.3906,-0.000168,0.023254,1.005341,0.005995,-0.019357,0.000226,62.340652,21.976547,-148.144867,,,
729606830.942839,1.136285,0.025238,57.388251,0.007736,0.028564,1.002731,0.013638,-0.057845,-0.009651,62.340652,21.976547,-148.144867,,,
729606830.946171,1.136285,0.025238,57.388251,0.007736,0.028564,1.002731,0.013638,-0.057845,-0.009651,62.252258,22.027466,-148.079422,,,
729606830.949546,1.140951,0.008743,57.384734,0.007736,0.028564,1.002731,0.013638,-0.057845,-0.009651,62.252258,22.027466,-148.079422,,,
729606830.952834,1.147358,-0.017051,57.379455,0.017273,0.026901,1.000305,0.023221,-0.086927,-0.019392,62.252258,22.027466,-148.079422,,,
729606830.95617,1.147358,-0.017051,57.379455,0.017273,0.026901,1.000305,0.023221,-0.086927,-0.019392,62.252258,22.027466,-148.079422,,,
729606830.959509,1.154519,-0.043488,57.372348,0.017273,0.026901,1.000305,0.023221,-0.086927,-0.019392,62.252258,22.027466,-148.079422,,,
729606830.962836,1.163733,-0.071726,57.362601,0.027191,0.027054,1.001358,0.031238,-0.099477,-0.034798,62.252258,22.027466,-148.079422,,,
729606830.966194,1.163733,-0.071726,57.362601,0.027191,0.027054,1.001358,0.031238,-0.099477,-0.034798,62.252258,22.027466,-148.079422,,,
729606830.96957,1.173683,-0.099607,57.350422,0.027191,0.027054,1.001358,0.031238,-0.099477,-0.034798,62.252258,22.027466,-148.079422,,,
729606830.972872,1.183399,-0.122639,57.336175,0.034164,0.027313,1.004242,0.034422,-0.079199,-0.050257,62.252258,22.027466,-148.079422,,,
729606830.976218,1.183399,-0.122639,57.336175,0.034164,0.027313,1.004242,0.034422,-0.079199,-0.050257,62.252258,22.027466,-148.079422,,,
729606830.979529,1.193675,-0.141398,57.320445,0.034164,0.027313,1.004242,0.034422,-0.079199,-0.050257,62.252258,22.027466,-148.079422,,,
729606830.982846,1.203327,-0.152133,57.304355,0.030426,0.027054,1.006851,0.035148,-0.036142,-0.056432,62.252258,22.027466,-148.079422,,,
729606830.986226,1.203327,-0.152133,57.304355,0.030426,0.027054,1.006851,0.035148,-0.036142,-0.056432,61.924179,21.909027,-147.880905,,,
729606830.989497,1.214495,-0.157082,57.288491,0.030426,0.027054,1.006851,0.035148,-0.036142,-0.056432,61.924179,21.909027,-147.880905,,,
729606830.992844,1.226175,-0.1555,57.274307,0.018158,0.020828,1.01004,0.04076,0.008141,-0.052468,61.924179,21.909027,-147.880905,,,
729606830.996241,1.226175,-0.1555,57.274307,0.018158,0.020828,1.01004,0.04076,0.008141,-0.052468,61.924179,21.909027,-147.880905,,,
729606830.999513,1.239959,-0.146322,57.261887,0.018158,0.020828,1.01004,0.04076,0.008141,-0.052468,61.924179,21.909027,-147.880905,,,
729606831.002843,1.255574,-0.135511,57.250538,0.009857,0.020493,1.009277,0.051332,0.038256,-0.039506,61.924179,21.909027,-147.880905,,,
729606831.006174,1.255574,-0.135511,57.250538,0.009857,0.020493,1.009277,0.051332,0.038256,-0.039506,61.924179,21.909027,-147.880905,,,
729606831.009384,1.271725,-0.120755,57.239882,0.009857,0.020493,1.009277,0.051332,0.038256,-0.039506,61.924179,21.909027,-147.880905,,,
729606831.01286,1.288771,-0.107634,57.22893,0.007523,0.026733,0.998901,0.058339,0.048409,-0.041062,61.924179,21.909027,-147.880905,,,
729606831.016191,1.288771,-0.107634,57.22893,0.007523,0.026733,0.998901,0.058339,0.048409,-0.041062,61.924179,21.909027,-147.880905,,,
729606831.019532,1.306689,-0.095122,57.216885,0.007523,0.026733,0.998901,0.058339,0.048409,-0.041062,61.924179,21.909027,-147.880905,,,
729606831.022845,1.322975,-0.084063,57.203609,0.003891,0.02652,0.992676,0.058339,0.040747,-0.047579,61.924179,21.909027,-147.880905,,,
729606831.02617,1.322975,-0.084063,57.203609,0.003891,0.02652,0.992676,0.058339,0.040747,-0.047579,61.924179,21.909027,-147.880905,,,
729606831.029515,1.339349,-0.081666,57.1893,0.003891,0.02652,0.992676,0.058339,0.040747,-0.047579,61.943436,21.835022,-147.860931,,,
729606831.032842,1.353421,-0.080319,57.174022,0.000549,0.022491,0.978012,0.050002,0.003955,-0.055615,61.943436,21.835022,-147.860931,,,
729606831.036179,1.353421,-0.080319,57.174022,0.000549,0.022491,0.978012,0.050002,0.003955,-0.055615,61.943436,21.835022,-147.860931,,,
729606831.03954,1.366856,-0.092681,57.158507,0.000549,0.022491,0.978012,0.050002,0.003955,-0.055615,61.943436,21.835022,-147.860931,,,
729606831.042852,1.378113,-0.101848,57.142991,-0.002777,0.022552,0.975632,0.042345,-0.03015,-0.058229,61.943436,21.835022,-147.860931,,,
729606831.046203,1.378113,-0.101848,57.142991,-0.002777,0.022552,0.975632,0.042345,-0.03015,-0.058229,61.943436,21.835022,-147.860931,,,
729606831.0496,1.389717,-0.127177,57.128384,-0.002777,0.022552,0.975632,0.042345,-0.03015,-0.058229,61.943436,21.835022,-147.860931,,,
729606831.052842,1.400359,-0.143301,57.114474,-0.004517,0.022888,0.984818,0.037395,-0.054669,-0.052292,61.943436,21.835022,-147.860931,,,
729606831.056177,1.400359,-0.143301,57.114474,-0.004517,0.022888,0.984818,0.037395,-0.054669,-0.052292,61.943436,21.835022,-147.860931,,,
729606831.059557,1.412679,-0.173116,57.101822,-0.004517,0.022888,0.984818,0.037395,-0.054669,-0.052292,61.943436,21.835022,-147.860931,,,
729606831.062843,1.425493,-0.189255,57.090059,-0.002441,0.022186,1.000168,0.045479,-0.05374,-0.044698,61.943436,21.835022,-147.860931,,,
729606831.06618,1.425493,-0.189255,57.090059,-0.002441,0.022186,1.000168,0.045479,-0.05374,-0.044698,61.943436,21.835022,-147.860931,,,
729606831.06952,1.439486,-0.214447,57.079819,-0.002441,0.022186,1.000168,0.045479,-0.05374,-0.044698,61.868698,21.844452,-148.223328,,,
729606831.072859,1.454645,-0.229468,57.069774,0.0047,0.022873,1.003647,0.054837,-0.051463,-0.035845,61.868698,21.844452,-148.223328,,,
729606831.076176,1.454645,-0.229468,57.069774,0.0047,0.022873,1.003647,0.054837,-0.051463,-0.035845,61.868698,21.844452,-148.223328,,,
729606831.079519,1.468909,-0.24694,57.059388,0.0047,0.022873,1.003647,0.054837,-0.051463,-0.035845,61.868698,21.844452,-148.223328,,,
729606831.082845,1.484555,-0.257048,57.047553,0.016861,0.026001,1.003052,0.053004,-0.030331,-0.043957,61.868698,21.844452,-148.223328,,,
729606831.086254,1.484555,-0.257048,57.047553,0.016861,0.026001,1.003052,0.053004,-0.030331,-0.043957,61.868698,21.844452,-148.223328,,,
729606831.089499,1.497067,-0.264236,57.033284,0.016861,0.026001,1.003052,0.053004,-0.030331,-0.043957,61.868698,21.844452,-148.223328,,,
729606831.09285,1.506715,-0.264341,57.016922,0.019669,0.029221,0.99794,0.03374,0.002414,-0.060394,61.868698,21.844452,-148.223328,,,
729606831.09618,1.506715,-0.264341,57.016922,0.019669,0.029221,0.99794,0.03374,0.002414,-0.060394,61.868698,21.844452,-148.223328,,,
729606831.099577,1.513781,-0.260972,57.000086,0.019669,0.029221,0.99794,0.03374,0.002414,-0.060394,61.868698,21.844452,-148.223328,,,
729606831.102835,1.517401,-0.253695,56.984266,0.007034,0.021774,0.993408,0.01111,0.028887,-0.059737,61.868698,21.844452,-148.223328,,,
729606831.106219,1.517401,-0.253695,56.984266,0.007034,0.021774,0.993408,0.01111,0.028887,-0.059737,61.868698,21.844452,-148.223328,,,
729606831.109601,1.518768,-0.243111,56.970341,0.007034,0.021774,0.993408,0.01111,0.028887,-0.059737,62.124054,21.464661,-148.114395,,,
729606831.112879,1.520095,-0.231162,56.958535,-0.006271,0.014908,0.994766,0.004259,0.044282,-0.043106,62.124054,21.464661,-148.114395,,,
729606831.116196,1.520095,-0.231162,56.958535,-0.006271,0.014908,0.994766,0.004259,0.044282,-0.043106,62.124054,21.464661,-148.114395,,,
729606831.119524,1.521152,-0.216875,56.948401,-0.006271,0.014908,0.994766,0.004259,0.044282,-0.043106,62.124054,21.464661,-148.114395,,,
729606831.122842,1.524252,-0.205254,56.939973,-0.013733,0.012939,0.995819,0.008835,0.043658,-0.029076,62.124054,21.464661,-148.114395,,,
729606831.12619,1.524252,-0.205254,56.939973,-0.013733,0.012939,0.995819,0.008835,0.043658,-0.029076,62.124054,21.464661,-148.114395,,,
729606831.129505,1.527779,-0.191498,56.933465,-0.013733,0.012939,0.995819,0.008835,0.043658,-0.029076,62.124054,21.464661,-148.114395,,,
729606831.132844,1.532535,-0.181151,56.92839,-0.014496,0.016739,0.995743,0.017086,0.035859,-0.019898,62.124054,21.464661,-148.114395,,,
729606831.136169,1.532535,-0.181151,56.92839,-0.014496,0.016739,0.995743,0.017086,0.035859,-0.019898,62.124054,21.464661,-148.114395,,,
729606831.139524,1.536051,-0.167846,56.923775,-0.014496,0.016739,0.995743,0.017086,0.035859,-0.019898,62.124054,21.464661,-148.114395,,,
729606831.14291,1.539422,-0.158531,56.919859,-0.014404,0.018066,0.989594,0.013156,0.0356,-0.010743,62.124054,21.464661,-148.114395,,,
729606831.146181,1.539422,-0.158531,56.919859,-0.014404,0.018066,0.989594,0.013156,0.0356,-0.010743,62.124054,21.464661,-148.114395,,,
729606831.149623,1.540205,-0.149221,56.916748,-0.014404,0.018066,0.989594,0.013156,0.0356,-0.010743,62.124054,21.464661,-148.114395,,,
729606831.152836,1.540637,-0.144062,56.914762,-0.0112,0.01947,0.974945,0.004911,0.021195,-0.009446,61.914886,21.633743,-148.207169,,,
729606831.156186,1.540637,-0.144062,56.914762,-0.0112,0.01947,0.974945,0.004911,0.021195,-0.009446,61.914886,21.633743,-148.207169,,,
729606831.15951,1.538793,-0.146079,56.914074,-0.0112,0.01947,0.974945,0.004911,0.021195,-0.009446,61.914886,21.633743,-148.207169,,,
729606831.162835,1.537754,-0.148914,56.914397,-0.010361,0.02002,0.970444,-0.004107,-0.003923,-0.001709,61.914886,21.633743,-148.207169,,,
729606831.166191,1.537754,-0.148914,56.914397,-0.010361,0.02002,0.970444,-0.004107,-0.003923,-0.001709,61.914886,21.633743,-148.207169,,,
729606831.169513,1.536984,-0.161516,56.91582,-0.010361,0.02002,0.970444,-0.004107,-0.003923,-0.001709,61.914886,21.633743,-148.207169,,,
729606831.172873,1.535284,-0.169062,56.917163,-0.008392,0.020462,0.980789,-0.006182,-0.022544,0.002099,61.914886,21.633743,-148.207169,,,
729606831.17617,1.535284,-0.169062,56.917163,-0.008392,0.020462,0.980789,-0.006182,-0.022544,0.002099,61.914886,21.633743,-148.207169,,,
729606831.179531,1.532382,-0.183306,56.917986,-0.008392,0.020462,0.980789,-0.006182,-0.022544,0.002099,61.914886,21.633743,-148.207169,,,
729606831.182834,1.527215,-0.191022,56.917689,-0.003876,0.02655,0.981461,-0.0171,-0.023634,-0.002614,61.914886,21.633743,-148.207169,,,
729606831.186171,1.527215,-0.191022,56.917689,-0.003876,0.02655,0.981461,-0.0171,-0.023634,-0.002614,61.914886,21.633743,-148.207169,,,
729606831.189508,1.518528,-0.194972,56.916677,-0.003876,0.02655,0.981461,-0.0171,-0.023634,-0.002614,61.914886,21.633743,-148.207169,,,
729606831.192836,1.509599,-0.195802,56.915667,0.000793,0.028519,0.987534,-0.031659,0.00119,-0.005714,61.895081,21.582001,-148.047287,,,
729606831.196187,1.509599,-0.195802,56.915667,0.000793,0.028519,0.987534,-0.031659,0.00119,-0.005714,61.895081,21.582001,-148.047287,,,
729606831.199391,1.495198,-0.187542,56.915893,0.000793,0.028519,0.987534,-0.031659,0.00119,-0.005714,61.895081,21.582001,-148.047287,,,
729606831.202858,1.482134,-0.181903,56.918644,0.002777,0.027878,0.989517,-0.045711,0.024904,0.007705,61.895081,21.582001,-148.047287,,,
729606831.206186,1.482134,-0.181903,56.918644,0.002777,0.027878,0.989517,-0.045711,0.024904,0.007705,61.895081,21.582001,-148.047287,,,
729606831.209501,1.46514,-0.165253,56.923592,0.002777,0.027878,0.989517,-0.045711,0.024904,0.007705,61.895081,21.582001,-148.047287,,,
729606831.212871,1.450095,-0.153666,56.930426,0.001022,0.029587,0.987015,-0.056342,0.042118,0.023672,61.895081,21.582001,-148.047287,,,
729606831.216229,1.450095,-0.153666,56.930426,0.001022,0.029587,0.987015,-0.056342,0.042118,0.023672,61.895081,21.582001,-148.047287,,,
729606831.219518,1.432563,-0.133101,56.938308,0.001022,0.029587,0.987015,-0.056342,0.042118,0.023672,61.895081,21.582001,-148.047287,,,
729606831.222839,1.415899,-0.118327,56.947012,0.001724,0.030151,0.988693,-0.058346,0.056485,0.028805,61.895081,21.582001,-148.047287,,,
729606831.226171,1.415899,-0.118327,56.947012,0.001724,0.030151,0.988693,-0.058346,0.056485,0.028805,61.895081,21.582001,-148.047287,,,
729606831.229617,1.397162,-0.097733,56.955511,0.001724,0.030151,0.988693,-0.058346,0.056485,0.028805,61.895081,21.582001,-148.047287,,,
729606831.232908,1.379111,-0.084874,56.963701,0.002472,0.028763,0.986832,-0.058937,0.047611,0.027196,62.137955,21.639328,-148.054459,,,
729606831.236178,1.379111,-0.084874,56.963701,0.002472,0.028763,0.986832,-0.058937,0.047611,0.027196,62.137955,21.639328,-148.054459,,,
729606831.239546,1.359206,-0.069775,56.970832,0.002472,0.028763,0.986832,-0.058937,0.047611,0.027196,62.137955,21.639328,-148.054459,,,
729606831.242933,1.33971,-0.062894,56.977001,0.001038,0.029251,0.981781,-0.067582,0.02646,0.020987,62.137955,21.639328,-148.054459,,,
729606831.246189,1.33971,-0.062894,56.977001,0.001038,0.029251,0.981781,-0.067582,0.02646,0.020987,62.137955,21.639328,-148.054459,,,
729606831.249515,1.318962,-0.05661,56.982441,0.001038,0.029251,0.981781,-0.067582,0.02646,0.020987,62.137955,21.639328,-148.054459,,,
729606831.252918,1.297641,-0.057351,56.987372,-0.002441,0.030746,0.981598,-0.076039,0.001124,0.014384,62.137955,21.639328,-148.054459,,,
729606831.256166,1.297641,-0.057351,56.987372,-0.002441,0.030746,0.981598,-0.076039,0.001124,0.014384,62.137955,21.639328,-148.054459,,,
729606831.259508,1.275422,-0.057926,56.991254,-0.002441,0.030746,0.981598,-0.076039,0.001124,0.014384,62.137955,21.639328,-148.054459,,,
729606831.26286,1.252977,-0.062013,56.994215,-0.002853,0.027451,0.990448,-0.077031,-0.010441,0.008996,62.137955,21.639328,-148.054459,,,
729606831.266179,1.252977,-0.062013,56.994215,-0.002853,0.027451,0.990448,-0.077031,-0.010441,0.008996,62.137955,21.639328,-148.054459,,,
729606831.269519,1.232193,-0.065637,56.996481,-0.002853,0.027451,0.990448,-0.077031,-0.010441,0.008996,62.137955,21.639328,-148.054459,,,
729606831.272912,1.211873,-0.069752,56.998558,-0.002853,0.027451,1.000702,-0.071746,-0.01216,0.003377,61.930695,22.020493,-148.309189,,,
729606831.276159,1.211873,-0.069752,56.998558,0.001129,0.024551,1.000702,-0.071746,-0.01216,0.003377,61.930695,22.020493,-148.309189,,,
729606831.279556,1.195524,-0.071447,57.00045,0.001129,0.024551,1.000702,-0.071746,-0.01216,0.003377,61.930695,22.020493,-148.309189,,,
729606831.282853,1.18053,-0.068096,57.002925,0.004715,0.023834,1.011185,-0.055019,0.014861,0.004989,61.930695,22.020493,-148.309189,,,
729606831.28617,1.18053,-0.068096,57.002925,0.004715,0.023834,1.011185,-0.055019,0.014861,0.004989,61.930695,22.020493,-148.309189,,,
729606831.289504,1.168997,-0.059325,57.006763,0.004715,0.023834,1.011185,-0.055019,0.014861,0.004989,61.930695,22.020493,-148.309189,,,
729606831.292898,1.168997,-0.044029,57.011509,0.004669,0.021713,1.010773,-0.040268,0.056234,0.014401,61.930695,22.020493,-148.309189,,,
729606831.296191,1.157974,-0.044029,57.011509,0.004669,0.021713,1.010773,-0.040268,0.056234,0.014401,61.930695,22.020493,-148.309189,,,
729606831.299524,1.15105,-0.022929,57.01666,0.004669,0.021713,1.010773,-0.040268,0.056234,0.014401,61.930695,22.020493,-148.309189,,,
729606831.30286,1.15105,-0.022929,57.01666,0.004669,0.021713,1.010773,-0.026409,0.099024,0.01676,61.930695,22.020493,-148.309189,,,
729606831.306262,1.14294,0.003885,57.021959,0.005783,0.023758,1.000717,-0.026409,0.099024,0.01676,61.930695,22.020493,-148.309189,,,
729606831.309535,1.137586,0.034336,57.02709,0.005783,0.023758,1.000717,-0.026409,0.099024,0.01676,61.930695,22.020493,-148.309189,,,
729606831.312881,1.137586,0.034336,57.02709,0.005783,0.023758,1.000717,-0.022795,0.126581,0.017018,61.930695,22.020493,-148.309189,,,
729606831.316257,1.129964,0.069102,57.031931,0.004745,0.028915,0.991592,-0.022795,0.126581,0.017018,62.267715,21.788544,-148.328232,,,
729606831.319516,1.123799,0.104456,57.036618,0.004745,0.028915,0.991592,-0.022795,0.126581,0.017018,62.267715,21.788544,-148.328232,,,
729606831.322987,1.123799,0.140599,57.041279,-0.005737,0.029663,0.980804,-0.031052,0.132151,0.015416,62.267715,21.788544,-148.328232,,,
729606831.326165,1.114943,0.140599,57.041279,-0.005737,0.029663,0.980804,-0.031052,0.132151,0.015416,62.267715,21.788544,-148.328232,,,
729606831.329582,1.107782,0.172982,57.04564,-0.005737,0.029663,0.980804,-0.031052,0.132151,0.015416,62.267715,21.788544,-148.328232,,,
729606831.332865,1.107782,0.172982,57.04564,-0.005737,0.029663,0.980804,-0.031052,0.132151,0.015416,62.267715,21.788544,-148.328232,,,
729606831.336169,1.097019,0.201654,57.049311,-0.017471,0.02774,0.972946,-0.035344,0.102449,0.014211,62.267715,21.788544,-148.328232,,,
729606831.339507,1.089233,0.223996,57.052341,-0.017471,0.02774,0.972946,-0.035344,0.102449,0.014211,62.267715,21.788544,-148.328232,,,
729606831.34288,1.089233,0.223996,57.052341,-0.017471,0.02774,0.972946,-0.035344,0.102449,0.014211,62.267715,21.788544,-148.328232,,,
729606831.346194,1.080346,0.239904,57.053678,-0.020233,0.026306,0.978699,-0.027528,0.057986,0.001075,62.267715,21.788544,-148.328232,,,
729606831.34951,1.075372,0.248988,57.05312,-0.020233,0.026306,0.978699,-0.027528,0.057986,0.001075,62.267715,21.788544,-148.328232,,,
729606831.352931,1.075372,0.248988,57.05312,-0.020233,0.026306,0.978699,-0.027528,0.057986,0.001075,62.267715,21.788544,-148.328232,,,
729606831.356162,1.070594,0.254448,57.051843,-0.018082,0.024094,0.986725,-0.014976,0.022001,-0.007852,62.19017,22.136856,-148.246155,,,
729606831.359506,1.068832,0.253431,57.050456,-0.018082,0.024094,0.986725,-0.014976,0.022001,-0.007852,62.19017,22.136856,-148.246155,,,
729606831.362939,1.068832,0.253431,57.050456,-0.018082,0.024094,0.986725,-0.014976,0.022001,-0.007852,62.19017,22.136856,-148.246155,,,
729606831.36623,1.066587,0.254066,57.049626,-0.017899,0.017685,0.993195,-0.005731,0.003179,-0.005824,62.19017,22.136856,-148.246155,,,
729606831.369512,1.065533,0.251377,57.05026,-0.017899,0.017685,0.993195,-0.005731,0.003179,-0.005824,62.19017,22.136856,-148.246155,,,
729606831.372981,1.065533,0.251377,57.05026,-0.017899,0.017685,0.993195,-0.005731,0.003179,-0.005824,62.19017,22.136856,-148.246155,,,
729606831.376185,1.062931,0.254521,57.052624,-0.007889,0.015671,0.994293,-0.00815,0.012349,0.008733,62.19017,22.136856,-148.246155,,,
729606831.379606,1.059705,0.257641,57.057091,-0.007889,0.015671,0.994293,-0.00815,0.012349,0.008733,62.19017,22.136856,-148.246155,,,
729606831.382931,1.059705,0.257641,57.057091,-0.007889,0.015671,0.994293,-0.00815,0.012349,0.008733,62.19017,22.136856,-148.246155,,,
729606831.386105,1.053589,0.269723,57.063204,0.008728,0.016098,0.990738,-0.02035,0.045123,0.018535,62.19017,22.136856,-148.246155,,,
729606831.389511,1.047517,0.282551,57.07047,0.008728,0.016098,0.990738,-0.02035,0.045123,0.018535,62.19017,22.136856,-148.246155,,,
729606831.392901,1.047517,0.282551,57.07047,0.008728,0.016098,0.990738,-0.02035,0.045123,0.018535,62.19017,22.136856,-148.246155,,,
729606831.396205,1.037384,0.304072,57.077511,0.021683,0.019791,0.993973,-0.034736,0.078894,0.023385,62.618256,22.128891,-148.180649,,,
729606831.399507,1.028445,0.325932,57.083822,0.021683,0.019791,0.993973,-0.034736,0.078894,0.023385,62.618256,22.128891,-148.180649,,,
729606831.402963,1.028445,0.325932,57.083822,0.021683,0.019791,0.993973,-0.034736,0.078894,0.023385,62.618256,22.128891,-148.180649,,,
729606831.40618,1.015395,0.353546,57.088109,0.022156,0.019287,0.993927,-0.041798,0.098614,0.012157,62.618256,22.128891,-148.180649,,,
729606831.409501,1.003777,0.385058,57.089608,0.022156,0.019287,0.993927,-0.041798,0.098614,0.012157,62.618256,22.128891,-148.180649,,,
729606831.412865,1.003777,0.385058,57.089608,0.022156,0.019287,0.993927,-0.041798,0.098614,0.012157,62.618256,22.128891,-148.180649,,,
729606831.416169,0.988074,0.414483,57.088727,0.016022,0.016769,0.996902,-0.054151,0.107105,-0.005631,62.618256,22.128891,-148.180649,,,
729606831.419524,0.973925,0.447249,57.086078,0.016022,0.016769,0.996902,-0.054151,0.107105,-0.005631,62.618256,22.128891,-148.180649,,,
729606831.422853,0.973925,0.447249,57.086078,0.016022,0.016769,0.996902,-0.054151,0.107105,-0.005631,62.618256,22.128891,-148.180649,,,
729606831.426183,0.957436,0.470577,57.082512,0.001892,0.013062,0.995239,-0.055455,0.083904,-0.015099,62.618256,22.128891,-148.180649,,,
729606831.429596,0.94419,0.492027,57.078799,0.001892,0.013062,0.995239,-0.055455,0.083904,-0.015099,62.618256,22.128891,-148.180649,,,
729606831.432887,0.94419,0.492027,57.078799,0.001892,0.013062,0.995239,-0.055455,0.083904,-0.015099,62.618256,22.128891,-148.180649,,,
729606831.436177,0.929659,0.501943,57.075193,-0.011871,0.008698,0.997955,-0.050422,0.03815,-0.016869,62.861664,22.26239,-148.331863,,,
729606831.439558,0.917184,0.509817,57.071297,-0.011871,0.008698,0.997955,-0.050422,0.03815,-0.016869,62.861664,22.26239,-148.331863,,,
729606831.442907,0.917184,0.509817,57.071297,-0.011871,0.008698,0.997955,-0.050422,0.03815,-0.016869,62.861664,22.26239,-148.331863,,,
729606831.446194,0.903717,0.509532,57.068227,-0.014435,0.00766,1.001099,-0.047151,0.001032,-0.009939,62.861664,22.26239,-148.331863,,,
729606831.449517,0.89136,0.509644,57.066268,-0.014435,0.00766,1.001099,-0.047151,0.001032,-0.009939,62.861664,22.26239,-148.331863,,,
729606831.452972,0.89136,0.509644,57.066268,-0.014435,0.00766,1.001099,-0.047151,0.001032,-0.009939,62.861664,22.26239,-148.331863,,,
729606831.456152,0.881621,0.506718,57.065056,-0.010147,0.005493,1.013626,-0.034175,-0.007604,-0.007627,62.861664,22.26239,-148.331863,,,
729606831.459513,0.874442,0.501724,57.064357,-0.010147,0.005493,1.013626,-0.034175,-0.007604,-0.007627,62.861664,22.26239,-148.331863,,,
729606831.462856,0.874442,0.501724,57.064357,-0.010147,0.005493,1.013626,-0.034175,-0.007604,-0.007627,62.861664,22.26239,-148.331863,,,
729606831.466252,0.868693,0.500079,57.064196,-0.00441,0.004288,1.023605,-0.017177,-0.001839,-0.002103,62.861664,22.26239,-148.331863,,,
729606831.469519,0.864979,0.490479,57.064357,-0.00441,0.004288,1.023605,-0.017177,-0.001839,-0.002103,62.861664,22.26239,-148.331863,,,
729606831.472839,0.864979,0.490479,57.064357,-0.00441,0.004288,1.023605,-0.017177,-0.001839,-0.002103,62.861664,22.26239,-148.331863,,,
729606831.47619,0.862266,0.49463,57.063964,0.002289,0.006393,1.025909,-0.008686,0.017173,-0.001683,62.861664,22.26239,-148.331863,,,
729606831.479588,0.862249,0.491351,57.062996,0.002289,0.006393,1.025909,-0.008686,0.017173,-0.001683,62.829254,22.256668,-148.300751,,,
729606831.482837,0.862249,0.491351,57.062996,0.002289,0.006393,1.025909,-0.008686,0.017173,-0.001683,62.829254,22.256668,-148.300751,,,
729606831.486187,0.861871,0.507383,57.060255,0.003677,0.010696,1.033676,-0.000575,0.058096,-0.010919,62.829254,22.256668,-148.300751,,,
729606831.4895,0.862743,0.516137,57.056055,0.003677,0.010696,1.033676,-0.000575,0.058096,-0.010919,62.829254,22.256668,-148.300751,,,
729606831.492833,0.862743,0.516137,57.056055,0.003677,0.010696,1.033676,-0.000575,0.058096,-0.010919,62.829254,22.256668,-148.300751,,,
729606831.496189,0.86342,0.540797,57.050892,-0.003586,0.013077,1.031754,0.004517,0.08933,-0.018298,62.829254,22.256668,-148.300751,,,
729606831.499506,0.864388,0.558118,57.046129,-0.003586,0.013077,1.031754,0.004517,0.08933,-0.018298,62.829254,22.256668,-148.300751,,,
729606831.502895,0.864388,0.558118,57.046129,-0.003586,0.013077,1.031754,0.004517,0.08933,-0.018298,62.829254,22.256668,-148.300751,,,
729606831.50621,0.864899,0.584601,57.042506,-0.018967,0.0112,1.020828,0.003166,0.096361,-0.014738,62.829254,22.256668,-148.300751,,,
729606831.509537,0.864056,0.607626,57.040354,-0.018967,0.0112,1.020828,0.003166,0.096361,-0.014738,62.829254,22.256668,-148.300751,,,
729606831.512871,0.864056,0.607626,57.040354,-0.018967,0.0112,1.020828,0.003166,0.096361,-0.014738,62.829254,22.256668,-148.300751,,,
729606831.51626,0.862878,0.630452,57.039744,-0.031784,0.007477,1.011307,-0.003047,0.083564,-0.003268,62.829254,22.256668,-148.300751,,,
729606831.519521,0.858871,0.650199,57.040765,-0.031784,0.007477,1.011307,-0.003047,0.083564,-0.003268,62.823212,22.290741,-148.520721,,,
729606831.522837,0.858871,0.650199,57.040765,-0.031784,0.007477,1.011307,-0.003047,0.083564,-0.003268,62.823212,22.290741,-148.520721,,,
729606831.526183,0.856178,0.662507,57.042051,-0.035721,0.006378,1.002914,-0.007834,0.045095,0.006026,62.823212,22.290741,-148.520721,,,
729606831.529571,0.851226,0.668258,57.042896,-0.035721,0.006378,1.002914,-0.007834,0.045095,0.006026,62.823212,22.290741,-148.520721,,,
729606831.532846,0.851226,0.668258,57.042896,-0.035721,0.006378,1.002914,-0.007834,0.045095,0.006026,62.823212,22.290741,-148.520721,,,
729606831.536174,0.847744,0.664903,57.042438,-0.02742,0.006348,0.99295,-0.012017,-0.012033,-0.004809,62.823212,22.290741,-148.520721,,,
729606831.539505,0.841744,0.653844,57.039484,-0.02742,0.006348,0.99295,-0.012017,-0.012033,-0.004809,62.823212,22.290741,-148.520721,,,
729606831.543337,0.841744,0.653844,57.039484,-0.02742,0.006348,0.99295,-0.012017,-0.012033,-0.004809,62.823212,22.290741,-148.520721,,,
729606831.546134,0.838769,0.639015,57.034487,-0.016449,0.009552,0.995712,-0.010326,-0.048909,-0.01895,62.823212,22.290741,-148.520721,,,
729606831.549523,0.834156,0.616463,57.027704,-0.016449,0.009552,0.995712,-0.010326,-0.048909,-0.01895,62.823212,22.290741,-148.520721,,,
729606831.552933,0.834156,0.616463,57.027704,-0.016449,0.009552,0.995712,-0.010326,-0.048909,-0.01895,62.823212,22.290741,-148.520721,,,
729606831.556197,0.832328,0.595873,57.01943,-0.0047,0.008102,1.003143,-0.007138,-0.072508,-0.03286,62.823212,22.290741,-148.520721,,,
729606831.5595,0.830592,0.56933,57.010601,-0.0047,0.008102,1.003143,-0.007138,-0.072508,-0.03286,62.768372,22.159042,-148.709396,,,
729606831.562844,0.830592,0.56933,57.010601,-0.0047,0.008102,1.003143,-0.007138,-0.072508,-0.03286,62.768372,22.159042,-148.709396,,,
729606831.566266,0.832495,0.550927,57.002232,-0.002457,0.00235,1.013031,0.00684,-0.060595,-0.030534,62.768372,22.159042,-148.709396,,,
729606831.569514,0.83564,0.533041,56.995067,-0.002457,0.00235,1.013031,0.00684,-0.060595,-0.030534,62.768372,22.159042,-148.709396,,,
729606831.572893,0.83564,0.533041,56.995067,-0.002457,0.00235,1.013031,0.00684,-0.060595,-0.030534,62.768372,22.159042,-148.709396,,,
729606831.576283,0.841558,0.524808,56.989434,-0.006088,-0.003601,1.025009,0.023412,-0.025207,-0.018799,62.768372,22.159042,-148.709396,,,
729606831.579605,0.849067,0.522089,56.986023,-0.006088,-0.003601,1.025009,0.023412,-0.025207,-0.018799,62.768372,22.159042,-148.709396,,,
729606831.582862,0.849067,0.522089,56.986023,-0.006088,-0.003601,1.025009,0.023412,-0.025207,-0.018799,62.768372,22.159042,-148.709396,,,
729606831.586199,0.85712,0.525351,56.98416,-0.003143,-0.000885,1.021606,0.027933,0.014507,-0.005706,62.768372,22.159042,-148.709396,,,
729606831.589509,0.863635,0.538973,56.98342,-0.003143,-0.000885,1.021606,0.027933,0.014507,-0.005706,62.768372,22.159042,-148.709396,,,
729606831.592838,0.863635,0.538973,56.98342,-0.003143,-0.000885,1.021606,0.027933,0.014507,-0.005706,62.768372,22.159042,-148.709396,,,
729606831.596178,0.870953,0.554161,56.983536,-0.003387,0.005066,1.013138,0.026264,0.055454,0.001067,62.768372,22.159042,-148.709396,,,
729606831.599506,0.876559,0.580342,56.983155,-0.003387,0.005066,1.013138,0.026264,0.055454,0.001067,62.810135,22.241364,-148.520721,,,
729606831.602935,0.876559,0.580342,56.983155,-0.003387,0.005066,1.013138,0.026264,0.055454,0.001067,62.810135,22.241364,-148.520721,,,
729606831.60617,0.882046,0.601672,56.982315,-0.00592,0.010117,1.004623,0.020157,0.077272,-0.003946,62.810135,22.241364,-148.520721,,,
729606831.609523,0.883785,0.629549,56.981218,-0.00592,0.010117,1.004623,0.020157,0.077272,-0.003946,62.810135,22.241364,-148.520721,,,
729606831.612827,0.883785,0.629549,56.981218,-0.00592,0.010117,1.004623,0.020157,0.077272,-0.003946,62.810135,22.241364,-148.520721,,,
729606831.616237,0.885066,0.64974,56.980094,-0.013397,0.014618,0.989578,0.003907,0.072748,-0.004891,62.810135,22.241364,-148.520721,,,
729606831.619513,0.88348,0.671782,56.979218,-0.013397,0.014618,0.989578,0.003907,0.072748,-0.004891,62.810135,22.241364,-148.520721,,,
729606831.622837,0.88348,0.671782,56.979218,-0.013397,0.014618,0.989578,0.003907,0.072748,-0.004891,62.810135,22.241364,-148.520721,,,
729606831.626171,0.882101,0.684883,56.978342,-0.01944,0.016449,0.982529,-0.004483,0.049189,-0.005706,62.810135,22.241364,-148.520721,,,
729606831.629597,0.878645,0.690776,56.976307,-0.01944,0.016449,0.982529,-0.004483,0.049189,-0.005706,62.810135,22.241364,-148.520721,,,
729606831.632847,0.878645,0.690776,56.976307,-0.01944,0.016449,0.982529,-0.004483,0.049189,-0.005706,62.810135,22.241364,-148.520721,,,
729606831.63622,0.87666,0.689368,56.97234,-0.017578,0.022034,0.976959,-0.007012,-0.001935,-0.0153,62.810135,22.241364,-148.520721,,,
729606831.639554,0.871899,0.677155,56.966461,-0.017578,0.022034,0.976959,-0.007012,-0.001935,-0.0153,62.810135,22.241364,-148.520721,,,
729606831.64288,0.871899,0.677155,56.966461,-0.017578,0.022034,0.976959,-0.007012,-0.001935,-0.0153,62.865479,22.357681,-148.329041,,,
729606831.64621,0.867376,0.662445,56.958521,-0.015701,0.025131,0.975876,-0.016908,-0.048373,-0.030831,62.865479,22.357681,-148.329041,,,
729606831.649514,0.857683,0.639744,56.948817,-0.015701,0.025131,0.975876,-0.016908,-0.048373,-0.030831,62.865479,22.357681,-148.329041,,,
729606831.652843,0.857683,0.639744,56.948817,-0.015701,0.025131,0.975876,-0.016908,-0.048373,-0.030831,62.865479,22.357681,-148.329041,,,
729606831.656182,0.850027,0.61753,56.938414,-0.018295,0.021072,0.976074,-0.025021,-0.074804,-0.038459,62.865479,22.357681,-148.329041,,,
729606831.659507,0.836358,0.591329,56.92829,-0.018295,0.021072,0.976074,-0.025021,-0.074804,-0.038459,62.865479,22.357681,-148.329041,,,
729606831.662851,0.836358,0.591329,56.92829,-0.018295,0.021072,0.976074,-0.025021,-0.074804,-0.038459,62.865479,22.357681,-148.329041,,,
729606831.666196,0.82553,0.568037,56.91877,-0.013321,0.014297,0.984558,-0.038984,-0.079163,-0.033907,62.865479,22.357681,-148.329041,,,
729606831.669601,0.810048,0.543577,56.910146,-0.013321,0.014297,0.984558,-0.038984,-0.079163,-0.033907,62.865479,22.357681,-148.329041,,,
729606831.672852,0.810048,0.543577,56.910146,-0.013321,0.014297,0.984558,-0.038984,-0.079163,-0.033907,62.865479,22.357681,-148.329041,,,
729606831.676172,0.796635,0.526099,56.903567,-0.007019,0.010986,0.99437,-0.049049,-0.059892,-0.021666,62.865479,22.357681,-148.329041,,,
729606831.679599,0.780669,0.511853,56.899859,-0.007019,0.010986,0.99437,-0.049049,-0.059892,-0.021666,62.865479,22.357681,-148.329041,,,
729606831.682899,0.780669,0.511853,56.899859,-0.007019,0.010986,0.99437,-0.049049,-0.059892,-0.021666,62.83699,22.323364,-148.431854,,,
729606831.686186,0.765917,0.505291,56.898622,-0.005051,0.009155,1.009094,-0.049506,-0.021226,-0.006821,62.83699,22.323364,-148.431854,,,
729606831.689499,0.751835,0.504425,56.899237,-0.005051,0.009155,1.009094,-0.049506,-0.021226,-0.006821,62.83699,22.323364,-148.431854,,,
729606831.692853,0.751835,0.504425,56.899237,-0.005051,0.009155,1.009094,-0.049506,-0.021226,-0.006821,62.83699,22.323364,-148.431854,,,
729606831.696233,0.739786,0.509438,56.900861,-0.000504,0.010071,1.021713,-0.040658,0.0204,0.004608,62.83699,22.323364,-148.431854,,,
729606831.699493,0.729896,0.523108,56.902483,-0.000504,0.010071,1.021713,-0.040658,0.0204,0.004608,62.83699,22.323364,-148.431854,,,
729606831.702849,0.729896,0.523108,56.902483,-0.000504,0.010071,1.021713,-0.040658,0.0204,0.004608,62.83699,22.323364,-148.431854,,,
729606831.706224,0.72153,0.537465,56.902841,0.007278,0.016159,1.022934,-0.028514,0.057478,0.000539,62.83699,22.323364,-148.431854,,,
729606831.709532,0.716004,0.558253,56.90132,0.007278,0.016159,1.022934,-0.028514,0.057478,0.000539,62.83699,22.323364,-148.431854,,,
729606831.712879,0.716004,0.558253,56.90132,0.007278,0.016159,1.022934,-0.028514,0.057478,0.000539,62.83699,22.323364,-148.431854,,,
729606831.716182,0.709629,0.574111,56.897857,0.007446,0.024002,1.01561,-0.019393,0.057211,-0.01387,62.83699,22.323364,-148.431854,,,
729606831.71961,0.706413,0.589384,56.892362,0.007446,0.024002,1.01561,-0.019393,0.057211,-0.01387,62.83699,22.323364,-148.431854,,,
729606831.722833,0.706413,0.589384,56.892362,0.007446,0.024002,1.01561,-0.019393,0.057211,-0.01387,62.699661,22.496979,-148.282043,,,
729606831.726177,0.700146,0.596219,56.88489,-0.003296,0.022934,0.997696,-0.024959,0.025237,-0.027854,62.699661,22.496979,-148.282043,,,
729606831.729514,0.695739,0.598692,56.875531,-0.003296,0.022934,0.997696,-0.024959,0.025237,-0.027854,62.699661,22.496979,-148.282043,,,
729606831.732925,0.695739,0.598692,56.875531,-0.003296,0.022934,0.997696,-0.024959,0.025237,-0.027854,62.699661,22.496979,-148.282043,,,
729606831.736182,0.688152,0.591034,56.865248,-0.0121,0.018677,0.987259,-0.028158,-0.02402,-0.038608,62.699661,22.496979,-148.282043,,,
729606831.739515,0.682367,0.578286,56.854551,-0.0121,0.018677,0.987259,-0.028158,-0.02402,-0.038608,62.699661,22.496979,-148.282043,,,
729606831.742834,0.682367,0.578286,56.854551,-0.0121,0.018677,0.987259,-0.028158,-0.02402,-0.038608,62.699661,22.496979,-148.282043,,,
729606831.746242,0.675437,0.554862,56.843981,-0.019287,0.013306,0.99057,-0.024712,-0.078796,-0.038437,62.699661,22.496979,-148.282043,,,
729606831.749501,0.670015,0.525589,56.83424,-0.019287,0.013306,0.99057,-0.024712,-0.078796,-0.038437,62.699661,22.496979,-148.282043,,,
729606831.752846,0.670015,0.525589,56.83424,-0.019287,0.013306,0.99057,-0.024712,-0.078796,-0.038437,62.699661,22.496979,-148.282043,,,
729606831.756168,0.664871,0.492844,56.825085,-0.02066,0.008636,1.003433,-0.0177,-0.11119,-0.035557,62.699661,22.496979,-148.282043,,,
729606831.759512,0.659393,0.45661,56.816329,-0.02066,0.008636,1.003433,-0.0177,-0.11119,-0.035557,62.699661,22.496979,-148.282043,,,
729606831.762839,0.659393,0.45661,56.816329,-0.02066,0.008636,1.003433,-0.0177,-0.11119,-0.035557,62.699661,22.496979,-148.282043,,,
729606831.766199,0.654525,0.419953,56.807469,-0.008987,0.010635,1.010559,-0.013436,-0.125971,-0.030919,62.705765,22.42131,-148.467941,,,
729606831.769585,0.648424,0.382461,56.797698,-0.008987,0.010635,1.010559,-0.013436,-0.125971,-0.030919,62.705765,22.42131,-148.467941,,,
729606831.772867,0.648424,0.382461,56.797698,-0.008987,0.010635,1.010559,-0.013436,-0.125971,-0.030919,62.705765,22.42131,-148.467941,,,
729606831.7762,0.641593,0.347024,56.786667,0.006866,0.016006,1.013748,-0.019613,-0.119233,-0.03892,62.705765,22.42131,-148.467941,,,
729606831.779564,0.634051,0.306541,56.774606,0.006866,0.016006,1.013748,-0.019613,-0.119233,-0.03892,62.705765,22.42131,-148.467941,,,
729606831.78293,0.634051,0.306541,56.774606,0.006866,0.016006,1.013748,-0.019613,-0.119233,-0.03892,62.705765,22.42131,-148.467941,,,
729606831.786169,0.62508,0.265917,56.76175,0.014236,0.016907,1.01004,-0.030607,-0.136437,-0.044266,62.705765,22.42131,-148.467941,,,
729606831.789506,0.617133,0.215451,56.747674,0.014236,0.016907,1.01004,-0.030607,-0.136437,-0.044266,62.705765,22.42131,-148.467941,,,
729606831.792836,0.617133,0.215451,56.747674,0.014236,0.016907,1.01004,-0.030607,-0.136437,-0.044266,62.705765,22.42131,-148.467941,,,
729606831.796207,0.606658,0.166313,56.732214,0.015045,0.011993,1.004684,-0.03775,-0.167953,-0.056693,62.705765,22.42131,-148.467941,,,
729606831.799502,0.598837,0.110347,56.715205,0.015045,0.011993,1.004684,-0.03775,-0.167953,-0.056693,62.705765,22.42131,-148.467941,,,
729606831.802847,0.598837,0.110347,56.715205,0.015045,0.011993,1.004684,-0.03775,-0.167953,-0.056693,62.705765,22.42131,-148.467941,,,
729606831.806189,0.587465,0.053617,56.696575,0.019287,0.00412,1.010666,-0.037216,-0.194956,-0.064075,62.306137,22.629852,-148.498734,,,
729606831.809517,0.579381,-0.00406,56.676187,0.019287,0.00412,1.010666,-0.037216,-0.194956,-0.064075,62.306137,22.629852,-148.498734,,,
729606831.812859,0.579381,-0.00406,56.676187,0.019287,0.00412,1.010666,-0.037216,-0.194956,-0.064075,62.306137,22.629852,-148.498734,,,
729606831.816187,0.569483,-0.066304,56.654037,0.028854,0.004135,1.014938,-0.035869,-0.216454,-0.077955,62.306137,22.629852,-148.498734,,,
729606831.819561,0.562318,-0.121081,56.63031,0.028854,0.004135,1.014938,-0.035869,-0.216454,-0.077955,62.306137,22.629852,-148.498734,,,
729606831.822827,0.562318,-0.121081,56.63031,0.028854,0.004135,1.014938,-0.035869,-0.216454,-0.077955,62.306137,22.629852,-148.498734,,,
729606831.826178,0.555084,-0.179059,56.605406,0.036041,0.001724,1.025391,-0.025,-0.204529,-0.087812,62.306137,22.629852,-148.498734,,,
729606831.829516,0.550499,-0.22218,56.579937,0.036041,0.001724,1.025391,-0.025,-0.204529,-0.087812,62.306137,22.629852,-148.498734,,,
729606831.832917,0.550499,-0.22218,56.579937,0.036041,0.001724,1.025391,-0.025,-0.204529,-0.087812,62.306137,22.629852,-148.498734,,,
729606831.836093,0.549279,-0.269327,56.554484,0.038971,0.000504,1.041962,-0.005746,-0.16273,-0.091491,62.306137,22.629852,-148.498734,,,
729606831.839567,0.5518,-0.302352,56.529184,0.038971,0.000504,1.041962,-0.005746,-0.16273,-0.091491,62.306137,22.629852,-148.498734,,,
729606831.84289,0.5518,-0.302352,56.529184,0.038971,0.000504,1.041962,-0.005746,-0.16273,-0.091491,62.306137,22.629852,-148.498734,,,
729606831.846191,0.558975,-0.335753,56.50449,0.036942,0.000366,1.0504,0.021432,-0.114192,-0.088987,61.867569,22.512634,-148.173691,,,
729606831.849509,0.570766,-0.360615,56.480834,0.036942,0.000366,1.0504,0.021432,-0.114192,-0.088987,61.867569,22.512634,-148.173691,,,
729606831.85284,0.570766,-0.360615,56.480834,0.036942,0.000366,1.0504,0.021432,-0.114192,-0.088987,61.867569,22.512634,-148.173691,,,
729606831.856281,0.585887,-0.38267,56.458303,0.025131,0.003113,1.049652,0.051675,-0.074167,-0.081506,61.867569,22.512634,-148.173691,,,
729606831.8595,0.60448,-0.400862,56.436554,0.025131,0.003113,1.049652,0.051675,-0.074167,-0.081506,61.867569,22.512634,-148.173691,,,
729606831.862845,0.60448,-0.400862,56.436554,0.025131,0.003113,1.049652,0.051675,-0.074167,-0.081506,61.867569,22.512634,-148.173691,,,
729606831.866249,0.623653,-0.413431,56.414994,0.012222,0.005508,1.039001,0.068657,-0.039882,-0.077625,61.867569,22.512634,-148.173691,,,
729606831.869508,0.644372,-0.423861,56.393571,0.012222,0.005508,1.039001,0.068657,-0.039882,-0.077625,61.867569,22.512634,-148.173691,,,
729606831.872859,0.644372,-0.423861,56.393571,0.012222,0.005508,1.039001,0.068657,-0.039882,-0.077625,61.867569,22.512634,-148.173691,,,
729606831.876184,0.664948,-0.429542,56.373018,0.004059,0.009811,1.030655,0.07181,-0.016514,-0.076065,61.867569,22.512634,-148.173691,,,
729606831.879522,0.685061,-0.435403,56.353426,0.004059,0.009811,1.030655,0.07181,-0.016514,-0.076065,61.867569,22.512634,-148.173691,,,
729606831.882916,0.685061,-0.435403,56.353426,0.004059,0.009811,1.030655,0.07181,-0.016514,-0.076065,61.867569,22.512634,-148.173691,,,
729606831.886175,0.704543,-0.440235,56.334407,-0.00621,0.014725,1.009598,0.06557,-0.012937,-0.069718,61.759583,22.28804,-148.157059,,,
729606831.889507,0.721476,-0.450911,56.316533,-0.00621,0.014725,1.009598,0.06557,-0.012937,-0.069718,61.759583,22.28804,-148.157059,,,
729606831.892873,0.721476,-0.450911,56.316533,-0.00621,0.014725,1.009598,0.06557,-0.012937,-0.069718,61.759583,22.28804,-148.157059,,,
729606831.896212,0.738023,-0.462617,56.300264,-0.020279,0.013885,0.990875,0.05449,-0.035829,-0.056941,61.759583,22.28804,-148.157059,,,
729606831.899508,0.751617,-0.484948,56.285225,-0.020279,0.013885,0.990875,0.05449,-0.035829,-0.056941,61.759583,22.28804,-148.157059,,,
729606831.902874,0.751617,-0.484948,56.285225,-0.020279,0.013885,0.990875,0.05449,-0.035829,-0.056941,61.759583,22.28804,-148.157059,,,
729606831.906259,0.764958,-0.509261,56.271425,-0.031281,0.015274,0.975037,0.048299,-0.083391,-0.0479,61.759583,22.28804,-148.157059,,,
729606831.909509,0.775297,-0.54634,56.25886,-0.031281,0.015274,0.975037,0.048299,-0.083391,-0.0479,61.759583,22.28804,-148.157059,,,
729606831.912869,0.775297,-0.54634,56.25886,-0.031281,0.015274,0.975037,0.048299,-0.083391,-0.0479,61.759583,22.28804,-148.157059,,,
729606831.916178,0.786158,-0.581194,56.246989,-0.030472,0.020187,0.96904,0.038047,-0.120918,-0.044117,61.759583,22.28804,-148.157059,,,
729606831.919613,0.794578,-0.627207,56.235443,-0.030472,0.020187,0.96904,0.038047,-0.120918,-0.044117,61.759583,22.28804,-148.157059,,,
729606831.922825,0.794578,-0.627207,56.235443,-0.030472,0.020187,0.96904,0.038047,-0.120918,-0.044117,61.759583,22.28804,-148.157059,,,
729606831.926172,0.804365,-0.66814,56.224034,-0.022552,0.022141,0.970444,0.032813,-0.141674,-0.042626,61.759583,22.28804,-148.157059,,,
729606831.929498,0.811433,-0.714411,56.213356,-0.022552,0.022141,0.970444,0.032813,-0.141674,-0.042626,61.508759,22.156754,-148.134018,,,
729606831.932933,0.811433,-0.714411,56.213356,-0.022552,0.022141,0.970444,0.032813,-0.141674,-0.042626,61.508759,22.156754,-148.134018,,,
729606831.936196,0.820115,-0.753292,56.203701,-0.014786,0.019958,0.978577,0.03438,-0.134748,-0.034152,61.508759,22.156754,-148.134018,,,
729606831.93952,0.827129,-0.788071,56.195978,-0.014786,0.019958,0.978577,0.03438,-0.134748,-0.034152,61.508759,22.156754,-148.134018,,,
729606831.942839,0.827129,-0.788071,56.195978,-0.014786,0.019958,0.978577,0.03438,-0.134748,-0.034152,61.508759,22.156754,-148.134018,,,
729606831.946181,0.835162,-0.813536,56.189983,-0.007935,0.019363,0.992981,0.026606,-0.085526,-0.021837,61.508759,22.156754,-148.134018,,,
729606831.949501,0.842539,-0.829501,56.186481,-0.007935,0.019363,0.992981,0.026606,-0.085526,-0.021837,61.508759,22.156754,-148.134018,,,
729606831.952842,0.842539,-0.829501,56.186481,-0.007935,0.019363,0.992981,0.026606,-0.085526,-0.021837,61.508759,22.156754,-148.134018,,,
729606831.956174,0.851224,-0.839043,56.186655,-0.003418,0.019699,0.994003,0.032511,-0.030829,-0.002267,61.508759,22.156754,-148.134018,,,
729606831.959499,0.859673,-0.839109,56.190923,-0.003418,0.019699,0.994003,0.032511,-0.030829,-0.002267,61.508759,22.156754,-148.134018,,,
729606831.962828,0.859673,-0.839109,56.190923,-0.003418,0.019699,0.994003,0.032511,-0.030829,-0.002267,61.508759,22.156754,-148.134018,,,
729606831.966196,0.868599,-0.837568,56.199018,-0.009323,0.015518,0.991165,0.031544,0.009874,0.02678,61.508759,22.156754,-148.134018,,,
729606831.96958,0.876405,-0.827925,56.209844,-0.009323,0.015518,0.991165,0.031544,0.009874,0.02678,61.399185,22.072083,-148.320297,,,
729606831.97287,0.876405,-0.827925,56.209844,-0.009323,0.015518,0.991165,0.031544,0.009874,0.02678,61.399185,22.072083,-148.320297,,,
729606831.976188,0.882006,-0.823477,56.222083,-0.012161,0.018295,0.980804,0.020353,0.019594,0.041372,61.399185,22.072083,-148.320297,,,
729606831.979536,0.885061,-0.812456,56.234608,-0.012161,0.018295,0.980804,0.020353,0.019594,0.041372,61.399185,22.072083,-148.320297,,,
729606831.982926,0.885061,-0.812456,56.234608,-0.012161,0.018295,0.980804,0.020353,0.019594,0.041372,61.399185,22.072083,-148.320297,,,
729606831.986182,0.885405,-0.812996,56.246753,-0.009781,0.026215,0.964951,0.004402,0.001184,0.040576,61.399185,22.072083,-148.320297,,,
729606831.989501,0.883473,-0.8084,56.25786,-0.009781,0.026215,0.964951,0.004402,0.001184,0.040576,61.399185,22.072083,-148.320297,,,
729606831.99284,0.883473,-0.8084,56.25786,-0.009781,0.026215,0.964951,0.004402,0.001184,0.040576,61.399185,22.072083,-148.320297,,,
729606831.996171,0.879852,-0.819197,56.268468,-0.008072,0.025864,0.959442,-0.01232,-0.035435,0.036362,61.399185,22.072083,-148.320297,,,
729606831.999524,0.874909,-0.827293,56.2775,-0.008072,0.025864,0.959442,-0.01232,-0.035435,0.036362,61.399185,22.072083,-148.320297,,,
729606832.002844,0.874909,-0.827293,56.2775,-0.008072,0.025864,0.959442,-0.01232,-0.035435,0.036362,61.399185,22.072083,-148.320297,,,
729606832.006259,0.867606,-0.849681,56.285305,0.000198,0.022003,0.957504,-0.021711,-0.075036,0.0262,61.399185,22.072083,-148.320297,,,
729606832.009498,0.860466,-0.866184,56.291224,0.000198,0.022003,0.957504,-0.021711,-0.075036,0.0262,61.296387,22.129532,-148.110916,,,
729606832.012852,0.860466,-0.866184,56.291224,0.000198,0.022003,0.957504,-0.021711,-0.075036,0.0262,61.296387,22.129532,-148.110916,,,
729606832.01619,0.851391,-0.892781,56.295297,0.008545,0.021271,0.965164,-0.031447,-0.092032,0.009917,61.296387,22.129532,-148.110916,,,
729606832.019547,0.840809,-0.910864,56.297787,0.008545,0.021271,0.965164,-0.031447,-0.092032,0.009917,61.296387,22.129532,-148.110916,,,
729606832.022827,0.840809,-0.910864,56.297787,0.008545,0.021271,0.965164,-0.031447,-0.092032,0.009917,61.296387,22.129532,-148.110916,,,
729606832.026168,0.827101,-0.932907,56.298779,0.01561,0.020142,0.966537,-0.045196,-0.075598,0.002106,61.296387,22.129532,-148.110916,,,
729606832.029535,0.811958,-0.946737,56.298894,0.01561,0.020142,0.966537,-0.045196,-0.075598,0.002106,61.296387,22.129532,-148.110916,,,
729606832.032891,0.811958,-0.946737,56.298894,0.01561,0.020142,0.966537,-0.045196,-0.075598,0.002106,61.296387,22.129532,-148.110916,,,
729606832.036168,0.795541,-0.960087,56.299429,0.015869,0.018478,0.974884,-0.055676,-0.043712,0.003964,61.296387,22.129532,-148.110916,,,
729606832.039561,0.779844,-0.964674,56.301314,0.015869,0.018478,0.974884,-0.055676,-0.043712,0.003964,61.296387,22.129532,-148.110916,,,
729606832.042878,0.779844,-0.964674,56.301314,0.015869,0.018478,0.974884,-0.055676,-0.043712,0.003964,61.296387,22.129532,-148.110916,,,
729606832.046189,0.765219,-0.967575,56.305721,0.009567,0.01442,0.986847,-0.050096,-0.008337,0.0137,61.296387,22.129532,-148.110916,,,
729606832.0495,0.765219,-0.967575,56.305721,0.009567,0.01442,0.986847,-0.050096,-0.008337,0.0137,61.346375,22.183182,-147.942352,,,
729606832.052863,0.752878,-0.960887,56.313175,0.009567,0.01442,0.986847,-0.050096,-0.008337,0.0137,61.346375,22.183182,-147.942352,,,
729606832.056215,0.742754,-0.953623,56.323732,0.001923,0.004578,0.990616,-0.034159,0.028558,0.035361,61.346375,22.183182,-147.942352,,,
729606832.059507,0.735996,-0.937784,56.336876,0.001923,0.004578,0.990616,-0.034159,0.028558,0.035361,61.346375,22.183182,-147.942352,,,
729606832.062855,0.735996,-0.937784,56.336876,0.001923,0.004578,0.990616,-0.034159,0.028558,0.035361,61.346375,22.183182,-147.942352,,,
729606832.066166,0.731744,-0.923996,56.353071,0.001663,0.000397,0.990341,-0.012628,0.053343,0.055043,61.346375,22.183182,-147.942352,,,
729606832.069605,0.731744,-0.923996,56.353071,0.001663,0.000397,0.990341,-0.012628,0.053343,0.055043,61.346375,22.183182,-147.942352,,,
729606832.072839,0.730877,-0.903036,56.371056,0.001663,0.000397,0.990341,-0.012628,0.053343,0.055043,61.346375,22.183182,-147.942352,,,
729606832.076206,0.728621,-0.882586,56.388678,0.006042,0.004135,0.983704,-0.004494,0.074419,0.060772,61.346375,22.183182,-147.942352,,,
729606832.079591,0.726177,-0.855605,56.404549,0.006042,0.004135,0.983704,-0.004494,0.074419,0.060772,61.346375,22.183182,-147.942352,,,
729606832.082899,0.726177,-0.855605,56.404549,0.006042,0.004135,0.983704,-0.004494,0.074419,0.060772,61.346375,22.183182,-147.942352,,,
729606832.086159,0.719605,-0.83129,56.418005,0.013214,0.014679,0.9664,-0.023839,0.090331,0.048086,61.346375,22.183182,-147.942352,,,
729606832.089505,0.719605,-0.83129,56.418005,0.013214,0.014679,0.9664,-0.023839,0.090331,0.048086,61.346375,22.183182,-147.942352,,,
729606832.092833,0.71081,-0.805722,56.429149,0.013214,0.014679,0.9664,-0.023839,0.090331,0.048086,61.509888,22.20813,-148.347504,,,
729606832.096168,0.697945,-0.783604,56.438823,0.015305,0.02037,0.951889,-0.044226,0.080559,0.03358,61.509888,22.20813,-148.347504,,,
729606832.099508,0.697945,-0.783604,56.438823,0.015305,0.02037,0.951889,-0.044226,0.080559,0.03358,61.509888,22.20813,-148.347504,,,
729606832.10285,0.682105,-0.764361,56.447238,0.015305,0.02037,0.951889,-0.044226,0.080559,0.03358,61.509888,22.20813,-148.347504,,,
729606832.106207,0.661344,-0.74871,56.454317,0.012482,0.015274,0.942459,-0.071903,0.057366,0.022454,61.509888,22.20813,-148.347504,,,
729606832.109607,0.661344,-0.74871,56.454317,0.012482,0.015274,0.942459,-0.071903,0.057366,0.022454,61.509888,22.20813,-148.347504,,,
729606832.112862,0.63727,-0.737436,56.459685,0.012482,0.015274,0.942459,-0.071903,0.057366,0.022454,61.509888,22.20813,-148.347504,,,
729606832.116182,0.609994,-0.728894,56.463189,0.02005,0.017654,0.9366,-0.096814,0.033256,0.012339,61.509888,22.20813,-148.347504,,,
729606832.119576,0.609994,-0.728894,56.463189,0.02005,0.017654,0.9366,-0.096814,0.033256,0.012339,61.509888,22.20813,-148.347504,,,
729606832.122837,0.581218,-0.722632,56.464489,0.02005,0.017654,0.9366,-0.096814,0.033256,0.012339,61.509888,22.20813,-148.347504,,,
729606832.126194,0.551728,-0.716144,56.46303,0.030899,0.020432,0.950317,-0.104581,0.026878,-0.010114,61.509888,22.20813,-148.347504,,,
729606832.129511,0.551728,-0.716144,56.46303,0.030899,0.020432,0.950317,-0.104581,0.026878,-0.010114,61.509888,22.20813,-148.347504,,,
729606832.132891,0.524161,-0.706636,56.458642,0.030899,0.020432,0.950317,-0.104581,0.026878,-0.010114,61.597626,22.504791,-148.019012,,,
729606832.136175,0.498962,-0.69387,56.452051,0.032715,0.019882,0.970795,-0.088104,0.049053,-0.024365,61.597626,22.504791,-148.019012,,,
729606832.1395,0.498962,-0.69387,56.452051,0.032715,0.019882,0.970795,-0.088104,0.049053,-0.024365,61.597626,22.504791,-148.019012,,,
729606832.142836,0.476534,-0.674787,56.444772,0.032715,0.019882,0.970795,-0.088104,0.049053,-0.024365,61.597626,22.504791,-148.019012,,,
729606832.146177,0.458105,-0.650019,56.438789,0.024902,0.008926,0.991684,-0.061998,0.088769,-0.022542,61.597626,22.504791,-148.019012,,,
729606832.149509,0.458105,-0.650019,56.438789,0.024902,0.008926,0.991684,-0.061998,0.088769,-0.022542,61.597626,22.504791,-148.019012,,,
729606832.152846,0.441652,-0.617999,56.435486,0.024902,0.008926,0.991684,-0.061998,0.088769,-0.022542,61.597626,22.504791,-148.019012,,,
729606832.156173,0.42595,-0.581564,56.43536,0.008438,-0.004364,0.994659,-0.051992,0.130232,-0.002687,61.597626,22.504791,-148.019012,,,
729606832.159503,0.42595,-0.581564,56.43536,0.008438,-0.004364,0.994659,-0.051992,0.130232,-0.002687,61.597626,22.504791,-148.019012,,,
729606832.162852,0.409186,-0.539833,56.438672,0.008438,-0.004364,0.994659,-0.051992,0.130232,-0.002687,61.597626,22.504791,-148.019012,,,
729606832.166174,0.391015,-0.49334,56.445659,-0.007324,-0.014786,0.983887,-0.061218,0.16566,0.022663,61.597626,22.504791,-148.019012,,,
729606832.169584,0.391015,-0.49334,56.445659,-0.007324,-0.014786,0.983887,-0.061218,0.16566,0.022663,61.597626,22.504791,-148.019012,,,
729606832.172863,0.372152,-0.444571,56.455431,-0.007324,-0.014786,0.983887,-0.061218,0.16566,0.022663,61.943604,22.535339,-148.064194,,,
729606832.176175,0.35052,-0.393703,56.465297,-0.007553,-0.008804,0.987946,-0.074835,0.184205,0.035042,61.943604,22.535339,-148.064194,,,
729606832.179527,0.35052,-0.393703,56.465297,-0.007553,-0.008804,0.987946,-0.074835,0.184205,0.035042,61.943604,22.535339,-148.064194,,,
729606832.182931,0.32803,-0.344494,56.474456,-0.007553,-0.008804,0.987946,-0.074835,0.184205,0.035042,61.943604,22.535339,-148.064194,,,
729606832.186161,0.303494,-0.295941,56.482881,-0.011688,0.000397,0.982315,-0.082855,0.172352,0.029814,61.943604,22.535339,-148.064194,,,
729606832.189502,0.303494,-0.295941,56.482881,-0.011688,0.000397,0.982315,-0.082855,0.172352,0.029814,61.943604,22.535339,-148.064194,,,
729606832.192834,0.279973,-0.251327,56.490248,-0.011688,0.000397,0.982315,-0.082855,0.172352,0.029814,61.943604,22.535339,-148.064194,,,
729606832.196168,0.255606,-0.208557,56.496836,-0.014755,-0.00238,0.990326,-0.08562,0.153547,0.020738,61.943604,22.535339,-148.064194,,,
729606832.199523,0.255606,-0.208557,56.496836,-0.014755,-0.00238,0.990326,-0.08562,0.153547,0.020738,61.943604,22.535339,-148.064194,,,
729606832.202843,0.232152,-0.172831,56.502649,-0.014755,-0.00238,0.990326,-0.08562,0.153547,0.020738,61.943604,22.535339,-148.064194,,,
729606832.206166,0.206939,-0.136778,56.507317,-0.013504,-0.000351,0.994095,-0.085273,0.125936,0.016317,61.943604,22.535339,-148.064194,,,
729606832.209497,0.206939,-0.136778,56.507317,-0.013504,-0.000351,0.994095,-0.085273,0.125936,0.016317,61.943604,22.535339,-148.064194,,,
729606832.212839,0.184006,-0.107387,56.510926,-0.013504,-0.000351,0.994095,-0.085273,0.125936,0.016317,61.943604,22.535339,-148.064194,,,
729606832.216178,0.159993,-0.074114,56.514438,-0.009903,0.001831,1.004288,-0.083779,0.116199,0.012104,62.334167,22.91246,-148.080582,,,
729606832.219568,0.159993,-0.074114,56.514438,-0.009903,0.001831,1.004288,-0.083779,0.116199,0.012104,62.334167,22.91246,-148.080582,,,
729606832.222855,0.137041,-0.047876,56.519278,-0.009903,0.001831,1.004288,-0.083779,0.116199,0.012104,62.334167,22.91246,-148.080582,,,
