Time (sec),Pitch (deg),Roll (deg),Yaw(deg),X-Acceleration (g),Y-Acceleration (g),Z-Acceleration (g),Pitch Rate (deg/sec),Roll Rate (deg/sec),Yaw Rate (deg/sec),Magnetic Field in X direction (uT),Magnetic Field in Y direction (uT),Magnetic Field in Z Direction (uT),Latitude (deg),Longitude (deg),Altitude (m)
729606676.033453,2.194129,-2.172362,51.948208,0.031876,0.035599,1.012207,-0.009597,-0.029851,0.01836,60.361038,20.116333,-146.941711,,,
729606676.03679,2.194129,-2.172362,51.948208,0.031876,0.035599,1.012207,-0.009597,-0.029851,0.01836,60.361038,20.116333,-146.941711,,,
729606676.040135,2.197051,-2.181931,51.955417,0.031876,0.035599,1.012207,0.00272,-0.011448,0.02239,60.361038,20.116333,-146.941711,,,
729606676.043456,2.199647,-2.183482,51.96396,0.032883,0.034058,1.020462,0.00272,-0.011448,0.02239,60.361038,20.116333,-146.941711,,,
729606676.046784,2.199647,-2.183482,51.96396,0.032883,0.034058,1.020462,0.00272,-0.011448,0.02239,60.361038,20.116333,-146.941711,,,
729606676.050136,2.205654,-2.188746,51.973825,0.032883,0.034058,1.020462,0.015144,0.006452,0.031661,60.361038,20.116333,-146.941711,,,
729606676.053455,2.209903,-2.188224,51.984369,0.031357,0.029648,1.014603,0.015144,0.006452,0.031661,60.361038,20.116333,-146.941711,,,
729606676.056809,2.209903,-2.188224,51.984369,0.031357,0.029648,1.014603,0.015144,0.006452,0.031661,60.361038,20.116333,-146.941711,,,
729606676.060192,2.216928,-2.190978,51.995509,0.031357,0.029648,1.014603,0.020926,0.004179,0.035,60.361038,20.116333,-146.941711,,,
729606676.063445,2.22259,-2.192358,52.006442,0.034851,0.032089,1.006882,0.020926,0.004179,0.035,60.361038,20.116333,-146.941711,,,
729606676.0668,2.22259,-2.192358,52.006442,0.034851,0.032089,1.006882,0.020926,0.004179,0.035,60.361038,20.116333,-146.941711,,,
729606676.070146,2.231902,-2.196931,52.016319,0.034851,0.032089,1.006882,0.026641,-0.005328,0.03127,60.361038,20.116333,-146.941711,,,
729606676.073456,2.238954,-2.200955,52.024433,0.037277,0.035782,1.005096,0.026641,-0.005328,0.03127,60.614761,20.18811,-146.704636,,,
729606676.076814,2.238954,-2.200955,52.024433,0.037277,0.035782,1.005096,0.026641,-0.005328,0.03127,60.614761,20.18811,-146.704636,,,
729606676.080132,2.24862,-2.20963,52.03099,0.037277,0.035782,1.005096,0.024178,-0.018624,0.021104,60.614761,20.18811,-146.704636,,,
729606676.08346,2.254022,-2.217846,52.036283,0.036896,0.039368,0.99585,0.024178,-0.018624,0.021104,60.614761,20.18811,-146.704636,,,
729606676.086879,2.254022,-2.217846,52.036283,0.036896,0.039368,0.99585,0.024178,-0.018624,0.021104,60.614761,20.18811,-146.704636,,,
729606676.090135,2.261287,-2.229073,52.040973,0.036896,0.039368,0.99585,0.016124,-0.031504,0.014338,60.614761,20.18811,-146.704636,,,
729606676.093458,2.264783,-2.239519,52.044811,0.03447,0.036835,0.989883,0.016124,-0.031504,0.014338,60.614761,20.18811,-146.704636,,,
729606676.096797,2.264783,-2.239519,52.044811,0.03447,0.036835,0.989883,0.016124,-0.031504,0.014338,60.614761,20.18811,-146.704636,,,
729606676.100198,2.268357,-2.247729,52.047868,0.03447,0.036835,0.989883,0.008268,-0.03281,0.008495,60.614761,20.18811,-146.704636,,,
729606676.103453,2.270262,-2.257357,52.051307,0.03833,0.035599,0.989182,0.008268,-0.03281,0.008495,60.614761,20.18811,-146.704636,,,
729606676.106793,2.270262,-2.257357,52.051307,0.03833,0.035599,0.989182,0.008268,-0.03281,0.008495,60.614761,20.18811,-146.704636,,,
729606676.110144,2.270466,-2.263393,52.055288,0.03833,0.035599,0.989182,0.004488,-0.028015,0.010734,60.614761,20.18811,-146.704636,,,
729606676.113454,2.272176,-2.273097,52.059509,0.042419,0.036118,0.990616,0.004488,-0.028015,0.010734,60.061127,20.26947,-146.615097,,,
729606676.116794,2.272176,-2.273097,52.059509,0.042419,0.036118,0.990616,0.004488,-0.028015,0.010734,60.061127,20.26947,-146.615097,,,
729606676.120145,2.274608,-2.279326,52.062858,0.042419,0.036118,0.990616,0.011703,-0.027393,0.008636,60.061127,20.26947,-146.615097,,,
729606676.12349,2.278688,-2.287547,52.065222,0.045349,0.037308,0.995728,0.011703,-0.027393,0.008636,60.061127,20.26947,-146.615097,,,
729606676.126797,2.278688,-2.287547,52.065222,0.045349,0.037308,0.995728,0.011703,-0.027393,0.008636,60.061127,20.26947,-146.615097,,,
729606676.130144,2.281296,-2.291404,52.066442,0.045349,0.037308,0.995728,0.014899,-0.022577,0.002679,60.061127,20.26947,-146.615097,,,
729606676.133451,2.285445,-2.297805,52.066676,0.043671,0.037308,0.991638,0.014899,-0.022577,0.002679,60.061127,20.26947,-146.615097,,,
729606676.136784,2.285445,-2.297805,52.066676,0.043671,0.037308,0.991638,0.014899,-0.022577,0.002679,60.061127,20.26947,-146.615097,,,
729606676.140126,2.28701,-2.299867,52.066321,0.043671,0.037308,0.991638,0.013091,-0.015241,-0.003761,60.061127,20.26947,-146.615097,,,
729606676.143453,2.289659,-2.304123,52.065513,0.040833,0.035858,0.987213,0.013091,-0.015241,-0.003761,60.061127,20.26947,-146.615097,,,
729606676.14678,2.289659,-2.304123,52.065513,0.040833,0.035858,0.987213,0.013091,-0.015241,-0.003761,60.061127,20.26947,-146.615097,,,
729606676.150145,2.289712,-2.306237,52.064242,0.040833,0.035858,0.987213,0.004502,-0.011156,-0.007228,60.061127,20.26947,-146.615097,,,
729606676.153451,2.290506,-2.31012,52.062882,0.042618,0.038101,0.983307,0.004502,-0.011156,-0.007228,60.165192,20.182419,-146.367798,,,
729606676.156884,2.290506,-2.31012,52.062882,0.042618,0.038101,0.983307,0.004502,-0.011156,-0.007228,60.165192,20.182419,-146.367798,,,
729606676.160194,2.290275,-2.311403,52.060312,0.042618,0.038101,0.983307,0.001731,-0.007118,-0.008849,60.165192,20.182419,-146.367798,,,
729606676.16346,2.289717,-2.3121,52.056493,0.046585,0.041977,0.982788,0.001731,-0.007118,-0.008849,60.165192,20.182419,-146.367798,,,
729606676.166797,2.289717,-2.3121,52.056493,0.046585,0.041977,0.982788,0.001731,-0.007118,-0.008849,60.165192,20.182419,-146.367798,,,
729606676.170142,2.28764,-2.309378,52.051519,0.046585,0.041977,0.982788,-0.003092,0.007054,-0.017993,60.165192,20.182419,-146.367798,,,
729606676.17352,2.286029,-2.307118,52.046318,0.043365,0.042938,0.98468,-0.003092,0.007054,-0.017993,60.165192,20.182419,-146.367798,,,
729606676.176777,2.286029,-2.307118,52.046318,0.043365,0.042938,0.98468,-0.003092,0.007054,-0.017993,60.165192,20.182419,-146.367798,,,
729606676.180124,2.283678,-2.302373,52.042112,0.043365,0.042938,0.98468,-0.007083,0.012936,-0.015291,60.165192,20.182419,-146.367798,,,
729606676.183442,2.281792,-2.298582,52.039606,0.034805,0.038193,0.98259,-0.007083,0.012936,-0.015291,60.165192,20.182419,-146.367798,,,
729606676.186842,2.281792,-2.298582,52.039606,0.034805,0.038193,0.98259,-0.007083,0.012936,-0.015291,60.165192,20.182419,-146.367798,,,
729606676.190108,2.279693,-2.293516,52.039377,0.034805,0.038193,0.98259,-0.004568,0.019777,-0.002247,60.165192,20.182419,-146.367798,,,
729606676.193491,2.278598,-2.28771,52.041317,0.030762,0.034958,0.984619,-0.004568,0.019777,-0.002247,60.165192,20.182419,-146.367798,,,
729606676.196799,2.278598,-2.28771,52.041317,0.030762,0.034958,0.984619,-0.004568,0.019777,-0.002247,60.41423,20.103699,-146.530319,,,
729606676.200181,2.276829,-2.284295,52.044514,0.030762,0.034958,0.984619,-0.000725,0.020732,0.013211,60.41423,20.103699,-146.530319,,,
729606676.203501,2.275298,-2.280295,52.048678,0.031494,0.038803,0.980026,-0.000725,0.020732,0.013211,60.41423,20.103699,-146.530319,,,
729606676.206784,2.275298,-2.280295,52.048678,0.031494,0.038803,0.980026,-0.000725,0.020732,0.013211,60.41423,20.103699,-146.530319,,,
729606676.210137,2.272501,-2.279088,52.053603,0.031494,0.038803,0.980026,-0.006699,0.016207,0.015105,60.41423,20.103699,-146.530319,,,
729606676.213477,2.26947,-2.275415,52.058017,0.032928,0.042175,0.980499,-0.006699,0.016207,0.015105,60.41423,20.103699,-146.530319,,,
729606676.216805,2.26947,-2.275415,52.058017,0.032928,0.042175,0.980499,-0.006699,0.016207,0.015105,60.41423,20.103699,-146.530319,,,
729606676.220116,2.265588,-2.273004,52.06122,0.032928,0.042175,0.980499,-0.00953,0.016841,0.012084,60.41423,20.103699,-146.530319,,,
729606676.223452,2.261317,-2.269945,52.062837,0.033966,0.046463,0.982452,-0.00953,0.016841,0.012084,60.41423,20.103699,-146.530319,,,
729606676.226878,2.261317,-2.269945,52.062837,0.033966,0.046463,0.982452,-0.00953,0.016841,0.012084,60.41423,20.103699,-146.530319,,,
729606676.230123,2.255044,-2.269613,52.063091,0.033966,0.046463,0.982452,-0.018641,0.005811,-0.001414,60.41423,20.103699,-146.530319,,,
729606676.233451,2.24765,-2.270825,52.062192,0.037231,0.044846,0.975494,-0.018641,0.005811,-0.001414,60.41423,20.103699,-146.530319,,,
729606676.236789,2.24765,-2.270825,52.062192,0.037231,0.044846,0.975494,-0.018641,0.005811,-0.001414,60.288589,20.096085,-146.656738,,,
729606676.240124,2.239325,-2.274767,52.061071,0.037231,0.044846,0.975494,-0.029039,-0.006666,-0.006295,60.288589,20.096085,-146.656738,,,
729606676.243526,2.230116,-2.276939,52.060561,0.03508,0.040161,0.984146,-0.029039,-0.006666,-0.006295,60.288589,20.096085,-146.656738,,,
729606676.246784,2.230116,-2.276939,52.060561,0.03508,0.040161,0.984146,-0.029039,-0.006666,-0.006295,60.288589,20.096085,-146.656738,,,
729606676.250132,2.22118,-2.281276,52.061481,0.03508,0.040161,0.984146,-0.032753,-0.004001,0.002314,60.288589,20.096085,-146.656738,,,
729606676.253452,2.21151,-2.283936,52.064497,0.030792,0.032761,0.991882,-0.032753,-0.004001,0.002314,60.288589,20.096085,-146.656738,,,
729606676.256787,2.21151,-2.283936,52.064497,0.030792,0.032761,0.991882,-0.032753,-0.004001,0.002314,60.288589,20.096085,-146.656738,,,
729606676.260119,2.203131,-2.28642,52.069959,0.030792,0.032761,0.991882,-0.028092,-0.00384,0.020148,60.288589,20.096085,-146.656738,,,
729606676.263454,2.195619,-2.285752,52.077559,0.027267,0.028366,0.999893,-0.028092,-0.00384,0.020148,60.288589,20.096085,-146.656738,,,
729606676.266868,2.195619,-2.285752,52.077559,0.027267,0.028366,0.999893,-0.028092,-0.00384,0.020148,60.288589,20.096085,-146.656738,,,
729606676.270115,2.188925,-2.27896,52.086852,0.027267,0.028366,0.999893,-0.018225,0.015662,0.031708,60.288589,20.096085,-146.656738,,,
729606676.273537,2.183603,-2.272233,52.097387,0.030243,0.030975,1.010239,-0.018225,0.015662,0.031708,60.288589,20.096085,-146.656738,,,
729606676.276788,2.183603,-2.272233,52.097387,0.030243,0.030975,1.010239,-0.018225,0.015662,0.031708,60.377899,20.208527,-146.805862,,,
729606676.280125,2.178929,-2.259967,52.108386,0.030243,0.030975,1.010239,-0.015305,0.035907,0.03918,60.377899,20.208527,-146.805862,,,
729606676.283514,2.174022,-2.24821,52.119691,0.033554,0.033356,1.008163,-0.015305,0.035907,0.03918,60.377899,20.208527,-146.805862,,,
729606676.286696,2.174022,-2.24821,52.119691,0.033554,0.033356,1.008163,-0.015305,0.035907,0.03918,60.377899,20.208527,-146.805862,,,
729606676.290135,2.169148,-2.231981,52.130766,0.033554,0.033356,1.008163,-0.01316,0.051852,0.037574,60.377899,20.208527,-146.805862,,,
729606676.293532,2.163171,-2.218035,52.141873,0.037872,0.03717,1.00383,-0.01316,0.051852,0.037574,60.377899,20.208527,-146.805862,,,
729606676.296778,2.163171,-2.218035,52.141873,0.037872,0.03717,1.00383,-0.01316,0.051852,0.037574,60.377899,20.208527,-146.805862,,,
729606676.30012,2.157853,-2.20219,52.152141,0.037872,0.03717,1.00383,-0.019274,0.054115,0.036253,60.377899,20.208527,-146.805862,,,
729606676.303469,2.157853,-2.18916,52.161514,0.037872,0.03717,1.00383,-0.019274,0.054115,0.036253,60.377899,20.208527,-146.805862,,,
729606676.306869,2.150593,-2.18916,52.161514,0.036667,0.039062,0.998947,-0.019274,0.054115,0.036253,60.377899,20.208527,-146.805862,,,
729606676.310134,2.144542,-2.176392,52.169669,0.036667,0.039062,0.998947,-0.026522,0.046084,0.026941,60.377899,20.208527,-146.805862,,,
729606676.313509,2.144542,-2.16612,52.175923,0.036667,0.039062,0.998947,-0.026522,0.046084,0.026941,60.377899,20.208527,-146.805862,,,
729606676.316774,2.135887,-2.16612,52.175923,0.033203,0.03653,0.99855,-0.026522,0.046084,0.026941,60.675583,20.289368,-146.581345,,,
729606676.320113,2.127709,-2.158174,52.180656,0.033203,0.03653,0.99855,-0.0325,0.031562,0.016881,60.675583,20.289368,-146.581345,,,
729606676.323477,2.127709,-2.158174,52.180656,0.033203,0.03653,0.99855,-0.0325,0.031562,0.016881,60.675583,20.289368,-146.581345,,,
729606676.326802,2.117542,-2.152788,52.184399,0.033432,0.034821,0.998062,-0.0325,0.031562,0.016881,60.675583,20.289368,-146.581345,,,
729606676.330191,2.107769,-2.148094,52.187482,0.033432,0.034821,0.998062,-0.033477,0.016426,0.011399,60.675583,20.289368,-146.581345,,,
729606676.333513,2.107769,-2.148094,52.19066,0.033432,0.034821,0.998062,-0.033477,0.016426,0.011399,60.675583,20.289368,-146.581345,,,
729606676.33678,2.098354,-2.147348,52.19066,0.031357,0.03299,1.00119,-0.033477,0.016426,0.011399,60.675583,20.289368,-146.581345,,,
729606676.340116,2.089255,-2.145234,52.194022,0.031357,0.03299,1.00119,-0.028133,-0.001592,0.010364,60.675583,20.289368,-146.581345,,,
729606676.343504,2.089255,-2.145234,52.194022,0.031357,0.03299,1.00119,-0.028133,-0.001592,0.010364,60.675583,20.289368,-146.581345,,,
729606676.346784,2.083079,-2.148869,52.197861,0.029297,0.031601,1.00563,-0.028133,-0.001592,0.010364,60.675583,20.289368,-146.581345,,,
729606676.350109,2.076873,-2.149799,52.202415,0.029297,0.031601,1.00563,-0.016594,-0.014075,0.01529,60.675583,20.289368,-146.581345,,,
729606676.353496,2.076873,-2.149799,52.202415,0.029297,0.031601,1.00563,-0.016594,-0.014075,0.01529,60.675583,20.289368,-146.581345,,,
729606676.356846,2.073169,-2.15469,52.208233,0.031601,0.028809,1.008484,-0.016594,-0.014075,0.01529,60.675583,20.289368,-146.581345,,,
729606676.360119,2.069526,-2.156029,52.215286,0.031601,0.028809,1.008484,-0.009297,-0.010396,0.022824,60.579773,20.216583,-146.770874,,,
729606676.363562,2.069526,-2.157754,52.223839,0.031601,0.028809,1.008484,-0.009297,-0.010396,0.022824,60.579773,20.216583,-146.770874,,,
729606676.36686,2.06756,-2.157754,52.223839,0.035736,0.026779,1.011856,-0.009297,-0.010396,0.022824,60.579773,20.216583,-146.770874,,,
729606676.370119,2.065914,-2.155934,52.233093,0.035736,0.026779,1.011856,-0.001347,0.006646,0.031715,60.579773,20.216583,-146.770874,,,
729606676.373506,2.065914,-2.155934,52.233093,0.035736,0.026779,1.011856,-0.001347,0.006646,0.031715,60.579773,20.216583,-146.770874,,,
729606676.37679,2.064911,-2.153587,52.24241,0.044281,0.028412,1.010361,-0.001347,0.006646,0.031715,60.579773,20.216583,-146.770874,,,
729606676.380115,2.062939,-2.150572,52.250732,0.044281,0.028412,1.010361,-0.004921,0.012796,0.028869,60.579773,20.216583,-146.770874,,,
729606676.383539,2.062939,-2.150572,52.250732,0.044281,0.028412,1.010361,-0.004921,0.012796,0.028869,60.579773,20.216583,-146.770874,,,
729606676.386806,2.058219,-2.145911,52.257197,0.053406,0.032181,0.997925,-0.004921,0.012796,0.028869,60.579773,20.216583,-146.770874,,,
729606676.390139,2.05225,-2.13826,52.26153,0.053406,0.032181,0.997925,-0.022821,0.029206,0.013884,60.579773,20.216583,-146.770874,,,
729606676.393475,2.05225,-2.13826,52.26153,0.053406,0.032181,0.997925,-0.022821,0.029206,0.013884,60.579773,20.216583,-146.770874,,,
729606676.396848,2.043966,-2.129338,52.264271,0.051025,0.031845,0.996063,-0.022821,0.029206,0.013884,60.579773,20.216583,-146.770874,,,
729606676.400166,2.034008,-2.118119,52.266677,0.051025,0.031845,0.996063,-0.034805,0.037242,0.007373,60.541794,20.146072,-146.540054,,,
729606676.403466,2.034008,-2.118119,52.266677,0.051025,0.031845,0.996063,-0.034805,0.037242,0.007373,60.541794,20.146072,-146.540054,,,
729606676.406799,2.023268,-2.111475,52.269624,0.042358,0.028442,0.991791,-0.034805,0.037242,0.007373,60.541794,20.146072,-146.540054,,,
729606676.410174,2.012553,-2.108351,52.273584,0.042358,0.028442,0.991791,-0.036515,0.011905,0.015643,60.541794,20.146072,-146.540054,,,
729606676.413467,2.012553,-2.108351,52.273584,0.042358,0.028442,0.991791,-0.036515,0.011905,0.015643,60.541794,20.146072,-146.540054,,,
729606676.416806,2.00261,-2.110206,52.278957,0.03273,0.020401,0.987946,-0.036515,0.011905,0.015643,60.541794,20.146072,-146.540054,,,
729606676.420114,1.993506,-2.111753,52.285289,0.03273,0.020401,0.987946,-0.027569,-0.01164,0.023812,60.541794,20.146072,-146.540054,,,
729606676.423543,1.993506,-2.111753,52.285289,0.03273,0.020401,0.987946,-0.027569,-0.01164,0.023812,60.541794,20.146072,-146.540054,,,
729606676.426789,1.986214,-2.11755,52.292042,0.03212,0.017105,0.994812,-0.027569,-0.01164,0.023812,60.541794,20.146072,-146.540054,,,
729606676.430121,1.97877,-2.120587,52.297873,0.03212,0.017105,0.994812,-0.021451,-0.017068,0.019247,60.541794,20.146072,-146.540054,,,
729606676.433451,1.97877,-2.120587,52.297873,0.03212,0.017105,0.994812,-0.021451,-0.017068,0.019247,60.541794,20.146072,-146.540054,,,
729606676.436845,1.97238,-2.126252,52.302352,0.042648,0.022888,0.995789,-0.021451,-0.017068,0.019247,60.541794,20.146072,-146.540054,,,
729606676.440114,1.964527,-2.129453,52.305179,0.042648,0.022888,0.995789,-0.021243,-0.016371,0.009454,60.589523,20.17514,-146.703247,,,
729606676.443468,1.964527,-2.129453,52.305179,0.042648,0.022888,0.995789,-0.021243,-0.016371,0.009454,60.589523,20.17514,-146.703247,,,
729606676.446801,1.957408,-2.134431,52.306703,0.050873,0.03035,0.992844,-0.021243,-0.016371,0.009454,60.589523,20.17514,-146.703247,,,
729606676.450116,1.946703,-2.139783,52.307132,0.050873,0.03035,0.992844,-0.0316,-0.014147,0.001647,60.589523,20.17514,-146.703247,,,
729606676.453457,1.946703,-2.139783,52.307132,0.050873,0.03035,0.992844,-0.0316,-0.014147,0.001647,60.589523,20.17514,-146.703247,,,
729606676.456787,1.935358,-2.144171,52.306822,0.052994,0.03447,0.981003,-0.0316,-0.014147,0.001647,60.589523,20.17514,-146.703247,,,
729606676.460182,1.921846,-2.15144,52.306783,0.052994,0.03447,0.981003,-0.045274,-0.006114,0.002296,60.589523,20.17514,-146.703247,,,
729606676.463468,1.921846,-2.15144,52.306783,0.052994,0.03447,0.981003,-0.045274,-0.006114,0.002296,60.589523,20.17514,-146.703247,,,
729606676.466792,1.908511,-2.153757,52.307615,0.043839,0.033417,0.982956,-0.045274,-0.006114,0.002296,60.589523,20.17514,-146.703247,,,
729606676.470113,1.895132,-2.162821,52.310133,0.043839,0.033417,0.982956,-0.045995,-0.004002,0.008338,60.589523,20.17514,-146.703247,,,
729606676.473512,1.895132,-2.162821,52.310133,0.043839,0.033417,0.982956,-0.045995,-0.004002,0.008338,60.589523,20.17514,-146.703247,,,
729606676.476799,1.882954,-2.166228,52.313797,0.044098,0.030853,0.987595,-0.045995,-0.004002,0.008338,60.589523,20.17514,-146.703247,,,
729606676.480111,1.872581,-2.174708,52.318614,0.044098,0.030853,0.987595,-0.035747,-0.011117,0.016679,60.47348,20.450638,-146.598587,,,
729606676.48347,1.872581,-2.174708,52.318614,0.044098,0.030853,0.987595,-0.035747,-0.011117,0.016679,60.47348,20.450638,-146.598587,,,
729606676.486834,1.863459,-2.179829,52.323059,0.049728,0.034821,0.986832,-0.035747,-0.011117,0.016679,60.47348,20.450638,-146.598587,,,
729606676.490113,1.852488,-2.185487,52.326202,0.049728,0.034821,0.986832,-0.032282,-0.014141,0.010005,60.47348,20.450638,-146.598587,,,
729606676.493464,1.852488,-2.185487,52.326202,0.049728,0.034821,0.986832,-0.032282,-0.014141,0.010005,60.47348,20.450638,-146.598587,,,
729606676.496783,1.842123,-2.190356,52.327189,0.060287,0.041824,0.982803,-0.032282,-0.014141,0.010005,60.47348,20.450638,-146.598587,,,
729606676.500112,1.828367,-2.191274,52.325854,0.060287,0.041824,0.982803,-0.038828,-0.011932,-0.003739,60.47348,20.450638,-146.598587,,,
729606676.503468,1.828367,-2.191274,52.325854,0.060287,0.041824,0.982803,-0.038828,-0.011932,-0.003739,60.47348,20.450638,-146.598587,,,
729606676.506795,1.81651,-2.193011,52.322624,0.066132,0.048111,0.980911,-0.038828,-0.011932,-0.003739,60.47348,20.450638,-146.598587,,,
729606676.510113,1.801159,-2.191331,52.317399,0.066132,0.048111,0.980911,-0.045079,0.00441,-0.018042,60.47348,20.450638,-146.598587,,,
729606676.513552,1.801159,-2.191331,52.317399,0.066132,0.048111,0.980911,-0.045079,0.00441,-0.018042,60.47348,20.450638,-146.598587,,,
729606676.516806,1.787354,-2.189399,52.311266,0.063568,0.048813,0.982742,-0.045079,0.00441,-0.018042,60.47348,20.450638,-146.598587,,,
729606676.520126,1.771623,-2.190553,52.304748,0.063568,0.048813,0.982742,-0.051887,0.010498,-0.02194,60.47348,20.450638,-146.598587,,,
729606676.523452,1.771623,-2.190553,52.304748,0.063568,0.048813,0.982742,-0.051887,0.010498,-0.02194,60.531387,20.48381,-146.486679,,,
729606676.52685,1.756493,-2.188922,52.298272,0.054062,0.044083,0.984177,-0.051887,0.010498,-0.02194,60.531387,20.48381,-146.486679,,,
729606676.530117,1.741334,-2.193517,52.292137,0.054062,0.044083,0.984177,-0.052216,0.007612,-0.021283,60.531387,20.48381,-146.486679,,,
729606676.533472,1.741334,-2.193517,52.292137,0.054062,0.044083,0.984177,-0.052216,0.007612,-0.021283,60.531387,20.48381,-146.486679,,,
729606676.536791,1.725089,-2.192137,52.285316,0.042618,0.039322,0.987946,-0.052216,0.007612,-0.021283,60.531387,20.48381,-146.486679,,,
729606676.540127,1.709856,-2.196104,52.27784,0.042618,0.039322,0.987946,-0.056096,0.004964,-0.025646,60.531387,20.48381,-146.486679,,,
729606676.543469,1.709856,-2.196104,52.27784,0.042618,0.039322,0.987946,-0.056096,0.004964,-0.025646,60.531387,20.48381,-146.486679,,,
729606676.546861,1.694127,-2.195112,52.268505,0.03714,0.037369,0.990799,-0.056096,0.004964,-0.025646,60.531387,20.48381,-146.486679,,,
729606676.550106,1.679451,-2.196349,52.25772,0.03714,0.037369,0.990799,-0.051559,0.004696,-0.035613,60.531387,20.48381,-146.486679,,,
729606676.553507,1.679451,-2.196349,52.25772,0.03714,0.037369,0.990799,-0.051559,0.004696,-0.035613,60.531387,20.48381,-146.486679,,,
729606676.556899,1.664863,-2.196346,52.246115,0.037399,0.039291,1.00032,-0.051559,0.004696,-0.035613,60.531387,20.48381,-146.486679,,,
729606676.56014,1.652583,-2.200049,52.234126,0.037399,0.039291,1.00032,-0.04865,0.001969,-0.044203,60.531387,20.48381,-146.486679,,,
729606676.563467,1.652583,-2.200049,52.234126,0.037399,0.039291,1.00032,-0.04865,0.001969,-0.044203,60.509109,20.666138,-146.546524,,,
729606676.566814,1.642623,-2.200362,52.222614,0.029846,0.033691,1.006317,-0.04865,0.001969,-0.044203,60.509109,20.666138,-146.546524,,,
729606676.570119,1.637606,-2.20543,52.212838,0.029846,0.033691,1.006317,-0.025057,0.009322,-0.036879,60.509109,20.666138,-146.546524,,,
729606676.573477,1.637606,-2.20543,52.212838,0.029846,0.033691,1.006317,-0.025057,0.009322,-0.036879,60.509109,20.666138,-146.546524,,,
729606676.576888,1.634029,-2.200949,52.205025,0.018555,0.023636,1.018295,-0.025057,0.009322,-0.036879,60.509109,20.666138,-146.546524,,,
729606676.580118,1.637074,-2.203349,52.200185,0.018555,0.023636,1.018295,0.000127,0.028614,-0.017211,60.509109,20.666138,-146.546524,,,
729606676.58347,1.637074,-2.203349,52.200185,0.018555,0.023636,1.018295,0.000127,0.028614,-0.017211,60.509109,20.666138,-146.546524,,,
729606676.586815,1.63967,-2.193045,52.197688,0.013214,0.017319,1.023026,0.000127,0.028614,-0.017211,60.509109,20.666138,-146.546524,,,
729606676.590121,1.648955,-2.192976,52.197521,0.013214,0.017319,1.023026,0.021484,0.044847,-0.003219,60.509109,20.666138,-146.546524,,,
729606676.593381,1.648955,-2.192976,52.197521,0.013214,0.017319,1.023026,0.021484,0.044847,-0.003219,60.509109,20.666138,-146.546524,,,
729606676.596813,1.656831,-2.180429,52.1979,0.017822,0.021744,1.017807,0.021484,0.044847,-0.003219,60.509109,20.666138,-146.546524,,,
729606676.600118,1.670089,-2.175862,52.198345,0.017822,0.021744,1.017807,0.033543,0.050838,-0.000932,60.509109,20.666138,-146.546524,,,
729606676.603454,1.670089,-2.175862,52.198345,0.017822,0.021744,1.017807,0.033543,0.050838,-0.000932,60.387939,20.772064,-146.622009,,,
729606676.606805,1.679913,-2.161277,52.197579,0.019119,0.028015,1.015457,0.033543,0.050838,-0.000932,60.387939,20.772064,-146.622009,,,
729606676.610119,1.692534,-2.152666,52.195619,0.019119,0.028015,1.015457,0.037971,0.053043,-0.011429,60.387939,20.772064,-146.622009,,,
729606676.61357,1.692534,-2.152666,52.195619,0.019119,0.028015,1.015457,0.037971,0.053043,-0.011429,60.387939,20.772064,-146.622009,,,
729606676.616844,1.702529,-2.140379,52.192181,0.015305,0.030212,1.005234,0.037971,0.053043,-0.011429,60.387939,20.772064,-146.622009,,,
729606676.620114,1.713499,-2.13151,52.188301,0.015305,0.030212,1.005234,0.029143,0.037318,-0.015363,60.387939,20.772064,-146.622009,,,
729606676.623465,1.713499,-2.13151,52.188301,0.015305,0.030212,1.005234,0.029143,0.037318,-0.015363,60.387939,20.772064,-146.622009,,,
729606676.626804,1.721854,-2.124357,52.185182,0.013947,0.029617,0.993118,0.029143,0.037318,-0.015363,60.387939,20.772064,-146.622009,,,
729606676.630118,1.731053,-2.119664,52.182898,0.013947,0.029617,0.993118,0.025959,0.018993,-0.011105,60.387939,20.772064,-146.622009,,,
729606676.633467,1.731053,-2.119664,52.182898,0.013947,0.029617,0.993118,0.025959,0.018993,-0.011105,60.387939,20.772064,-146.622009,,,
729606676.636807,1.737679,-2.116983,52.180901,0.018066,0.029999,0.992981,0.025959,0.018993,-0.011105,60.387939,20.772064,-146.622009,,,
729606676.640118,1.74527,-2.116171,52.179755,0.018066,0.029999,0.992981,0.018563,0.003206,-0.005438,60.387939,20.772064,-146.622009,,,
729606676.643581,1.74527,-2.116171,52.179755,0.018066,0.029999,0.992981,0.018563,0.003206,-0.005438,60.387939,20.772064,-146.622009,,,
729606676.646791,1.750431,-2.117614,52.179712,0.029068,0.03009,0.990631,0.018563,0.003206,-0.005438,60.545288,20.531754,-146.904724,,,
729606676.650122,1.754093,-2.114777,52.180001,0.029068,0.03009,0.990631,0.01359,-0.00118,0.001226,60.545288,20.531754,-146.904724,,,
729606676.653476,1.754093,-2.114777,52.180001,0.029068,0.03009,0.990631,0.01359,-0.00118,0.001226,60.545288,20.531754,-146.904724,,,
729606676.656781,1.757118,-2.116362,52.180704,0.038483,0.033569,0.992859,0.01359,-0.00118,0.001226,60.545288,20.531754,-146.904724,,,
729606676.660117,1.757363,-2.108602,52.181183,0.038483,0.033569,0.992859,0.01085,-0.000974,0.003172,60.545288,20.531754,-146.904724,,,
729606676.663479,1.757363,-2.108602,52.181183,0.038483,0.033569,0.992859,0.01085,-0.000974,0.003172,60.545288,20.531754,-146.904724,,,
729606676.666845,1.759072,-2.108877,52.180982,0.046219,0.038712,0.991135,0.01085,-0.000974,0.003172,60.545288,20.531754,-146.904724,,,
729606676.670108,1.756824,-2.098845,52.179569,0.046219,0.038712,0.991135,0.001699,0.005006,-0.006641,60.545288,20.531754,-146.904724,,,
729606676.673524,1.756824,-2.098845,52.179569,0.046219,0.038712,0.991135,0.001699,0.005006,-0.006641,60.545288,20.531754,-146.904724,,,
729606676.676792,1.755846,-2.097343,52.178019,0.046982,0.039459,0.994354,0.001699,0.005006,-0.006641,60.545288,20.531754,-146.904724,,,
729606676.680122,1.752544,-2.088879,52.175884,0.046982,0.039459,0.994354,-0.005686,0.01063,-0.00901,60.545288,20.531754,-146.904724,,,
729606676.683449,1.752544,-2.088879,52.175884,0.046982,0.039459,0.994354,-0.005686,0.01063,-0.00901,60.545288,20.531754,-146.904724,,,
729606676.686813,1.749971,-2.087158,52.174126,0.039825,0.034378,0.990906,-0.005686,0.01063,-0.00901,60.721512,20.503296,-146.690643,,,
729606676.690128,1.746654,-2.077147,52.172563,0.039825,0.034378,0.990906,-0.007187,0.011222,-0.00651,60.721512,20.503296,-146.690643,,,
729606676.693506,1.746654,-2.077147,52.172563,0.039825,0.034378,0.990906,-0.007187,0.011222,-0.00651,60.721512,20.503296,-146.690643,,,
729606676.696797,1.74352,-2.074581,52.172124,0.037567,0.031754,0.99614,-0.007187,0.011222,-0.00651,60.721512,20.503296,-146.690643,,,
729606676.700125,1.740344,-2.063847,52.172594,0.037567,0.031754,0.99614,-0.012846,0.011553,-0.000866,60.721512,20.503296,-146.690643,,,
729606676.703454,1.740344,-2.063847,52.172594,0.037567,0.031754,0.99614,-0.012846,0.011553,-0.000866,60.721512,20.503296,-146.690643,,,
729606676.706791,1.737737,-2.062366,52.174901,0.034805,0.027328,0.998276,-0.012846,0.011553,-0.000866,60.721512,20.503296,-146.690643,,,
729606676.71012,1.735508,-2.052442,52.179315,0.034805,0.027328,0.998276,-0.008609,0.00742,0.014516,60.721512,20.503296,-146.690643,,,
729606676.713465,1.735508,-2.052442,52.179315,0.034805,0.027328,0.998276,-0.008609,0.00742,0.014516,60.721512,20.503296,-146.690643,,,
729606676.716797,1.733271,-2.05019,52.185721,0.034119,0.02684,0.999573,-0.008609,0.00742,0.014516,60.721512,20.503296,-146.690643,,,
729606676.720118,1.731078,-2.04184,52.191988,0.034119,0.02684,0.999573,-0.005402,0.017067,0.020446,60.721512,20.503296,-146.690643,,,
729606676.723449,1.731078,-2.04184,52.191988,0.034119,0.02684,0.999573,-0.005402,0.017067,0.020446,60.721512,20.503296,-146.690643,,,
729606676.726787,1.729139,-2.038402,52.196945,0.043762,0.031021,1.00145,-0.005402,0.017067,0.020446,60.558548,20.491028,-146.44664,,,
729606676.730118,1.727672,-2.034196,52.200038,0.043762,0.031021,1.00145,-0.005718,0.014326,0.010423,60.558548,20.491028,-146.44664,,,
729606676.733535,1.727672,-2.034196,52.200038,0.043762,0.031021,1.00145,-0.005718,0.014326,0.010423,60.558548,20.491028,-146.44664,,,
729606676.736796,1.726321,-2.032575,52.201738,0.053146,0.03595,0.999283,-0.005718,0.014326,0.010423,60.558548,20.491028,-146.44664,,,
729606676.74012,1.725303,-2.034464,52.201381,0.053146,0.03595,0.999283,-0.006589,0.007583,-0.002872,60.558548,20.491028,-146.44664,,,
729606676.743454,1.725303,-2.034464,52.201381,0.053146,0.03595,0.999283,-0.006589,0.007583,-0.002872,60.558548,20.491028,-146.44664,,,
729606676.746871,1.721823,-2.035134,52.198589,0.053055,0.035751,0.997833,-0.006589,0.007583,-0.002872,60.558548,20.491028,-146.44664,,,
729606676.750219,1.719154,-2.043133,52.194432,0.053055,0.035751,0.997833,-0.015823,-0.003689,-0.019521,60.558548,20.491028,-146.44664,,,
729606676.753472,1.719154,-2.043133,52.194432,0.053055,0.035751,0.997833,-0.015823,-0.003689,-0.019521,60.558548,20.491028,-146.44664,,,
729606676.756887,1.713333,-2.048556,52.188695,0.047089,0.033142,0.991592,-0.015823,-0.003689,-0.019521,60.558548,20.491028,-146.44664,,,
729606676.760113,1.708099,-2.059399,52.182144,0.047089,0.033142,0.991592,-0.023095,-0.024358,-0.024837,60.558548,20.491028,-146.44664,,,
729606676.763487,1.708099,-2.059399,52.182144,0.047089,0.033142,0.991592,-0.023095,-0.024358,-0.024837,60.558548,20.491028,-146.44664,,,
729606676.766808,1.700769,-2.067373,52.175415,0.043442,0.028046,0.995209,-0.023095,-0.024358,-0.024837,60.704071,20.631973,-146.881332,,,
729606676.770122,1.694181,-2.076178,52.169341,0.043442,0.028046,0.995209,-0.024623,-0.025874,-0.021984,60.704071,20.631973,-146.881332,,,
729606676.773464,1.694181,-2.076178,52.169341,0.043442,0.028046,0.995209,-0.024623,-0.025874,-0.021984,60.704071,20.631973,-146.881332,,,
729606676.776792,1.68771,-2.082625,52.164405,0.039719,0.021896,1.003464,-0.024623,-0.025874,-0.021984,60.704071,20.631973,-146.881332,,,
729606676.780121,1.683021,-2.087724,52.160512,0.039719,0.021896,1.003464,-0.016097,-0.014964,-0.014538,60.704071,20.631973,-146.881332,,,
729606676.7835,1.683021,-2.087724,52.160512,0.039719,0.021896,1.003464,-0.016097,-0.014964,-0.014538,60.704071,20.631973,-146.881332,,,
729606676.786783,1.679906,-2.090754,52.157195,0.044327,0.018707,1.012054,-0.016097,-0.014964,-0.014538,60.704071,20.631973,-146.881332,,,
729606676.790122,1.678233,-2.090736,52.154227,0.044327,0.018707,1.012054,-0.003402,0.002483,-0.011284,60.704071,20.631973,-146.881332,,,
729606676.793465,1.678233,-2.090736,52.154227,0.044327,0.018707,1.012054,-0.003402,0.002483,-0.011284,60.704071,20.631973,-146.881332,,,
729606676.796881,1.678401,-2.088939,52.150884,0.051132,0.020401,1.014496,-0.003402,0.002483,-0.011284,60.704071,20.631973,-146.881332,,,
729606676.800107,1.679952,-2.084444,52.146156,0.051132,0.020401,1.014496,0.006983,0.01683,-0.01863,60.704071,20.631973,-146.881332,,,
729606676.803467,1.679952,-2.084444,52.146156,0.051132,0.020401,1.014496,0.006983,0.01683,-0.01863,60.704071,20.631973,-146.881332,,,
729606676.806792,1.682582,-2.078722,52.139938,0.050858,0.025543,1.009903,0.006983,0.01683,-0.01863,60.704071,20.631973,-146.881332,,,
729606676.810116,1.685679,-2.078113,52.132344,0.050858,0.025543,1.009903,0.010434,0.020547,-0.027608,60.445755,20.443268,-146.562927,,,
729606676.813456,1.685679,-2.078113,52.132344,0.050858,0.025543,1.009903,0.010434,0.020547,-0.027608,60.445755,20.443268,-146.562927,,,
729606676.816796,1.687323,-2.07341,52.124016,0.045853,0.030991,0.997955,0.010434,0.020547,-0.027608,60.445755,20.443268,-146.562927,,,
729606676.820204,1.689001,-2.076171,52.1163,0.045853,0.030991,0.997955,-0.002005,0.016293,-0.028899,60.445755,20.443268,-146.562927,,,
729606676.823444,1.689001,-2.076171,52.1163,0.045853,0.030991,0.997955,-0.002005,0.016293,-0.028899,60.445755,20.443268,-146.562927,,,
729606676.826804,1.686873,-2.072914,52.109046,0.03746,0.031342,0.989227,-0.002005,0.016293,-0.028899,60.445755,20.443268,-146.562927,,,
729606676.830109,1.683721,-2.077736,52.102882,0.03746,0.031342,0.989227,-0.016266,0.005991,-0.023368,60.445755,20.443268,-146.562927,,,
729606676.833449,1.683721,-2.077736,52.102882,0.03746,0.031342,0.989227,-0.016266,0.005991,-0.023368,60.445755,20.443268,-146.562927,,,
729606676.8368,1.676944,-2.080217,52.097828,0.030472,0.031906,0.984787,-0.016266,0.005991,-0.023368,60.445755,20.443268,-146.562927,,,
729606676.840111,1.668537,-2.091603,52.093891,0.030472,0.031906,0.984787,-0.033048,-0.02279,-0.016288,60.445755,20.443268,-146.562927,,,
729606676.843458,1.668537,-2.091603,52.093891,0.030472,0.031906,0.984787,-0.033048,-0.02279,-0.016288,60.445755,20.443268,-146.562927,,,
729606676.846839,1.658831,-2.102642,52.090363,0.027725,0.027664,0.983505,-0.033048,-0.02279,-0.016288,60.445755,20.443268,-146.562927,,,
729606676.850102,1.647243,-2.118375,52.086925,0.027725,0.027664,0.983505,-0.039171,-0.043875,-0.011482,60.580261,20.596603,-146.465347,,,
729606676.853466,1.647243,-2.118375,52.086925,0.027725,0.027664,0.983505,-0.039171,-0.043875,-0.011482,60.580261,20.596603,-146.465347,,,
729606676.856809,1.63499,-2.133783,52.083434,0.026657,0.027359,0.990601,-0.039171,-0.043875,-0.011482,60.580261,20.596603,-146.465347,,,
729606676.860111,1.620371,-2.151408,52.080105,0.026657,0.027359,0.990601,-0.045644,-0.056269,-0.009097,60.580261,20.596603,-146.465347,,,
729606676.863466,1.620371,-2.151408,52.080105,0.026657,0.027359,0.990601,-0.045644,-0.056269,-0.009097,60.580261,20.596603,-146.465347,,,
729606676.866782,1.607112,-2.167039,52.076669,0.028336,0.025116,0.996292,-0.045644,-0.056269,-0.009097,60.580261,20.596603,-146.465347,,,
729606676.870121,1.59105,-2.185189,52.073714,0.028336,0.025116,0.996292,-0.049039,-0.047554,-0.009102,60.580261,20.596603,-146.465347,,,
729606676.873497,1.59105,-2.185189,52.073714,0.028336,0.025116,0.996292,-0.049039,-0.047554,-0.009102,60.580261,20.596603,-146.465347,,,
729606676.876794,1.575748,-2.199076,52.071303,0.0327,0.024094,1.003189,-0.049039,-0.047554,-0.009102,60.580261,20.596603,-146.465347,,,
729606676.880118,1.558365,-2.216595,52.069589,0.0327,0.024094,1.003189,-0.053993,-0.041955,-0.006133,60.580261,20.596603,-146.465347,,,
729606676.883456,1.558365,-2.216595,52.069589,0.0327,0.024094,1.003189,-0.053993,-0.041955,-0.006133,60.580261,20.596603,-146.465347,,,
729606676.886839,1.541827,-2.227556,52.068425,0.035568,0.021194,1.003143,-0.053993,-0.041955,-0.006133,60.580261,20.596603,-146.465347,,,
729606676.890112,1.52574,-2.239875,52.069221,0.035568,0.021194,1.003143,-0.056931,-0.022532,0.00359,60.234619,20.665817,-146.629898,,,
729606676.893463,1.52574,-2.239875,52.069221,0.035568,0.021194,1.003143,-0.056931,-0.022532,0.00359,60.234619,20.665817,-146.629898,,,
729606676.896809,1.50956,-2.246383,52.072272,0.033997,0.016632,1.009979,-0.056931,-0.022532,0.00359,60.234619,20.665817,-146.629898,,,
729606676.900108,1.49538,-2.254715,52.077548,0.033997,0.016632,1.009979,-0.053081,-0.01876,0.0176,60.234619,20.665817,-146.629898,,,
729606676.903457,1.49538,-2.254715,52.077548,0.033997,0.016632,1.009979,-0.053081,-0.01876,0.0176,60.234619,20.665817,-146.629898,,,
729606676.906794,1.482518,-2.263017,52.085174,0.031403,0.009293,1.014801,-0.053081,-0.01876,0.0176,60.234619,20.665817,-146.629898,,,
729606676.910146,1.473439,-2.270333,52.094464,0.031403,0.009293,1.014801,-0.034332,-0.028346,0.033233,60.234619,20.665817,-146.629898,,,
729606676.913506,1.473439,-2.270333,52.094464,0.031403,0.009293,1.014801,-0.034332,-0.028346,0.033233,60.234619,20.665817,-146.629898,,,
729606676.916784,1.465371,-2.280925,52.103795,0.034882,0.012909,1.020981,-0.034332,-0.028346,0.033233,60.234619,20.665817,-146.629898,,,
729606676.920111,1.460426,-2.289402,52.111773,0.034882,0.012909,1.020981,-0.019681,-0.036569,0.028462,60.234619,20.665817,-146.629898,,,
729606676.923464,1.460426,-2.289402,52.111773,0.034882,0.012909,1.020981,-0.019681,-0.036569,0.028462,60.234619,20.665817,-146.629898,,,
729606676.926849,1.455797,-2.302902,52.117749,0.044098,0.021835,1.015625,-0.019681,-0.036569,0.028462,60.234619,20.665817,-146.629898,,,
729606676.930107,1.452633,-2.311794,52.121565,0.044098,0.021835,1.015625,-0.013562,-0.046705,0.013457,60.184021,20.729614,-146.447266,,,
729606676.933456,1.452633,-2.311794,52.121565,0.044098,0.021835,1.015625,-0.013562,-0.046705,0.013457,60.184021,20.729614,-146.447266,,,
729606676.936789,1.449347,-2.325209,52.124061,0.049545,0.027222,1.014099,-0.013562,-0.046705,0.013457,60.184021,20.729614,-146.447266,,,
729606676.940111,1.445511,-2.331979,52.125096,0.049545,0.027222,1.014099,-0.016331,-0.037718,0.003296,60.184021,20.729614,-146.447266,,,
729606676.943515,1.445511,-2.331979,52.125096,0.049545,0.027222,1.014099,-0.016331,-0.037718,0.003296,60.184021,20.729614,-146.447266,,,
729606676.946796,1.440288,-2.343648,52.126095,0.047562,0.023834,1.010895,-0.016331,-0.037718,0.003296,60.184021,20.729614,-146.447266,,,
729606676.950112,1.434598,-2.351579,52.127676,0.047562,0.023834,1.010895,-0.01966,-0.040489,0.006484,60.184021,20.729614,-146.447266,,,
729606676.953554,1.434598,-2.351579,52.127676,0.047562,0.023834,1.010895,-0.01966,-0.040489,0.006484,60.184021,20.729614,-146.447266,,,
729606676.956798,1.429248,-2.363416,52.130636,0.045853,0.022247,1.002213,-0.01966,-0.040489,0.006484,60.184021,20.729614,-146.447266,,,
729606676.960124,1.4246,-2.371501,52.135276,0.045853,0.022247,1.002213,-0.015029,-0.036859,0.014142,60.184021,20.729614,-146.447266,,,
729606676.963458,1.4246,-2.371501,52.135276,0.045853,0.022247,1.002213,-0.015029,-0.036859,0.014142,60.184021,20.729614,-146.447266,,,
729606676.9667,1.42174,-2.381362,52.141247,0.043137,0.020676,1.007721,-0.015029,-0.036859,0.014142,60.184021,20.729614,-146.447266,,,
729606676.970122,1.418726,-2.38829,52.14804,0.043137,0.020676,1.007721,-0.005795,-0.031,0.023368,60.184021,20.729614,-146.447266,,,
729606676.973455,1.418726,-2.38829,52.14804,0.043137,0.020676,1.007721,-0.005795,-0.031,0.023368,60.16188,20.825958,-146.395035,,,
729606676.976803,1.417792,-2.397723,52.154847,0.043884,0.024384,1.004837,-0.005795,-0.031,0.023368,60.16188,20.825958,-146.395035,,,
729606676.980116,1.416018,-2.403636,52.160472,0.043884,0.024384,1.004837,0.00454,-0.032511,0.020194,60.16188,20.825958,-146.395035,,,
729606676.983473,1.416018,-2.403636,52.160472,0.043884,0.024384,1.004837,0.00454,-0.032511,0.020194,60.16188,20.825958,-146.395035,,,
729606676.986786,1.418348,-2.412615,52.165264,0.049683,0.030716,1.000717,0.00454,-0.032511,0.020194,60.16188,20.825958,-146.395035,,,
729606676.990112,1.420048,-2.415726,52.169164,0.049683,0.030716,1.000717,0.014308,-0.021879,0.011073,60.16188,20.825958,-146.395035,,,
729606676.993539,1.420048,-2.415726,52.169164,0.049683,0.030716,1.000717,0.014308,-0.021879,0.011073,60.16188,20.825958,-146.395035,,,
729606676.996794,1.42649,-2.422733,52.172382,0.050339,0.032272,1.004257,0.014308,-0.021879,0.011073,60.16188,20.825958,-146.395035,,,
729606677.000157,1.432957,-2.428216,52.175534,0.050339,0.032272,1.004257,0.031805,-0.022899,0.007131,60.16188,20.825958,-146.395035,,,
729606677.003454,1.432957,-2.428216,52.175534,0.050339,0.032272,1.004257,0.031805,-0.022899,0.007131,60.16188,20.825958,-146.395035,,,
729606677.006855,1.44226,-2.436384,52.178688,0.049362,0.031052,0.997513,0.031805,-0.022899,0.007131,60.16188,20.825958,-146.395035,,,
729606677.010105,1.44226,-2.447464,52.181984,0.049362,0.031052,0.997513,0.035848,-0.031151,0.008788,60.16188,20.825958,-146.395035,,,
729606677.013531,1.452004,-2.447464,52.181984,0.049362,0.031052,0.997513,0.035848,-0.031151,0.008788,59.93895,20.678253,-146.634232,,,
729606677.016786,1.46165,-2.457939,52.185454,0.051468,0.03157,0.99115,0.035848,-0.031151,0.008788,59.93895,20.678253,-146.634232,,,
729606677.020114,1.46165,-2.457939,52.185454,0.051468,0.03157,0.99115,0.030364,-0.039146,0.007433,59.93895,20.678253,-146.634232,,,
729606677.023476,1.470552,-2.471643,52.188428,0.051468,0.03157,0.99115,0.030364,-0.039146,0.007433,59.93895,20.678253,-146.634232,,,
729606677.026798,1.47777,-2.484371,52.190441,0.054123,0.035034,0.985107,0.030364,-0.039146,0.007433,59.93895,20.678253,-146.634232,,,
729606677.030113,1.47777,-2.484371,52.191251,0.054123,0.035034,0.985107,0.021258,-0.041842,0.001515,59.93895,20.678253,-146.634232,,,
729606677.033531,1.483375,-2.498295,52.191251,0.054123,0.035034,0.985107,0.021258,-0.041842,0.001515,59.93895,20.678253,-146.634232,,,
729606677.036778,1.489276,-2.510699,52.190101,0.055176,0.040039,0.98732,0.021258,-0.041842,0.001515,59.93895,20.678253,-146.634232,,,
729606677.040117,1.489276,-2.510699,52.190101,0.055176,0.040039,0.98732,0.019536,-0.040814,-0.008878,59.93895,20.678253,-146.634232,,,
729606677.043455,1.494088,-2.522619,52.187976,0.055176,0.040039,0.98732,0.019536,-0.040814,-0.008878,59.93895,20.678253,-146.634232,,,
729606677.046786,1.500221,-2.533967,52.18583,0.053787,0.036896,0.992279,0.019536,-0.040814,-0.008878,59.93895,20.678253,-146.634232,,,
729606677.050118,1.500221,-2.533967,52.18583,0.053787,0.036896,0.992279,0.027723,-0.034683,-0.01084,59.93895,20.678253,-146.634232,,,
729606677.053454,1.507095,-2.54383,52.183821,0.053787,0.036896,0.992279,0.027723,-0.034683,-0.01084,60.083801,20.687088,-146.668411,,,
729606677.056788,1.517468,-2.553457,52.182469,0.051224,0.030457,1.002136,0.027723,-0.034683,-0.01084,60.083801,20.687088,-146.668411,,,
729606677.060117,1.517468,-2.553457,52.182469,0.051224,0.030457,1.002136,0.046809,-0.025236,-0.006608,60.083801,20.687088,-146.668411,,,
729606677.063472,1.531013,-2.561935,52.181799,0.051224,0.030457,1.002136,0.046809,-0.025236,-0.006608,60.083801,20.687088,-146.668411,,,
729606677.066793,1.546936,-2.568228,52.182131,0.048889,0.02623,1.007996,0.046809,-0.025236,-0.006608,60.083801,20.687088,-146.668411,,,
729606677.070148,1.546936,-2.568228,52.182131,0.048889,0.02623,1.007996,0.063084,-0.014839,0.000907,60.083801,20.687088,-146.668411,,,
729606677.07352,1.565175,-2.575158,52.183366,0.048889,0.02623,1.007996,0.063084,-0.014839,0.000907,60.083801,20.687088,-146.668411,,,
729606677.076782,1.582373,-2.578206,52.185386,0.046463,0.029434,0.999268,0.063084,-0.014839,0.000907,60.083801,20.687088,-146.668411,,,
729606677.080162,1.582373,-2.578206,52.185386,0.046463,0.029434,0.999268,0.059326,-0.00381,0.007489,60.083801,20.687088,-146.668411,,,
729606677.083454,1.599567,-2.581324,52.188211,0.046463,0.029434,0.999268,0.059326,-0.00381,0.007489,60.083801,20.687088,-146.668411,,,
729606677.08678,1.614365,-2.582007,52.191541,0.044052,0.034637,0.989441,0.059326,-0.00381,0.007489,60.083801,20.687088,-146.668411,,,
729606677.090152,1.614365,-2.582007,52.191541,0.044052,0.034637,0.989441,0.046213,0.001045,0.009295,60.083801,20.687088,-146.668411,,,
729606677.093451,1.628063,-2.585031,52.195177,0.044052,0.034637,0.989441,0.046213,0.001045,0.009295,59.987411,20.613846,-146.494553,,,
729606677.096783,1.640161,-2.587066,52.198453,0.044037,0.03775,0.983398,0.046213,0.001045,0.009295,59.987411,20.613846,-146.494553,,,
729606677.100123,1.640161,-2.587066,52.198453,0.044037,0.03775,0.983398,0.03947,-0.011767,0.00611,59.987411,20.613846,-146.494553,,,
729606677.103138,1.652664,-2.594239,52.201472,0.044037,0.03775,0.983398,0.03947,-0.011767,0.00611,59.987411,20.613846,-146.494553,,,
729606677.106825,1.664169,-2.600974,52.203773,0.043747,0.040344,0.981277,0.03947,-0.011767,0.00611,59.987411,20.613846,-146.494553,,,
729606677.110109,1.664169,-2.600974,52.203773,0.043747,0.040344,0.981277,0.044434,-0.026627,0.00282,59.987411,20.613846,-146.494553,,,
729606677.113509,1.677852,-2.613357,52.205553,0.043747,0.040344,0.981277,0.044434,-0.026627,0.00282,59.987411,20.613846,-146.494553,,,
729606677.116768,1.691162,-2.622725,52.206868,0.040543,0.039001,0.98912,0.044434,-0.026627,0.00282,59.987411,20.613846,-146.494553,,,
729606677.120113,1.691162,-2.622725,52.206868,0.040543,0.039001,0.98912,0.044434,-0.026627,0.00282,59.987411,20.613846,-146.494553,,,
729606677.123472,1.707984,-2.636608,52.208458,0.040543,0.039001,0.98912,0.052242,-0.030936,0.003167,59.987411,20.613846,-146.494553,,,
729606677.126893,1.723975,-2.647198,52.21139,0.034927,0.036224,0.994949,0.052242,-0.030936,0.003167,59.987411,20.613846,-146.494553,,,
729606677.130105,1.723975,-2.647198,52.21139,0.034927,0.036224,0.994949,0.052242,-0.030936,0.003167,59.987411,20.613846,-146.494553,,,
729606677.133461,1.741219,-2.660054,52.216307,0.034927,0.036224,0.994949,0.059543,-0.032341,0.01296,59.987411,20.613846,-146.494553,,,
729606677.136775,1.757262,-2.66869,52.222445,0.033295,0.032715,0.992844,0.059543,-0.032341,0.01296,60.105026,20.512344,-146.73378,,,
729606677.140196,1.757262,-2.66869,52.222445,0.033295,0.032715,0.992844,0.059543,-0.032341,0.01296,60.105026,20.512344,-146.73378,,,
729606677.143461,1.772112,-2.676532,52.229764,0.033295,0.032715,0.992844,0.054289,-0.019835,0.022114,60.105026,20.512344,-146.73378,,,
729606677.146785,1.786278,-2.681872,52.23759,0.040024,0.03331,0.990921,0.054289,-0.019835,0.022114,60.105026,20.512344,-146.73378,,,
729606677.150205,1.786278,-2.681872,52.23759,0.040024,0.03331,0.990921,0.054289,-0.019835,0.022114,60.105026,20.512344,-146.73378,,,
729606677.153513,1.798749,-2.686375,52.245136,0.040024,0.03331,0.990921,0.049656,-0.009364,0.022685,60.105026,20.512344,-146.73378,,,
729606677.156776,1.811012,-2.689065,52.251707,0.044281,0.033432,0.986954,0.049656,-0.009364,0.022685,60.105026,20.512344,-146.73378,,,
729606677.160121,1.811012,-2.689065,52.251707,0.044281,0.033432,0.986954,0.049656,-0.009364,0.022685,60.105026,20.512344,-146.73378,,,
729606677.16346,1.822524,-2.690088,52.257048,0.044281,0.033432,0.986954,0.043748,-0.001976,0.013659,60.105026,20.512344,-146.73378,,,
729606677.166868,1.833844,-2.692477,52.262302,0.042404,0.031219,0.985962,0.043748,-0.001976,0.013659,60.105026,20.512344,-146.73378,,,
729606677.170144,1.833844,-2.692477,52.262302,0.042404,0.031219,0.985962,0.043748,-0.001976,0.013659,60.105026,20.512344,-146.73378,,,
729606677.173464,1.845007,-2.695421,52.267717,0.042404,0.031219,0.985962,0.036374,-0.007961,0.014578,60.105026,20.512344,-146.73378,,,
729606677.176786,1.854628,-2.701321,52.273425,0.035751,0.025024,0.98027,0.036374,-0.007961,0.014578,60.078323,20.198151,-146.387726,,,
729606677.180182,1.854628,-2.701321,52.273425,0.035751,0.025024,0.98027,0.036374,-0.007961,0.014578,60.078323,20.198151,-146.387726,,,
729606677.183491,1.864848,-2.708766,52.279455,0.035751,0.025024,0.98027,0.032125,-0.027846,0.018355,60.078323,20.198151,-146.387726,,,
729606677.186772,1.871397,-2.719201,52.286016,0.034546,0.022034,0.978302,0.032125,-0.027846,0.018355,60.078323,20.198151,-146.387726,,,
729606677.19015,1.871397,-2.719201,52.286016,0.034546,0.022034,0.978302,0.032125,-0.027846,0.018355,60.078323,20.198151,-146.387726,,,
729606677.193505,1.876425,-2.728556,52.29314,0.034546,0.022034,0.978302,0.01247,-0.03602,0.024027,60.078323,20.198151,-146.387726,,,
729606677.196769,1.876175,-2.739517,52.300955,0.031387,0.018311,0.971542,0.01247,-0.03602,0.024027,60.078323,20.198151,-146.387726,,,
729606677.200186,1.876175,-2.739517,52.300955,0.031387,0.018311,0.971542,0.01247,-0.03602,0.024027,60.078323,20.198151,-146.387726,,,
729606677.203472,1.873126,-2.746367,52.309682,0.031387,0.018311,0.971542,-0.009257,-0.033675,0.029711,60.078323,20.198151,-146.387726,,,
729606677.206773,1.865127,-2.755443,52.319786,0.031403,0.014648,0.971176,-0.009257,-0.033675,0.029711,60.078323,20.198151,-146.387726,,,
729606677.210148,1.865127,-2.755443,52.319786,0.031403,0.014648,0.971176,-0.009257,-0.033675,0.029711,60.078323,20.198151,-146.387726,,,
729606677.213469,1.853512,-2.758125,52.330652,0.031403,0.014648,0.971176,-0.038839,-0.020634,0.037961,60.078323,20.198151,-146.387726,,,
729606677.216779,1.837104,-2.76353,52.341744,0.037918,0.014954,0.974213,-0.038839,-0.020634,0.037961,60.101624,20.330231,-146.743652,,,
729606677.220216,1.837104,-2.76353,52.341744,0.037918,0.014954,0.974213,-0.038839,-0.020634,0.037961,60.101624,20.330231,-146.743652,,,
729606677.223449,1.816442,-2.764131,52.352435,0.037918,0.014954,0.974213,-0.068082,-0.008628,0.041402,60.101624,20.330231,-146.743652,,,
729606677.226786,1.792832,-2.769406,52.362654,0.041809,0.015335,0.973679,-0.068082,-0.008628,0.041402,60.101624,20.330231,-146.743652,,,
729606677.230126,1.792832,-2.769406,52.362654,0.041809,0.015335,0.973679,-0.068082,-0.008628,0.041402,60.101624,20.330231,-146.743652,,,
729606677.23352,1.767277,-2.774221,52.3724,0.041809,0.015335,0.973679,-0.083521,-0.017347,0.03818,60.101624,20.330231,-146.743652,,,
729606677.236764,1.739991,-2.780965,52.382708,0.034393,0.010406,0.975739,-0.083521,-0.017347,0.03818,60.101624,20.330231,-146.743652,,,
729606677.240122,1.739991,-2.780965,52.382708,0.034393,0.010406,0.975739,-0.083521,-0.017347,0.03818,60.101624,20.330231,-146.743652,,,
729606677.24345,1.713602,-2.787002,52.393484,0.034393,0.010406,0.975739,-0.092159,-0.020942,0.041012,60.101624,20.330231,-146.743652,,,
729606677.246771,1.68734,-2.793543,52.404508,0.030167,0.002914,0.982193,-0.092159,-0.020942,0.041012,60.101624,20.330231,-146.743652,,,
729606677.250126,1.68734,-2.793543,52.404508,0.030167,0.002914,0.982193,-0.092159,-0.020942,0.041012,60.101624,20.330231,-146.743652,,,
729606677.253462,1.661811,-2.799348,52.415609,0.030167,0.002914,0.982193,-0.086247,-0.024028,0.041215,60.101624,20.330231,-146.743652,,,
729606677.256796,1.637754,-2.808791,52.426307,0.035339,0.00589,0.986069,-0.086247,-0.024028,0.041215,60.101624,20.330231,-146.743652,,,
729606677.260186,1.637754,-2.808791,52.426307,0.035339,0.00589,0.986069,-0.086247,-0.024028,0.041215,59.937607,20.450287,-146.790848,,,
729606677.263463,1.61397,-2.815563,52.435991,0.035339,0.00589,0.986069,-0.076475,-0.031372,0.038408,59.937607,20.450287,-146.790848,,,
729606677.266786,1.591525,-2.824139,52.445776,0.0354,0.013184,0.990677,-0.076475,-0.031372,0.038408,59.937607,20.450287,-146.790848,,,
729606677.270108,1.591525,-2.824139,52.445776,0.0354,0.013184,0.990677,-0.076475,-0.031372,0.038408,59.937607,20.450287,-146.790848,,,
729606677.273527,1.568711,-2.828019,52.456288,0.0354,0.013184,0.990677,-0.07421,-0.023321,0.039936,59.937607,20.450287,-146.790848,,,
729606677.276768,1.545784,-2.834553,52.468329,0.027649,0.014694,0.989822,-0.07421,-0.023321,0.039936,59.937607,20.450287,-146.790848,,,
729606677.280137,1.545784,-2.834553,52.468329,0.027649,0.014694,0.989822,-0.07421,-0.023321,0.039936,59.937607,20.450287,-146.790848,,,
729606677.283456,1.52023,-2.835585,52.482031,0.027649,0.014694,0.989822,-0.08051,-0.013882,0.051814,59.937607,20.450287,-146.790848,,,
729606677.286775,1.494572,-2.839302,52.496488,0.034256,0.01474,0.989029,-0.08051,-0.013882,0.051814,59.937607,20.450287,-146.790848,,,
729606677.290134,1.494572,-2.839302,52.496488,0.034256,0.01474,0.989029,-0.08051,-0.013882,0.051814,59.937607,20.450287,-146.790848,,,
729606677.293467,1.466606,-2.839663,52.510387,0.034256,0.01474,0.989029,-0.089409,-0.010274,0.052056,59.937607,20.450287,-146.790848,,,
729606677.296777,1.439069,-2.844694,52.523136,0.045303,0.023331,0.988235,-0.089409,-0.010274,0.052056,59.937607,20.450287,-146.790848,,,
729606677.300111,1.439069,-2.844694,52.523136,0.045303,0.023331,0.988235,-0.089409,-0.010274,0.052056,59.938568,20.69722,-146.333923,,,
729606677.303457,1.410423,-2.84864,52.534425,0.045303,0.023331,0.988235,-0.092584,-0.015022,0.042511,59.938568,20.69722,-146.333923,,,
729606677.30678,1.382114,-2.853957,52.543791,0.052277,0.02919,0.992966,-0.092584,-0.015022,0.042511,59.938568,20.69722,-146.333923,,,
729606677.310205,1.382114,-2.853957,52.543791,0.052277,0.02919,0.992966,-0.092584,-0.015022,0.042511,59.938568,20.69722,-146.333923,,,
729606677.313455,1.351894,-2.856535,52.551025,0.052277,0.02919,0.992966,-0.100658,-0.011508,0.029499,59.938568,20.69722,-146.333923,,,
729606677.316784,1.322532,-2.859352,52.556652,0.054276,0.030502,0.996552,-0.100658,-0.011508,0.029499,59.938568,20.69722,-146.333923,,,
729606677.320127,1.322532,-2.859352,52.556652,0.054276,0.030502,0.996552,-0.100658,-0.011508,0.029499,59.938568,20.69722,-146.333923,,,
729606677.323476,1.291441,-2.855411,52.5613,0.054276,0.030502,0.996552,-0.100652,0.00275,0.020139,59.938568,20.69722,-146.333923,,,
729606677.32683,1.262766,-2.852936,52.566143,0.057327,0.028336,1.00618,-0.100652,0.00275,0.020139,59.938568,20.69722,-146.333923,,,
729606677.330167,1.262766,-2.852936,52.566143,0.057327,0.028336,1.00618,-0.100652,0.00275,0.020139,59.938568,20.69722,-146.333923,,,
729606677.333491,1.23452,-2.844174,52.571106,0.057327,0.028336,1.00618,-0.087359,0.020182,0.021319,59.938568,20.69722,-146.333923,,,
729606677.336794,1.212208,-2.839305,52.576678,0.058792,0.023071,1.013275,-0.087359,0.020182,0.021319,59.938568,20.69722,-146.333923,,,
729606677.340124,1.212208,-2.839305,52.576678,0.058792,0.023071,1.013275,-0.087359,0.020182,0.021319,59.837204,21.171188,-146.431473,,,
729606677.343473,1.190431,-2.829002,52.583498,0.058792,0.023071,1.013275,-0.066908,0.024944,0.025023,59.837204,21.171188,-146.431473,,,
729606677.346789,1.174207,-2.821503,52.591692,0.057526,0.017151,1.012802,-0.066908,0.024944,0.025023,59.837204,21.171188,-146.431473,,,
729606677.350224,1.174207,-2.821503,52.591692,0.057526,0.017151,1.012802,-0.066908,0.024944,0.025023,59.837204,21.171188,-146.431473,,,
729606677.353463,1.160779,-2.807064,52.601263,0.057526,0.017151,1.012802,-0.039911,0.032406,0.035786,59.837204,21.171188,-146.431473,,,
729606677.356791,1.150995,-2.800074,52.612253,0.056427,0.018219,1.014633,-0.039911,0.032406,0.035786,59.837204,21.171188,-146.431473,,,
729606677.360133,1.150995,-2.800074,52.612253,0.056427,0.018219,1.014633,-0.039911,0.032406,0.035786,59.837204,21.171188,-146.431473,,,
729606677.36352,1.142159,-2.786255,52.623373,0.056427,0.018219,1.014633,-0.021812,0.023468,0.040252,59.837204,21.171188,-146.431473,,,
729606677.366778,1.136152,-2.781498,52.634561,0.057831,0.021469,1.00914,-0.021812,0.023468,0.040252,59.837204,21.171188,-146.431473,,,
729606677.370133,1.136152,-2.781498,52.634561,0.057831,0.021469,1.00914,-0.021812,0.023468,0.040252,59.837204,21.171188,-146.431473,,,
729606677.373464,1.130599,-2.774518,52.645054,0.057831,0.021469,1.00914,-0.014458,0.01653,0.034176,59.837204,21.171188,-146.431473,,,
729606677.376776,1.125776,-2.772676,52.65438,0.065628,0.025848,1.009064,-0.014458,0.01653,0.034176,59.837204,21.171188,-146.431473,,,
729606677.380111,1.125776,-2.772676,52.65438,0.065628,0.025848,1.009064,-0.014458,0.01653,0.034176,59.904984,21.091415,-146.654831,,,
729606677.383452,1.122207,-2.772867,52.661946,0.065628,0.025848,1.009064,-0.014482,0.002287,0.02641,59.904984,21.091415,-146.654831,,,
729606677.386788,1.116822,-2.773558,52.667293,0.073364,0.031769,1.00444,-0.014482,0.002287,0.02641,59.904984,21.091415,-146.654831,,,
729606677.390169,1.116822,-2.773558,52.667293,0.073364,0.031769,1.00444,-0.014482,0.002287,0.02641,59.904984,21.091415,-146.654831,,,
729606677.393447,1.113582,-2.777243,52.67117,0.073364,0.031769,1.00444,-0.016353,-0.001296,0.013162,59.904984,21.091415,-146.654831,,,
729606677.39679,1.109744,-2.780052,52.673834,0.075989,0.033447,1.005554,-0.016353,-0.001296,0.013162,59.904984,21.091415,-146.654831,,,
729606677.400118,1.109744,-2.780052,52.673834,0.075989,0.033447,1.005554,-0.016353,-0.001296,0.013162,59.904984,21.091415,-146.654831,,,
729606677.403508,1.109186,-2.786175,52.675495,0.075989,0.033447,1.005554,-0.007241,-0.00859,0.004727,59.904984,21.091415,-146.654831,,,
729606677.406783,1.107257,-2.787998,52.6759,0.072586,0.031525,1.008469,-0.007241,-0.00859,0.004727,59.904984,21.091415,-146.654831,,,
729606677.41013,1.107257,-2.787998,52.6759,0.072586,0.031525,1.008469,-0.007241,-0.00859,0.004727,59.904984,21.091415,-146.654831,,,
729606677.41346,1.107557,-2.79171,52.675543,0.072586,0.031525,1.008469,-0.001028,0.001792,-0.000748,59.904984,21.091415,-146.654831,,,
729606677.416777,1.108265,-2.789972,52.675175,0.068359,0.030655,1.009277,-0.001028,0.001792,-0.000748,59.904984,21.091415,-146.654831,,,
729606677.420128,1.108265,-2.789972,52.675175,0.068359,0.030655,1.009277,-0.001028,0.001792,-0.000748,59.904984,21.091415,-146.654831,,,
729606677.423452,1.111456,-2.791288,52.674367,0.068359,0.030655,1.009277,0.010686,0.012171,-0.003639,59.876663,21.185654,-146.315765,,,
729606677.426798,1.116867,-2.78931,52.673067,0.070557,0.030701,1.009705,0.010686,0.012171,-0.003639,59.876663,21.185654,-146.315765,,,
729606677.430109,1.116867,-2.78931,52.673067,0.070557,0.030701,1.009705,0.010686,0.012171,-0.003639,59.876663,21.185654,-146.315765,,,
729606677.433486,1.124006,-2.791054,52.672074,0.070557,0.030701,1.009705,0.026992,0.005449,-0.002935,59.876663,21.185654,-146.315765,,,
729606677.436791,1.134272,-2.79035,52.671753,0.068665,0.029556,1.006668,0.026992,0.005449,-0.002935,59.876663,21.185654,-146.315765,,,
729606677.440186,1.134272,-2.79035,52.671753,0.068665,0.029556,1.006668,0.026992,0.005449,-0.002935,59.876663,21.185654,-146.315765,,,
729606677.443444,1.146526,-2.791561,52.671679,0.068665,0.029556,1.006668,0.041562,0.009831,-0.00673,59.876663,21.185654,-146.315765,,,
729606677.446787,1.159593,-2.789437,52.670849,0.064255,0.033127,1.009979,0.041562,0.009831,-0.00673,59.876663,21.185654,-146.315765,,,
729606677.450135,1.159593,-2.789437,52.670849,0.064255,0.033127,1.009979,0.041562,0.009831,-0.00673,59.876663,21.185654,-146.315765,,,
729606677.453538,1.174367,-2.791802,52.669281,0.064255,0.033127,1.009979,0.050624,0.006669,-0.010815,59.876663,21.185654,-146.315765,,,
729606677.456778,1.190044,-2.790301,52.665918,0.066803,0.035065,1.004303,0.050624,0.006669,-0.010815,59.876663,21.185654,-146.315765,,,
729606677.46013,1.190044,-2.790301,52.665918,0.066803,0.035065,1.004303,0.050624,0.006669,-0.010815,59.876663,21.185654,-146.315765,,,
729606677.463468,1.208323,-2.796101,52.660953,0.066803,0.035065,1.004303,0.06196,0.00787,-0.019601,59.74411,21.195557,-146.290817,,,
729606677.466783,1.226281,-2.793756,52.654175,0.063416,0.035675,1.000992,0.06196,0.00787,-0.019601,59.74411,21.195557,-146.290817,,,
729606677.470133,1.226281,-2.793756,52.654175,0.063416,0.035675,1.000992,0.06196,0.00787,-0.019601,59.74411,21.195557,-146.290817,,,
729606677.473474,1.2464,-2.800916,52.646132,0.063416,0.035675,1.000992,0.06198,0.011275,-0.034295,59.74411,21.195557,-146.290817,,,
729606677.476777,1.264359,-2.796913,52.637104,0.058701,0.035538,1.000961,0.06198,0.011275,-0.034295,59.74411,21.195557,-146.290817,,,
729606677.480186,1.264359,-2.796913,52.637104,0.058701,0.035538,1.000961,0.06198,0.011275,-0.034295,59.74411,21.195557,-146.290817,,,
729606677.483457,1.284969,-2.802712,52.628057,0.058701,0.035538,1.000961,0.058783,0.018984,-0.040864,59.74411,21.195557,-146.290817,,,
729606677.486786,1.305004,-2.798234,52.61887,0.051682,0.031738,0.999786,0.058783,0.018984,-0.040864,59.74411,21.195557,-146.290817,,,
729606677.490126,1.305004,-2.798234,52.61887,0.051682,0.031738,0.999786,0.058783,0.018984,-0.040864,59.74411,21.195557,-146.290817,,,
729606677.493524,1.328629,-2.801527,52.610595,0.051682,0.031738,0.999786,0.073732,0.01983,-0.037075,59.74411,21.195557,-146.290817,,,
729606677.496817,1.35253,-2.796937,52.603137,0.046494,0.028336,1.005234,0.073732,0.01983,-0.037075,59.74411,21.195557,-146.290817,,,
729606677.500126,1.35253,-2.796937,52.603137,0.046494,0.028336,1.005234,0.073732,0.01983,-0.037075,59.74411,21.195557,-146.290817,,,
