Time (sec),Pitch (deg),Roll (deg),Yaw(deg),X-Acceleration (g),Y-Acceleration (g),Z-Acceleration (g),Pitch Rate (deg/sec),Roll Rate (deg/sec),Yaw Rate (deg/sec),Magnetic Field in X direction (uT),Magnetic Field in Y direction (uT),Magnetic Field in Z Direction (uT),Latitude (deg),Longitude (deg),Altitude (m)
729605626.54019,1.526888,-2.607788,48.513078,0.052673,0.037094,0.979843,-0.105892,0.019069,0.027966,59.143158,19.778412,-147.654968,,,
729605626.543555,1.526888,-2.607788,48.513078,0.052673,0.037094,0.979843,-0.105892,0.019069,0.027966,59.143158,19.778412,-147.654968,,,
729605626.546838,1.493518,-2.598028,48.519958,0.052673,0.037094,0.979843,-0.105892,0.019069,0.027966,59.143158,19.778412,-147.654968,,,
729605626.55017,1.460241,-2.58784,48.526849,0.055237,0.034332,0.988037,-0.117982,0.042314,0.028065,59.143158,19.778412,-147.654968,,,
729605626.553512,1.460241,-2.58784,48.526849,0.055237,0.034332,0.988037,-0.117982,0.042314,0.028065,59.143158,19.778412,-147.654968,,,
729605626.556874,1.426048,-2.571349,48.533098,0.055237,0.034332,0.988037,-0.117982,0.042314,0.028065,59.143158,19.778412,-147.654968,,,
729605626.560167,1.397293,-2.554434,48.538841,0.058975,0.026306,1.008865,-0.093903,0.064482,0.022738,59.143158,19.778412,-147.654968,,,
729605626.563507,1.397293,-2.554434,48.538841,0.058975,0.026306,1.008865,-0.093903,0.064482,0.022738,59.143158,19.778412,-147.654968,,,
729605626.566863,1.373234,-2.533985,48.544079,0.058975,0.026306,1.008865,-0.093903,0.064482,0.022738,59.260864,19.88649,-147.256134,,,
729605626.570166,1.357682,-2.514719,48.549021,0.065506,0.016159,1.024597,-0.047285,0.071628,0.015418,59.260864,19.88649,-147.256134,,,
729605626.573508,1.357682,-2.514719,48.549021,0.065506,0.016159,1.024597,-0.047285,0.071628,0.015418,59.260864,19.88649,-147.256134,,,
729605626.57685,1.348329,-2.495714,48.553687,0.065506,0.016159,1.024597,-0.047285,0.071628,0.015418,59.260864,19.88649,-147.256134,,,
729605626.580182,1.344735,-2.477946,48.558359,0.058594,0.009247,1.021805,-0.008141,0.0662,0.015155,59.260864,19.88649,-147.256134,,,
729605626.583565,1.344735,-2.477946,48.558359,0.058594,0.009247,1.021805,-0.008141,0.0662,0.015155,59.260864,19.88649,-147.256134,,,
729605626.586838,1.345317,-2.462446,48.563049,0.058594,0.009247,1.021805,-0.008141,0.0662,0.015155,59.260864,19.88649,-147.256134,,,
729605626.590299,1.345931,-2.447783,48.566897,0.048233,0.01651,1.007065,0.003551,0.050249,0.010678,59.260864,19.88649,-147.256134,,,
729605626.593492,1.345931,-2.447783,48.566897,0.048233,0.01651,1.007065,0.003551,0.050249,0.010678,59.260864,19.88649,-147.256134,,,
729605626.59691,1.349072,-2.438484,48.568922,0.048233,0.01651,1.007065,0.003551,0.050249,0.010678,59.260864,19.88649,-147.256134,,,
729605626.600166,1.347336,-2.432344,48.568915,0.049866,0.031479,0.990906,-0.00659,0.01982,-0.002138,59.260864,19.88649,-147.256134,,,
729605626.603522,1.347336,-2.432344,48.568915,0.049866,0.031479,0.990906,-0.00659,0.01982,-0.002138,59.260864,19.88649,-147.256134,,,
729605626.606936,1.345587,-2.431725,48.567677,0.049866,0.031479,0.990906,-0.00659,0.01982,-0.002138,59.376831,19.90683,-147.378998,,,
729605626.610171,1.336504,-2.431089,48.565537,0.048584,0.037476,0.981613,-0.03718,0.00481,-0.007928,59.376831,19.90683,-147.378998,,,
729605626.613386,1.336504,-2.431089,48.565537,0.048584,0.037476,0.981613,-0.03718,0.00481,-0.007928,59.376831,19.90683,-147.378998,,,
729605626.616877,1.32602,-2.433236,48.563193,0.048584,0.037476,0.981613,-0.03718,0.00481,-0.007928,59.376831,19.90683,-147.378998,,,
729605626.620176,1.30773,-2.431747,48.561058,0.047562,0.034302,0.983124,-0.068214,0.010523,-0.0071,59.376831,19.90683,-147.378998,,,
729605626.623515,1.30773,-2.431747,48.561058,0.047562,0.034302,0.983124,-0.068214,0.010523,-0.0071,59.376831,19.90683,-147.378998,,,
729605626.626851,1.289718,-2.431278,48.558956,0.047562,0.034302,0.983124,-0.068214,0.010523,-0.0071,59.376831,19.90683,-147.378998,,,
729605626.630172,1.268145,-2.42594,48.556907,0.054382,0.029648,0.995026,-0.076844,0.02611,-0.006492,59.376831,19.90683,-147.378998,,,
729605626.633505,1.268145,-2.42594,48.556907,0.054382,0.029648,0.995026,-0.076844,0.02611,-0.006492,59.376831,19.90683,-147.378998,,,
729605626.636853,1.248825,-2.420168,48.554408,0.054382,0.029648,0.995026,-0.076844,0.02611,-0.006492,59.376831,19.90683,-147.378998,,,
729605626.640177,1.227911,-2.407425,48.550777,0.060043,0.028198,1.007538,-0.074457,0.052297,-0.013605,59.376831,19.90683,-147.378998,,,
729605626.643582,1.227911,-2.407425,48.550777,0.060043,0.028198,1.007538,-0.074457,0.052297,-0.013605,59.376831,19.90683,-147.378998,,,
729605626.646836,1.207692,-2.395024,48.546447,0.060043,0.028198,1.007538,-0.074457,0.052297,-0.013605,59.402206,20.12355,-147.810104,,,
729605626.65018,1.187467,-2.375629,48.541655,0.05632,0.026978,1.005386,-0.071992,0.074435,-0.016087,59.402206,20.12355,-147.810104,,,
729605626.653512,1.187467,-2.375629,48.541655,0.05632,0.026978,1.005386,-0.071992,0.074435,-0.016087,59.402206,20.12355,-147.810104,,,
729605626.656834,1.16607,-2.359553,48.536774,0.05632,0.026978,1.005386,-0.071992,0.074435,-0.016087,59.402206,20.12355,-147.810104,,,
729605626.660179,1.148725,-2.339542,48.531007,0.04985,0.023987,0.999664,-0.059172,0.073231,-0.020953,59.402206,20.12355,-147.810104,,,
729605626.663528,1.148725,-2.339542,48.531007,0.04985,0.023987,0.999664,-0.059172,0.073231,-0.020953,59.402206,20.12355,-147.810104,,,
729605626.666916,1.132131,-2.324142,48.523634,0.04985,0.023987,0.999664,-0.059172,0.073231,-0.020953,59.402206,20.12355,-147.810104,,,
729605626.670166,1.119742,-2.309325,48.514325,0.052429,0.020233,0.998596,-0.042281,0.05041,-0.033864,59.402206,20.12355,-147.810104,,,
729605626.673547,1.119742,-2.309325,48.514325,0.052429,0.020233,0.998596,-0.042281,0.05041,-0.033864,59.402206,20.12355,-147.810104,,,
729605626.676879,1.109891,-2.30089,48.503605,0.052429,0.020233,0.998596,-0.042281,0.05041,-0.033864,59.402206,20.12355,-147.810104,,,
729605626.68025,1.10212,-2.295455,48.491504,0.04335,0.014694,0.994095,-0.026748,0.016835,-0.046346,59.402206,20.12355,-147.810104,,,
729605626.683532,1.10212,-2.295455,48.491504,0.04335,0.014694,0.994095,-0.026748,0.016835,-0.046346,59.402206,20.12355,-147.810104,,,
729605626.686864,1.100291,-2.297508,48.477668,0.04335,0.014694,0.994095,-0.026748,0.016835,-0.046346,59.402206,20.12355,-147.810104,,,
729605626.69017,1.097885,-2.302491,48.461331,0.041824,0.01091,0.993591,-0.007998,-0.019151,-0.059831,59.465378,20.170486,-147.755447,,,
729605626.693609,1.097885,-2.302491,48.461331,0.041824,0.01091,0.993591,-0.007998,-0.019151,-0.059831,59.465378,20.170486,-147.755447,,,
729605626.696854,1.102832,-2.313471,48.442952,0.041824,0.01091,0.993591,-0.007998,-0.019151,-0.059831,59.465378,20.170486,-147.755447,,,
729605626.700166,1.106604,-2.326422,48.423676,0.047241,0.009827,1.003372,0.011982,-0.044026,-0.071879,59.465378,20.170486,-147.755447,,,
729605626.70351,1.106604,-2.326422,48.423676,0.047241,0.009827,1.003372,0.011982,-0.044026,-0.071879,59.465378,20.170486,-147.755447,,,
729605626.706908,1.114085,-2.344363,48.404208,0.047241,0.009827,1.003372,0.011982,-0.044026,-0.071879,59.465378,20.170486,-147.755447,,,
729605626.710158,1.11881,-2.362988,48.385693,0.041702,0.005875,0.999268,0.014208,-0.06846,-0.066694,59.465378,20.170486,-147.755447,,,
729605626.713502,1.11881,-2.362988,48.385693,0.041702,0.005875,0.999268,0.014208,-0.06846,-0.066694,59.465378,20.170486,-147.755447,,,
729605626.71685,1.124783,-2.387513,48.369541,0.041702,0.005875,0.999268,0.014208,-0.06846,-0.066694,59.465378,20.170486,-147.755447,,,
729605626.72017,1.128136,-2.41053,48.355894,0.031693,-0.000183,0.993469,0.009003,-0.080048,-0.046437,59.465378,20.170486,-147.755447,,,
729605626.723514,1.128136,-2.41053,48.355894,0.031693,-0.000183,0.993469,0.009003,-0.080048,-0.046437,59.465378,20.170486,-147.755447,,,
729605626.726845,1.13257,-2.437715,48.344583,0.031693,-0.000183,0.993469,0.009003,-0.080048,-0.046437,59.465378,20.170486,-147.755447,,,
729605626.730171,1.135544,-2.461188,48.334751,0.036743,-0.001678,1.001083,0.01141,-0.08026,-0.033494,59.476273,20.247116,-147.455017,,,
729605626.733595,1.135544,-2.461188,48.334751,0.036743,-0.001678,1.001083,0.01141,-0.08026,-0.033494,59.476273,20.247116,-147.455017,,,
729605626.736837,1.140534,-2.48664,48.325328,0.036743,-0.001678,1.001083,0.01141,-0.08026,-0.033494,59.476273,20.247116,-147.455017,,,
729605626.74018,1.144554,-2.508331,48.315579,0.047607,0.000626,1.002151,0.012746,-0.072805,-0.036086,59.476273,20.247116,-147.455017,,,
729605626.743522,1.144554,-2.508331,48.315579,0.047607,0.000626,1.002151,0.012746,-0.072805,-0.036086,59.476273,20.247116,-147.455017,,,
729605626.746836,1.148468,-2.528356,48.304825,0.047607,0.000626,1.002151,0.012746,-0.072805,-0.036086,59.476273,20.247116,-147.455017,,,
729605626.750175,1.15175,-2.543116,48.292839,0.054001,0.004074,1.00325,0.013385,-0.04606,-0.042808,59.476273,20.247116,-147.455017,,,
729605626.753514,1.15175,-2.543116,48.292839,0.054001,0.004074,1.00325,0.013385,-0.04606,-0.042808,59.476273,20.247116,-147.455017,,,
729605626.756834,1.155621,-2.555399,48.279711,0.054001,0.004074,1.00325,0.013385,-0.04606,-0.042808,59.476273,20.247116,-147.455017,,,
729605626.760175,1.160656,-2.56177,48.26531,0.054092,0.00499,1.010406,0.016145,-0.017407,-0.0524,59.476273,20.247116,-147.455017,,,
729605626.76351,1.160656,-2.56177,48.26531,0.054092,0.00499,1.010406,0.016145,-0.017407,-0.0524,59.476273,20.247116,-147.455017,,,
729605626.766837,1.164671,-2.563301,48.251255,0.054092,0.00499,1.010406,0.016145,-0.017407,-0.0524,59.476273,20.247116,-147.455017,,,
729605626.770178,1.169525,-2.561104,48.238687,0.047028,0.003952,1.009232,0.014341,0.014783,-0.046086,59.40947,20.080856,-147.631989,,,
729605626.773597,1.169525,-2.561104,48.238687,0.047028,0.003952,1.009232,0.014341,0.014783,-0.046086,59.40947,20.080856,-147.631989,,,
729605626.776842,1.171526,-2.553428,48.227933,0.047028,0.003952,1.009232,0.014341,0.014783,-0.046086,59.40947,20.080856,-147.631989,,,
729605626.780196,1.174024,-2.539673,48.218992,0.041214,0.007568,1.006866,0.005223,0.057291,-0.031406,59.40947,20.080856,-147.631989,,,
729605626.783525,1.174024,-2.539673,48.218992,0.041214,0.007568,1.006866,0.005223,0.057291,-0.031406,59.40947,20.080856,-147.631989,,,
729605626.78689,1.171832,-2.521249,48.211932,0.041214,0.007568,1.006866,0.005223,0.057291,-0.031406,59.40947,20.080856,-147.631989,,,
729605626.79028,1.169692,-2.498405,48.20673,0.037231,0.015671,1.005447,-0.009306,0.084049,-0.016341,59.40947,20.080856,-147.631989,,,
729605626.793578,1.169692,-2.498405,48.20673,0.037231,0.015671,1.005447,-0.009306,0.084049,-0.016341,59.40947,20.080856,-147.631989,,,
729605626.796844,1.162574,-2.47194,48.203316,0.037231,0.015671,1.005447,-0.009306,0.084049,-0.016341,59.40947,20.080856,-147.631989,,,
729605626.800181,1.158503,-2.446013,48.200933,0.035873,0.01738,0.998215,-0.017007,0.093285,-0.007062,59.40947,20.080856,-147.631989,,,
729605626.803507,1.158503,-2.446013,48.200933,0.035873,0.01738,0.998215,-0.017007,0.093285,-0.007062,59.40947,20.080856,-147.631989,,,
729605626.80685,1.150015,-2.419071,48.198293,0.035873,0.01738,0.998215,-0.017007,0.093285,-0.007062,59.40947,20.080856,-147.631989,,,
729605626.810223,1.146919,-2.397305,48.194757,0.040665,0.016922,0.999222,-0.009176,0.075796,-0.015671,59.553268,20.138306,-147.514053,,,
729605626.813531,1.146919,-2.397305,48.194757,0.040665,0.016922,0.999222,-0.009176,0.075796,-0.015671,59.553268,20.138306,-147.514053,,,
729605626.816839,1.140842,-2.379072,48.18973,0.040665,0.016922,0.999222,-0.009176,0.075796,-0.015671,59.553268,20.138306,-147.514053,,,
729605626.820177,1.140156,-2.365522,48.183399,0.039124,0.014313,0.995575,-0.002641,0.046721,-0.024563,59.553268,20.138306,-147.514053,,,
729605626.823519,1.140156,-2.365522,48.183399,0.039124,0.014313,0.995575,-0.002641,0.046721,-0.024563,59.553268,20.138306,-147.514053,,,
729605626.82686,1.136168,-2.359109,48.175926,0.039124,0.014313,0.995575,-0.002641,0.046721,-0.024563,59.553268,20.138306,-147.514053,,,
729605626.830197,1.135524,-2.355625,48.168137,0.027267,0.016693,0.989639,-0.001927,0.011845,-0.025517,59.553268,20.138306,-147.514053,,,
729605626.833505,1.135524,-2.355625,48.168137,0.027267,0.016693,0.989639,-0.001927,0.011845,-0.025517,59.553268,20.138306,-147.514053,,,
729605626.836851,1.130773,-2.358652,48.161001,0.027267,0.016693,0.989639,-0.001927,0.011845,-0.025517,59.553268,20.138306,-147.514053,,,
729605626.840184,1.128272,-2.361692,48.155168,0.022812,0.018784,0.992264,-0.007179,-0.011602,-0.021147,59.553268,20.138306,-147.514053,,,
729605626.843518,1.128272,-2.361692,48.155168,0.022812,0.018784,0.992264,-0.007179,-0.011602,-0.021147,59.553268,20.138306,-147.514053,,,
729605626.846841,1.122988,-2.368921,48.150908,0.022812,0.018784,0.992264,-0.007179,-0.011602,-0.021147,59.553268,20.138306,-147.514053,,,
729605626.850168,1.12079,-2.374119,48.147515,0.025299,0.019943,1.001984,-0.010191,-0.016254,-0.011774,59.553268,20.138306,-147.514053,,,
729605626.853554,1.12079,-2.374119,48.147515,0.025299,0.019943,1.001984,-0.010191,-0.016254,-0.011774,59.638611,19.940475,-147.562714,,,
729605626.856872,1.115344,-2.378541,48.145028,0.025299,0.019943,1.001984,-0.010191,-0.016254,-0.011774,59.638611,19.940475,-147.562714,,,
729605626.860174,1.112543,-2.379041,48.143537,0.033401,0.017426,1.008911,-0.009888,0.002765,-0.005362,59.638611,19.940475,-147.562714,,,
729605626.863512,1.112543,-2.379041,48.143537,0.033401,0.017426,1.008911,-0.009888,0.002765,-0.005362,59.638611,19.940475,-147.562714,,,
729605626.866858,1.107106,-2.374385,48.14309,0.033401,0.017426,1.008911,-0.009888,0.002765,-0.005362,59.638611,19.940475,-147.562714,,,
729605626.870167,1.102857,-2.366403,48.143609,0.032364,0.017426,1.014069,-0.011397,0.034892,0.001939,59.638611,19.940475,-147.562714,,,
729605626.873504,1.102857,-2.366403,48.143609,0.032364,0.017426,1.014069,-0.011397,0.034892,0.001939,59.638611,19.940475,-147.562714,,,
729605626.876843,1.09805,-2.354785,48.144917,0.032364,0.017426,1.014069,-0.011397,0.034892,0.001939,59.638611,19.940475,-147.562714,,,
729605626.880182,1.093987,-2.342587,48.146539,0.031189,0.017853,1.012375,-0.01654,0.045391,0.006279,59.638611,19.940475,-147.562714,,,
729605626.883513,1.093987,-2.342587,48.146539,0.031189,0.017853,1.012375,-0.01654,0.045391,0.006279,59.638611,19.940475,-147.562714,,,
729605626.886952,1.089556,-2.329294,48.148668,0.031189,0.017853,1.012375,-0.01654,0.045391,0.006279,59.638611,19.940475,-147.562714,,,
729605626.890171,1.084515,-2.316865,48.151611,0.028778,0.018524,1.007462,-0.015384,0.04546,0.010854,59.638611,19.940475,-147.562714,,,
729605626.893515,1.084515,-2.316865,48.151611,0.028778,0.018524,1.007462,-0.015384,0.04546,0.010854,59.457626,20.112335,-147.699997,,,
729605626.896836,1.077411,-2.305548,48.155117,0.028778,0.018524,1.007462,-0.015384,0.04546,0.010854,59.457626,20.112335,-147.699997,,,
729605626.900179,1.069288,-2.295166,48.159217,0.02597,0.016052,0.995636,-0.026346,0.039319,0.015366,59.457626,20.112335,-147.699997,,,
729605626.903522,1.069288,-2.295166,48.159217,0.02597,0.016052,0.995636,-0.026346,0.039319,0.015366,59.457626,20.112335,-147.699997,,,
729605626.906836,1.060601,-2.285304,48.163526,0.02597,0.016052,0.995636,-0.026346,0.039319,0.015366,59.457626,20.112335,-147.699997,,,
729605626.910175,1.053751,-2.278287,48.166975,0.030258,0.016479,0.998718,-0.022597,0.025674,0.009278,59.457626,20.112335,-147.699997,,,
729605626.913507,1.053751,-2.278287,48.166975,0.030258,0.016479,0.998718,-0.022597,0.025674,0.009278,59.457626,20.112335,-147.699997,,,
729605626.916854,1.048094,-2.268595,48.169157,0.030258,0.016479,0.998718,-0.022597,0.025674,0.009278,59.457626,20.112335,-147.699997,,,
729605626.920175,1.044631,-2.262439,48.170734,0.035614,0.014938,1.009659,-0.010004,0.021262,0.005333,59.457626,20.112335,-147.699997,,,
729605626.923608,1.044631,-2.262439,48.170734,0.035614,0.014938,1.009659,-0.010004,0.021262,0.005333,59.457626,20.112335,-147.699997,,,
729605626.926834,1.043711,-2.253836,48.172346,0.035614,0.014938,1.009659,-0.010004,0.021262,0.005333,59.457626,20.112335,-147.699997,,,
729605626.930173,1.045129,-2.250477,48.174598,0.035934,0.010437,1.011719,0.009486,0.016124,0.006276,59.457626,20.112335,-147.699997,,,
729605626.933498,1.045129,-2.250477,48.174598,0.035934,0.010437,1.011719,0.009486,0.016124,0.006276,59.593842,20.221756,-147.532883,,,
729605626.936833,1.048434,-2.245587,48.177938,0.035934,0.010437,1.011719,0.009486,0.016124,0.006276,59.593842,20.221756,-147.532883,,,
729605626.940169,1.052677,-2.243504,48.182568,0.031586,0.008102,1.010086,0.015797,0.009937,0.015793,59.593842,20.221756,-147.532883,,,
729605626.943512,1.052677,-2.243504,48.182568,0.031586,0.008102,1.010086,0.015797,0.009937,0.015793,59.593842,20.221756,-147.532883,,,
729605626.946851,1.058249,-2.241219,48.188782,0.031586,0.008102,1.010086,0.015797,0.009937,0.015793,59.593842,20.221756,-147.532883,,,
729605626.950166,1.064334,-2.241244,48.197097,0.033066,0.010147,1.004623,0.022142,0.002851,0.028334,59.593842,20.221756,-147.532883,,,
729605626.953575,1.064334,-2.241244,48.197097,0.033066,0.010147,1.004623,0.022142,0.002851,0.028334,59.593842,20.221756,-147.532883,,,
729605626.956845,1.069028,-2.240452,48.206821,0.033066,0.010147,1.004623,0.022142,0.002851,0.028334,59.593842,20.221756,-147.532883,,,
729605626.960164,1.073181,-2.241565,48.217713,0.035019,0.015793,0.994888,0.018946,0.000633,0.039888,59.593842,20.221756,-147.532883,,,
729605626.963503,1.073181,-2.241565,48.217713,0.035019,0.015793,0.994888,0.018946,0.000633,0.039888,59.593842,20.221756,-147.532883,,,
729605626.966929,1.076486,-2.240287,48.22906,0.035019,0.015793,0.994888,0.018946,0.000633,0.039888,59.593842,20.221756,-147.532883,,,
729605626.970154,1.079127,-2.241199,48.238989,0.043579,0.02179,0.996323,0.012056,-0.001364,0.0307,59.593842,20.221756,-147.532883,,,
729605626.973511,1.079127,-2.241199,48.238989,0.043579,0.02179,0.996323,0.012056,-0.001364,0.0307,59.671585,20.208939,-147.47142,,,
729605626.976829,1.080676,-2.240149,48.246839,0.043579,0.02179,0.996323,0.012056,-0.001364,0.0307,59.671585,20.208939,-147.47142,,,
729605626.980178,1.081078,-2.240343,48.25316,0.048767,0.028976,0.994247,0.00153,0.002755,0.017855,59.671585,20.208939,-147.47142,,,
729605626.9835,1.081078,-2.240343,48.25316,0.048767,0.028976,0.994247,0.00153,0.002755,0.017855,59.671585,20.208939,-147.47142,,,
729605626.986853,1.079263,-2.235823,48.258312,0.048767,0.028976,0.994247,0.00153,0.002755,0.017855,59.671585,20.208939,-147.47142,,,
729605626.990177,1.07592,-2.231801,48.262639,0.043747,0.028931,0.99292,-0.011117,0.018332,0.01112,59.671585,20.208939,-147.47142,,,
729605626.993559,1.07592,-2.231801,48.262639,0.043747,0.028931,0.99292,-0.011117,0.018332,0.01112,59.671585,20.208939,-147.47142,,,
729605626.996826,1.069362,-2.225581,48.266519,0.043747,0.028931,0.99292,-0.011117,0.018332,0.01112,59.671585,20.208939,-147.47142,,,
729605627.00019,1.06072,-2.219804,48.271129,0.042053,0.028015,0.986954,-0.028347,0.025968,0.016651,59.671585,20.208939,-147.47142,,,
729605627.003526,1.06072,-2.219804,48.271129,0.042053,0.028015,0.986954,-0.028347,0.025968,0.016651,59.671585,20.208939,-147.47142,,,
729605627.006906,1.048329,-2.212139,48.276711,0.042053,0.028015,0.986954,-0.028347,0.025968,0.016651,59.671585,20.208939,-147.47142,,,
729605627.010255,1.034214,-2.204437,48.28411,0.040833,0.031128,0.982376,-0.048528,0.027327,0.029064,59.671585,20.208939,-147.47142,,,
729605627.013503,1.034214,-2.204437,48.28411,0.040833,0.031128,0.982376,-0.048528,0.027327,0.029064,59.671585,20.208939,-147.47142,,,
729605627.016842,1.015126,-2.195507,48.293683,0.040833,0.031128,0.982376,-0.048528,0.027327,0.029064,59.584015,20.197784,-147.512772,,,
729605627.020176,0.994987,-2.187076,48.304268,0.039062,0.032898,0.980316,-0.070984,0.036185,0.037721,59.584015,20.197784,-147.512772,,,
729605627.023511,0.994987,-2.187076,48.304268,0.039062,0.032898,0.980316,-0.070984,0.036185,0.037721,59.584015,20.197784,-147.512772,,,
729605627.026855,0.970578,-2.176821,48.315331,0.039062,0.032898,0.980316,-0.070984,0.036185,0.037721,59.584015,20.197784,-147.512772,,,
729605627.030191,0.945865,-2.169833,48.327177,0.034424,0.029938,0.985825,-0.085372,0.026015,0.043613,59.584015,20.197784,-147.512772,,,
729605627.033602,0.945865,-2.169833,48.327177,0.034424,0.029938,0.985825,-0.085372,0.026015,0.043613,59.584015,20.197784,-147.512772,,,
729605627.036837,0.918272,-2.164574,48.339838,0.034424,0.029938,0.985825,-0.085372,0.026015,0.043613,59.584015,20.197784,-147.512772,,,
729605627.040176,0.890567,-2.162249,48.353148,0.033936,0.024658,0.984909,-0.094213,0.012324,0.046842,59.584015,20.197784,-147.512772,,,
729605627.043531,0.890567,-2.162249,48.353148,0.033936,0.024658,0.984909,-0.094213,0.012324,0.046842,59.584015,20.197784,-147.512772,,,
729605627.046839,0.864347,-2.161564,48.366353,0.033936,0.024658,0.984909,-0.094213,0.012324,0.046842,59.584015,20.197784,-147.512772,,,
729605627.050217,0.840153,-2.162694,48.378676,0.034485,0.019913,0.998016,-0.081903,-0.001881,0.044679,59.584015,20.197784,-147.512772,,,
729605627.05353,0.840153,-2.162694,48.378676,0.034485,0.019913,0.998016,-0.081903,-0.001881,0.044679,59.584015,20.197784,-147.512772,,,
729605627.056911,0.821724,-2.167567,48.389328,0.034485,0.019913,0.998016,-0.081903,-0.001881,0.044679,59.562027,20.446655,-147.796356,,,
729605627.060158,0.80742,-2.173144,48.397704,0.046539,0.013275,1.014511,-0.042782,-0.016381,0.027018,59.562027,20.446655,-147.796356,,,
729605627.063507,0.80742,-2.173144,48.397704,0.046539,0.013275,1.014511,-0.042782,-0.016381,0.027018,59.562027,20.446655,-147.796356,,,
729605627.066844,0.802075,-2.183418,48.403914,0.046539,0.013275,1.014511,-0.042782,-0.016381,0.027018,59.562027,20.446655,-147.796356,,,
729605627.070176,0.797608,-2.193669,48.408261,0.047699,0.006592,1.016083,-0.009256,-0.032126,0.012166,59.562027,20.446655,-147.796356,,,
729605627.073523,0.797608,-2.193669,48.408261,0.047699,0.006592,1.016083,-0.009256,-0.032126,0.012166,59.562027,20.446655,-147.796356,,,
729605627.076853,0.799703,-2.206241,48.410417,0.047699,0.006592,1.016083,-0.009256,-0.032126,0.012166,59.562027,20.446655,-147.796356,,,
729605627.080181,0.802046,-2.218684,48.411075,0.044464,0.003281,1.016083,0.013081,-0.040425,0.00032,59.562027,20.446655,-147.796356,,,
729605627.083497,0.802046,-2.218684,48.411075,0.044464,0.003281,1.016083,0.013081,-0.040425,0.00032,59.562027,20.446655,-147.796356,,,
729605627.086845,0.809025,-2.232333,48.411516,0.044464,0.003281,1.016083,0.013081,-0.040425,0.00032,59.562027,20.446655,-147.796356,,,
729605627.090202,0.813293,-2.244083,48.412647,0.0466,0.005157,1.008926,0.017224,-0.036538,0.00262,59.562027,20.446655,-147.796356,,,
729605627.093576,0.813293,-2.244083,48.412647,0.0466,0.005157,1.008926,0.017224,-0.036538,0.00262,59.562027,20.446655,-147.796356,,,
729605627.09684,0.821104,-2.254198,48.415883,0.0466,0.005157,1.008926,0.017224,-0.036538,0.00262,59.471802,20.504074,-147.719269,,,
729605627.100243,0.824029,-2.26196,48.420486,0.045578,0.007553,1.005646,0.008311,-0.021955,0.013208,59.471802,20.504074,-147.719269,,,
729605627.103516,0.824029,-2.26196,48.420486,0.045578,0.007553,1.005646,0.008311,-0.021955,0.013208,59.471802,20.504074,-147.719269,,,
729605627.106874,0.828181,-2.267667,48.425901,0.045578,0.007553,1.005646,0.008311,-0.021955,0.013208,59.471802,20.504074,-147.719269,,,
729605627.110271,0.825681,-2.27148,48.431681,0.047943,0.013992,0.997025,-0.008392,-0.007028,0.018696,59.471802,20.504074,-147.719269,,,
729605627.113539,0.825681,-2.27148,48.431681,0.047943,0.013992,0.997025,-0.008392,-0.007028,0.018696,59.471802,20.504074,-147.719269,,,
729605627.116871,0.823249,-2.27204,48.436909,0.047943,0.013992,0.997025,-0.008392,-0.007028,0.018696,59.471802,20.504074,-147.719269,,,
729605627.120225,0.815986,-2.272508,48.441435,0.048874,0.019684,0.9935,-0.027261,0.002732,0.016529,59.471802,20.504074,-147.719269,,,
729605627.123521,0.815986,-2.272508,48.441435,0.048874,0.019684,0.9935,-0.027261,0.002732,0.016529,59.471802,20.504074,-147.719269,,,
729605627.126856,0.809066,-2.272031,48.445041,0.048874,0.019684,0.9935,-0.027261,0.002732,0.016529,59.471802,20.504074,-147.719269,,,
729605627.130187,0.799133,-2.274542,48.447112,0.050995,0.024963,0.993713,-0.034374,-0.007968,0.004648,59.471802,20.504074,-147.719269,,,
729605627.133505,0.799133,-2.274542,48.447112,0.050995,0.024963,0.993713,-0.034374,-0.007968,0.004648,59.471802,20.504074,-147.719269,,,
729605627.136876,0.789418,-2.280485,48.447202,0.050995,0.024963,0.993713,-0.034374,-0.007968,0.004648,59.492432,20.416382,-147.408752,,,
729605627.140229,0.781433,-2.292073,48.445668,0.050064,0.027206,0.993729,-0.02718,-0.039982,-0.007687,59.492432,20.416382,-147.408752,,,
729605627.143503,0.781433,-2.292073,48.445668,0.050064,0.027206,0.993729,-0.02718,-0.039982,-0.007687,59.492432,20.416382,-147.408752,,,
729605627.146841,0.776997,-2.310391,48.442184,0.050064,0.027206,0.993729,-0.02718,-0.039982,-0.007687,59.492432,20.416382,-147.408752,,,
729605627.150219,0.776997,-2.332185,48.435992,0.053848,0.021271,1.009628,0.009651,-0.077596,-0.027457,59.492432,20.416382,-147.408752,,,
729605627.153515,0.778015,-2.332185,48.435992,0.053848,0.021271,1.009628,0.009651,-0.077596,-0.027457,59.492432,20.416382,-147.408752,,,
729605627.156916,0.781907,-2.359947,48.427156,0.053848,0.021271,1.009628,0.009651,-0.077596,-0.027457,59.492432,20.416382,-147.408752,,,
729605627.159931,0.781907,-2.359947,48.427156,0.053848,0.021271,1.009628,0.009651,-0.077596,-0.027457,59.492432,20.416382,-147.408752,,,
729605627.163529,0.790117,-2.390414,48.416847,0.053436,0.011551,1.010071,0.032359,-0.108786,-0.039712,59.492432,20.416382,-147.408752,,,
729605627.166825,0.798067,-2.423547,48.406151,0.053436,0.011551,1.010071,0.032359,-0.108786,-0.039712,59.492432,20.416382,-147.408752,,,
729605627.170172,0.798067,-2.423547,48.406151,0.053436,0.011551,1.010071,0.038739,-0.111623,-0.040896,59.492432,20.416382,-147.408752,,,
729605627.173507,0.809334,-2.456347,48.395411,0.043777,-0.001358,1.011063,0.038739,-0.111623,-0.040896,59.492432,20.416382,-147.408752,,,
729605627.176841,0.81911,-2.488386,48.384761,0.043777,-0.001358,1.011063,0.038739,-0.111623,-0.040896,59.492432,20.416382,-147.408752,,,
729605627.180235,0.81911,-2.517304,48.374259,0.043777,-0.001358,1.011063,0.039098,-0.094639,-0.037593,59.32338,20.314301,-147.418396,,,
729605627.183555,0.830135,-2.517304,48.374259,0.046829,-0.002335,1.014801,0.039098,-0.094639,-0.037593,59.32338,20.314301,-147.418396,,,
729605627.18684,0.839493,-2.542103,48.364394,0.046829,-0.002335,1.014801,0.039098,-0.094639,-0.037593,59.32338,20.314301,-147.418396,,,
729605627.190182,0.839493,-2.542103,48.364394,0.046829,-0.002335,1.014801,0.026547,-0.055291,-0.03519,59.32338,20.314301,-147.418396,,,
729605627.193517,0.848363,-2.559814,48.355701,0.052673,-0.000885,1.018204,0.026547,-0.055291,-0.03519,59.32338,20.314301,-147.418396,,,
729605627.196847,0.856126,-2.571093,48.348234,0.052673,-0.000885,1.018204,0.026547,-0.055291,-0.03519,59.32338,20.314301,-147.418396,,,
729605627.20017,0.856126,-2.571093,48.348234,0.052673,-0.000885,1.018204,0.016983,-0.002875,-0.018886,59.32338,20.314301,-147.418396,,,
729605627.203504,0.861371,-2.574205,48.342284,0.048035,-0.000214,1.0186,0.016983,-0.002875,-0.018886,59.32338,20.314301,-147.418396,,,
729605627.206897,0.866234,-2.571755,48.338142,0.048035,-0.000214,1.0186,0.016983,-0.002875,-0.018886,59.32338,20.314301,-147.418396,,,
729605627.210179,0.866234,-2.571755,48.338142,0.048035,-0.000214,1.0186,0.016983,-0.002875,-0.018886,59.32338,20.314301,-147.418396,,,
729605627.213508,0.869249,-2.562895,48.334694,0.043182,-0.000732,1.011978,0.009751,0.036002,-0.016305,59.32338,20.314301,-147.418396,,,
729605627.216844,0.874172,-2.552417,48.331303,0.043182,-0.000732,1.011978,0.009751,0.036002,-0.016305,59.32338,20.314301,-147.418396,,,
729605627.220241,0.874172,-2.552417,48.331303,0.043182,-0.000732,1.011978,0.014984,0.049976,-0.015605,59.332428,20.520203,-147.340652,,,
729605627.223512,0.877626,-2.539137,48.327305,0.047821,0.0009,1.005173,0.014984,0.049976,-0.015605,59.332428,20.520203,-147.340652,,,
729605627.226862,0.8852,-2.526966,48.321803,0.047821,0.0009,1.005173,0.014984,0.049976,-0.015605,59.332428,20.520203,-147.340652,,,
729605627.230212,0.8852,-2.526966,48.321803,0.047821,0.0009,1.005173,0.029289,0.044583,-0.031298,59.332428,20.520203,-147.340652,,,
729605627.233497,0.892915,-2.515247,48.314284,0.046097,0.00473,1.00058,0.029289,0.044583,-0.031298,59.332428,20.520203,-147.340652,,,
729605627.236843,0.903401,-2.509711,48.304784,0.046097,0.00473,1.00058,0.029289,0.044583,-0.031298,59.332428,20.520203,-147.340652,,,
729605627.240219,0.903401,-2.509711,48.304784,0.046097,0.00473,1.00058,0.029289,0.044583,-0.031298,59.332428,20.520203,-147.340652,,,
729605627.24351,0.915198,-2.506172,48.293914,0.040024,0.007996,0.993622,0.042641,0.013203,-0.042943,59.332428,20.520203,-147.340652,,,
729605627.246838,0.926004,-2.507941,48.28285,0.040024,0.007996,0.993622,0.042641,0.013203,-0.042943,59.332428,20.520203,-147.340652,,,
729605627.250219,0.926004,-2.507941,48.28285,0.040024,0.007996,0.993622,0.042641,0.013203,-0.042943,59.332428,20.520203,-147.340652,,,
729605627.253509,0.939069,-2.513097,48.271631,0.030289,0.009918,0.982208,0.046634,-0.019224,-0.043084,59.332428,20.520203,-147.340652,,,
729605627.256911,0.947728,-2.52244,48.260264,0.030289,0.009918,0.982208,0.046634,-0.019224,-0.043084,59.332428,20.520203,-147.340652,,,
729605627.260164,0.947728,-2.52244,48.260264,0.030289,0.009918,0.982208,0.046634,-0.019224,-0.043084,59.198166,20.525116,-146.926407,,,
729605627.263518,0.957738,-2.535192,48.249193,0.02916,0.017639,0.974854,0.030967,-0.045541,-0.042327,59.198166,20.525116,-146.926407,,,
729605627.266832,0.960669,-2.550537,48.238816,0.02916,0.017639,0.974854,0.030967,-0.045541,-0.042327,59.198166,20.525116,-146.926407,,,
729605627.270234,0.960669,-2.550537,48.238816,0.02916,0.017639,0.974854,0.030967,-0.045541,-0.042327,59.198166,20.525116,-146.926407,,,
729605627.273504,0.963625,-2.56559,48.229825,0.026535,0.017975,0.974396,0.005926,-0.052424,-0.03127,59.198166,20.525116,-146.926407,,,
729605627.276843,0.958891,-2.582115,48.222133,0.026535,0.017975,0.974396,0.005926,-0.052424,-0.03127,59.198166,20.525116,-146.926407,,,
729605627.280222,0.958891,-2.582115,48.222133,0.026535,0.017975,0.974396,0.005926,-0.052424,-0.03127,59.198166,20.525116,-146.926407,,,
729605627.283554,0.953506,-2.596742,48.215387,0.028122,0.012909,0.972961,-0.025347,-0.046073,-0.023889,59.198166,20.525116,-146.926407,,,
729605627.286863,0.941888,-2.609249,48.209091,0.028122,0.012909,0.972961,-0.025347,-0.046073,-0.023889,59.198166,20.525116,-146.926407,,,
729605627.290172,0.941888,-2.609249,48.209091,0.028122,0.012909,0.972961,-0.025347,-0.046073,-0.023889,59.198166,20.525116,-146.926407,,,
729605627.293498,0.932531,-2.61845,48.201756,0.038437,0.010727,0.981705,-0.03468,-0.025505,-0.027227,59.198166,20.525116,-146.926407,,,
729605627.296798,0.919024,-2.623703,48.192736,0.038437,0.010727,0.981705,-0.03468,-0.025505,-0.027227,59.198166,20.525116,-146.926407,,,
729605627.300153,0.919024,-2.623703,48.192736,0.038437,0.010727,0.981705,-0.03468,-0.025505,-0.027227,59.198166,20.525116,-146.926407,,,
729605627.303433,0.91003,-2.624884,48.182061,0.048309,0.007889,0.995712,-0.030887,0.001815,-0.038605,59.083206,20.449356,-147.253006,,,
729605627.306772,0.900947,-2.622579,48.169767,0.048309,0.007889,0.995712,-0.030887,0.001815,-0.038605,59.083206,20.449356,-147.253006,,,
729605627.310098,0.900947,-2.622579,48.169767,0.048309,0.007889,0.995712,-0.030887,0.001815,-0.038605,59.083206,20.449356,-147.253006,,,
729605627.313532,0.896977,-2.617946,48.156487,0.048981,-4.6e-05,1.00589,-0.013031,0.018007,-0.047058,59.083206,20.449356,-147.253006,,,
729605627.316852,0.892765,-2.61135,48.142705,0.048981,-4.6e-05,1.00589,-0.013031,0.018007,-0.047058,59.083206,20.449356,-147.253006,,,
729605627.320331,0.892765,-2.61135,48.142705,0.048981,-4.6e-05,1.00589,-0.013031,0.018007,-0.047058,59.083206,20.449356,-147.253006,,,
729605627.323513,0.891512,-2.603577,48.129508,0.042328,-0.004257,0.996811,-0.006448,0.029174,-0.045636,59.083206,20.449356,-147.253006,,,
729605627.32685,0.888656,-2.594052,48.117143,0.042328,-0.004257,0.996811,-0.006448,0.029174,-0.045636,59.083206,20.449356,-147.253006,,,
729605627.330226,0.888656,-2.594052,48.117143,0.042328,-0.004257,0.996811,-0.006448,0.029174,-0.045636,59.083206,20.449356,-147.253006,,,
729605627.333537,0.88629,-2.588659,48.105295,0.036102,0.003326,0.984192,-0.008163,0.019137,-0.042202,59.083206,20.449356,-147.253006,,,
729605627.336826,0.881917,-2.585165,48.094275,0.036102,0.003326,0.984192,-0.008163,0.019137,-0.042202,59.083206,20.449356,-147.253006,,,
729605627.340197,0.881917,-2.585165,48.094275,0.036102,0.003326,0.984192,-0.008163,0.019137,-0.042202,59.083206,20.449356,-147.253006,,,
729605627.3435,0.876386,-2.590606,48.084516,0.035446,0.008972,0.966553,-0.020783,-0.021047,-0.035878,59.358231,20.519073,-147.287643,,,
729605627.346838,0.869024,-2.597465,48.075533,0.035446,0.008972,0.966553,-0.020783,-0.021047,-0.035878,59.358231,20.519073,-147.287643,,,
729605627.350174,0.869024,-2.597465,48.075533,0.035446,0.008972,0.966553,-0.020783,-0.021047,-0.035878,59.358231,20.519073,-147.287643,,,
729605627.353508,0.856525,-2.611367,48.066916,0.034317,0.011795,0.958466,-0.048863,-0.047051,-0.029329,59.358231,20.519073,-147.287643,,,
729605627.356905,0.839907,-2.624468,48.05864,0.034317,0.011795,0.958466,-0.048863,-0.047051,-0.029329,59.358231,20.519073,-147.287643,,,
729605627.360162,0.839907,-2.624468,48.05864,0.034317,0.011795,0.958466,-0.048863,-0.047051,-0.029329,59.358231,20.519073,-147.287643,,,
729605627.363503,0.819897,-2.642241,48.050854,0.037689,0.012512,0.959854,-0.072498,-0.060785,-0.025173,59.358231,20.519073,-147.287643,,,
729605627.366859,0.798052,-2.659511,48.042712,0.037689,0.012512,0.959854,-0.072498,-0.060785,-0.025173,59.358231,20.519073,-147.287643,,,
729605627.370274,0.798052,-2.659511,48.042712,0.037689,0.012512,0.959854,-0.072498,-0.060785,-0.025173,59.358231,20.519073,-147.287643,,,
729605627.373508,0.775392,-2.678619,48.033573,0.044678,0.014084,0.968216,-0.079805,-0.062958,-0.030711,59.358231,20.519073,-147.287643,,,
729605627.376845,0.751146,-2.695192,48.023843,0.044678,0.014084,0.968216,-0.079805,-0.062958,-0.030711,59.358231,20.519073,-147.287643,,,
729605627.380164,0.751146,-2.695192,48.023843,0.044678,0.014084,0.968216,-0.079805,-0.062958,-0.030711,59.358231,20.519073,-147.287643,,,
729605627.383539,0.726316,-2.708163,48.013745,0.053101,0.017792,0.97699,-0.087225,-0.035532,-0.033876,59.031326,20.480789,-147.41571,,,
729605627.38684,0.700325,-2.716382,48.003344,0.053101,0.017792,0.97699,-0.087225,-0.035532,-0.033876,59.031326,20.480789,-147.41571,,,
729605627.390175,0.700325,-2.716382,48.003344,0.053101,0.017792,0.97699,-0.087225,-0.035532,-0.033876,59.031326,20.480789,-147.41571,,,
729605627.393516,0.676627,-2.718913,47.992561,0.056854,0.019958,0.983139,-0.082416,-0.000249,-0.033094,59.031326,20.480789,-147.41571,,,
729605627.39683,0.655229,-2.716728,47.981231,0.056854,0.019958,0.983139,-0.082416,-0.000249,-0.033094,59.031326,20.480789,-147.41571,,,
729605627.400178,0.655229,-2.716728,47.981231,0.056854,0.019958,0.983139,-0.082416,-0.000249,-0.033094,59.031326,20.480789,-147.41571,,,
729605627.403507,0.639246,-2.711155,47.969036,0.065872,0.021179,0.99437,-0.056776,0.026884,-0.042407,59.031326,20.480789,-147.41571,,,
729605627.406893,0.626122,-2.701382,47.956351,0.065872,0.021179,0.99437,-0.056776,0.026884,-0.042407,59.031326,20.480789,-147.41571,,,
729605627.410152,0.626122,-2.701382,47.956351,0.065872,0.021179,0.99437,-0.056776,0.026884,-0.042407,59.031326,20.480789,-147.41571,,,
729605627.413506,0.617511,-2.689029,47.944809,0.060852,0.016663,0.994095,-0.030018,0.049295,-0.039542,59.031326,20.480789,-147.41571,,,
729605627.416908,0.609708,-2.673466,47.935681,0.060852,0.016663,0.994095,-0.030018,0.049295,-0.039542,59.031326,20.480789,-147.41571,,,
729605627.42019,0.609708,-2.673466,47.935681,0.060852,0.016663,0.994095,-0.030018,0.049295,-0.039542,59.031326,20.480789,-147.41571,,,
729605627.42353,0.602341,-2.65926,47.929617,0.040482,0.012085,0.982391,-0.026673,0.053076,-0.018174,58.936127,20.547318,-147.345779,,,
729605627.426845,0.593276,-2.645711,47.926332,0.040482,0.012085,0.982391,-0.026673,0.053076,-0.018174,58.936127,20.547318,-147.345779,,,
729605627.430169,0.593276,-2.645711,47.926332,0.040482,0.012085,0.982391,-0.026673,0.053076,-0.018174,58.936127,20.547318,-147.345779,,,
729605627.433505,0.580892,-2.634965,47.925254,0.036591,0.021851,0.966415,-0.045583,0.038044,-0.002693,58.936127,20.547318,-147.345779,,,
729605627.436848,0.566056,-2.624414,47.924853,0.036591,0.021851,0.966415,-0.045583,0.038044,-0.002693,58.936127,20.547318,-147.345779,,,
729605627.440186,0.566056,-2.624414,47.924853,0.036591,0.021851,0.966415,-0.045583,0.038044,-0.002693,58.936127,20.547318,-147.345779,,,
729605627.443561,0.548761,-2.616643,47.923499,0.038788,0.031113,0.970566,-0.062092,0.027271,-0.005054,58.936127,20.547318,-147.345779,,,
729605627.446832,0.529106,-2.609694,47.920308,0.038788,0.031113,0.970566,-0.062092,0.027271,-0.005054,58.936127,20.547318,-147.345779,,,
729605627.450174,0.529106,-2.609694,47.920308,0.038788,0.031113,0.970566,-0.062092,0.027271,-0.005054,58.936127,20.547318,-147.345779,,,
729605627.453514,0.507105,-2.603397,47.915001,0.046738,0.033508,0.978867,-0.078239,0.025356,-0.017952,58.936127,20.547318,-147.345779,,,
729605627.456936,0.484785,-2.596216,47.908331,0.046738,0.033508,0.978867,-0.078239,0.025356,-0.017952,58.936127,20.547318,-147.345779,,,
729605627.46017,0.484785,-2.596216,47.908331,0.046738,0.033508,0.978867,-0.078239,0.025356,-0.017952,58.936127,20.547318,-147.345779,,,
729605627.463608,0.461094,-2.586349,47.900762,0.044098,0.026505,0.990662,-0.085514,0.040693,-0.02509,58.936127,20.547318,-147.345779,,,
729605627.466841,0.438336,-2.575274,47.893718,0.044098,0.026505,0.990662,-0.085514,0.040693,-0.02509,59.237045,20.866028,-147.52388,,,
729605627.470242,0.438336,-2.575274,47.893718,0.044098,0.026505,0.990662,-0.085514,0.040693,-0.02509,59.237045,20.866028,-147.52388,,,
729605627.473513,0.41403,-2.561541,47.888117,0.042328,0.020767,1.002274,-0.083787,0.048367,-0.015845,59.237045,20.866028,-147.52388,,,
729605627.476841,0.389644,-2.54874,47.884184,0.042328,0.020767,1.002274,-0.083787,0.048367,-0.015845,59.237045,20.866028,-147.52388,,,
729605627.480182,0.389644,-2.54874,47.884184,0.042328,0.020767,1.002274,-0.083787,0.048367,-0.015845,59.237045,20.866028,-147.52388,,,
729605627.483536,0.362714,-2.533165,47.882936,0.038055,0.016586,1.001175,-0.094437,0.05979,0.000918,59.237045,20.866028,-147.52388,,,
729605627.486849,0.337129,-2.519059,47.884178,0.038055,0.016586,1.001175,-0.094437,0.05979,0.000918,59.237045,20.866028,-147.52388,,,
729605627.490176,0.337129,-2.519059,47.884178,0.038055,0.016586,1.001175,-0.094437,0.05979,0.000918,59.237045,20.866028,-147.52388,,,
729605627.49351,0.311678,-2.503075,47.886646,0.035217,0.016998,1.004745,-0.087755,0.058543,0.010752,59.237045,20.866028,-147.52388,,,
729605627.49683,0.290482,-2.490814,47.888589,0.035217,0.016998,1.004745,-0.087755,0.058543,0.010752,59.237045,20.866028,-147.52388,,,
729605627.500185,0.290482,-2.490814,47.888589,0.035217,0.016998,1.004745,-0.087755,0.058543,0.010752,59.237045,20.866028,-147.52388,,,
729605627.503512,0.273923,-2.480977,47.888593,0.045425,0.015305,1.013519,-0.05198,0.032313,0.000106,59.237045,20.866028,-147.52388,,,
729605627.506886,0.265764,-2.473715,47.885985,0.045425,0.015305,1.013519,-0.05198,0.032313,0.000106,59.462692,20.838745,-147.15506,,,
729605627.510159,0.265764,-2.473715,47.885985,0.045425,0.015305,1.013519,-0.05198,0.032313,0.000106,59.462692,20.838745,-147.15506,,,
729605627.513505,0.263626,-2.471226,47.880373,0.051224,0.010559,1.028885,-0.001805,0.009866,-0.023597,59.462692,20.838745,-147.15506,,,
729605627.516839,0.27235,-2.471693,47.873053,0.051224,0.010559,1.028885,-0.001805,0.009866,-0.023597,59.462692,20.838745,-147.15506,,,
729605627.520238,0.27235,-2.471693,47.873053,0.051224,0.010559,1.028885,-0.001805,0.009866,-0.023597,59.462692,20.838745,-147.15506,,,
729605627.523506,0.281258,-2.476184,47.86569,0.045776,0.008499,1.028687,0.032382,-0.015651,-0.029518,59.462692,20.838745,-147.15506,,,
729605627.526829,0.29845,-2.483076,47.859255,0.045776,0.008499,1.028687,0.032382,-0.015651,-0.029518,59.462692,20.838745,-147.15506,,,
729605627.530195,0.29845,-2.483076,47.859255,0.045776,0.008499,1.028687,0.032382,-0.015651,-0.029518,59.462692,20.838745,-147.15506,,,
729605627.533577,0.310119,-2.491026,47.854097,0.036499,0.009781,1.02034,0.041836,-0.026023,-0.020691,59.462692,20.838745,-147.15506,,,
729605627.536838,0.326635,-2.499762,47.850179,0.036499,0.009781,1.02034,0.041836,-0.026023,-0.020691,59.462692,20.838745,-147.15506,,,
729605627.540162,0.326635,-2.499762,47.850179,0.036499,0.009781,1.02034,0.041836,-0.026023,-0.020691,59.462692,20.838745,-147.15506,,,
729605627.543519,0.335587,-2.506362,47.847822,0.038101,0.018005,1.017853,0.029181,-0.016657,-0.010651,59.462692,20.838745,-147.15506,,,
729605627.546836,0.346053,-2.509496,47.846691,0.038101,0.018005,1.017853,0.029181,-0.016657,-0.010651,59.446213,20.934647,-147.270004,,,
729605627.550182,0.346053,-2.509496,47.846691,0.038101,0.018005,1.017853,0.029181,-0.016657,-0.010651,59.446213,20.934647,-147.270004,,,
729605627.553517,0.351099,-2.50874,47.845924,0.044479,0.018433,1.018051,0.01543,0.009925,-0.005665,59.446213,20.934647,-147.270004,,,
729605627.556932,0.356905,-2.503385,47.845082,0.044479,0.018433,1.018051,0.01543,0.009925,-0.005665,59.446213,20.934647,-147.270004,,,
729605627.560178,0.356905,-2.503385,47.845082,0.044479,0.018433,1.018051,0.01543,0.009925,-0.005665,59.446213,20.934647,-147.270004,,,
729605627.563506,0.357928,-2.494087,47.844132,0.047607,0.016129,1.016037,-0.000355,0.039268,-0.004618,59.446213,20.934647,-147.270004,,,
729605627.566849,0.358191,-2.47888,47.84324,0.047607,0.016129,1.016037,-0.000355,0.039268,-0.004618,59.446213,20.934647,-147.270004,,,
729605627.570228,0.358191,-2.47888,47.84324,0.047607,0.016129,1.016037,-0.000355,0.039268,-0.004618,59.446213,20.934647,-147.270004,,,
729605627.573525,0.354983,-2.462061,47.842295,0.045731,0.013458,1.017654,-0.009671,0.064127,-0.00372,59.446213,20.934647,-147.270004,,,
729605627.576827,0.354969,-2.441944,47.840603,0.045731,0.013458,1.017654,-0.009671,0.064127,-0.00372,59.446213,20.934647,-147.270004,,,
729605627.580166,0.354969,-2.441944,47.840603,0.045731,0.013458,1.017654,-0.009671,0.064127,-0.00372,59.446213,20.934647,-147.270004,,,
729605627.583567,0.355735,-2.422634,47.837617,0.045364,0.006424,1.02919,0.00693,0.069603,-0.013007,59.446213,20.934647,-147.270004,,,
729605627.586821,0.361482,-2.405817,47.833184,0.045364,0.006424,1.02919,0.00693,0.069603,-0.013007,59.713211,21.036575,-147.262802,,,
729605627.590171,0.361482,-2.405817,47.833184,0.045364,0.006424,1.02919,0.00693,0.069603,-0.013007,59.713211,21.036575,-147.262802,,,
729605627.593511,0.370292,-2.389265,47.828273,0.044693,-0.00322,1.030136,0.033714,0.060187,-0.019072,59.713211,21.036575,-147.262802,,,
729605627.596881,0.383526,-2.37573,47.823604,0.044693,-0.00322,1.030136,0.033714,0.060187,-0.019072,59.713211,21.036575,-147.262802,,,
729605627.600195,0.383526,-2.37573,47.823604,0.044693,-0.00322,1.030136,0.033714,0.060187,-0.019072,59.713211,21.036575,-147.262802,,,
729605627.603518,0.400173,-2.364026,47.819561,0.027145,-0.01329,1.029037,0.061531,0.03971,-0.018145,59.713211,21.036575,-147.262802,,,
729605627.606891,0.420984,-2.357158,47.816605,0.027145,-0.01329,1.029037,0.061531,0.03971,-0.018145,59.713211,21.036575,-147.262802,,,
729605627.610166,0.420984,-2.357158,47.816605,0.027145,-0.01329,1.029037,0.061531,0.03971,-0.018145,59.713211,21.036575,-147.262802,,,
729605627.613498,0.44412,-2.355468,47.81516,0.018982,-0.017944,1.019043,0.083038,0.001319,-0.007522,59.713211,21.036575,-147.262802,,,
729605627.616901,0.468702,-2.357086,47.815427,0.018982,-0.017944,1.019043,0.083038,0.001319,-0.007522,59.713211,21.036575,-147.262802,,,
729605627.620233,0.468702,-2.357086,47.815427,0.018982,-0.017944,1.019043,0.083038,0.001319,-0.007522,59.713211,21.036575,-147.262802,,,
729605627.623494,0.491526,-2.362597,47.817333,0.016541,-0.018753,1.008224,0.078399,-0.018434,0.002555,59.713211,21.036575,-147.262802,,,
729605627.626889,0.513103,-2.370897,47.819981,0.016541,-0.018753,1.008224,0.078399,-0.018434,0.002555,59.713211,21.036575,-147.262802,,,
729605627.630129,0.513103,-2.370897,47.819981,0.016541,-0.018753,1.008224,0.078399,-0.018434,0.002555,59.827194,20.730499,-147.15799,,,
729605627.633442,0.530904,-2.382019,47.821963,0.020615,-0.012589,0.999191,0.061838,-0.035005,0.0024,59.827194,20.730499,-147.15799,,,
729605627.636862,0.545819,-2.394975,47.822435,0.020615,-0.012589,0.999191,0.061838,-0.035005,0.0024,59.827194,20.730499,-147.15799,,,
729605627.640215,0.545819,-2.394975,47.822435,0.020615,-0.012589,0.999191,0.061838,-0.035005,0.0024,59.827194,20.730499,-147.15799,,,
729605627.643511,0.556106,-2.407115,47.821451,0.026337,-0.009262,0.997055,0.031888,-0.03666,-0.006799,59.827194,20.730499,-147.15799,,,
729605627.646833,0.563011,-2.417962,47.819393,0.026337,-0.009262,0.997055,0.031888,-0.03666,-0.006799,59.827194,20.730499,-147.15799,,,
729605627.650189,0.563011,-2.417962,47.819393,0.026337,-0.009262,0.997055,0.031888,-0.03666,-0.006799,59.827194,20.730499,-147.15799,,,
729605627.65353,0.565699,-2.426507,47.817165,0.025558,-0.01297,1.000168,0.005964,-0.025274,-0.006876,59.827194,20.730499,-147.15799,,,
729605627.656826,0.565352,-2.433388,47.81565,0.025558,-0.01297,1.000168,0.005964,-0.025274,-0.006876,59.827194,20.730499,-147.15799,,,
729605627.660178,0.565352,-2.433388,47.81565,0.025558,-0.01297,1.000168,0.005964,-0.025274,-0.006876,59.827194,20.730499,-147.15799,,,
729605627.663287,0.562509,-2.438375,47.815505,0.024979,-0.01712,1.001495,-0.008581,-0.012145,-0.002396,59.827194,20.730499,-147.15799,,,
729605627.666854,0.559184,-2.441715,47.817332,0.024979,-0.01712,1.001495,-0.008581,-0.012145,-0.002396,59.827194,20.730499,-147.15799,,,
729605627.670245,0.559184,-2.441715,47.817332,0.024979,-0.01712,1.001495,-0.008581,-0.012145,-0.002396,59.600174,20.909027,-147.0737,,,
729605627.673518,0.558657,-2.443234,47.820911,0.025558,-0.019409,1.008667,0.002249,-0.001084,0.014025,59.600174,20.909027,-147.0737,,,
729605627.676847,0.558423,-2.444784,47.825714,0.025558,-0.019409,1.008667,0.002249,-0.001084,0.014025,59.600174,20.909027,-147.0737,,,
729605627.68022,0.558423,-2.444784,47.825714,0.025558,-0.019409,1.008667,0.002249,-0.001084,0.014025,59.600174,20.909027,-147.0737,,,
729605627.683528,0.562147,-2.448852,47.831516,0.030975,-0.0177,1.005905,0.012594,-0.013733,0.021786,59.600174,20.909027,-147.0737,,,
729605627.686841,0.562864,-2.451231,47.838766,0.030975,-0.0177,1.005905,0.012594,-0.013733,0.021786,59.600174,20.909027,-147.0737,,,
729605627.690194,0.562864,-2.451231,47.838766,0.030975,-0.0177,1.005905,0.012594,-0.013733,0.021786,59.600174,20.909027,-147.0737,,,
729605627.693514,0.567861,-2.45823,47.847447,0.027161,-0.014053,0.996002,0.020721,-0.0202,0.030153,59.600174,20.909027,-147.0737,,,
729605627.696828,0.567857,-2.46304,47.857032,0.027161,-0.014053,0.996002,0.020721,-0.0202,0.030153,59.600174,20.909027,-147.0737,,,
729605627.700177,0.567857,-2.46304,47.857032,0.027161,-0.014053,0.996002,0.020721,-0.0202,0.030153,59.600174,20.909027,-147.0737,,,
729605627.703517,0.571406,-2.475543,47.867248,0.030197,-0.005539,0.986603,0.013386,-0.042178,0.033655,59.600174,20.909027,-147.0737,,,
729605627.706879,0.567876,-2.484826,47.877544,0.030197,-0.005539,0.986603,0.013386,-0.042178,0.033655,59.600174,20.909027,-147.0737,,,
729605627.710165,0.567876,-2.484826,47.877544,0.030197,-0.005539,0.986603,0.013386,-0.042178,0.033655,59.607712,20.639481,-147.033768,,,
729605627.7135,0.56778,-2.501313,47.887567,0.03653,0.002609,0.979004,-0.00247,-0.053218,0.033343,59.607712,20.639481,-147.033768,,,
729605627.716829,0.560536,-2.513452,47.896897,0.03653,0.002609,0.979004,-0.00247,-0.053218,0.033343,59.607712,20.639481,-147.033768,,,
729605627.720223,0.560536,-2.513452,47.896897,0.03653,0.002609,0.979004,-0.00247,-0.053218,0.033343,59.607712,20.639481,-147.033768,,,
729605627.723501,0.554101,-2.52916,47.905306,0.042252,0.008392,0.980164,-0.023137,-0.05154,0.024874,59.607712,20.639481,-147.033768,,,
729605627.726834,0.541274,-2.539903,47.912377,0.042252,0.008392,0.980164,-0.023137,-0.05154,0.024874,59.607712,20.639481,-147.033768,,,
729605627.730181,0.541274,-2.539903,47.912377,0.042252,0.008392,0.980164,-0.023137,-0.05154,0.024874,59.607712,20.639481,-147.033768,,,
729605627.733523,0.530599,-2.55384,47.918838,0.049698,0.011398,0.982147,-0.036797,-0.047481,0.023548,59.607712,20.639481,-147.033768,,,
729605627.736843,0.514078,-2.563883,47.925257,0.049698,0.011398,0.982147,-0.036797,-0.047481,0.023548,59.607712,20.639481,-147.033768,,,
729605627.740171,0.514078,-2.563883,47.925257,0.049698,0.011398,0.982147,-0.036797,-0.047481,0.023548,59.607712,20.639481,-147.033768,,,
729605627.743523,0.501468,-2.577554,47.931399,0.052826,0.011734,0.987244,-0.045359,-0.04496,0.020664,59.607712,20.639481,-147.033768,,,
729605627.74683,0.482873,-2.585986,47.936825,0.052826,0.011734,0.987244,-0.045359,-0.04496,0.020664,59.607712,20.639481,-147.033768,,,
729605627.750231,0.482873,-2.585986,47.936825,0.052826,0.011734,0.987244,-0.045359,-0.04496,0.020664,59.291992,20.861954,-146.949982,,,
729605627.753558,0.469462,-2.597898,47.941629,0.056183,0.011719,0.992142,-0.045395,-0.036584,0.017941,59.291992,20.861954,-146.949982,,,
729605627.756935,0.450374,-2.604789,47.946366,0.056183,0.011719,0.992142,-0.045395,-0.036584,0.017941,59.291992,20.861954,-146.949982,,,
729605627.76018,0.450374,-2.604789,47.946366,0.056183,0.011719,0.992142,-0.045395,-0.036584,0.017941,59.291992,20.861954,-146.949982,,,
729605627.763518,0.437681,-2.614597,47.951104,0.054779,0.010391,0.995087,-0.043375,-0.031075,0.016022,59.291992,20.861954,-146.949982,,,
729605627.766846,0.420268,-2.620969,47.955176,0.054779,0.010391,0.995087,-0.043375,-0.031075,0.016022,59.291992,20.861954,-146.949982,,,
729605627.770274,0.420268,-2.620969,47.955176,0.054779,0.010391,0.995087,-0.043375,-0.031075,0.016022,59.291992,20.861954,-146.949982,,,
729605627.773535,0.407524,-2.630218,47.959076,0.056885,0.011719,0.991257,-0.042301,-0.02805,0.013867,59.291992,20.861954,-146.949982,,,
729605627.776846,0.391325,-2.634146,47.962453,0.056885,0.011719,0.991257,-0.042301,-0.02805,0.013867,59.291992,20.861954,-146.949982,,,
729605627.780168,0.391325,-2.634146,47.962453,0.056885,0.011719,0.991257,-0.042301,-0.02805,0.013867,59.291992,20.861954,-146.949982,,,
729605627.783496,0.379679,-2.640471,47.96517,0.057022,0.014465,0.992691,-0.041606,-0.016817,0.009451,59.291992,20.861954,-146.949982,,,
729605627.786852,0.367565,-2.642874,47.968105,0.057022,0.014465,0.992691,-0.041606,-0.016817,0.009451,59.291992,20.861954,-146.949982,,,
729605627.790167,0.367565,-2.642874,47.968105,0.057022,0.014465,0.992691,-0.041606,-0.016817,0.009451,59.291992,20.861954,-146.949982,,,
729605627.7935,0.35864,-2.647395,47.970865,0.061264,0.01445,0.995102,-0.027294,-0.013398,0.007283,59.244888,20.904907,-147.078827,,,
729605627.796859,0.350964,-2.650184,47.97255,0.061264,0.01445,0.995102,-0.027294,-0.013398,0.007283,59.244888,20.904907,-147.078827,,,
729605627.800192,0.350964,-2.650184,47.97255,0.061264,0.01445,0.995102,-0.027294,-0.013398,0.007283,59.244888,20.904907,-147.078827,,,
729605627.80352,0.345089,-2.654598,47.973682,0.064575,0.014832,0.995483,-0.018811,-0.012699,0.004409,59.244888,20.904907,-147.078827,,,
729605627.806943,0.341411,-2.658407,47.97487,0.064575,0.014832,0.995483,-0.018811,-0.012699,0.004409,59.244888,20.904907,-147.078827,,,
729605627.810176,0.341411,-2.658407,47.97487,0.064575,0.014832,0.995483,-0.018811,-0.012699,0.004409,59.244888,20.904907,-147.078827,,,
729605627.813504,0.338331,-2.661008,47.975904,0.05954,0.014603,0.996933,-0.004171,-0.005083,0.003351,59.244888,20.904907,-147.078827,,,
729605627.816826,0.337722,-2.66536,47.976388,0.05954,0.014603,0.996933,-0.004171,-0.005083,0.003351,59.244888,20.904907,-147.078827,,,
729605627.820232,0.337722,-2.66536,47.976388,0.05954,0.014603,0.996933,-0.004171,-0.005083,0.003351,59.244888,20.904907,-147.078827,,,
729605627.823504,0.337425,-2.670042,47.975307,0.062012,0.015778,0.991867,0.001624,-0.013985,-0.008032,59.244888,20.904907,-147.078827,,,
729605627.826829,0.339483,-2.677716,47.972064,0.062012,0.015778,0.991867,0.001624,-0.013985,-0.008032,59.244888,20.904907,-147.078827,,,
729605627.830174,0.339483,-2.677716,47.972064,0.062012,0.015778,0.991867,0.001624,-0.013985,-0.008032,59.244888,20.904907,-147.078827,,,
729605627.833498,0.341536,-2.683807,47.966956,0.065536,0.018036,0.991409,0.008592,-0.0187,-0.020192,59.319305,20.924774,-147.297852,,,
729605627.836842,0.34614,-2.691191,47.960597,0.065536,0.018036,0.991409,0.008592,-0.0187,-0.020192,59.319305,20.924774,-147.297852,,,
729605627.840179,0.34614,-2.691191,47.960597,0.065536,0.018036,0.991409,0.008592,-0.0187,-0.020192,59.319305,20.924774,-147.297852,,,
729605627.843563,0.350875,-2.695244,47.953801,0.061111,0.014633,0.995895,0.017284,-0.009901,-0.024983,59.319305,20.924774,-147.297852,,,
729605627.84682,0.358134,-2.699259,47.947124,0.061111,0.014633,0.995895,0.017284,-0.009901,-0.024983,59.319305,20.924774,-147.297852,,,
729605627.850173,0.358134,-2.699259,47.947124,0.061111,0.014633,0.995895,0.017284,-0.009901,-0.024983,59.319305,20.924774,-147.297852,,,
729605627.853516,0.366257,-2.699038,47.941109,0.058746,0.011459,0.999191,0.026849,0.005769,-0.021643,59.319305,20.924774,-147.297852,,,
729605627.856886,0.376551,-2.699256,47.935754,0.058746,0.011459,0.999191,0.026849,0.005769,-0.021643,59.319305,20.924774,-147.297852,,,
729605627.860163,0.376551,-2.699256,47.935754,0.058746,0.011459,0.999191,0.026849,0.005769,-0.021643,59.319305,20.924774,-147.297852,,,
729605627.863508,0.386217,-2.695409,47.930712,0.058563,0.010696,0.998688,0.033649,0.019716,-0.019481,59.319305,20.924774,-147.297852,,,
729605627.866847,0.397461,-2.691689,47.925918,0.058563,0.010696,0.998688,0.033649,0.019716,-0.019481,59.319305,20.924774,-147.297852,,,
729605627.870225,0.397461,-2.691689,47.925918,0.058563,0.010696,0.998688,0.033649,0.019716,-0.019481,59.319305,20.924774,-147.297852,,,
729605627.873494,0.407095,-2.683306,47.921678,0.059464,0.011337,0.996582,0.033408,0.033298,-0.019405,59.292526,20.808853,-147.330017,,,
729605627.876844,0.417928,-2.676326,47.918022,0.059464,0.011337,0.996582,0.033408,0.033298,-0.019405,59.292526,20.808853,-147.330017,,,
729605627.88016,0.417928,-2.676326,47.918022,0.059464,0.011337,0.996582,0.033408,0.033298,-0.019405,59.292526,20.808853,-147.330017,,,
729605627.883504,0.426807,-2.664377,47.914763,0.053925,0.011597,0.993591,0.028912,0.048916,-0.015815,59.292526,20.808853,-147.330017,,,
729605627.886844,0.435282,-2.655692,47.912103,0.053925,0.011597,0.993591,0.028912,0.048916,-0.015815,59.292526,20.808853,-147.330017,,,
729605627.890174,0.435282,-2.655692,47.912103,0.053925,0.011597,0.993591,0.028912,0.048916,-0.015815,59.292526,20.808853,-147.330017,,,
729605627.893577,0.439648,-2.643904,47.909725,0.051514,0.012924,0.983246,0.012511,0.041815,-0.009759,59.292526,20.808853,-147.330017,,,
729605627.896829,0.442504,-2.63527,47.907724,0.051514,0.012924,0.983246,0.012511,0.041815,-0.009759,59.292526,20.808853,-147.330017,,,
729605627.900183,0.442504,-2.63527,47.907724,0.051514,0.012924,0.983246,0.012511,0.041815,-0.009759,59.292526,20.808853,-147.330017,,,
729605627.903528,0.441188,-2.62381,47.905426,0.053101,0.019455,0.9767,-0.007381,0.042995,-0.011334,59.292526,20.808853,-147.330017,,,
729605627.906926,0.439951,-2.617412,47.902719,0.053101,0.019455,0.9767,-0.007381,0.042995,-0.011334,59.292526,20.808853,-147.330017,,,
729605627.910177,0.439951,-2.617412,47.902719,0.053101,0.019455,0.9767,-0.007381,0.042995,-0.011334,59.292526,20.808853,-147.330017,,,
729605627.913499,0.436921,-2.608999,47.898585,0.051697,0.019135,0.982635,-0.007731,0.030178,-0.015847,59.208435,20.732391,-147.217865,,,
729605627.916833,0.438065,-2.608139,47.891499,0.051697,0.019135,0.982635,-0.007731,0.030178,-0.015847,59.208435,20.732391,-147.217865,,,
729605627.920245,0.438065,-2.608139,47.891499,0.051697,0.019135,0.982635,-0.007731,0.030178,-0.015847,59.208435,20.732391,-147.217865,,,
729605627.923503,0.440527,-2.606756,47.881708,0.062485,0.016891,0.992996,0.012084,0.004274,-0.038427,59.208435,20.732391,-147.217865,,,
729605627.926855,0.440527,-2.606756,47.881708,0.062485,0.016891,0.992996,0.012084,0.004274,-0.038427,59.208435,20.732391,-147.217865,,,
729605627.930165,0.447586,-2.612056,47.869616,0.062485,0.016891,0.992996,0.012084,0.004274,-0.038427,59.208435,20.732391,-147.217865,,,
729605627.933507,0.456867,-2.617458,47.855931,0.061234,0.011902,0.997696,0.032106,-0.017062,-0.053164,59.208435,20.732391,-147.217865,,,
729605627.936839,0.468822,-2.62796,47.842282,0.061234,0.011902,0.997696,0.032106,-0.017062,-0.053164,59.208435,20.732391,-147.217865,,,
729605627.940184,0.468822,-2.62796,47.842282,0.061234,0.011902,0.997696,0.032106,-0.017062,-0.053164,59.208435,20.732391,-147.217865,,,
729605627.943566,0.480463,-2.637703,47.829196,0.049286,0.00882,0.994659,0.04108,-0.032015,-0.048676,59.208435,20.732391,-147.217865,,,
729605627.946843,0.480463,-2.637703,47.829196,0.049286,0.00882,0.994659,0.04108,-0.032015,-0.048676,59.208435,20.732391,-147.217865,,,
729605627.950178,0.490975,-2.65043,47.817716,0.049286,0.00882,0.994659,0.04108,-0.032015,-0.048676,59.208435,20.732391,-147.217865,,,
729605627.953509,0.499032,-2.659149,47.808791,0.045395,0.012878,0.987823,0.024464,-0.026718,-0.029408,59.208435,20.732391,-147.217865,,,
729605627.956897,0.505988,-2.668247,47.802416,0.045395,0.012878,0.987823,0.024464,-0.026718,-0.029408,59.197708,20.760849,-147.309357,,,
729605627.960155,0.505988,-2.668247,47.802416,0.045395,0.012878,0.987823,0.024464,-0.026718,-0.029408,59.197708,20.760849,-147.309357,,,
729605627.963499,0.51082,-2.671899,47.798328,0.047607,0.0177,0.992111,0.016348,-0.006252,-0.0149,59.197708,20.760849,-147.309357,,,
729605627.96684,0.51082,-2.671899,47.798328,0.047607,0.0177,0.992111,0.016348,-0.006252,-0.0149,59.197708,20.760849,-147.309357,,,
729605627.970258,0.514999,-2.672842,47.795885,0.047607,0.0177,0.992111,0.016348,-0.006252,-0.0149,59.197708,20.760849,-147.309357,,,
729605627.973505,0.51741,-2.667499,47.794174,0.057022,0.017685,1.000931,0.008783,0.024779,-0.005613,59.197708,20.760849,-147.309357,,,
729605627.976895,0.51741,-2.65894,47.79212,0.057022,0.017685,1.000931,0.008783,0.024779,-0.005613,59.197708,20.760849,-147.309357,,,
729605627.980189,0.520094,-2.65894,47.79212,0.057022,0.017685,1.000931,0.008783,0.024779,-0.005613,59.197708,20.760849,-147.309357,,,
729605627.9835,0.520524,-2.644904,47.789374,0.059082,0.019669,1.00531,0.001013,0.055065,-0.013738,59.197708,20.760849,-147.309357,,,
729605627.986885,0.520524,-2.644904,47.789374,0.059082,0.019669,1.00531,0.001013,0.055065,-0.013738,59.197708,20.760849,-147.309357,,,
729605627.990184,0.522186,-2.630136,47.785932,0.059082,0.019669,1.00531,0.001013,0.055065,-0.013738,59.197708,20.760849,-147.309357,,,
729605627.993498,0.520794,-2.612571,47.78175,0.055054,0.020935,1.000656,-0.002845,0.063457,-0.014208,59.197708,20.760849,-147.309357,,,
729605627.996834,0.520794,-2.612571,47.78175,0.055054,0.020935,1.000656,-0.002845,0.063457,-0.014208,59.207581,20.803131,-147.356522,,,
729605628.00018,0.520697,-2.59743,47.777282,0.055054,0.020935,1.000656,-0.002845,0.063457,-0.014208,59.207581,20.803131,-147.356522,,,
729605628.003502,0.51927,-2.583601,47.772115,0.0504,0.023209,0.997711,-0.003509,0.047594,-0.021172,59.207581,20.803131,-147.356522,,,
