Time (sec),Pitch (deg),Roll (deg),Yaw(deg),X-Acceleration (g),Y-Acceleration (g),Z-Acceleration (g),Pitch Rate (deg/sec),Roll Rate (deg/sec),Yaw Rate (deg/sec),Magnetic Field in X direction (uT),Magnetic Field in Y direction (uT),Magnetic Field in Z Direction (uT),Latitude (deg),Longitude (deg),Altitude (m)
729606952.449089,-0.621211,1.669662,59.034193,-0.027466,-0.00267,1.005508,-0.00771,-0.054285,-0.01231,63.762192,24.211685,-147.955765,,,
729606952.452338,-0.618425,1.655862,59.034794,-0.035339,-0.009216,1.008194,0.009841,-0.04582,0.000731,63.762192,24.211685,-147.955765,,,
729606952.455647,-0.612801,1.643625,59.036539,-0.035339,-0.009216,1.008194,0.009841,-0.04582,0.000731,63.762192,24.211685,-147.955765,,,
729606952.459091,-0.612801,1.643625,59.036539,-0.035339,-0.009216,1.008194,0.009841,-0.04582,0.000731,63.51123,24.245773,-147.77475,,,
729606952.462387,-0.606968,1.631658,59.039363,-0.030243,-0.008224,1.006683,0.019817,-0.037875,0.008317,63.51123,24.245773,-147.77475,,,
729606952.465681,-0.598939,1.61823,59.042855,-0.030243,-0.008224,1.006683,0.019817,-0.037875,0.008317,63.51123,24.245773,-147.77475,,,
729606952.468993,-0.598939,1.61823,59.042855,-0.030243,-0.008224,1.006683,0.019817,-0.037875,0.008317,63.51123,24.245773,-147.77475,,,
729606952.472407,-0.592682,1.602826,59.045685,-0.02417,-0.005219,0.99855,0.020971,-0.051454,0.008642,63.51123,24.245773,-147.77475,,,
729606952.47575,-0.584117,1.586479,59.045977,-0.02417,-0.005219,0.99855,0.020971,-0.051454,0.008642,63.51123,24.245773,-147.77475,,,
729606952.47899,-0.584117,1.586479,59.045977,-0.02417,-0.005219,0.99855,0.020971,-0.051454,0.008642,63.51123,24.245773,-147.77475,,,
729606952.482317,-0.577594,1.568973,59.042704,-0.013687,0.000961,0.99646,0.022038,-0.059255,-0.011553,63.51123,24.245773,-147.77475,,,
729606952.485683,-0.567795,1.551201,59.03509,-0.013687,0.000961,0.99646,0.022038,-0.059255,-0.011553,63.51123,24.245773,-147.77475,,,
729606952.488987,-0.567795,1.551201,59.03509,-0.013687,0.000961,0.99646,0.022038,-0.059255,-0.011553,63.51123,24.245773,-147.77475,,,
729606952.492396,-0.560751,1.533729,59.023079,-0.005249,0.004974,0.995865,0.026175,-0.055909,-0.044371,63.51123,24.245773,-147.77475,,,
729606952.495663,-0.550485,1.516315,59.00763,-0.005249,0.004974,0.995865,0.026175,-0.055909,-0.044371,63.51123,24.245773,-147.77475,,,
729606952.498983,-0.550485,1.516315,59.00763,-0.005249,0.004974,0.995865,0.026175,-0.055909,-0.044371,63.573196,24.148285,-147.722885,,,
729606952.502317,-0.54172,1.501181,58.989667,-0.006577,0.000153,0.99646,0.031282,-0.047241,-0.065966,63.573196,24.148285,-147.722885,,,
729606952.505756,-0.528769,1.484923,58.969987,-0.006577,0.000153,0.99646,0.031282,-0.047241,-0.065966,63.573196,24.148285,-147.722885,,,
729606952.509066,-0.528769,1.484923,58.969987,-0.006577,0.000153,0.99646,0.031282,-0.047241,-0.065966,63.573196,24.148285,-147.722885,,,
729606952.512381,-0.515196,1.473894,58.949135,-0.011887,-0.007675,0.998184,0.049543,-0.032572,-0.074321,63.573196,24.148285,-147.722885,,,
729606952.515657,-0.497344,1.464405,58.927777,-0.011887,-0.007675,0.998184,0.049543,-0.032572,-0.074321,63.573196,24.148285,-147.722885,,,
729606952.518993,-0.497344,1.464405,58.927777,-0.011887,-0.007675,0.998184,0.049543,-0.032572,-0.074321,63.573196,24.148285,-147.722885,,,
729606952.522313,-0.477352,1.460038,58.907105,-0.017838,-0.009903,0.997772,0.071661,-0.010802,-0.072857,63.573196,24.148285,-147.722885,,,
729606952.525732,-0.452354,1.461334,58.887689,-0.017838,-0.009903,0.997772,0.071661,-0.010802,-0.072857,63.573196,24.148285,-147.722885,,,
729606952.528983,-0.452354,1.461334,58.887689,-0.017838,-0.009903,0.997772,0.071661,-0.010802,-0.072857,63.573196,24.148285,-147.722885,,,
729606952.532338,-0.423036,1.464293,58.869949,-0.022202,-0.009781,0.997635,0.104442,0.012666,-0.060879,63.573196,24.148285,-147.722885,,,
729606952.535644,-0.389376,1.474695,58.854886,-0.022202,-0.009781,0.997635,0.104442,0.012666,-0.060879,63.573196,24.148285,-147.722885,,,
729606952.538984,-0.389376,1.474695,58.854886,-0.022202,-0.009781,0.997635,0.104442,0.012666,-0.060879,63.573196,24.148285,-147.722885,,,
729606952.542391,-0.350906,1.484847,58.843438,-0.034637,-0.016602,0.998001,0.136804,0.038773,-0.036529,63.378967,24.219376,-147.587799,,,
729606952.54566,-0.308918,1.499857,58.835325,-0.034637,-0.016602,0.998001,0.136804,0.038773,-0.036529,63.378967,24.219376,-147.587799,,,
729606952.548982,-0.308918,1.499857,58.835325,-0.034637,-0.016602,0.998001,0.136804,0.038773,-0.036529,63.378967,24.219376,-147.587799,,,
729606952.552322,-0.264965,1.517899,58.829627,-0.03981,-0.017273,0.994171,0.156881,0.065032,-0.014082,63.378967,24.219376,-147.587799,,,
729606952.555644,-0.221594,1.537169,58.825367,-0.03981,-0.017273,0.994171,0.156881,0.065032,-0.014082,63.378967,24.219376,-147.587799,,,
729606952.559037,-0.221594,1.537169,58.825367,-0.03981,-0.017273,0.994171,0.156881,0.065032,-0.014082,63.378967,24.219376,-147.587799,,,
729606952.562389,-0.181253,1.562663,58.822206,-0.031906,-0.004868,0.979614,0.14283,0.090592,-0.006893,63.378967,24.219376,-147.587799,,,
729606952.565649,-0.181253,1.562663,58.822206,-0.031906,-0.004868,0.979614,0.14283,0.090592,-0.006893,63.378967,24.219376,-147.587799,,,
729606952.569036,-0.144121,1.581731,58.820474,-0.031906,-0.004868,0.979614,0.14283,0.090592,-0.006893,63.378967,24.219376,-147.587799,,,
729606952.572314,-0.113841,1.610908,58.819601,-0.033218,0.006042,0.96138,0.104755,0.10675,-0.004753,63.378967,24.219376,-147.587799,,,
729606952.575739,-0.088962,1.628532,58.818763,-0.033218,0.006042,0.96138,0.104755,0.10675,-0.004753,63.378967,24.219376,-147.587799,,,
729606952.578982,-0.088962,1.628532,58.818763,-0.033218,0.006042,0.96138,0.104755,0.10675,-0.004753,63.378967,24.219376,-147.587799,,,
729606952.582318,-0.072035,1.657248,58.817562,-0.032501,0.012619,0.954926,0.058836,0.10398,-0.003789,63.680786,23.786331,-147.736633,,,
729606952.585656,-0.072035,1.657248,58.817562,-0.032501,0.012619,0.954926,0.058836,0.10398,-0.003789,63.680786,23.786331,-147.736633,,,
729606952.588977,-0.060639,1.674066,58.815704,-0.032501,0.012619,0.954926,0.058836,0.10398,-0.003789,63.680786,23.786331,-147.736633,,,
729606952.592369,-0.052963,1.698294,58.812601,-0.031738,0.01001,0.956696,0.029078,0.087044,-0.012343,63.680786,23.786331,-147.736633,,,
729606952.595696,-0.049181,1.710279,58.808465,-0.031738,0.01001,0.956696,0.029078,0.087044,-0.012343,63.680786,23.786331,-147.736633,,,
729606952.599037,-0.049181,1.710279,58.808465,-0.031738,0.01001,0.956696,0.029078,0.087044,-0.012343,63.680786,23.786331,-147.736633,,,
729606952.602333,-0.045923,1.723983,58.803573,-0.035904,0.008514,0.963654,0.014729,0.049124,-0.018466,63.680786,23.786331,-147.736633,,,
729606952.605674,-0.045923,1.723983,58.803573,-0.035904,0.008514,0.963654,0.014729,0.049124,-0.018466,63.680786,23.786331,-147.736633,,,
729606952.609038,-0.045893,1.728411,58.798673,-0.035904,0.008514,0.963654,0.014729,0.049124,-0.018466,63.680786,23.786331,-147.736633,,,
729606952.61239,-0.047257,1.732504,58.794466,-0.043961,0.005844,0.963974,-0.004228,0.018339,-0.016144,63.680786,23.786331,-147.736633,,,
729606952.615656,-0.047257,1.732504,58.794466,-0.043961,0.005844,0.963974,-0.004228,0.018339,-0.016144,63.680786,23.786331,-147.736633,,,
729606952.618989,-0.05245,1.732189,58.791054,-0.043961,0.005844,0.963974,-0.004228,0.018339,-0.016144,63.680786,23.786331,-147.736633,,,
729606952.622329,-0.05902,1.731048,58.788045,-0.043106,0.004211,0.974396,-0.022789,-0.001769,-0.012064,63.562256,23.691452,-147.873016,,,
729606952.625771,-0.05902,1.731048,58.788045,-0.043106,0.004211,0.974396,-0.022789,-0.001769,-0.012064,63.562256,23.691452,-147.873016,,,
729606952.628966,-0.070697,1.7314,58.785325,-0.043106,0.004211,0.974396,-0.022789,-0.001769,-0.012064,63.562256,23.691452,-147.873016,,,
729606952.632324,-0.083834,1.730134,58.783587,-0.03624,0.004776,0.982162,-0.043788,-0.003152,-0.007008,63.562256,23.691452,-147.873016,,,
729606952.635667,-0.083834,1.730134,58.783587,-0.03624,0.004776,0.982162,-0.043788,-0.003152,-0.007008,63.562256,23.691452,-147.873016,,,
729606952.639072,-0.100534,1.732352,58.782003,-0.03624,0.004776,0.982162,-0.043788,-0.003152,-0.007008,63.562256,23.691452,-147.873016,,,
729606952.642213,-0.117834,1.7347,58.780766,-0.034546,0.000259,0.993286,-0.058183,0.013351,-0.00632,63.562256,23.691452,-147.873016,,,
729606952.645694,-0.117834,1.7347,58.780766,-0.034546,0.000259,0.993286,-0.058183,0.013351,-0.00632,63.562256,23.691452,-147.873016,,,
729606952.648998,-0.136298,1.739044,58.780075,-0.034546,0.000259,0.993286,-0.058183,0.013351,-0.00632,63.562256,23.691452,-147.873016,,,
729606952.652316,-0.155787,1.743962,58.780023,-0.034256,-0.004044,0.997543,-0.066503,0.021755,-0.002144,63.562256,23.691452,-147.873016,,,
729606952.655663,-0.155787,1.743962,58.780023,-0.034256,-0.004044,0.997543,-0.066503,0.021755,-0.002144,63.562256,23.691452,-147.873016,,,
729606952.65904,-0.174208,1.750635,58.780503,-0.034256,-0.004044,0.997543,-0.066503,0.021755,-0.002144,63.562256,23.691452,-147.873016,,,
729606952.662313,-0.192939,1.757707,58.78095,-0.035187,-0.005402,1.007721,-0.061624,0.027578,-0.001678,63.562256,23.691452,-147.873016,,,
729606952.66571,-0.192939,1.757707,58.78095,-0.035187,-0.005402,1.007721,-0.061624,0.027578,-0.001678,63.711746,24.113647,-147.792831,,,
729606952.668992,-0.209244,1.767583,58.78219,-0.035187,-0.005402,1.007721,-0.061624,0.027578,-0.001678,63.711746,24.113647,-147.792831,,,
729606952.672312,-0.225747,1.778067,58.78437,-0.043594,-0.014206,1.019226,-0.059369,0.041098,0.003274,63.711746,24.113647,-147.792831,,,
729606952.675697,-0.225747,1.778067,58.78437,-0.043594,-0.014206,1.019226,-0.059369,0.041098,0.003274,63.711746,24.113647,-147.792831,,,
729606952.67904,-0.238871,1.790794,58.787109,-0.043594,-0.014206,1.019226,-0.059369,0.041098,0.003274,63.711746,24.113647,-147.792831,,,
729606952.682305,-0.252008,1.803825,58.790581,-0.048981,-0.017746,1.024612,-0.045273,0.048268,0.008474,63.711746,24.113647,-147.792831,,,
729606952.685678,-0.252008,1.803825,58.790581,-0.048981,-0.017746,1.024612,-0.045273,0.048268,0.008474,63.711746,24.113647,-147.792831,,,
729606952.689004,-0.261491,1.821285,58.794829,-0.048981,-0.017746,1.024612,-0.045273,0.048268,0.008474,63.711746,24.113647,-147.792831,,,
729606952.69236,-0.271446,1.836073,58.799343,-0.046555,-0.016739,1.023407,-0.035924,0.053767,0.012187,63.711746,24.113647,-147.792831,,,
729606952.695672,-0.271446,1.836073,58.799343,-0.046555,-0.016739,1.023407,-0.035924,0.053767,0.012187,63.711746,24.113647,-147.792831,,,
729606952.698993,-0.279921,1.857008,58.804281,-0.046555,-0.016739,1.023407,-0.035924,0.053767,0.012187,63.711746,24.113647,-147.792831,,,
729606952.702315,-0.289375,1.873338,58.810089,-0.045731,-0.015335,1.021484,-0.032324,0.060717,0.017102,63.711746,24.113647,-147.792831,,,
729606952.705636,-0.289375,1.873338,58.810089,-0.045731,-0.015335,1.021484,-0.032324,0.060717,0.017102,64.118896,23.844803,-147.769974,,,
729606952.709019,-0.297761,1.893771,58.816933,-0.045731,-0.015335,1.021484,-0.032324,0.060717,0.017102,64.118896,23.844803,-147.769974,,,
729606952.712307,-0.307963,1.911586,58.824488,-0.045929,-0.016541,1.019577,-0.034087,0.066777,0.021548,64.118896,23.844803,-147.769974,,,
729606952.715703,-0.307963,1.911586,58.824488,-0.045929,-0.016541,1.019577,-0.034087,0.066777,0.021548,64.118896,23.844803,-147.769974,,,
729606952.718987,-0.317442,1.929046,58.832712,-0.045929,-0.016541,1.019577,-0.034087,0.066777,0.021548,64.118896,23.844803,-147.769974,,,
729606952.722312,-0.327956,1.944168,58.841791,-0.051376,-0.018982,1.015167,-0.038748,0.052007,0.030674,64.118896,23.844803,-147.769974,,,
729606952.725711,-0.327956,1.944168,58.841791,-0.051376,-0.018982,1.015167,-0.038748,0.052007,0.030674,64.118896,23.844803,-147.769974,,,
729606952.728972,-0.338248,1.957179,58.851286,-0.051376,-0.018982,1.015167,-0.038748,0.052007,0.030674,64.118896,23.844803,-147.769974,,,
729606952.732312,-0.34867,1.966779,58.860292,-0.048874,-0.023254,1.015106,-0.03673,0.036957,0.029212,64.118896,23.844803,-147.769974,,,
729606952.735663,-0.34867,1.966779,58.860292,-0.048874,-0.023254,1.015106,-0.03673,0.036957,0.029212,64.118896,23.844803,-147.769974,,,
729606952.739009,-0.357888,1.972215,58.868035,-0.048874,-0.023254,1.015106,-0.03673,0.036957,0.029212,64.118896,23.844803,-147.769974,,,
729606952.742347,-0.366009,1.973814,58.873862,-0.041916,-0.019714,1.018402,-0.028123,0.007109,0.017063,64.118896,23.844803,-147.769974,,,
729606952.745638,-0.366009,1.973814,58.873862,-0.041916,-0.019714,1.018402,-0.028123,0.007109,0.017063,64.036438,23.922256,-147.64653,,,
729606952.749026,-0.373422,1.973833,58.877228,-0.041916,-0.019714,1.018402,-0.028123,0.007109,0.017063,64.036438,23.922256,-147.64653,,,
729606952.752311,-0.380171,1.971194,58.877913,-0.037399,-0.018005,1.0186,-0.020352,-0.006475,-0.000206,64.036438,23.922256,-147.64653,,,
729606952.755698,-0.380171,1.971194,58.877913,-0.037399,-0.018005,1.0186,-0.020352,-0.006475,-0.000206,64.036438,23.922256,-147.64653,,,
729606952.759034,-0.388125,1.973146,58.876615,-0.037399,-0.018005,1.0186,-0.020352,-0.006475,-0.000206,64.036438,23.922256,-147.64653,,,
729606952.762313,-0.394162,1.970675,58.874325,-0.035568,-0.021301,1.019287,-0.020528,-0.007777,-0.00832,64.036438,23.922256,-147.64653,,,
729606952.765662,-0.394162,1.970675,58.874325,-0.035568,-0.021301,1.019287,-0.020528,-0.007777,-0.00832,64.036438,23.922256,-147.64653,,,
729606952.769075,-0.401878,1.976744,58.872001,-0.035568,-0.021301,1.019287,-0.020528,-0.007777,-0.00832,64.036438,23.922256,-147.64653,,,
729606952.772316,-0.407146,1.978468,58.871092,-0.03595,-0.025879,1.02327,-0.018774,0.006503,-0.006259,64.036438,23.922256,-147.64653,,,
729606952.775705,-0.407146,1.978468,58.871092,-0.03595,-0.025879,1.02327,-0.018774,0.006503,-0.006259,64.036438,23.922256,-147.64653,,,
729606952.778993,-0.412374,1.985578,58.87236,-0.03595,-0.025879,1.02327,-0.018774,0.006503,-0.006259,64.036438,23.922256,-147.64653,,,
729606952.782324,-0.414198,1.990179,58.875546,-0.033646,-0.030914,1.024277,-0.006512,0.019011,0.009687,64.036438,23.922256,-147.64653,,,
729606952.785652,-0.414198,1.990179,58.875546,-0.033646,-0.030914,1.024277,-0.006512,0.019011,0.009687,64.008621,23.970078,-148.033737,,,
729606952.788981,-0.414925,1.999395,58.880488,-0.033646,-0.030914,1.024277,-0.006512,0.019011,0.009687,64.008621,23.970078,-148.033737,,,
729606952.792361,-0.413251,2.007088,58.885902,-0.030762,-0.029449,1.023605,0.006519,0.028113,0.021421,64.008621,23.970078,-148.033737,,,
729606952.795723,-0.413251,2.007088,58.885902,-0.030762,-0.029449,1.023605,0.006519,0.028113,0.021421,64.008621,23.970078,-148.033737,,,
729606952.79899,-0.411606,2.018751,58.891036,-0.030762,-0.029449,1.023605,0.006519,0.028113,0.021421,64.008621,23.970078,-148.033737,,,
729606952.802319,-0.408804,2.029004,58.895294,-0.02356,-0.020004,1.018799,0.009848,0.038042,0.013276,64.008621,23.970078,-148.033737,,,
729606952.80566,-0.408804,2.029004,58.895294,-0.02356,-0.020004,1.018799,0.009848,0.038042,0.013276,64.008621,23.970078,-148.033737,,,
729606952.809052,-0.408288,2.044373,58.897865,-0.02356,-0.020004,1.018799,0.009848,0.038042,0.013276,64.008621,23.970078,-148.033737,,,
729606952.812315,-0.408409,2.056919,58.898952,-0.020401,-0.014511,1.006348,0.000183,0.04721,0.002689,64.008621,23.970078,-148.033737,,,
729606952.81567,-0.408409,2.056919,58.898952,-0.020401,-0.014511,1.006348,0.000183,0.04721,0.002689,64.008621,23.970078,-148.033737,,,
729606952.818983,-0.410597,2.071945,58.898827,-0.020401,-0.014511,1.006348,0.000183,0.04721,0.002689,64.008621,23.970078,-148.033737,,,
729606952.822327,-0.411744,2.08336,58.897707,-0.026657,-0.015823,1.003311,-0.005632,0.042404,-0.006027,64.008621,23.970078,-148.033737,,,
729606952.825756,-0.411744,2.08336,58.897707,-0.026657,-0.015823,1.003311,-0.005632,0.042404,-0.006027,64.008621,23.970078,-148.033737,,,
729606952.829015,-0.413612,2.093502,58.896447,-0.026657,-0.015823,1.003311,-0.005632,0.042404,-0.006027,63.935364,23.963348,-147.868958,,,
729606952.832342,-0.41399,2.100939,58.896354,-0.032104,-0.019165,1.000595,-0.001251,0.028668,-0.003474,63.935364,23.963348,-147.868958,,,
729606952.835721,-0.41399,2.100939,58.896354,-0.032104,-0.019165,1.000595,-0.001251,0.028668,-0.003474,63.935364,23.963348,-147.868958,,,
729606952.839029,-0.415655,2.105775,58.897532,-0.032104,-0.019165,1.000595,-0.001251,0.028668,-0.003474,63.935364,23.963348,-147.868958,,,
729606952.842336,-0.416413,2.107945,58.899133,-0.039368,-0.020157,0.999268,-0.003145,0.014612,0.002662,63.935364,23.963348,-147.868958,,,
729606952.845659,-0.416413,2.107945,58.899133,-0.039368,-0.020157,0.999268,-0.003145,0.014612,0.002662,63.935364,23.963348,-147.868958,,,
729606952.849101,-0.419421,2.106109,58.901245,-0.039368,-0.020157,0.999268,-0.003145,0.014612,0.002662,63.935364,23.963348,-147.868958,,,
729606952.85232,-0.421683,2.101435,58.90339,-0.037766,-0.015381,0.991653,-0.005349,-0.01198,0.005108,63.935364,23.963348,-147.868958,,,
729606952.855688,-0.421683,2.101435,58.90339,-0.037766,-0.015381,0.991653,-0.005349,-0.01198,0.005108,63.935364,23.963348,-147.868958,,,
729606952.859038,-0.427714,2.093407,58.904679,-0.037766,-0.015381,0.991653,-0.005349,-0.01198,0.005108,63.935364,23.963348,-147.868958,,,
729606952.862318,-0.433367,2.083719,58.905227,-0.03595,-0.008591,0.987488,-0.019373,-0.03156,-0.00073,63.935364,23.963348,-147.868958,,,
729606952.865667,-0.433367,2.083719,58.905227,-0.03595,-0.008591,0.987488,-0.019373,-0.03156,-0.00073,63.935364,23.963348,-147.868958,,,
729606952.869005,-0.444499,2.069672,58.905566,-0.03595,-0.008591,0.987488,-0.019373,-0.03156,-0.00073,64.010895,23.924988,-147.932205,,,
729606952.872314,-0.452803,2.054429,58.905862,-0.035034,-0.011505,0.987411,-0.029243,-0.050959,-0.000112,64.010895,23.924988,-147.932205,,,
729606952.875724,-0.452803,2.054429,58.905862,-0.035034,-0.011505,0.987411,-0.029243,-0.050959,-0.000112,64.010895,23.924988,-147.932205,,,
729606952.878984,-0.465746,2.031767,58.907293,-0.035034,-0.011505,0.987411,-0.029243,-0.050959,-0.000112,64.010895,23.924988,-147.932205,,,
729606952.882322,-0.4762,2.010014,58.910238,-0.03537,-0.013382,0.990189,-0.036183,-0.074621,0.007773,64.010895,23.924988,-147.932205,,,
729606952.88567,-0.4762,2.010014,58.910238,-0.03537,-0.013382,0.990189,-0.036183,-0.074621,0.007773,64.010895,23.924988,-147.932205,,,
729606952.88905,-0.488675,1.98013,58.914734,-0.03537,-0.013382,0.990189,-0.036183,-0.074621,0.007773,64.010895,23.924988,-147.932205,,,
729606952.89238,-0.499761,1.956469,58.921681,-0.030502,-0.018387,0.999969,-0.037001,-0.078036,0.02058,64.010895,23.924988,-147.932205,,,
729606952.895644,-0.499761,1.956469,58.921681,-0.030502,-0.018387,0.999969,-0.037001,-0.078036,0.02058,64.010895,23.924988,-147.932205,,,
729606952.898997,-0.511264,1.926408,58.929642,-0.030502,-0.018387,0.999969,-0.037001,-0.078036,0.02058,64.010895,23.924988,-147.932205,,,
729606952.902311,-0.52206,1.902353,58.938098,-0.022797,-0.016571,1.002747,-0.03943,-0.080453,0.026146,64.010895,23.924988,-147.932205,,,
729606952.905659,-0.52206,1.902353,58.938098,-0.022797,-0.016571,1.002747,-0.03943,-0.080453,0.026146,64.010895,23.924988,-147.932205,,,
729606952.909029,-0.535161,1.876928,58.946687,-0.022797,-0.016571,1.002747,-0.03943,-0.080453,0.026146,63.87233,23.964767,-147.79541,,,
729606952.912351,-0.547575,1.854619,58.954916,-0.014877,-0.019226,1.007217,-0.047827,-0.076592,0.025766,63.87233,23.964767,-147.79541,,,
729606952.915657,-0.547575,1.854619,58.954916,-0.014877,-0.019226,1.007217,-0.047827,-0.076592,0.025766,63.87233,23.964767,-147.79541,,,
729606952.91908,-0.563016,1.832981,58.96257,-0.014877,-0.019226,1.007217,-0.047827,-0.076592,0.025766,63.87233,23.964767,-147.79541,,,
729606952.922318,-0.578176,1.808126,58.969064,-0.010101,-0.024292,1.001343,-0.054146,-0.083992,0.017638,63.87233,23.964767,-147.79541,,,
729606952.925728,-0.578176,1.808126,58.969064,-0.010101,-0.024292,1.001343,-0.054146,-0.083992,0.017638,63.87233,23.964767,-147.79541,,,
729606952.928993,-0.596741,1.783942,58.974503,-0.010101,-0.024292,1.001343,-0.054146,-0.083992,0.017638,63.87233,23.964767,-147.79541,,,
729606952.93232,-0.615216,1.752515,58.978386,-0.008072,-0.026566,0.997864,-0.064432,-0.105987,0.010527,63.87233,23.964767,-147.79541,,,
729606952.935652,-0.615216,1.752515,58.978386,-0.008072,-0.026566,0.997864,-0.064432,-0.105987,0.010527,63.87233,23.964767,-147.79541,,,
729606952.939037,-0.635161,1.720114,58.980786,-0.008072,-0.026566,0.997864,-0.064432,-0.105987,0.010527,63.87233,23.964767,-147.79541,,,
729606952.942355,-0.654677,1.680076,58.981617,-0.009705,-0.028381,0.997833,-0.066068,-0.135661,0.00152,63.87233,23.964767,-147.79541,,,
729606952.945689,-0.654677,1.680076,58.981617,-0.009705,-0.028381,0.997833,-0.066068,-0.135661,0.00152,63.87233,23.964767,-147.79541,,,
729606952.948974,-0.672306,1.640386,58.98045,-0.009705,-0.028381,0.997833,-0.066068,-0.135661,0.00152,63.583084,24.203094,-148.012329,,,
729606952.952307,-0.687566,1.596362,58.977101,-0.004074,-0.026382,1.004013,-0.052674,-0.151439,-0.014438,63.583084,24.203094,-148.012329,,,
729606952.955655,-0.687566,1.596362,58.977101,-0.004074,-0.026382,1.004013,-0.052674,-0.151439,-0.014438,63.583084,24.203094,-148.012329,,,
729606952.959046,-0.699184,1.557037,58.970978,-0.004074,-0.026382,1.004013,-0.052674,-0.151439,-0.014438,63.583084,24.203094,-148.012329,,,
729606952.962305,-0.706977,1.518581,58.962117,0.006683,-0.022812,1.01535,-0.025722,-0.132946,-0.033839,63.583084,24.203094,-148.012329,,,
729606952.965707,-0.706977,1.518581,58.962117,0.006683,-0.022812,1.01535,-0.025722,-0.132946,-0.033839,63.583084,24.203094,-148.012329,,,
729606952.968985,-0.711995,1.490832,58.951302,0.006683,-0.022812,1.01535,-0.025722,-0.132946,-0.033839,63.583084,24.203094,-148.012329,,,
729606952.972311,-0.713784,1.466425,58.93923,0.008469,-0.018799,1.018539,-0.004695,-0.083359,-0.044954,63.583084,24.203094,-148.012329,,,
729606952.975699,-0.713784,1.466425,58.93923,0.008469,-0.018799,1.018539,-0.004695,-0.083359,-0.044954,63.583084,24.203094,-148.012329,,,
729606952.979068,-0.714861,1.450363,58.927217,0.008469,-0.018799,1.018539,-0.004695,-0.083359,-0.044954,63.583084,24.203094,-148.012329,,,
729606952.98231,-0.713187,1.440188,58.915439,0.003143,-0.015167,1.010956,0.009712,-0.028799,-0.041475,63.583084,24.203094,-148.012329,,,
729606952.985657,-0.713187,1.440188,58.915439,0.003143,-0.015167,1.010956,0.009712,-0.028799,-0.041475,63.583084,24.203094,-148.012329,,,
729606952.988996,-0.710674,1.434951,58.904205,0.003143,-0.015167,1.010956,0.009712,-0.028799,-0.041475,63.583084,24.203094,-148.012329,,,
729606952.992364,-0.706422,1.438353,58.894475,0.000748,-0.009964,1.006439,0.01739,0.018133,-0.037266,63.620911,24.243591,-147.742493,,,
729606952.995666,-0.706422,1.438353,58.894475,0.000748,-0.009964,1.006439,0.01739,0.018133,-0.037266,63.620911,24.243591,-147.742493,,,
729606952.998994,-0.703538,1.439454,58.885751,0.000748,-0.009964,1.006439,0.01739,0.018133,-0.037266,63.620911,24.243591,-147.742493,,,
729606953.002313,-0.699453,1.448251,58.878152,-0.007996,-0.004944,0.990265,0.01451,0.034949,-0.025877,63.620911,24.243591,-147.742493,,,
729606953.005716,-0.699453,1.448251,58.878152,-0.007996,-0.004944,0.990265,0.01451,0.034949,-0.025877,63.620911,24.243591,-147.742493,,,
729606953.009025,-0.698449,1.44981,58.870813,-0.007996,-0.004944,0.990265,0.01451,0.034949,-0.025877,63.620911,24.243591,-147.742493,,,
729606953.012313,-0.696459,1.460067,58.86272,-0.014771,0.002502,0.980698,0.008648,0.038993,-0.029369,63.620911,24.243591,-147.742493,,,
729606953.015655,-0.696459,1.460067,58.86272,-0.014771,0.002502,0.980698,0.008648,0.038993,-0.029369,63.620911,24.243591,-147.742493,,,
729606953.019043,-0.698365,1.461167,58.853386,-0.014771,0.002502,0.980698,0.008648,0.038993,-0.029369,63.620911,24.243591,-147.742493,,,
729606953.022309,-0.698831,1.468201,58.842579,-0.017273,0.007538,0.975464,-0.002462,0.02662,-0.040454,63.620911,24.243591,-147.742493,,,
729606953.02575,-0.698831,1.468201,58.842579,-0.017273,0.007538,0.975464,-0.002462,0.02662,-0.040454,63.620911,24.243591,-147.742493,,,
729606953.028983,-0.703985,1.464521,58.829961,-0.017273,0.007538,0.975464,-0.002462,0.02662,-0.040454,63.620911,24.243591,-147.742493,,,
729606953.032317,-0.707446,1.465449,58.81577,-0.021652,0.007065,0.975357,-0.00905,0.005691,-0.051173,63.489304,24.216003,-148.114334,,,
729606953.035691,-0.707446,1.465449,58.81577,-0.021652,0.007065,0.975357,-0.00905,0.005691,-0.051173,63.489304,24.216003,-148.114334,,,
729606953.039022,-0.714218,1.449214,58.799304,-0.021652,0.007065,0.975357,-0.00905,0.005691,-0.051173,63.489304,24.216003,-148.114334,,,
729606953.042373,-0.72002,1.440555,58.780364,-0.021637,0.009216,0.973312,-0.019935,-0.027591,-0.066954,63.489304,24.216003,-148.114334,,,
729606953.04574,-0.72002,1.440555,58.780364,-0.021637,0.009216,0.973312,-0.019935,-0.027591,-0.066954,63.489304,24.216003,-148.114334,,,
729606953.048986,-0.728789,1.411751,58.759237,-0.021637,0.009216,0.973312,-0.019935,-0.027591,-0.066954,63.489304,24.216003,-148.114334,,,
729606953.052321,-0.736786,1.39697,58.73704,-0.026596,0.00679,0.977905,-0.025717,-0.051101,-0.077566,63.489304,24.216003,-148.114334,,,
729606953.055662,-0.736786,1.39697,58.73704,-0.026596,0.00679,0.977905,-0.025717,-0.051101,-0.077566,63.489304,24.216003,-148.114334,,,
729606953.059054,-0.745494,1.365022,58.713776,-0.026596,0.00679,0.977905,-0.025717,-0.051101,-0.077566,63.489304,24.216003,-148.114334,,,
729606953.062314,-0.753465,1.347503,58.690126,-0.031464,0.001526,0.986572,-0.024704,-0.058991,-0.08411,63.489304,24.216003,-148.114334,,,
729606953.065662,-0.753465,1.347503,58.690126,-0.031464,0.001526,0.986572,-0.024704,-0.058991,-0.08411,63.489304,24.216003,-148.114334,,,
729606953.068985,-0.760782,1.318079,58.666582,-0.031464,0.001526,0.986572,-0.024704,-0.058991,-0.08411,63.489304,24.216003,-148.114334,,,
729606953.072324,-0.767651,1.30175,58.644968,-0.033188,-0.004944,0.997253,-0.023779,-0.050817,-0.077227,63.567734,24.046478,-147.76622,,,
729606953.075707,-0.767651,1.30175,58.644968,-0.033188,-0.004944,0.997253,-0.023779,-0.050817,-0.077227,63.567734,24.046478,-147.76622,,,
729606953.078984,-0.772527,1.276631,58.625176,-0.033188,-0.004944,0.997253,-0.023779,-0.050817,-0.077227,63.567734,24.046478,-147.76622,,,
729606953.082322,-0.777345,1.264953,58.606993,-0.038971,-0.013,1.003082,-0.013782,-0.036094,-0.066599,63.567734,24.046478,-147.76622,,,
729606953.08571,-0.777345,1.264953,58.606993,-0.038971,-0.013,1.003082,-0.013782,-0.036094,-0.066599,63.567734,24.046478,-147.76622,,,
729606953.088984,-0.777411,1.253296,58.590706,-0.038971,-0.013,1.003082,-0.013782,-0.036094,-0.066599,63.567734,24.046478,-147.76622,,,
729606953.092364,-0.77628,1.251441,58.576527,-0.040558,-0.016342,1.014191,0.00273,-0.00293,-0.050747,63.567734,24.046478,-147.76622,,,
729606953.09564,-0.77628,1.251441,58.576527,-0.040558,-0.016342,1.014191,0.00273,-0.00293,-0.050747,63.567734,24.046478,-147.76622,,,
729606953.099088,-0.769049,1.249754,58.564606,-0.040558,-0.016342,1.014191,0.00273,-0.00293,-0.050747,63.567734,24.046478,-147.76622,,,
729606953.102307,-0.762183,1.253484,58.555729,-0.044937,-0.019592,1.018021,0.023654,0.018355,-0.034507,63.567734,24.046478,-147.76622,,,
729606953.105666,-0.762183,1.253484,58.555729,-0.044937,-0.019592,1.018021,0.023654,0.018355,-0.034507,63.567734,24.046478,-147.76622,,,
729606953.10904,-0.749255,1.258423,58.549615,-0.044937,-0.019592,1.018021,0.023654,0.018355,-0.034507,63.567734,24.046478,-147.76622,,,
729606953.11232,-0.738424,1.265321,58.545748,-0.047714,-0.020905,1.009308,0.039318,0.028582,-0.013762,63.369736,24.372437,-147.975418,,,
729606953.115661,-0.738424,1.265321,58.545748,-0.047714,-0.020905,1.009308,0.039318,0.028582,-0.013762,63.369736,24.372437,-147.975418,,,
729606953.118989,-0.723105,1.272579,58.543758,-0.047714,-0.020905,1.009308,0.039318,0.028582,-0.013762,63.369736,24.372437,-147.975418,,,
729606953.122327,-0.711842,1.279925,58.543468,-0.046906,-0.016693,1.000351,0.041561,0.027042,-0.001051,63.369736,24.372437,-147.975418,,,
729606953.125755,-0.711842,1.279925,58.543468,-0.046906,-0.016693,1.000351,0.041561,0.027042,-0.001051,63.369736,24.372437,-147.975418,,,
729606953.128991,-0.69796,1.287685,58.544407,-0.046906,-0.016693,1.000351,0.041561,0.027042,-0.001051,63.369736,24.372437,-147.975418,,,
729606953.132318,-0.689242,1.294291,58.546091,-0.040543,-0.009491,0.990036,0.029313,0.027906,0.00629,63.369736,24.372437,-147.975418,,,
729606953.135654,-0.689242,1.294291,58.546091,-0.040543,-0.009491,0.990036,0.029313,0.027906,0.00629,63.369736,24.372437,-147.975418,,,
729606953.138982,-0.679921,1.302224,58.54815,-0.040543,-0.009491,0.990036,0.029313,0.027906,0.00629,63.369736,24.372437,-147.975418,,,
729606953.142373,-0.675719,1.304531,58.550289,-0.036713,-0.005692,0.983383,0.013753,0.011055,0.005644,63.369736,24.372437,-147.975418,,,
729606953.145647,-0.675719,1.304531,58.550289,-0.036713,-0.005692,0.983383,0.013753,0.011055,0.005644,63.369736,24.372437,-147.975418,,,
729606953.149078,-0.671918,1.30926,58.552538,-0.036713,-0.005692,0.983383,0.013753,0.011055,0.005644,63.369736,24.372437,-147.975418,,,
729606953.15231,-0.672256,1.307397,58.555137,-0.035126,-0.008606,0.983856,-0.002382,-0.004045,0.007173,63.369736,24.372437,-147.975418,,,
729606953.155671,-0.672256,1.307397,58.555137,-0.035126,-0.008606,0.983856,-0.002382,-0.004045,0.007173,63.265182,24.371964,-148.207794,,,
729606953.159045,-0.673181,1.310101,58.558524,-0.035126,-0.008606,0.983856,-0.002382,-0.004045,0.007173,63.265182,24.371964,-148.207794,,,
729606953.162313,-0.675332,1.306552,58.563566,-0.036987,-0.013077,0.992065,-0.009182,-0.012698,0.014791,63.265182,24.371964,-148.207794,,,
729606953.165661,-0.675332,1.306552,58.563566,-0.036987,-0.013077,0.992065,-0.009182,-0.012698,0.014791,63.265182,24.371964,-148.207794,,,
729606953.168986,-0.678354,1.310101,58.571641,-0.036987,-0.013077,0.992065,-0.009182,-0.012698,0.014791,63.265182,24.371964,-148.207794,,,
729606953.172319,-0.680529,1.305204,58.582811,-0.044495,-0.020554,0.995071,-0.009825,-0.014384,0.033978,63.265182,24.371964,-148.207794,,,
729606953.175755,-0.680529,1.305204,58.582811,-0.044495,-0.020554,0.995071,-0.009825,-0.014384,0.033978,63.265182,24.371964,-148.207794,,,
729606953.17898,-0.682545,1.308687,58.597009,-0.044495,-0.020554,0.995071,-0.009825,-0.014384,0.033978,63.265182,24.371964,-148.207794,,,
729606953.182316,-0.681803,1.303068,58.613664,-0.038544,-0.022629,1.00119,0.000365,-0.017392,0.055497,63.265182,24.371964,-148.207794,,,
729606953.185622,-0.681803,1.303068,58.613664,-0.038544,-0.022629,1.00119,0.000365,-0.017392,0.055497,63.265182,24.371964,-148.207794,,,
729606953.188988,-0.680585,1.308144,58.632738,-0.038544,-0.022629,1.00119,0.000365,-0.017392,0.055497,63.265182,24.371964,-148.207794,,,
729606953.192359,-0.6766,1.303591,58.653596,-0.028717,-0.016891,1.00441,0.01303,-0.01522,0.072449,63.265182,24.371964,-148.207794,,,
729606953.195639,-0.6766,1.303591,58.653596,-0.028717,-0.016891,1.00441,0.01303,-0.01522,0.072449,63.573196,24.367828,-147.834167,,,
729606953.19898,-0.672885,1.311584,58.675876,-0.028717,-0.016891,1.00441,0.01303,-0.01522,0.072449,63.573196,24.367828,-147.834167,,,
729606953.202306,-0.666929,1.309013,58.698828,-0.022003,-0.009125,1.005005,0.018842,-0.007622,0.079467,63.573196,24.367828,-147.834167,,,
729606953.205654,-0.666929,1.309013,58.698828,-0.022003,-0.009125,1.005005,0.018842,-0.007622,0.079467,63.573196,24.367828,-147.834167,,,
729606953.209041,-0.660857,1.31841,58.721854,-0.022003,-0.009125,1.005005,0.018842,-0.007622,0.079467,63.573196,24.367828,-147.834167,,,
729606953.212305,-0.652754,1.31959,58.744924,-0.01857,-0.005112,1.004272,0.027876,0.00311,0.081405,63.573196,24.367828,-147.834167,,,
729606953.215667,-0.652754,1.31959,58.744924,-0.01857,-0.005112,1.004272,0.027876,0.00311,0.081405,63.573196,24.367828,-147.834167,,,
729606953.219078,-0.642209,1.329502,58.769357,-0.01857,-0.005112,1.004272,0.027876,0.00311,0.081405,63.573196,24.367828,-147.834167,,,
729606953.222297,-0.631468,1.334006,58.794696,-0.023041,-0.005737,1.004791,0.035022,0.016138,0.087951,63.573196,24.367828,-147.834167,,,
729606953.2257,-0.631468,1.334006,58.794696,-0.023041,-0.005737,1.004791,0.035022,0.016138,0.087951,63.573196,24.367828,-147.834167,,,
729606953.228997,-0.619032,1.34695,58.820607,-0.023041,-0.005737,1.004791,0.035022,0.016138,0.087951,63.573196,24.367828,-147.834167,,,
729606953.232303,-0.605898,1.35691,58.846213,-0.020325,-0.000458,1.000168,0.041462,0.037132,0.089746,63.573196,24.367828,-147.834167,,,
729606953.235646,-0.605898,1.35691,58.846213,-0.020325,-0.000458,1.000168,0.041462,0.037132,0.089746,63.565842,24.22908,-147.855728,,,
729606953.239029,-0.590761,1.376434,58.870828,-0.020325,-0.000458,1.000168,0.041462,0.037132,0.089746,63.565842,24.22908,-147.855728,,,
729606953.242318,-0.572972,1.395778,58.894574,-0.017334,0.005417,1.001358,0.059948,0.06808,0.082737,63.565842,24.22908,-147.855728,,,
729606953.245667,-0.572972,1.395778,58.894574,-0.017334,0.005417,1.001358,0.059948,0.06808,0.082737,63.565842,24.22908,-147.855728,,,
729606953.24903,-0.552766,1.429772,58.917764,-0.017334,0.005417,1.001358,0.059948,0.06808,0.082737,63.565842,24.22908,-147.855728,,,
729606953.252318,-0.528289,1.461042,58.940122,-0.021576,0.005219,1.007217,0.08114,0.112702,0.078758,63.565842,24.22908,-147.855728,,,
729606953.255477,-0.528289,1.461042,58.940122,-0.021576,0.005219,1.007217,0.08114,0.112702,0.078758,63.565842,24.22908,-147.855728,,,
729606953.259047,-0.503936,1.50394,58.962488,-0.021576,0.005219,1.007217,0.08114,0.112702,0.078758,63.565842,24.22908,-147.855728,,,
729606953.262361,-0.475979,1.540823,58.985362,-0.027542,0.000595,0.994431,0.095777,0.131036,0.079717,63.565842,24.22908,-147.855728,,,
729606953.265728,-0.475979,1.540823,58.985362,-0.027542,0.000595,0.994431,0.095777,0.131036,0.079717,63.565842,24.22908,-147.855728,,,
729606953.268995,-0.450375,1.581735,59.008208,-0.027542,0.000595,0.994431,0.095777,0.131036,0.079717,63.565842,24.22908,-147.855728,,,
729606953.272325,-0.424631,1.618479,59.030169,-0.033798,0.002899,0.979401,0.089875,0.131075,0.078586,63.565842,24.22908,-147.855728,,,
729606953.275719,-0.424631,1.618479,59.030169,-0.033798,0.002899,0.979401,0.089875,0.131075,0.078586,63.745682,24.222366,-147.952332,,,
729606953.27905,-0.401632,1.652815,59.051113,-0.033798,0.002899,0.979401,0.089875,0.131075,0.078586,63.745682,24.222366,-147.952332,,,
729606953.282304,-0.379084,1.686813,59.070538,-0.036987,0.005127,0.971146,0.076098,0.121882,0.067477,63.745682,24.222366,-147.952332,,,
729606953.285642,-0.379084,1.686813,59.070538,-0.036987,0.005127,0.971146,0.076098,0.121882,0.067477,63.745682,24.222366,-147.952332,,,
729606953.289004,-0.35794,1.714483,59.088188,-0.036987,0.005127,0.971146,0.076098,0.121882,0.067477,63.745682,24.222366,-147.952332,,,
729606953.292349,-0.337761,1.74307,59.10515,-0.042603,0.006119,0.975037,0.066576,0.103306,0.055484,63.745682,24.222366,-147.952332,,,
729606953.295659,-0.337761,1.74307,59.10515,-0.042603,0.006119,0.975037,0.066576,0.103306,0.055484,63.745682,24.222366,-147.952332,,,
729606953.298991,-0.318968,1.761442,59.12251,-0.042603,0.006119,0.975037,0.066576,0.103306,0.055484,63.745682,24.222366,-147.952332,,,
729606953.30233,-0.301396,1.779211,59.140776,-0.054016,-0.003067,0.974915,0.059486,0.065292,0.065064,63.745682,24.222366,-147.952332,,,
729606953.305717,-0.301396,1.779211,59.140776,-0.054016,-0.003067,0.974915,0.059486,0.065292,0.065064,63.745682,24.222366,-147.952332,,,
729606953.309036,-0.285121,1.788626,59.159865,-0.054016,-0.003067,0.974915,0.059486,0.065292,0.065064,63.745682,24.222366,-147.952332,,,
729606953.312342,-0.269922,1.796871,59.180782,-0.05069,-0.008667,0.9776,0.050642,0.033667,0.0737,63.745682,24.222366,-147.952332,,,
729606953.315655,-0.269922,1.796871,59.180782,-0.05069,-0.008667,0.9776,0.050642,0.033667,0.0737,63.745682,24.222366,-147.952332,,,
729606953.319056,-0.254046,1.795793,59.203155,-0.05069,-0.008667,0.9776,0.050642,0.033667,0.0737,63.896042,24.010849,-148.063354,,,
729606953.322342,-0.239893,1.799776,59.225643,-0.041565,-0.007233,0.985626,0.045468,0.017379,0.080088,63.896042,24.010849,-148.063354,,,
729606953.325657,-0.239893,1.799776,59.225643,-0.041565,-0.007233,0.985626,0.045468,0.017379,0.080088,63.896042,24.010849,-148.063354,,,
729606953.328995,-0.224082,1.798483,59.247932,-0.041565,-0.007233,0.985626,0.045468,0.017379,0.080088,63.896042,24.010849,-148.063354,,,
729606953.332319,-0.210206,1.804758,59.269974,-0.028061,-0.001694,1.001785,0.045818,0.025271,0.074078,63.896042,24.010849,-148.063354,,,
729606953.335664,-0.210206,1.804758,59.269974,-0.028061,-0.001694,1.001785,0.045818,0.025271,0.074078,63.896042,24.010849,-148.063354,,,
729606953.338986,-0.1952,1.808421,59.291454,-0.028061,-0.001694,1.001785,0.045818,0.025271,0.074078,63.896042,24.010849,-148.063354,,,
729606953.342385,-0.182187,1.816882,59.311653,-0.018677,-0.002228,1.002655,0.042292,0.034841,0.070787,63.896042,24.010849,-148.063354,,,
729606953.345637,-0.182187,1.816882,59.311653,-0.018677,-0.002228,1.002655,0.042292,0.034841,0.070787,63.896042,24.010849,-148.063354,,,
729606953.349002,-0.169424,1.825804,59.330909,-0.018677,-0.002228,1.002655,0.042292,0.034841,0.070787,63.896042,24.010849,-148.063354,,,
729606953.352324,-0.158455,1.836217,59.350221,-0.018677,-0.002228,1.002655,0.03686,0.038708,0.067277,63.896042,24.010849,-148.063354,,,
729606953.355658,-0.158455,1.836217,59.350221,-0.014313,-0.002121,1.000458,0.03686,0.038708,0.067277,63.896042,24.010849,-148.063354,,,
729606953.359103,-0.147827,1.849587,59.36979,-0.014313,-0.002121,1.000458,0.03686,0.038708,0.067277,63.769058,24.057098,-148.023849,,,
729606953.362349,-0.140048,1.86122,59.388977,-0.014313,-0.002121,1.000458,0.021452,0.042753,0.065374,63.769058,24.057098,-148.023849,,,
729606953.365659,-0.140048,1.86122,59.388977,-0.021912,-0.007111,1.000244,0.021452,0.042753,0.065374,63.769058,24.057098,-148.023849,,,
729606953.368973,-0.132031,1.874644,59.407733,-0.021912,-0.007111,1.000244,0.021452,0.042753,0.065374,63.769058,24.057098,-148.023849,,,
729606953.372313,-0.132031,1.874644,59.426433,-0.021912,-0.007111,1.000244,0.022185,0.029665,0.064696,63.769058,24.057098,-148.023849,,,
729606953.375715,-0.125722,1.882786,59.426433,-0.02562,-0.011597,0.998032,0.022185,0.029665,0.064696,63.769058,24.057098,-148.023849,,,
729606953.378991,-0.118268,1.895959,59.444918,-0.02562,-0.011597,0.998032,0.022185,0.029665,0.064696,63.769058,24.057098,-148.023849,,,
729606953.382372,-0.118268,1.895959,59.444918,-0.02562,-0.011597,0.998032,0.025016,0.014865,0.059457,63.769058,24.057098,-148.023849,,,
729606953.385705,-0.110655,1.900032,59.462542,-0.027054,-0.01387,1.00238,0.025016,0.014865,0.059457,63.769058,24.057098,-148.023849,,,
729606953.388988,-0.102922,1.912186,59.478212,-0.027054,-0.01387,1.00238,0.025016,0.014865,0.059457,63.769058,24.057098,-148.023849,,,
729606953.392409,-0.102922,1.911584,59.491555,-0.018463,-0.009293,1.006668,0.030424,-0.000799,0.046501,63.769058,24.057098,-148.023849,,,
729606953.395683,-0.093971,1.911584,59.491555,-0.018463,-0.009293,1.006668,0.030424,-0.000799,0.046501,63.769058,24.057098,-148.023849,,,
729606953.398977,-0.085292,1.917811,59.502492,-0.018463,-0.009293,1.006668,0.030424,-0.000799,0.046501,63.83847,24.103073,-148.094818,,,
729606953.402311,-0.085292,1.917811,59.502492,-0.018463,-0.009293,1.006668,0.030424,-0.000799,0.046501,63.83847,24.103073,-148.094818,,,
729606953.405665,-0.075019,1.918348,59.510688,-0.017303,-0.006973,1.013336,0.036669,0.005739,0.027531,63.83847,24.103073,-148.094818,,,
729606953.409052,-0.065961,1.922146,59.516781,-0.017303,-0.006973,1.013336,0.036669,0.005739,0.027531,63.83847,24.103073,-148.094818,,,
729606953.412373,-0.065961,1.922146,59.516781,-0.017303,-0.006973,1.013336,0.030844,0.012473,0.015002,63.83847,24.103073,-148.094818,,,
729606953.415642,-0.057998,1.925268,59.521355,-0.01915,-0.006638,1.010483,0.030844,0.012473,0.015002,63.83847,24.103073,-148.094818,,,
729606953.41899,-0.052092,1.924381,59.524935,-0.01915,-0.006638,1.010483,0.030844,0.012473,0.015002,63.83847,24.103073,-148.094818,,,
729606953.422308,-0.052092,1.924381,59.524935,-0.01915,-0.006638,1.010483,0.030844,0.012473,0.015002,63.83847,24.103073,-148.094818,,,
729606953.425715,-0.047479,1.927827,59.527639,-0.019028,-0.009262,1.003433,0.018734,0.015115,0.007195,63.83847,24.103073,-148.094818,,,
729606953.428987,-0.044054,1.922761,59.529401,-0.019028,-0.009262,1.003433,0.018734,0.015115,0.007195,63.83847,24.103073,-148.094818,,,
729606953.432349,-0.044054,1.922761,59.529401,-0.019028,-0.009262,1.003433,0.017222,0.015302,0.000764,63.83847,24.103073,-148.094818,,,
729606953.435685,-0.039856,1.926063,59.530005,-0.020401,-0.01265,1.007889,0.017222,0.015302,0.000764,63.83847,24.103073,-148.094818,,,
729606953.438983,-0.035064,1.921959,59.529305,-0.020401,-0.01265,1.007889,0.017222,0.015302,0.000764,63.83847,24.103073,-148.094818,,,
729606953.442346,-0.035064,1.921959,59.529305,-0.020401,-0.01265,1.007889,0.017222,0.015302,0.000764,64.050491,23.944809,-147.811676,,,
729606953.445659,-0.028487,1.925446,59.528135,-0.025513,-0.013657,1.012802,0.022261,0.014573,-0.002627,64.050491,23.944809,-147.811676,,,
729606953.448986,-0.021983,1.924124,59.527115,-0.025513,-0.013657,1.012802,0.022261,0.014573,-0.002627,64.050491,23.944809,-147.811676,,,
729606953.452418,-0.021983,1.924124,59.527115,-0.025513,-0.013657,1.012802,0.022261,0.014573,-0.002627,64.050491,23.944809,-147.811676,,,
729606953.455653,-0.013144,1.927317,59.525371,-0.027512,-0.01123,1.011154,0.031521,0.013686,-0.003844,64.050491,23.944809,-147.811676,,,
729606953.459043,-0.005798,1.928736,59.522397,-0.027512,-0.01123,1.011154,0.031521,0.013686,-0.003844,64.050491,23.944809,-147.811676,,,
729606953.462315,-0.005798,1.928736,59.522397,-0.027512,-0.01123,1.011154,0.031521,0.013686,-0.003844,64.050491,23.944809,-147.811676,,,
729606953.465709,0.004151,1.935445,59.518725,-0.024551,-0.006638,1.010437,0.0348,0.026178,-0.012283,64.050491,23.944809,-147.811676,,,
729606953.468979,0.012218,1.941322,59.514376,-0.024551,-0.006638,1.010437,0.0348,0.026178,-0.012283,64.050491,23.944809,-147.811676,,,
729606953.472334,0.012218,1.941322,59.514376,-0.024551,-0.006638,1.010437,0.0348,0.026178,-0.012283,64.050491,23.944809,-147.811676,,,
729606953.475692,0.023563,1.953374,59.510458,-0.030731,-0.008789,1.014191,0.041676,0.04639,-0.014522,64.050491,23.944809,-147.811676,,,
729606953.479057,0.034455,1.957952,59.507603,-0.030731,-0.008789,1.014191,0.041676,0.04639,-0.014522,64.050491,23.944809,-147.811676,,,
729606953.482375,0.034455,1.957952,59.507603,-0.030731,-0.008789,1.014191,0.041676,0.04639,-0.014522,64.146194,23.865402,-147.970276,,,
729606953.485655,0.047545,1.969172,59.505474,-0.037262,-0.011429,1.004593,0.046022,0.041351,-0.006263,64.146194,23.865402,-147.970276,,,
729606953.488991,0.058939,1.971923,59.503846,-0.037262,-0.011429,1.004593,0.046022,0.041351,-0.006263,64.146194,23.865402,-147.970276,,,
729606953.492458,0.058939,1.971923,59.503846,-0.037262,-0.011429,1.004593,0.046022,0.041351,-0.006263,64.146194,23.865402,-147.970276,,,
729606953.495649,0.07031,1.980263,59.502244,-0.037933,-0.009003,0.998734,0.037751,0.032869,-0.005059,64.146194,23.865402,-147.970276,,,
729606953.498993,0.077985,1.978835,59.500257,-0.037933,-0.009003,0.998734,0.037751,0.032869,-0.005059,64.146194,23.865402,-147.970276,,,
729606953.502358,0.077985,1.978835,59.500257,-0.037933,-0.009003,0.998734,0.037751,0.032869,-0.005059,64.146194,23.865402,-147.970276,,,
729606953.505718,0.084549,1.981495,59.496912,-0.0383,-0.004318,0.98848,0.023549,0.012572,-0.012276,64.146194,23.865402,-147.970276,,,
729606953.50903,0.085738,1.973189,59.491807,-0.0383,-0.004318,0.98848,0.023549,0.012572,-0.012276,64.146194,23.865402,-147.970276,,,
729606953.512359,0.085738,1.973189,59.491807,-0.0383,-0.004318,0.98848,0.023549,0.012572,-0.012276,64.146194,23.865402,-147.970276,,,
729606953.515647,0.085143,1.967276,59.485164,-0.032837,0.00145,0.980591,4.1e-05,-0.017017,-0.023437,64.146194,23.865402,-147.970276,,,
729606953.519029,0.07876,1.951402,59.477391,-0.032837,0.00145,0.980591,4.1e-05,-0.017017,-0.023437,64.146194,23.865402,-147.970276,,,
729606953.522308,0.07876,1.951402,59.477391,-0.032837,0.00145,0.980591,4.1e-05,-0.017017,-0.023437,64.071442,23.688232,-148.088425,,,
729606953.525698,0.073713,1.938336,59.469161,-0.032532,-0.001007,0.985092,-0.017997,-0.042563,-0.032177,64.071442,23.688232,-148.088425,,,
729606953.528978,0.066291,1.92057,59.460756,-0.032532,-0.001007,0.985092,-0.017997,-0.042563,-0.032177,64.071442,23.688232,-148.088425,,,
729606953.532417,0.066291,1.92057,59.460756,-0.032532,-0.001007,0.985092,-0.017997,-0.042563,-0.032177,64.071442,23.688232,-148.088425,,,
729606953.535633,0.06251,1.906227,59.452003,-0.030563,-0.005798,0.998398,-0.010191,-0.048307,-0.030613,64.071442,23.688232,-148.088425,,,
729606953.538991,0.059349,1.89053,59.443558,-0.030563,-0.005798,0.998398,-0.010191,-0.048307,-0.030613,64.071442,23.688232,-148.088425,,,
729606953.542407,0.059349,1.89053,59.443558,-0.030563,-0.005798,0.998398,-0.010191,-0.048307,-0.030613,64.071442,23.688232,-148.088425,,,
729606953.545701,0.061118,1.880553,59.436945,-0.028381,-0.006897,1.012238,0.007571,-0.031001,-0.025447,64.071442,23.688232,-148.088425,,,
729606953.548996,0.065328,1.871512,59.432775,-0.028381,-0.006897,1.012238,0.007571,-0.031001,-0.025447,64.071442,23.688232,-148.088425,,,
729606953.552318,0.065328,1.871512,59.432775,-0.028381,-0.006897,1.012238,0.007571,-0.031001,-0.025447,64.071442,23.688232,-148.088425,,,
729606953.555663,0.07466,1.870958,59.431485,-0.030624,-0.008499,1.016785,0.0328,5e-05,-0.007902,64.071442,23.688232,-148.088425,,,
729606953.559019,0.085425,1.875412,59.433306,-0.030624,-0.008499,1.016785,0.0328,5e-05,-0.007902,64.071442,23.688232,-148.088425,,,
729606953.56231,0.085425,1.875412,59.433306,-0.030624,-0.008499,1.016785,0.0328,5e-05,-0.007902,64.29747,23.781448,-147.808075,,,
729606953.565667,0.100795,1.882293,59.436786,-0.023529,-0.005386,1.013046,0.05605,0.027776,0.01188,64.29747,23.781448,-147.808075,,,
729606953.569037,0.115982,1.893306,59.440613,-0.023529,-0.005386,1.013046,0.05605,0.027776,0.01188,64.29747,23.781448,-147.808075,,,
729606953.572308,0.115982,1.893306,59.440613,-0.023529,-0.005386,1.013046,0.05605,0.027776,0.01188,64.29747,23.781448,-147.808075,,,
729606953.575712,0.13473,1.903572,59.443775,-0.013763,0.001404,1.000031,0.063523,0.039144,0.013446,64.29747,23.781448,-147.808075,,,
729606953.578966,0.150872,1.916521,59.445045,-0.013763,0.001404,1.000031,0.063523,0.039144,0.013446,64.29747,23.781448,-147.808075,,,
729606953.582382,0.150872,1.916521,59.445045,-0.013763,0.001404,1.000031,0.063523,0.039144,0.013446,64.29747,23.781448,-147.808075,,,
729606953.585655,0.167443,1.926421,59.444119,-0.012177,0.009216,0.988495,0.059632,0.03919,-0.003854,64.29747,23.781448,-147.808075,,,
729606953.588989,0.181664,1.936056,59.441558,-0.012177,0.009216,0.988495,0.059632,0.03919,-0.003854,64.29747,23.781448,-147.808075,,,
729606953.592436,0.181664,1.936056,59.441558,-0.012177,0.009216,0.988495,0.059632,0.03919,-0.003854,64.29747,23.781448,-147.808075,,,
729606953.595685,0.193218,1.943373,59.437178,-0.022964,0.012558,0.975113,0.045185,0.027804,-0.015887,64.29747,23.781448,-147.808075,,,
729606953.598969,0.200218,1.948508,59.43082,-0.022964,0.012558,0.975113,0.045185,0.027804,-0.015887,64.29747,23.781448,-147.808075,,,
729606953.602316,0.200218,1.948508,59.43082,-0.022964,0.012558,0.975113,0.045185,0.027804,-0.015887,64.29747,23.781448,-147.808075,,,
729606953.605658,0.203378,1.952584,59.423538,-0.030991,0.01384,0.968613,0.014053,0.018184,-0.025225,64.192947,23.605881,-147.957108,,,
729606953.60908,0.201358,1.95315,59.415639,-0.030991,0.01384,0.968613,0.014053,0.018184,-0.025225,64.192947,23.605881,-147.957108,,,
729606953.612324,0.201358,1.95315,59.415639,-0.030991,0.01384,0.968613,0.014053,0.018184,-0.025225,64.192947,23.605881,-147.957108,,,
729606953.615659,0.196845,1.951232,59.40759,-0.037354,0.010574,0.966003,-0.016173,-0.004612,-0.031324,64.192947,23.605881,-147.957108,,,
729606953.618988,0.18775,1.943799,59.399962,-0.037354,0.010574,0.966003,-0.016173,-0.004612,-0.031324,64.192947,23.605881,-147.957108,,,
729606953.622378,0.18775,1.943799,59.399962,-0.037354,0.010574,0.966003,-0.016173,-0.004612,-0.031324,64.192947,23.605881,-147.957108,,,
729606953.625755,0.178485,1.935463,59.392493,-0.043564,0.008072,0.970551,-0.02894,-0.026659,-0.026223,64.192947,23.605881,-147.957108,,,
729606953.628984,0.167778,1.922971,59.385271,-0.043564,0.008072,0.970551,-0.02894,-0.026659,-0.026223,64.192947,23.605881,-147.957108,,,
729606953.632328,0.167778,1.922971,59.385271,-0.043564,0.008072,0.970551,-0.02894,-0.026659,-0.026223,64.192947,23.605881,-147.957108,,,
729606953.635716,0.160905,1.91178,59.378579,-0.047104,0.00412,0.98439,-0.02354,-0.037447,-0.026657,64.192947,23.605881,-147.957108,,,
729606953.63899,0.155015,1.896964,59.372612,-0.047104,0.00412,0.98439,-0.02354,-0.037447,-0.026657,64.192947,23.605881,-147.957108,,,
729606953.642377,0.155015,1.896964,59.372612,-0.047104,0.00412,0.98439,-0.02354,-0.037447,-0.026657,64.192947,23.605881,-147.957108,,,
729606953.645639,0.153419,1.8841,59.367981,-0.04744,-0.002777,0.997681,-0.003373,-0.04284,-0.014215,64.331619,23.576004,-148.009537,,,
729606953.64904,0.152521,1.866093,59.365243,-0.04744,-0.002777,0.997681,-0.003373,-0.04284,-0.014215,64.331619,23.576004,-148.009537,,,
729606953.652308,0.152521,1.866093,59.365243,-0.04744,-0.002777,0.997681,-0.003373,-0.04284,-0.014215,64.331619,23.576004,-148.009537,,,
729606953.655666,0.153551,1.856526,59.364444,-0.047424,-0.004654,1.002579,0.006239,-0.0315,-0.002404,64.331619,23.576004,-148.009537,,,
729606953.659032,0.155622,1.839532,59.365556,-0.047424,-0.004654,1.002579,0.006239,-0.0315,-0.002404,64.331619,23.576004,-148.009537,,,
729606953.662368,0.155622,1.839532,59.365556,-0.047424,-0.004654,1.002579,0.006239,-0.0315,-0.002404,64.331619,23.576004,-148.009537,,,
729606953.665654,0.157238,1.833615,59.368276,-0.04744,-0.006241,1.004898,0.005343,-0.017958,0.009341,64.331619,23.576004,-148.009537,,,
729606953.668989,0.15895,1.822962,59.372302,-0.04744,-0.006241,1.004898,0.005343,-0.017958,0.009341,64.331619,23.576004,-148.009537,,,
729606953.672325,0.15895,1.822962,59.372302,-0.04744,-0.006241,1.004898,0.005343,-0.017958,0.009341,64.331619,23.576004,-148.009537,,,
729606953.675753,0.158233,1.82223,59.377179,-0.041763,-0.005203,1.007248,-0.00363,0.001312,0.016679,64.331619,23.576004,-148.009537,,,
729606953.678981,0.159242,1.821576,59.381845,-0.041763,-0.005203,1.007248,-0.00363,0.001312,0.016679,64.331619,23.576004,-148.009537,,,
729606953.68232,0.159242,1.821576,59.381845,-0.041763,-0.005203,1.007248,-0.00363,0.001312,0.016679,64.331619,23.576004,-148.009537,,,
729606953.685649,0.158438,1.824032,59.385527,-0.036224,-0.000992,1.00882,-0.005287,0.011146,0.011766,64.277115,23.60643,-147.992294,,,
729606953.689054,0.159803,1.827393,59.388629,-0.036224,-0.000992,1.00882,-0.005287,0.011146,0.011766,64.277115,23.60643,-147.992294,,,
729606953.692371,0.159803,1.827393,59.388629,-0.036224,-0.000992,1.00882,-0.005287,0.011146,0.011766,64.277115,23.60643,-147.992294,,,
729606953.695651,0.159405,1.829221,59.390545,-0.034561,0.000565,1.009583,-0.0004,0.008836,0.006735,64.277115,23.60643,-147.992294,,,
729606953.698983,0.160451,1.834567,59.391387,-0.034561,0.000565,1.009583,-0.0004,0.008836,0.006735,64.277115,23.60643,-147.992294,,,
729606953.702367,0.160451,1.834567,59.391387,-0.034561,0.000565,1.009583,-0.0004,0.008836,0.006735,64.277115,23.60643,-147.992294,,,
729606953.705658,0.160737,1.835808,59.392661,-0.041458,-0.001129,1.005417,0.001869,0.008746,0.00248,64.277115,23.60643,-147.992294,,,
729606953.709018,0.161718,1.844004,59.394485,-0.041458,-0.001129,1.005417,0.001869,0.008746,0.00248,64.277115,23.60643,-147.992294,,,
729606953.712315,0.161718,1.844004,59.394485,-0.041458,-0.001129,1.005417,0.001869,0.008746,0.00248,64.277115,23.60643,-147.992294,,,
729606953.7157,0.162161,1.845227,59.397159,-0.047073,-0.006714,1.004181,-0.000361,0.007009,0.008781,64.277115,23.60643,-147.992294,,,
729606953.718984,0.163334,1.85198,59.401054,-0.047073,-0.006714,1.004181,-0.000361,0.007009,0.008781,64.277115,23.60643,-147.992294,,,
729606953.722324,0.163334,1.85198,59.401054,-0.047073,-0.006714,1.004181,-0.000361,0.007009,0.008781,64.277115,23.60643,-147.992294,,,
729606953.725686,0.165796,1.850992,59.405914,-0.042877,-0.007812,1.00148,0.008236,0.000417,0.015942,64.205032,23.443008,-148.079132,,,
729606953.729064,0.16953,1.856763,59.411162,-0.042877,-0.007812,1.00148,0.008236,0.000417,0.015942,64.205032,23.443008,-148.079132,,,
729606953.732317,0.16953,1.856763,59.411162,-0.042877,-0.007812,1.00148,0.008236,0.000417,0.015942,64.205032,23.443008,-148.079132,,,
729606953.735666,0.176669,1.853812,59.416673,-0.038269,-0.005569,1.006729,0.026769,-0.007275,0.016322,64.205032,23.443008,-148.079132,,,
729606953.73899,0.183788,1.855062,59.421826,-0.038269,-0.005569,1.006729,0.026769,-0.007275,0.016322,64.205032,23.443008,-148.079132,,,
729606953.74241,0.183788,1.855062,59.421826,-0.038269,-0.005569,1.006729,0.026769,-0.007275,0.016322,64.205032,23.443008,-148.079132,,,
729606953.745649,0.193369,1.847805,59.42615,-0.036957,-0.0047,1.001358,0.03602,-0.021485,0.015656,64.205032,23.443008,-148.079132,,,
729606953.748987,0.201538,1.845957,59.429685,-0.036957,-0.0047,1.001358,0.03602,-0.021485,0.015656,64.205032,23.443008,-148.079132,,,
729606953.752337,0.201538,1.845957,59.429685,-0.036957,-0.0047,1.001358,0.03602,-0.021485,0.015656,64.205032,23.443008,-148.079132,,,
729606953.755709,0.210746,1.837613,59.432038,-0.031067,-0.000488,0.999664,0.03484,-0.028982,0.0102,64.205032,23.443008,-148.079132,,,
729606953.759024,0.217756,1.831405,59.433429,-0.031067,-0.000488,0.999664,0.03484,-0.028982,0.0102,64.205032,23.443008,-148.079132,,,
729606953.762324,0.217756,1.831405,59.433429,-0.031067,-0.000488,0.999664,0.03484,-0.028982,0.0102,64.205032,23.443008,-148.079132,,,
729606953.765664,0.224025,1.821629,59.434623,-0.025803,-0.00029,0.99263,0.021685,-0.031498,0.003537,64.205032,23.443008,-148.079132,,,
729606953.769055,0.227523,1.813159,59.43625,-0.025803,-0.00029,0.99263,0.021685,-0.031498,0.003537,64.238068,23.46312,-148.242599,,,
729606953.77231,0.227523,1.813159,59.43625,-0.025803,-0.00029,0.99263,0.021685,-0.031498,0.003537,64.238068,23.46312,-148.242599,,,
729606953.775698,0.230263,1.803751,59.437855,-0.022797,-0.000259,0.989166,0.011698,-0.03095,0.002283,64.238068,23.46312,-148.242599,,,
729606953.778985,0.23149,1.797907,59.439392,-0.022797,-0.000259,0.989166,0.011698,-0.03095,0.002283,64.238068,23.46312,-148.242599,,,
729606953.782366,0.23149,1.797907,59.439392,-0.022797,-0.000259,0.989166,0.011698,-0.03095,0.002283,64.238068,23.46312,-148.242599,,,
729606953.785649,0.232225,1.791428,59.441398,-0.019745,-0.001892,0.993103,0.001312,-0.018495,0.006225,64.238068,23.46312,-148.242599,,,
729606953.788987,0.230747,1.792654,59.443041,-0.019745,-0.001892,0.993103,0.001312,-0.018495,0.006225,64.238068,23.46312,-148.242599,,,
729606953.792383,0.230747,1.792654,59.443041,-0.019745,-0.001892,0.993103,0.001312,-0.018495,0.006225,64.238068,23.46312,-148.242599,,,
729606953.795715,0.230725,1.789613,59.443472,-0.014664,-0.001862,0.997772,0.002526,-0.004262,-2.9e-05,64.238068,23.46312,-148.242599,,,
729606953.798989,0.229069,1.794292,59.442496,-0.014664,-0.001862,0.997772,0.002526,-0.004262,-2.9e-05,64.238068,23.46312,-148.242599,,,
729606953.802325,0.229069,1.794292,59.442496,-0.014664,-0.001862,0.997772,0.002526,-0.004262,-2.9e-05,64.238068,23.46312,-148.242599,,,
729606953.805664,0.228987,1.792773,59.440494,-0.013718,0.000702,0.999268,0.001857,-0.002652,-0.009376,64.238068,23.46312,-148.242599,,,
729606953.809072,0.226975,1.794969,59.437732,-0.013718,0.000702,0.999268,0.001857,-0.002652,-0.009376,64.195557,23.579269,-147.87616,,,
729606953.812297,0.226975,1.794969,59.437732,-0.013718,0.000702,0.999268,0.001857,-0.002652,-0.009376,64.195557,23.579269,-147.87616,,,
729606953.815667,0.226964,1.792735,59.434611,-0.019089,-0.003052,0.997864,0.003542,-0.001311,-0.013801,64.195557,23.579269,-147.87616,,,
729606953.81899,0.225603,1.792519,59.431197,-0.019089,-0.003052,0.997864,0.003542,-0.001311,-0.013801,64.195557,23.579269,-147.87616,,,
729606953.822372,0.225603,1.792519,59.431197,-0.019089,-0.003052,0.997864,0.003542,-0.001311,-0.013801,64.195557,23.579269,-147.87616,,,
729606953.825686,0.224921,1.788808,59.427824,-0.021912,-0.005585,0.991974,-0.000712,-0.00892,-0.01451,64.195557,23.579269,-147.87616,,,
729606953.828984,0.222199,1.785452,59.423925,-0.021912,-0.005585,0.991974,-0.000712,-0.00892,-0.01451,64.195557,23.579269,-147.87616,,,
729606953.832304,0.222199,1.785452,59.423925,-0.021912,-0.005585,0.991974,-0.000712,-0.00892,-0.01451,64.195557,23.579269,-147.87616,,,
729606953.835647,0.219981,1.777442,59.41903,-0.022552,-0.004593,0.986755,-0.00616,-0.025402,-0.020029,64.195557,23.579269,-147.87616,,,
729606953.83899,0.215615,1.765992,59.413392,-0.022552,-0.004593,0.986755,-0.00616,-0.025402,-0.020029,64.195557,23.579269,-147.87616,,,
729606953.842391,0.215615,1.765992,59.413392,-0.022552,-0.004593,0.986755,-0.00616,-0.025402,-0.020029,64.195557,23.579269,-147.87616,,,
729606953.845763,0.210053,1.754062,59.406478,-0.024475,-4.6e-05,0.985107,-0.017356,-0.041807,-0.026771,64.195557,23.579269,-147.87616,,,
729606953.849034,0.202489,1.737176,59.398839,-0.024475,-4.6e-05,0.985107,-0.017356,-0.041807,-0.026771,64.263367,23.374557,-147.748932,,,
729606953.85233,0.202489,1.737176,59.398839,-0.024475,-4.6e-05,0.985107,-0.017356,-0.041807,-0.026771,64.263367,23.374557,-147.748932,,,
729606953.855656,0.19587,1.721563,59.390602,-0.022949,-0.000946,0.992111,-0.020912,-0.052787,-0.031055,64.263367,23.374557,-147.748932,,,
729606953.859081,0.190374,1.700007,59.381829,-0.022949,-0.000946,0.992111,-0.020912,-0.052787,-0.031055,64.263367,23.374557,-147.748932,,,
729606953.862337,0.190374,1.700007,59.381829,-0.022949,-0.000946,0.992111,-0.020912,-0.052787,-0.031055,64.263367,23.374557,-147.748932,,,
729606953.865654,0.187634,1.678698,59.372806,-0.015579,-0.005676,1.00119,-0.009872,-0.072417,-0.032865,64.263367,23.374557,-147.748932,,,
729606953.868979,0.185718,1.650367,59.363307,-0.015579,-0.005676,1.00119,-0.009872,-0.072417,-0.032865,64.263367,23.374557,-147.748932,,,
729606953.872423,0.185718,1.650367,59.363307,-0.015579,-0.005676,1.00119,-0.009872,-0.072417,-0.032865,64.263367,23.374557,-147.748932,,,
729606953.875729,0.186504,1.626059,59.353171,-0.010956,-0.009766,1.003983,0.004487,-0.084857,-0.035687,64.263367,23.374557,-147.748932,,,
729606953.878977,0.187046,1.595683,59.342642,-0.010956,-0.009766,1.003983,0.004487,-0.084857,-0.035687,64.263367,23.374557,-147.748932,,,
729606953.88203,0.187046,1.595683,59.342642,-0.010956,-0.009766,1.003983,0.004487,-0.084857,-0.035687,64.263367,23.374557,-147.748932,,,
729606953.885777,0.187879,1.574499,59.331663,-0.005753,-0.00499,1.005402,0.003325,-0.072522,-0.039465,64.263367,23.374557,-147.748932,,,
729606953.889045,0.18821,1.552075,59.320254,-0.005753,-0.00499,1.005402,0.003325,-0.072522,-0.039465,64.023819,23.496185,-147.672516,,,
729606953.892375,0.18821,1.552075,59.320254,-0.005753,-0.00499,1.005402,0.003325,-0.072522,-0.039465,64.023819,23.496185,-147.672516,,,
729606953.895649,0.188925,1.539008,59.308192,0.002136,-0.001984,1.0047,0.003374,-0.039656,-0.045858,64.023819,23.496185,-147.672516,,,
729606953.898983,0.188388,1.528181,59.295423,0.002136,-0.001984,1.0047,0.003374,-0.039656,-0.045858,64.023819,23.496185,-147.672516,,,
729606953.902258,0.188388,1.528181,59.295423,0.002136,-0.001984,1.0047,0.003374,-0.039656,-0.045858,64.023819,23.496185,-147.672516,,,
