Time (sec),Pitch (deg),Roll (deg),Yaw(deg),X-Acceleration (g),Y-Acceleration (g),Z-Acceleration (g),Pitch Rate (deg/sec),Roll Rate (deg/sec),Yaw Rate (deg/sec),Magnetic Field in X direction (uT),Magnetic Field in Y direction (uT),Magnetic Field in Z Direction (uT),Latitude (deg),Longitude (deg),Altitude (m)
729608442.430315,1.728899,-0.074653,57.267453,0.005325,0.02597,1.010056,-0.050355,-0.02214,-0.029464,62.461868,22.032104,-148.004578,,,
729608442.433538,1.714967,-0.080678,57.258858,0.005325,0.02597,1.010056,-0.050355,-0.02214,-0.029464,62.461868,22.032104,-148.004578,,,
729608442.436948,1.704203,-0.086805,57.250245,0.01387,0.026276,1.016769,-0.03542,-0.010832,-0.033295,62.461868,22.032104,-148.004578,,,
729608442.440204,1.704203,-0.086805,57.250245,0.01387,0.026276,1.016769,-0.03542,-0.010832,-0.033295,62.461868,22.032104,-148.004578,,,
729608442.443565,1.693817,-0.090016,57.241178,0.01387,0.026276,1.016769,-0.03542,-0.010832,-0.033295,62.28331,22.096725,-147.733932,,,
729608442.44687,1.68652,-0.089799,57.231123,0.018021,0.026169,1.020706,-0.031243,0.014264,-0.035962,62.28331,22.096725,-147.733932,,,
729608442.450218,1.68652,-0.089799,57.231123,0.018021,0.026169,1.020706,-0.031243,0.014264,-0.035962,62.28331,22.096725,-147.733932,,,
729608442.453596,1.677262,-0.084683,57.220836,0.018021,0.026169,1.020706,-0.031243,0.014264,-0.035962,62.28331,22.096725,-147.733932,,,
729608442.456867,1.67042,-0.07389,57.210727,0.017853,0.022736,1.023438,-0.026928,0.045732,-0.037362,62.28331,22.096725,-147.733932,,,
729608442.460219,1.67042,-0.07389,57.210727,0.017853,0.022736,1.023438,-0.026928,0.045732,-0.037362,62.28331,22.096725,-147.733932,,,
729608442.463545,1.66172,-0.059586,57.199682,0.017853,0.022736,1.023438,-0.026928,0.045732,-0.037362,62.28331,22.096725,-147.733932,,,
729608442.46688,1.65436,-0.041582,57.187663,0.016922,0.026962,1.022308,-0.029766,0.067513,-0.044378,62.28331,22.096725,-147.733932,,,
729608442.47024,1.65436,-0.041582,57.187663,0.016922,0.026962,1.022308,-0.029766,0.067513,-0.044378,62.28331,22.096725,-147.733932,,,
729608442.473547,1.645152,-0.022471,57.174371,0.016922,0.026962,1.022308,-0.029766,0.067513,-0.044378,62.28331,22.096725,-147.733932,,,
729608442.47687,1.638557,-0.002356,57.159048,0.013367,0.032516,1.014908,-0.030644,0.069668,-0.059549,62.28331,22.096725,-147.733932,,,
729608442.480204,1.638557,-0.002356,57.159048,0.013367,0.032516,1.014908,-0.030644,0.069668,-0.059549,62.28331,22.096725,-147.733932,,,
729608442.483552,1.629352,0.016473,57.142266,0.013367,0.032516,1.014908,-0.030644,0.069668,-0.059549,62.618835,22.082123,-147.749344,,,
729608442.48665,1.621107,0.034007,57.124523,0.007751,0.032043,1.011566,-0.030052,0.050621,-0.067796,62.618835,22.082123,-147.749344,,,
729608442.490252,1.621107,0.034007,57.124523,0.007751,0.032043,1.011566,-0.030052,0.050621,-0.067796,62.618835,22.082123,-147.749344,,,
729608442.493547,1.612379,0.04684,57.106019,0.007751,0.032043,1.011566,-0.030052,0.050621,-0.067796,62.618835,22.082123,-147.749344,,,
729608442.496872,1.603022,0.055914,57.087857,0.000565,0.028183,1.006393,-0.025939,0.026141,-0.062457,62.618835,22.082123,-147.749344,,,
729608442.500202,1.603022,0.055914,57.087857,0.000565,0.028183,1.006393,-0.025939,0.026141,-0.062457,62.618835,22.082123,-147.749344,,,
729608442.503586,1.595235,0.061949,57.070736,0.000565,0.028183,1.006393,-0.025939,0.026141,-0.062457,62.618835,22.082123,-147.749344,,,
729608442.50688,1.587665,0.064147,57.054527,-0.00444,0.022797,1.004913,-0.01911,0.00847,-0.056774,62.618835,22.082123,-147.749344,,,
729608442.510216,1.587665,0.064147,57.054527,-0.00444,0.022797,1.004913,-0.01911,0.00847,-0.056774,62.618835,22.082123,-147.749344,,,
729608442.513559,1.582578,0.064931,57.039239,-0.00444,0.022797,1.004913,-0.01911,0.00847,-0.056774,62.618835,22.082123,-147.749344,,,
729608442.516869,1.579399,0.060102,57.025475,-0.010483,0.017838,1.010742,-0.001666,-0.009049,-0.048317,62.618835,22.082123,-147.749344,,,
729608442.520211,1.579399,0.060102,57.025475,-0.010483,0.017838,1.010742,-0.001666,-0.009049,-0.048317,62.618835,22.082123,-147.749344,,,
729608442.523538,1.579706,0.057136,57.012747,-0.010483,0.017838,1.010742,-0.001666,-0.009049,-0.048317,62.618835,22.082123,-147.749344,,,
729608442.526883,1.58302,0.048703,57.000586,-0.008575,0.017471,1.016754,0.021254,-0.009769,-0.044879,62.625458,22.20842,-147.689301,,,
729608442.53024,1.58302,0.048703,57.000586,-0.008575,0.017471,1.016754,0.021254,-0.009769,-0.044879,62.625458,22.20842,-147.689301,,,
729608442.533554,1.589496,0.045643,56.988476,-0.008575,0.017471,1.016754,0.021254,-0.009769,-0.044879,62.625458,22.20842,-147.689301,,,
729608442.536905,1.597106,0.038767,56.976268,-0.003815,0.021896,1.017212,0.0366,0.000451,-0.04591,62.625458,22.20842,-147.689301,,,
729608442.540209,1.597106,0.038767,56.976268,-0.003815,0.021896,1.017212,0.0366,0.000451,-0.04591,62.625458,22.20842,-147.689301,,,
729608442.544753,1.607604,0.039781,56.963528,-0.003815,0.021896,1.017212,0.0366,0.000451,-0.04591,62.625458,22.20842,-147.689301,,,
729608442.546729,1.61717,0.041044,56.950394,-0.001923,0.02771,1.014664,0.036762,0.033814,-0.046772,62.625458,22.20842,-147.689301,,,
729608442.550245,1.61717,0.041044,56.950394,-0.001923,0.02771,1.014664,0.036762,0.033814,-0.046772,62.625458,22.20842,-147.689301,,,
729608442.553646,1.626829,0.051257,56.936781,-0.001923,0.02771,1.014664,0.036762,0.033814,-0.046772,62.625458,22.20842,-147.689301,,,
729608442.556868,1.635775,0.061738,56.923491,-0.004593,0.033493,1.008881,0.027073,0.059388,-0.04503,62.625458,22.20842,-147.689301,,,
729608442.560244,1.635775,0.061738,56.923491,-0.004593,0.033493,1.008881,0.027073,0.059388,-0.04503,62.625458,22.20842,-147.689301,,,
729608442.563555,1.643077,0.07921,56.91043,-0.004593,0.033493,1.008881,0.027073,0.059388,-0.04503,62.625458,22.20842,-147.689301,,,
729608442.566875,1.649808,0.097669,56.89753,-0.008469,0.033707,1.001053,0.021088,0.082583,-0.046219,62.51857,21.948517,-147.636047,,,
729608442.570246,1.649808,0.097669,56.89753,-0.008469,0.033707,1.001053,0.021088,0.082583,-0.046219,62.51857,21.948517,-147.636047,,,
729608442.57355,1.654723,0.121142,56.883902,-0.008469,0.033707,1.001053,0.021088,0.082583,-0.046219,62.51857,21.948517,-147.636047,,,
729608442.576903,1.658564,0.144344,56.86983,-0.014404,0.034912,0.997406,0.009906,0.085982,-0.049353,62.51857,21.948517,-147.636047,,,
729608442.580275,1.658564,0.144344,56.86983,-0.014404,0.034912,0.997406,0.009906,0.085982,-0.049353,62.51857,21.948517,-147.636047,,,
729608442.58355,1.661635,0.168635,56.856049,-0.014404,0.034912,0.997406,0.009906,0.085982,-0.049353,62.51857,21.948517,-147.636047,,,
729608442.58688,1.664411,0.191958,56.842635,-0.021332,0.03096,0.990524,0.014495,0.075802,-0.045983,62.51857,21.948517,-147.636047,,,
729608442.59021,1.664411,0.191958,56.842635,-0.021332,0.03096,0.990524,0.014495,0.075802,-0.045983,62.51857,21.948517,-147.636047,,,
729608442.593541,1.668577,0.212614,56.830719,-0.021332,0.03096,0.990524,0.014495,0.075802,-0.045983,62.51857,21.948517,-147.636047,,,
729608442.596868,1.668577,0.231121,56.820524,-0.029968,0.02655,0.986618,0.021319,0.054951,-0.032852,62.51857,21.948517,-147.636047,,,
729608442.600225,1.670857,0.231121,56.820524,-0.029968,0.02655,0.986618,0.021319,0.054951,-0.032852,62.51857,21.948517,-147.636047,,,
729608442.603635,1.676924,0.24552,56.812124,-0.029968,0.02655,0.986618,0.021319,0.054951,-0.032852,62.51857,21.948517,-147.636047,,,
729608442.606855,1.680896,0.257908,56.806307,-0.038269,0.023209,0.984314,0.029193,0.030151,-0.011538,62.81517,22.035812,-147.664871,,,
729608442.610219,1.680896,0.257908,56.806307,-0.038269,0.023209,0.984314,0.029193,0.030151,-0.011538,62.81517,22.035812,-147.664871,,,
729608442.613627,1.68866,0.265427,56.803297,-0.038269,0.023209,0.984314,0.029193,0.030151,-0.011538,62.81517,22.035812,-147.664871,,,
729608442.616873,1.68866,0.265427,56.803297,-0.038269,0.023209,0.984314,0.031273,0.013405,0.00696,62.81517,22.035812,-147.664871,,,
729608442.620255,1.694221,0.270512,56.80321,-0.039459,0.019653,0.979568,0.031273,0.013405,0.00696,62.81517,22.035812,-147.664871,,,
729608442.623542,1.702814,0.272674,56.805916,-0.039459,0.019653,0.979568,0.031273,0.013405,0.00696,62.81517,22.035812,-147.664871,,,
729608442.626872,1.70964,0.273009,56.810606,-0.033569,0.023407,0.977356,0.026102,0.004868,0.016274,62.81517,22.035812,-147.664871,,,
729608442.630272,1.70964,0.273009,56.810606,-0.033569,0.023407,0.977356,0.026102,0.004868,0.016274,62.81517,22.035812,-147.664871,,,
729608442.633545,1.716705,0.272784,56.815985,-0.033569,0.023407,0.977356,0.026102,0.004868,0.016274,62.81517,22.035812,-147.664871,,,
729608442.636902,1.716705,0.272784,56.815985,-0.018097,0.036392,0.97554,0.014567,-0.005252,0.014473,62.81517,22.035812,-147.664871,,,
729608442.640246,1.722732,0.270835,56.821089,-0.018097,0.036392,0.97554,0.014567,-0.005252,0.014473,62.81517,22.035812,-147.664871,,,
729608442.643543,1.726486,0.268167,56.825618,-0.018097,0.036392,0.97554,0.014567,-0.005252,0.014473,62.81517,22.035812,-147.664871,,,
729608442.647008,1.726486,0.268167,56.825618,-0.005386,0.045044,0.976517,-0.002214,-0.012918,0.011466,62.81517,22.035812,-147.664871,,,
729608442.6502,1.729033,0.264676,56.829779,-0.005386,0.045044,0.976517,-0.002214,-0.012918,0.011466,62.707886,22.013748,-147.410767,,,
729608442.653593,1.727352,0.260143,56.833465,-0.005386,0.045044,0.976517,-0.002214,-0.012918,0.011466,62.707886,22.013748,-147.410767,,,
729608442.656882,1.727352,0.260143,56.833465,-0.005386,0.045044,0.976517,-0.002214,-0.012918,0.011466,62.707886,22.013748,-147.410767,,,
729608442.660217,1.723185,0.257263,56.836695,-0.000961,0.046173,0.977722,-0.026436,-0.016231,0.009117,62.707886,22.013748,-147.410767,,,
729608442.663574,1.715226,0.252358,56.839439,-0.000961,0.046173,0.977722,-0.026436,-0.016231,0.009117,62.707886,22.013748,-147.410767,,,
729608442.66691,1.715226,0.252358,56.839439,-0.000961,0.046173,0.977722,-0.038036,-0.014194,0.001721,62.707886,22.013748,-147.410767,,,
729608442.670215,1.706095,0.251803,56.841456,0.003601,0.046982,0.978958,-0.038036,-0.014194,0.001721,62.707886,22.013748,-147.410767,,,
729608442.673546,1.694659,0.246628,56.84288,0.003601,0.046982,0.978958,-0.038036,-0.014194,0.001721,62.707886,22.013748,-147.410767,,,
729608442.676919,1.694659,0.246628,56.84288,0.003601,0.046982,0.978958,-0.038036,-0.014194,0.001721,62.707886,22.013748,-147.410767,,,
729608442.680282,1.683,0.247481,56.842764,0.01091,0.048584,0.985855,-0.038295,-0.013039,-0.004719,62.707886,22.013748,-147.410767,,,
729608442.683529,1.672326,0.242931,56.841447,0.01091,0.048584,0.985855,-0.038295,-0.013039,-0.004719,62.707886,22.013748,-147.410767,,,
729608442.686918,1.672326,0.242931,56.841447,0.01091,0.048584,0.985855,-0.02756,-0.000488,-0.017662,62.707886,22.013748,-147.410767,,,
729608442.69021,1.661869,0.249532,56.837879,0.015549,0.045898,0.994034,-0.02756,-0.000488,-0.017662,62.886597,22.054565,-147.573486,,,
729608442.693572,1.654312,0.249305,56.832906,0.015549,0.045898,0.994034,-0.02756,-0.000488,-0.017662,62.886597,22.054565,-147.573486,,,
729608442.696921,1.654312,0.249305,56.832906,0.015549,0.045898,0.994034,-0.02756,-0.000488,-0.017662,62.886597,22.054565,-147.573486,,,
729608442.700223,1.645631,0.260965,56.827342,0.011658,0.041306,0.998199,-0.021553,0.015199,-0.019842,62.886597,22.054565,-147.573486,,,
729608442.703582,1.639703,0.264876,56.822012,0.011658,0.041306,0.998199,-0.021553,0.015199,-0.019842,62.886597,22.054565,-147.573486,,,
729608442.706913,1.639703,0.264876,56.822012,0.011658,0.041306,0.998199,-0.018177,0.02945,-0.014847,62.886597,22.054565,-147.573486,,,
729608442.710222,1.632706,0.279876,56.816601,0.006851,0.033844,0.999496,-0.018177,0.02945,-0.014847,62.886597,22.054565,-147.573486,,,
729608442.713546,1.626906,0.287653,56.812288,0.006851,0.033844,0.999496,-0.018177,0.02945,-0.014847,62.886597,22.054565,-147.573486,,,
729608442.716936,1.626906,0.287653,56.812288,0.006851,0.033844,0.999496,-0.018177,0.02945,-0.014847,62.886597,22.054565,-147.573486,,,
729608442.720272,1.621782,0.300366,56.808331,-0.000381,0.032196,0.998108,-0.018449,0.02832,-0.013733,62.886597,22.054565,-147.573486,,,
729608442.72354,1.616689,0.307903,56.804387,-0.000381,0.032196,0.998108,-0.018449,0.02832,-0.013733,62.886597,22.054565,-147.573486,,,
729608442.726882,1.616689,0.307903,56.804387,-0.000381,0.032196,0.998108,-0.018449,0.02832,-0.013733,62.886597,22.054565,-147.573486,,,
729608442.730225,1.615628,0.315588,56.799923,-0.00592,0.034378,1.000809,-0.015172,0.023601,-0.018644,62.7901,22.064255,-147.965469,,,
729608442.733542,1.611529,0.321051,56.794392,-0.00592,0.034378,1.000809,-0.015172,0.023601,-0.018644,62.7901,22.064255,-147.965469,,,
729608442.736944,1.611529,0.321051,56.794392,-0.00592,0.034378,1.000809,-0.015172,0.023601,-0.018644,62.7901,22.064255,-147.965469,,,
729608442.7402,1.611963,0.324367,56.787983,-0.007004,0.035233,1.007172,-0.009397,0.013214,-0.023096,62.7901,22.064255,-147.965469,,,
729608442.743545,1.608569,0.327238,56.781591,-0.007004,0.035233,1.007172,-0.009397,0.013214,-0.023096,62.7901,22.064255,-147.965469,,,
729608442.746995,1.608569,0.327238,56.781591,-0.007004,0.035233,1.007172,-0.009397,0.013214,-0.023096,62.7901,22.064255,-147.965469,,,
729608442.750204,1.610573,0.327606,56.775602,-0.010864,0.032059,1.008987,-0.009109,0.005845,-0.021954,62.7901,22.064255,-147.965469,,,
729608442.753544,1.60823,0.32898,56.769819,-0.010864,0.032059,1.008987,-0.009109,0.005845,-0.021954,62.7901,22.064255,-147.965469,,,
729608442.756935,1.60823,0.32898,56.769819,-0.010864,0.032059,1.008987,-0.009109,0.005845,-0.021954,62.7901,22.064255,-147.965469,,,
729608442.760276,1.611828,0.325818,56.764012,-0.013153,0.029373,1.011398,-0.005459,0.004065,-0.021521,62.7901,22.064255,-147.965469,,,
729608442.763539,1.610702,0.326278,56.758516,-0.013153,0.029373,1.011398,-0.005459,0.004065,-0.021521,62.7901,22.064255,-147.965469,,,
729608442.766935,1.610702,0.326278,56.758516,-0.013153,0.029373,1.011398,-0.005459,0.004065,-0.021521,62.7901,22.064255,-147.965469,,,
729608442.770205,1.616721,0.320103,56.753822,-0.009979,0.026672,1.012558,0.00911,0.000857,-0.019601,62.888199,22.122284,-147.682236,,,
729608442.773551,1.61963,0.318875,56.74926,-0.009979,0.026672,1.012558,0.00911,0.000857,-0.019601,62.888199,22.122284,-147.682236,,,
729608442.776878,1.61963,0.318875,56.74926,-0.009979,0.026672,1.012558,0.00911,0.000857,-0.019601,62.888199,22.122284,-147.682236,,,
729608442.780232,1.627345,0.312465,56.744866,-0.008163,0.023254,1.012833,0.018526,-0.001719,-0.015175,62.888199,22.122284,-147.682236,,,
729608442.78354,1.63188,0.312145,56.740532,-0.008163,0.023254,1.012833,0.018526,-0.001719,-0.015175,62.888199,22.122284,-147.682236,,,
729608442.787009,1.63188,0.312145,56.740532,-0.008163,0.023254,1.012833,0.018526,-0.001719,-0.015175,62.888199,22.122284,-147.682236,,,
729608442.790231,1.639146,0.308494,56.736968,-0.008331,0.022568,1.011765,0.020248,0.003006,-0.011432,62.888199,22.122284,-147.682236,,,
729608442.793541,1.644527,0.30869,56.733925,-0.008331,0.022568,1.011765,0.020248,0.003006,-0.011432,62.888199,22.122284,-147.682236,,,
729608442.796884,1.644527,0.30869,56.733925,-0.008331,0.022568,1.011765,0.020248,0.003006,-0.011432,62.888199,22.122284,-147.682236,,,
729608442.800296,1.650621,0.306401,56.731605,-0.011017,0.024979,1.008728,0.01831,0.000617,-0.006226,62.888199,22.122284,-147.682236,,,
729608442.803538,1.655587,0.306163,56.730586,-0.011017,0.024979,1.008728,0.01831,0.000617,-0.006226,62.888199,22.122284,-147.682236,,,
729608442.806913,1.655587,0.306163,56.730586,-0.011017,0.024979,1.008728,0.01831,0.000617,-0.006226,62.888199,22.122284,-147.682236,,,
729608442.810238,1.662044,0.30646,56.731426,-0.010757,0.022415,1.007294,0.017688,0.008921,0.005511,62.888199,22.122284,-147.682236,,,
729608442.813533,1.667713,0.308052,56.733501,-0.010757,0.022415,1.007294,0.017688,0.008921,0.005511,62.965195,21.903,-147.544785,,,
729608442.816884,1.667713,0.308052,56.733501,-0.010757,0.022415,1.007294,0.017688,0.008921,0.005511,62.965195,21.903,-147.544785,,,
729608442.820222,1.674707,0.311001,56.737067,-0.005707,0.025024,1.00676,0.018672,0.014671,0.01321,62.965195,21.903,-147.544785,,,
729608442.823552,1.679797,0.313561,56.741721,-0.005707,0.025024,1.00676,0.018672,0.014671,0.01321,62.965195,21.903,-147.544785,,,
729608442.82696,1.679797,0.313561,56.741721,-0.005707,0.025024,1.00676,0.018672,0.014671,0.01321,62.965195,21.903,-147.544785,,,
729608442.830218,1.685196,0.316846,56.746402,0.002228,0.031219,1.002304,0.010874,0.011305,0.012094,62.965195,21.903,-147.544785,,,
729608442.83354,1.687695,0.319271,56.750694,0.002228,0.031219,1.002304,0.010874,0.011305,0.012094,62.965195,21.903,-147.544785,,,
729608442.836869,1.687695,0.319271,56.750694,0.002228,0.031219,1.002304,0.010874,0.011305,0.012094,62.965195,21.903,-147.544785,,,
729608442.840278,1.687929,0.324825,56.753952,0.007416,0.036377,0.995056,-0.003736,0.018645,0.008544,62.965195,21.903,-147.544785,,,
729608442.843526,1.685722,0.329292,56.756791,0.007416,0.036377,0.995056,-0.003736,0.018645,0.008544,62.965195,21.903,-147.544785,,,
729608442.846888,1.685722,0.329292,56.756791,0.007416,0.036377,0.995056,-0.003736,0.018645,0.008544,62.965195,21.903,-147.544785,,,
729608442.850213,1.681509,0.334644,56.759235,0.01004,0.039154,0.991791,-0.01304,0.012862,0.004711,62.965195,21.903,-147.544785,,,
729608442.853533,1.677782,0.336012,56.760923,0.01004,0.039154,0.991791,-0.01304,0.012862,0.004711,63.016769,21.932358,-147.460358,,,
729608442.856873,1.677782,0.336012,56.760923,0.01004,0.039154,0.991791,-0.01304,0.012862,0.004711,63.016769,21.932358,-147.460358,,,
729608442.860234,1.673181,0.335653,56.761551,0.009659,0.03981,0.990204,-0.010856,-0.007868,-0.003939,63.016769,21.932358,-147.460358,,,
729608442.863538,1.669506,0.332251,56.760982,0.009659,0.03981,0.990204,-0.010856,-0.007868,-0.003939,63.016769,21.932358,-147.460358,,,
729608442.866957,1.669506,0.332251,56.760982,0.009659,0.03981,0.990204,-0.010856,-0.007868,-0.003939,63.016769,21.932358,-147.460358,,,
729608442.870215,1.663343,0.327749,56.76008,0.004486,0.033661,0.992538,-0.016935,-0.015095,-0.005445,63.016769,21.932358,-147.460358,,,
729608442.873541,1.65833,0.321353,56.759015,0.004486,0.033661,0.992538,-0.016935,-0.015095,-0.005445,63.016769,21.932358,-147.460358,,,
729608442.876885,1.65833,0.321353,56.759015,0.004486,0.033661,0.992538,-0.016935,-0.015095,-0.005445,63.016769,21.932358,-147.460358,,,
729608442.880294,1.651502,0.315199,56.758753,-0.00238,0.028687,0.996918,-0.019628,-0.025003,0.003287,63.016769,21.932358,-147.460358,,,
729608442.883533,1.645922,0.306685,56.760728,-0.00238,0.028687,0.996918,-0.019628,-0.025003,0.003287,63.016769,21.932358,-147.460358,,,
729608442.88689,1.645922,0.306685,56.760728,-0.00238,0.028687,0.996918,-0.019628,-0.025003,0.003287,63.016769,21.932358,-147.460358,,,
729608442.890294,1.639152,0.29949,56.763605,-0.003784,0.025497,0.997955,-0.015062,-0.026967,0.009022,63.016769,21.932358,-147.460358,,,
729608442.893537,1.634304,0.290842,56.765838,-0.003784,0.025497,0.997955,-0.015062,-0.026967,0.009022,62.909607,21.96199,-147.542557,,,
729608442.896902,1.634304,0.290842,56.765838,-0.003784,0.025497,0.997955,-0.015062,-0.026967,0.009022,62.909607,21.96199,-147.542557,,,
729608442.900218,1.628747,0.283492,56.766249,-0.000336,0.031067,1.00293,-0.009581,-0.025437,-0.006283,62.909607,21.96199,-147.542557,,,
729608442.903542,1.62552,0.275732,56.764317,-0.000336,0.031067,1.00293,-0.009581,-0.025437,-0.006283,62.909607,21.96199,-147.542557,,,
729608442.906872,1.62552,0.275732,56.764317,-0.000336,0.031067,1.00293,-0.009581,-0.025437,-0.006283,62.909607,21.96199,-147.542557,,,
729608442.910245,1.62249,0.267424,56.75967,0.004913,0.036896,1.000198,-0.010562,-0.018616,-0.023006,62.909607,21.96199,-147.542557,,,
729608442.913536,1.61955,0.262347,56.752831,0.004913,0.036896,1.000198,-0.010562,-0.018616,-0.023006,62.909607,21.96199,-147.542557,,,
729608442.916922,1.61955,0.262347,56.752831,0.004913,0.036896,1.000198,-0.010562,-0.018616,-0.023006,62.909607,21.96199,-147.542557,,,
729608442.920283,1.619168,0.257895,56.744793,0.00618,0.03595,0.999741,-0.005185,0.002756,-0.033134,62.909607,21.96199,-147.542557,,,
729608442.923552,1.617341,0.258886,56.736501,0.00618,0.03595,0.999741,-0.005185,0.002756,-0.033134,62.909607,21.96199,-147.542557,,,
729608442.926905,1.617341,0.258886,56.736501,0.00618,0.03595,0.999741,-0.005185,0.002756,-0.033134,62.909607,21.96199,-147.542557,,,
729608442.93028,1.617645,0.258272,56.72893,0.000961,0.02887,0.999969,-0.005895,0.018999,-0.02639,62.909607,21.96199,-147.542557,,,
729608442.933541,1.615112,0.2624,56.721988,0.000961,0.02887,0.999969,-0.005895,0.018999,-0.02639,62.976074,22.108566,-147.376099,,,
729608442.936895,1.615112,0.2624,56.721988,0.000961,0.02887,0.999969,-0.005895,0.018999,-0.02639,62.976074,22.108566,-147.376099,,,
729608442.940228,1.615836,0.261875,56.715749,-0.008255,0.022369,0.993347,-0.005442,0.01454,-0.019336,62.976074,22.108566,-147.376099,,,
729608442.943542,1.613681,0.264571,56.710486,-0.008255,0.022369,0.993347,-0.005442,0.01454,-0.019336,62.976074,22.108566,-147.376099,,,
729608442.946905,1.613681,0.264571,56.710486,-0.008255,0.022369,0.993347,-0.005442,0.01454,-0.019336,62.976074,22.108566,-147.376099,,,
729608442.950226,1.613664,0.263064,56.706634,-0.013092,0.022064,0.992035,-0.008832,0.008167,-0.012144,62.976074,22.108566,-147.376099,,,
729608442.953537,1.611225,0.263658,56.704145,-0.013092,0.022064,0.992035,-0.008832,0.008167,-0.012144,62.976074,22.108566,-147.376099,,,
729608442.956873,1.611225,0.263658,56.704145,-0.013092,0.022064,0.992035,-0.008832,0.008167,-0.012144,62.976074,22.108566,-147.376099,,,
729608442.960224,1.609286,0.260952,56.70372,-0.013931,0.023575,0.99437,-0.010474,-0.005489,0.00136,62.976074,22.108566,-147.376099,,,
729608442.963539,1.606161,0.257612,56.705045,-0.013931,0.023575,0.99437,-0.010474,-0.005489,0.00136,62.976074,22.108566,-147.376099,,,
729608442.966939,1.606161,0.257612,56.705045,-0.013931,0.023575,0.99437,-0.010474,-0.005489,0.00136,62.976074,22.108566,-147.376099,,,
729608442.970227,1.601113,0.253092,56.708328,-0.016953,0.021652,0.993134,-0.015135,-0.01377,0.013962,62.976074,22.108566,-147.376099,,,
729608442.973541,1.596312,0.24779,56.713505,-0.016953,0.021652,0.993134,-0.015135,-0.01377,0.013962,62.976074,22.108566,-147.376099,,,
729608442.976901,1.596312,0.24779,56.713505,-0.016953,0.021652,0.993134,-0.015135,-0.01377,0.013962,63.084686,22.167084,-147.597885,,,
729608442.980276,1.591384,0.241213,56.720145,-0.016083,0.020935,0.997528,-0.018427,-0.021257,0.023747,63.084686,22.167084,-147.597885,,,
729608442.983529,1.586237,0.234402,56.727714,-0.016083,0.020935,0.997528,-0.018427,-0.021257,0.023747,63.084686,22.167084,-147.597885,,,
729608442.986891,1.586237,0.234402,56.727714,-0.016083,0.020935,0.997528,-0.018427,-0.021257,0.023747,63.084686,22.167084,-147.597885,,,
729608442.990239,1.584031,0.224081,56.735629,-0.008011,0.025589,0.998749,-0.012971,-0.028115,0.024856,63.084686,22.167084,-147.597885,,,
729608442.993532,1.580764,0.215195,56.743545,-0.008011,0.025589,0.998749,-0.012971,-0.028115,0.024856,63.084686,22.167084,-147.597885,,,
729608442.996893,1.580764,0.215195,56.743545,-0.008011,0.025589,0.998749,-0.012971,-0.028115,0.024856,63.084686,22.167084,-147.597885,,,
729608443.000227,1.581582,0.202789,56.751949,-0.004929,0.027664,1.008545,4.9e-05,-0.033055,0.027307,63.084686,22.167084,-147.597885,,,
729608443.00353,1.581359,0.19206,56.76,-0.004929,0.027664,1.008545,4.9e-05,-0.033055,0.027307,63.084686,22.167084,-147.597885,,,
729608443.006871,1.581359,0.19206,56.76,-0.004929,0.027664,1.008545,4.9e-05,-0.033055,0.027307,63.084686,22.167084,-147.597885,,,
729608443.010222,1.58294,0.178613,56.767251,-0.001816,0.028427,1.014526,0.001652,-0.036898,0.020006,63.084686,22.167084,-147.597885,,,
729608443.013533,1.583327,0.166592,56.772802,-0.001816,0.028427,1.014526,0.001652,-0.036898,0.020006,63.084686,22.167084,-147.597885,,,
729608443.016882,1.583327,0.166592,56.772802,-0.001816,0.028427,1.014526,0.001652,-0.036898,0.020006,62.693619,22.200912,-147.527023,,,
729608443.020212,1.582135,0.15423,56.775754,0.006729,0.037949,1.009201,0.000276,-0.04488,0.001933,62.693619,22.200912,-147.527023,,,
729608443.023542,1.580722,0.140006,56.775788,0.006729,0.037949,1.009201,0.000276,-0.04488,0.001933,62.693619,22.200912,-147.527023,,,
729608443.026878,1.580722,0.140006,56.775788,0.006729,0.037949,1.009201,0.000276,-0.04488,0.001933,62.693619,22.200912,-147.527023,,,
729608443.030274,1.577109,0.127942,56.772395,0.011642,0.044434,1.007584,-0.008215,-0.050909,-0.017937,62.693619,22.200912,-147.527023,,,
729608443.033532,1.574854,0.113296,56.767418,0.011642,0.044434,1.007584,-0.008215,-0.050909,-0.017937,62.693619,22.200912,-147.527023,,,
729608443.036865,1.574854,0.113296,56.767418,0.011642,0.044434,1.007584,-0.008215,-0.050909,-0.017937,62.693619,22.200912,-147.527023,,,
729608443.040206,1.570093,0.102844,56.762327,0.006042,0.039795,1.007858,-0.017504,-0.04096,-0.016384,62.693619,22.200912,-147.527023,,,
729608443.043534,1.564631,0.091272,56.758159,0.006042,0.039795,1.007858,-0.017504,-0.04096,-0.016384,62.693619,22.200912,-147.527023,,,
729608443.046898,1.564631,0.091272,56.758159,0.006042,0.039795,1.007858,-0.017504,-0.04096,-0.016384,62.693619,22.200912,-147.527023,,,
729608443.050222,1.557149,0.086532,56.755694,0.000473,0.027252,1.00621,-0.021822,-0.019089,-0.003613,62.693619,22.200912,-147.527023,,,
729608443.053541,1.551365,0.080266,56.755613,0.000473,0.027252,1.00621,-0.021822,-0.019089,-0.003613,62.693619,22.200912,-147.527023,,,
729608443.056962,1.551365,0.080266,56.755613,0.000473,0.027252,1.00621,-0.021822,-0.019089,-0.003613,62.717407,22.135773,-147.625793,,,
729608443.060218,1.544671,0.080215,56.757547,-0.003052,0.020615,1.009567,-0.014656,-0.004941,0.008822,62.717407,22.135773,-147.625793,,,
729608443.063543,1.541825,0.077608,56.760882,-0.003052,0.020615,1.009567,-0.014656,-0.004941,0.008822,62.717407,22.135773,-147.625793,,,
729608443.066945,1.541825,0.077608,56.760882,-0.003052,0.020615,1.009567,-0.014656,-0.004941,0.008822,62.717407,22.135773,-147.625793,,,
729608443.070208,1.541117,0.078356,56.765102,-0.004852,0.018036,1.014847,0.00938,-0.002641,0.015468,62.717407,22.135773,-147.625793,,,
729608443.073559,1.543631,0.076464,56.770179,-0.004852,0.018036,1.014847,0.00938,-0.002641,0.015468,62.717407,22.135773,-147.625793,,,
729608443.076892,1.543631,0.076464,56.770179,-0.004852,0.018036,1.014847,0.00938,-0.002641,0.015468,62.717407,22.135773,-147.625793,,,
729608443.080241,1.548868,0.074036,56.775228,-0.008575,0.021301,1.012344,0.021598,-0.012179,0.015077,62.717407,22.135773,-147.625793,,,
729608443.083534,1.555509,0.068447,56.779776,-0.008575,0.021301,1.012344,0.021598,-0.012179,0.015077,62.717407,22.135773,-147.625793,,,
729608443.086875,1.555509,0.068447,56.779776,-0.008575,0.021301,1.012344,0.021598,-0.012179,0.015077,62.717407,22.135773,-147.625793,,,
729608443.090235,1.562948,0.062074,56.783399,-0.008301,0.026443,1.002838,0.027688,-0.029673,0.007624,62.717407,22.135773,-147.625793,,,
729608443.093532,1.571813,0.052238,56.785832,-0.008301,0.026443,1.002838,0.027688,-0.029673,0.007624,62.717407,22.135773,-147.625793,,,
729608443.096869,1.571813,0.052238,56.785832,-0.008301,0.026443,1.002838,0.027688,-0.029673,0.007624,62.665527,22.046005,-147.753754,,,
729608443.100224,1.583463,0.039047,56.786998,-0.000534,0.031326,0.999802,0.036894,-0.045652,0.000896,62.665527,22.046005,-147.753754,,,
729608443.103536,1.594285,0.024909,56.786672,-0.000534,0.031326,0.999802,0.036894,-0.045652,0.000896,62.665527,22.046005,-147.753754,,,
729608443.106871,1.594285,0.024909,56.786672,-0.000534,0.031326,0.999802,0.036894,-0.045652,0.000896,62.665527,22.046005,-147.753754,,,
729608443.11022,1.60924,0.006141,56.785188,0.00769,0.037903,0.993958,0.036106,-0.052034,-0.010078,62.665527,22.046005,-147.753754,,,
729608443.113538,1.619948,-0.009232,56.78228,0.00769,0.037903,0.993958,0.036106,-0.052034,-0.010078,62.665527,22.046005,-147.753754,,,
729608443.116943,1.619948,-0.009232,56.78228,0.00769,0.037903,0.993958,0.036106,-0.052034,-0.010078,62.665527,22.046005,-147.753754,,,
729608443.120229,1.632809,-0.025735,56.778149,0.012024,0.039047,0.989334,0.026778,-0.04245,-0.019462,62.665527,22.046005,-147.753754,,,
729608443.123534,1.639683,-0.037961,56.772876,0.012024,0.039047,0.989334,0.026778,-0.04245,-0.019462,62.665527,22.046005,-147.753754,,,
729608443.126635,1.639683,-0.037961,56.772876,0.012024,0.039047,0.989334,0.026778,-0.04245,-0.019462,62.665527,22.046005,-147.753754,,,
729608443.130322,1.645829,-0.048065,56.767037,0.01683,0.03717,0.983444,0.019128,-0.024926,-0.023539,62.665527,22.046005,-147.753754,,,
729608443.133558,1.650313,-0.055679,56.761723,0.01683,0.03717,0.983444,0.019128,-0.024926,-0.023539,62.665527,22.046005,-147.753754,,,
729608443.136872,1.650313,-0.055679,56.761723,0.01683,0.03717,0.983444,0.019128,-0.024926,-0.023539,62.665527,22.046005,-147.753754,,,
729608443.140226,1.652549,-0.060184,56.75718,0.015671,0.03508,0.983185,0.013586,-0.007943,-0.014442,62.657272,22.083038,-147.714157,,,
729608443.14354,1.656532,-0.062877,56.753658,0.015671,0.03508,0.983185,0.013586,-0.007943,-0.014442,62.657272,22.083038,-147.714157,,,
729608443.146885,1.656532,-0.062877,56.753658,0.015671,0.03508,0.983185,0.013586,-0.007943,-0.014442,62.657272,22.083038,-147.714157,,,
729608443.150236,1.657868,-0.062108,56.751163,0.008667,0.030914,0.984024,0.013912,0.004772,-0.008417,62.657272,22.083038,-147.714157,,,
729608443.153538,1.662092,-0.061943,56.749425,0.008667,0.030914,0.984024,0.013912,0.004772,-0.008417,62.657272,22.083038,-147.714157,,,
729608443.156871,1.662092,-0.061943,56.749425,0.008667,0.030914,0.984024,0.013912,0.004772,-0.008417,62.657272,22.083038,-147.714157,,,
729608443.160244,1.664243,-0.059013,56.74748,0.002716,0.032516,0.981125,0.016931,0.010302,-0.009256,62.657272,22.083038,-147.714157,,,
729608443.163538,1.668995,-0.056547,56.744819,0.002716,0.032516,0.981125,0.016931,0.010302,-0.009256,62.657272,22.083038,-147.714157,,,
729608443.166946,1.668995,-0.056547,56.744819,0.002716,0.032516,0.981125,0.016931,0.010302,-0.009256,62.657272,22.083038,-147.714157,,,
729608443.170247,1.672388,-0.050445,56.741837,-0.003708,0.034668,0.985825,0.015461,0.015436,-0.009871,62.657272,22.083038,-147.714157,,,
729608443.173537,1.676689,-0.046962,56.739565,-0.003708,0.034668,0.985825,0.015461,0.015436,-0.009871,62.657272,22.083038,-147.714157,,,
729608443.176883,1.676689,-0.046962,56.739565,-0.003708,0.034668,0.985825,0.015461,0.015436,-0.009871,62.657272,22.083038,-147.714157,,,
729608443.180294,1.680479,-0.04264,56.73829,-0.008392,0.032394,0.986847,0.010194,0.011458,-0.002784,62.637497,21.911804,-147.749344,,,
729608443.183534,1.682493,-0.040196,56.737764,-0.008392,0.032394,0.986847,0.010194,0.011458,-0.002784,62.637497,21.911804,-147.749344,,,
729608443.186885,1.682493,-0.040196,56.737764,-0.008392,0.032394,0.986847,0.010194,0.011458,-0.002784,62.637497,21.911804,-147.749344,,,
729608443.190236,1.683931,-0.039875,56.738183,-0.015137,0.028671,0.982147,-0.003459,0.005991,0.002228,62.637497,21.911804,-147.749344,,,
729608443.193541,1.681787,-0.039694,56.738889,-0.015137,0.028671,0.982147,-0.003459,0.005991,0.002228,62.637497,21.911804,-147.749344,,,
729608443.196892,1.681787,-0.039694,56.738889,-0.015137,0.028671,0.982147,-0.003459,0.005991,0.002228,62.637497,21.911804,-147.749344,,,
729608443.200223,1.68048,-0.043277,56.7392,-0.010773,0.030502,0.982056,-0.018421,-0.003062,-0.00137,62.637497,21.911804,-147.749344,,,
729608443.203532,1.674791,-0.045533,56.73896,-0.010773,0.030502,0.982056,-0.018421,-0.003062,-0.00137,62.637497,21.911804,-147.749344,,,
729608443.206872,1.674791,-0.045533,56.73896,-0.010773,0.030502,0.982056,-0.018421,-0.003062,-0.00137,62.637497,21.911804,-147.749344,,,
729608443.210232,1.67077,-0.052437,56.738415,-0.009598,0.031189,0.983337,-0.021913,-0.007016,-0.004724,62.637497,21.911804,-147.749344,,,
729608443.213537,1.664351,-0.055679,56.738243,-0.009598,0.031189,0.983337,-0.021913,-0.007016,-0.004724,62.637497,21.911804,-147.749344,,,
729608443.216949,1.664351,-0.055679,56.738243,-0.009598,0.031189,0.983337,-0.021913,-0.007016,-0.004724,62.637497,21.911804,-147.749344,,,
729608443.220195,1.66024,-0.062958,56.739105,-0.012894,0.02858,0.990387,-0.02189,-0.004626,0.005863,62.59668,21.989548,-147.484222,,,
729608443.22354,1.654599,-0.065225,56.741268,-0.012894,0.02858,0.990387,-0.02189,-0.004626,0.005863,62.59668,21.989548,-147.484222,,,
729608443.226887,1.654599,-0.065225,56.741268,-0.012894,0.02858,0.990387,-0.02189,-0.004626,0.005863,62.59668,21.989548,-147.484222,,,
729608443.230286,1.650276,-0.06934,56.745156,-0.014359,0.023407,0.993225,-0.015496,0.002043,0.014916,62.59668,21.989548,-147.484222,,,
729608443.233533,1.645234,-0.068808,56.749937,-0.014359,0.023407,0.993225,-0.015496,0.002043,0.014916,62.59668,21.989548,-147.484222,,,
729608443.236888,1.645234,-0.068808,56.749937,-0.014359,0.023407,0.993225,-0.015496,0.002043,0.014916,62.59668,21.989548,-147.484222,,,
729608443.240251,1.641239,-0.068204,56.755994,-0.014709,0.027344,0.997238,-0.013533,0.01411,0.02449,62.59668,21.989548,-147.484222,,,
729608443.243578,1.635864,-0.065198,56.763316,-0.014709,0.027344,0.997238,-0.013533,0.01411,0.02449,62.59668,21.989548,-147.484222,,,
729608443.246879,1.635864,-0.065198,56.763316,-0.014709,0.027344,0.997238,-0.013533,0.01411,0.02449,62.59668,21.989548,-147.484222,,,
729608443.250229,1.631938,-0.060174,56.771818,-0.01535,0.030243,0.997162,-0.015727,0.02357,0.0303,62.59668,21.989548,-147.484222,,,
729608443.253538,1.62648,-0.05394,56.781404,-0.01535,0.030243,0.997162,-0.015727,0.02357,0.0303,62.59668,21.989548,-147.484222,,,
729608443.256876,1.62648,-0.05394,56.781404,-0.01535,0.030243,0.997162,-0.015727,0.02357,0.0303,62.59668,21.989548,-147.484222,,,
729608443.260206,1.62037,-0.043102,56.791221,-0.01091,0.03093,1.002502,-0.028735,0.042244,0.031026,62.63118,22.069427,-148.021988,,,
729608443.263475,1.611311,-0.031339,56.800682,-0.01091,0.03093,1.002502,-0.028735,0.042244,0.031026,62.63118,22.069427,-148.021988,,,
729608443.266949,1.611311,-0.031339,56.800682,-0.01091,0.03093,1.002502,-0.028735,0.042244,0.031026,62.63118,22.069427,-148.021988,,,
729608443.27021,1.60206,-0.013884,56.810086,-0.004715,0.033371,1.005646,-0.035525,0.059527,0.033357,62.63118,22.069427,-148.021988,,,
729608443.273558,1.591625,0.002365,56.820046,-0.004715,0.033371,1.005646,-0.035525,0.059527,0.033357,62.63118,22.069427,-148.021988,,,
729608443.276882,1.591625,0.002365,56.820046,-0.004715,0.033371,1.005646,-0.035525,0.059527,0.033357,62.63118,22.069427,-148.021988,,,
729608443.280224,1.580908,0.024229,56.830632,-0.004868,0.031418,1.011917,-0.039874,0.069181,0.037416,62.63118,22.069427,-148.021988,,,
729608443.283592,1.570103,0.043474,56.842797,-0.004868,0.031418,1.011917,-0.039874,0.069181,0.037416,62.63118,22.069427,-148.021988,,,
729608443.286899,1.570103,0.043474,56.842797,-0.004868,0.031418,1.011917,-0.039874,0.069181,0.037416,62.63118,22.069427,-148.021988,,,
729608443.290211,1.562038,0.065931,56.856664,-0.009232,0.023788,1.016739,-0.027619,0.072111,0.050301,62.63118,22.069427,-148.021988,,,
729608443.293539,1.553987,0.084934,56.871892,-0.009232,0.023788,1.016739,-0.027619,0.072111,0.050301,62.63118,22.069427,-148.021988,,,
729608443.296893,1.553987,0.084934,56.871892,-0.009232,0.023788,1.016739,-0.027619,0.072111,0.050301,62.63118,22.069427,-148.021988,,,
729608443.30022,1.54892,0.104091,56.888246,-0.009903,0.022278,1.015411,-0.013514,0.054118,0.057184,62.63118,22.069427,-148.021988,,,
729608443.303534,1.545506,0.116889,56.905178,-0.009903,0.022278,1.015411,-0.013514,0.054118,0.057184,62.9039,22.051483,-147.86438,,,
729608443.306921,1.545506,0.116889,56.905178,-0.009903,0.022278,1.015411,-0.013514,0.054118,0.057184,62.9039,22.051483,-147.86438,,,
729608443.310217,1.543397,0.12947,56.921501,-0.010056,0.027023,1.010971,-0.004308,0.027715,0.056259,62.9039,22.051483,-147.86438,,,
729608443.313537,1.542229,0.1355,56.937347,-0.010056,0.027023,1.010971,-0.004308,0.027715,0.056259,62.9039,22.051483,-147.86438,,,
729608443.316878,1.542229,0.1355,56.937347,-0.010056,0.027023,1.010971,-0.004308,0.027715,0.056259,62.9039,22.051483,-147.86438,,,
729608443.320302,1.539117,0.14161,56.953074,-0.01384,0.033936,1.000885,-0.014304,0.00578,0.056074,62.9039,22.051483,-147.86438,,,
729608443.323528,1.533784,0.141128,56.970013,-0.01384,0.033936,1.000885,-0.014304,0.00578,0.056074,62.9039,22.051483,-147.86438,,,
729608443.326882,1.533784,0.141128,56.970013,-0.01384,0.033936,1.000885,-0.014304,0.00578,0.056074,62.9039,22.051483,-147.86438,,,
729608443.330224,1.525711,0.140618,56.98851,-0.011322,0.03421,0.985306,-0.040901,-0.017816,0.067875,62.9039,22.051483,-147.86438,,,
729608443.333534,1.512598,0.132752,57.008714,-0.011322,0.03421,0.985306,-0.040901,-0.017816,0.067875,62.9039,22.051483,-147.86438,,,
729608443.336876,1.512598,0.132752,57.008714,-0.011322,0.03421,0.985306,-0.040901,-0.017816,0.067875,62.9039,22.051483,-147.86438,,,
729608443.340217,1.497141,0.12307,57.031064,-0.012054,0.028595,0.980972,-0.064545,-0.057087,0.082882,62.9039,22.051483,-147.86438,,,
729608443.343533,1.478113,0.103908,57.055691,-0.012054,0.028595,0.980972,-0.064545,-0.057087,0.082882,62.586166,22.488159,-147.634766,,,
729608443.34696,1.478113,0.103908,57.055691,-0.012054,0.028595,0.980972,-0.064545,-0.057087,0.082882,62.586166,22.488159,-147.634766,,,
729608443.350217,1.458873,0.080434,57.081552,-0.013214,0.024124,0.975296,-0.077446,-0.093688,0.089382,62.586166,22.488159,-147.634766,,,
729608443.353537,1.435628,0.05158,57.107191,-0.013214,0.024124,0.975296,-0.077446,-0.093688,0.089382,62.586166,22.488159,-147.634766,,,
729608443.356948,1.435628,0.05158,57.107191,-0.013214,0.024124,0.975296,-0.077446,-0.093688,0.089382,62.586166,22.488159,-147.634766,,,
729608443.360198,1.412857,0.02016,57.131888,-0.006958,0.025726,0.982193,-0.088755,-0.11523,0.083426,62.586166,22.488159,-147.634766,,,
729608443.363529,1.387468,-0.014305,57.156219,-0.006958,0.025726,0.982193,-0.088755,-0.11523,0.083426,62.586166,22.488159,-147.634766,,,
729608443.36689,1.387468,-0.014305,57.156219,-0.006958,0.025726,0.982193,-0.088755,-0.11523,0.083426,62.586166,22.488159,-147.634766,,,
729608443.370292,1.361355,-0.047493,57.179865,0.001907,0.029617,0.991074,-0.091311,-0.121625,0.080556,62.586166,22.488159,-147.634766,,,
729608443.373527,1.334579,-0.082891,57.203693,0.001907,0.029617,0.991074,-0.091311,-0.121625,0.080556,62.586166,22.488159,-147.634766,,,
729608443.376879,1.334579,-0.082891,57.203693,0.001907,0.029617,0.991074,-0.091311,-0.121625,0.080556,62.586166,22.488159,-147.634766,,,
729608443.380221,1.307572,-0.113791,57.227853,0.008682,0.026489,0.997391,-0.0908,-0.106468,0.082308,62.586166,22.488159,-147.634766,,,
729608443.383576,1.281903,-0.146342,57.251843,0.008682,0.026489,0.997391,-0.0908,-0.106468,0.082308,62.294449,22.569107,-147.396118,,,
729608443.386885,1.281903,-0.146342,57.251843,0.008682,0.026489,0.997391,-0.0908,-0.106468,0.082308,62.294449,22.569107,-147.396118,,,
729608443.39021,1.257778,-0.173467,57.27565,0.014282,0.022232,1.001755,-0.082201,-0.09342,0.079524,62.294449,22.569107,-147.396118,,,
729608443.393528,1.233072,-0.200217,57.298721,0.014282,0.022232,1.001755,-0.082201,-0.09342,0.079524,62.294449,22.569107,-147.396118,,,
729608443.396956,1.233072,-0.200217,57.298721,0.014282,0.022232,1.001755,-0.082201,-0.09342,0.079524,62.294449,22.569107,-147.396118,,,
729608443.400227,1.210382,-0.218365,57.32044,0.019196,0.019623,1.004272,-0.088301,-0.059074,0.071525,62.294449,22.569107,-147.396118,,,
729608443.403585,1.184889,-0.235824,57.341285,0.019196,0.019623,1.004272,-0.088301,-0.059074,0.071525,62.294449,22.569107,-147.396118,,,
729608443.406872,1.184889,-0.235824,57.341285,0.019196,0.019623,1.004272,-0.088301,-0.059074,0.071525,62.294449,22.569107,-147.396118,,,
729608443.410219,1.163675,-0.243195,57.360875,0.019608,0.022568,1.006577,-0.082581,-0.02635,0.065026,62.294449,22.569107,-147.396118,,,
729608443.413554,1.14083,-0.251244,57.379847,0.019608,0.022568,1.006577,-0.082581,-0.02635,0.065026,62.294449,22.569107,-147.396118,,,
729608443.416884,1.14083,-0.251244,57.379847,0.019608,0.022568,1.006577,-0.082581,-0.02635,0.065026,62.294449,22.569107,-147.396118,,,
729608443.420311,1.12246,-0.253108,57.398473,0.014297,0.015472,1.007782,-0.068469,-0.012236,0.066361,62.294449,22.569107,-147.396118,,,
729608443.42354,1.102788,-0.257762,57.416766,0.014297,0.015472,1.007782,-0.068469,-0.012236,0.066361,62.294449,22.569107,-147.396118,,,
729608443.426882,1.102788,-0.257762,57.416766,0.014297,0.015472,1.007782,-0.068469,-0.012236,0.066361,62.378922,22.719559,-147.478348,,,
729608443.43021,1.086451,-0.256378,57.434618,0.00592,0.009933,1.007797,-0.056907,-0.007551,0.060164,62.378922,22.719559,-147.478348,,,
729608443.433534,1.069478,-0.260354,57.452171,0.00592,0.009933,1.007797,-0.056907,-0.007551,0.060164,62.378922,22.719559,-147.478348,,,
729608443.436878,1.069478,-0.260354,57.452171,0.00592,0.009933,1.007797,-0.056907,-0.007551,0.060164,62.378922,22.719559,-147.478348,,,
729608443.440213,1.055227,-0.260588,57.469514,-0.003708,0.008636,1.000824,-0.051878,-0.01418,0.061659,62.378922,22.719559,-147.478348,,,
729608443.44355,1.040305,-0.266452,57.487317,-0.003708,0.008636,1.000824,-0.051878,-0.01418,0.061659,62.378922,22.719559,-147.478348,,,
729608443.44693,1.040305,-0.266452,57.487317,-0.003708,0.008636,1.000824,-0.051878,-0.01418,0.061659,62.378922,22.719559,-147.478348,,,
729608443.450205,1.028677,-0.272835,57.505081,-0.009354,0.007355,0.997009,-0.047784,-0.029054,0.05985,62.378922,22.719559,-147.478348,,,
729608443.453531,1.015328,-0.282766,57.522573,-0.009354,0.007355,0.997009,-0.047784,-0.029054,0.05985,62.378922,22.719559,-147.478348,,,
729608443.456868,1.015328,-0.282766,57.522573,-0.009354,0.007355,0.997009,-0.047784,-0.029054,0.05985,62.378922,22.719559,-147.478348,,,
729608443.460216,1.005413,-0.295022,57.539741,-0.006378,0.007553,0.995117,-0.03821,-0.040026,0.058357,62.378922,22.719559,-147.478348,,,
729608443.46353,0.994238,-0.308627,57.556606,-0.006378,0.007553,0.995117,-0.03821,-0.040026,0.058357,62.378922,22.719559,-147.478348,,,
729608443.466883,0.994238,-0.308627,57.556606,-0.006378,0.007553,0.995117,-0.03821,-0.040026,0.058357,62.097702,22.894623,-147.898697,,,
729608443.470267,0.986717,-0.325789,57.573091,-0.002182,0.008102,0.991714,-0.02527,-0.054127,0.055106,62.097702,22.894623,-147.898697,,,
729608443.473539,0.979289,-0.34203,57.589022,-0.002182,0.008102,0.991714,-0.02527,-0.054127,0.055106,62.097702,22.894623,-147.898697,,,
729608443.47689,0.979289,-0.34203,57.589022,-0.002182,0.008102,0.991714,-0.02527,-0.054127,0.055106,62.097702,22.894623,-147.898697,,,
729608443.480219,0.974407,-0.361337,57.604515,0.001205,0.005585,0.990158,-0.011583,-0.052,0.052293,62.097702,22.894623,-147.898697,,,
729608443.483533,0.970658,-0.377156,57.619774,0.001205,0.005585,0.990158,-0.011583,-0.052,0.052293,62.097702,22.894623,-147.898697,,,
729608443.486875,0.970658,-0.377156,57.619774,0.001205,0.005585,0.990158,-0.011583,-0.052,0.052293,62.097702,22.894623,-147.898697,,,
729608443.490224,0.969487,-0.396224,57.634065,0.013107,0.00647,0.992203,-0.0034,-0.047921,0.041644,62.097702,22.894623,-147.898697,,,
729608443.493574,0.968441,-0.410463,57.646415,0.013107,0.00647,0.992203,-0.0034,-0.047921,0.041644,62.097702,22.894623,-147.898697,,,
729608443.496916,0.968441,-0.410463,57.646415,0.013107,0.00647,0.992203,-0.0034,-0.047921,0.041644,62.097702,22.894623,-147.898697,,,
729608443.500206,0.968828,-0.424995,57.657425,0.022903,0.013306,0.99144,-0.000207,-0.030835,0.030035,62.097702,22.894623,-147.898697,,,
729608443.50357,0.969152,-0.434081,57.667098,0.022903,0.013306,0.99144,-0.000207,-0.030835,0.030035,62.097702,22.894623,-147.898697,,,
729608443.506896,0.969152,-0.434081,57.667098,0.022903,0.013306,0.99144,-0.000207,-0.030835,0.030035,62.176315,22.661621,-147.525513,,,
729608443.510253,0.968538,-0.439802,57.67579,0.026245,0.017181,0.993271,0.006636,-0.004335,0.02634,62.176315,22.661621,-147.525513,,,
729608443.513572,0.970126,-0.4404,57.683558,0.026245,0.017181,0.993271,0.006636,-0.004335,0.02634,62.176315,22.661621,-147.525513,,,
729608443.516879,0.970126,-0.4404,57.683558,0.026245,0.017181,0.993271,0.006636,-0.004335,0.02634,62.176315,22.661621,-147.525513,,,
729608443.520215,0.970652,-0.43517,57.690272,0.029388,0.017975,0.99852,0.014213,0.020875,0.018849,62.176315,22.661621,-147.525513,,,
729608443.5236,0.974411,-0.429361,57.69654,0.029388,0.017975,0.99852,0.014213,0.020875,0.018849,62.176315,22.661621,-147.525513,,,
729608443.526878,0.974411,-0.429361,57.69654,0.029388,0.017975,0.99852,0.014213,0.020875,0.018849,62.176315,22.661621,-147.525513,,,
729608443.529966,0.976334,-0.415492,57.702297,0.026703,0.017776,0.997192,0.014615,0.047755,0.015914,62.176315,22.661621,-147.525513,,,
729608443.533598,0.980482,-0.401846,57.707097,0.026703,0.017776,0.997192,0.014615,0.047755,0.015914,62.176315,22.661621,-147.525513,,,
729608443.536956,0.980482,-0.401846,57.707097,0.026703,0.017776,0.997192,0.014615,0.047755,0.015914,62.176315,22.661621,-147.525513,,,
729608443.540196,0.982071,-0.380272,57.711,0.025284,0.019379,0.996109,0.012841,0.074035,0.009836,62.176315,22.661621,-147.525513,,,
729608443.543555,0.982071,-0.359748,57.714754,0.025284,0.019379,0.996109,0.012841,0.074035,0.009836,62.176315,22.661621,-147.525513,,,
729608443.546874,0.98559,-0.359748,57.714754,0.025284,0.019379,0.996109,0.012841,0.074035,0.009836,62.379608,22.881577,-147.542191,,,
729608443.550205,0.986313,-0.335339,57.717927,0.019165,0.021942,0.991669,0.010642,0.082984,0.010432,62.379608,22.881577,-147.542191,,,
729608443.553564,0.986313,-0.31283,57.720636,0.019165,0.021942,0.991669,0.010642,0.082984,0.010432,62.379608,22.881577,-147.542191,,,
729608443.556888,0.988654,-0.31283,57.720636,0.019165,0.021942,0.991669,0.010642,0.082984,0.010432,62.379608,22.881577,-147.542191,,,
729608443.560205,0.987095,-0.2887,57.723235,0.010818,0.024811,0.988068,0.000854,0.078034,0.003404,62.379608,22.881577,-147.542191,,,
729608443.56365,0.987124,-0.267026,57.724935,0.010818,0.024811,0.988068,0.000854,0.078034,0.003404,62.379608,22.881577,-147.542191,,,
729608443.566878,0.987124,-0.267026,57.724935,0.010818,0.024811,0.988068,0.000854,0.078034,0.003404,62.379608,22.881577,-147.542191,,,
729608443.570213,0.982797,-0.247192,57.725133,0.008713,0.024277,0.984085,-0.004086,0.073493,-0.003827,62.379608,22.881577,-147.542191,,,
729608443.573541,0.982797,-0.247192,57.725133,0.008713,0.024277,0.984085,-0.004086,0.073493,-0.003827,62.379608,22.881577,-147.542191,,,
729608443.576945,0.980663,-0.227524,57.724923,0.008713,0.024277,0.984085,-0.004086,0.073493,-0.003827,62.379608,22.881577,-147.542191,,,
729608443.580194,0.976649,-0.213396,57.725833,0.002502,0.021072,0.988434,-0.007011,0.064569,0.006922,62.379608,22.881577,-147.542191,,,
729608443.583553,0.976649,-0.213396,57.725833,0.002502,0.021072,0.988434,-0.007011,0.064569,0.006922,62.379608,22.881577,-147.542191,,,
729608443.5869,0.974759,-0.196307,57.729064,0.002502,0.021072,0.988434,-0.007011,0.064569,0.006922,62.379608,22.881577,-147.542191,,,
729608443.590202,0.973708,-0.185817,57.73538,-0.00618,0.013412,0.996094,0.001805,0.060002,0.024655,62.623901,22.859589,-147.751389,,,
729608443.593549,0.973708,-0.185817,57.73538,-0.00618,0.013412,0.996094,0.001805,0.060002,0.024655,62.623901,22.859589,-147.751389,,,
729608443.596885,0.974216,-0.169774,57.743568,-0.00618,0.013412,0.996094,0.001805,0.060002,0.024655,62.623901,22.859589,-147.751389,,,
729608443.6002,0.975827,-0.160204,57.752574,-0.006271,0.011902,1.003067,0.008364,0.061125,0.03015,62.623901,22.859589,-147.751389,,,
729608443.603619,0.975827,-0.160204,57.752574,-0.006271,0.011902,1.003067,0.008364,0.061125,0.03015,62.623901,22.859589,-147.751389,,,
729608443.606873,0.978563,-0.143066,57.761117,-0.006271,0.011902,1.003067,0.008364,0.061125,0.03015,62.623901,22.859589,-147.751389,,,
729608443.610205,0.982931,-0.132312,57.768521,0.001495,0.016312,1.006943,0.018944,0.066007,0.019316,62.623901,22.859589,-147.751389,,,
729608443.613553,0.982931,-0.132312,57.768521,0.001495,0.016312,1.006943,0.018944,0.066007,0.019316,62.623901,22.859589,-147.751389,,,
729608443.616949,0.988136,-0.114091,57.774029,0.001495,0.016312,1.006943,0.018944,0.066007,0.019316,62.623901,22.859589,-147.751389,,,
729608443.620209,0.993509,-0.102224,57.778734,0.006302,0.021317,1.006836,0.015858,0.066034,0.014334,62.623901,22.859589,-147.751389,,,
729608443.62354,0.993509,-0.102224,57.778734,0.006302,0.021317,1.006836,0.015858,0.066034,0.014334,62.623901,22.859589,-147.751389,,,
729608443.626895,0.997422,-0.084995,57.783228,0.006302,0.021317,1.006836,0.015858,0.066034,0.014334,62.623901,22.859589,-147.751389,,,
729608443.630281,1.000805,-0.076446,57.787923,0.000153,0.023285,0.999481,0.005952,0.041319,0.015348,62.700333,22.796829,-147.697891,,,
729608443.633533,1.000805,-0.076446,57.787923,0.000153,0.023285,0.999481,0.005952,0.041319,0.015348,62.700333,22.796829,-147.697891,,,
729608443.636888,1.000758,-0.066397,57.793434,0.000153,0.023285,0.999481,0.005952,0.041319,0.015348,62.700333,22.796829,-147.697891,,,
729608443.640249,1.00008,-0.063967,57.799624,-0.006805,0.016968,0.987854,-0.012702,0.015985,0.018521,62.700333,22.796829,-147.697891,,,
729608443.643604,1.00008,-0.063967,57.799624,-0.006805,0.016968,0.987854,-0.012702,0.015985,0.018521,62.700333,22.796829,-147.697891,,,
729608443.646905,0.996007,-0.061532,57.805814,-0.006805,0.016968,0.987854,-0.012702,0.015985,0.018521,62.700333,22.796829,-147.697891,,,
729608443.650203,0.992146,-0.063999,57.811219,-0.003494,0.019714,0.991592,-0.023902,-0.005314,0.014853,62.700333,22.796829,-147.697891,,,
729608443.653566,0.992146,-0.063999,57.811219,-0.003494,0.019714,0.991592,-0.023902,-0.005314,0.014853,62.700333,22.796829,-147.697891,,,
729608443.656938,0.985061,-0.066402,57.815773,-0.003494,0.019714,0.991592,-0.023902,-0.005314,0.014853,62.700333,22.796829,-147.697891,,,
729608443.660195,0.979093,-0.071486,57.819909,0.001236,0.022095,0.997009,-0.02789,-0.009896,0.013296,62.700333,22.796829,-147.697891,,,
729608443.663546,0.979093,-0.071486,57.819909,0.001236,0.022095,0.997009,-0.02789,-0.009896,0.013296,62.700333,22.796829,-147.697891,,,
729608443.666879,0.971617,-0.075197,57.823747,0.001236,0.022095,0.997009,-0.02789,-0.009896,0.013296,62.700333,22.796829,-147.697891,,,
729608443.670204,0.964381,-0.076332,57.828588,-0.000732,0.016479,1.00502,-0.021405,-0.000674,0.020831,62.795898,22.738571,-147.677826,,,
729608443.673538,0.964381,-0.076332,57.828588,-0.000732,0.016479,1.00502,-0.021405,-0.000674,0.020831,62.795898,22.738571,-147.677826,,,
729608443.676875,0.958858,-0.076769,57.835205,-0.000732,0.016479,1.00502,-0.021405,-0.000674,0.020831,62.795898,22.738571,-147.677826,,,
729608443.680203,0.954132,-0.072442,57.843589,-0.003754,0.008514,1.012573,-0.003631,0.017796,0.030422,62.795898,22.738571,-147.677826,,,
729608443.683529,0.954132,-0.072442,57.843589,-0.003754,0.008514,1.012573,-0.003631,0.017796,0.030422,62.795898,22.738571,-147.677826,,,
729608443.686872,0.95344,-0.068376,57.852381,-0.003754,0.008514,1.012573,-0.003631,0.017796,0.030422,62.795898,22.738571,-147.677826,,,
729608443.690206,0.95498,-0.062888,57.86113,0.001831,0.006744,1.016846,0.01157,0.021006,0.029347,62.795898,22.738571,-147.677826,,,
729608443.693599,0.95498,-0.062888,57.86113,0.001831,0.006744,1.016846,0.01157,0.021006,0.029347,62.795898,22.738571,-147.677826,,,
729608443.69688,0.958832,-0.057786,57.86959,0.001831,0.006744,1.016846,0.01157,0.021006,0.029347,62.795898,22.738571,-147.677826,,,
729608443.700201,0.963832,-0.054567,57.8766,0.00621,0.011887,1.014343,0.012567,0.017572,0.019498,62.795898,22.738571,-147.677826,,,
729608443.703545,0.963832,-0.054567,57.8766,0.00621,0.011887,1.014343,0.012567,0.017572,0.019498,62.795898,22.738571,-147.677826,,,
729608443.70693,0.967042,-0.051477,57.881952,0.00621,0.011887,1.014343,0.012567,0.017572,0.019498,62.795898,22.738571,-147.677826,,,
729608443.710195,0.970547,-0.051847,57.886219,0.002457,0.017059,1.003708,0.002697,-0.000485,0.01102,62.795898,22.738571,-147.677826,,,
729608443.713556,0.970547,-0.051847,57.886219,0.002457,0.017059,1.003708,0.002697,-0.000485,0.01102,62.471344,23.06485,-147.9422,,,
729608443.716874,0.970776,-0.054317,57.889531,0.002457,0.017059,1.003708,0.002697,-0.000485,0.01102,62.471344,23.06485,-147.9422,,,
729608443.720201,0.969734,-0.05724,57.892267,0.00325,0.016586,0.999466,-0.00728,-0.021642,0.00744,62.471344,23.06485,-147.9422,,,
729608443.723534,0.969734,-0.05724,57.892267,0.00325,0.016586,0.999466,-0.00728,-0.021642,0.00744,62.471344,23.06485,-147.9422,,,
729608443.726888,0.966924,-0.065035,57.895105,0.00325,0.016586,0.999466,-0.00728,-0.021642,0.00744,62.471344,23.06485,-147.9422,,,
729608443.7302,0.964223,-0.073566,57.897909,0.00383,0.013977,1.00116,-0.010357,-0.036896,0.007484,62.471344,23.06485,-147.9422,,,
729608443.733554,0.964223,-0.073566,57.897909,0.00383,0.013977,1.00116,-0.010357,-0.036896,0.007484,62.471344,23.06485,-147.9422,,,
729608443.736884,0.961336,-0.085722,57.900436,0.00383,0.013977,1.00116,-0.010357,-0.036896,0.007484,62.471344,23.06485,-147.9422,,,
729608443.740216,0.961067,-0.099243,57.902166,0.006119,0.009247,1.006424,-0.001514,-0.051189,0.003006,62.471344,23.06485,-147.9422,,,
729608443.743639,0.961067,-0.099243,57.902166,0.006119,0.009247,1.006424,-0.001514,-0.051189,0.003006,62.471344,23.06485,-147.9422,,,
729608443.74689,0.961681,-0.11418,57.902981,0.006119,0.009247,1.006424,-0.001514,-0.051189,0.003006,62.471344,23.06485,-147.9422,,,
729608443.750216,0.964751,-0.128173,57.902583,0.011093,0.010605,1.010834,0.01285,-0.0457,-0.005227,62.471344,23.06485,-147.9422,,,
729608443.753557,0.964751,-0.128173,57.902583,0.011093,0.010605,1.010834,0.01285,-0.0457,-0.005227,62.666672,22.948944,-147.568634,,,
729608443.756874,0.968593,-0.140537,57.90133,0.011093,0.010605,1.010834,0.01285,-0.0457,-0.005227,62.666672,22.948944,-147.568634,,,
729608443.76021,0.971968,-0.147448,57.89934,0.016373,0.015762,1.009567,0.020162,-0.012655,-0.010002,62.666672,22.948944,-147.568634,,,
729608443.763549,0.971968,-0.147448,57.89934,0.016373,0.015762,1.009567,0.020162,-0.012655,-0.010002,62.666672,22.948944,-147.568634,,,
729608443.766876,0.977978,-0.152176,57.897243,0.016373,0.015762,1.009567,0.020162,-0.012655,-0.010002,62.666672,22.948944,-147.568634,,,
729608443.770214,0.982523,-0.153428,57.896147,0.016327,0.012146,1.010651,0.027657,0.003252,-0.005373,62.666672,22.948944,-147.568634,,,
729608443.773551,0.982523,-0.153428,57.896147,0.016327,0.012146,1.010651,0.027657,0.003252,-0.005373,62.666672,22.948944,-147.568634,,,
729608443.776871,0.991155,-0.153623,57.895706,0.016327,0.012146,1.010651,0.027657,0.003252,-0.005373,62.666672,22.948944,-147.568634,,,
729608443.780206,0.997773,-0.152613,57.895056,0.011795,0.009003,1.004807,0.032915,0.011049,-0.002048,62.666672,22.948944,-147.568634,,,
729608443.783557,0.997773,-0.152613,57.895056,0.011795,0.009003,1.004807,0.032915,0.011049,-0.002048,62.666672,22.948944,-147.568634,,,
729608443.786889,1.006587,-0.150316,57.894416,0.011795,0.009003,1.004807,0.032915,0.011049,-0.002048,62.666672,22.948944,-147.568634,,,
729608443.790209,1.014682,-0.148991,57.893484,0.01091,0.00975,1.001068,0.029852,0.001789,-0.007222,62.666672,22.948944,-147.568634,,,
729608443.793571,1.014682,-0.148991,57.893484,0.01091,0.00975,1.001068,0.029852,0.001789,-0.007222,62.595139,22.934723,-147.53746,,,
729608443.796885,1.022434,-0.149386,57.891385,0.01091,0.00975,1.001068,0.029852,0.001789,-0.007222,62.595139,22.934723,-147.53746,,,
729608443.800203,1.029582,-0.152399,57.887873,0.011124,0.012924,0.996078,0.025652,-0.014169,-0.016326,62.595139,22.934723,-147.53746,,,
729608443.803566,1.029582,-0.152399,57.887873,0.011124,0.012924,0.996078,0.025652,-0.014169,-0.016326,62.595139,22.934723,-147.53746,,,
729608443.806956,1.03616,-0.157302,57.883321,0.011124,0.012924,0.996078,0.025652,-0.014169,-0.016326,62.595139,22.934723,-147.53746,,,
729608443.810226,1.041005,-0.164284,57.877991,0.01062,0.018051,0.990936,0.016776,-0.022906,-0.024799,62.595139,22.934723,-147.53746,,,
729608443.813619,1.041005,-0.164284,57.877991,0.01062,0.018051,0.990936,0.016776,-0.022906,-0.024799,62.595139,22.934723,-147.53746,,,
729608443.816958,1.044515,-0.171791,57.871818,0.01062,0.018051,0.990936,0.016776,-0.022906,-0.024799,62.595139,22.934723,-147.53746,,,
729608443.820251,1.044335,-0.18033,57.864973,0.010147,0.018326,0.988785,0.005638,-0.029485,-0.026192,62.595139,22.934723,-147.53746,,,
729608443.823571,1.044335,-0.18033,57.864973,0.010147,0.018326,0.988785,0.005638,-0.029485,-0.026192,62.595139,22.934723,-147.53746,,,
729608443.826899,1.045565,-0.189714,57.857803,0.010147,0.018326,0.988785,0.005638,-0.029485,-0.026192,62.595139,22.934723,-147.53746,,,
729608443.830277,1.04463,-0.201582,57.850629,0.009048,0.016861,0.990524,0.005529,-0.035263,-0.025327,62.595139,22.934723,-147.53746,,,
729608443.83353,1.04463,-0.201582,57.850629,0.009048,0.016861,0.990524,0.005529,-0.035263,-0.025327,62.371918,22.879822,-147.434311,,,
729608443.836895,1.046097,-0.212432,57.843786,0.009048,0.016861,0.990524,0.005529,-0.035263,-0.025327,62.371918,22.879822,-147.434311,,,
729608443.840205,1.046976,-0.227631,57.837097,0.009109,0.018768,0.994614,0.008571,-0.041391,-0.02661,62.371918,22.879822,-147.434311,,,
729608443.843559,1.046976,-0.227631,57.837097,0.009109,0.018768,0.994614,0.008571,-0.041391,-0.02661,62.371918,22.879822,-147.434311,,,
729608443.846887,1.04965,-0.240943,57.829577,0.009109,0.018768,0.994614,0.008571,-0.041391,-0.02661,62.371918,22.879822,-147.434311,,,
729608443.850202,1.05257,-0.258341,57.820999,0.009766,0.020782,0.997864,0.021481,-0.050695,-0.032806,62.371918,22.879822,-147.434311,,,
729608443.853551,1.05257,-0.258341,57.820999,0.009766,0.020782,0.997864,0.021481,-0.050695,-0.032806,62.371918,22.879822,-147.434311,,,
729608443.856869,1.058487,-0.273376,57.811847,0.009766,0.020782,0.997864,0.021481,-0.050695,-0.032806,62.371918,22.879822,-147.434311,,,
729608443.860214,1.064235,-0.289478,57.803178,0.007462,0.01976,1.001297,0.029832,-0.036782,-0.029067,62.371918,22.879822,-147.434311,,,
729608443.863552,1.064235,-0.289478,57.803178,0.007462,0.01976,1.001297,0.029832,-0.036782,-0.029067,62.371918,22.879822,-147.434311,,,
729608443.86698,1.073042,-0.300699,57.795847,0.007462,0.01976,1.001297,0.029832,-0.036782,-0.029067,62.371918,22.879822,-147.434311,,,
729608443.87021,1.079303,-0.311597,57.790577,0.00351,0.010376,1.004974,0.030129,-0.025759,-0.015539,62.371918,22.879822,-147.434311,,,
729608443.873552,1.079303,-0.311597,57.790577,0.00351,0.010376,1.004974,0.030129,-0.025759,-0.015539,62.267929,22.902649,-147.18782,,,
729608443.876885,1.088244,-0.319358,57.787222,0.00351,0.010376,1.004974,0.030129,-0.025759,-0.015539,62.267929,22.902649,-147.18782,,,
729608443.880258,1.095296,-0.325748,57.784572,0.004715,0.007462,1.003448,0.032353,-0.006187,-0.010626,62.267929,22.902649,-147.18782,,,
729608443.883566,1.095296,-0.325748,57.784572,0.004715,0.007462,1.003448,0.032353,-0.006187,-0.010626,62.267929,22.902649,-147.18782,,,
729608443.886883,1.103342,-0.327215,57.780784,0.004715,0.007462,1.003448,0.032353,-0.006187,-0.010626,62.267929,22.902649,-147.18782,,,
729608443.890208,1.109805,-0.327479,57.775483,0.007874,0.016846,1.00531,0.023927,0.010498,-0.024534,62.267929,22.902649,-147.18782,,,
729608443.893546,1.109805,-0.327479,57.775483,0.007874,0.016846,1.00531,0.023927,0.010498,-0.024534,62.267929,22.902649,-147.18782,,,
729608443.89689,1.116149,-0.324777,57.768475,0.007874,0.016846,1.00531,0.023927,0.010498,-0.024534,62.267929,22.902649,-147.18782,,,
729608443.900209,1.12096,-0.323404,57.760416,0.009399,0.026566,1.000244,0.014522,0.009777,-0.028479,62.267929,22.902649,-147.18782,,,
