Time (sec),Pitch (deg),Roll (deg),Yaw(deg),X-Acceleration (g),Y-Acceleration (g),Z-Acceleration (g),Pitch Rate (deg/sec),Roll Rate (deg/sec),Yaw Rate (deg/sec),Magnetic Field in X direction (uT),Magnetic Field in Y direction (uT),Magnetic Field in Z Direction (uT),Latitude (deg),Longitude (deg),Altitude (m)
729608486.813546,1.70852,-4.029911,55.913756,0.061005,0.027313,0.979874,0.021114,-0.010634,0.018178,60.474701,21.954285,-147.266357,,,
729608486.816818,1.712107,-4.03423,55.919879,0.061005,0.027313,0.979874,0.021114,-0.010634,0.018178,60.474701,21.954285,-147.266357,,,
729608486.820141,1.7143,-4.036179,55.925326,0.066956,0.027496,0.973053,0.008086,-0.018284,0.017537,60.474701,21.954285,-147.266357,,,
729608486.823491,1.7143,-4.036179,55.925326,0.066956,0.027496,0.973053,0.008086,-0.018284,0.017537,60.474701,21.954285,-147.266357,,,
729608486.826873,1.715653,-4.045445,55.929982,0.066956,0.027496,0.973053,0.008086,-0.018284,0.017537,60.474701,21.954285,-147.266357,,,
729608486.830135,1.715808,-4.054242,55.933345,0.073807,0.024612,0.968475,0.006298,-0.040659,0.012377,60.474701,21.954285,-147.266357,,,
729608486.833476,1.715808,-4.054242,55.933345,0.073807,0.024612,0.968475,0.006298,-0.040659,0.012377,60.474701,21.954285,-147.266357,,,
729608486.836809,1.716553,-4.068118,55.93637,0.073807,0.024612,0.968475,0.006298,-0.040659,0.012377,60.474701,21.954285,-147.266357,,,
729608486.84014,1.715504,-4.080675,55.938933,0.076843,0.022491,0.97345,0.001358,-0.048537,0.00698,60.285416,21.885406,-146.931015,,,
729608486.843491,1.715504,-4.080675,55.938933,0.076843,0.022491,0.97345,0.001358,-0.048537,0.00698,60.285416,21.885406,-146.931015,,,
729608486.846811,1.715469,-4.09434,55.940426,0.076843,0.022491,0.97345,0.001358,-0.048537,0.00698,60.285416,21.885406,-146.931015,,,
729608486.850145,1.713975,-4.102879,55.940576,0.081818,0.023422,0.978683,0.001638,-0.037079,0.000707,60.285416,21.885406,-146.931015,,,
729608486.853469,1.713975,-4.102879,55.940576,0.081818,0.023422,0.978683,0.001638,-0.037079,0.000707,60.285416,21.885406,-146.931015,,,
729608486.856806,1.714375,-4.111342,55.939646,0.081818,0.023422,0.978683,0.001638,-0.037079,0.000707,60.285416,21.885406,-146.931015,,,
729608486.860144,1.713138,-4.113625,55.936879,0.089264,0.026428,0.989182,0.004983,-0.016505,-0.010449,60.285416,21.885406,-146.931015,,,
729608486.863578,1.713138,-4.113625,55.936879,0.089264,0.026428,0.989182,0.004983,-0.016505,-0.010449,60.285416,21.885406,-146.931015,,,
729608486.866823,1.713798,-4.114831,55.93284,0.089264,0.026428,0.989182,0.004983,-0.016505,-0.010449,60.285416,21.885406,-146.931015,,,
729608486.870151,1.710432,-4.107728,55.928219,0.088013,0.02916,0.989212,-0.004506,0.01244,-0.015306,60.285416,21.885406,-146.931015,,,
729608486.87349,1.710432,-4.107728,55.928219,0.088013,0.02916,0.989212,-0.004506,0.01244,-0.015306,60.285416,21.885406,-146.931015,,,
729608486.876813,1.708369,-4.099753,55.923356,0.088013,0.02916,0.989212,-0.004506,0.01244,-0.015306,60.285416,21.885406,-146.931015,,,
729608486.88015,1.703356,-4.084496,55.918593,0.077774,0.024521,0.990448,-0.00961,0.04459,-0.017201,60.453461,21.935394,-147.345856,,,
729608486.883491,1.703356,-4.084496,55.918593,0.077774,0.024521,0.990448,-0.00961,0.04459,-0.017201,60.453461,21.935394,-147.345856,,,
729608486.886848,1.699863,-4.069976,55.914066,0.077774,0.024521,0.990448,-0.00961,0.04459,-0.017201,60.453461,21.935394,-147.345856,,,
729608486.890145,1.694945,-4.052366,55.909261,0.070618,0.023529,0.98999,-0.014983,0.055201,-0.017803,60.453461,21.935394,-147.345856,,,
729608486.89349,1.694945,-4.052366,55.909261,0.070618,0.023529,0.98999,-0.014983,0.055201,-0.017803,60.453461,21.935394,-147.345856,,,
729608486.896824,1.691014,-4.03885,55.904639,0.070618,0.023529,0.98999,-0.014983,0.055201,-0.017803,60.453461,21.935394,-147.345856,,,
729608486.900153,1.686883,-4.026597,55.900119,0.064346,0.024323,0.985687,-0.015415,0.043398,-0.014064,60.453461,21.935394,-147.345856,,,
729608486.90348,1.686883,-4.026597,55.900119,0.064346,0.024323,0.985687,-0.015415,0.043398,-0.014064,60.453461,21.935394,-147.345856,,,
729608486.90682,1.68193,-4.017453,55.895727,0.064346,0.024323,0.985687,-0.015415,0.043398,-0.014064,60.453461,21.935394,-147.345856,,,
729608486.910226,1.675546,-4.010887,55.892444,0.05661,0.023773,0.986374,-0.022583,0.03008,-0.013516,60.453461,21.935394,-147.345856,,,
729608486.913463,1.675546,-4.010887,55.892444,0.05661,0.023773,0.986374,-0.022583,0.03008,-0.013516,60.453461,21.935394,-147.345856,,,
729608486.916865,1.669343,-4.005707,55.890473,0.05661,0.023773,0.986374,-0.022583,0.03008,-0.013516,60.453461,21.935394,-147.345856,,,
729608486.92015,1.660876,-4.005315,55.889666,0.053177,0.022705,0.986313,-0.023266,0.00997,-0.002436,60.550919,21.992691,-147.078018,,,
729608486.923518,1.660876,-4.005315,55.889666,0.053177,0.022705,0.986313,-0.023266,0.00997,-0.002436,60.550919,21.992691,-147.078018,,,
729608486.92688,1.653901,-4.006677,55.889574,0.053177,0.022705,0.986313,-0.023266,0.00997,-0.002436,60.550919,21.992691,-147.078018,,,
729608486.930136,1.647082,-4.014255,55.890073,0.057434,0.021896,0.989227,-0.019887,-0.015297,-0.001471,60.550919,21.992691,-147.078018,,,
729608486.933478,1.647082,-4.014255,55.890073,0.057434,0.021896,0.989227,-0.019887,-0.015297,-0.001471,60.550919,21.992691,-147.078018,,,
729608486.936827,1.642113,-4.022173,55.890273,0.057434,0.021896,0.989227,-0.019887,-0.015297,-0.001471,60.550919,21.992691,-147.078018,,,
729608486.94014,1.63719,-4.035365,55.889776,0.064453,0.024918,0.990662,-0.014588,-0.030827,-0.001603,60.550919,21.992691,-147.078018,,,
729608486.943492,1.63719,-4.035365,55.889776,0.064453,0.024918,0.990662,-0.014588,-0.030827,-0.001603,60.550919,21.992691,-147.078018,,,
729608486.946823,1.632956,-4.046141,55.889481,0.064453,0.024918,0.990662,-0.014588,-0.030827,-0.001603,60.550919,21.992691,-147.078018,,,
729608486.950141,1.628612,-4.061676,55.889965,0.067596,0.027954,0.995422,-0.012689,-0.036935,0.000284,60.550919,21.992691,-147.078018,,,
729608486.953568,1.628612,-4.061676,55.889965,0.067596,0.027954,0.995422,-0.012689,-0.036935,0.000284,60.550919,21.992691,-147.078018,,,
729608486.956881,1.623244,-4.072362,55.890962,0.067596,0.027954,0.995422,-0.012689,-0.036935,0.000284,60.550919,21.992691,-147.078018,,,
729608486.960257,1.616123,-4.083501,55.893626,0.068253,0.027512,0.998459,-0.021266,-0.026676,0.009991,60.550919,21.992691,-147.078018,,,
729608486.963468,1.616123,-4.083501,55.893626,0.068253,0.027512,0.998459,-0.021266,-0.026676,0.009991,60.377563,22.088394,-147.18222,,,
729608486.966906,1.60866,-4.08897,55.897101,0.068253,0.027512,0.998459,-0.021266,-0.026676,0.009991,60.377563,22.088394,-147.18222,,,
729608486.970142,1.599687,-4.092859,55.900199,0.074219,0.027451,1.005112,-0.025303,-0.008565,0.012112,60.377563,22.088394,-147.18222,,,
729608486.973498,1.599687,-4.092859,55.900199,0.074219,0.027451,1.005112,-0.025303,-0.008565,0.012112,60.377563,22.088394,-147.18222,,,
729608486.97684,1.59243,-4.096031,55.902762,0.074219,0.027451,1.005112,-0.025303,-0.008565,0.012112,60.377563,22.088394,-147.18222,,,
729608486.980148,1.585747,-4.09791,55.904438,0.078613,0.03215,1.002213,-0.020222,-0.008356,0.00479,60.377563,22.088394,-147.18222,,,
729608486.983497,1.585747,-4.09791,55.904438,0.078613,0.03215,1.002213,-0.020222,-0.008356,0.00479,60.377563,22.088394,-147.18222,,,
729608486.986831,1.58015,-4.100196,55.904826,0.078613,0.03215,1.002213,-0.020222,-0.008356,0.00479,60.377563,22.088394,-147.18222,,,
729608486.990241,1.573165,-4.098788,55.903983,0.079849,0.032761,1.005692,-0.020073,-0.003125,-0.003707,60.377563,22.088394,-147.18222,,,
729608486.993466,1.573165,-4.098788,55.903983,0.079849,0.032761,1.005692,-0.020073,-0.003125,-0.003707,60.377563,22.088394,-147.18222,,,
729608486.996821,1.567092,-4.099681,55.903029,0.079849,0.032761,1.005692,-0.020073,-0.003125,-0.003707,60.377563,22.088394,-147.18222,,,
729608487.000145,1.559953,-4.095052,55.902104,0.079514,0.032852,1.003708,-0.021942,0.002626,-0.002376,60.377563,22.088394,-147.18222,,,
729608487.003512,1.559953,-4.095052,55.902104,0.079514,0.032852,1.003708,-0.021942,0.002626,-0.002376,60.376053,22.183075,-147.189377,,,
729608487.006869,1.553954,-4.095827,55.901232,0.079514,0.032852,1.003708,-0.021942,0.002626,-0.002376,60.376053,22.183075,-147.189377,,,
729608487.010153,1.546974,-4.09301,55.899971,0.079834,0.032471,1.001083,-0.016264,-0.001643,-0.003516,60.376053,22.183075,-147.189377,,,
729608487.013494,1.546974,-4.09301,55.899971,0.079834,0.032471,1.001083,-0.016264,-0.001643,-0.003516,60.376053,22.183075,-147.189377,,,
729608487.016907,1.542379,-4.094718,55.898559,0.079834,0.032471,1.001083,-0.016264,-0.001643,-0.003516,60.376053,22.183075,-147.189377,,,
729608487.020143,1.538229,-4.094205,55.896943,0.077454,0.031921,0.998993,-0.011123,-0.003861,-0.007557,60.376053,22.183075,-147.189377,,,
729608487.023496,1.538229,-4.094205,55.896943,0.077454,0.031921,0.998993,-0.011123,-0.003861,-0.007557,60.376053,22.183075,-147.189377,,,
729608487.026819,1.537246,-4.097878,55.895759,0.077454,0.031921,0.998993,-0.011123,-0.003861,-0.007557,60.376053,22.183075,-147.189377,,,
729608487.030148,1.538766,-4.102007,55.895381,0.074539,0.027359,1.002075,0.005869,-0.016002,-0.002357,60.376053,22.183075,-147.189377,,,
729608487.033494,1.538766,-4.102007,55.895381,0.074539,0.027359,1.002075,0.005869,-0.016002,-0.002357,60.376053,22.183075,-147.189377,,,
729608487.036837,1.541504,-4.107541,55.895625,0.074539,0.027359,1.002075,0.005869,-0.016002,-0.002357,60.376053,22.183075,-147.189377,,,
729608487.040148,1.543841,-4.110956,55.895565,0.072372,0.026627,0.999756,0.007162,-0.015307,-0.001307,60.376053,22.183075,-147.189377,,,
729608487.04348,1.543841,-4.110956,55.895565,0.072372,0.026627,0.999756,0.007162,-0.015307,-0.001307,60.202072,22.136215,-147.236649,,,
729608487.046829,1.544592,-4.115208,55.895311,0.072372,0.026627,0.999756,0.007162,-0.015307,-0.001307,60.202072,22.136215,-147.236649,,,
729608487.050147,1.543468,-4.119217,55.894939,0.071854,0.0327,0.99263,-0.003568,-0.010264,-0.00654,60.202072,22.136215,-147.236649,,,
729608487.053494,1.543468,-4.119217,55.894939,0.071854,0.0327,0.99263,-0.003568,-0.010264,-0.00654,60.202072,22.136215,-147.236649,,,
729608487.056827,1.540667,-4.123971,55.894747,0.071854,0.0327,0.99263,-0.003568,-0.010264,-0.00654,60.202072,22.136215,-147.236649,,,
729608487.060143,1.537968,-4.131535,55.894777,0.06781,0.032516,0.988663,-0.009618,-0.020527,-0.001038,60.202072,22.136215,-147.236649,,,
729608487.063488,1.537968,-4.131535,55.894777,0.06781,0.032516,0.988663,-0.009618,-0.020527,-0.001038,60.202072,22.136215,-147.236649,,,
729608487.066805,1.533582,-4.139051,55.894572,0.06781,0.032516,0.988663,-0.009618,-0.020527,-0.001038,60.202072,22.136215,-147.236649,,,
729608487.07014,1.530329,-4.14931,55.894116,0.06488,0.028824,0.988281,-0.017005,-0.026395,-0.002372,60.202072,22.136215,-147.236649,,,
729608487.073498,1.530329,-4.14931,55.894116,0.06488,0.028824,0.988281,-0.017005,-0.026395,-0.002372,60.202072,22.136215,-147.236649,,,
729608487.076799,1.525147,-4.158484,55.892627,0.06488,0.028824,0.988281,-0.017005,-0.026395,-0.002372,60.202072,22.136215,-147.236649,,,
729608487.080139,1.521645,-4.170006,55.890586,0.068695,0.031586,0.985474,-0.017213,-0.030365,-0.007323,60.202072,22.136215,-147.236649,,,
729608487.083471,1.521645,-4.170006,55.890586,0.068695,0.031586,0.985474,-0.017213,-0.030365,-0.007323,60.156937,22.111053,-146.878265,,,
729608487.086818,1.516132,-4.178849,55.887996,0.068695,0.031586,0.985474,-0.017213,-0.030365,-0.007323,60.156937,22.111053,-146.878265,,,
729608487.090151,1.511688,-4.188312,55.885281,0.07457,0.034515,0.985504,-0.021236,-0.023883,-0.009472,60.156937,22.111053,-146.878265,,,
729608487.093559,1.511688,-4.188312,55.885281,0.07457,0.034515,0.985504,-0.021236,-0.023883,-0.009472,60.156937,22.111053,-146.878265,,,
729608487.096828,1.505653,-4.193706,55.882402,0.07457,0.034515,0.985504,-0.021236,-0.023883,-0.009472,60.156937,22.111053,-146.878265,,,
729608487.100155,1.501997,-4.198368,55.879663,0.074219,0.031342,0.987473,-0.019162,-0.007788,-0.007419,60.156937,22.111053,-146.878265,,,
729608487.103509,1.501997,-4.198368,55.879663,0.074219,0.031342,0.987473,-0.019162,-0.007788,-0.007419,60.156937,22.111053,-146.878265,,,
729608487.106885,1.49755,-4.19958,55.877862,0.074219,0.031342,0.987473,-0.019162,-0.007788,-0.007419,60.156937,22.111053,-146.878265,,,
729608487.110133,1.495318,-4.199668,55.877349,0.0681,0.025864,0.993576,-0.011612,0.003876,-0.002709,60.156937,22.111053,-146.878265,,,
729608487.113492,1.495318,-4.199668,55.877349,0.0681,0.025864,0.993576,-0.011612,0.003876,-0.002709,60.156937,22.111053,-146.878265,,,
729608487.116827,1.493211,-4.196794,55.877857,0.0681,0.025864,0.993576,-0.011612,0.003876,-0.002709,60.156937,22.111053,-146.878265,,,
729608487.120148,1.492082,-4.191448,55.8787,0.06604,0.024704,0.99675,-0.003451,0.018983,0.002187,60.156937,22.111053,-146.878265,,,
729608487.123491,1.492082,-4.191448,55.8787,0.06604,0.024704,0.99675,-0.003451,0.018983,0.002187,60.156937,22.111053,-146.878265,,,
729608487.126823,1.491591,-4.18477,55.87995,0.06604,0.024704,0.99675,-0.003451,0.018983,0.002187,60.153397,22.0867,-146.897202,,,
729608487.130145,1.492958,-4.176475,55.881066,0.064713,0.029251,0.999527,0.004747,0.032988,0.000941,60.153397,22.0867,-146.897202,,,
729608487.133539,1.492958,-4.176475,55.881066,0.064713,0.029251,0.999527,0.004747,0.032988,0.000941,60.153397,22.0867,-146.897202,,,
729608487.136824,1.494328,-4.167165,55.882001,0.064713,0.029251,0.999527,0.004747,0.032988,0.000941,60.153397,22.0867,-146.897202,,,
729608487.14022,1.499562,-4.156227,55.882785,0.062149,0.031525,0.997849,0.012937,0.038228,-0.000132,60.153397,22.0867,-146.897202,,,
729608487.143482,1.499562,-4.156227,55.882785,0.062149,0.031525,0.997849,0.012937,0.038228,-0.000132,60.153397,22.0867,-146.897202,,,
729608487.14689,1.503645,-4.144585,55.883156,0.062149,0.031525,0.997849,0.012937,0.038228,-0.000132,60.153397,22.0867,-146.897202,,,
729608487.150183,1.509528,-4.130033,55.883399,0.060623,0.029068,1.001053,0.018842,0.046109,-0.000182,60.153397,22.0867,-146.897202,,,
729608487.153492,1.509528,-4.130033,55.883399,0.060623,0.029068,1.001053,0.018842,0.046109,-0.000182,60.153397,22.0867,-146.897202,,,
729608487.156826,1.515683,-4.117068,55.883846,0.060623,0.029068,1.001053,0.018842,0.046109,-0.000182,60.153397,22.0867,-146.897202,,,
729608487.160146,1.524462,-4.103054,55.884117,0.061554,0.028748,0.997131,0.027535,0.04784,-0.002446,60.153397,22.0867,-146.897202,,,
729608487.16349,1.524462,-4.103054,55.884117,0.061554,0.028748,0.997131,0.027535,0.04784,-0.002446,60.153397,22.0867,-146.897202,,,
729608487.166836,1.533662,-4.089184,55.883835,0.061554,0.028748,0.997131,0.027535,0.04784,-0.002446,60.131104,22.27681,-147.073502,,,
729608487.170146,1.54534,-4.074463,55.883025,0.063156,0.031677,0.996292,0.033826,0.054692,-0.00485,60.131104,22.27681,-147.073502,,,
729608487.173542,1.54534,-4.074463,55.883025,0.063156,0.031677,0.996292,0.033826,0.054692,-0.00485,60.131104,22.27681,-147.073502,,,
729608487.176818,1.554529,-4.058452,55.882283,0.063156,0.031677,0.996292,0.033826,0.054692,-0.00485,60.131104,22.27681,-147.073502,,,
729608487.18014,1.56469,-4.044262,55.881551,0.066864,0.036316,0.991669,0.030539,0.059616,-0.006973,60.131104,22.27681,-147.073502,,,
729608487.183466,1.56469,-4.044262,55.881551,0.066864,0.036316,0.991669,0.030539,0.059616,-0.006973,60.131104,22.27681,-147.073502,,,
729608487.18683,1.572275,-4.029925,55.880595,0.066864,0.036316,0.991669,0.030539,0.059616,-0.006973,60.131104,22.27681,-147.073502,,,
729608487.190136,1.578521,-4.018175,55.879067,0.069107,0.039062,0.983444,0.023277,0.039566,-0.00745,60.131104,22.27681,-147.073502,,,
729608487.193482,1.578521,-4.018175,55.879067,0.069107,0.039062,0.983444,0.023277,0.039566,-0.00745,60.131104,22.27681,-147.073502,,,
729608487.196878,1.583901,-4.009499,55.876053,0.069107,0.039062,0.983444,0.023277,0.039566,-0.00745,60.131104,22.27681,-147.073502,,,
729608487.200133,1.589363,-4.003748,55.871402,0.06842,0.04303,0.982162,0.020668,0.020902,-0.020564,60.131104,22.27681,-147.073502,,,
729608487.203483,1.589363,-4.003748,55.871402,0.06842,0.04303,0.982162,0.020668,0.020902,-0.020564,60.131104,22.27681,-147.073502,,,
729608487.206804,1.596942,-4.004738,55.866417,0.06842,0.04303,0.982162,0.020668,0.020902,-0.020564,60.032547,22.231796,-146.935349,,,
729608487.21014,1.605484,-4.01007,55.863212,0.059341,0.039413,0.98291,0.033828,-0.020045,-0.014052,60.032547,22.231796,-146.935349,,,
729608487.213559,1.605484,-4.01007,55.863212,0.059341,0.039413,0.98291,0.033828,-0.020045,-0.014052,60.032547,22.231796,-146.935349,,,
729608487.216854,1.615492,-4.019952,55.862963,0.059341,0.039413,0.98291,0.033828,-0.020045,-0.014052,60.032547,22.231796,-146.935349,,,
729608487.220143,1.626049,-4.028474,55.865605,0.058777,0.028534,0.980377,0.035109,-0.034905,0.00744,60.032547,22.231796,-146.935349,,,
729608487.223592,1.626049,-4.028474,55.865605,0.058777,0.028534,0.980377,0.035109,-0.034905,0.00744,60.032547,22.231796,-146.935349,,,
729608487.226828,1.634838,-4.038088,55.871003,0.058777,0.028534,0.980377,0.035109,-0.034905,0.00744,60.032547,22.231796,-146.935349,,,
729608487.230152,1.643688,-4.042871,55.877854,0.068787,0.027649,0.981705,0.033487,-0.022374,0.018344,60.032547,22.231796,-146.935349,,,
729608487.233502,1.643688,-4.042871,55.877854,0.068787,0.027649,0.981705,0.033487,-0.022374,0.018344,60.032547,22.231796,-146.935349,,,
729608487.236884,1.651751,-4.047596,55.885372,0.068787,0.027649,0.981705,0.033487,-0.022374,0.018344,60.032547,22.231796,-146.935349,,,
729608487.240155,1.659421,-4.046995,55.893213,0.077133,0.036255,0.985062,0.030269,-0.00385,0.025503,60.032547,22.231796,-146.935349,,,
729608487.243499,1.659421,-4.046995,55.893213,0.077133,0.036255,0.985062,0.030269,-0.00385,0.025503,60.032547,22.231796,-146.935349,,,
729608487.246806,1.665217,-4.04592,55.901109,0.077133,0.036255,0.985062,0.030269,-0.00385,0.025503,60.058899,22.018646,-146.956543,,,
729608487.25014,1.668054,-4.038286,55.908333,0.082458,0.0439,0.982941,0.0104,0.023299,0.020621,60.058899,22.018646,-146.956543,,,
729608487.253485,1.668054,-4.038286,55.908333,0.082458,0.0439,0.982941,0.0104,0.023299,0.020621,60.058899,22.018646,-146.956543,,,
729608487.256861,1.666875,-4.029766,55.914568,0.082458,0.0439,0.982941,0.0104,0.023299,0.020621,60.058899,22.018646,-146.956543,,,
729608487.260149,1.663442,-4.018043,55.91995,0.080017,0.045761,0.977402,-0.015827,0.040009,0.017586,60.058899,22.018646,-146.956543,,,
729608487.263548,1.663442,-4.018043,55.91995,0.080017,0.045761,0.977402,-0.015827,0.040009,0.017586,60.058899,22.018646,-146.956543,,,
729608487.266813,1.655388,-4.008187,55.924931,0.080017,0.045761,0.977402,-0.015827,0.040009,0.017586,60.058899,22.018646,-146.956543,,,
729608487.270137,1.646836,-4.000956,55.930616,0.076401,0.037781,0.974152,-0.036666,0.029778,0.020994,60.058899,22.018646,-146.956543,,,
729608487.273481,1.646836,-4.000956,55.930616,0.076401,0.037781,0.974152,-0.036666,0.029778,0.020994,60.058899,22.018646,-146.956543,,,
729608487.276891,1.63415,-3.997483,55.936287,0.076401,0.037781,0.974152,-0.036666,0.029778,0.020994,60.058899,22.018646,-146.956543,,,
729608487.280141,1.624516,-3.999047,55.941181,0.069412,0.028275,0.97876,-0.042843,0.002141,0.016995,60.058899,22.018646,-146.956543,,,
729608487.283492,1.624516,-3.999047,55.941181,0.069412,0.028275,0.97876,-0.042843,0.002141,0.016995,60.058899,22.018646,-146.956543,,,
729608487.286828,1.611187,-4.004565,55.945842,0.069412,0.028275,0.97876,-0.042843,0.002141,0.016995,60.058899,22.018646,-146.956543,,,
729608487.290147,1.602682,-4.011856,55.950111,0.069702,0.022583,0.988617,-0.038628,-0.02903,0.015034,60.232254,22.043381,-147.007645,,,
729608487.293488,1.602682,-4.011856,55.950111,0.069702,0.022583,0.988617,-0.038628,-0.02903,0.015034,60.232254,22.043381,-147.007645,,,
729608487.296835,1.59177,-4.024213,55.953879,0.069702,0.022583,0.988617,-0.038628,-0.02903,0.015034,60.232254,22.043381,-147.007645,,,
729608487.300143,1.583363,-4.036248,55.957126,0.073944,0.019928,0.99826,-0.032117,-0.049462,0.009743,60.232254,22.043381,-147.007645,,,
729608487.303542,1.583363,-4.036248,55.957126,0.073944,0.019928,0.99826,-0.032117,-0.049462,0.009743,60.232254,22.043381,-147.007645,,,
729608487.306811,1.575927,-4.051354,55.960596,0.073944,0.019928,0.99826,-0.032117,-0.049462,0.009743,60.232254,22.043381,-147.007645,,,
729608487.310142,1.570817,-4.063077,55.964763,0.076843,0.016495,1.009872,-0.016623,-0.043362,0.013252,60.232254,22.043381,-147.007645,,,
729608487.31352,1.570817,-4.063077,55.964763,0.076843,0.016495,1.009872,-0.016623,-0.043362,0.013252,60.232254,22.043381,-147.007645,,,
729608487.316805,1.568073,-4.073709,55.970199,0.076843,0.016495,1.009872,-0.016623,-0.043362,0.013252,60.232254,22.043381,-147.007645,,,
729608487.320143,1.568366,-4.082416,55.976723,0.080414,0.011124,1.015717,-0.001513,-0.024464,0.021288,60.232254,22.043381,-147.007645,,,
729608487.32347,1.568366,-4.082416,55.976723,0.080414,0.011124,1.015717,-0.001513,-0.024464,0.021288,60.232254,22.043381,-147.007645,,,
729608487.326808,1.567761,-4.084325,55.983458,0.080414,0.011124,1.015717,-0.001513,-0.024464,0.021288,60.232254,22.043381,-147.007645,,,
729608487.330141,1.569919,-4.082301,55.989432,0.085693,0.012543,1.018066,-0.00257,0.023901,0.018184,59.954605,22.165283,-146.967957,,,
729608487.333489,1.569919,-4.082301,55.989432,0.085693,0.012543,1.018066,-0.00257,0.023901,0.018184,59.954605,22.165283,-146.967957,,,
729608487.336817,1.566378,-4.070508,55.99368,0.085693,0.012543,1.018066,-0.00257,0.023901,0.018184,59.954605,22.165283,-146.967957,,,
729608487.34014,1.566395,-4.057036,55.996478,0.091339,0.023163,1.010574,-0.018439,0.06233,0.008551,59.954605,22.165283,-146.967957,,,
729608487.343481,1.566395,-4.057036,55.996478,0.091339,0.023163,1.010574,-0.018439,0.06233,0.008551,59.954605,22.165283,-146.967957,,,
729608487.346816,1.559707,-4.036752,55.997991,0.091339,0.023163,1.010574,-0.018439,0.06233,0.008551,59.954605,22.165283,-146.967957,,,
729608487.35013,1.559707,-4.017305,55.998257,0.088715,0.025497,1.003784,-0.03044,0.08085,0.00102,59.954605,22.165283,-146.967957,,,
729608487.353512,1.555099,-4.017305,55.998257,0.088715,0.025497,1.003784,-0.03044,0.08085,0.00102,59.954605,22.165283,-146.967957,,,
729608487.356804,1.545372,-3.994457,55.997875,0.088715,0.025497,1.003784,-0.03044,0.08085,0.00102,59.954605,22.165283,-146.967957,,,
729608487.360137,1.536357,-3.974455,55.997414,0.075745,0.017029,0.99939,-0.033891,0.073643,0.000494,59.954605,22.165283,-146.967957,,,
729608487.363503,1.536357,-3.974455,55.997414,0.075745,0.017029,0.99939,-0.033891,0.073643,0.000494,59.954605,22.165283,-146.967957,,,
729608487.366895,1.526311,-3.957701,55.997002,0.075745,0.017029,0.99939,-0.033891,0.073643,0.000494,59.954605,22.165283,-146.967957,,,
729608487.370167,1.526311,-3.945386,55.996321,0.072784,0.010818,0.993561,-0.031782,0.047633,-0.001429,60.047318,22.128281,-147.114914,,,
729608487.373472,1.516241,-3.945386,55.996321,0.072784,0.010818,0.993561,-0.031782,0.047633,-0.001429,60.047318,22.128281,-147.114914,,,
729608487.376812,1.507689,-3.937425,55.99448,0.072784,0.010818,0.993561,-0.031782,0.047633,-0.001429,60.047318,22.128281,-147.114914,,,
729608487.380141,1.499551,-3.935766,55.992046,0.071793,0.01358,0.996765,-0.021579,0.01215,-0.009247,60.047318,22.128281,-147.114914,,,
729608487.383587,1.499551,-3.935766,55.992046,0.071793,0.01358,0.996765,-0.021579,0.01215,-0.009247,60.047318,22.128281,-147.114914,,,
729608487.386818,1.495484,-3.938433,55.989145,0.071793,0.01358,0.996765,-0.021579,0.01215,-0.009247,60.047318,22.128281,-147.114914,,,
729608487.390183,1.495484,-3.946346,55.986378,0.069122,0.014389,0.998398,-0.006527,-0.020164,-0.012817,60.047318,22.128281,-147.114914,,,
729608487.393532,1.491533,-3.946346,55.986378,0.069122,0.014389,0.998398,-0.006527,-0.020164,-0.012817,60.047318,22.128281,-147.114914,,,
729608487.396808,1.490931,-3.95295,55.984403,0.069122,0.014389,0.998398,-0.006527,-0.020164,-0.012817,60.047318,22.128281,-147.114914,,,
729608487.400133,1.490931,-3.95295,55.983137,0.07132,0.016418,1.001053,-0.002606,-0.013214,-0.005135,60.047318,22.128281,-147.114914,,,
729608487.403485,1.486862,-3.959703,55.983137,0.07132,0.016418,1.001053,-0.002606,-0.013214,-0.005135,60.047318,22.128281,-147.114914,,,
729608487.406892,1.48431,-3.960112,55.982806,0.07132,0.016418,1.001053,-0.002606,-0.013214,-0.005135,60.047318,22.128281,-147.114914,,,
729608487.410246,1.48431,-3.960112,55.982806,0.077744,0.019638,1.000488,-0.014877,0.021563,0.001805,60.192047,22.121475,-146.851944,,,
729608487.413484,1.474668,-3.958455,55.982927,0.077744,0.019638,1.000488,-0.014877,0.021563,0.001805,60.192047,22.121475,-146.851944,,,
729608487.416811,1.467442,-3.946863,55.982718,0.077744,0.019638,1.000488,-0.014877,0.021563,0.001805,60.192047,22.121475,-146.851944,,,
729608487.420171,1.467442,-3.946863,55.982718,0.077744,0.019638,1.000488,-0.03186,0.06185,-0.000859,60.192047,22.121475,-146.851944,,,
729608487.423492,1.456988,-3.935268,55.982429,0.078247,0.028122,1.000824,-0.03186,0.06185,-0.000859,60.192047,22.121475,-146.851944,,,
729608487.426829,1.446988,-3.915519,55.982035,0.078247,0.028122,1.000824,-0.03186,0.06185,-0.000859,60.192047,22.121475,-146.851944,,,
729608487.430142,1.446988,-3.915519,55.982035,0.078247,0.028122,1.000824,-0.034296,0.074638,-0.000939,60.192047,22.121475,-146.851944,,,
729608487.433472,1.436815,-3.901528,55.981666,0.07164,0.030762,1.00206,-0.034296,0.074638,-0.000939,60.192047,22.121475,-146.851944,,,
729608487.436815,1.426802,-3.882652,55.98126,0.07164,0.030762,1.00206,-0.034296,0.074638,-0.000939,60.192047,22.121475,-146.851944,,,
729608487.440179,1.426802,-3.882652,55.98126,0.07164,0.030762,1.00206,-0.031306,0.059182,0.002088,60.192047,22.121475,-146.851944,,,
729608487.443533,1.416157,-3.869622,55.981356,0.063263,0.027771,1.000198,-0.031306,0.059182,0.002088,60.192047,22.121475,-146.851944,,,
729608487.446812,1.407384,-3.85714,55.981446,0.063263,0.027771,1.000198,-0.031306,0.059182,0.002088,60.192047,22.121475,-146.851944,,,
729608487.450179,1.407384,-3.85714,55.981446,0.063263,0.027771,1.000198,-0.02601,0.03195,-0.000328,60.192047,22.121475,-146.851944,,,
729608487.453482,1.396052,-3.850611,55.981509,0.061508,0.023453,0.99675,-0.02601,0.03195,-0.000328,60.309296,22.220291,-147.128448,,,
729608487.45686,1.388893,-3.846937,55.981228,0.061508,0.023453,0.99675,-0.02601,0.03195,-0.000328,60.309296,22.220291,-147.128448,,,
729608487.460137,1.388893,-3.846937,55.981228,0.061508,0.023453,0.99675,-0.020306,-0.000115,-0.001428,60.309296,22.220291,-147.128448,,,
729608487.46348,1.380058,-3.84937,55.980831,0.060715,0.024719,0.995422,-0.020306,-0.000115,-0.001428,60.309296,22.220291,-147.128448,,,
729608487.466818,1.374466,-3.853697,55.979827,0.060715,0.024719,0.995422,-0.020306,-0.000115,-0.001428,60.309296,22.220291,-147.128448,,,
729608487.470174,1.374466,-3.853697,55.979827,0.060715,0.024719,0.995422,-0.020678,-0.019133,-0.007546,60.309296,22.220291,-147.128448,,,
729608487.473499,1.365587,-3.860671,55.977919,0.062195,0.027695,0.994293,-0.020678,-0.019133,-0.007546,60.309296,22.220291,-147.128448,,,
729608487.476809,1.358391,-3.867532,55.97577,0.062195,0.027695,0.994293,-0.020678,-0.019133,-0.007546,60.309296,22.220291,-147.128448,,,
729608487.480161,1.358391,-3.867532,55.97577,0.062195,0.027695,0.994293,-0.030283,-0.020325,-0.007722,60.309296,22.220291,-147.128448,,,
729608487.483537,1.348386,-3.874923,55.973839,0.067291,0.032166,0.995667,-0.030283,-0.020325,-0.007722,60.309296,22.220291,-147.128448,,,
729608487.486796,1.33966,-3.880076,55.972003,0.067291,0.032166,0.995667,-0.030283,-0.020325,-0.007722,60.309296,22.220291,-147.128448,,,
729608487.490222,1.33966,-3.880076,55.972003,0.067291,0.032166,0.995667,-0.035848,-0.010663,-0.006136,60.309296,22.220291,-147.128448,,,
729608487.493476,1.328146,-3.885599,55.97057,0.07309,0.031219,0.996399,-0.035848,-0.010663,-0.006136,60.283966,22.019669,-146.93013,,,
729608487.496815,1.316739,-3.886129,55.969573,0.07309,0.031219,0.996399,-0.035848,-0.010663,-0.006136,60.283966,22.019669,-146.93013,,,
729608487.50016,1.316739,-3.886129,55.969573,0.07309,0.031219,0.996399,-0.035848,-0.010663,-0.006136,60.283966,22.019669,-146.93013,,,
729608487.503491,1.304481,-3.886072,55.969245,0.074463,0.02774,0.999176,-0.045132,0.0145,-0.001716,60.283966,22.019669,-146.93013,,,
729608487.506804,1.29217,-3.880186,55.969804,0.074463,0.02774,0.999176,-0.045132,0.0145,-0.001716,60.283966,22.019669,-146.93013,,,
729608487.510189,1.29217,-3.880186,55.969804,0.074463,0.02774,0.999176,-0.045132,0.0145,-0.001716,60.283966,22.019669,-146.93013,,,
729608487.513492,1.283931,-3.874601,55.971174,0.069611,0.024765,1.010361,-0.03443,0.028784,0.003779,60.283966,22.019669,-146.93013,,,
729608487.516802,1.277011,-3.866406,55.972632,0.069611,0.024765,1.010361,-0.03443,0.028784,0.003779,60.283966,22.019669,-146.93013,,,
729608487.520189,1.277011,-3.866406,55.972632,0.069611,0.024765,1.010361,-0.03443,0.028784,0.003779,60.283966,22.019669,-146.93013,,,
729608487.523532,1.275438,-3.857599,55.973884,0.072678,0.02066,1.01416,-0.010262,0.031265,0.003624,60.283966,22.019669,-146.93013,,,
729608487.526796,1.275563,-3.849476,55.974571,0.072678,0.02066,1.01416,-0.010262,0.031265,0.003624,60.283966,22.019669,-146.93013,,,
729608487.530185,1.275563,-3.849476,55.974571,0.072678,0.02066,1.01416,-0.010262,0.031265,0.003624,60.283966,22.019669,-146.93013,,,
729608487.533476,1.278997,-3.840172,55.974699,0.072189,0.021439,1.012192,0.01137,0.031164,-0.001479,60.572372,22.341949,-146.939377,,,
729608487.536813,1.28349,-3.831939,55.974944,0.072189,0.021439,1.012192,0.01137,0.031164,-0.001479,60.572372,22.341949,-146.939377,,,
729608487.540173,1.28349,-3.831939,55.974944,0.072189,0.021439,1.012192,0.01137,0.031164,-0.001479,60.572372,22.341949,-146.939377,,,
729608487.543477,1.28823,-3.819983,55.975183,0.069626,0.022018,1.008408,0.017857,0.040356,-0.001928,60.572372,22.341949,-146.939377,,,
729608487.546804,1.292545,-3.807439,55.976078,0.069626,0.022018,1.008408,0.017857,0.040356,-0.001928,60.572372,22.341949,-146.939377,,,
729608487.550197,1.292545,-3.807439,55.976078,0.069626,0.022018,1.008408,0.017857,0.040356,-0.001928,60.572372,22.341949,-146.939377,,,
729608487.55347,1.297751,-3.793057,55.977491,0.066559,0.022888,1.006699,0.014846,0.049878,0.000975,60.572372,22.341949,-146.939377,,,
729608487.556801,1.302563,-3.781556,55.978025,0.066559,0.022888,1.006699,0.014846,0.049878,0.000975,60.572372,22.341949,-146.939377,,,
729608487.560152,1.302563,-3.781556,55.978025,0.066559,0.022888,1.006699,0.014846,0.049878,0.000975,60.572372,22.341949,-146.939377,,,
729608487.563542,1.31043,-3.773248,55.977142,0.063568,0.02655,0.995453,0.02271,0.030768,-0.00402,60.572372,22.341949,-146.939377,,,
729608487.566799,1.317096,-3.76921,55.974918,0.063568,0.02655,0.995453,0.02271,0.030768,-0.00402,60.572372,22.341949,-146.939377,,,
729608487.570159,1.317096,-3.76921,55.974918,0.063568,0.02655,0.995453,0.02271,0.030768,-0.00402,60.572372,22.341949,-146.939377,,,
729608487.573511,1.326938,-3.76994,55.971264,0.060989,0.0298,0.987961,0.024747,0.005744,-0.014749,60.416412,22.08165,-147.376175,,,
729608487.576804,1.335004,-3.770946,55.966988,0.060989,0.0298,0.987961,0.024747,0.005744,-0.014749,60.416412,22.08165,-147.376175,,,
729608487.580202,1.335004,-3.770946,55.966988,0.060989,0.0298,0.987961,0.024747,0.005744,-0.014749,60.416412,22.08165,-147.376175,,,
729608487.583488,1.344862,-3.775733,55.963696,0.05867,0.029892,0.984802,0.028499,-0.003964,-0.016866,60.416412,22.08165,-147.376175,,,
729608487.586801,1.353557,-3.78012,55.961441,0.05867,0.029892,0.984802,0.028499,-0.003964,-0.016866,60.416412,22.08165,-147.376175,,,
729608487.590223,1.353557,-3.78012,55.961441,0.05867,0.029892,0.984802,0.028499,-0.003964,-0.016866,60.416412,22.08165,-147.376175,,,
729608487.593486,1.362466,-3.786436,55.96014,0.057831,0.026733,0.979889,0.030956,-0.012403,-0.010586,60.416412,22.08165,-147.376175,,,
729608487.596803,1.37037,-3.789965,55.959517,0.057831,0.026733,0.979889,0.030956,-0.012403,-0.010586,60.416412,22.08165,-147.376175,,,
729608487.60018,1.37037,-3.789965,55.959517,0.057831,0.026733,0.979889,0.030956,-0.012403,-0.010586,60.416412,22.08165,-147.376175,,,
729608487.603548,1.377437,-3.792102,55.958857,0.062469,0.027023,0.979141,0.027776,-0.001651,-0.00631,60.416412,22.08165,-147.376175,,,
729608487.606794,1.384069,-3.789875,55.9575,0.062469,0.027023,0.979141,0.027776,-0.001651,-0.00631,60.416412,22.08165,-147.376175,,,
729608487.610188,1.384069,-3.789875,55.9575,0.062469,0.027023,0.979141,0.027776,-0.001651,-0.00631,60.416412,22.08165,-147.376175,,,
729608487.613473,1.38881,-3.786357,55.955537,0.066101,0.032654,0.978821,0.018806,0.018846,-0.010287,60.416412,22.08165,-147.376175,,,
729608487.616804,1.392976,-3.778519,55.953559,0.066101,0.032654,0.978821,0.018806,0.018846,-0.010287,60.512924,22.261017,-147.175507,,,
729608487.620179,1.392976,-3.778519,55.953559,0.066101,0.032654,0.978821,0.018806,0.018846,-0.010287,60.512924,22.261017,-147.175507,,,
729608487.623483,1.394184,-3.769344,55.953,0.060471,0.03421,0.97699,0.009162,0.039724,-0.003445,60.512924,22.261017,-147.175507,,,
729608487.6268,1.393675,-3.756833,55.95421,0.060471,0.03421,0.97699,0.009162,0.039724,-0.003445,60.512924,22.261017,-147.175507,,,
729608487.630229,1.393675,-3.756833,55.95421,0.060471,0.03421,0.97699,0.009162,0.039724,-0.003445,60.512924,22.261017,-147.175507,,,
729608487.633475,1.390448,-3.743958,55.956465,0.050491,0.028183,0.973663,-0.010332,0.051549,0.005303,60.512924,22.261017,-147.175507,,,
729608487.636806,1.386198,-3.731143,55.959248,0.050491,0.028183,0.973663,-0.010332,0.051549,0.005303,60.512924,22.261017,-147.175507,,,
729608487.640162,1.386198,-3.731143,55.959248,0.050491,0.028183,0.973663,-0.010332,0.051549,0.005303,60.512924,22.261017,-147.175507,,,
729608487.64355,1.381124,-3.721494,55.962265,0.044479,0.026596,0.972092,-0.018665,0.038611,0.010404,60.512924,22.261017,-147.175507,,,
729608487.646799,1.374653,-3.716634,55.965248,0.044479,0.026596,0.972092,-0.018665,0.038611,0.010404,60.512924,22.261017,-147.175507,,,
729608487.650158,1.374653,-3.716634,55.965248,0.044479,0.026596,0.972092,-0.018665,0.038611,0.010404,60.512924,22.261017,-147.175507,,,
729608487.653493,1.369216,-3.715367,55.968249,0.043518,0.025726,0.970978,-0.02192,0.006496,0.010515,60.512924,22.261017,-147.175507,,,
729608487.65682,1.361621,-3.718526,55.97188,0.043518,0.025726,0.970978,-0.02192,0.006496,0.010515,60.546829,22.378189,-147.141556,,,
729608487.660154,1.361621,-3.718526,55.97188,0.043518,0.025726,0.970978,-0.02192,0.006496,0.010515,60.546829,22.378189,-147.141556,,,
729608487.663507,1.353746,-3.723659,55.975963,0.038757,0.022354,0.975708,-0.030875,-0.017712,0.016193,60.546829,22.378189,-147.141556,,,
729608487.666807,1.343134,-3.733447,55.981664,0.038757,0.022354,0.975708,-0.030875,-0.017712,0.016193,60.546829,22.378189,-147.141556,,,
729608487.670215,1.343134,-3.733447,55.981664,0.038757,0.022354,0.975708,-0.030875,-0.017712,0.016193,60.546829,22.378189,-147.141556,,,
729608487.673484,1.333329,-3.744018,55.989866,0.041367,0.017715,0.978882,-0.038352,-0.041855,0.030466,60.546829,22.378189,-147.141556,,,
729608487.67681,1.320928,-3.758075,55.99993,0.041367,0.017715,0.978882,-0.038352,-0.041855,0.030466,60.546829,22.378189,-147.141556,,,
729608487.680138,1.320928,-3.758075,55.99993,0.041367,0.017715,0.978882,-0.038352,-0.041855,0.030466,60.546829,22.378189,-147.141556,,,
729608487.683534,1.308441,-3.771869,56.011242,0.046722,0.012955,0.9841,-0.044436,-0.051263,0.04146,60.546829,22.378189,-147.141556,,,
729608487.686795,1.295407,-3.786728,56.022884,0.046722,0.012955,0.9841,-0.044436,-0.051263,0.04146,60.546829,22.378189,-147.141556,,,
729608487.690149,1.295407,-3.786728,56.022884,0.046722,0.012955,0.9841,-0.044436,-0.051263,0.04146,60.546829,22.378189,-147.141556,,,
729608487.693487,1.284792,-3.801434,56.034524,0.05867,0.011749,0.993759,-0.040432,-0.046056,0.042646,60.546829,22.378189,-147.141556,,,
729608487.696799,1.273578,-3.815807,56.046286,0.05867,0.011749,0.993759,-0.040432,-0.046056,0.042646,60.36821,22.258957,-147.286804,,,
729608487.700147,1.273578,-3.815807,56.046286,0.05867,0.011749,0.993759,-0.040432,-0.046056,0.042646,60.36821,22.258957,-147.286804,,,
729608487.703507,1.266381,-3.830084,56.057644,0.071671,0.015366,0.999664,-0.029776,-0.046329,0.041222,60.36821,22.258957,-147.286804,,,
729608487.7068,1.259152,-3.843796,56.068357,0.071671,0.015366,0.999664,-0.029776,-0.046329,0.041222,60.36821,22.258957,-147.286804,,,
729608487.710168,1.259152,-3.843796,56.068357,0.071671,0.015366,0.999664,-0.029776,-0.046329,0.041222,60.36821,22.258957,-147.286804,,,
729608487.713474,1.255646,-3.853872,56.078436,0.081573,0.015106,1.009491,-0.013128,-0.03783,0.036939,60.36821,22.258957,-147.286804,,,
729608487.716815,1.252034,-3.864731,56.087278,0.081573,0.015106,1.009491,-0.013128,-0.03783,0.036939,60.36821,22.258957,-147.286804,,,
729608487.720167,1.252034,-3.864731,56.087278,0.081573,0.015106,1.009491,-0.013128,-0.03783,0.036939,60.36821,22.258957,-147.286804,,,
729608487.723489,1.250552,-3.86986,56.094112,0.091949,0.014343,1.011505,-0.007694,-0.029307,0.024458,60.36821,22.258957,-147.286804,,,
729608487.72682,1.248468,-3.87571,56.099106,0.091949,0.014343,1.011505,-0.007694,-0.029307,0.024458,60.36821,22.258957,-147.286804,,,
729608487.730141,1.248468,-3.87571,56.099106,0.091949,0.014343,1.011505,-0.007694,-0.029307,0.024458,60.36821,22.258957,-147.286804,,,
729608487.733552,1.247454,-3.872552,56.10196,0.098557,0.019058,1.011841,-0.005846,-0.004522,0.008422,60.36821,22.258957,-147.286804,,,
729608487.736812,1.245546,-3.87056,56.102927,0.098557,0.019058,1.011841,-0.005846,-0.004522,0.008422,60.36821,22.258957,-147.286804,,,
729608487.740141,1.245546,-3.87056,56.102927,0.098557,0.019058,1.011841,-0.005846,-0.004522,0.008422,60.434708,22.340637,-147.026306,,,
729608487.743475,1.244611,-3.857961,56.102053,0.100815,0.021896,1.015945,-0.002768,0.019596,-0.003705,60.434708,22.340637,-147.026306,,,
729608487.746811,1.243668,-3.850774,56.099725,0.100815,0.021896,1.015945,-0.002768,0.019596,-0.003705,60.434708,22.340637,-147.026306,,,
729608487.75014,1.243668,-3.850774,56.099725,0.100815,0.021896,1.015945,-0.002768,0.019596,-0.003705,60.434708,22.340637,-147.026306,,,
729608487.753478,1.24272,-3.835087,56.095536,0.097443,0.022385,1.009796,-0.002614,0.034851,-0.016707,60.434708,22.340637,-147.026306,,,
729608487.756851,1.242822,-3.825499,56.090047,0.097443,0.022385,1.009796,-0.002614,0.034851,-0.016707,60.434708,22.340637,-147.026306,,,
729608487.760161,1.242822,-3.825499,56.090047,0.097443,0.022385,1.009796,-0.002614,0.034851,-0.016707,60.434708,22.340637,-147.026306,,,
729608487.763479,1.242715,-3.810202,56.083543,0.086472,0.018997,1.00914,0.002304,0.039136,-0.023351,60.434708,22.340637,-147.026306,,,
729608487.766808,1.245278,-3.801252,56.07659,0.086472,0.018997,1.00914,0.002304,0.039136,-0.023351,60.434708,22.340637,-147.026306,,,
729608487.77018,1.245278,-3.801252,56.07659,0.086472,0.018997,1.00914,0.002304,0.039136,-0.023351,60.434708,22.340637,-147.026306,,,
729608487.77347,1.24715,-3.791453,56.069113,0.076904,0.013794,1.0065,0.016192,0.025749,-0.026566,60.434708,22.340637,-147.026306,,,
729608487.776805,1.254024,-3.788018,56.061737,0.076904,0.013794,1.0065,0.016192,0.025749,-0.026566,60.434708,22.340637,-147.026306,,,
729608487.780136,1.254024,-3.788018,56.061737,0.076904,0.013794,1.0065,0.016192,0.025749,-0.026566,60.536713,22.399963,-147.293854,,,
729608487.783515,1.261465,-3.789096,56.053999,0.067841,0.015717,1.004211,0.031827,0.000939,-0.031701,60.536713,22.399963,-147.293854,,,
729608487.7868,1.27147,-3.793871,56.045346,0.067841,0.015717,1.004211,0.031827,0.000939,-0.031701,60.536713,22.399963,-147.293854,,,
729608487.790138,1.27147,-3.793871,56.045346,0.067841,0.015717,1.004211,0.031827,0.000939,-0.031701,60.536713,22.399963,-147.293854,,,
729608487.793519,1.279602,-3.803029,56.036522,0.063278,0.017242,0.99437,0.034608,-0.019792,-0.035073,60.536713,22.399963,-147.293854,,,
729608487.796795,1.289051,-3.808583,56.028558,0.063278,0.017242,0.99437,0.034608,-0.019792,-0.035073,60.536713,22.399963,-147.293854,,,
729608487.800154,1.289051,-3.808583,56.028558,0.063278,0.017242,0.99437,0.034608,-0.019792,-0.035073,60.536713,22.399963,-147.293854,,,
729608487.803473,1.29617,-3.817961,56.022202,0.060501,0.018066,0.996277,0.034153,-0.011609,-0.025963,60.536713,22.399963,-147.293854,,,
729608487.806805,1.30474,-3.820178,56.017523,0.060501,0.018066,0.996277,0.034153,-0.011609,-0.025963,60.536713,22.399963,-147.293854,,,
729608487.810206,1.30474,-3.820178,56.017523,0.060501,0.018066,0.996277,0.034153,-0.011609,-0.025963,60.536713,22.399963,-147.293854,,,
729608487.813462,1.311115,-3.828132,56.015148,0.058136,0.018845,0.994003,0.028109,0.001582,-0.011962,60.536713,22.399963,-147.293854,,,
729608487.816805,1.317501,-3.824703,56.013762,0.058136,0.018845,0.994003,0.028109,0.001582,-0.011962,60.536713,22.399963,-147.293854,,,
729608487.820137,1.317501,-3.824703,56.013762,0.058136,0.018845,0.994003,0.028109,0.001582,-0.011962,60.451904,22.148193,-147.034302,,,
729608487.823536,1.321224,-3.826999,56.013228,0.056808,0.02298,0.991928,0.016803,0.025093,-0.004587,60.451904,22.148193,-147.034302,,,
729608487.826793,1.32447,-3.818164,56.012768,0.056808,0.02298,0.991928,0.016803,0.025093,-0.004587,60.451904,22.148193,-147.034302,,,
729608487.830151,1.32447,-3.818164,56.012768,0.056808,0.02298,0.991928,0.016803,0.025093,-0.004587,60.451904,22.148193,-147.034302,,,
729608487.833466,1.326914,-3.817298,56.01207,0.059845,0.029877,0.992294,0.008588,0.036177,-0.006357,60.451904,22.148193,-147.034302,,,
729608487.836797,1.32868,-3.808026,56.010885,0.059845,0.029877,0.992294,0.008588,0.036177,-0.006357,60.451904,22.148193,-147.034302,,,
729608487.840139,1.32868,-3.808026,56.010885,0.059845,0.029877,0.992294,0.008588,0.036177,-0.006357,60.451904,22.148193,-147.034302,,,
729608487.843479,1.329773,-3.806373,56.009637,0.061798,0.033585,0.985001,0.006555,0.032198,-0.007207,60.451904,22.148193,-147.034302,,,
729608487.846805,1.331598,-3.799811,56.008489,0.061798,0.033585,0.985001,0.006555,0.032198,-0.007207,60.451904,22.148193,-147.034302,,,
729608487.85019,1.331598,-3.799811,56.008489,0.061798,0.033585,0.985001,0.006555,0.032198,-0.007207,60.451904,22.148193,-147.034302,,,
729608487.853469,1.330922,-3.798665,56.008666,0.056625,0.028351,0.984238,0.006191,0.02071,-0.002531,60.451904,22.148193,-147.034302,,,
729608487.856811,1.332342,-3.795367,56.010126,0.056625,0.028351,0.984238,0.006191,0.02071,-0.002531,60.451904,22.148193,-147.034302,,,
729608487.860159,1.332342,-3.795367,56.010126,0.056625,0.028351,0.984238,0.006191,0.02071,-0.002531,60.679138,22.154617,-147.127182,,,
729608487.863472,1.330665,-3.794938,56.012131,0.054276,0.024887,0.985992,0.004212,0.006849,0.004798,60.679138,22.154617,-147.127182,,,
729608487.866805,1.329839,-3.795455,56.013642,0.054276,0.024887,0.985992,0.004212,0.006849,0.004798,60.679138,22.154617,-147.127182,,,
729608487.870136,1.329839,-3.795455,56.013642,0.054276,0.024887,0.985992,0.004212,0.006849,0.004798,60.679138,22.154617,-147.127182,,,
729608487.873541,1.325456,-3.798044,56.014571,0.056656,0.028854,0.984482,-0.008831,-0.009766,0.002068,60.679138,22.154617,-147.127182,,,
729608487.876827,1.320415,-3.803543,56.014687,0.056656,0.028854,0.984482,-0.008831,-0.009766,0.002068,60.679138,22.154617,-147.127182,,,
729608487.880148,1.320415,-3.803543,56.014687,0.056656,0.028854,0.984482,-0.008831,-0.009766,0.002068,60.679138,22.154617,-147.127182,,,
729608487.883491,1.311561,-3.809222,56.014135,0.061096,0.032211,0.983307,-0.023991,-0.021999,-0.000967,60.679138,22.154617,-147.127182,,,
729608487.886799,1.302302,-3.816231,56.014012,0.061096,0.032211,0.983307,-0.023991,-0.021999,-0.000967,60.679138,22.154617,-147.127182,,,
729608487.890166,1.302302,-3.816231,56.014012,0.061096,0.032211,0.983307,-0.023991,-0.021999,-0.000967,60.679138,22.154617,-147.127182,,,
729608487.893489,1.291772,-3.820573,56.014583,0.06012,0.030441,0.991959,-0.032234,-0.018033,0.002623,60.679138,22.154617,-147.127182,,,
729608487.896808,1.28346,-3.827249,56.016263,0.06012,0.030441,0.991959,-0.032234,-0.018033,0.002623,60.679138,22.154617,-147.127182,,,
729608487.900185,1.28346,-3.827249,56.016263,0.06012,0.030441,0.991959,-0.032234,-0.018033,0.002623,60.679138,22.154617,-147.127182,,,
729608487.903483,1.276009,-3.831988,56.018965,0.058655,0.020523,1.004791,-0.026264,-0.021184,0.010232,60.363663,22.423248,-147.063873,,,
729608487.906798,1.271274,-3.83961,56.021999,0.058655,0.020523,1.004791,-0.026264,-0.021184,0.010232,60.363663,22.423248,-147.063873,,,
729608487.910149,1.271274,-3.83961,56.021999,0.058655,0.020523,1.004791,-0.026264,-0.021184,0.010232,60.363663,22.423248,-147.063873,,,
729608487.913535,1.27079,-3.845046,56.024588,0.063477,0.013733,1.010223,-0.004751,-0.02063,0.008117,60.363663,22.423248,-147.063873,,,
729608487.916793,1.271711,-3.852494,56.027093,0.063477,0.013733,1.010223,-0.004751,-0.02063,0.008117,60.363663,22.423248,-147.063873,,,
729608487.920144,1.271711,-3.852494,56.027093,0.063477,0.013733,1.010223,-0.004751,-0.02063,0.008117,60.363663,22.423248,-147.063873,,,
729608487.923486,1.277855,-3.858154,56.029886,0.066177,0.013977,1.013031,0.013276,-0.02017,0.007891,60.363663,22.423248,-147.063873,,,
729608487.926797,1.282641,-3.863782,56.033463,0.066177,0.013977,1.013031,0.013276,-0.02017,0.007891,60.363663,22.423248,-147.063873,,,
729608487.930142,1.282641,-3.863782,56.033463,0.066177,0.013977,1.013031,0.013276,-0.02017,0.007891,60.363663,22.423248,-147.063873,,,
729608487.933475,1.290112,-3.865735,56.037737,0.069,0.017868,1.008713,0.019825,-0.010625,0.01304,60.363663,22.423248,-147.063873,,,
729608487.936805,1.29452,-3.867971,56.043455,0.069,0.017868,1.008713,0.019825,-0.010625,0.01304,60.363663,22.423248,-147.063873,,,
729608487.940203,1.29452,-3.867971,56.043455,0.069,0.017868,1.008713,0.019825,-0.010625,0.01304,60.363663,22.423248,-147.063873,,,
729608487.943483,1.298943,-3.864851,56.050782,0.068253,0.016678,1.003296,0.015118,0.000758,0.020333,60.439987,22.290634,-147.205978,,,
729608487.946818,1.301292,-3.86375,56.058211,0.068253,0.016678,1.003296,0.015118,0.000758,0.020333,60.439987,22.290634,-147.205978,,,
729608487.950145,1.301292,-3.86375,56.058211,0.068253,0.016678,1.003296,0.015118,0.000758,0.020333,60.439987,22.290634,-147.205978,,,
729608487.953534,1.30417,-3.858611,56.065125,0.070175,0.020294,1.003815,0.009082,0.010576,0.021903,60.439987,22.290634,-147.205978,,,
729608487.956796,1.30632,-3.857127,56.071038,0.070175,0.020294,1.003815,0.009082,0.010576,0.021903,60.439987,22.290634,-147.205978,,,
729608487.960137,1.30632,-3.857127,56.071038,0.070175,0.020294,1.003815,0.009082,0.010576,0.021903,60.439987,22.290634,-147.205978,,,
729608487.96348,1.311103,-3.856149,56.075956,0.070618,0.02478,1.003296,0.01046,0.000206,0.0143,60.439987,22.290634,-147.205978,,,
729608487.966802,1.31458,-3.860357,56.080751,0.070618,0.02478,1.003296,0.01046,0.000206,0.0143,60.439987,22.290634,-147.205978,,,
729608487.970151,1.31458,-3.860357,56.080751,0.070618,0.02478,1.003296,0.01046,0.000206,0.0143,60.439987,22.290634,-147.205978,,,
729608487.973478,1.321828,-3.865703,56.08499,0.072159,0.023849,0.999023,0.018557,-0.022181,0.008395,60.439987,22.290634,-147.205978,,,
729608487.976803,1.327021,-3.874065,56.088697,0.072159,0.023849,0.999023,0.018557,-0.022181,0.008395,60.439987,22.290634,-147.205978,,,
729608487.980252,1.327021,-3.874065,56.088697,0.072159,0.023849,0.999023,0.018557,-0.022181,0.008395,60.439987,22.290634,-147.205978,,,
729608487.983478,1.332802,-3.880474,56.091398,0.07869,0.023788,0.996063,0.021916,-0.02747,0.005428,60.215622,22.37883,-146.884933,,,
729608487.986816,1.338756,-3.889533,56.092837,0.07869,0.023788,0.996063,0.021916,-0.02747,0.005428,60.215622,22.37883,-146.884933,,,
729608487.990163,1.338756,-3.889533,56.092837,0.07869,0.023788,0.996063,0.021916,-0.02747,0.005428,60.215622,22.37883,-146.884933,,,
729608487.993542,1.342559,-3.895888,56.092694,0.084747,0.025299,0.995255,0.022767,-0.027583,-0.003921,60.215622,22.37883,-146.884933,,,
729608487.996795,1.348257,-3.902605,56.091249,0.084747,0.025299,0.995255,0.022767,-0.027583,-0.003921,60.215622,22.37883,-146.884933,,,
729608488.000161,1.348257,-3.902605,56.091249,0.084747,0.025299,0.995255,0.022767,-0.027583,-0.003921,60.215622,22.37883,-146.884933,,,
729608488.003501,1.350965,-3.905766,56.088805,0.084503,0.028244,0.994186,0.01698,-0.013949,-0.010949,60.215622,22.37883,-146.884933,,,
729608488.006807,1.355825,-3.907333,56.085846,0.084503,0.028244,0.994186,0.01698,-0.013949,-0.010949,60.215622,22.37883,-146.884933,,,
729608488.010162,1.355825,-3.907333,56.085846,0.084503,0.028244,0.994186,0.01698,-0.013949,-0.010949,60.215622,22.37883,-146.884933,,,
729608488.013613,1.358683,-3.906548,56.082543,0.08316,0.026672,0.993713,0.019629,0.004042,-0.016503,60.215622,22.37883,-146.884933,,,
729608488.016805,1.364371,-3.904534,56.079209,0.08316,0.026672,0.993713,0.019629,0.004042,-0.016503,60.215622,22.37883,-146.884933,,,
729608488.020218,1.364371,-3.904534,56.079209,0.08316,0.026672,0.993713,0.019629,0.004042,-0.016503,60.215622,22.37883,-146.884933,,,
729608488.023478,1.369146,-3.901638,56.076142,0.077255,0.023346,0.99614,0.022803,0.016199,-0.017423,60.375931,22.258942,-147.187164,,,
729608488.026812,1.37557,-3.897081,56.072927,0.077255,0.023346,0.99614,0.022803,0.016199,-0.017423,60.375931,22.258942,-147.187164,,,
729608488.030157,1.37557,-3.897081,56.072927,0.077255,0.023346,0.99614,0.022803,0.016199,-0.017423,60.375931,22.258942,-147.187164,,,
729608488.03348,1.379674,-3.891477,56.069833,0.065918,0.022308,0.991653,0.020125,0.021453,-0.013795,60.375931,22.258942,-147.187164,,,
729608488.036813,1.384219,-3.884505,56.067821,0.065918,0.022308,0.991653,0.020125,0.021453,-0.013795,60.375931,22.258942,-147.187164,,,
729608488.040158,1.384219,-3.884505,56.067821,0.065918,0.022308,0.991653,0.020125,0.021453,-0.013795,60.375931,22.258942,-147.187164,,,
729608488.043543,1.387808,-3.877749,56.067714,0.057617,0.020279,0.991272,0.015336,0.028301,-0.004833,60.375931,22.258942,-147.187164,,,
729608488.0468,1.391065,-3.87108,56.069147,0.057617,0.020279,0.991272,0.015336,0.028301,-0.004833,60.375931,22.258942,-147.187164,,,
729608488.050158,1.391065,-3.87108,56.069147,0.057617,0.020279,0.991272,0.015336,0.028301,-0.004833,60.375931,22.258942,-147.187164,,,
729608488.053489,1.394565,-3.867141,56.071465,0.050049,0.019775,0.988693,0.009341,0.020905,0.005352,60.375931,22.258942,-147.187164,,,
729608488.05685,1.398517,-3.864394,56.074162,0.050049,0.019775,0.988693,0.009341,0.020905,0.005352,60.375931,22.258942,-147.187164,,,
729608488.060139,1.398517,-3.864394,56.074162,0.050049,0.019775,0.988693,0.009341,0.020905,0.005352,60.375931,22.258942,-147.187164,,,
729608488.063504,1.403176,-3.86689,56.076549,0.050903,0.022919,0.987747,0.018289,6.2e-05,0.005554,60.375931,22.258942,-147.187164,,,
729608488.066858,1.408972,-3.87005,56.077904,0.050903,0.022919,0.987747,0.018289,6.2e-05,0.005554,60.468475,22.114395,-147.096542,,,
729608488.070133,1.408972,-3.87005,56.077904,0.050903,0.022919,0.987747,0.018289,6.2e-05,0.005554,60.468475,22.114395,-147.096542,,,
729608488.073489,1.414876,-3.880131,56.078472,0.058105,0.028534,0.986298,0.020241,-0.015688,-0.00042,60.468475,22.114395,-147.096542,,,
729608488.076812,1.420608,-3.886399,56.078413,0.058105,0.028534,0.986298,0.020241,-0.015688,-0.00042,60.468475,22.114395,-147.096542,,,
729608488.08021,1.420608,-3.886399,56.078413,0.058105,0.028534,0.986298,0.020241,-0.015688,-0.00042,60.468475,22.114395,-147.096542,,,
729608488.083497,1.426073,-3.897084,56.078983,0.060059,0.028381,0.983322,0.019269,-0.018803,0.000377,60.468475,22.114395,-147.096542,,,
729608488.086807,1.43033,-3.90235,56.080387,0.060059,0.028381,0.983322,0.019269,-0.018803,0.000377,60.468475,22.114395,-147.096542,,,
729608488.090162,1.43033,-3.90235,56.080387,0.060059,0.028381,0.983322,0.019269,-0.018803,0.000377,60.468475,22.114395,-147.096542,,,
729608488.093547,1.434248,-3.910905,56.082489,0.060501,0.025452,0.978546,0.013848,-0.011774,0.003329,60.468475,22.114395,-147.096542,,,
729608488.096803,1.43547,-3.914366,56.084432,0.060501,0.025452,0.978546,0.013848,-0.011774,0.003329,60.468475,22.114395,-147.096542,,,
729608488.100153,1.43547,-3.914366,56.084432,0.060501,0.025452,0.978546,0.013848,-0.011774,0.003329,60.468475,22.114395,-147.096542,,,
729608488.103494,1.434951,-3.921342,56.086224,0.062943,0.026825,0.977982,-0.000387,-0.007474,0.003736,60.468475,22.114395,-147.096542,,,
729608488.106814,1.43352,-3.925904,56.088104,0.062943,0.026825,0.977982,-0.000387,-0.007474,0.003736,60.46698,22.32222,-147.171143,,,
729608488.110153,1.43352,-3.925904,56.088104,0.062943,0.026825,0.977982,-0.000387,-0.007474,0.003736,60.46698,22.32222,-147.171143,,,
729608488.113486,1.430308,-3.93184,56.090302,0.064148,0.029205,0.977249,-0.005555,-0.014665,0.004337,60.46698,22.32222,-147.171143,,,
729608488.116813,1.425557,-3.937351,56.093121,0.064148,0.029205,0.977249,-0.005555,-0.014665,0.004337,60.46698,22.32222,-147.171143,,,
729608488.120241,1.425557,-3.937351,56.093121,0.064148,0.029205,0.977249,-0.005555,-0.014665,0.004337,60.46698,22.32222,-147.171143,,,
729608488.123475,1.417946,-3.94022,56.096409,0.064941,0.024277,0.982498,-0.022432,-0.016591,0.012165,60.46698,22.32222,-147.171143,,,
729608488.126807,1.41013,-3.94455,56.100681,0.064941,0.024277,0.982498,-0.022432,-0.016591,0.012165,60.46698,22.32222,-147.171143,,,
729608488.130146,1.41013,-3.94455,56.100681,0.064941,0.024277,0.982498,-0.022432,-0.016591,0.012165,60.46698,22.32222,-147.171143,,,
729608488.133555,1.401046,-3.945401,56.106014,0.065475,0.020004,0.991837,-0.026097,-0.012623,0.021146,60.46698,22.32222,-147.171143,,,
729608488.136796,1.394255,-3.951789,56.112259,0.065475,0.020004,0.991837,-0.026097,-0.012623,0.021146,60.46698,22.32222,-147.171143,,,
729608488.140163,1.394255,-3.951789,56.112259,0.065475,0.020004,0.991837,-0.026097,-0.012623,0.021146,60.46698,22.32222,-147.171143,,,
729608488.143481,1.388379,-3.9529,56.118207,0.068604,0.015808,1.000122,-0.015756,-0.018043,0.020549,60.46698,22.32222,-147.171143,,,
729608488.146808,1.385125,-3.95886,56.123194,0.068604,0.015808,1.000122,-0.015756,-0.018043,0.020549,60.507477,22.031982,-147.155045,,,
729608488.150162,1.385125,-3.95886,56.123194,0.068604,0.015808,1.000122,-0.015756,-0.018043,0.020549,60.507477,22.031982,-147.155045,,,
729608488.153485,1.384778,-3.960074,56.126532,0.077713,0.020477,1.012177,-0.002722,-0.011599,0.010508,60.507477,22.031982,-147.155045,,,
729608488.156807,1.385785,-3.96365,56.127614,0.077713,0.020477,1.012177,-0.002722,-0.011599,0.010508,60.507477,22.031982,-147.155045,,,
729608488.16021,1.385785,-3.96365,56.127614,0.077713,0.020477,1.012177,-0.002722,-0.011599,0.010508,60.507477,22.031982,-147.155045,,,
729608488.163492,1.388679,-3.964192,56.126976,0.087097,0.024109,1.008194,0.006448,-0.007949,-0.002791,60.507477,22.031982,-147.155045,,,
729608488.166598,1.389746,-3.965094,56.12583,0.087097,0.024109,1.008194,0.006448,-0.007949,-0.002791,60.507477,22.031982,-147.155045,,,
729608488.170184,1.389746,-3.965094,56.12583,0.087097,0.024109,1.008194,0.006448,-0.007949,-0.002791,60.507477,22.031982,-147.155045,,,
729608488.173539,1.390744,-3.961434,56.124456,0.085297,0.025391,1.000168,-0.001342,0.009362,-0.005419,60.507477,22.031982,-147.155045,,,
729608488.176818,1.389473,-3.958723,56.123021,0.085297,0.025391,1.000168,-0.001342,0.009362,-0.005419,60.507477,22.031982,-147.155045,,,
729608488.180156,1.389473,-3.958723,56.123021,0.085297,0.025391,1.000168,-0.001342,0.009362,-0.005419,60.507477,22.031982,-147.155045,,,
729608488.183473,1.388258,-3.953912,56.121101,0.082535,0.026154,0.997574,-0.004075,0.015312,-0.00722,60.507477,22.031982,-147.155045,,,
729608488.186802,1.386974,-3.951516,56.118602,0.082535,0.026154,0.997574,-0.004075,0.015312,-0.00722,60.185501,22.312912,-147.22229,,,
729608488.190165,1.386974,-3.951516,56.118602,0.082535,0.026154,0.997574,-0.004075,0.015312,-0.00722,60.185501,22.312912,-147.22229,,,
729608488.193489,1.387147,-3.949883,56.115551,0.078796,0.024231,0.992523,-0.003182,0.005232,-0.011736,60.185501,22.312912,-147.22229,,,
729608488.196812,1.385381,-3.948997,56.111809,0.078796,0.024231,0.992523,-0.003182,0.005232,-0.011736,60.185501,22.312912,-147.22229,,,
729608488.200228,1.385381,-3.948997,56.111809,0.078796,0.024231,0.992523,-0.003182,0.005232,-0.011736,60.185501,22.312912,-147.22229,,,
729608488.203492,1.383935,-3.946113,56.107787,0.076553,0.022858,0.995316,-0.006674,0.00766,-0.013483,60.185501,22.312912,-147.22229,,,
729608488.206823,1.381611,-3.943416,56.103811,0.076553,0.022858,0.995316,-0.006674,0.00766,-0.013483,60.185501,22.312912,-147.22229,,,
729608488.210156,1.381611,-3.943416,56.103811,0.076553,0.022858,0.995316,-0.006674,0.00766,-0.013483,60.185501,22.312912,-147.22229,,,
729608488.213533,1.379355,-3.939635,56.10062,0.073593,0.022675,1.000626,-0.007809,0.01279,-0.009464,60.185501,22.312912,-147.22229,,,
729608488.216861,1.378779,-3.936841,56.098132,0.073593,0.022675,1.000626,-0.007809,0.01279,-0.009464,60.185501,22.312912,-147.22229,,,
729608488.220151,1.378779,-3.936841,56.098132,0.073593,0.022675,1.000626,-0.007809,0.01279,-0.009464,60.185501,22.312912,-147.22229,,,
729608488.2235,1.378207,-3.934376,56.09548,0.070053,0.019226,1.000992,0.005021,0.008398,-0.008199,60.185501,22.312912,-147.22229,,,
729608488.226847,1.38204,-3.932822,56.092882,0.070053,0.019226,1.000992,0.005021,0.008398,-0.008199,60.185501,22.312912,-147.22229,,,
729608488.230147,1.38204,-3.932822,56.092882,0.070053,0.019226,1.000992,0.005021,0.008398,-0.008199,60.096695,22.498184,-147.261108,,,
729608488.233478,1.387733,-3.932145,56.090205,0.069778,0.018845,1.005264,0.025685,0.008044,-0.012076,60.096695,22.498184,-147.261108,,,
729608488.236888,1.399013,-3.92991,56.087224,0.069778,0.018845,1.005264,0.025685,0.008044,-0.012076,60.096695,22.498184,-147.261108,,,
729608488.240214,1.399013,-3.92991,56.087224,0.069778,0.018845,1.005264,0.025685,0.008044,-0.012076,60.096695,22.498184,-147.261108,,,
729608488.243479,1.412404,-3.931636,56.08442,0.072708,0.021103,1.007599,0.047497,0.011598,-0.014998,60.096695,22.498184,-147.261108,,,
729608488.246809,1.426958,-3.929051,56.081604,0.072708,0.021103,1.007599,0.047497,0.011598,-0.014998,60.096695,22.498184,-147.261108,,,
729608488.250145,1.426958,-3.929051,56.081604,0.072708,0.021103,1.007599,0.047497,0.011598,-0.014998,60.096695,22.498184,-147.261108,,,
729608488.253528,1.439923,-3.930303,56.078924,0.071838,0.024704,0.993561,0.046753,0.014601,-0.014847,60.096695,22.498184,-147.261108,,,
729608488.256895,1.450282,-3.924994,56.076569,0.071838,0.024704,0.993561,0.046753,0.014601,-0.014847,60.096695,22.498184,-147.261108,,,
729608488.260156,1.450282,-3.924994,56.076569,0.071838,0.024704,0.993561,0.046753,0.014601,-0.014847,60.096695,22.498184,-147.261108,,,
729608488.263487,1.458487,-3.921568,56.074105,0.074478,0.030716,0.984558,0.029007,0.028304,-0.009373,60.096695,22.498184,-147.261108,,,
729608488.266874,1.46459,-3.912756,56.071257,0.074478,0.030716,0.984558,0.029007,0.028304,-0.009373,60.096695,22.498184,-147.261108,,,
729608488.270146,1.46459,-3.912756,56.071257,0.074478,0.030716,0.984558,0.029007,0.028304,-0.009373,60.351181,22.146713,-147.408646,,,
729608488.273487,1.469283,-3.907489,56.068981,0.074036,0.035416,0.979248,0.017929,0.035632,-0.01055,60.351181,22.146713,-147.408646,,,
729608488.27684,1.473118,-3.898184,56.067091,0.074036,0.035416,0.979248,0.017929,0.035632,-0.01055,60.351181,22.146713,-147.408646,,,
729608488.28019,1.473118,-3.898184,56.067091,0.074036,0.035416,0.979248,0.017929,0.035632,-0.01055,60.351181,22.146713,-147.408646,,,
