Time (sec),Pitch (deg),Roll (deg),Yaw(deg),X-Acceleration (g),Y-Acceleration (g),Z-Acceleration (g),Pitch Rate (deg/sec),Roll Rate (deg/sec),Yaw Rate (deg/sec),Magnetic Field in X direction (uT),Magnetic Field in Y direction (uT),Magnetic Field in Z Direction (uT),Latitude (deg),Longitude (deg),Altitude (m)
729600734.920151,1.770834,-2.1042,-2.506409,0.053329,0.035843,0.983612,0.012929,-0.02676,-0.016415,65.417526,9.014069,-147.523636,,,
729600734.923537,1.775159,-2.111235,-2.511752,0.053329,0.035843,0.983612,0.012929,-0.02676,-0.016415,65.417526,9.014069,-147.523636,,,
729600734.926813,1.775159,-2.111235,-2.511752,0.053329,0.035843,0.983612,0.025769,-0.012112,-0.030272,65.417526,9.014069,-147.523636,,,
729600734.930147,1.780274,-2.116522,-2.519005,0.057098,0.032349,0.987488,0.025769,-0.012112,-0.030272,65.417526,9.014069,-147.523636,,,
729600734.933521,1.788927,-2.120573,-2.528144,0.057098,0.032349,0.987488,0.025769,-0.012112,-0.030272,65.417526,9.014069,-147.523636,,,
729600734.936866,1.788927,-2.120573,-2.528144,0.057098,0.032349,0.987488,0.049959,-0.018421,-0.043907,65.417526,9.014069,-147.523636,,,
729600734.940161,1.800323,-2.125786,-2.539102,0.054642,0.031586,0.9897,0.049959,-0.018421,-0.043907,65.417526,9.014069,-147.523636,,,
729600734.943493,1.815654,-2.13328,-2.550819,0.054642,0.031586,0.9897,0.049959,-0.018421,-0.043907,65.417526,9.014069,-147.523636,,,
729600734.946882,1.815654,-2.13328,-2.550819,0.054642,0.031586,0.9897,0.058203,-0.025709,-0.039952,65.417526,9.014069,-147.523636,,,
729600734.950254,1.831306,-2.14329,-2.561874,0.046249,0.02858,0.98996,0.058203,-0.025709,-0.039952,65.20636,8.917099,-147.757019,,,
729600734.953469,1.848307,-2.150037,-2.571548,0.046249,0.02858,0.98996,0.058203,-0.025709,-0.039952,65.20636,8.917099,-147.757019,,,
729600734.956875,1.848307,-2.150037,-2.571548,0.046249,0.02858,0.98996,0.058203,-0.025709,-0.039952,65.20636,8.917099,-147.757019,,,
729600734.96015,1.863667,-2.15481,-2.580302,0.039688,0.024612,0.983154,0.054106,-0.00084,-0.033745,65.20636,8.917099,-147.757019,,,
729600734.963473,1.878856,-2.155272,-2.588139,0.039688,0.024612,0.983154,0.054106,-0.00084,-0.033745,65.20636,8.917099,-147.757019,,,
729600734.966884,1.878856,-2.155272,-2.588139,0.039688,0.024612,0.983154,0.054106,-0.00084,-0.033745,65.20636,8.917099,-147.757019,,,
729600734.970163,1.892421,-2.157409,-2.594877,0.046799,0.032791,0.974747,0.048677,-0.003284,-0.026206,65.20636,8.917099,-147.757019,,,
729600734.97347,1.90547,-2.158843,-2.6017,0.046799,0.032791,0.974747,0.048677,-0.003284,-0.026206,65.20636,8.917099,-147.757019,,,
729600734.976816,1.90547,-2.158843,-2.6017,0.046799,0.032791,0.974747,0.048677,-0.003284,-0.026206,65.20636,8.917099,-147.757019,,,
729600734.980157,1.916246,-2.161297,-2.608499,0.048157,0.042175,0.973328,0.034239,-0.000898,-0.025791,65.20636,8.917099,-147.757019,,,
729600734.983516,1.92433,-2.161733,-2.616107,0.048157,0.042175,0.973328,0.034239,-0.000898,-0.025791,65.20636,8.917099,-147.757019,,,
729600734.986884,1.92433,-2.161733,-2.616107,0.048157,0.042175,0.973328,0.034239,-0.000898,-0.025791,65.20636,8.917099,-147.757019,,,
729600734.990173,1.929575,-2.162841,-2.625569,0.048233,0.04863,0.968018,0.011829,0.009169,-0.038344,65.338974,9.059662,-147.348831,,,
729600734.993481,1.931546,-2.159122,-2.637098,0.048233,0.04863,0.968018,0.011829,0.009169,-0.038344,65.338974,9.059662,-147.348831,,,
729600734.99686,1.931546,-2.159122,-2.637098,0.048233,0.04863,0.968018,0.011829,0.009169,-0.038344,65.338974,9.059662,-147.348831,,,
729600735.00026,1.932184,-2.154795,-2.650402,0.055817,0.050522,0.9664,0.000701,0.03354,-0.050956,65.338974,9.059662,-147.348831,,,
729600735.003469,1.933161,-2.144039,-2.665349,0.055817,0.050522,0.9664,0.000701,0.03354,-0.050956,65.338974,9.059662,-147.348831,,,
729600735.006942,1.933161,-2.144039,-2.665349,0.055817,0.050522,0.9664,0.000701,0.03354,-0.050956,65.338974,9.059662,-147.348831,,,
729600735.010124,1.935604,-2.133318,-2.680447,0.063492,0.050308,0.98053,0.011659,0.052216,-0.053032,65.338974,9.059662,-147.348831,,,
729600735.013515,1.940783,-2.117583,-2.694947,0.063492,0.050308,0.98053,0.011659,0.052216,-0.053032,65.338974,9.059662,-147.348831,,,
729600735.01686,1.940783,-2.117583,-2.694947,0.063492,0.050308,0.98053,0.011659,0.052216,-0.053032,65.338974,9.059662,-147.348831,,,
729600735.020157,1.94742,-2.10184,-2.708687,0.055084,0.045151,0.988403,0.023703,0.067183,-0.048687,65.338974,9.059662,-147.348831,,,
729600735.023478,1.954645,-2.081067,-2.721108,0.055084,0.045151,0.988403,0.023703,0.067183,-0.048687,65.338974,9.059662,-147.348831,,,
729600735.026907,1.954645,-2.081067,-2.721108,0.055084,0.045151,0.988403,0.023703,0.067183,-0.048687,65.338974,9.059662,-147.348831,,,
729600735.030151,1.961967,-2.05748,-2.732563,0.039841,0.042557,0.988464,0.031008,0.091404,-0.042318,65.430923,8.825668,-147.419434,,,
729600735.033524,1.971762,-2.031414,-2.744402,0.039841,0.042557,0.988464,0.031008,0.091404,-0.042318,65.430923,8.825668,-147.419434,,,
729600735.036817,1.971762,-2.031414,-2.744402,0.039841,0.042557,0.988464,0.031008,0.091404,-0.042318,65.430923,8.825668,-147.419434,,,
729600735.040223,1.982435,-2.006551,-2.757504,0.039703,0.04512,0.991547,0.043286,0.088535,-0.051681,65.430923,8.825668,-147.419434,,,
729600735.043496,1.995885,-1.982014,-2.772644,0.039703,0.04512,0.991547,0.043286,0.088535,-0.051681,65.430923,8.825668,-147.419434,,,
729600735.046856,1.995885,-1.982014,-2.772644,0.039703,0.04512,0.991547,0.043286,0.088535,-0.051681,65.430923,8.825668,-147.419434,,,
729600735.050239,2.011243,-1.960412,-2.789193,0.036102,0.040466,0.992691,0.053138,0.079988,-0.062239,65.430923,8.825668,-147.419434,,,
729600735.053471,2.026587,-1.93853,-2.806231,0.036102,0.040466,0.992691,0.053138,0.079988,-0.062239,65.430923,8.825668,-147.419434,,,
729600735.056855,2.026587,-1.93853,-2.806231,0.036102,0.040466,0.992691,0.053138,0.079988,-0.062239,65.430923,8.825668,-147.419434,,,
729600735.060153,2.042025,-1.919409,-2.822727,0.019958,0.029587,0.990204,0.044723,0.073511,-0.058561,65.430923,8.825668,-147.419434,,,
729600735.063482,2.054162,-1.898486,-2.838126,0.019958,0.029587,0.990204,0.044723,0.073511,-0.058561,65.430923,8.825668,-147.419434,,,
729600735.066659,2.054162,-1.898486,-2.838126,0.019958,0.029587,0.990204,0.044723,0.073511,-0.058561,65.430923,8.825668,-147.419434,,,
729600735.070199,2.0663,-1.879811,-2.851582,0.005936,0.027817,0.987061,0.032251,0.074182,-0.045147,65.451355,8.972153,-147.657593,,,
729600735.073476,2.07459,-1.859334,-2.862498,0.005936,0.027817,0.987061,0.032251,0.074182,-0.045147,65.451355,8.972153,-147.657593,,,
729600735.076964,2.07459,-1.859334,-2.862498,0.005936,0.027817,0.987061,0.032251,0.074182,-0.045147,65.451355,8.972153,-147.657593,,,
729600735.080138,2.081638,-1.843356,-2.870771,0.006363,0.033005,0.983414,0.011352,0.066547,-0.02684,65.451355,8.972153,-147.657593,,,
729600735.083531,2.083588,-1.824935,-2.876834,0.006363,0.033005,0.983414,0.011352,0.066547,-0.02684,65.451355,8.972153,-147.657593,,,
729600735.086806,2.083588,-1.824935,-2.876834,0.006363,0.033005,0.983414,0.011352,0.066547,-0.02684,65.451355,8.972153,-147.657593,,,
729600735.090235,2.084432,-1.810394,-2.880693,0.00531,0.0327,0.979492,-0.005899,0.064524,-0.01181,65.451355,8.972153,-147.657593,,,
729600735.093536,2.081322,-1.79338,-2.883419,0.00531,0.0327,0.979492,-0.005899,0.064524,-0.01181,65.451355,8.972153,-147.657593,,,
729600735.096818,2.081322,-1.79338,-2.883419,0.00531,0.0327,0.979492,-0.005899,0.064524,-0.01181,65.451355,8.972153,-147.657593,,,
729600735.100204,2.076162,-1.779734,-2.885467,0.006073,0.029434,0.981842,-0.025393,0.053985,-0.006929,65.451355,8.972153,-147.657593,,,
729600735.103468,2.06902,-1.766466,-2.887127,0.006073,0.029434,0.981842,-0.025393,0.053985,-0.006929,65.451355,8.972153,-147.657593,,,
729600735.106851,2.06902,-1.766466,-2.887127,0.006073,0.029434,0.981842,-0.025393,0.053985,-0.006929,65.451355,8.972153,-147.657593,,,
729600735.109919,2.062336,-1.757249,-2.888502,0.011887,0.029266,0.985413,-0.027725,0.031976,-0.005102,65.451355,8.972153,-147.657593,,,
729600735.113518,2.053572,-1.750936,-2.889619,0.011887,0.029266,0.985413,-0.027725,0.031976,-0.005102,65.679214,8.739639,-147.878326,,,
729600735.116863,2.053572,-1.750936,-2.889619,0.011887,0.029266,0.985413,-0.027725,0.031976,-0.005102,65.679214,8.739639,-147.878326,,,
729600735.120156,2.044284,-1.749425,-2.891073,0.016937,0.029373,0.9888,-0.038392,0.005106,-0.007343,65.679214,8.739639,-147.878326,,,
729600735.12348,2.03226,-1.749542,-2.893071,0.016937,0.029373,0.9888,-0.038392,0.005106,-0.007343,65.679214,8.739639,-147.878326,,,
729600735.126901,2.03226,-1.749542,-2.893071,0.016937,0.029373,0.9888,-0.038392,0.005106,-0.007343,65.679214,8.739639,-147.878326,,,
729600735.130153,2.018169,-1.750964,-2.895435,0.020706,0.033539,0.99086,-0.053621,-0.00273,-0.009452,65.679214,8.739639,-147.878326,,,
729600735.133526,2.002224,-1.752559,-2.898322,0.020706,0.033539,0.99086,-0.053621,-0.00273,-0.009452,65.679214,8.739639,-147.878326,,,
729600735.136832,2.002224,-1.752559,-2.898322,0.020706,0.033539,0.99086,-0.053621,-0.00273,-0.009452,65.679214,8.739639,-147.878326,,,
729600735.140211,1.984592,-1.751517,-2.901344,0.026825,0.034393,0.997742,-0.059276,-0.000933,-0.009658,65.679214,8.739639,-147.878326,,,
729600735.143471,1.967255,-1.752236,-2.903723,0.026825,0.034393,0.997742,-0.059276,-0.000933,-0.009658,65.679214,8.739639,-147.878326,,,
729600735.146823,1.967255,-1.752236,-2.903723,0.026825,0.034393,0.997742,-0.059276,-0.000933,-0.009658,65.679214,8.739639,-147.878326,,,
729600735.150253,1.947941,-1.747552,-2.90518,0.02829,0.031708,1.001221,-0.066932,0.007081,-0.002009,65.679214,8.739639,-147.878326,,,
729600735.153467,1.928089,-1.745764,-2.905223,0.02829,0.031708,1.001221,-0.066932,0.007081,-0.002009,65.62944,8.789124,-147.981079,,,
729600735.15683,1.928089,-1.745764,-2.905223,0.02829,0.031708,1.001221,-0.066932,0.007081,-0.002009,65.62944,8.789124,-147.981079,,,
729600735.160155,1.907234,-1.737938,-2.903725,0.025497,0.028748,1.001251,-0.074934,0.017744,0.010041,65.62944,8.789124,-147.981079,,,
729600735.163477,1.884891,-1.733368,-2.90123,0.025497,0.028748,1.001251,-0.074934,0.017744,0.010041,65.62944,8.789124,-147.981079,,,
729600735.166988,1.884891,-1.733368,-2.90123,0.025497,0.028748,1.001251,-0.074934,0.017744,0.010041,65.62944,8.789124,-147.981079,,,
729600735.170141,1.860882,-1.723607,-2.899375,0.029083,0.030533,1.002396,-0.085061,0.022447,0.006912,65.62944,8.789124,-147.981079,,,
729600735.173473,1.836147,-1.718606,-2.897847,0.029083,0.030533,1.002396,-0.085061,0.022447,0.006912,65.62944,8.789124,-147.981079,,,
729600735.176825,1.836147,-1.718606,-2.897847,0.029083,0.030533,1.002396,-0.085061,0.022447,0.006912,65.62944,8.789124,-147.981079,,,
729600735.1802,1.811352,-1.710075,-2.897204,0.030624,0.031631,1.001892,-0.082528,0.018478,0.001522,65.62944,8.789124,-147.981079,,,
729600735.183511,1.787516,-1.706562,-2.897064,0.030624,0.031631,1.001892,-0.082528,0.018478,0.001522,65.62944,8.789124,-147.981079,,,
729600735.186814,1.787516,-1.706562,-2.897064,0.030624,0.031631,1.001892,-0.082528,0.018478,0.001522,65.62944,8.789124,-147.981079,,,
729600735.190149,1.764146,-1.701546,-2.897412,0.025925,0.02594,1.00708,-0.078031,0.009056,-0.00138,65.62944,8.789124,-147.981079,,,
729600735.193466,1.742261,-1.700577,-2.898017,0.025925,0.02594,1.00708,-0.078031,0.009056,-0.00138,65.831711,9.042313,-147.83548,,,
729600735.196818,1.742261,-1.700577,-2.898017,0.025925,0.02594,1.00708,-0.078031,0.009056,-0.00138,65.831711,9.042313,-147.83548,,,
729600735.200191,1.723395,-1.698925,-2.898463,0.02153,0.021683,1.011215,-0.057246,-0.001029,-0.00042,65.831711,9.042313,-147.83548,,,
729600735.203472,1.708026,-1.700461,-2.898885,0.02153,0.021683,1.011215,-0.057246,-0.001029,-0.00042,65.831711,9.042313,-147.83548,,,
729600735.20689,1.708026,-1.700461,-2.898885,0.02153,0.021683,1.011215,-0.057246,-0.001029,-0.00042,65.831711,9.042313,-147.83548,,,
729600735.210157,1.695684,-1.701601,-2.900172,0.025986,0.018494,1.019302,-0.042221,-0.005924,-0.006653,65.831711,9.042313,-147.83548,,,
729600735.213474,1.684482,-1.705322,-2.901342,0.025986,0.018494,1.019302,-0.042221,-0.005924,-0.006653,65.831711,9.042313,-147.83548,,,
729600735.216901,1.684482,-1.705322,-2.901342,0.025986,0.018494,1.019302,-0.042221,-0.005924,-0.006653,65.831711,9.042313,-147.83548,,,
729600735.220207,1.675826,-1.711158,-2.90181,0.025177,0.017578,1.013184,-0.029604,-0.023632,-0.002034,65.831711,9.042313,-147.83548,,,
729600735.223488,1.667497,-1.720542,-2.901498,0.025177,0.017578,1.013184,-0.029604,-0.023632,-0.002034,65.831711,9.042313,-147.83548,,,
729600735.226822,1.667497,-1.720542,-2.901498,0.025177,0.017578,1.013184,-0.029604,-0.023632,-0.002034,65.831711,9.042313,-147.83548,,,
729600735.230155,1.660188,-1.732265,-2.900284,0.019791,0.019348,1.007996,-0.024254,-0.043286,0.00423,65.831711,9.042313,-147.83548,,,
729600735.233517,1.652507,-1.746427,-2.899399,0.019791,0.019348,1.007996,-0.024254,-0.043286,0.00423,65.711899,9.060059,-148.171677,,,
729600735.236812,1.652507,-1.746427,-2.899399,0.019791,0.019348,1.007996,-0.024254,-0.043286,0.00423,65.711899,9.060059,-148.171677,,,
729600735.240154,1.643343,-1.759876,-2.899785,0.025726,0.029297,1.003693,-0.033961,-0.044228,-0.004184,65.711899,9.060059,-148.171677,,,
729600735.243481,1.633598,-1.773464,-2.902267,0.025726,0.029297,1.003693,-0.033961,-0.044228,-0.004184,65.711899,9.060059,-148.171677,,,
729600735.246886,1.633598,-1.773464,-2.902267,0.025726,0.029297,1.003693,-0.033961,-0.044228,-0.004184,65.711899,9.060059,-148.171677,,,
729600735.250192,1.624683,-1.786653,-2.90659,0.040695,0.03688,1.003616,-0.03185,-0.042549,-0.017013,65.711899,9.060059,-148.171677,,,
729600735.253469,1.615421,-1.799437,-2.911679,0.040695,0.03688,1.003616,-0.03185,-0.042549,-0.017013,65.711899,9.060059,-148.171677,,,
729600735.256826,1.615421,-1.799437,-2.911679,0.040695,0.03688,1.003616,-0.03185,-0.042549,-0.017013,65.711899,9.060059,-148.171677,,,
729600735.26022,1.606799,-1.810569,-2.916586,0.043991,0.034393,1.005569,-0.029771,-0.034026,-0.015742,65.711899,9.060059,-148.171677,,,
729600735.263466,1.59774,-1.820582,-2.920382,0.043991,0.034393,1.005569,-0.029771,-0.034026,-0.015742,65.711899,9.060059,-148.171677,,,
729600735.266866,1.59774,-1.820582,-2.920382,0.043991,0.034393,1.005569,-0.029771,-0.034026,-0.015742,65.711899,9.060059,-148.171677,,,
729600735.27016,1.587463,-1.828287,-2.923177,0.036072,0.029785,1.002029,-0.032958,-0.027383,-0.008379,65.711899,9.060059,-148.171677,,,
729600735.273477,1.57867,-1.836003,-2.92555,0.036072,0.029785,1.002029,-0.032958,-0.027383,-0.008379,65.711899,9.060059,-148.171677,,,
729600735.276823,1.57867,-1.836003,-2.92555,0.036072,0.029785,1.002029,-0.032958,-0.027383,-0.008379,65.674088,9.144165,-148.133057,,,
729600735.280243,1.569018,-1.840542,-2.928352,0.039917,0.028946,1.006775,-0.029399,-0.018587,-0.011125,65.674088,9.144165,-148.133057,,,
729600735.283519,1.561082,-1.846978,-2.931493,0.039917,0.028946,1.006775,-0.029399,-0.018587,-0.011125,65.674088,9.144165,-148.133057,,,
729600735.286881,1.561082,-1.846978,-2.931493,0.039917,0.028946,1.006775,-0.029399,-0.018587,-0.011125,65.674088,9.144165,-148.133057,,,
729600735.290148,1.552546,-1.852714,-2.934959,0.041275,0.029968,1.003128,-0.020906,-0.019321,-0.013523,65.674088,9.144165,-148.133057,,,
729600735.293473,1.54718,-1.858928,-2.939145,0.041275,0.029968,1.003128,-0.020906,-0.019321,-0.013523,65.674088,9.144165,-148.133057,,,
729600735.296814,1.54718,-1.858928,-2.939145,0.041275,0.029968,1.003128,-0.020906,-0.019321,-0.013523,65.674088,9.144165,-148.133057,,,
729600735.300243,1.541656,-1.863129,-2.944521,0.038712,0.026886,1.003204,-0.009764,-0.018897,-0.021841,65.674088,9.144165,-148.133057,,,
729600735.303469,1.539867,-1.870243,-2.950686,0.038712,0.026886,1.003204,-0.009764,-0.018897,-0.021841,65.674088,9.144165,-148.133057,,,
729600735.30682,1.539867,-1.870243,-2.950686,0.038712,0.026886,1.003204,-0.009764,-0.018897,-0.021841,65.674088,9.144165,-148.133057,,,
729600735.310165,1.540243,-1.876715,-2.957086,0.035461,0.025208,1.002884,0.011198,-0.030027,-0.023758,65.674088,9.144165,-148.133057,,,
729600735.313472,1.544582,-1.885891,-2.964055,0.035461,0.025208,1.002884,0.011198,-0.030027,-0.023758,65.674088,9.144165,-148.133057,,,
729600735.316853,1.544582,-1.885891,-2.964055,0.035461,0.025208,1.002884,0.011198,-0.030027,-0.023758,65.481461,9.297134,-147.650192,,,
729600735.320149,1.551929,-1.894464,-2.972953,0.033096,0.023361,1.004608,0.02372,-0.029178,-0.037513,65.481461,9.297134,-147.650192,,,
729600735.323476,1.559993,-1.904478,-2.984572,0.033096,0.023361,1.004608,0.02372,-0.029178,-0.037513,65.481461,9.297134,-147.650192,,,
729600735.326887,1.559993,-1.904478,-2.984572,0.033096,0.023361,1.004608,0.02372,-0.029178,-0.037513,65.481461,9.297134,-147.650192,,,
729600735.330156,1.571646,-1.918765,-2.998192,0.041031,0.028229,0.999634,0.035538,-0.04646,-0.052237,65.481461,9.297134,-147.650192,,,
729600735.333509,1.582207,-1.934598,-3.012657,0.041031,0.028229,0.999634,0.035538,-0.04646,-0.052237,65.481461,9.297134,-147.650192,,,
729600735.336804,1.582207,-1.934598,-3.012657,0.041031,0.028229,0.999634,0.035538,-0.04646,-0.052237,65.481461,9.297134,-147.650192,,,
729600735.340202,1.594069,-1.95603,-3.027878,0.032532,0.02742,0.996384,0.039721,-0.077199,-0.057925,65.481461,9.297134,-147.650192,,,
729600735.343468,1.606487,-1.981659,-3.044283,0.032532,0.02742,0.996384,0.039721,-0.077199,-0.057925,65.481461,9.297134,-147.650192,,,
729600735.346805,1.606487,-1.981659,-3.044283,0.032532,0.02742,0.996384,0.039721,-0.077199,-0.057925,65.481461,9.297134,-147.650192,,,
729600735.350176,1.619557,-2.012822,-3.060574,0.029953,0.025299,0.99884,0.042384,-0.11411,-0.0574,65.481461,9.297134,-147.650192,,,
729600735.353531,1.631902,-2.046209,-3.07538,0.029953,0.025299,0.99884,0.042384,-0.11411,-0.0574,65.481461,9.297134,-147.650192,,,
729600735.356808,1.631902,-2.046209,-3.07538,0.029953,0.025299,0.99884,0.042384,-0.11411,-0.0574,65.391235,9.240585,-147.985382,,,
729600735.360167,1.643854,-2.079377,-3.087687,0.027084,0.023727,0.999176,0.038313,-0.104174,-0.040118,65.391235,9.240585,-147.985382,,,
729600735.363477,1.65377,-2.106182,-3.097179,0.027084,0.023727,0.999176,0.038313,-0.104174,-0.040118,65.391235,9.240585,-147.985382,,,
729600735.366896,1.65377,-2.106182,-3.097179,0.027084,0.023727,0.999176,0.038313,-0.104174,-0.040118,65.391235,9.240585,-147.985382,,,
729600735.370139,1.661817,-2.126383,-3.10401,0.029877,0.024734,1.002747,0.02604,-0.054611,-0.021219,65.391235,9.240585,-147.985382,,,
729600735.373478,1.668884,-2.139232,-3.108601,0.029877,0.024734,1.002747,0.02604,-0.054611,-0.021219,65.391235,9.240585,-147.985382,,,
729600735.376832,1.668884,-2.139232,-3.108601,0.029877,0.024734,1.002747,0.02604,-0.054611,-0.021219,65.391235,9.240585,-147.985382,,,
729600735.380191,1.675068,-2.145755,-3.111221,0.040405,0.032257,1.001099,0.024162,-0.009363,-0.007453,65.391235,9.240585,-147.985382,,,
729600735.383553,1.683862,-2.145552,-3.112287,0.040405,0.032257,1.001099,0.024162,-0.009363,-0.007453,65.391235,9.240585,-147.985382,,,
729600735.38684,1.683862,-2.145552,-3.112287,0.040405,0.032257,1.001099,0.024162,-0.009363,-0.007453,65.391235,9.240585,-147.985382,,,
729600735.390233,1.694941,-2.136986,-3.114236,0.0466,0.030594,1.009781,0.046471,0.042042,-0.014236,65.391235,9.240585,-147.985382,,,
729600735.393472,1.708967,-2.124372,-3.117341,0.0466,0.030594,1.009781,0.046471,0.042042,-0.014236,65.391235,9.240585,-147.985382,,,
729600735.396805,1.708967,-2.124372,-3.117341,0.0466,0.030594,1.009781,0.046471,0.042042,-0.014236,65.411774,9.084518,-147.67511,,,
729600735.400202,1.722867,-2.110072,-3.120723,0.048828,0.028854,1.016144,0.053501,0.052934,-0.016374,65.411774,9.084518,-147.67511,,,
729600735.403465,1.737892,-2.09594,-3.124086,0.048828,0.028854,1.016144,0.053501,0.052934,-0.016374,65.411774,9.084518,-147.67511,,,
729600735.406803,1.737892,-2.09594,-3.124086,0.048828,0.028854,1.016144,0.053501,0.052934,-0.016374,65.411774,9.084518,-147.67511,,,
729600735.410161,1.750911,-2.082575,-3.126675,0.026245,0.024445,0.990417,0.040823,0.050463,-0.010574,65.411774,9.084518,-147.67511,,,
729600735.413469,1.7614,-2.069446,-3.128898,0.026245,0.024445,0.990417,0.040823,0.050463,-0.010574,65.411774,9.084518,-147.67511,,,
729600735.416875,1.7614,-2.069446,-3.128898,0.026245,0.024445,0.990417,0.040823,0.050463,-0.010574,65.411774,9.084518,-147.67511,,,
729600735.42017,1.768176,-2.05785,-3.131114,0.019302,0.030334,0.979828,0.021447,0.03228,-0.009534,65.411774,9.084518,-147.67511,,,
729600735.423477,1.772463,-2.051551,-3.132956,0.019302,0.030334,0.979828,0.021447,0.03228,-0.009534,65.411774,9.084518,-147.67511,,,
729600735.426821,1.772463,-2.051551,-3.132956,0.019302,0.030334,0.979828,0.021447,0.03228,-0.009534,65.411774,9.084518,-147.67511,,,
729600735.430211,1.77291,-2.047696,-3.13453,0.024796,0.037338,0.972855,0.002441,0.006945,-0.006667,65.411774,9.084518,-147.67511,,,
729600735.433512,1.773021,-2.04754,-3.13638,0.024796,0.037338,0.972855,0.002441,0.006945,-0.006667,65.411774,9.084518,-147.67511,,,
729600735.436814,1.773021,-2.04754,-3.13638,0.024796,0.037338,0.972855,0.002441,0.006945,-0.006667,65.411774,9.084518,-147.67511,,,
729600735.440157,1.770978,-2.048098,-3.138573,0.024323,0.033844,0.979721,-0.00179,-0.009882,-0.008564,65.488724,9.121353,-147.822098,,,
729600735.443469,1.770428,-2.052259,-3.140803,0.024323,0.033844,0.979721,-0.00179,-0.009882,-0.008564,65.488724,9.121353,-147.822098,,,
729600735.446826,1.770428,-2.052259,-3.140803,0.024323,0.033844,0.979721,-0.00179,-0.009882,-0.008564,65.488724,9.121353,-147.822098,,,
729600735.450208,1.770003,-2.056883,-3.143445,0.027267,0.03212,0.985199,0.003655,-0.014779,-0.011602,65.488724,9.121353,-147.822098,,,
729600735.453468,1.771492,-2.061303,-3.146157,0.027267,0.03212,0.985199,0.003655,-0.014779,-0.011602,65.488724,9.121353,-147.822098,,,
729600735.456868,1.771492,-2.061303,-3.146157,0.027267,0.03212,0.985199,0.003655,-0.014779,-0.011602,65.488724,9.121353,-147.822098,,,
729600735.460133,1.773927,-2.06562,-3.148727,0.026901,0.027405,0.997543,0.008279,-0.005788,-0.01103,65.488724,9.121353,-147.822098,,,
729600735.46347,1.775267,-2.067646,-3.15087,0.026901,0.027405,0.997543,0.008279,-0.005788,-0.01103,65.488724,9.121353,-147.822098,,,
729600735.466852,1.775267,-2.067646,-3.15087,0.026901,0.027405,0.997543,0.008279,-0.005788,-0.01103,65.488724,9.121353,-147.822098,,,
729600735.470199,1.774425,-2.071679,-3.151668,0.029694,0.030518,0.997253,-0.004764,-0.003829,-0.001705,65.488724,9.121353,-147.822098,,,
729600735.473459,1.771957,-2.073201,-3.151341,0.029694,0.030518,0.997253,-0.004764,-0.003829,-0.001705,65.488724,9.121353,-147.822098,,,
729600735.476827,1.771957,-2.073201,-3.151341,0.029694,0.030518,0.997253,-0.004764,-0.003829,-0.001705,65.488724,9.121353,-147.822098,,,
729600735.480146,1.767163,-2.075158,-3.150156,0.026703,0.031784,0.988373,-0.016236,0.000595,0.004466,65.665375,8.892914,-147.477493,,,
729600735.48351,1.761133,-2.075826,-3.14827,0.026703,0.031784,0.988373,-0.016236,0.000595,0.004466,65.665375,8.892914,-147.477493,,,
729600735.486812,1.761133,-2.075826,-3.14827,0.026703,0.031784,0.988373,-0.016236,0.000595,0.004466,65.665375,8.892914,-147.477493,,,
729600735.490163,1.751848,-2.074385,-3.145769,0.035141,0.0354,0.987167,-0.032262,-0.004586,0.009927,65.665375,8.892914,-147.477493,,,
729600735.493465,1.741852,-2.075711,-3.142553,0.035141,0.0354,0.987167,-0.032262,-0.004586,0.009927,65.665375,8.892914,-147.477493,,,
729600735.496889,1.741852,-2.075711,-3.142553,0.035141,0.0354,0.987167,-0.032262,-0.004586,0.009927,65.665375,8.892914,-147.477493,,,
729600735.500186,1.73169,-2.072486,-3.138655,0.037888,0.035278,0.987915,-0.039351,0.010104,0.015439,65.665375,8.892914,-147.477493,,,
729600735.503468,1.720353,-2.06995,-3.133907,0.037888,0.035278,0.987915,-0.039351,0.010104,0.015439,65.665375,8.892914,-147.477493,,,
729600735.50681,1.720353,-2.06995,-3.133907,0.037888,0.035278,0.987915,-0.039351,0.010104,0.015439,65.665375,8.892914,-147.477493,,,
729600735.510206,1.710583,-2.064671,-3.129229,0.044189,0.031998,0.995926,-0.038431,0.015355,0.015309,65.665375,8.892914,-147.477493,,,
729600735.513462,1.699476,-2.06196,-3.125566,0.044189,0.031998,0.995926,-0.038431,0.015355,0.015309,65.665375,8.892914,-147.477493,,,
729600735.516847,1.699476,-2.06196,-3.125566,0.044189,0.031998,0.995926,-0.038431,0.015355,0.015309,65.665375,8.892914,-147.477493,,,
729600735.520135,1.689519,-2.05845,-3.123018,0.052505,0.037003,0.996658,-0.035937,0.008371,0.007823,65.579758,9.137253,-147.59108,,,
729600735.523469,1.679547,-2.056486,-3.121038,0.052505,0.037003,0.996658,-0.035937,0.008371,0.007823,65.579758,9.137253,-147.59108,,,
729600735.526809,1.679547,-2.056486,-3.121038,0.052505,0.037003,0.996658,-0.035937,0.008371,0.007823,65.579758,9.137253,-147.59108,,,
729600735.530188,1.670382,-2.051275,-3.119514,0.049118,0.036835,0.999924,-0.031722,0.019584,0.004832,65.579758,9.137253,-147.59108,,,
729600735.533537,1.661286,-2.045548,-3.117948,0.049118,0.036835,0.999924,-0.031722,0.019584,0.004832,65.579758,9.137253,-147.59108,,,
729600735.536795,1.661286,-2.045548,-3.117948,0.049118,0.036835,0.999924,-0.031722,0.019584,0.004832,65.579758,9.137253,-147.59108,,,
729600735.540163,1.652045,-2.036828,-3.115963,0.045166,0.031448,1.003555,-0.031707,0.030214,0.008068,65.579758,9.137253,-147.59108,,,
729600735.543468,1.642265,-2.027713,-3.113426,0.045166,0.031448,1.003555,-0.031707,0.030214,0.008068,65.579758,9.137253,-147.59108,,,
729600735.546878,1.642265,-2.027713,-3.113426,0.045166,0.031448,1.003555,-0.031707,0.030214,0.008068,65.579758,9.137253,-147.59108,,,
729600735.550195,1.63171,-2.015795,-3.110362,0.048569,0.029678,1.001053,-0.039186,0.042247,0.012207,65.579758,9.137253,-147.59108,,,
729600735.553463,1.619104,-2.005865,-3.106661,0.048569,0.029678,1.001053,-0.039186,0.042247,0.012207,65.579758,9.137253,-147.59108,,,
729600735.556819,1.619104,-2.005865,-3.106661,0.048569,0.029678,1.001053,-0.039186,0.042247,0.012207,65.579758,9.137253,-147.59108,,,
729600735.560131,1.605943,-1.996237,-3.102939,0.046524,0.029617,0.998474,-0.049861,0.032913,0.012894,65.541321,9.22319,-147.58107,,,
729600735.563472,1.591834,-1.987797,-3.099885,0.046524,0.029617,0.998474,-0.049861,0.032913,0.012894,65.541321,9.22319,-147.58107,,,
729600735.566846,1.591834,-1.987797,-3.099885,0.046524,0.029617,0.998474,-0.049861,0.032913,0.012894,65.541321,9.22319,-147.58107,,,
729600735.570202,1.579784,-1.980811,-3.097548,0.038971,0.026382,1.000031,-0.046217,0.02657,0.007608,65.541321,9.22319,-147.58107,,,
729600735.573472,1.566731,-1.975181,-3.096164,0.038971,0.026382,1.000031,-0.046217,0.02657,0.007608,65.541321,9.22319,-147.58107,,,
729600735.576823,1.566731,-1.975181,-3.096164,0.038971,0.026382,1.000031,-0.046217,0.02657,0.007608,65.541321,9.22319,-147.58107,,,
729600735.580147,1.555818,-1.972022,-3.095356,0.030228,0.022186,1.003036,-0.03953,0.014674,0.003214,65.541321,9.22319,-147.58107,,,
729600735.583519,1.545722,-1.969198,-3.094239,0.030228,0.022186,1.003036,-0.03953,0.014674,0.003214,65.541321,9.22319,-147.58107,,,
729600735.586862,1.545722,-1.969198,-3.094239,0.030228,0.022186,1.003036,-0.03953,0.014674,0.003214,65.541321,9.22319,-147.58107,,,
729600735.590147,1.540044,-1.970425,-3.093586,0.029449,0.021088,1.006836,-0.015965,0.004247,-0.001335,65.541321,9.22319,-147.58107,,,
729600735.593472,1.537112,-1.971743,-3.09431,0.029449,0.021088,1.006836,-0.015965,0.004247,-0.001335,65.541321,9.22319,-147.58107,,,
729600735.59691,1.537112,-1.971743,-3.09431,0.029449,0.021088,1.006836,-0.015965,0.004247,-0.001335,65.541321,9.22319,-147.58107,,,
729600735.600194,1.540405,-1.979353,-3.095924,0.035385,0.021606,1.011276,0.012101,-0.015925,-0.00918,65.541321,9.22319,-147.58107,,,
729600735.603488,1.545233,-1.985136,-3.098589,0.035385,0.021606,1.011276,0.012101,-0.015925,-0.00918,65.464569,9.321533,-147.749832,,,
729600735.60683,1.545233,-1.985136,-3.098589,0.035385,0.021606,1.011276,0.012101,-0.015925,-0.00918,65.464569,9.321533,-147.749832,,,
729600735.610147,1.554214,-1.994277,-3.102141,0.036026,0.022278,1.013077,0.031012,-0.0254,-0.016437,65.464569,9.321533,-147.749832,,,
729600735.613539,1.56406,-2.003028,-3.106097,0.036026,0.022278,1.013077,0.031012,-0.0254,-0.016437,65.464569,9.321533,-147.749832,,,
729600735.616838,1.56406,-2.003028,-3.106097,0.036026,0.022278,1.013077,0.031012,-0.0254,-0.016437,65.464569,9.321533,-147.749832,,,
729600735.620137,1.575487,-2.014846,-3.109972,0.033417,0.021301,1.002747,0.037979,-0.03257,-0.016483,65.464569,9.321533,-147.749832,,,
729600735.623474,1.585597,-2.025043,-3.114112,0.033417,0.021301,1.002747,0.037979,-0.03257,-0.016483,65.464569,9.321533,-147.749832,,,
729600735.626871,1.585597,-2.025043,-3.114112,0.033417,0.021301,1.002747,0.037979,-0.03257,-0.016483,65.464569,9.321533,-147.749832,,,
729600735.630137,1.594335,-2.037211,-3.118881,0.035706,0.026642,0.992905,0.025827,-0.029859,-0.020922,65.464569,9.321533,-147.749832,,,
729600735.633521,1.602212,-2.045766,-3.124201,0.035706,0.026642,0.992905,0.025827,-0.029859,-0.020922,65.464569,9.321533,-147.749832,,,
729600735.636823,1.602212,-2.045766,-3.124201,0.035706,0.026642,0.992905,0.025827,-0.029859,-0.020922,65.464569,9.321533,-147.749832,,,
729600735.640143,1.610539,-2.053551,-3.129494,0.04509,0.03035,0.996658,0.028094,-0.013363,-0.021126,65.464569,9.321533,-147.749832,,,
729600735.643558,1.618377,-2.05588,-3.134906,0.04509,0.03035,0.996658,0.028094,-0.013363,-0.021126,65.480469,9.220001,-147.511795,,,
729600735.646816,1.618377,-2.05588,-3.134906,0.04509,0.03035,0.996658,0.028094,-0.013363,-0.021126,65.480469,9.220001,-147.511795,,,
729600735.65022,1.624945,-2.053516,-3.139734,0.048798,0.027969,1.003006,0.023546,0.018304,-0.016849,65.480469,9.220001,-147.511795,,,
729600735.653478,1.631297,-2.046857,-3.143131,0.048798,0.027969,1.003006,0.023546,0.018304,-0.016849,65.480469,9.220001,-147.511795,,,
729600735.656839,1.631297,-2.046857,-3.143131,0.048798,0.027969,1.003006,0.023546,0.018304,-0.016849,65.480469,9.220001,-147.511795,,,
729600735.660156,1.636559,-2.03471,-3.144983,0.045914,0.024246,0.997223,0.0261,0.047831,-0.005923,65.480469,9.220001,-147.511795,,,
729600735.66358,1.644143,-2.02079,-3.145686,0.045914,0.024246,0.997223,0.0261,0.047831,-0.005923,65.480469,9.220001,-147.511795,,,
729600735.666879,1.644143,-2.02079,-3.145686,0.045914,0.024246,0.997223,0.0261,0.047831,-0.005923,65.480469,9.220001,-147.511795,,,
729600735.670159,1.649874,-2.004717,-3.14571,0.043213,0.025726,0.995178,0.023382,0.057409,-0.000923,65.480469,9.220001,-147.511795,,,
729600735.673476,1.654869,-1.989421,-3.145359,0.043213,0.025726,0.995178,0.023382,0.057409,-0.000923,65.480469,9.220001,-147.511795,,,
729600735.676865,1.654869,-1.989421,-3.145359,0.043213,0.025726,0.995178,0.023382,0.057409,-0.000923,65.480469,9.220001,-147.511795,,,
729600735.680142,1.656053,-1.975071,-3.144377,0.039963,0.028488,0.982025,0.00605,0.051801,0.004068,65.480469,9.220001,-147.511795,,,
729600735.683512,1.656104,-1.961386,-3.143206,0.039963,0.028488,0.982025,0.00605,0.051801,0.004068,65.750626,9.103683,-147.584259,,,
729600735.686827,1.656104,-1.961386,-3.143206,0.039963,0.028488,0.982025,0.00605,0.051801,0.004068,65.750626,9.103683,-147.584259,,,
729600735.690139,1.652,-1.949918,-3.142688,0.031967,0.028915,0.970642,-0.012354,0.036022,0.00016,65.750626,9.103683,-147.584259,,,
729600735.693492,1.647426,-1.941876,-3.143813,0.031967,0.028915,0.970642,-0.012354,0.036022,0.00016,65.750626,9.103683,-147.584259,,,
729600735.696818,1.647426,-1.941876,-3.143813,0.031967,0.028915,0.970642,-0.012354,0.036022,0.00016,65.750626,9.103683,-147.584259,,,
729600735.700199,1.640754,-1.936712,-3.147168,0.034454,0.031876,0.969086,-0.01998,0.016426,-0.015108,65.750626,9.103683,-147.584259,,,
729600735.703511,1.634644,-1.934185,-3.151805,0.034454,0.031876,0.969086,-0.01998,0.016426,-0.015108,65.750626,9.103683,-147.584259,,,
729600735.706812,1.634644,-1.934185,-3.151805,0.034454,0.031876,0.969086,-0.01998,0.016426,-0.015108,65.750626,9.103683,-147.584259,,,
729600735.71015,1.627191,-1.935194,-3.15795,0.039139,0.030899,0.977615,-0.029228,-0.002576,-0.025536,65.750626,9.103683,-147.584259,,,
729600735.713593,1.618793,-1.937792,-3.164837,0.039139,0.030899,0.977615,-0.029228,-0.002576,-0.025536,65.750626,9.103683,-147.584259,,,
729600735.71691,1.618793,-1.937792,-3.164837,0.039139,0.030899,0.977615,-0.029228,-0.002576,-0.025536,65.750626,9.103683,-147.584259,,,
729600735.720029,1.610719,-1.944332,-3.171341,0.036682,0.02887,0.976349,-0.029197,-0.012512,-0.023319,65.750626,9.103683,-147.584259,,,
729600735.723604,1.610719,-1.948855,-3.178102,0.036682,0.02887,0.976349,-0.029197,-0.012512,-0.023319,65.750626,9.103683,-147.584259,,,
729600735.726816,1.601733,-1.948855,-3.178102,0.036682,0.02887,0.976349,-0.029197,-0.012512,-0.023319,65.394608,9.245468,-147.848038,,,
729600735.73015,1.590849,-1.956957,-3.18471,0.035172,0.029495,0.982071,-0.04006,-0.019315,-0.022368,65.394608,9.245468,-147.848038,,,
729600735.733578,1.579001,-1.964029,-3.191119,0.035172,0.029495,0.982071,-0.04006,-0.019315,-0.022368,65.394608,9.245468,-147.848038,,,
729600735.736809,1.579001,-1.964029,-3.191119,0.035172,0.029495,0.982071,-0.04006,-0.019315,-0.022368,65.394608,9.245468,-147.848038,,,
729600735.740142,1.564794,-1.974127,-3.197374,0.037064,0.031464,0.97879,-0.051794,-0.027619,-0.021258,65.394608,9.245468,-147.848038,,,
729600735.743602,1.54926,-1.982707,-3.20384,0.037064,0.031464,0.97879,-0.051794,-0.027619,-0.021258,65.394608,9.245468,-147.848038,,,
729600735.746794,1.54926,-1.982707,-3.20384,0.037064,0.031464,0.97879,-0.051794,-0.027619,-0.021258,65.394608,9.245468,-147.848038,,,
729600735.750186,1.532826,-1.992452,-3.210878,0.034744,0.030823,0.978821,-0.058499,-0.025166,-0.025276,65.394608,9.245468,-147.848038,,,
729600735.753491,1.532826,-1.992452,-3.210878,0.034744,0.030823,0.978821,-0.058499,-0.025166,-0.025276,65.394608,9.245468,-147.848038,,,
729600735.756867,1.516773,-2.000746,-3.219032,0.034744,0.030823,0.978821,-0.058499,-0.025166,-0.025276,65.394608,9.245468,-147.848038,,,
729600735.760153,1.502972,-2.008526,-3.228654,0.040909,0.029694,0.988159,-0.045986,-0.018528,-0.035956,65.394608,9.245468,-147.848038,,,
729600735.763474,1.502972,-2.008526,-3.228654,0.040909,0.029694,0.988159,-0.045986,-0.018528,-0.035956,65.394608,9.245468,-147.848038,,,
729600735.766875,1.491599,-2.012897,-3.240304,0.040909,0.029694,0.988159,-0.045986,-0.018528,-0.035956,65.428772,9.458923,-147.501968,,,
729600735.770132,1.48418,-2.013859,-3.253421,0.044754,0.023346,1.006744,-0.025309,0.002154,-0.046812,65.428772,9.458923,-147.501968,,,
729600735.77349,1.48418,-2.013859,-3.253421,0.044754,0.023346,1.006744,-0.025309,0.002154,-0.046812,65.428772,9.458923,-147.501968,,,
729600735.776817,1.477765,-2.013165,-3.267035,0.044754,0.023346,1.006744,-0.025309,0.002154,-0.046812,65.428772,9.458923,-147.501968,,,
729600735.780212,1.472613,-2.010741,-3.279919,0.033966,0.016571,1.006973,-0.024615,0.01827,-0.041813,65.428772,9.458923,-147.501968,,,
729600735.783546,1.472613,-2.010741,-3.279919,0.033966,0.016571,1.006973,-0.024615,0.01827,-0.041813,65.428772,9.458923,-147.501968,,,
729600735.786817,1.464934,-2.00489,-3.290114,0.033966,0.016571,1.006973,-0.024615,0.01827,-0.041813,65.428772,9.458923,-147.501968,,,
729600735.790163,1.455916,-1.998103,-3.297763,0.018585,0.014267,0.996429,-0.03874,0.030777,-0.023734,65.428772,9.458923,-147.501968,,,
729600735.793549,1.455916,-1.998103,-3.297763,0.018585,0.014267,0.996429,-0.03874,0.030777,-0.023734,65.428772,9.458923,-147.501968,,,
729600735.796829,1.443516,-1.989584,-3.303346,0.018585,0.014267,0.996429,-0.03874,0.030777,-0.023734,65.428772,9.458923,-147.501968,,,
729600735.800183,1.429225,-1.980544,-3.307614,0.022675,0.02179,0.990051,-0.055506,0.035534,-0.014002,65.428772,9.458923,-147.501968,,,
729600735.803501,1.429225,-1.980544,-3.307614,0.022675,0.02179,0.990051,-0.055506,0.035534,-0.014002,65.428772,9.458923,-147.501968,,,
729600735.806802,1.412018,-1.971665,-3.311705,0.022675,0.02179,0.990051,-0.055506,0.035534,-0.014002,65.580231,9.444839,-147.460403,,,
729600735.810134,1.393889,-1.963645,-3.315805,0.023514,0.024704,0.987549,-0.068098,0.031157,-0.013655,65.580231,9.444839,-147.460403,,,
729600735.813467,1.393889,-1.963645,-3.315805,0.023514,0.024704,0.987549,-0.068098,0.031157,-0.013655,65.580231,9.444839,-147.460403,,,
729600735.816894,1.374081,-1.956106,-3.320566,0.023514,0.024704,0.987549,-0.068098,0.031157,-0.013655,65.580231,9.444839,-147.460403,,,
729600735.820132,1.355553,-1.950124,-3.325995,0.019226,0.020111,0.991852,-0.066681,0.023022,-0.018429,65.580231,9.444839,-147.460403,,,
729600735.823472,1.355553,-1.950124,-3.325995,0.019226,0.020111,0.991852,-0.066681,0.023022,-0.018429,65.580231,9.444839,-147.460403,,,
729600735.826852,1.337075,-1.944275,-3.331846,0.019226,0.020111,0.991852,-0.066681,0.023022,-0.018429,65.580231,9.444839,-147.460403,,,
729600735.830132,1.321168,-1.938663,-3.338435,0.0168,0.015656,0.995773,-0.057068,0.024565,-0.023973,65.580231,9.444839,-147.460403,,,
729600735.83353,1.321168,-1.938663,-3.338435,0.0168,0.015656,0.995773,-0.057068,0.024565,-0.023973,65.580231,9.444839,-147.460403,,,
729600735.836821,1.306017,-1.933115,-3.34513,0.0168,0.015656,0.995773,-0.057068,0.024565,-0.023973,65.580231,9.444839,-147.460403,,,
729600735.840134,1.293696,-1.931278,-3.351826,0.016861,0.014496,1.003647,-0.043181,0.011003,-0.024668,65.580231,9.444839,-147.460403,,,
729600735.843565,1.293696,-1.931278,-3.351826,0.016861,0.014496,1.003647,-0.043181,0.011003,-0.024668,65.580231,9.444839,-147.460403,,,
729600735.846801,1.282191,-1.930281,-3.358161,0.016861,0.014496,1.003647,-0.043181,0.011003,-0.024668,65.60643,9.507568,-147.722672,,,
729600735.850223,1.271747,-1.932759,-3.363028,0.011993,0.014862,1.00386,-0.03357,-0.002889,-0.015004,65.60643,9.507568,-147.722672,,,
729600735.853505,1.271747,-1.932759,-3.363028,0.011993,0.014862,1.00386,-0.03357,-0.002889,-0.015004,65.60643,9.507568,-147.722672,,,
729600735.856807,1.262991,-1.935809,-3.367045,0.011993,0.014862,1.00386,-0.03357,-0.002889,-0.015004,65.60643,9.507568,-147.722672,,,
729600735.860144,1.254219,-1.940201,-3.370469,0.011017,0.016647,1.001282,-0.024663,-0.020059,-0.011036,65.60643,9.507568,-147.722672,,,
729600735.863499,1.254219,-1.940201,-3.370469,0.011017,0.016647,1.001282,-0.024663,-0.020059,-0.011036,65.60643,9.507568,-147.722672,,,
729600735.866897,1.246696,-1.948347,-3.373484,0.011017,0.016647,1.001282,-0.024663,-0.020059,-0.011036,65.60643,9.507568,-147.722672,,,
729600735.870145,1.238007,-1.955068,-3.376154,0.014648,0.020645,0.996658,-0.025444,-0.02973,-0.008206,65.60643,9.507568,-147.722672,,,
729600735.873536,1.238007,-1.955068,-3.376154,0.014648,0.020645,0.996658,-0.025444,-0.02973,-0.008206,65.60643,9.507568,-147.722672,,,
729600735.876822,1.230984,-1.964376,-3.378628,0.014648,0.020645,0.996658,-0.025444,-0.02973,-0.008206,65.60643,9.507568,-147.722672,,,
729600735.880109,1.225254,-1.97136,-3.381443,0.023758,0.024216,1.006226,-0.02124,-0.026329,-0.010439,65.60643,9.507568,-147.722672,,,
729600735.883591,1.225254,-1.97136,-3.381443,0.023758,0.024216,1.006226,-0.02124,-0.026329,-0.010439,65.60643,9.507568,-147.722672,,,
729600735.886822,1.219223,-1.978405,-3.383897,0.023758,0.024216,1.006226,-0.02124,-0.026329,-0.010439,65.60643,9.507568,-147.722672,,,
729600735.890136,1.213544,-1.980502,-3.385543,0.027603,0.023727,1.008667,-0.021459,-0.006822,-0.004478,65.555923,9.591385,-147.679962,,,
729600735.893466,1.213544,-1.980502,-3.385543,0.027603,0.023727,1.008667,-0.021459,-0.006822,-0.004478,65.555923,9.591385,-147.679962,,,
729600735.896811,1.206347,-1.980955,-3.386188,0.027603,0.023727,1.008667,-0.021459,-0.006822,-0.004478,65.555923,9.591385,-147.679962,,,
729600735.900192,1.197785,-1.97418,-3.385677,0.027451,0.022018,1.005463,-0.027292,0.022223,0.004268,65.555923,9.591385,-147.679962,,,
729600735.903472,1.197785,-1.97418,-3.385677,0.027451,0.022018,1.005463,-0.027292,0.022223,0.004268,65.555923,9.591385,-147.679962,,,
729600735.906867,1.189988,-1.967869,-3.384017,0.027451,0.022018,1.005463,-0.027292,0.022223,0.004268,65.555923,9.591385,-147.679962,,,
729600735.910136,1.181418,-1.95747,-3.382062,0.034897,0.0233,1.007004,-0.025382,0.028122,0.006678,65.555923,9.591385,-147.679962,,,
729600735.913487,1.181418,-1.95747,-3.382062,0.034897,0.0233,1.007004,-0.025382,0.028122,0.006678,65.555923,9.591385,-147.679962,,,
729600735.916857,1.174088,-1.950593,-3.379765,0.034897,0.0233,1.007004,-0.025382,0.028122,0.006678,65.555923,9.591385,-147.679962,,,
729600735.920135,1.166038,-1.940947,-3.377192,0.033325,0.023697,1.002899,-0.022571,0.023674,0.009005,65.555923,9.591385,-147.679962,,,
729600735.923476,1.166038,-1.940947,-3.377192,0.033325,0.023697,1.002899,-0.022571,0.023674,0.009005,65.555923,9.591385,-147.679962,,,
729600735.926814,1.15971,-1.93525,-3.374825,0.033325,0.023697,1.002899,-0.022571,0.023674,0.009005,65.555923,9.591385,-147.679962,,,
729600735.930141,1.153417,-1.926116,-3.373506,0.031433,0.023361,1.001282,-0.016325,0.019164,0.002025,65.626846,9.545578,-147.772629,,,
729600735.933541,1.153417,-1.926116,-3.373506,0.031433,0.023361,1.001282,-0.016325,0.019164,0.002025,65.626846,9.545578,-147.772629,,,
729600735.936814,1.149497,-1.922118,-3.372766,0.031433,0.023361,1.001282,-0.016325,0.019164,0.002025,65.626846,9.545578,-147.772629,,,
729600735.940135,1.147433,-1.915823,-3.373071,0.035828,0.023361,1.002762,-0.000782,0.00773,-0.005246,65.626846,9.545578,-147.772629,,,
729600735.943466,1.147433,-1.915823,-3.373071,0.035828,0.023361,1.002762,-0.000782,0.00773,-0.005246,65.626846,9.545578,-147.772629,,,
729600735.946834,1.147847,-1.915679,-3.374394,0.035828,0.023361,1.002762,-0.000782,0.00773,-0.005246,65.626846,9.545578,-147.772629,,,
729600735.950207,1.150074,-1.915132,-3.375609,0.039627,0.022949,1.006165,0.009692,-0.009585,-0.004417,65.626846,9.545578,-147.772629,,,
729600735.953458,1.150074,-1.915132,-3.375609,0.039627,0.022949,1.006165,0.009692,-0.009585,-0.004417,65.626846,9.545578,-147.772629,,,
729600735.956718,1.154122,-1.919826,-3.376364,0.039627,0.022949,1.006165,0.009692,-0.009585,-0.004417,65.626846,9.545578,-147.772629,,,
729600735.960102,1.161566,-1.924698,-3.377059,0.034851,0.018814,1.008347,0.028064,-0.020743,-0.004442,65.626846,9.545578,-147.772629,,,
729600735.963401,1.161566,-1.924698,-3.377059,0.034851,0.018814,1.008347,0.028064,-0.020743,-0.004442,65.626846,9.545578,-147.772629,,,
729600735.966887,1.169756,-1.93171,-3.377899,0.034851,0.018814,1.008347,0.028064,-0.020743,-0.004442,65.626846,9.545578,-147.772629,,,
729600735.97013,1.179045,-1.937636,-3.378992,0.037369,0.022232,1.009415,0.033031,-0.021397,-0.006215,65.626923,9.549316,-147.766937,,,
729600735.973446,1.179045,-1.937636,-3.378992,0.037369,0.022232,1.009415,0.033031,-0.021397,-0.006215,65.626923,9.549316,-147.766937,,,
729600735.976822,1.187899,-1.94375,-3.380127,0.037369,0.022232,1.009415,0.033031,-0.021397,-0.006215,65.626923,9.549316,-147.766937,,,
729600735.980141,1.196429,-1.94741,-3.381728,0.044373,0.025269,1.005005,0.02898,-0.009868,-0.009184,65.626923,9.549316,-147.766937,,,
729600735.983564,1.196429,-1.94741,-3.381728,0.044373,0.025269,1.005005,0.02898,-0.009868,-0.009184,65.626923,9.549316,-147.766937,,,
729600735.986811,1.203488,-1.949519,-3.383383,0.044373,0.025269,1.005005,0.02898,-0.009868,-0.009184,65.626923,9.549316,-147.766937,,,
729600735.990137,1.208755,-1.948234,-3.384539,0.048843,0.02652,0.999496,0.013551,0.016088,-0.00522,65.626923,9.549316,-147.766937,,,
729600735.993486,1.208755,-1.948234,-3.384539,0.048843,0.02652,0.999496,0.013551,0.016088,-0.00522,65.626923,9.549316,-147.766937,,,
729600735.996906,1.211803,-1.943128,-3.385836,0.048843,0.02652,0.999496,0.013551,0.016088,-0.00522,65.626923,9.549316,-147.766937,,,
729600736.000215,1.21314,-1.935434,-3.387502,0.053665,0.031265,0.996887,-0.001128,0.030711,-0.007258,65.626923,9.549316,-147.766937,,,
729600736.003486,1.21314,-1.935434,-3.387502,0.053665,0.031265,0.996887,-0.001128,0.030711,-0.007258,65.626923,9.549316,-147.766937,,,
729600736.006823,1.212133,-1.926514,-3.389062,0.053665,0.031265,0.996887,-0.001128,0.030711,-0.007258,65.626923,9.549316,-147.766937,,,
729600736.010151,1.209008,-1.915591,-3.390876,0.055939,0.032303,0.99086,-0.018595,0.043723,-0.008407,65.55957,9.723572,-147.910034,,,
729600736.013472,1.209008,-1.915591,-3.390876,0.055939,0.032303,0.99086,-0.018595,0.043723,-0.008407,65.55957,9.723572,-147.910034,,,
729600736.016855,1.202658,-1.904112,-3.392976,0.055939,0.032303,0.99086,-0.018595,0.043723,-0.008407,65.55957,9.723572,-147.910034,,,
729600736.02014,1.195966,-1.893892,-3.395096,0.054916,0.030945,0.98407,-0.024223,0.040942,-0.00854,65.55957,9.723572,-147.910034,,,
729600736.023546,1.195966,-1.893892,-3.395096,0.054916,0.030945,0.98407,-0.024223,0.040942,-0.00854,65.55957,9.723572,-147.910034,,,
729600736.026821,1.189491,-1.883613,-3.398048,0.054916,0.030945,0.98407,-0.024223,0.040942,-0.00854,65.55957,9.723572,-147.910034,,,
729600736.030186,1.18477,-1.875969,-3.401527,0.048996,0.026123,0.987991,-0.012395,0.028949,-0.012742,65.55957,9.723572,-147.910034,,,
729600736.033509,1.18477,-1.875969,-3.401527,0.048996,0.026123,0.987991,-0.012395,0.028949,-0.012742,65.55957,9.723572,-147.910034,,,
729600736.036911,1.18281,-1.869052,-3.40534,0.048996,0.026123,0.987991,-0.012395,0.028949,-0.012742,65.55957,9.723572,-147.910034,,,
729600736.040133,1.18461,-1.862381,-3.409906,0.045349,0.018036,0.996933,0.01558,0.029843,-0.018944,65.55957,9.723572,-147.910034,,,
729600736.043471,1.18461,-1.862381,-3.409906,0.045349,0.018036,0.996933,0.01558,0.029843,-0.018944,65.55957,9.723572,-147.910034,,,
729600736.046824,1.190149,-1.854349,-3.415212,0.045349,0.018036,0.996933,0.01558,0.029843,-0.018944,65.55957,9.723572,-147.910034,,,
729600736.050182,1.197876,-1.848937,-3.421424,0.04364,0.014389,1.006882,0.027343,0.021137,-0.025808,65.55957,9.723572,-147.910034,,,
729600736.053464,1.197876,-1.848937,-3.421424,0.04364,0.014389,1.006882,0.027343,0.021137,-0.025808,65.731415,9.521347,-147.855392,,,
729600736.056836,1.205389,-1.845423,-3.428228,0.04364,0.014389,1.006882,0.027343,0.021137,-0.025808,65.731415,9.521347,-147.855392,,,
729600736.060138,1.21327,-1.848501,-3.43503,0.034805,0.015472,0.991882,0.024342,-0.007192,-0.026083,65.731415,9.521347,-147.855392,,,
729600736.063561,1.21327,-1.848501,-3.43503,0.034805,0.015472,0.991882,0.024342,-0.007192,-0.026083,65.731415,9.521347,-147.855392,,,
729600736.066865,1.219019,-1.852306,-3.441515,0.034805,0.015472,0.991882,0.024342,-0.007192,-0.026083,65.731415,9.521347,-147.855392,,,
729600736.070139,1.222904,-1.859537,-3.447694,0.029724,0.020325,0.983551,0.003059,-0.007952,-0.023734,65.731415,9.521347,-147.855392,,,
729600736.07347,1.222904,-1.859537,-3.447694,0.029724,0.020325,0.983551,0.003059,-0.007952,-0.023734,65.731415,9.521347,-147.855392,,,
729600736.076877,1.222121,-1.861774,-3.453939,0.029724,0.020325,0.983551,0.003059,-0.007952,-0.023734,65.731415,9.521347,-147.855392,,,
729600736.080125,1.220131,-1.866833,-3.460106,0.03511,0.023438,0.985367,-0.018753,0.001516,-0.023101,65.731415,9.521347,-147.855392,,,
729600736.083532,1.220131,-1.866833,-3.460106,0.03511,0.023438,0.985367,-0.018753,0.001516,-0.023101,65.731415,9.521347,-147.855392,,,
729600736.086811,1.214304,-1.867365,-3.466465,0.03511,0.023438,0.985367,-0.018753,0.001516,-0.023101,65.731415,9.521347,-147.855392,,,
729600736.090135,1.209507,-1.872404,-3.472862,0.038132,0.023773,0.98732,-0.025236,1e-06,-0.023789,65.731415,9.521347,-147.855392,,,
729600736.093481,1.209507,-1.872404,-3.472862,0.038132,0.023773,0.98732,-0.025236,1e-06,-0.023789,65.744781,9.412552,-147.692566,,,
729600736.096814,1.203249,-1.872365,-3.479804,0.038132,0.023773,0.98732,-0.025236,1e-06,-0.023789,65.744781,9.412552,-147.692566,,,
729600736.100187,1.200774,-1.874781,-3.487418,0.043961,0.022293,0.997116,-0.010349,0.009701,-0.029537,65.744781,9.412552,-147.692566,,,
729600736.103513,1.200774,-1.874781,-3.487418,0.043961,0.022293,0.997116,-0.010349,0.009701,-0.029537,65.744781,9.412552,-147.692566,,,
729600736.106808,1.198279,-1.871708,-3.496065,0.043961,0.022293,0.997116,-0.010349,0.009701,-0.029537,65.744781,9.412552,-147.692566,,,
729600736.110141,1.197389,-1.870383,-3.505074,0.03476,0.014908,1.007431,-0.002265,0.015606,-0.032708,65.744781,9.412552,-147.692566,,,
729600736.113497,1.197389,-1.870383,-3.505074,0.03476,0.014908,1.007431,-0.002265,0.015606,-0.032708,65.744781,9.412552,-147.692566,,,
729600736.1169,1.197003,-1.867433,-3.513333,0.03476,0.014908,1.007431,-0.002265,0.015606,-0.032708,65.744781,9.412552,-147.692566,,,
729600736.120122,1.194824,-1.8677,-3.520954,0.025467,0.010757,0.998276,-0.007779,0.008847,-0.028444,65.744781,9.412552,-147.692566,,,
729600736.12348,1.194824,-1.8677,-3.520954,0.025467,0.010757,0.998276,-0.007779,0.008847,-0.028444,65.744781,9.412552,-147.692566,,,
729600736.126834,1.192069,-1.86617,-3.528217,0.025467,0.010757,0.998276,-0.007779,0.008847,-0.028444,65.744781,9.412552,-147.692566,,,
729600736.130136,1.186863,-1.866297,-3.534937,0.021973,0.012466,0.989456,-0.016411,0.008261,-0.024597,65.744781,9.412552,-147.692566,,,
729600736.133509,1.186863,-1.866297,-3.534937,0.021973,0.012466,0.989456,-0.016411,0.008261,-0.024597,65.755554,9.561493,-147.727249,,,
729600736.136813,1.181505,-1.864093,-3.541607,0.021973,0.012466,0.989456,-0.016411,0.008261,-0.024597,65.755554,9.561493,-147.727249,,,
729600736.140134,1.175159,-1.86177,-3.547607,0.022858,0.016205,0.991043,-0.018657,0.007354,-0.019847,65.755554,9.561493,-147.727249,,,
729600736.143492,1.175159,-1.86177,-3.547607,0.022858,0.016205,0.991043,-0.018657,0.007354,-0.019847,65.755554,9.561493,-147.727249,,,
729600736.146834,1.169874,-1.860304,-3.553041,0.022858,0.016205,0.991043,-0.018657,0.007354,-0.019847,65.755554,9.561493,-147.727249,,,
729600736.150181,1.164836,-1.858526,-3.558024,0.022079,0.015106,0.996017,-0.019493,0.008811,-0.01667,65.755554,9.561493,-147.727249,,,
729600736.153534,1.164836,-1.858526,-3.558024,0.022079,0.015106,0.996017,-0.019493,0.008811,-0.01667,65.755554,9.561493,-147.727249,,,
729600736.156812,1.158252,-1.856356,-3.562722,0.022079,0.015106,0.996017,-0.019493,0.008811,-0.01667,65.755554,9.561493,-147.727249,,,
729600736.160138,1.151124,-1.854544,-3.566927,0.017136,0.013092,0.992661,-0.028676,0.011345,-0.013064,65.755554,9.561493,-147.727249,,,
729600736.163477,1.151124,-1.854544,-3.566927,0.017136,0.013092,0.992661,-0.028676,0.011345,-0.013064,65.755554,9.561493,-147.727249,,,
729600736.166903,1.142043,-1.851681,-3.570411,0.017136,0.013092,0.992661,-0.028676,0.011345,-0.013064,65.755554,9.561493,-147.727249,,,
729600736.170122,1.133009,-1.850627,-3.573026,0.013779,0.014267,0.992798,-0.033523,0.010348,-0.007136,65.755554,9.561493,-147.727249,,,
729600736.173463,1.133009,-1.850627,-3.573026,0.013779,0.014267,0.992798,-0.033523,0.010348,-0.007136,65.697388,9.478592,-147.726166,,,
729600736.176805,1.123891,-1.84919,-3.574645,0.013779,0.014267,0.992798,-0.033523,0.010348,-0.007136,65.697388,9.478592,-147.726166,,,
729600736.180135,1.115921,-1.85051,-3.575195,0.014282,0.011673,0.998398,-0.025636,0.003722,-0.000207,65.697388,9.478592,-147.726166,,,
729600736.183526,1.115921,-1.85051,-3.575195,0.014282,0.011673,0.998398,-0.025636,0.003722,-0.000207,65.697388,9.478592,-147.726166,,,
729600736.186812,1.108718,-1.850791,-3.574845,0.014282,0.011673,0.998398,-0.025636,0.003722,-0.000207,65.697388,9.478592,-147.726166,,,
729600736.190132,1.102362,-1.851282,-3.574237,0.01767,0.009293,1.003616,-0.010643,0.000199,0.00112,65.697388,9.478592,-147.726166,,,
729600736.193482,1.102362,-1.851282,-3.574237,0.01767,0.009293,1.003616,-0.010643,0.000199,0.00112,65.697388,9.478592,-147.726166,,,
729600736.196901,1.100971,-1.852586,-3.573156,0.01767,0.009293,1.003616,-0.010643,0.000199,0.00112,65.697388,9.478592,-147.726166,,,
729600736.200182,1.101616,-1.853458,-3.572292,0.021835,0.007706,1.012527,0.01276,-0.006899,-0.000958,65.697388,9.478592,-147.726166,,,
729600736.203545,1.101616,-1.853458,-3.572292,0.021835,0.007706,1.012527,0.01276,-0.006899,-0.000958,65.697388,9.478592,-147.726166,,,
729600736.206813,1.106129,-1.857003,-3.572209,0.021835,0.007706,1.012527,0.01276,-0.006899,-0.000958,65.697388,9.478592,-147.726166,,,
729600736.210143,1.110709,-1.859846,-3.572277,0.021561,0.007339,1.011612,0.020668,-0.01505,-0.002042,65.697388,9.478592,-147.726166,,,
729600736.213527,1.110709,-1.859846,-3.572277,0.021561,0.007339,1.011612,0.020668,-0.01505,-0.002042,65.697388,9.478592,-147.726166,,,
729600736.216985,1.115713,-1.865496,-3.571823,0.021561,0.007339,1.011612,0.020668,-0.01505,-0.002042,65.66713,9.596741,-147.773117,,,
729600736.220125,1.118273,-1.869977,-3.570806,0.01828,0.011169,0.996445,0.006434,-0.017513,0.002569,65.66713,9.596741,-147.773117,,,
729600736.223493,1.118273,-1.869977,-3.570806,0.01828,0.011169,0.996445,0.006434,-0.017513,0.002569,65.66713,9.596741,-147.773117,,,
729600736.22682,1.1186,-1.875616,-3.569625,0.01828,0.011169,0.996445,0.006434,-0.017513,0.002569,65.66713,9.596741,-147.773117,,,
729600736.230136,1.115717,-1.878678,-3.568382,0.02359,0.018204,0.989136,-0.007911,-0.014126,0.003755,65.66713,9.596741,-147.773117,,,
729600736.233543,1.115717,-1.878678,-3.568382,0.02359,0.018204,0.989136,-0.007911,-0.014126,0.003755,65.66713,9.596741,-147.773117,,,
729600736.236812,1.112368,-1.88329,-3.567557,0.02359,0.018204,0.989136,-0.007911,-0.014126,0.003755,65.66713,9.596741,-147.773117,,,
729600736.24013,1.105648,-1.884615,-3.567669,0.035645,0.024826,0.987274,-0.023893,-0.011821,-0.001868,65.66713,9.596741,-147.773117,,,
729600736.243555,1.105648,-1.884615,-3.567669,0.035645,0.024826,0.987274,-0.023893,-0.011821,-0.001868,65.66713,9.596741,-147.773117,,,
729600736.246812,1.098368,-1.888497,-3.568268,0.035645,0.024826,0.987274,-0.023893,-0.011821,-0.001868,65.66713,9.596741,-147.773117,,,
729600736.25022,1.090031,-1.888506,-3.569091,0.036667,0.02269,0.987762,-0.025363,-0.009595,-0.002892,65.66713,9.596741,-147.773117,,,
729600736.253511,1.090031,-1.888506,-3.569091,0.036667,0.02269,0.987762,-0.025363,-0.009595,-0.002892,65.66713,9.596741,-147.773117,,,
729600736.256841,1.082039,-1.891565,-3.569686,0.036667,0.02269,0.987762,-0.025363,-0.009595,-0.002892,65.568054,9.906509,-147.727112,,,
729600736.260144,1.072196,-1.890257,-3.570304,0.033737,0.01889,0.992905,-0.02784,-0.002024,-0.002552,65.568054,9.906509,-147.727112,,,
729600736.263496,1.072196,-1.890257,-3.570304,0.033737,0.01889,0.992905,-0.02784,-0.002024,-0.002552,65.568054,9.906509,-147.727112,,,
729600736.266877,1.064315,-1.891731,-3.571372,0.033737,0.01889,0.992905,-0.02784,-0.002024,-0.002552,65.568054,9.906509,-147.727112,,,
729600736.270143,1.055902,-1.890731,-3.572978,0.035751,0.021255,0.994431,-0.019752,-0.002332,-0.006223,65.568054,9.906509,-147.727112,,,
729600736.273525,1.055902,-1.890731,-3.572978,0.035751,0.021255,0.994431,-0.019752,-0.002332,-0.006223,65.568054,9.906509,-147.727112,,,
729600736.276809,1.050319,-1.892122,-3.57498,0.035751,0.021255,0.994431,-0.019752,-0.002332,-0.006223,65.568054,9.906509,-147.727112,,,
729600736.280178,1.044242,-1.891369,-3.577493,0.037628,0.020889,0.997787,-0.009593,-0.000369,-0.009878,65.568054,9.906509,-147.727112,,,
729600736.283533,1.044242,-1.891369,-3.577493,0.037628,0.020889,0.997787,-0.009593,-0.000369,-0.009878,65.568054,9.906509,-147.727112,,,
729600736.286798,1.042189,-1.891584,-3.580269,0.037628,0.020889,0.997787,-0.009593,-0.000369,-0.009878,65.568054,9.906509,-147.727112,,,
729600736.29014,1.039915,-1.88947,-3.583368,0.034637,0.017914,1.004807,0.001594,-0.000236,-0.012216,65.568054,9.906509,-147.727112,,,
729600736.293578,1.039915,-1.88947,-3.583368,0.034637,0.017914,1.004807,0.001594,-0.000236,-0.012216,65.568054,9.906509,-147.727112,,,
729600736.296804,1.040704,-1.890506,-3.586389,0.034637,0.017914,1.004807,0.001594,-0.000236,-0.012216,65.785934,9.720734,-147.632339,,,
729600736.300191,1.041649,-1.889345,-3.589741,0.031937,0.016113,1.000198,0.007991,-0.002666,-0.014386,65.785934,9.720734,-147.632339,,,
729600736.303472,1.041649,-1.889345,-3.589741,0.031937,0.016113,1.000198,0.007991,-0.002666,-0.014386,65.785934,9.720734,-147.632339,,,
729600736.30691,1.043779,-1.890743,-3.592892,0.031937,0.016113,1.000198,0.007991,-0.002666,-0.014386,65.785934,9.720734,-147.632339,,,
729600736.310133,1.046903,-1.891024,-3.595736,0.029633,0.017914,1.001205,0.010306,0.000234,-0.012257,65.785934,9.720734,-147.632339,,,
729600736.313483,1.046903,-1.891024,-3.595736,0.029633,0.017914,1.001205,0.010306,0.000234,-0.012257,65.785934,9.720734,-147.632339,,,
729600736.31688,1.050639,-1.892405,-3.598111,0.029633,0.017914,1.001205,0.010306,0.000234,-0.012257,65.785934,9.720734,-147.632339,,,
729600736.320125,1.056515,-1.896251,-3.599738,0.030487,0.018158,1.002197,0.015406,-0.010584,-0.007299,65.785934,9.720734,-147.632339,,,
729600736.323471,1.056515,-1.896251,-3.599738,0.030487,0.018158,1.002197,0.015406,-0.010584,-0.007299,65.785934,9.720734,-147.632339,,,
729600736.326831,1.060678,-1.900643,-3.60074,0.030487,0.018158,1.002197,0.015406,-0.010584,-0.007299,65.785934,9.720734,-147.632339,,,
729600736.330158,1.064397,-1.90681,-3.600801,0.030472,0.017151,0.999405,0.010425,-0.01832,-0.000638,65.785934,9.720734,-147.632339,,,
729600736.333535,1.064397,-1.90681,-3.600801,0.030472,0.017151,0.999405,0.010425,-0.01832,-0.000638,65.785934,9.720734,-147.632339,,,
729600736.336789,1.065656,-1.91263,-3.600567,0.030472,0.017151,0.999405,0.010425,-0.01832,-0.000638,65.717834,9.602905,-147.743134,,,
729600736.340141,1.063967,-1.918341,-3.600982,0.027023,0.018021,0.997833,-0.011167,-0.017483,-0.004482,65.717834,9.602905,-147.743134,,,
729600736.343489,1.063967,-1.918341,-3.600982,0.027023,0.018021,0.997833,-0.011167,-0.017483,-0.004482,65.717834,9.602905,-147.743134,,,
729600736.34686,1.059731,-1.924367,-3.602587,0.027023,0.018021,0.997833,-0.011167,-0.017483,-0.004482,65.717834,9.602905,-147.743134,,,
729600736.350168,1.054574,-1.932061,-3.605192,0.032562,0.024078,0.994858,-0.022335,-0.024907,-0.011158,65.717834,9.602905,-147.743134,,,
729600736.35346,1.054574,-1.932061,-3.605192,0.032562,0.024078,0.994858,-0.022335,-0.024907,-0.011158,65.717834,9.602905,-147.743134,,,
729600736.356811,1.047519,-1.940738,-3.608261,0.032562,0.024078,0.994858,-0.022335,-0.024907,-0.011158,65.717834,9.602905,-147.743134,,,
729600736.360129,1.040571,-1.950216,-3.611163,0.032562,0.024368,0.99675,-0.023609,-0.027016,-0.010037,65.717834,9.602905,-147.743134,,,
729600736.363492,1.040571,-1.950216,-3.611163,0.032562,0.024368,0.99675,-0.023609,-0.027016,-0.010037,65.717834,9.602905,-147.743134,,,
729600736.366851,1.03401,-1.958622,-3.613286,0.032562,0.024368,0.99675,-0.023609,-0.027016,-0.010037,65.717834,9.602905,-147.743134,,,
729600736.370126,1.028268,-1.966661,-3.614554,0.034866,0.018265,1.005753,-0.016232,-0.024903,-0.004375,65.717834,9.602905,-147.743134,,,
729600736.373539,1.028268,-1.966661,-3.614554,0.034866,0.018265,1.005753,-0.016232,-0.024903,-0.004375,65.717834,9.602905,-147.743134,,,
729600736.376805,1.024371,-1.974102,-3.615367,0.034866,0.018265,1.005753,-0.016232,-0.024903,-0.004375,65.717834,9.602905,-147.743134,,,
729600736.380132,1.022442,-1.978864,-3.615816,0.036301,0.015167,1.013504,-0.00069,-0.010653,-0.002335,65.556519,9.721497,-147.52655,,,
729600736.383519,1.022442,-1.978864,-3.615816,0.036301,0.015167,1.013504,-0.00069,-0.010653,-0.002335,65.556519,9.721497,-147.52655,,,
729600736.386859,1.023449,-1.982014,-3.61594,0.036301,0.015167,1.013504,-0.00069,-0.010653,-0.002335,65.556519,9.721497,-147.52655,,,
729600736.390124,1.023449,-1.983091,-3.615401,0.036499,0.014557,1.01767,0.021208,-0.002387,0.001596,65.556519,9.721497,-147.52655,,,
729600736.393529,1.027535,-1.983091,-3.615401,0.036499,0.014557,1.01767,0.021208,-0.002387,0.001596,65.556519,9.721497,-147.52655,,,
