Time (sec),Pitch (deg),Roll (deg),Yaw(deg),X-Acceleration (g),Y-Acceleration (g),Z-Acceleration (g),Pitch Rate (deg/sec),Roll Rate (deg/sec),Yaw Rate (deg/sec),Magnetic Field in X direction (uT),Magnetic Field in Y direction (uT),Magnetic Field in Z Direction (uT),Latitude (deg),Longitude (deg),Altitude (m)
729606697.043386,3.397351,-2.738578,54.224416,0.063965,0.050812,1.023575,-0.012154,0.006519,0.020133,59.688705,19.629883,-146.64888,,,
729606697.046739,3.397351,-2.738578,54.224416,0.063965,0.050812,1.023575,-0.012154,0.006519,0.020133,59.676086,19.821167,-146.512283,,,
729606697.050133,3.396622,-2.735039,54.230713,0.067307,0.04509,1.032166,-0.012154,0.006519,0.020133,59.676086,19.821167,-146.512283,,,
729606697.053367,3.399507,-2.728005,54.236354,0.067307,0.04509,1.032166,0.009035,0.022108,0.015923,59.676086,19.821167,-146.512283,,,
729606697.056723,3.399507,-2.728005,54.236354,0.067307,0.04509,1.032166,0.009035,0.022108,0.015923,59.676086,19.821167,-146.512283,,,
729606697.060072,3.404205,-2.71985,54.240881,0.067307,0.047684,1.032639,0.009035,0.022108,0.015923,59.676086,19.821167,-146.512283,,,
729606697.063375,3.410454,-2.709801,54.244008,0.067307,0.047684,1.032639,0.023549,0.037269,0.007334,59.676086,19.821167,-146.512283,,,
729606697.066717,3.410454,-2.709801,54.244008,0.067307,0.047684,1.032639,0.023549,0.037269,0.007334,59.676086,19.821167,-146.512283,,,
729606697.070046,3.417608,-2.700288,54.244897,0.064926,0.051117,1.025406,0.023549,0.037269,0.007334,59.676086,19.821167,-146.512283,,,
729606697.073366,3.425556,-2.69231,54.244371,0.064926,0.051117,1.025406,0.023533,0.029463,-0.003072,59.676086,19.821167,-146.512283,,,
729606697.076702,3.425556,-2.69231,54.244371,0.064926,0.051117,1.025406,0.023533,0.029463,-0.003072,59.676086,19.821167,-146.512283,,,
729606697.079845,3.4321,-2.686552,54.242993,0.060379,0.053619,1.011887,0.023533,0.029463,-0.003072,59.676086,19.821167,-146.512283,,,
729606697.083438,3.439204,-2.684194,54.240539,0.060379,0.053619,1.011887,0.023621,0.015841,-0.009867,59.676086,19.821167,-146.512283,,,
729606697.0867,3.439204,-2.684194,54.240539,0.060379,0.053619,1.011887,0.023621,0.015841,-0.009867,59.867111,19.524384,-146.75238,,,
729606697.090034,3.444991,-2.683229,54.237507,0.055527,0.052078,1.005402,0.023621,0.015841,-0.009867,59.867111,19.524384,-146.75238,,,
729606697.093425,3.450749,-2.686886,54.234144,0.055527,0.052078,1.005402,0.018129,-0.001445,-0.014932,59.867111,19.524384,-146.75238,,,
729606697.096697,3.450749,-2.686886,54.234144,0.055527,0.052078,1.005402,0.018129,-0.001445,-0.014932,59.867111,19.524384,-146.75238,,,
729606697.100063,3.454892,-2.689665,54.230528,0.049133,0.050003,0.99971,0.018129,-0.001445,-0.014932,59.867111,19.524384,-146.75238,,,
729606697.103455,3.458177,-2.697649,54.228185,0.049133,0.050003,0.99971,0.012612,-0.009629,-0.011854,59.867111,19.524384,-146.75238,,,
729606697.106698,3.458177,-2.697649,54.228185,0.049133,0.050003,0.99971,0.012612,-0.009629,-0.011854,59.867111,19.524384,-146.75238,,,
729606697.11004,3.461034,-2.70015,54.227402,0.041473,0.047501,1.00209,0.012612,-0.009629,-0.011854,59.867111,19.524384,-146.75238,,,
729606697.113401,3.461656,-2.706719,54.229222,0.041473,0.047501,1.00209,0.008756,-0.000503,0.002061,59.867111,19.524384,-146.75238,,,
729606697.116728,3.461656,-2.706719,54.229222,0.041473,0.047501,1.00209,0.008756,-0.000503,0.002061,59.867111,19.524384,-146.75238,,,
729606697.120031,3.463348,-2.70651,54.232933,0.038025,0.046631,1.003571,0.008756,-0.000503,0.002061,59.867111,19.524384,-146.75238,,,
729606697.123357,3.461381,-2.712548,54.239252,0.038025,0.046631,1.003571,0.00389,0.006139,0.01678,59.867111,19.524384,-146.75238,,,
729606697.126791,3.461381,-2.712548,54.239252,0.038025,0.046631,1.003571,0.00389,0.006139,0.01678,59.867111,19.524384,-146.75238,,,
729606697.130045,3.460672,-2.711618,54.247085,0.040878,0.047684,0.996475,0.00389,0.006139,0.01678,59.802094,19.387009,-146.884018,,,
729606697.133369,3.455268,-2.717617,54.256766,0.040878,0.047684,0.996475,-0.004707,0.008766,0.031823,59.802094,19.387009,-146.884018,,,
729606697.136704,3.455268,-2.717617,54.256766,0.040878,0.047684,0.996475,-0.004707,0.008766,0.031823,59.802094,19.387009,-146.884018,,,
729606697.140089,3.450847,-2.716759,54.266219,0.046646,0.055389,0.990082,-0.004707,0.008766,0.031823,59.802094,19.387009,-146.884018,,,
729606697.143359,3.441326,-2.72479,54.275922,0.046646,0.055389,0.990082,-0.02625,0.005212,0.032992,59.802094,19.387009,-146.884018,,,
729606697.146729,3.441326,-2.72479,54.275922,0.046646,0.055389,0.990082,-0.02625,0.005212,0.032992,59.802094,19.387009,-146.884018,,,
729606697.150068,3.432298,-2.728757,54.285542,0.047836,0.060272,0.979996,-0.02625,0.005212,0.032992,59.802094,19.387009,-146.884018,,,
729606697.153362,3.419492,-2.741638,54.295357,0.047836,0.060272,0.979996,-0.037071,-0.021112,0.032495,59.802094,19.387009,-146.884018,,,
729606697.156718,3.419492,-2.741638,54.295357,0.047836,0.060272,0.979996,-0.037071,-0.021112,0.032495,59.802094,19.387009,-146.884018,,,
729606697.160104,3.406211,-2.751275,54.303559,0.053955,0.062103,0.974747,-0.037071,-0.021112,0.032495,59.802094,19.387009,-146.884018,,,
729606697.163401,3.390155,-2.766941,54.310094,0.053955,0.062103,0.974747,-0.051355,-0.035632,0.023124,59.802094,19.387009,-146.884018,,,
729606697.168559,3.373875,-2.780818,54.314959,0.058197,0.062271,0.981903,-0.051355,-0.035632,0.023124,59.848541,19.672729,-146.734909,,,
729606697.169837,3.373875,-2.780818,54.314959,0.058197,0.062271,0.981903,-0.051355,-0.035632,0.023124,59.848541,19.672729,-146.734909,,,
729606697.173408,3.35507,-2.797967,54.318718,0.058197,0.062271,0.981903,-0.059036,-0.049383,0.013803,59.848541,19.672729,-146.734909,,,
729606697.176786,3.35507,-2.797967,54.318718,0.058197,0.062271,0.981903,-0.059036,-0.049383,0.013803,59.848541,19.672729,-146.734909,,,
729606697.180104,3.33709,-2.814222,54.321213,0.064285,0.060364,0.984222,-0.059036,-0.049383,0.013803,59.848541,19.672729,-146.734909,,,
729606697.183364,3.316142,-2.828866,54.322237,0.064285,0.060364,0.984222,-0.066036,-0.054675,0.004689,59.848541,19.672729,-146.734909,,,
729606697.186716,3.316142,-2.828866,54.322237,0.064285,0.060364,0.984222,-0.066036,-0.054675,0.004689,59.848541,19.672729,-146.734909,,,
729606697.190111,3.296352,-2.84338,54.322123,0.067337,0.058228,0.989441,-0.066036,-0.054675,0.004689,59.848541,19.672729,-146.734909,,,
729606697.193405,3.274524,-2.851283,54.321769,0.067337,0.058228,0.989441,-0.06897,-0.038707,0.00214,59.848541,19.672729,-146.734909,,,
729606697.19672,3.274524,-2.851283,54.321769,0.067337,0.058228,0.989441,-0.06897,-0.038707,0.00214,59.848541,19.672729,-146.734909,,,
729606697.200048,3.254954,-2.860682,54.322062,0.067825,0.057678,0.994827,-0.06897,-0.038707,0.00214,59.848541,19.672729,-146.734909,,,
729606697.203366,3.232946,-2.862226,54.322863,0.067825,0.057678,0.994827,-0.070069,-0.018446,0.007142,59.848541,19.672729,-146.734909,,,
729606697.206722,3.232946,-2.862226,54.322863,0.067825,0.057678,0.994827,-0.070069,-0.018446,0.007142,59.848541,19.672729,-146.734909,,,
729606697.209733,3.213913,-2.866217,54.325468,0.062454,0.054749,0.994644,-0.070069,-0.018446,0.007142,59.646423,19.783905,-146.599121,,,
729606697.213402,3.194794,-2.866989,54.328583,0.062454,0.054749,0.994644,-0.062384,-0.004777,0.011588,59.646423,19.783905,-146.599121,,,
729606697.21672,3.194794,-2.866989,54.328583,0.062454,0.054749,0.994644,-0.062384,-0.004777,0.011588,59.646423,19.783905,-146.599121,,,
729606697.220042,3.177698,-2.869436,54.330982,0.058456,0.052277,0.99707,-0.062384,-0.004777,0.011588,59.646423,19.783905,-146.599121,,,
729606697.223369,3.162223,-2.86964,54.332186,0.058456,0.052277,0.99707,-0.055001,-0.001924,0.007369,59.646423,19.783905,-146.599121,,,
729606697.226722,3.162223,-2.86964,54.332186,0.058456,0.052277,0.99707,-0.055001,-0.001924,0.007369,59.646423,19.783905,-146.599121,,,
729606697.230036,3.145932,-2.8703,54.332382,0.058228,0.056259,0.993637,-0.055001,-0.001924,0.007369,59.646423,19.783905,-146.599121,,,
729606697.233469,3.130055,-2.872566,54.331604,0.058228,0.056259,0.993637,-0.061549,-0.001824,-0.00187,59.646423,19.783905,-146.599121,,,
729606697.236729,3.130055,-2.872566,54.331604,0.058228,0.056259,0.993637,-0.061549,-0.001824,-0.00187,59.646423,19.783905,-146.599121,,,
729606697.240076,3.111795,-2.875761,54.329505,0.052551,0.061462,0.985092,-0.061549,-0.001824,-0.00187,59.646423,19.783905,-146.599121,,,
729606697.243358,3.095094,-2.883943,54.326192,0.052551,0.061462,0.985092,-0.059677,-0.015221,-0.012122,59.646423,19.783905,-146.599121,,,
729606697.246743,3.095094,-2.883943,54.326192,0.052551,0.061462,0.985092,-0.059677,-0.015221,-0.012122,59.646423,19.783905,-146.599121,,,
729606697.250022,3.077059,-2.891451,54.321974,0.046936,0.059006,0.98793,-0.059677,-0.015221,-0.012122,59.741638,19.750687,-146.69426,,,
729606697.253364,3.061279,-2.904759,54.31757,0.046936,0.059006,0.98793,-0.062487,-0.031756,-0.017784,59.741638,19.750687,-146.69426,,,
729606697.256712,3.061279,-2.904759,54.31757,0.046936,0.059006,0.98793,-0.062487,-0.031756,-0.017784,59.741638,19.750687,-146.69426,,,
729606697.260036,3.043779,-2.91463,54.312329,0.046524,0.057648,0.991043,-0.062487,-0.031756,-0.017784,59.741638,19.750687,-146.69426,,,
729606697.263359,3.027805,-2.93032,54.306844,0.046524,0.057648,0.991043,-0.063003,-0.030321,-0.019779,59.741638,19.750687,-146.69426,,,
729606697.266766,3.027805,-2.93032,54.306844,0.046524,0.057648,0.991043,-0.063003,-0.030321,-0.019779,59.741638,19.750687,-146.69426,,,
729606697.270032,3.011382,-2.938221,54.30097,0.042648,0.054962,1.000519,-0.063003,-0.030321,-0.019779,59.741638,19.750687,-146.69426,,,
729606697.273361,2.997927,-2.952249,54.296017,0.042648,0.054962,1.000519,-0.054102,-0.023175,-0.015599,59.741638,19.750687,-146.69426,,,
729606697.276703,2.997927,-2.952249,54.296017,0.042648,0.054962,1.000519,-0.054102,-0.023175,-0.015599,59.741638,19.750687,-146.69426,,,
729606697.280111,2.985082,-2.95891,54.291659,0.037735,0.048752,1.007095,-0.054102,-0.023175,-0.015599,59.741638,19.750687,-146.69426,,,
729606697.283381,2.985082,-2.95891,54.2892,0.037735,0.048752,1.007095,-0.0399,-0.02476,-0.007021,59.741638,19.750687,-146.69426,,,
729606697.286606,2.975065,-2.971786,54.2892,0.037735,0.048752,1.007095,-0.0399,-0.02476,-0.007021,59.741638,19.750687,-146.69426,,,
729606697.290039,2.965449,-2.97893,54.287928,0.030701,0.044662,1.00914,-0.0399,-0.02476,-0.007021,59.741638,19.750687,-146.69426,,,
729606697.293505,2.957507,-2.988868,54.287702,0.030701,0.044662,1.00914,-0.027555,-0.018138,-0.00095,59.563599,20.007843,-146.798889,,,
729606697.296716,2.957507,-2.988868,54.287702,0.030701,0.044662,1.00914,-0.027555,-0.018138,-0.00095,59.563599,20.007843,-146.798889,,,
729606697.300061,2.950748,-2.994426,54.287477,0.032623,0.048065,1.008774,-0.027555,-0.018138,-0.00095,59.563599,20.007843,-146.798889,,,
729606697.303358,2.950748,-2.994426,54.287477,0.032623,0.048065,1.008774,-0.017302,-0.012571,-0.000568,59.563599,20.007843,-146.798889,,,
729606697.306804,2.94582,-3.001474,54.287626,0.032623,0.048065,1.008774,-0.017302,-0.012571,-0.000568,59.563599,20.007843,-146.798889,,,
729606697.310043,2.942026,-3.005515,54.288208,0.032898,0.050262,1.010086,-0.017302,-0.012571,-0.000568,59.563599,20.007843,-146.798889,,,
729606697.313427,2.941403,-3.011592,54.289476,0.032898,0.050262,1.010086,-0.0053,-0.013912,0.00321,59.563599,20.007843,-146.798889,,,
729606697.31669,2.941403,-3.011592,54.289476,0.032898,0.050262,1.010086,-0.0053,-0.013912,0.00321,59.563599,20.007843,-146.798889,,,
729606697.320029,2.940809,-3.016862,54.290835,0.032623,0.050339,1.007065,-0.0053,-0.013912,0.00321,59.563599,20.007843,-146.798889,,,
729606697.323355,2.940809,-3.016862,54.290835,0.032623,0.050339,1.007065,0.002385,-0.018799,-0.001477,59.563599,20.007843,-146.798889,,,
729606697.326709,2.943886,-3.022298,54.291461,0.032623,0.050339,1.007065,0.002385,-0.018799,-0.001477,59.563599,20.007843,-146.798889,,,
729606697.3301,2.946101,-3.029138,54.291175,0.038315,0.053467,1.002502,0.002385,-0.018799,-0.001477,59.563599,20.007843,-146.798889,,,
729606697.333349,2.946101,-3.029138,54.291175,0.038315,0.053467,1.002502,0.013436,-0.022318,-0.006258,59.625229,19.915512,-146.417572,,,
729606697.336705,2.950843,-3.033711,54.289964,0.038315,0.053467,1.002502,0.013436,-0.022318,-0.006258,59.625229,19.915512,-146.417572,,,
729606697.340041,2.955151,-3.041502,54.288366,0.040817,0.055283,1.00119,0.013436,-0.022318,-0.006258,59.625229,19.915512,-146.417572,,,
729606697.343352,2.955151,-3.041502,54.288366,0.040817,0.055283,1.00119,0.017094,-0.027435,-0.009104,59.625229,19.915512,-146.417572,,,
729606697.346719,2.961547,-3.047795,54.286775,0.040817,0.055283,1.00119,0.017094,-0.027435,-0.009104,59.625229,19.915512,-146.417572,,,
729606697.350079,2.967865,-3.058018,54.285856,0.042297,0.054077,0.994125,0.017094,-0.027435,-0.009104,59.625229,19.915512,-146.417572,,,
729606697.353371,2.967865,-3.058018,54.285856,0.042297,0.054077,0.994125,0.022166,-0.030538,-0.003752,59.625229,19.915512,-146.417572,,,
729606697.356803,2.974764,-3.062962,54.284699,0.042297,0.054077,0.994125,0.022166,-0.030538,-0.003752,59.625229,19.915512,-146.417572,,,
729606697.360037,2.981814,-3.071421,54.283504,0.048859,0.053635,0.996506,0.022166,-0.030538,-0.003752,59.625229,19.915512,-146.417572,,,
729606697.363447,2.981814,-3.071421,54.283504,0.048859,0.053635,0.996506,0.024639,-0.022861,-0.00494,59.625229,19.915512,-146.417572,,,
729606697.366721,2.987679,-3.071044,54.281809,0.048859,0.053635,0.996506,0.024639,-0.022861,-0.00494,59.625229,19.915512,-146.417572,,,
729606697.370093,2.99551,-3.077065,54.28045,0.053406,0.054794,0.996475,0.024639,-0.022861,-0.00494,59.625229,19.915512,-146.417572,,,
729606697.373394,2.99551,-3.077065,54.28045,0.053406,0.054794,0.996475,0.030777,-0.013025,-0.004956,59.58136,20.038834,-146.619019,,,
729606697.376731,3.002626,-3.071667,54.278815,0.053406,0.054794,0.996475,0.030777,-0.013025,-0.004956,59.58136,20.038834,-146.619019,,,
729606697.380081,3.011612,-3.07253,54.277484,0.05278,0.052261,0.99942,0.030777,-0.013025,-0.004956,59.58136,20.038834,-146.619019,,,
729606697.383422,3.011612,-3.07253,54.277484,0.05278,0.052261,0.99942,0.030455,0.008367,-0.008184,59.58136,20.038834,-146.619019,,,
729606697.386715,3.019886,-3.062341,54.275194,0.05278,0.052261,0.99942,0.030455,0.008367,-0.008184,59.58136,20.038834,-146.619019,,,
729606697.390028,3.029067,-3.059847,54.273122,0.051056,0.049179,0.998703,0.030455,0.008367,-0.008184,59.58136,20.038834,-146.619019,,,
729606697.393376,3.029067,-3.059847,54.273122,0.051056,0.049179,0.998703,0.034563,0.011648,-0.008219,59.58136,20.038834,-146.619019,,,
729606697.396776,3.038453,-3.049256,54.270742,0.051056,0.049179,0.998703,0.034563,0.011648,-0.008219,59.58136,20.038834,-146.619019,,,
729606697.400024,3.049635,-3.048978,54.269353,0.045898,0.04628,0.991653,0.034563,0.011648,-0.008219,59.58136,20.038834,-146.619019,,,
729606697.403385,3.049635,-3.048978,54.269353,0.045898,0.04628,0.991653,0.040477,-0.004546,-0.006066,59.58136,20.038834,-146.619019,,,
729606697.406699,3.060756,-3.043233,54.267909,0.045898,0.04628,0.991653,0.040477,-0.004546,-0.006066,59.58136,20.038834,-146.619019,,,
729606697.410024,3.071923,-3.04823,54.26729,0.043411,0.044327,0.988754,0.040477,-0.004546,-0.006066,59.58136,20.038834,-146.619019,,,
729606697.413382,3.071923,-3.04823,54.26729,0.043411,0.044327,0.988754,0.040477,-0.004546,-0.006066,59.445816,19.979034,-146.69902,,,
729606697.416729,3.081977,-3.051505,54.266454,0.043411,0.044327,0.988754,0.033066,-0.025111,-0.007408,59.445816,19.979034,-146.69902,,,
729606697.420025,3.090446,-3.063676,54.265191,0.045029,0.045013,0.979828,0.033066,-0.025111,-0.007408,59.445816,19.979034,-146.69902,,,
729606697.423452,3.090446,-3.063676,54.265191,0.045029,0.045013,0.979828,0.033066,-0.025111,-0.007408,59.445816,19.979034,-146.69902,,,
729606697.426687,3.098149,-3.072392,54.262825,0.045029,0.045013,0.979828,0.028327,-0.045284,-0.009001,59.445816,19.979034,-146.69902,,,
729606697.430039,3.105657,-3.085749,54.25949,0.050949,0.046631,0.984909,0.028327,-0.045284,-0.009001,59.445816,19.979034,-146.69902,,,
729606697.433363,3.105657,-3.085749,54.25949,0.050949,0.046631,0.984909,0.028327,-0.045284,-0.009001,59.445816,19.979034,-146.69902,,,
729606697.436797,3.113644,-3.094454,54.254957,0.050949,0.046631,0.984909,0.028834,-0.04344,-0.01921,59.445816,19.979034,-146.69902,,,
729606697.44003,3.122347,-3.105887,54.250769,0.058762,0.046066,0.992218,0.028834,-0.04344,-0.01921,59.445816,19.979034,-146.69902,,,
729606697.443382,3.122347,-3.105887,54.250769,0.058762,0.046066,0.992218,0.028834,-0.04344,-0.01921,59.445816,19.979034,-146.69902,,,
729606697.446741,3.131777,-3.113895,54.247198,0.058762,0.046066,0.992218,0.03048,-0.028288,-0.018361,59.445816,19.979034,-146.69902,,,
729606697.450036,3.141672,-3.120765,54.244427,0.06134,0.042435,0.997482,0.03048,-0.028288,-0.018361,59.445816,19.979034,-146.69902,,,
729606697.453384,3.141672,-3.120765,54.244427,0.06134,0.042435,0.997482,0.03048,-0.028288,-0.018361,59.445816,19.979034,-146.69902,,,
729606697.456708,3.150962,-3.124737,54.241945,0.06134,0.042435,0.997482,0.032015,-0.014122,-0.010506,59.286682,19.699417,-146.590271,,,
729606697.460028,3.159627,-3.126734,54.239533,0.065872,0.041992,0.995071,0.032015,-0.014122,-0.010506,59.286682,19.699417,-146.590271,,,
729606697.463447,3.159627,-3.126734,54.239533,0.065872,0.041992,0.995071,0.032015,-0.014122,-0.010506,59.286682,19.699417,-146.590271,,,
729606697.466701,3.166959,-3.125957,54.236559,0.065872,0.041992,0.995071,0.03051,0.003412,-0.012406,59.286682,19.699417,-146.590271,,,
729606697.470033,3.174885,-3.124844,54.2323,0.072052,0.048126,0.98793,0.03051,0.003412,-0.012406,59.286682,19.699417,-146.590271,,,
729606697.473413,3.174885,-3.124844,54.2323,0.072052,0.048126,0.98793,0.03051,0.003412,-0.012406,59.286682,19.699417,-146.590271,,,
729606697.476752,3.181402,-3.121008,54.226053,0.072052,0.048126,0.98793,0.029078,0.005613,-0.026741,59.286682,19.699417,-146.590271,,,
729606697.480076,3.19008,-3.118443,54.218172,0.070618,0.048721,0.988205,0.029078,0.005613,-0.026741,59.286682,19.699417,-146.590271,,,
729606697.483428,3.19008,-3.118443,54.218172,0.070618,0.048721,0.988205,0.029078,0.005613,-0.026741,59.286682,19.699417,-146.590271,,,
729606697.486715,3.197397,-3.110732,54.20896,0.070618,0.048721,0.988205,0.031691,0.014065,-0.035571,59.286682,19.699417,-146.590271,,,
729606697.490035,3.207015,-3.105965,54.199098,0.065704,0.047363,0.992035,0.031691,0.014065,-0.035571,59.286682,19.699417,-146.590271,,,
729606697.493419,3.207015,-3.105965,54.199098,0.065704,0.047363,0.992035,0.031691,0.014065,-0.035571,59.286682,19.699417,-146.590271,,,
729606697.496722,3.215346,-3.096482,54.188294,0.065704,0.047363,0.992035,0.033225,0.01909,-0.037383,59.572342,19.491394,-146.703964,,,
729606697.500028,3.226276,-3.090445,54.177663,0.059357,0.047668,0.987411,0.033225,0.01909,-0.037383,59.572342,19.491394,-146.703964,,,
729606697.503501,3.226276,-3.090445,54.177663,0.059357,0.047668,0.987411,0.033225,0.01909,-0.037383,59.572342,19.491394,-146.703964,,,
729606697.506697,3.235293,-3.081614,54.167663,0.059357,0.047668,0.987411,0.037236,0.02321,-0.037447,59.572342,19.491394,-146.703964,,,
729606697.510044,3.246863,-3.074481,54.158631,0.053391,0.046738,0.986221,0.037236,0.02321,-0.037447,59.572342,19.491394,-146.703964,,,
729606697.513436,3.246863,-3.074481,54.158631,0.053391,0.046738,0.986221,0.037236,0.02321,-0.037447,59.572342,19.491394,-146.703964,,,
729606697.516687,3.25635,-3.066886,54.150372,0.053391,0.046738,0.986221,0.03837,0.029276,-0.033647,59.572342,19.491394,-146.703964,,,
729606697.520047,3.266431,-3.057624,54.142793,0.048676,0.0495,0.985321,0.03837,0.029276,-0.033647,59.572342,19.491394,-146.703964,,,
729606697.523368,3.266431,-3.057624,54.142793,0.048676,0.0495,0.985321,0.03837,0.029276,-0.033647,59.572342,19.491394,-146.703964,,,
729606697.52671,3.2719,-3.04989,54.136995,0.048676,0.0495,0.985321,0.028966,0.037333,-0.02398,59.572342,19.491394,-146.703964,,,
729606697.530024,3.277352,-3.037485,54.13236,0.046936,0.055725,0.976685,0.028966,0.037333,-0.02398,59.572342,19.491394,-146.703964,,,
729606697.533376,3.277352,-3.037485,54.13236,0.046936,0.055725,0.976685,0.028966,0.037333,-0.02398,59.572342,19.491394,-146.703964,,,
729606697.536406,3.27714,-3.027871,54.128506,0.046936,0.055725,0.976685,0.010611,0.049904,-0.013807,59.707977,19.59874,-146.440414,,,
729606697.539718,3.276541,-3.014412,54.125309,0.04892,0.062393,0.96991,0.010611,0.049904,-0.013807,59.707977,19.59874,-146.440414,,,
729606697.543506,3.276541,-3.014412,54.125309,0.04892,0.062393,0.96991,0.010611,0.049904,-0.013807,59.707977,19.59874,-146.440414,,,
729606697.54676,3.269978,-3.008025,54.121959,0.04892,0.062393,0.96991,-0.013432,0.048433,-0.014131,59.707977,19.59874,-146.440414,,,
729606697.550057,3.262611,-2.997023,54.117416,0.049911,0.068069,0.966873,-0.013432,0.048433,-0.014131,59.707977,19.59874,-146.440414,,,
729606697.553416,3.262611,-2.997023,54.117416,0.049911,0.068069,0.966873,-0.013432,0.048433,-0.014131,59.707977,19.59874,-146.440414,,,
729606697.556782,3.251108,-2.995831,54.11291,0.049911,0.068069,0.966873,-0.034772,0.028783,-0.016204,59.707977,19.59874,-146.440414,,,
729606697.560037,3.239139,-2.991719,54.107203,0.046402,0.068726,0.966232,-0.034772,0.028783,-0.016204,59.707977,19.59874,-146.440414,,,
729606697.563389,3.239139,-2.991719,54.107203,0.046402,0.068726,0.966232,-0.034772,0.028783,-0.016204,59.707977,19.59874,-146.440414,,,
729606697.56671,3.225177,-2.996551,54.100782,0.046402,0.068726,0.966232,-0.046078,0.001799,-0.023431,59.707977,19.59874,-146.440414,,,
729606697.570033,3.211581,-2.999962,54.094107,0.042709,0.062668,0.975311,-0.046078,0.001799,-0.023431,59.707977,19.59874,-146.440414,,,
729606697.573374,3.211581,-2.999962,54.094107,0.042709,0.062668,0.975311,-0.046078,0.001799,-0.023431,59.707977,19.59874,-146.440414,,,
729606697.576735,3.196856,-3.009825,54.08861,0.042709,0.062668,0.975311,-0.048212,-0.020532,-0.019512,59.707977,19.59874,-146.440414,,,
729606697.580079,3.183693,-3.017481,54.084251,0.042282,0.057465,0.987183,-0.048212,-0.020532,-0.019512,59.763412,19.729904,-146.541794,,,
729606697.583418,3.183693,-3.017481,54.084251,0.042282,0.057465,0.987183,-0.048212,-0.020532,-0.019512,59.763412,19.729904,-146.541794,,,
729606697.586706,3.170222,-3.026715,54.081483,0.042282,0.057465,0.987183,-0.0434,-0.02504,-0.009968,59.763412,19.729904,-146.541794,,,
729606697.590038,3.158185,-3.033413,54.080079,0.045776,0.052963,0.998367,-0.0434,-0.02504,-0.009968,59.763412,19.729904,-146.541794,,,
729606697.593385,3.158185,-3.033413,54.080079,0.045776,0.052963,0.998367,-0.0434,-0.02504,-0.009968,59.763412,19.729904,-146.541794,,,
729606697.596767,3.145031,-3.038026,54.080136,0.045776,0.052963,0.998367,-0.041549,-0.014916,0.001507,59.763412,19.729904,-146.541794,,,
729606697.600024,3.133519,-3.040617,54.080892,0.051697,0.054764,1.004944,-0.041549,-0.014916,0.001507,59.763412,19.729904,-146.541794,,,
729606697.603372,3.133519,-3.040617,54.080892,0.051697,0.054764,1.004944,-0.041549,-0.014916,0.001507,59.763412,19.729904,-146.541794,,,
729606697.606687,3.122158,-3.038676,54.081398,0.051697,0.054764,1.004944,-0.034836,0.00332,0.001609,59.763412,19.729904,-146.541794,,,
729606697.610027,3.111753,-3.036437,54.081783,0.057602,0.055252,1.007553,-0.034836,0.00332,0.001609,59.763412,19.729904,-146.541794,,,
729606697.613395,3.111753,-3.036437,54.081783,0.057602,0.055252,1.007553,-0.034836,0.00332,0.001609,59.763412,19.729904,-146.541794,,,
729606697.616742,3.102346,-3.029582,54.082072,0.057602,0.055252,1.007553,-0.033364,0.018859,0.002584,59.763412,19.729904,-146.541794,,,
729606697.620077,3.092214,-3.021679,54.082269,0.057343,0.058228,1.010834,-0.033364,0.018859,0.002584,59.585556,19.743225,-146.475067,,,
729606697.623383,3.092214,-3.021679,54.082269,0.057343,0.058228,1.010834,-0.033364,0.018859,0.002584,59.585556,19.743225,-146.475067,,,
729606697.626704,3.084353,-3.01287,54.082637,0.057343,0.058228,1.010834,-0.034855,0.032171,0.002759,59.585556,19.743225,-146.475067,,,
729606697.630031,3.074617,-3.005137,54.083705,0.052994,0.059326,1.00882,-0.034855,0.032171,0.002759,59.585556,19.743225,-146.475067,,,
729606697.633464,3.074617,-3.005137,54.083705,0.052994,0.059326,1.00882,-0.034855,0.032171,0.002759,59.585556,19.743225,-146.475067,,,
729606697.636713,3.069568,-2.998448,54.084992,0.052994,0.059326,1.00882,-0.031587,0.02479,0.002851,59.585556,19.743225,-146.475067,,,
729606697.640034,3.06202,-2.99397,54.086049,0.048248,0.057709,1.011276,-0.031587,0.02479,0.002851,59.585556,19.743225,-146.475067,,,
729606697.643385,3.06202,-2.99397,54.086049,0.048248,0.057709,1.011276,-0.031587,0.02479,0.002851,59.585556,19.743225,-146.475067,,,
729606697.646807,3.058806,-2.989395,54.086804,0.048248,0.057709,1.011276,-0.021839,0.013514,0.002637,59.585556,19.743225,-146.475067,,,
729606697.650019,3.054071,-2.989675,54.087349,0.049393,0.056625,1.009811,-0.021839,0.013514,0.002637,59.585556,19.743225,-146.475067,,,
729606697.653379,3.054071,-2.989675,54.087349,0.049393,0.056625,1.009811,-0.021839,0.013514,0.002637,59.585556,19.743225,-146.475067,,,
729606697.656702,3.051781,-2.989086,54.087136,0.049393,0.056625,1.009811,-0.012279,-0.008187,-0.002168,59.585556,19.743225,-146.475067,,,
729606697.660019,3.048726,-2.994106,54.087192,0.049667,0.061127,1.005035,-0.012279,-0.008187,-0.002168,59.749313,19.691757,-146.74321,,,
729606697.66336,3.048726,-2.994106,54.087192,0.049667,0.061127,1.005035,-0.012279,-0.008187,-0.002168,59.749313,19.691757,-146.74321,,,
729606697.666703,3.046444,-2.996625,54.088131,0.049667,0.061127,1.005035,-0.008391,-0.015834,0.001137,59.749313,19.691757,-146.74321,,,
729606697.670032,3.043041,-3.002979,54.091226,0.045258,0.059982,1.006607,-0.008391,-0.015834,0.001137,59.749313,19.691757,-146.74321,,,
729606697.673424,3.043041,-3.002979,54.091226,0.045258,0.059982,1.006607,-0.008391,-0.015834,0.001137,59.749313,19.691757,-146.74321,,,
729606697.676689,3.038823,-3.007639,54.095571,0.045258,0.059982,1.006607,-0.013076,-0.02014,0.014306,59.749313,19.691757,-146.74321,,,
729606697.680098,3.035093,-3.014299,54.100629,0.044357,0.055176,1.006714,-0.013076,-0.02014,0.014306,59.749313,19.691757,-146.74321,,,
729606697.683427,3.035093,-3.014299,54.100629,0.044357,0.055176,1.006714,-0.013076,-0.02014,0.014306,59.749313,19.691757,-146.74321,,,
729606697.686785,3.033123,-3.020579,54.106358,0.044357,0.055176,1.006714,-0.009395,-0.017949,0.0188,59.749313,19.691757,-146.74321,,,
729606697.690026,3.032549,-3.02526,54.112267,0.046326,0.052414,1.013855,-0.009395,-0.017949,0.0188,59.749313,19.691757,-146.74321,,,
729606697.693385,3.032549,-3.02526,54.112267,0.046326,0.052414,1.013855,-0.009395,-0.017949,0.0188,59.749313,19.691757,-146.74321,,,
729606697.696717,3.034626,-3.032097,54.118359,0.046326,0.052414,1.013855,0.007576,-0.01103,0.020326,59.749313,19.691757,-146.74321,,,
729606697.700031,3.038449,-3.036745,54.124511,0.049301,0.051163,1.019379,0.007576,-0.01103,0.020326,59.537064,19.85434,-146.602448,,,
729606697.703373,3.038449,-3.036745,54.124511,0.049301,0.051163,1.019379,0.007576,-0.01103,0.020326,59.537064,19.85434,-146.602448,,,
729606697.706715,3.046268,-3.042907,54.131272,0.049301,0.051163,1.019379,0.024315,-0.012147,0.02074,59.537064,19.85434,-146.602448,,,
729606697.710029,3.056753,-3.0475,54.138245,0.048904,0.049683,1.017899,0.024315,-0.012147,0.02074,59.537064,19.85434,-146.602448,,,
729606697.713463,3.056753,-3.0475,54.138245,0.048904,0.049683,1.017899,0.024315,-0.012147,0.02074,59.537064,19.85434,-146.602448,,,
729606697.716714,3.0711,-3.049561,54.145119,0.048904,0.049683,1.017899,0.048622,-0.00439,0.019739,59.537064,19.85434,-146.602448,,,
729606697.720028,3.087129,-3.051597,54.151927,0.054184,0.04686,1.021149,0.048622,-0.00439,0.019739,59.537064,19.85434,-146.602448,,,
729606697.72339,3.087129,-3.051597,54.151927,0.054184,0.04686,1.021149,0.048622,-0.00439,0.019739,59.537064,19.85434,-146.602448,,,
729606697.726768,3.105177,-3.051817,54.158402,0.054184,0.04686,1.021149,0.063775,-0.003545,0.018698,59.537064,19.85434,-146.602448,,,
729606697.73002,3.122862,-3.055169,54.164898,0.057602,0.050797,1.005447,0.063775,-0.003545,0.018698,59.537064,19.85434,-146.602448,,,
729606697.733372,3.122862,-3.055169,54.164898,0.057602,0.050797,1.005447,0.063775,-0.003545,0.018698,59.537064,19.85434,-146.602448,,,
729606697.736711,3.140598,-3.057609,54.170829,0.057602,0.050797,1.005447,0.062703,-0.007114,0.014656,59.537064,19.85434,-146.602448,,,
729606697.740031,3.15749,-3.061256,54.176059,0.05481,0.05719,0.996826,0.062703,-0.007114,0.014656,59.537064,19.85434,-146.602448,,,
729606697.743365,3.15749,-3.061256,54.176059,0.05481,0.05719,0.996826,0.062703,-0.007114,0.014656,59.646164,19.799622,-146.523468,,,
729606697.746742,3.174946,-3.063453,54.179597,0.05481,0.05719,0.996826,0.05973,-0.010765,0.006813,59.646164,19.799622,-146.523468,,,
729606697.750091,3.190747,-3.067518,54.180942,0.056549,0.061646,0.991455,0.05973,-0.010765,0.006813,59.646164,19.799622,-146.523468,,,
729606697.753459,3.190747,-3.067518,54.180942,0.056549,0.061646,0.991455,0.05973,-0.010765,0.006813,59.646164,19.799622,-146.523468,,,
729606697.756715,3.206012,-3.068616,54.180782,0.056549,0.061646,0.991455,0.055222,-0.012688,-0.003472,59.646164,19.799622,-146.523468,,,
729606697.760048,3.220692,-3.072752,54.180167,0.05896,0.062515,0.990173,0.055222,-0.012688,-0.003472,59.646164,19.799622,-146.523468,,,
729606697.76339,3.220692,-3.072752,54.180167,0.05896,0.062515,0.990173,0.055222,-0.012688,-0.003472,59.646164,19.799622,-146.523468,,,
729606697.766775,3.234525,-3.072635,54.17871,0.05896,0.062515,0.990173,0.049504,-0.007575,-0.008915,59.646164,19.799622,-146.523468,,,
729606697.770025,3.248758,-3.075095,54.176862,0.057373,0.061203,0.992065,0.049504,-0.007575,-0.008915,59.646164,19.799622,-146.523468,,,
729606697.773377,3.248758,-3.075095,54.176862,0.057373,0.061203,0.992065,0.049504,-0.007575,-0.008915,59.646164,19.799622,-146.523468,,,
729606697.776718,3.262105,-3.074087,54.174655,0.057373,0.061203,0.992065,0.05138,-0.004421,-0.01081,59.646164,19.799622,-146.523468,,,
729606697.78006,3.276575,-3.074579,54.172974,0.052979,0.06134,0.992416,0.05138,-0.004421,-0.01081,59.646164,19.799622,-146.523468,,,
729606697.783357,3.276575,-3.074579,54.172974,0.052979,0.06134,0.992416,0.05138,-0.004421,-0.01081,59.68428,19.699539,-146.636093,,,
729606697.786694,3.289498,-3.071855,54.170901,0.052979,0.06134,0.992416,0.051289,0.003478,-0.011453,59.68428,19.699539,-146.636093,,,
729606697.790031,3.303837,-3.070239,54.167811,0.058212,0.063919,0.988998,0.051289,0.003478,-0.011453,59.68428,19.699539,-146.636093,,,
729606697.793452,3.303837,-3.070239,54.167811,0.058212,0.063919,0.988998,0.051289,0.003478,-0.011453,59.68428,19.699539,-146.636093,,,
729606697.796701,3.316059,-3.066863,54.163467,0.058212,0.063919,0.988998,0.047214,0.008206,-0.018773,59.68428,19.699539,-146.636093,,,
729606697.80003,3.329577,-3.066085,54.158058,0.059387,0.067184,0.986893,0.047214,0.008206,-0.018773,59.68428,19.699539,-146.636093,,,
729606697.803422,3.329577,-3.066085,54.158058,0.059387,0.067184,0.986893,0.047214,0.008206,-0.018773,59.68428,19.699539,-146.636093,,,
729606697.8067,3.339574,-3.066073,54.151376,0.059387,0.067184,0.986893,0.041579,0.004154,-0.025868,59.68428,19.699539,-146.636093,,,
729606697.810034,3.350649,-3.064711,54.143924,0.052551,0.065018,0.98349,0.041579,0.004154,-0.025868,59.68428,19.699539,-146.636093,,,
729606697.813397,3.350649,-3.064711,54.143924,0.052551,0.065018,0.98349,0.041579,0.004154,-0.025868,59.68428,19.699539,-146.636093,,,
729606697.816744,3.359617,-3.06473,54.137202,0.052551,0.065018,0.98349,0.031758,0.007397,-0.027528,59.68428,19.699539,-146.636093,,,
729606697.820023,3.369538,-3.063892,54.13157,0.045883,0.057175,0.988968,0.031758,0.007397,-0.027528,59.68428,19.699539,-146.636093,,,
729606697.823359,3.369538,-3.063892,54.13157,0.045883,0.057175,0.988968,0.031758,0.007397,-0.027528,59.521301,19.687134,-146.841248,,,
729606697.8267,3.381021,-3.064894,54.126993,0.045883,0.057175,0.988968,0.04029,-0.000464,-0.018866,59.521301,19.687134,-146.841248,,,
729606697.830023,3.392859,-3.06637,54.123525,0.046066,0.051407,0.992508,0.04029,-0.000464,-0.018866,59.521301,19.687134,-146.841248,,,
729606697.833375,3.392859,-3.06637,54.123525,0.046066,0.051407,0.992508,0.04029,-0.000464,-0.018866,59.521301,19.687134,-146.841248,,,
729606697.83672,3.405073,-3.069184,54.120654,0.046066,0.051407,0.992508,0.041144,0.000365,-0.015124,59.521301,19.687134,-146.841248,,,
729606697.84002,3.415588,-3.068764,54.117886,0.049973,0.055099,0.995209,0.041144,0.000365,-0.015124,59.521301,19.687134,-146.841248,,,
729606697.843465,3.415588,-3.068764,54.117886,0.049973,0.055099,0.995209,0.041144,0.000365,-0.015124,59.521301,19.687134,-146.841248,,,
729606697.84671,3.424484,-3.069216,54.115377,0.049973,0.055099,0.995209,0.028812,0.009141,-0.01229,59.521301,19.687134,-146.841248,,,
729606697.850148,3.429688,-3.066036,54.112892,0.049301,0.061569,0.987259,0.028812,0.009141,-0.01229,59.521301,19.687134,-146.841248,,,
729606697.853389,3.429688,-3.066036,54.112892,0.049301,0.061569,0.987259,0.028812,0.009141,-0.01229,59.521301,19.687134,-146.841248,,,
729606697.856798,3.43244,-3.06358,54.110947,0.049301,0.061569,0.987259,0.006129,0.014471,-0.009496,59.521301,19.687134,-146.841248,,,
729606697.860022,3.432318,-3.059223,54.109041,0.045746,0.062775,0.986679,0.006129,0.014471,-0.009496,59.521301,19.687134,-146.841248,,,
729606697.86336,3.432318,-3.059223,54.109041,0.045746,0.062775,0.986679,0.006129,0.014471,-0.009496,59.470734,19.439224,-147.18663,,,
729606697.866711,3.4302,-3.055893,54.107598,0.045746,0.062775,0.986679,-0.010005,0.014642,-0.007668,59.470734,19.439224,-147.18663,,,
729606697.870021,3.425703,-3.055045,54.106883,0.043213,0.060242,0.985931,-0.010005,0.014642,-0.007668,59.470734,19.439224,-147.18663,,,
729606697.873371,3.425703,-3.055045,54.106883,0.043213,0.060242,0.985931,-0.010005,0.014642,-0.007668,59.470734,19.439224,-147.18663,,,
729606697.876706,3.421964,-3.059839,54.106597,0.043213,0.060242,0.985931,-0.016178,-0.005133,-0.002331,59.470734,19.439224,-147.18663,,,
729606697.880058,3.417564,-3.065145,54.106018,0.046036,0.057602,0.986252,-0.016178,-0.005133,-0.002331,59.470734,19.439224,-147.18663,,,
729606697.883386,3.417564,-3.065145,54.106018,0.046036,0.057602,0.986252,-0.016178,-0.005133,-0.002331,59.470734,19.439224,-147.18663,,,
729606697.886728,3.415769,-3.074688,54.105056,0.046036,0.057602,0.986252,-0.012303,-0.024897,-0.005376,59.470734,19.439224,-147.18663,,,
729606697.890017,3.412943,-3.084684,54.103285,0.04953,0.059402,0.994156,-0.012303,-0.024897,-0.005376,59.470734,19.439224,-147.18663,,,
729606697.893381,3.412943,-3.084684,54.103285,0.04953,0.059402,0.994156,-0.012303,-0.024897,-0.005376,59.470734,19.439224,-147.18663,,,
729606697.896712,3.410995,-3.09413,54.101315,0.04953,0.059402,0.994156,-0.007856,-0.036942,-0.007065,59.470734,19.439224,-147.18663,,,
729606697.900017,3.409262,-3.10436,54.099765,0.052994,0.054535,1.001083,-0.007856,-0.036942,-0.007065,59.470734,19.439224,-147.18663,,,
729606697.903363,3.409262,-3.10436,54.099765,0.052994,0.054535,1.001083,-0.007856,-0.036942,-0.007065,59.470734,19.439224,-147.18663,,,
729606697.906748,3.407202,-3.11002,54.099179,0.052994,0.054535,1.001083,-0.003467,-0.026122,-0.00314,59.618057,19.471283,-146.72319,,,
729606697.910013,3.405496,-3.117233,54.100406,0.053436,0.054749,1.006104,-0.003467,-0.026122,-0.00314,59.618057,19.471283,-146.72319,,,
729606697.913395,3.405496,-3.117233,54.100406,0.053436,0.054749,1.006104,-0.003467,-0.026122,-0.00314,59.618057,19.471283,-146.72319,,,
729606697.916706,3.401652,-3.120029,54.102543,0.053436,0.054749,1.006104,-0.008388,-0.015239,0.006566,59.618057,19.471283,-146.72319,,,
729606697.920028,3.398665,-3.123981,54.105589,0.057312,0.056091,1.002106,-0.008388,-0.015239,0.006566,59.618057,19.471283,-146.72319,,,
729606697.923371,3.398665,-3.123981,54.105589,0.057312,0.056091,1.002106,-0.008388,-0.015239,0.006566,59.618057,19.471283,-146.72319,,,
729606697.926715,3.394177,-3.124037,54.108931,0.057312,0.056091,1.002106,-0.012832,-0.003418,0.012329,59.618057,19.471283,-146.72319,,,
729606697.930021,3.389656,-3.123863,54.112372,0.05719,0.058014,1.00528,-0.012832,-0.003418,0.012329,59.618057,19.471283,-146.72319,,,
729606697.933457,3.389656,-3.123863,54.112372,0.05719,0.058014,1.00528,-0.012832,-0.003418,0.012329,59.618057,19.471283,-146.72319,,,
729606697.936714,3.387423,-3.12054,54.115455,0.05719,0.058014,1.00528,-0.011481,0.006578,0.014272,59.618057,19.471283,-146.72319,,,
729606697.94003,3.385764,-3.119493,54.118706,0.056076,0.057968,1.004395,-0.011481,0.006578,0.014272,59.618057,19.471283,-146.72319,,,
729606697.943375,3.385764,-3.119493,54.118706,0.056076,0.057968,1.004395,-0.011481,0.006578,0.014272,59.618057,19.471283,-146.72319,,,
729606697.94679,3.386762,-3.115979,54.121819,0.056076,0.057968,1.004395,0.003123,0.002194,0.011305,59.590881,19.707764,-146.757553,,,
729606697.950048,3.390416,-3.116949,54.12534,0.058731,0.058105,1.003036,0.003123,0.002194,0.011305,59.590881,19.707764,-146.757553,,,
729606697.953402,3.390416,-3.116949,54.12534,0.058731,0.058105,1.003036,0.003123,0.002194,0.011305,59.590881,19.707764,-146.757553,,,
729606697.956718,3.39731,-3.114493,54.128315,0.058731,0.058105,1.003036,0.02488,-0.001321,0.007825,59.590881,19.707764,-146.757553,,,
729606697.960042,3.405115,-3.116447,54.13067,0.063034,0.060547,0.998306,0.02488,-0.001321,0.007825,59.590881,19.707764,-146.757553,,,
729606697.963353,3.405115,-3.116447,54.13067,0.063034,0.060547,0.998306,0.02488,-0.001321,0.007825,59.590881,19.707764,-146.757553,,,
729606697.966703,3.412412,-3.116112,54.132643,0.063034,0.060547,0.998306,0.029803,-0.004206,0.005662,59.590881,19.707764,-146.757553,,,
729606697.970026,3.418772,-3.118662,54.135405,0.063324,0.067642,0.984879,0.029803,-0.004206,0.005662,59.590881,19.707764,-146.757553,,,
729606697.973459,3.418772,-3.118662,54.135405,0.063324,0.067642,0.984879,0.029803,-0.004206,0.005662,59.590881,19.707764,-146.757553,,,
729606697.9767,3.423821,-3.120204,54.138841,0.063324,0.067642,0.984879,0.017448,-0.007177,0.008543,59.590881,19.707764,-146.757553,,,
729606697.980059,3.428438,-3.124113,54.143489,0.052643,0.067596,0.982819,0.017448,-0.007177,0.008543,59.590881,19.707764,-146.757553,,,
729606697.983375,3.428438,-3.124113,54.143489,0.052643,0.067596,0.982819,0.017448,-0.007177,0.008543,59.590881,19.707764,-146.757553,,,
729606697.986701,3.431654,-3.129574,54.150047,0.052643,0.067596,0.982819,0.016783,-0.016936,0.020576,59.619202,19.575668,-146.359283,,,
729606697.990026,3.436671,-3.138795,54.158088,0.047546,0.065094,0.983276,0.016783,-0.016936,0.020576,59.619202,19.575668,-146.359283,,,
729606697.993389,3.436671,-3.138795,54.158088,0.047546,0.065094,0.983276,0.016783,-0.016936,0.020576,59.619202,19.575668,-146.359283,,,
729606697.996764,3.44152,-3.149975,54.166073,0.047546,0.065094,0.983276,0.022832,-0.038477,0.026075,59.619202,19.575668,-146.359283,,,
729606698.000008,3.448133,-3.162193,54.172664,0.055328,0.072144,0.986572,0.022832,-0.038477,0.026075,59.619202,19.575668,-146.359283,,,
729606698.00337,3.448133,-3.162193,54.172664,0.055328,0.072144,0.986572,0.022832,-0.038477,0.026075,59.619202,19.575668,-146.359283,,,
729606698.006707,3.454548,-3.175907,54.177239,0.055328,0.072144,0.986572,0.026115,-0.040957,0.013439,59.619202,19.575668,-146.359283,,,
729606698.01006,3.461722,-3.188408,54.179613,0.063812,0.077728,0.99202,0.026115,-0.040957,0.013439,59.619202,19.575668,-146.359283,,,
729606698.013448,3.461722,-3.188408,54.179613,0.063812,0.077728,0.99202,0.026115,-0.040957,0.013439,59.619202,19.575668,-146.359283,,,
729606698.016708,3.468013,-3.199662,54.180425,0.063812,0.077728,0.99202,0.025823,-0.036343,4e-06,59.619202,19.575668,-146.359283,,,
729606698.020036,3.474926,-3.208582,54.180366,0.062424,0.074387,0.99559,0.025823,-0.036343,4e-06,59.619202,19.575668,-146.359283,,,
729606698.023454,3.474926,-3.208582,54.180366,0.062424,0.074387,0.99559,0.025823,-0.036343,4e-06,59.619202,19.575668,-146.359283,,,
729606698.026695,3.480635,-3.215948,54.180108,0.062424,0.074387,0.99559,0.023542,-0.019994,-0.001393,59.279037,19.64386,-146.476334,,,
729606698.030021,3.486958,-3.222183,54.181071,0.055176,0.065735,0.999084,0.023542,-0.019994,-0.001393,59.279037,19.64386,-146.476334,,,
729606698.033392,3.486958,-3.222183,54.181071,0.055176,0.065735,0.999084,0.023542,-0.019994,-0.001393,59.279037,19.64386,-146.476334,,,
729606698.036446,3.492937,-3.230392,54.184519,0.055176,0.065735,0.999084,0.023324,-0.01963,0.008417,59.279037,19.64386,-146.476334,,,
729606698.040069,3.498731,-3.237065,54.189824,0.045624,0.060364,0.996613,0.023324,-0.01963,0.008417,59.279037,19.64386,-146.476334,,,
729606698.043391,3.498731,-3.237065,54.189824,0.045624,0.060364,0.996613,0.023324,-0.01963,0.008417,59.279037,19.64386,-146.476334,,,
729606698.046739,3.504519,-3.246809,54.196779,0.045624,0.060364,0.996613,0.021095,-0.019491,0.022816,59.279037,19.64386,-146.476334,,,
729606698.050072,3.510044,-3.25141,54.204655,0.041611,0.058121,0.997864,0.021095,-0.019491,0.022816,59.279037,19.64386,-146.476334,,,
729606698.053374,3.510044,-3.25141,54.204655,0.041611,0.058121,0.997864,0.021095,-0.019491,0.022816,59.279037,19.64386,-146.476334,,,
729606698.056705,3.517622,-3.256331,54.212829,0.041611,0.058121,0.997864,0.022448,-0.005983,0.025556,59.279037,19.64386,-146.476334,,,
729606698.060092,3.524676,-3.258925,54.220403,0.043915,0.059402,1.00325,0.022448,-0.005983,0.025556,59.279037,19.64386,-146.476334,,,
729606698.06344,3.524676,-3.258925,54.220403,0.043915,0.059402,1.00325,0.022448,-0.005983,0.025556,59.279037,19.64386,-146.476334,,,
729606698.066707,3.534701,-3.257531,54.227145,0.043915,0.059402,1.00325,0.033575,0.001246,0.020828,59.279037,19.64386,-146.476334,,,
729606698.070033,3.545662,-3.258007,54.233462,0.047714,0.059982,1.006256,0.033575,0.001246,0.020828,59.54512,19.532364,-146.49527,,,
729606698.073373,3.545662,-3.258007,54.233462,0.047714,0.059982,1.006256,0.033575,0.001246,0.020828,59.54512,19.532364,-146.49527,,,
729606698.076758,3.559308,-3.256039,54.238636,0.047714,0.059982,1.006256,0.045463,0.00094,0.013624,59.54512,19.532364,-146.49527,,,
729606698.08002,3.571133,-3.256824,54.243633,0.050049,0.058823,1.000946,0.045463,0.00094,0.013624,59.54512,19.532364,-146.49527,,,
729606698.08341,3.571133,-3.256824,54.243633,0.050049,0.058823,1.000946,0.045463,0.00094,0.013624,59.54512,19.532364,-146.49527,,,
729606698.086695,3.584176,-3.258916,54.249368,0.050049,0.058823,1.000946,0.039055,0.001898,0.016382,59.54512,19.532364,-146.49527,,,
729606698.090065,3.592482,-3.25996,54.255349,0.04689,0.058426,0.990326,0.039055,0.001898,0.016382,59.54512,19.532364,-146.49527,,,
729606698.093376,3.592482,-3.25996,54.255349,0.04689,0.058426,0.990326,0.039055,0.001898,0.016382,59.54512,19.532364,-146.49527,,,
729606698.096695,3.601179,-3.264802,54.261453,0.04689,0.058426,0.990326,0.023826,-0.000767,0.016641,59.54512,19.532364,-146.49527,,,
729606698.100044,3.604836,-3.267537,54.266946,0.051636,0.06073,0.986694,0.023826,-0.000767,0.016641,59.54512,19.532364,-146.49527,,,
729606698.103453,3.604836,-3.267537,54.266946,0.051636,0.06073,0.986694,0.023826,-0.000767,0.016641,59.54512,19.532364,-146.49527,,,
729606698.106715,3.608494,-3.272573,54.271794,0.051636,0.06073,0.986694,0.008698,-0.009322,0.016538,59.54512,19.532364,-146.49527,,,
729606698.110031,3.608882,-3.277302,54.275863,0.056931,0.061371,0.984802,0.008698,-0.009322,0.016538,59.317307,19.572205,-146.483749,,,
729606698.11341,3.608882,-3.277302,54.275863,0.056931,0.061371,0.984802,0.008698,-0.009322,0.016538,59.317307,19.572205,-146.483749,,,
729606698.116753,3.6076,-3.280382,54.278836,0.056931,0.061371,0.984802,-0.001423,-0.018387,0.009573,59.317307,19.572205,-146.483749,,,
729606698.120079,3.605307,-3.286586,54.280719,0.057327,0.059937,0.986069,-0.001423,-0.018387,0.009573,59.317307,19.572205,-146.483749,,,
729606698.123363,3.605307,-3.286586,54.280719,0.057327,0.059937,0.986069,-0.001423,-0.018387,0.009573,59.317307,19.572205,-146.483749,,,
729606698.126711,3.601138,-3.287186,54.281629,0.057327,0.059937,0.986069,-0.0108,-0.020126,0.005275,59.317307,19.572205,-146.483749,,,
729606698.130107,3.597019,-3.293086,54.28335,0.061081,0.056625,0.987747,-0.0108,-0.020126,0.005275,59.317307,19.572205,-146.483749,,,
729606698.133363,3.597019,-3.293086,54.28335,0.061081,0.056625,0.987747,-0.0108,-0.020126,0.005275,59.317307,19.572205,-146.483749,,,
729606698.136426,3.59183,-3.292398,54.28525,0.061081,0.056625,0.987747,-0.016117,-0.016429,0.008804,59.317307,19.572205,-146.483749,,,
729606698.14009,3.586963,-3.296243,54.287646,0.062759,0.053513,0.993866,-0.016117,-0.016429,0.008804,59.317307,19.572205,-146.483749,,,
729606698.143433,3.586963,-3.296243,54.287646,0.062759,0.053513,0.993866,-0.016117,-0.016429,0.008804,59.317307,19.572205,-146.483749,,,
729606698.146728,3.581699,-3.29495,54.290052,0.062759,0.053513,0.993866,-0.011239,-0.007988,0.008769,59.317307,19.572205,-146.483749,,,
729606698.150106,3.578927,-3.297727,54.29282,0.065948,0.049149,1.000137,-0.011239,-0.007988,0.008769,59.146667,19.595383,-146.476227,,,
729606698.153354,3.578927,-3.297727,54.29282,0.065948,0.049149,1.000137,-0.011239,-0.007988,0.008769,59.146667,19.595383,-146.476227,,,
729606698.156693,3.576918,-3.296165,54.29531,0.065948,0.049149,1.000137,-0.002862,-0.00336,0.008121,59.146667,19.595383,-146.476227,,,
729606698.160097,3.576918,-3.296165,54.29531,0.065948,0.049149,1.000137,-0.002862,-0.00336,0.008121,59.146667,19.595383,-146.476227,,,
729606698.163356,3.57595,-3.297176,54.29726,0.066376,0.048843,1.002075,-0.002862,-0.00336,0.008121,59.146667,19.595383,-146.476227,,,
729606698.1667,3.574388,-3.293889,54.298183,0.066376,0.048843,1.002075,-0.002802,0.004359,0.001544,59.146667,19.595383,-146.476227,,,
729606698.170107,3.573152,-3.292542,54.299224,0.066376,0.048843,1.002075,-0.002802,0.004359,0.001544,59.146667,19.595383,-146.476227,,,
729606698.173369,3.573152,-3.292542,54.299224,0.066986,0.051575,1.000854,-0.002802,0.004359,0.001544,59.146667,19.595383,-146.476227,,,
729606698.176698,3.570432,-3.285622,54.299835,0.066986,0.051575,1.000854,-0.006656,0.013489,0.000801,59.146667,19.595383,-146.476227,,,
729606698.180107,3.567217,-3.281174,54.300084,0.07019,0.052994,0.998428,-0.006656,0.013489,0.000801,59.146667,19.595383,-146.476227,,,
729606698.183417,3.567217,-3.281174,54.300084,0.07019,0.052994,0.998428,-0.006656,0.013489,0.000801,59.146667,19.595383,-146.476227,,,
729606698.186694,3.56282,-3.274787,54.299265,0.07019,0.052994,0.998428,-0.013991,0.022191,-0.005401,59.146667,19.595383,-146.476227,,,
729606698.190031,3.56282,-3.274787,54.299265,0.07019,0.052994,0.998428,-0.013991,0.022191,-0.005401,59.146667,19.595383,-146.476227,,,
729606698.193367,3.556912,-3.268116,54.29745,0.071793,0.057495,0.990662,-0.013991,0.022191,-0.005401,59.260315,19.65155,-146.153168,,,
729606698.196758,3.549424,-3.261322,54.295027,0.071793,0.057495,0.990662,-0.02633,0.027619,-0.010276,59.260315,19.65155,-146.153168,,,
729606698.200049,3.549424,-3.261322,54.295027,0.071793,0.057495,0.990662,-0.02633,0.027619,-0.010276,59.260315,19.65155,-146.153168,,,
729606698.203362,3.540716,-3.255159,54.292511,0.067825,0.058289,0.987579,-0.02633,0.027619,-0.010276,59.260315,19.65155,-146.153168,,,
729606698.206703,3.530613,-3.251341,54.290367,0.067825,0.058289,0.987579,-0.033113,0.01881,-0.007233,59.260315,19.65155,-146.153168,,,
729606698.210078,3.530613,-3.251341,54.290367,0.067825,0.058289,0.987579,-0.033113,0.01881,-0.007233,59.260315,19.65155,-146.153168,,,
729606698.213403,3.520113,-3.248351,54.287769,0.066605,0.059357,0.982635,-0.033113,0.01881,-0.007233,59.260315,19.65155,-146.153168,,,
729606698.216714,3.509222,-3.24951,54.283697,0.066605,0.059357,0.982635,-0.035168,0.004884,-0.015217,59.260315,19.65155,-146.153168,,,
729606698.220226,3.509222,-3.249941,54.277954,0.066605,0.059357,0.982635,-0.035168,0.004884,-0.015217,59.260315,19.65155,-146.153168,,,
729606698.223411,3.500547,-3.249941,54.277954,0.07486,0.058701,0.983124,-0.035168,0.004884,-0.015217,59.260315,19.65155,-146.153168,,,
729606698.226693,3.491585,-3.25453,54.271208,0.07486,0.058701,0.983124,-0.026793,-0.005124,-0.023217,59.260315,19.65155,-146.153168,,,
729606698.230075,3.491585,-3.25453,54.271208,0.07486,0.058701,0.983124,-0.026793,-0.005124,-0.023217,59.260315,19.65155,-146.153168,,,
729606698.233367,3.485383,-3.25658,54.263623,0.076477,0.057495,0.990616,-0.026793,-0.005124,-0.023217,59.289764,19.639694,-146.451233,,,
729606698.23676,3.47738,-3.262178,54.256133,0.076477,0.057495,0.990616,-0.021252,-0.00817,-0.028963,59.289764,19.639694,-146.451233,,,
729606698.240088,3.47738,-3.262178,54.256133,0.076477,0.057495,0.990616,-0.021252,-0.00817,-0.028963,59.289764,19.639694,-146.451233,,,
729606698.243361,3.472794,-3.264158,54.248835,0.073029,0.0578,0.993851,-0.021252,-0.00817,-0.028963,59.289764,19.639694,-146.451233,,,
729606698.246738,3.466143,-3.268517,54.241693,0.073029,0.0578,0.993851,-0.015249,-0.000784,-0.029285,59.289764,19.639694,-146.451233,,,
729606698.250073,3.466143,-3.268517,54.241693,0.073029,0.0578,0.993851,-0.015249,-0.000784,-0.029285,59.289764,19.639694,-146.451233,,,
729606698.253457,3.461939,-3.268776,54.23334,0.072495,0.059402,0.993835,-0.015249,-0.000784,-0.029285,59.289764,19.639694,-146.451233,,,
729606698.256739,3.455912,-3.273355,54.224652,0.072495,0.059402,0.993835,-0.014929,0.000366,-0.030796,59.289764,19.639694,-146.451233,,,
729606698.260066,3.455912,-3.273355,54.224652,0.072495,0.059402,0.993835,-0.014929,0.000366,-0.030796,59.289764,19.639694,-146.451233,,,
729606698.263463,3.45111,-3.273315,54.215778,0.072205,0.062897,0.988419,-0.014929,0.000366,-0.030796,59.289764,19.639694,-146.451233,,,
729606698.266713,3.444877,-3.277864,54.207671,0.072205,0.062897,0.988419,-0.016701,0.004764,-0.031079,59.289764,19.639694,-146.451233,,,
729606698.270043,3.444877,-3.277864,54.207671,0.072205,0.062897,0.988419,-0.016701,0.004764,-0.031079,59.289764,19.639694,-146.451233,,,
729606698.273382,3.439777,-3.275239,54.199329,0.068176,0.063049,0.990677,-0.016701,0.004764,-0.031079,59.202728,19.523636,-146.458572,,,
729606698.27678,3.434177,-3.276819,54.190998,0.068176,0.063049,0.990677,-0.021784,0.016582,-0.030762,59.202728,19.523636,-146.458572,,,
729606698.280094,3.434177,-3.276819,54.190998,0.068176,0.063049,0.990677,-0.021784,0.016582,-0.030762,59.202728,19.523636,-146.458572,,,
729606698.283396,3.42797,-3.27134,54.181851,0.065109,0.066208,0.989044,-0.021784,0.016582,-0.030762,59.202728,19.523636,-146.458572,,,
729606698.286693,3.421858,-3.268517,54.172808,0.065109,0.066208,0.989044,-0.023644,0.026511,-0.032967,59.202728,19.523636,-146.458572,,,
729606698.290138,3.421858,-3.268517,54.172808,0.065109,0.066208,0.989044,-0.023644,0.026511,-0.032967,59.202728,19.523636,-146.458572,,,
729606698.293394,3.417054,-3.261202,54.16352,0.064896,0.067902,0.991806,-0.023644,0.026511,-0.032967,59.202728,19.523636,-146.458572,,,
729606698.296719,3.413683,-3.259405,54.154281,0.064896,0.067902,0.991806,-0.01136,0.025266,-0.0358,59.202728,19.523636,-146.458572,,,
729606698.300054,3.413683,-3.259405,54.154281,0.064896,0.067902,0.991806,-0.01136,0.025266,-0.0358,59.202728,19.523636,-146.458572,,,
729606698.303455,3.411574,-3.253771,54.145167,0.056641,0.062469,0.993683,-0.01136,0.025266,-0.0358,59.202728,19.523636,-146.458572,,,
729606698.306695,3.410852,-3.257317,54.137137,0.056641,0.062469,0.993683,-0.005366,0.014522,-0.030145,59.202728,19.523636,-146.458572,,,
729606698.310047,3.410852,-3.257317,54.137137,0.056641,0.062469,0.993683,-0.005366,0.014522,-0.030145,59.202728,19.523636,-146.458572,,,
729606698.313353,3.411153,-3.253144,54.128649,0.049561,0.064835,0.992279,-0.005366,0.014522,-0.030145,59.304733,19.625412,-146.422607,,,
729606698.316706,3.411448,-3.256291,54.120951,0.049561,0.064835,0.992279,0.002336,0.016918,-0.029563,59.304733,19.625412,-146.422607,,,
729606698.320041,3.411448,-3.256291,54.120951,0.049561,0.064835,0.992279,0.002336,0.016918,-0.029563,59.304733,19.625412,-146.422607,,,
729606698.323374,3.412194,-3.251837,54.113996,0.044449,0.071136,0.988831,0.002336,0.016918,-0.029563,59.304733,19.625412,-146.422607,,,
729606698.326696,3.412309,-3.253806,54.108709,0.044449,0.071136,0.988831,0.001597,0.015145,-0.021572,59.304733,19.625412,-146.422607,,,
729606698.330094,3.412309,-3.253806,54.108709,0.044449,0.071136,0.988831,0.001597,0.015145,-0.021572,59.304733,19.625412,-146.422607,,,
729606698.333371,3.411995,-3.250119,54.10446,0.040833,0.071014,0.982162,0.001597,0.015145,-0.021572,59.304733,19.625412,-146.422607,,,
729606698.336698,3.410715,-3.253334,54.101756,0.040833,0.071014,0.982162,-0.006923,0.013474,-0.01261,59.304733,19.625412,-146.422607,,,
729606698.340042,3.410715,-3.253334,54.101756,0.040833,0.071014,0.982162,-0.006923,0.013474,-0.01261,59.304733,19.625412,-146.422607,,,
729606698.343456,3.406831,-3.250399,54.099257,0.042282,0.070786,0.982742,-0.006923,0.013474,-0.01261,59.304733,19.625412,-146.422607,,,
729606698.346694,3.402094,-3.253261,54.096632,0.042282,0.070786,0.982742,-0.019356,0.010001,-0.011043,59.304733,19.625412,-146.422607,,,
729606698.350062,3.402094,-3.253261,54.096632,0.042282,0.070786,0.982742,-0.019356,0.010001,-0.011043,59.304733,19.625412,-146.422607,,,
729606698.353404,3.395359,-3.250938,54.09293,0.041534,0.072556,0.985489,-0.019356,0.010001,-0.011043,59.304733,19.625412,-146.422607,,,
729606698.356694,3.388815,-3.252819,54.089203,0.041534,0.072556,0.985489,-0.025647,0.011065,-0.016261,59.32608,19.697449,-146.334686,,,
729606698.360048,3.388815,-3.252819,54.089203,0.041534,0.072556,0.985489,-0.025647,0.011065,-0.016261,59.32608,19.697449,-146.334686,,,
729606698.363382,3.381747,-3.251015,54.085171,0.035843,0.06868,0.990417,-0.025647,0.011065,-0.016261,59.32608,19.697449,-146.334686,,,
729606698.366695,3.377803,-3.252857,54.082164,0.035843,0.06868,0.990417,-0.020952,0.011306,-0.012103,59.32608,19.697449,-146.334686,,,
729606698.37012,3.377803,-3.252857,54.082164,0.035843,0.06868,0.990417,-0.020952,0.011306,-0.012103,59.32608,19.697449,-146.334686,,,
729606698.37337,3.373895,-3.250819,54.080594,0.028992,0.061005,1.005249,-0.020952,0.011306,-0.012103,59.32608,19.697449,-146.334686,,,
729606698.376687,3.373423,-3.251185,54.081582,0.028992,0.061005,1.005249,-0.006761,0.007361,0.000466,59.32608,19.697449,-146.334686,,,
729606698.380078,3.373423,-3.251185,54.081582,0.028992,0.061005,1.005249,-0.006761,0.007361,0.000466,59.32608,19.697449,-146.334686,,,
729606698.383434,3.373283,-3.250024,54.084801,0.028061,0.057983,1.007385,-0.006761,0.007361,0.000466,59.32608,19.697449,-146.334686,,,
729606698.386687,3.375629,-3.247844,54.089708,0.028061,0.057983,1.007385,0.005377,0.008832,0.013861,59.32608,19.697449,-146.334686,,,
729606698.39004,3.375629,-3.247844,54.089708,0.028061,0.057983,1.007385,0.005377,0.008832,0.013861,59.32608,19.697449,-146.334686,,,
729606698.39338,3.378424,-3.245586,54.096124,0.029617,0.054337,1.006149,0.005377,0.008832,0.013861,59.32608,19.697449,-146.334686,,,
729606698.396709,3.383161,-3.238568,54.103723,0.029617,0.054337,1.006149,0.011451,0.016839,0.024178,59.432037,19.721695,-146.824692,,,
729606698.400041,3.383161,-3.238568,54.103723,0.029617,0.054337,1.006149,0.011451,0.016839,0.024178,59.432037,19.721695,-146.824692,,,
729606698.403374,3.386222,-3.233424,54.112381,0.03273,0.055634,1.005264,0.011451,0.016839,0.024178,59.432037,19.721695,-146.824692,,,
729606698.406694,3.391914,-3.221088,54.121841,0.03273,0.055634,1.005264,0.01475,0.027467,0.031579,59.432037,19.721695,-146.824692,,,
729606698.410094,3.391914,-3.221088,54.121841,0.03273,0.055634,1.005264,0.01475,0.027467,0.031579,59.432037,19.721695,-146.824692,,,
729606698.413406,3.395212,-3.213293,54.133814,0.033813,0.055969,1.000061,0.01475,0.027467,0.031579,59.432037,19.721695,-146.824692,,,
729606698.416809,3.400866,-3.199957,54.147496,0.033813,0.055969,1.000061,0.01533,0.033678,0.0486,59.432037,19.721695,-146.824692,,,
729606698.42002,3.400866,-3.199957,54.147496,0.033813,0.055969,1.000061,0.01533,0.033678,0.0486,59.432037,19.721695,-146.824692,,,
729606698.423462,3.404686,-3.192562,54.16381,0.034637,0.052567,0.997711,0.01533,0.033678,0.0486,59.432037,19.721695,-146.824692,,,
729606698.426708,3.412065,-3.180689,54.181627,0.034637,0.052567,0.997711,0.022881,0.035635,0.061765,59.432037,19.721695,-146.824692,,,
729606698.430055,3.412065,-3.180689,54.181627,0.034637,0.052567,0.997711,0.022881,0.035635,0.061765,59.432037,19.721695,-146.824692,,,
729606698.433381,3.41803,-3.173461,54.199755,0.042084,0.055054,0.997055,0.022881,0.035635,0.061765,59.432037,19.721695,-146.824692,,,
729606698.436702,3.426882,-3.160489,54.21687,0.042084,0.055054,0.997055,0.027347,0.030397,0.058232,59.420425,19.684128,-146.448654,,,
729606698.440057,3.426882,-3.160489,54.21687,0.042084,0.055054,0.997055,0.027347,0.030397,0.058232,59.420425,19.684128,-146.448654,,,
729606698.443362,3.432619,-3.153968,54.233546,0.054489,0.065002,0.986176,0.027347,0.030397,0.058232,59.420425,19.684128,-146.448654,,,
729606698.446736,3.438807,-3.139298,54.248534,0.054489,0.065002,0.986176,0.021856,0.026596,0.05071,59.420425,19.684128,-146.448654,,,
729606698.45012,3.438807,-3.139298,54.248534,0.054489,0.065002,0.986176,0.021856,0.026596,0.05071,59.420425,19.684128,-146.448654,,,
729606698.453365,3.443056,-3.13295,54.262845,0.057526,0.07048,0.979736,0.021856,0.026596,0.05071,59.420425,19.684128,-146.448654,,,
729606698.456697,3.445164,-3.115853,54.276132,0.057526,0.07048,0.979736,0.010422,0.02668,0.045413,59.420425,19.684128,-146.448654,,,
729606698.460044,3.445164,-3.115853,54.276132,0.057526,0.07048,0.979736,0.010422,0.02668,0.045413,59.420425,19.684128,-146.448654,,,
729606698.463417,3.445292,-3.110227,54.290121,0.057022,0.072342,0.974274,0.010422,0.02668,0.045413,59.420425,19.684128,-146.448654,,,
729606698.466687,3.443389,-3.095812,54.304298,0.057022,0.072342,0.974274,-0.000991,0.019504,0.051024,59.420425,19.684128,-146.448654,,,
729606698.470036,3.443389,-3.095812,54.304298,0.057022,0.072342,0.974274,-0.000991,0.019504,0.051024,59.420425,19.684128,-146.448654,,,
729606698.473368,3.440745,-3.092016,54.32012,0.056183,0.06871,0.968369,-0.000991,0.019504,0.051024,59.420425,19.684128,-146.448654,,,
729606698.476707,3.435143,-3.079924,54.336132,0.056183,0.06871,0.968369,-0.0103,0.018379,0.055364,59.228104,19.618881,-146.573746,,,
729606698.480072,3.435143,-3.079924,54.336132,0.056183,0.06871,0.968369,-0.0103,0.018379,0.055364,59.228104,19.618881,-146.573746,,,
729606698.483383,3.429462,-3.077491,54.352985,0.057678,0.065781,0.972687,-0.0103,0.018379,0.055364,59.228104,19.618881,-146.573746,,,
729606698.48669,3.422642,-3.06776,54.369599,0.057678,0.065781,0.972687,-0.017474,0.01327,0.058773,59.228104,19.618881,-146.573746,,,
729606698.490085,3.422642,-3.06776,54.369599,0.057678,0.065781,0.972687,-0.017474,0.01327,0.058773,59.228104,19.618881,-146.573746,,,
729606698.493443,3.417766,-3.065292,54.386299,0.058197,0.063293,0.984268,-0.017474,0.01327,0.058773,59.228104,19.618881,-146.573746,,,
729606698.496703,3.414358,-3.054656,54.402383,0.058197,0.063293,0.984268,-0.00424,0.01768,0.058573,59.228104,19.618881,-146.573746,,,
729606698.500127,3.414358,-3.054656,54.402383,0.058197,0.063293,0.984268,-0.00424,0.01768,0.058573,59.228104,19.618881,-146.573746,,,
729606698.503385,3.414135,-3.050382,54.419375,0.057907,0.058121,1.002914,-0.00424,0.01768,0.058573,59.228104,19.618881,-146.573746,,,
729606698.5067,3.413536,-3.0378,54.435849,0.057907,0.058121,1.002914,0.008316,0.026661,0.057505,59.228104,19.618881,-146.573746,,,
729606698.510028,3.413536,-3.0378,54.435849,0.057907,0.058121,1.002914,0.008316,0.026661,0.057505,59.228104,19.618881,-146.573746,,,
729606698.51342,3.415041,-3.030569,54.452343,0.062561,0.058502,1.004059,0.008316,0.026661,0.057505,59.228104,19.618881,-146.573746,,,
