Time (sec),Pitch (deg),Roll (deg),Yaw(deg),X-Acceleration (g),Y-Acceleration (g),Z-Acceleration (g),Pitch Rate (deg/sec),Roll Rate (deg/sec),Yaw Rate (deg/sec),Magnetic Field in X direction (uT),Magnetic Field in Y direction (uT),Magnetic Field in Z Direction (uT),Latitude (deg),Longitude (deg),Altitude (m)
729607195.717986,2.430949,0.221052,57.864124,-0.030655,0.036011,1.012405,0.032312,0.023009,0.026504,62.65033,21.695557,-147.702225,,,
729607195.721272,2.430949,0.221052,57.864124,-0.030655,0.036011,1.012405,0.032312,0.023009,0.026504,62.65033,21.695557,-147.702225,,,
729607195.724477,2.445396,0.231928,57.872654,-0.030655,0.036011,1.012405,0.032312,0.023009,0.026504,62.65033,21.695557,-147.702225,,,
729607195.727961,2.454312,0.237612,57.882603,-0.025177,0.041199,1.010651,0.030895,0.023465,0.029807,62.65033,21.695557,-147.702225,,,
729607195.73139,2.454312,0.237612,57.882603,-0.025177,0.041199,1.010651,0.030895,0.023465,0.029807,62.65033,21.695557,-147.702225,,,
729607195.734685,2.46509,0.248922,57.892401,-0.025177,0.041199,1.010651,0.030895,0.023465,0.029807,62.65033,21.695557,-147.702225,,,
729607195.73801,2.472068,0.251415,57.902249,-0.013031,0.045807,1.000687,0.026968,0.012474,0.036642,62.65033,21.695557,-147.702225,,,
729607195.741284,2.472068,0.251415,57.902249,-0.013031,0.045807,1.000687,0.026968,0.012474,0.036642,62.65033,21.695557,-147.702225,,,
729607195.744612,2.478615,0.26049,57.91136,-0.013031,0.045807,1.000687,0.026968,0.012474,0.036642,62.65033,21.695557,-147.702225,,,
729607195.747957,2.48349,0.259368,57.920374,-0.004745,0.044525,0.999985,0.015223,-0.001122,0.030192,62.65033,21.695557,-147.702225,,,
729607195.75131,2.48349,0.259368,57.920374,-0.004745,0.044525,0.999985,0.015223,-0.001122,0.030192,62.65033,21.695557,-147.702225,,,
729607195.754626,2.486819,0.263602,57.928117,-0.004745,0.044525,0.999985,0.015223,-0.001122,0.030192,62.878448,21.668076,-147.56424,,,
729607195.757945,2.489761,0.259233,57.934843,0.002777,0.044159,1.000443,0.009002,-0.009614,0.020066,62.878448,21.668076,-147.56424,,,
729607195.76127,2.489761,0.259233,57.934843,0.002777,0.044159,1.000443,0.009002,-0.009614,0.020066,62.878448,21.668076,-147.56424,,,
729607195.764712,2.491357,0.263006,57.940052,0.002777,0.044159,1.000443,0.009002,-0.009614,0.020066,62.878448,21.668076,-147.56424,,,
729607195.767958,2.493641,0.259764,57.945038,0.006851,0.044388,1.007156,0.009716,-0.009612,0.014959,62.878448,21.668076,-147.56424,,,
729607195.771382,2.493641,0.259764,57.945038,0.006851,0.044388,1.007156,0.009716,-0.009612,0.014959,62.878448,21.668076,-147.56424,,,
729607195.774608,2.495352,0.265754,57.949805,0.006851,0.044388,1.007156,0.009716,-0.009612,0.014959,62.878448,21.668076,-147.56424,,,
729607195.77795,2.498873,0.265444,57.955522,0.005432,0.041534,1.012405,0.011662,0.002613,0.018742,62.878448,21.668076,-147.56424,,,
729607195.781359,2.498873,0.265444,57.955522,0.005432,0.041534,1.012405,0.011662,0.002613,0.018742,62.878448,21.668076,-147.56424,,,
729607195.784643,2.501372,0.274506,57.961964,0.005432,0.041534,1.012405,0.011662,0.002613,0.018742,62.878448,21.668076,-147.56424,,,
729607195.787936,2.504272,0.274477,57.96957,0.003403,0.034851,1.011459,0.011084,0.006382,0.024506,62.878448,21.668076,-147.56424,,,
729607195.791278,2.504272,0.274477,57.96957,0.003403,0.034851,1.011459,0.011084,0.006382,0.024506,62.878448,21.668076,-147.56424,,,
729607195.794597,2.504935,0.285143,57.976417,0.003403,0.034851,1.011459,0.011084,0.006382,0.024506,62.590729,21.597687,-147.651535,,,
729607195.797963,2.506942,0.283466,57.982863,0.005905,0.036835,1.009491,0.006956,-0.004163,0.022265,62.590729,21.597687,-147.651535,,,
729607195.801276,2.506942,0.283466,57.982863,0.005905,0.036835,1.009491,0.006956,-0.004163,0.022265,62.590729,21.597687,-147.651535,,,
729607195.804605,2.507125,0.291446,57.987521,0.005905,0.036835,1.009491,0.006956,-0.004163,0.022265,62.590729,21.597687,-147.651535,,,
729607195.807937,2.50871,0.285051,57.991789,0.004044,0.038864,1.009445,0.003986,-0.016826,0.012441,62.590729,21.597687,-147.651535,,,
729607195.811263,2.50871,0.285051,57.991789,0.004044,0.038864,1.009445,0.003986,-0.016826,0.012441,62.590729,21.597687,-147.651535,,,
729607195.814544,2.510015,0.28249,57.995708,0.004044,0.038864,1.009445,0.003986,-0.016826,0.012441,62.590729,21.597687,-147.651535,,,
729607195.81797,2.511591,0.270254,57.999879,-0.000458,0.036133,1.005051,0.005708,-0.038828,0.013534,62.590729,21.597687,-147.651535,,,
729607195.821302,2.511591,0.270254,57.999879,-0.000458,0.036133,1.005051,0.005708,-0.038828,0.013534,62.590729,21.597687,-147.651535,,,
729607195.824629,2.513878,0.258025,58.003733,-0.000458,0.036133,1.005051,0.005708,-0.038828,0.013534,62.590729,21.597687,-147.651535,,,
729607195.827946,2.515409,0.241952,58.007313,0.000504,0.034836,1.007111,0.004784,-0.052394,0.01323,62.590729,21.597687,-147.651535,,,
729607195.831322,2.515409,0.241952,58.007313,0.000504,0.034836,1.007111,0.004784,-0.052394,0.01323,62.590729,21.597687,-147.651535,,,
729607195.834686,2.516123,0.222764,58.010492,0.000504,0.034836,1.007111,0.004784,-0.052394,0.01323,62.664154,21.859253,-147.96315,,,
729607195.837931,2.516275,0.203784,58.012856,0.007629,0.039062,1.003922,-0.00026,-0.062091,0.008348,62.664154,21.859253,-147.96315,,,
729607195.841268,2.516275,0.203784,58.012856,0.007629,0.039062,1.003922,-0.00026,-0.062091,0.008348,62.664154,21.859253,-147.96315,,,
729607195.844621,2.516049,0.181984,58.01465,0.007629,0.039062,1.003922,-0.00026,-0.062091,0.008348,62.664154,21.859253,-147.96315,,,
729607195.847946,2.51561,0.165895,58.015761,0.012375,0.038834,1.006622,-0.000836,-0.053977,0.002476,62.664154,21.859253,-147.96315,,,
729607195.85128,2.51561,0.165895,58.015761,0.012375,0.038834,1.006622,-0.000836,-0.053977,0.002476,62.664154,21.859253,-147.96315,,,
729607195.854622,2.515323,0.145645,58.01674,0.012375,0.038834,1.006622,-0.000836,-0.053977,0.002476,62.664154,21.859253,-147.96315,,,
729607195.857643,2.515453,0.130001,58.017234,0.013443,0.041428,1.004578,-0.000563,-0.051417,1.8e-05,62.664154,21.859253,-147.96315,,,
729607195.861409,2.515453,0.130001,58.017234,0.013443,0.041428,1.004578,-0.000563,-0.051417,1.8e-05,62.664154,21.859253,-147.96315,,,
729607195.864675,2.514017,0.11198,58.016834,0.013443,0.041428,1.004578,-0.000563,-0.051417,1.8e-05,62.664154,21.859253,-147.96315,,,
729607195.867939,2.51384,0.097525,58.015152,0.013214,0.045685,0.996964,-0.000384,-0.047538,-0.007451,62.664154,21.859253,-147.96315,,,
729607195.871284,2.51384,0.097525,58.015152,0.013214,0.045685,0.996964,-0.000384,-0.047538,-0.007451,62.664154,21.859253,-147.96315,,,
729607195.874605,2.510641,0.080139,58.013416,0.013214,0.045685,0.996964,-0.000384,-0.047538,-0.007451,62.603775,21.648544,-147.542542,,,
729607195.877941,2.508399,0.066505,58.011647,0.011261,0.046173,0.988205,-0.009045,-0.046598,-0.010202,62.603775,21.648544,-147.542542,,,
729607195.881272,2.508399,0.066505,58.011647,0.011261,0.046173,0.988205,-0.009045,-0.046598,-0.010202,62.603775,21.648544,-147.542542,,,
729607195.884767,2.502992,0.049365,58.009154,0.011261,0.046173,0.988205,-0.009045,-0.046598,-0.010202,62.603775,21.648544,-147.542542,,,
729607195.887931,2.497593,0.036002,58.006081,0.009735,0.045868,0.983795,-0.019204,-0.044567,-0.010303,62.603775,21.648544,-147.542542,,,
729607195.891266,2.497593,0.036002,58.006081,0.009735,0.045868,0.983795,-0.019204,-0.044567,-0.010303,62.603775,21.648544,-147.542542,,,
729607195.894623,2.489177,0.021099,58.003375,0.009735,0.045868,0.983795,-0.019204,-0.044567,-0.010303,62.603775,21.648544,-147.542542,,,
729607195.89802,2.481531,0.007473,58.000418,0.006989,0.047562,0.988083,-0.026616,-0.043775,-0.011218,62.603775,21.648544,-147.542542,,,
729607195.901338,2.481531,0.007473,58.000418,0.006989,0.047562,0.988083,-0.026616,-0.043775,-0.011218,62.603775,21.648544,-147.542542,,,
729607195.904612,2.472033,-0.005184,57.997419,0.006989,0.047562,0.988083,-0.026616,-0.043775,-0.011218,62.603775,21.648544,-147.542542,,,
729607195.907938,2.465087,-0.017711,57.994662,0.002304,0.049973,0.990631,-0.02382,-0.040942,-0.010368,62.603775,21.648544,-147.542542,,,
729607195.911266,2.465087,-0.017711,57.994662,0.002304,0.049973,0.990631,-0.02382,-0.040942,-0.010368,62.603775,21.648544,-147.542542,,,
729607195.914603,2.457373,-0.030459,57.992286,0.002304,0.049973,0.990631,-0.02382,-0.040942,-0.010368,62.603775,21.648544,-147.542542,,,
729607195.917941,2.451809,-0.041082,57.99043,-0.006485,0.047104,0.99437,-0.014993,-0.033454,-0.008487,62.513046,21.736252,-147.484833,,,
729607195.921375,2.451809,-0.041082,57.99043,-0.006485,0.047104,0.99437,-0.014993,-0.033454,-0.008487,62.513046,21.736252,-147.484833,,,
729607195.924589,2.446666,-0.055978,57.989808,-0.006485,0.047104,0.99437,-0.014993,-0.033454,-0.008487,62.513046,21.736252,-147.484833,,,
729607195.927941,2.443524,-0.066269,57.990418,-0.012207,0.042114,0.989639,-0.014517,-0.031822,-0.000541,62.513046,21.736252,-147.484833,,,
729607195.931358,2.443524,-0.066269,57.990418,-0.012207,0.042114,0.989639,-0.014517,-0.031822,-0.000541,62.513046,21.736252,-147.484833,,,
729607195.934691,2.439892,-0.08071,57.992293,-0.012207,0.042114,0.989639,-0.014517,-0.031822,-0.000541,62.513046,21.736252,-147.484833,,,
729607195.937951,2.437758,-0.089752,57.994789,-0.012314,0.042831,0.99501,-0.011307,-0.02761,0.008479,62.513046,21.736252,-147.484833,,,
729607195.941278,2.437758,-0.089752,57.994789,-0.012314,0.042831,0.99501,-0.011307,-0.02761,0.008479,62.513046,21.736252,-147.484833,,,
729607195.944615,2.43566,-0.103997,57.998526,-0.012314,0.042831,0.99501,-0.011307,-0.02761,0.008479,62.513046,21.736252,-147.484833,,,
729607195.947937,2.432723,-0.112038,58.003106,-0.012848,0.040497,0.985992,-0.011296,-0.023478,0.013915,62.513046,21.736252,-147.484833,,,
729607195.951379,2.432723,-0.112038,58.003106,-0.012848,0.040497,0.985992,-0.011296,-0.023478,0.013915,62.513046,21.736252,-147.484833,,,
729607195.954679,2.430435,-0.124689,58.0091,-0.012848,0.040497,0.985992,-0.011296,-0.023478,0.013915,62.513046,21.736252,-147.484833,,,
729607195.957938,2.426652,-0.13097,58.015822,-0.016266,0.041107,0.985184,-0.010807,-0.016914,0.022262,62.303665,21.781097,-147.790268,,,
729607195.961345,2.426652,-0.13097,58.015822,-0.016266,0.041107,0.985184,-0.010807,-0.016914,0.022262,62.303665,21.781097,-147.790268,,,
729607195.964666,2.423102,-0.14008,58.022894,-0.016266,0.041107,0.985184,-0.010807,-0.016914,0.022262,62.303665,21.781097,-147.790268,,,
729607195.967944,2.4179,-0.145452,58.030258,-0.014542,0.042587,0.985825,-0.01584,-0.013883,0.024082,62.303665,21.781097,-147.790268,,,
729607195.970997,2.4179,-0.145452,58.030258,-0.014542,0.042587,0.985825,-0.01584,-0.013883,0.024082,62.303665,21.781097,-147.790268,,,
729607195.974607,2.413161,-0.154136,58.037999,-0.014542,0.042587,0.985825,-0.01584,-0.013883,0.024082,62.303665,21.781097,-147.790268,,,
729607195.977941,2.407319,-0.160877,58.045151,-0.010284,0.040878,0.985626,-0.019506,-0.022203,0.022406,62.303665,21.781097,-147.790268,,,
729607195.981441,2.407319,-0.160877,58.045151,-0.010284,0.040878,0.985626,-0.019506,-0.022203,0.022406,62.303665,21.781097,-147.790268,,,
729607195.984647,2.403377,-0.170631,58.052026,-0.010284,0.040878,0.985626,-0.019506,-0.022203,0.022406,62.303665,21.781097,-147.790268,,,
729607195.98793,2.39914,-0.178872,58.058431,-0.006866,0.038788,0.989517,-0.013218,-0.026729,0.020094,62.303665,21.781097,-147.790268,,,
729607195.991261,2.39914,-0.178872,58.058431,-0.006866,0.038788,0.989517,-0.013218,-0.026729,0.020094,62.303665,21.781097,-147.790268,,,
729607195.994617,2.398636,-0.185335,58.064017,-0.006866,0.038788,0.989517,-0.013218,-0.026729,0.020094,62.303665,21.781097,-147.790268,,,
729607195.997944,2.398263,-0.193304,58.069335,-0.003052,0.041946,0.996384,0.001629,-0.025561,0.018791,62.440353,21.83905,-147.70076,,,
729607196.001278,2.398263,-0.193304,58.069335,-0.003052,0.041946,0.996384,0.001629,-0.025561,0.018791,62.440353,21.83905,-147.70076,,,
729607196.00462,2.400398,-0.193511,58.075202,-0.003052,0.041946,0.996384,0.001629,-0.025561,0.018791,62.440353,21.83905,-147.70076,,,
729607196.007937,2.402162,-0.197576,58.081422,0.002594,0.041168,0.996109,0.010629,-0.011388,0.019471,62.440353,21.83905,-147.70076,,,
729607196.011337,2.402162,-0.197576,58.081422,0.002594,0.041168,0.996109,0.010629,-0.011388,0.019471,62.440353,21.83905,-147.70076,,,
729607196.014593,2.40431,-0.191643,58.086774,0.002594,0.041168,0.996109,0.010629,-0.011388,0.019471,62.440353,21.83905,-147.70076,,,
729607196.017959,2.404715,-0.191353,58.091924,0.010864,0.04274,0.988525,0.002406,0.002165,0.016246,62.440353,21.83905,-147.70076,,,
729607196.021269,2.404715,-0.191353,58.091924,0.010864,0.04274,0.988525,0.002406,0.002165,0.016246,62.440353,21.83905,-147.70076,,,
729607196.024673,2.403177,-0.182743,58.095635,0.010864,0.04274,0.988525,0.002406,0.002165,0.016246,62.440353,21.83905,-147.70076,,,
729607196.02793,2.400308,-0.180525,58.09815,0.019257,0.045288,0.981781,-0.011804,0.008634,0.007901,62.440353,21.83905,-147.70076,,,
729607196.031265,2.400308,-0.180525,58.09815,0.019257,0.045288,0.981781,-0.011804,0.008634,0.007901,62.440353,21.83905,-147.70076,,,
729607196.034595,2.396011,-0.170793,58.098929,0.019257,0.045288,0.981781,-0.011804,0.008634,0.007901,62.440353,21.83905,-147.70076,,,
729607196.037942,2.391579,-0.170625,58.098676,0.016922,0.043045,0.982071,-0.014752,0.002224,-0.0023,62.440353,21.83905,-147.70076,,,
729607196.041139,2.391579,-0.170625,58.098676,0.016922,0.043045,0.982071,-0.014752,0.002224,-0.0023,62.399399,21.648651,-148.180298,,,
729607196.044641,2.387978,-0.162529,58.097057,0.016922,0.043045,0.982071,-0.014752,0.002224,-0.0023,62.399399,21.648651,-148.180298,,,
729607196.047935,2.38579,-0.163166,58.095125,0.009003,0.0392,0.989395,-0.006345,-0.001508,-0.007244,62.399399,21.648651,-148.180298,,,
729607196.051273,2.38579,-0.163166,58.095125,0.009003,0.0392,0.989395,-0.006345,-0.001508,-0.007244,62.399399,21.648651,-148.180298,,,
729607196.054623,2.385463,-0.155984,58.092392,0.009003,0.0392,0.989395,-0.006345,-0.001508,-0.007244,62.399399,21.648651,-148.180298,,,
729607196.057938,2.385961,-0.154983,58.090395,0.01059,0.039124,0.994415,0.002027,0.006214,-0.009038,62.399399,21.648651,-148.180298,,,
729607196.061331,2.385961,-0.154983,58.090395,0.01059,0.039124,0.994415,0.002027,0.006214,-0.009038,62.399399,21.648651,-148.180298,,,
729607196.064592,2.386217,-0.146518,58.089197,0.01059,0.039124,0.994415,0.002027,0.006214,-0.009038,62.399399,21.648651,-148.180298,,,
729607196.067942,2.38604,-0.140082,58.088696,0.010986,0.035812,0.992722,-0.001306,0.025421,-0.004249,62.399399,21.648651,-148.180298,,,
729607196.071281,2.38604,-0.140082,58.088696,0.010986,0.035812,0.992722,-0.001306,0.025421,-0.004249,62.399399,21.648651,-148.180298,,,
729607196.074595,2.38447,-0.126477,58.087826,0.010986,0.035812,0.992722,-0.001306,0.025421,-0.004249,62.399399,21.648651,-148.180298,,,
729607196.07793,2.382605,-0.115578,58.086609,0.013336,0.038727,0.989853,-0.006689,0.04274,-0.004403,62.399399,21.648651,-148.180298,,,
729607196.081281,2.382605,-0.115578,58.086609,0.013336,0.038727,0.989853,-0.006689,0.04274,-0.004403,62.341934,21.678879,-147.748413,,,
729607196.084656,2.380168,-0.103112,58.0842,0.013336,0.038727,0.989853,-0.006689,0.04274,-0.004403,62.341934,21.678879,-147.748413,,,
729607196.087923,2.376687,-0.092618,58.079987,0.016129,0.045624,0.980881,-0.010297,0.03671,-0.015185,62.341934,21.678879,-147.748413,,,
729607196.091118,2.376687,-0.092618,58.079987,0.016129,0.045624,0.980881,-0.010297,0.03671,-0.015185,62.341934,21.678879,-147.748413,,,
729607196.094636,2.37323,-0.084135,58.074261,0.016129,0.045624,0.980881,-0.010297,0.03671,-0.015185,62.341934,21.678879,-147.748413,,,
729607196.097955,2.369765,-0.074312,58.067691,0.007568,0.0439,0.985397,-0.012744,0.03712,-0.023543,62.341934,21.678879,-147.748413,,,
729607196.101269,2.369765,-0.074312,58.067691,0.007568,0.0439,0.985397,-0.012744,0.03712,-0.023543,62.341934,21.678879,-147.748413,,,
729607196.104615,2.366995,-0.071899,58.061764,0.007568,0.0439,0.985397,-0.012744,0.03712,-0.023543,62.341934,21.678879,-147.748413,,,
729607196.108032,2.363684,-0.066148,58.057063,-0.003052,0.037674,0.984482,-0.012107,0.021898,-0.018433,62.341934,21.678879,-147.748413,,,
729607196.111319,2.363684,-0.066148,58.057063,-0.003052,0.037674,0.984482,-0.012107,0.021898,-0.018433,62.341934,21.678879,-147.748413,,,
729607196.114591,2.361448,-0.069094,58.054681,-0.003052,0.037674,0.984482,-0.012107,0.021898,-0.018433,62.341934,21.678879,-147.748413,,,
729607196.117939,2.357803,-0.064765,58.054149,-0.011108,0.033691,0.989395,-0.011402,0.016801,-0.002413,62.341934,21.678879,-147.748413,,,
729607196.121267,2.357803,-0.064765,58.054149,-0.011108,0.033691,0.989395,-0.011402,0.016801,-0.002413,62.546219,21.608459,-147.87674,,,
729607196.124716,2.353008,-0.065692,58.05415,-0.011108,0.033691,0.989395,-0.011402,0.016801,-0.002413,62.546219,21.608459,-147.87674,,,
729607196.127948,2.346903,-0.060796,58.053167,-0.002869,0.041901,0.997482,-0.021563,0.019625,-0.004757,62.546219,21.608459,-147.87674,,,
729607196.131287,2.346903,-0.060796,58.053167,-0.002869,0.041901,0.997482,-0.021563,0.019625,-0.004757,62.546219,21.608459,-147.87674,,,
729607196.134601,2.339322,-0.058935,58.05129,-0.002869,0.041901,0.997482,-0.021563,0.019625,-0.004757,62.546219,21.608459,-147.87674,,,
729607196.137931,2.331027,-0.052395,58.04789,0.002945,0.043839,0.996384,-0.028383,0.024824,-0.012762,62.546219,21.608459,-147.87674,,,
729607196.141265,2.331027,-0.052395,58.04789,0.002945,0.043839,0.996384,-0.028383,0.024824,-0.012762,62.546219,21.608459,-147.87674,,,
729607196.1446,2.321578,-0.049943,58.043918,0.002945,0.043839,0.996384,-0.028383,0.024824,-0.012762,62.546219,21.608459,-147.87674,,,
729607196.14793,2.311962,-0.043143,58.040076,-0.001358,0.035156,1.005875,-0.030115,0.024345,-0.016016,62.546219,21.608459,-147.87674,,,
729607196.151331,2.311962,-0.043143,58.040076,-0.001358,0.035156,1.005875,-0.030115,0.024345,-0.016016,62.546219,21.608459,-147.87674,,,
729607196.154601,2.301938,-0.041939,58.037522,-0.001358,0.035156,1.005875,-0.030115,0.024345,-0.016016,62.546219,21.608459,-147.87674,,,
729607196.157941,2.293693,-0.037164,58.035683,-0.006348,0.032242,1.009384,-0.026236,0.018288,-0.008067,62.546219,21.608459,-147.87674,,,
729607196.161262,2.293693,-0.037164,58.035683,-0.006348,0.032242,1.009384,-0.026236,0.018288,-0.008067,62.761475,21.984741,-147.901871,,,
729607196.164702,2.286274,-0.040535,58.034626,-0.006348,0.032242,1.009384,-0.026236,0.018288,-0.008067,62.761475,21.984741,-147.901871,,,
729607196.167932,2.279869,-0.039407,58.033811,-0.00972,0.029236,1.012039,-0.021524,0.007112,-0.003223,62.761475,21.984741,-147.901871,,,
729607196.171283,2.279869,-0.039407,58.033811,-0.00972,0.029236,1.012039,-0.021524,0.007112,-0.003223,62.761475,21.984741,-147.901871,,,
729607196.174599,2.276443,-0.046121,58.033409,-0.00972,0.029236,1.012039,-0.021524,0.007112,-0.003223,62.761475,21.984741,-147.901871,,,
729607196.17794,2.273734,-0.04697,58.032856,-0.004578,0.029175,1.01532,-0.010025,-0.000795,-0.002997,62.761475,21.984741,-147.901871,,,
729607196.18126,2.273734,-0.04697,58.032856,-0.004578,0.029175,1.01532,-0.010025,-0.000795,-0.002997,62.761475,21.984741,-147.901871,,,
729607196.18461,2.273696,-0.049648,58.032831,-0.004578,0.029175,1.01532,-0.010025,-0.000795,-0.002997,62.761475,21.984741,-147.901871,,,
729607196.187937,2.274208,-0.050684,58.032731,-0.002136,0.031616,1.019882,0.001722,-0.000766,-0.001833,62.761475,21.984741,-147.901871,,,
729607196.191338,2.274208,-0.050684,58.032731,-0.002136,0.031616,1.019882,0.001722,-0.000766,-0.001833,62.761475,21.984741,-147.901871,,,
729607196.194614,2.274977,-0.047179,58.03223,-0.002136,0.031616,1.019882,0.001722,-0.000766,-0.001833,62.761475,21.984741,-147.901871,,,
729607196.197932,2.277261,-0.046202,58.031408,0.000153,0.031128,1.018784,0.008965,0.005367,-0.005679,62.761475,21.984741,-147.901871,,,
729607196.201307,2.277261,-0.046202,58.031408,0.000153,0.031128,1.018784,0.008965,0.005367,-0.005679,62.761475,21.984741,-147.901871,,,
729607196.204587,2.279191,-0.038886,58.029669,0.000153,0.031128,1.018784,0.008965,0.005367,-0.005679,62.478973,21.937531,-147.784256,,,
729607196.20794,2.282678,-0.035978,58.028185,0.00325,0.031601,1.015594,0.011422,0.013738,-0.003418,62.478973,21.937531,-147.784256,,,
729607196.211265,2.282678,-0.035978,58.028185,0.00325,0.031601,1.015594,0.011422,0.013738,-0.003418,62.478973,21.937531,-147.784256,,,
729607196.214613,2.288027,-0.03353,58.02747,0.00325,0.031601,1.015594,0.011422,0.013738,-0.003418,62.478973,21.937531,-147.784256,,,
729607196.217932,2.293131,-0.03091,58.027759,-0.001175,0.032715,1.013,0.01877,0.012424,-0.00045,62.478973,21.937531,-147.784256,,,
729607196.221284,2.293131,-0.03091,58.027759,-0.001175,0.032715,1.013,0.01877,0.012424,-0.00045,62.478973,21.937531,-147.784256,,,
729607196.224625,2.298892,-0.028743,58.029163,-0.001175,0.032715,1.013,0.01877,0.012424,-0.00045,62.478973,21.937531,-147.784256,,,
729607196.227922,2.305014,-0.025552,58.030848,-0.004517,0.031586,1.01091,0.02256,0.011489,0.003953,62.478973,21.937531,-147.784256,,,
729607196.231328,2.305014,-0.025552,58.030848,-0.004517,0.031586,1.01091,0.02256,0.011489,0.003953,62.478973,21.937531,-147.784256,,,
729607196.234607,2.309883,-0.021264,58.032504,-0.004517,0.031586,1.01091,0.02256,0.011489,0.003953,62.478973,21.937531,-147.784256,,,
729607196.237929,2.316033,-0.018469,58.033797,-0.000275,0.033875,1.00415,0.021346,0.01133,0.003184,62.478973,21.937531,-147.784256,,,
729607196.241262,2.316033,-0.018469,58.033797,-0.000275,0.033875,1.00415,0.021346,0.01133,0.003184,62.478973,21.937531,-147.784256,,,
729607196.244597,2.319479,-0.011226,58.033582,-0.000275,0.033875,1.00415,0.021346,0.01133,0.003184,62.63855,21.613968,-148.074677,,,
729607196.247929,2.325325,-0.008957,58.032629,0.004074,0.038101,0.999588,0.021687,0.010595,-0.004153,62.63855,21.613968,-148.074677,,,
729607196.251282,2.325325,-0.008957,58.032629,0.004074,0.038101,0.999588,0.021687,0.010595,-0.004153,62.63855,21.613968,-148.074677,,,
729607196.254652,2.32818,-0.003342,58.031433,0.004074,0.038101,0.999588,0.021687,0.010595,-0.004153,62.63855,21.613968,-148.074677,,,
729607196.257923,2.333684,-0.00066,58.030623,0.002335,0.037918,0.99733,0.019613,0.012098,-0.004626,62.63855,21.613968,-148.074677,,,
729607196.261284,2.333684,-0.00066,58.030623,0.002335,0.037918,0.99733,0.019613,0.012098,-0.004626,62.63855,21.613968,-148.074677,,,
729607196.26461,2.33611,0.002807,58.030367,0.002335,0.037918,0.99733,0.019613,0.012098,-0.004626,62.63855,21.613968,-148.074677,,,
729607196.267935,2.339596,0.004212,58.030133,0.00206,0.036789,0.988968,0.01304,0.00885,-0.002182,62.63855,21.613968,-148.074677,,,
729607196.271277,2.339596,0.004212,58.030133,0.00206,0.036789,0.988968,0.01304,0.00885,-0.002182,62.63855,21.613968,-148.074677,,,
729607196.274593,2.339971,0.0055,58.02943,0.00206,0.036789,0.988968,0.01304,0.00885,-0.002182,62.63855,21.613968,-148.074677,,,
729607196.277924,2.341725,0.005355,58.027826,0.006729,0.041931,0.983414,0.005352,-0.000409,-0.007152,62.63855,21.613968,-148.074677,,,
729607196.281333,2.341725,0.005355,58.027826,0.006729,0.041931,0.983414,0.005352,-0.000409,-0.007152,62.63855,21.613968,-148.074677,,,
729607196.28459,2.339726,0.003519,58.024931,0.006729,0.041931,0.983414,0.005352,-0.000409,-0.007152,62.57695,21.788696,-147.518738,,,
729607196.287925,2.338702,0.002431,58.021367,0.008499,0.04747,0.985123,-0.004416,-0.004503,-0.01255,62.57695,21.788696,-147.518738,,,
729607196.291277,2.338702,0.002431,58.021367,0.008499,0.04747,0.985123,-0.004416,-0.004503,-0.01255,62.57695,21.788696,-147.518738,,,
729607196.294652,2.33389,0.000517,58.017657,0.008499,0.04747,0.985123,-0.004416,-0.004503,-0.01255,62.57695,21.788696,-147.518738,,,
729607196.297921,2.330104,-0.000817,58.013951,0.004486,0.045425,0.985687,-0.010452,-0.00398,-0.012135,62.57695,21.788696,-147.518738,,,
729607196.301271,2.330104,-0.000817,58.013951,0.004486,0.045425,0.985687,-0.010452,-0.00398,-0.012135,62.57695,21.788696,-147.518738,,,
729607196.304602,2.323869,-0.000609,58.010524,0.004486,0.045425,0.985687,-0.010452,-0.00398,-0.012135,62.57695,21.788696,-147.518738,,,
729607196.307922,2.319676,-0.001929,58.007835,0.001053,0.041061,0.986435,-0.015607,-0.004003,-0.011773,62.57695,21.788696,-147.518738,,,
729607196.311266,2.319676,-0.001929,58.007835,0.001053,0.041061,0.986435,-0.015607,-0.004003,-0.011773,62.57695,21.788696,-147.518738,,,
729607196.314617,2.313724,-0.001276,58.005545,0.001053,0.041061,0.986435,-0.015607,-0.004003,-0.011773,62.57695,21.788696,-147.518738,,,
729607196.317932,2.310013,-0.001086,58.003462,0.004044,0.041412,0.992142,-0.012059,0.005767,-0.008948,62.57695,21.788696,-147.518738,,,
729607196.321364,2.310013,-0.001086,58.003462,0.004044,0.041412,0.992142,-0.012059,0.005767,-0.008948,62.57695,21.788696,-147.518738,,,
729607196.324585,2.305137,-0.001334,58.001423,0.004044,0.041412,0.992142,-0.012059,0.005767,-0.008948,62.579865,21.86467,-147.891937,,,
729607196.327943,2.301537,-5.4e-05,57.99941,0.004868,0.044617,0.989655,-0.010452,0.009576,-0.009722,62.579865,21.86467,-147.891937,,,
729607196.331293,2.301537,-5.4e-05,57.99941,0.004868,0.044617,0.989655,-0.010452,0.009576,-0.009722,62.579865,21.86467,-147.891937,,,
729607196.334608,2.297899,0.000526,57.997288,0.004868,0.044617,0.989655,-0.010452,0.009576,-0.009722,62.579865,21.86467,-147.891937,,,
729607196.337981,2.295038,0.003115,57.995021,-0.000259,0.045578,0.990707,-0.009025,0.01227,-0.009274,62.579865,21.86467,-147.891937,,,
729607196.341259,2.295038,0.003115,57.995021,-0.000259,0.045578,0.990707,-0.009025,0.01227,-0.009274,62.579865,21.86467,-147.891937,,,
729607196.344649,2.291768,0.004778,57.992475,-0.000259,0.045578,0.990707,-0.009025,0.01227,-0.009274,62.579865,21.86467,-147.891937,,,
729607196.347923,2.289112,0.007209,57.989616,-0.001465,0.046326,0.989624,-0.009776,0.011579,-0.010926,62.579865,21.86467,-147.891937,,,
729607196.351279,2.289112,0.007209,57.989616,-0.001465,0.046326,0.989624,-0.009776,0.011579,-0.010926,62.579865,21.86467,-147.891937,,,
729607196.354608,2.285555,0.008821,57.986609,-0.001465,0.046326,0.989624,-0.009776,0.011579,-0.010926,62.579865,21.86467,-147.891937,,,
729607196.358019,2.28179,0.013058,57.983596,-0.007629,0.046204,0.99054,-0.011434,0.017452,-0.011378,62.579865,21.86467,-147.891937,,,
729607196.361266,2.28179,0.013058,57.983596,-0.007629,0.046204,0.99054,-0.011434,0.017452,-0.011378,62.579865,21.86467,-147.891937,,,
729607196.364607,2.278426,0.014485,57.981758,-0.007629,0.046204,0.99054,-0.011434,0.017452,-0.011378,62.579865,21.86467,-147.891937,,,
729607196.368005,2.274011,0.020508,57.980779,-0.014938,0.044525,0.992477,-0.014002,0.021291,-0.003049,62.536118,21.879272,-147.769638,,,
729607196.371316,2.274011,0.020508,57.980779,-0.014938,0.044525,0.992477,-0.014002,0.021291,-0.003049,62.536118,21.879272,-147.769638,,,
729607196.374638,2.271512,0.022959,57.980691,-0.014938,0.044525,0.992477,-0.014002,0.021291,-0.003049,62.536118,21.879272,-147.769638,,,
729607196.377942,2.266847,0.02866,57.98085,-0.016296,0.042145,0.993301,-0.0151,0.02293,2.1e-05,62.536118,21.879272,-147.769638,,,
729607196.381279,2.266847,0.02866,57.98085,-0.016296,0.042145,0.993301,-0.0151,0.02293,2.1e-05,62.536118,21.879272,-147.769638,,,
729607196.384672,2.262829,0.031527,57.981408,-0.016296,0.042145,0.993301,-0.0151,0.02293,2.1e-05,62.536118,21.879272,-147.769638,,,
729607196.387934,2.2574,0.034087,57.982122,-0.013153,0.044708,0.991638,-0.019701,0.0123,0.002445,62.536118,21.879272,-147.769638,,,
729607196.391301,2.2574,0.034087,57.982122,-0.013153,0.044708,0.991638,-0.019701,0.0123,0.002445,62.536118,21.879272,-147.769638,,,
729607196.394617,2.252084,0.033206,57.982822,-0.013153,0.044708,0.991638,-0.019701,0.0123,0.002445,62.536118,21.879272,-147.769638,,,
729607196.397919,2.246631,0.031752,57.983196,-0.013153,0.044708,0.991638,-0.018394,-0.002357,0.001644,62.536118,21.879272,-147.769638,,,
729607196.401277,2.246631,0.031752,57.983196,-0.014633,0.043472,0.991653,-0.018394,-0.002357,0.001644,62.536118,21.879272,-147.769638,,,
729607196.404613,2.242858,0.027032,57.983329,-0.014633,0.043472,0.991653,-0.018394,-0.002357,0.001644,62.536118,21.879272,-147.769638,,,
729607196.407918,2.238991,0.024504,57.982986,-0.014633,0.043472,0.991653,-0.01426,-0.00623,-0.002585,62.532181,21.884201,-148.082428,,,
729607196.411259,2.238991,0.024504,57.982986,-0.012161,0.039139,1.000687,-0.01426,-0.00623,-0.002585,62.532181,21.884201,-148.082428,,,
729607196.414601,2.238947,0.020481,57.982296,-0.012161,0.039139,1.000687,-0.01426,-0.00623,-0.002585,62.532181,21.884201,-148.082428,,,
729607196.417966,2.240425,0.018141,57.981574,-0.005661,0.038956,1.011566,0.006012,-0.005452,-0.002534,62.532181,21.884201,-148.082428,,,
729607196.421362,2.240425,0.018141,57.981574,-0.005661,0.038956,1.011566,0.006012,-0.005452,-0.002534,62.532181,21.884201,-148.082428,,,
729607196.424604,2.246868,0.016783,57.981245,-0.005661,0.038956,1.011566,0.006012,-0.005452,-0.002534,62.532181,21.884201,-148.082428,,,
729607196.427975,2.255283,0.016391,57.981531,0.000305,0.034073,1.017365,0.02691,0.00266,0.000709,62.532181,21.884201,-148.082428,,,
729607196.431288,2.255283,0.016391,57.981531,0.000305,0.034073,1.017365,0.02691,0.00266,0.000709,62.532181,21.884201,-148.082428,,,
729607196.434664,2.268364,0.019922,57.982158,0.000305,0.034073,1.017365,0.02691,0.00266,0.000709,62.532181,21.884201,-148.082428,,,
729607196.437982,2.268364,0.025107,57.982361,0.000305,0.034073,1.017365,0.048142,0.023555,-0.003002,62.532181,21.884201,-148.082428,,,
729607196.441262,2.282014,0.025107,57.982361,0.003876,0.03447,1.025986,0.048142,0.023555,-0.003002,62.532181,21.884201,-148.082428,,,
729607196.444615,2.299451,0.037906,57.981175,0.003876,0.03447,1.025986,0.048142,0.023555,-0.003002,62.532181,21.884201,-148.082428,,,
729607196.447975,2.31801,0.048735,57.979461,0.003876,0.03447,1.025986,0.066873,0.041741,-0.009635,62.747757,21.765182,-147.637543,,,
729607196.451281,2.31801,0.048735,57.979461,0.006805,0.040054,1.023407,0.066873,0.041741,-0.009635,62.747757,21.765182,-147.637543,,,
729607196.454626,2.339166,0.069377,57.976902,0.006805,0.040054,1.023407,0.066873,0.041741,-0.009635,62.747757,21.765182,-147.637543,,,
729607196.457932,2.339166,0.069377,57.976902,0.006805,0.041946,1.016708,0.076452,0.055926,-0.014716,62.747757,21.765182,-147.637543,,,
729607196.461257,2.360635,0.084928,57.973936,0.002548,0.041946,1.016708,0.076452,0.055926,-0.014716,62.747757,21.765182,-147.637543,,,
729607196.46459,2.382729,0.107468,57.970894,0.002548,0.041946,1.016708,0.076452,0.055926,-0.014716,62.747757,21.765182,-147.637543,,,
729607196.467927,2.382729,0.107468,57.970894,0.002548,0.041946,1.016708,0.076452,0.055926,-0.014716,62.747757,21.765182,-147.637543,,,
729607196.471322,2.403631,0.123294,57.96894,-0.006134,0.040131,1.004486,0.072473,0.059036,-0.009235,62.747757,21.765182,-147.637543,,,
729607196.474616,2.423818,0.142048,57.967991,-0.006134,0.040131,1.004486,0.072473,0.059036,-0.009235,62.747757,21.765182,-147.637543,,,
729607196.477952,2.423818,0.142048,57.967991,-0.006134,0.040131,1.004486,0.060336,0.037127,-0.001263,62.747757,21.765182,-147.637543,,,
729607196.481275,2.441232,0.151782,57.968306,-0.012558,0.041367,0.989639,0.060336,0.037127,-0.001263,62.747757,21.765182,-147.637543,,,
729607196.484693,2.456097,0.161768,57.968069,-0.012558,0.041367,0.989639,0.060336,0.037127,-0.001263,62.747757,21.765182,-147.637543,,,
729607196.488021,2.470142,0.16213,57.967348,-0.012177,0.044662,0.985703,0.047373,0.002226,-0.001748,62.707779,21.455566,-147.632294,,,
729607196.491287,2.470142,0.16213,57.967348,-0.012177,0.044662,0.985703,0.047373,0.002226,-0.001748,62.707779,21.455566,-147.632294,,,
729607196.494603,2.483052,0.163032,57.965501,-0.012177,0.044662,0.985703,0.047373,0.002226,-0.001748,62.707779,21.455566,-147.632294,,,
729607196.497954,2.483052,0.163032,57.965501,-0.012177,0.044662,0.985703,0.050997,-0.016762,-0.01485,62.707779,21.455566,-147.632294,,,
729607196.501259,2.498006,0.157681,57.962289,-0.00563,0.044525,0.995438,0.050997,-0.016762,-0.01485,62.707779,21.455566,-147.632294,,,
729607196.5046,2.512423,0.150497,57.958211,-0.00563,0.044525,0.995438,0.050997,-0.016762,-0.01485,62.707779,21.455566,-147.632294,,,
729607196.507927,2.512423,0.150497,57.958211,-0.00563,0.044525,0.995438,0.050997,-0.016762,-0.01485,62.707779,21.455566,-147.632294,,,
729607196.511317,2.529457,0.143075,57.953823,6.1e-05,0.042816,1.001984,0.060334,-0.024181,-0.01905,62.707779,21.455566,-147.632294,,,
729607196.514588,2.544743,0.136104,57.949987,6.1e-05,0.042816,1.001984,0.060334,-0.024181,-0.01905,62.707779,21.455566,-147.632294,,,
729607196.517963,2.544743,0.136104,57.949987,6.1e-05,0.042816,1.001984,0.060334,-0.024181,-0.01905,62.707779,21.455566,-147.632294,,,
729607196.521271,2.562424,0.134709,57.947376,0.000778,0.040848,1.005539,0.059488,-0.002623,-0.009798,62.707779,21.455566,-147.632294,,,
729607196.524655,2.576437,0.133521,57.94686,0.000778,0.040848,1.005539,0.059488,-0.002623,-0.009798,62.707779,21.455566,-147.632294,,,
729607196.527998,2.576437,0.133521,57.94686,0.000778,0.040848,1.005539,0.059488,-0.002623,-0.009798,62.707779,21.455566,-147.632294,,,
729607196.531268,2.590493,0.13826,57.948162,0.00058,0.038239,1.000168,0.049066,0.020673,0.006815,62.71228,21.505127,-147.568314,,,
729607196.534604,2.60133,0.140396,57.95109,0.00058,0.038239,1.000168,0.049066,0.020673,0.006815,62.71228,21.505127,-147.568314,,,
729607196.538038,2.60133,0.140396,57.95109,0.00058,0.038239,1.000168,0.049066,0.020673,0.006815,62.71228,21.505127,-147.568314,,,
729607196.541251,2.611135,0.146541,57.954722,0.001328,0.038116,0.990433,0.035456,0.026719,0.012766,62.71228,21.505127,-147.568314,,,
729607196.544629,2.617944,0.150911,57.957991,0.001328,0.038116,0.990433,0.035456,0.026719,0.012766,62.71228,21.505127,-147.568314,,,
729607196.547932,2.617944,0.150911,57.957991,0.001328,0.038116,0.990433,0.035456,0.026719,0.012766,62.71228,21.505127,-147.568314,,,
729607196.551344,2.623392,0.154531,57.959614,0.004211,0.044449,0.984512,0.019851,0.013519,0.004809,62.71228,21.505127,-147.568314,,,
729607196.554599,2.625223,0.15893,57.959084,0.004211,0.044449,0.984512,0.019851,0.013519,0.004809,62.71228,21.505127,-147.568314,,,
729607196.557932,2.625223,0.15893,57.959084,0.004211,0.044449,0.984512,0.019851,0.013519,0.004809,62.71228,21.505127,-147.568314,,,
729607196.561273,2.626528,0.159417,57.957061,0.006622,0.048553,0.983063,0.002388,0.003841,-0.005044,62.71228,21.505127,-147.568314,,,
729607196.56466,2.62616,0.163214,57.954249,0.006622,0.048553,0.983063,0.002388,0.003841,-0.005044,62.71228,21.505127,-147.568314,,,
729607196.567975,2.62616,0.163214,57.954249,0.006622,0.048553,0.983063,0.002388,0.003841,-0.005044,62.71228,21.505127,-147.568314,,,
729607196.571278,2.625191,0.159405,57.952414,0.000427,0.044083,0.986389,-0.002027,-0.008801,-0.007355,62.44278,21.77623,-147.741104,,,
729607196.574594,2.623343,0.158406,57.951879,0.000427,0.044083,0.986389,-0.002027,-0.008801,-0.007355,62.44278,21.77623,-147.741104,,,
729607196.578009,2.623343,0.158406,57.951879,0.000427,0.044083,0.986389,-0.002027,-0.008801,-0.007355,62.44278,21.77623,-147.741104,,,
729607196.58127,2.621185,0.154576,57.953196,-0.005463,0.03801,0.988831,-0.007588,-0.010608,0.004403,62.44278,21.77623,-147.741104,,,
729607196.5846,2.618193,0.152345,57.955806,-0.005463,0.03801,0.988831,-0.007588,-0.010608,0.004403,62.44278,21.77623,-147.741104,,,
729607196.587962,2.618193,0.152345,57.955806,-0.005463,0.03801,0.988831,-0.007588,-0.010608,0.004403,62.44278,21.77623,-147.741104,,,
729607196.591339,2.61518,0.151633,57.958738,0.000244,0.041046,0.993607,-0.010215,0.001738,0.008273,62.44278,21.77623,-147.741104,,,
729607196.594605,2.610798,0.152017,57.961181,0.000244,0.041046,0.993607,-0.010215,0.001738,0.008273,62.44278,21.77623,-147.741104,,,
729607196.597969,2.610798,0.152017,57.961181,0.000244,0.041046,0.993607,-0.010215,0.001738,0.008273,62.44278,21.77623,-147.741104,,,
729607196.601268,2.606206,0.157444,57.962208,0.0065,0.043564,0.995407,-0.013682,0.020908,0.000912,62.44278,21.77623,-147.741104,,,
729607196.604658,2.59983,0.163852,57.962034,0.0065,0.043564,0.995407,-0.013682,0.020908,0.000912,62.44278,21.77623,-147.741104,,,
729607196.607913,2.59983,0.163852,57.962034,0.0065,0.043564,0.995407,-0.013682,0.020908,0.000912,62.44278,21.77623,-147.741104,,,
729607196.611263,2.594071,0.172703,57.960785,0.003647,0.041656,0.993027,-0.020628,0.03532,-0.004629,62.325333,21.802246,-147.301514,,,
729607196.614607,2.585627,0.179478,57.958833,0.003647,0.041656,0.993027,-0.020628,0.03532,-0.004629,62.325333,21.802246,-147.301514,,,
729607196.61802,2.585627,0.179478,57.958833,0.003647,0.041656,0.993027,-0.020628,0.03532,-0.004629,62.325333,21.802246,-147.301514,,,
729607196.621264,2.578297,0.18576,57.956047,-0.002258,0.039536,0.987778,-0.022783,0.026346,-0.010265,62.325333,21.802246,-147.301514,,,
729607196.624613,2.569833,0.18634,57.952456,-0.002258,0.039536,0.987778,-0.022783,0.026346,-0.010265,62.325333,21.802246,-147.301514,,,
729607196.627934,2.569833,0.18634,57.952456,-0.002258,0.039536,0.987778,-0.022783,0.026346,-0.010265,62.325333,21.802246,-147.301514,,,
729607196.631335,2.562693,0.186012,57.948047,-0.001709,0.038437,0.98494,-0.022814,-0.000357,-0.016588,62.325333,21.802246,-147.301514,,,
729607196.634589,2.55705,0.179191,57.942985,-0.001709,0.038437,0.98494,-0.022814,-0.000357,-0.016588,62.325333,21.802246,-147.301514,,,
729607196.637925,2.55705,0.179191,57.942985,-0.001709,0.038437,0.98494,-0.022814,-0.000357,-0.016588,62.325333,21.802246,-147.301514,,,
729607196.641263,2.552135,0.17606,57.936939,-0.001938,0.037659,0.988693,-0.018797,-0.010402,-0.020396,62.325333,21.802246,-147.301514,,,
729607196.644684,2.548258,0.170123,57.930951,-0.001938,0.037659,0.988693,-0.018797,-0.010402,-0.020396,62.325333,21.802246,-147.301514,,,
729607196.647937,2.548258,0.170123,57.930951,-0.001938,0.037659,0.988693,-0.018797,-0.010402,-0.020396,62.325333,21.802246,-147.301514,,,
729607196.651289,2.544016,0.170417,57.925088,-0.004028,0.039597,0.996704,-0.010869,0.002944,-0.020517,62.422745,21.713974,-147.528305,,,
729607196.654614,2.540234,0.173471,57.919702,-0.004028,0.039597,0.996704,-0.010869,0.002944,-0.020517,62.422745,21.713974,-147.528305,,,
729607196.658001,2.540234,0.173471,57.919702,-0.004028,0.039597,0.996704,-0.010869,0.002944,-0.020517,62.422745,21.713974,-147.528305,,,
729607196.661282,2.538556,0.181777,57.91533,-0.001984,0.042145,0.997665,-0.00392,0.030538,-0.01778,62.422745,21.713974,-147.528305,,,
729607196.664612,2.537877,0.197071,57.912859,-0.001984,0.042145,0.997665,-0.00392,0.030538,-0.01778,62.422745,21.713974,-147.528305,,,
729607196.667936,2.537877,0.197071,57.912859,-0.001984,0.042145,0.997665,-0.00392,0.030538,-0.01778,62.422745,21.713974,-147.528305,,,
729607196.671339,2.539636,0.218013,57.912443,-0.005035,0.038834,1.002975,0.008062,0.078552,-0.000403,62.422745,21.713974,-147.528305,,,
729607196.674673,2.541009,0.239438,57.914536,-0.005035,0.038834,1.002975,0.008062,0.078552,-0.000403,62.422745,21.713974,-147.528305,,,
729607196.677934,2.541009,0.239438,57.914536,-0.005035,0.038834,1.002975,0.008062,0.078552,-0.000403,62.422745,21.713974,-147.528305,,,
729607196.681278,2.541161,0.265943,57.919309,-0.013672,0.038101,0.98671,0.001416,0.099111,0.014851,62.422745,21.713974,-147.528305,,,
729607196.684647,2.53822,0.2877,57.926658,-0.013672,0.038101,0.98671,0.001416,0.099111,0.014851,62.422745,21.713974,-147.528305,,,
729607196.687932,2.53822,0.2877,57.926658,-0.013672,0.038101,0.98671,0.001416,0.099111,0.014851,62.422745,21.713974,-147.528305,,,
729607196.691313,2.531711,0.311908,57.934861,-0.020782,0.042709,0.970734,-0.023597,0.091526,0.026831,62.422745,21.713974,-147.528305,,,
729607196.694607,2.520183,0.328355,57.942885,-0.020782,0.042709,0.970734,-0.023597,0.091526,0.026831,62.679855,21.584946,-147.421036,,,
729607196.69801,2.520183,0.328355,57.942885,-0.020782,0.042709,0.970734,-0.023597,0.091526,0.026831,62.679855,21.584946,-147.421036,,,
729607196.701272,2.505785,0.341315,57.949912,-0.022812,0.049088,0.958954,-0.051922,0.048942,0.022858,62.679855,21.584946,-147.421036,,,
729607196.704614,2.487954,0.345647,57.95496,-0.022812,0.049088,0.958954,-0.051922,0.048942,0.022858,62.679855,21.584946,-147.421036,,,
729607196.707924,2.487954,0.345647,57.95496,-0.022812,0.049088,0.958954,-0.051922,0.048942,0.022858,62.679855,21.584946,-147.421036,,,
729607196.711292,2.468679,0.343681,57.957538,-0.015091,0.049805,0.966782,-0.068616,-0.003492,0.004727,62.679855,21.584946,-147.421036,,,
729607196.714628,2.446958,0.333886,57.957541,-0.015091,0.049805,0.966782,-0.068616,-0.003492,0.004727,62.679855,21.584946,-147.421036,,,
729607196.717952,2.446958,0.333886,57.957541,-0.015091,0.049805,0.966782,-0.068616,-0.003492,0.004727,62.679855,21.584946,-147.421036,,,
729607196.721284,2.425806,0.321494,57.955319,-0.006165,0.046631,0.980591,-0.071839,-0.041313,-0.009632,62.679855,21.584946,-147.421036,,,
729607196.724667,2.404494,0.307245,57.952428,-0.006165,0.046631,0.980591,-0.071839,-0.041313,-0.009632,62.679855,21.584946,-147.421036,,,
729607196.727926,2.404494,0.307245,57.952428,-0.006165,0.046631,0.980591,-0.071839,-0.041313,-0.009632,62.679855,21.584946,-147.421036,,,
729607196.731269,2.384451,0.295534,57.949449,0.002487,0.042007,0.998657,-0.068716,-0.037881,-0.012415,62.679855,21.584946,-147.421036,,,
729607196.734607,2.364676,0.286811,57.947278,0.002487,0.042007,0.998657,-0.068716,-0.037881,-0.012415,62.787476,21.836746,-147.502731,,,
729607196.737996,2.364676,0.286811,57.947278,0.002487,0.042007,0.998657,-0.068716,-0.037881,-0.012415,62.787476,21.836746,-147.502731,,,
729607196.741258,2.346094,0.284942,57.946823,0.011795,0.037079,1.011246,-0.062483,-0.002738,-0.004122,62.787476,21.836746,-147.502731,,,
729607196.744619,2.329321,0.289022,57.948674,0.011795,0.037079,1.011246,-0.062483,-0.002738,-0.004122,62.787476,21.836746,-147.502731,,,
729607196.747932,2.329321,0.289022,57.948674,0.011795,0.037079,1.011246,-0.062483,-0.002738,-0.004122,62.787476,21.836746,-147.502731,,,
729607196.751335,2.314148,0.299895,57.952365,0.018906,0.035538,1.018875,-0.051859,0.037447,0.011367,62.787476,21.836746,-147.502731,,,
729607196.754609,2.300478,0.316057,57.957101,0.018906,0.035538,1.018875,-0.051859,0.037447,0.011367,62.787476,21.836746,-147.502731,,,
729607196.757941,2.300478,0.316057,57.957101,0.018906,0.035538,1.018875,-0.051859,0.037447,0.011367,62.787476,21.836746,-147.502731,,,
729607196.761268,2.289375,0.334437,57.962136,0.021988,0.037537,1.015671,-0.036685,0.069205,0.015763,62.787476,21.836746,-147.502731,,,
729607196.764592,2.280861,0.361661,57.965526,0.021988,0.037537,1.015671,-0.036685,0.069205,0.015763,62.787476,21.836746,-147.502731,,,
729607196.767948,2.280861,0.361661,57.965526,0.021988,0.037537,1.015671,-0.036685,0.069205,0.015763,62.787476,21.836746,-147.502731,,,
729607196.771277,2.27418,0.384475,57.966546,0.020447,0.045181,1.016998,-0.023371,0.08521,0.00256,62.787476,21.836746,-147.502731,,,
729607196.774602,2.269773,0.412449,57.964809,0.020447,0.045181,1.016998,-0.023371,0.08521,0.00256,62.85199,21.954224,-147.941498,,,
729607196.777919,2.269773,0.412449,57.964809,0.020447,0.045181,1.016998,-0.023371,0.08521,0.00256,62.85199,21.954224,-147.941498,,,
729607196.781291,2.264311,0.428747,57.961136,0.011871,0.044373,1.004303,-0.017925,0.05709,-0.014676,62.85199,21.954224,-147.941498,,,
729607196.784592,2.26196,0.447633,57.955604,0.011871,0.044373,1.004303,-0.017925,0.05709,-0.014676,62.85199,21.954224,-147.941498,,,
729607196.787945,2.26196,0.447633,57.955604,0.011871,0.044373,1.004303,-0.017925,0.05709,-0.014676,62.85199,21.954224,-147.941498,,,
729607196.79134,2.256383,0.455482,57.949428,-0.000595,0.039886,0.997696,-0.017415,0.029082,-0.024031,62.85199,21.954224,-147.941498,,,
729607196.794598,2.25194,0.461185,57.942167,-0.000595,0.039886,0.997696,-0.017415,0.029082,-0.024031,62.85199,21.954224,-147.941498,,,
729607196.797942,2.25194,0.461185,57.942167,-0.000595,0.039886,0.997696,-0.017415,0.029082,-0.024031,62.85199,21.954224,-147.941498,,,
729607196.801287,2.243805,0.462376,57.933872,-6.1e-05,0.040512,0.996063,-0.026325,0.005202,-0.028783,62.85199,21.954224,-147.941498,,,
729607196.804676,2.236337,0.459059,57.924689,-6.1e-05,0.040512,0.996063,-0.026325,0.005202,-0.028783,62.85199,21.954224,-147.941498,,,
729607196.807916,2.236337,0.459059,57.924689,-6.1e-05,0.040512,0.996063,-0.026325,0.005202,-0.028783,62.85199,21.954224,-147.941498,,,
729607196.81127,2.22617,0.457637,57.914449,-0.002426,0.040298,0.999298,-0.0346,-0.002979,-0.036528,62.85199,21.954224,-147.941498,,,
729607196.814614,2.21519,0.450568,57.904123,-0.002426,0.040298,0.999298,-0.0346,-0.002979,-0.036528,62.85199,21.954224,-147.941498,,,
729607196.81796,2.21519,0.450568,57.904123,-0.002426,0.040298,0.999298,-0.0346,-0.002979,-0.036528,62.774902,21.851456,-147.768723,,,
729607196.821285,2.204281,0.450405,57.894347,-0.005447,0.035217,1.009613,-0.038174,-0.000443,-0.036033,62.774902,21.851456,-147.768723,,,
729607196.824622,2.193479,0.44141,57.885728,-0.005447,0.035217,1.009613,-0.038174,-0.000443,-0.036033,62.774902,21.851456,-147.768723,,,
729607196.827947,2.193479,0.44141,57.885728,-0.005447,0.035217,1.009613,-0.038174,-0.000443,-0.036033,62.774902,21.851456,-147.768723,,,
729607196.831266,2.184362,0.445028,57.8773,-0.010406,0.032669,1.018204,-0.031455,0.013399,-0.029256,62.774902,21.851456,-147.768723,,,
729607196.834603,2.176752,0.438117,57.87045,-0.010406,0.032669,1.018204,-0.031455,0.013399,-0.029256,62.774902,21.851456,-147.768723,,,
729607196.83793,2.176752,0.438117,57.87045,-0.010406,0.032669,1.018204,-0.031455,0.013399,-0.029256,62.774902,21.851456,-147.768723,,,
729607196.841271,2.171706,0.444129,57.864256,-0.013153,0.030701,1.026443,-0.016381,0.023728,-0.023122,62.774902,21.851456,-147.768723,,,
729607196.844592,2.169234,0.43711,57.860085,-0.013153,0.030701,1.026443,-0.016381,0.023728,-0.023122,62.774902,21.851456,-147.768723,,,
729607196.847932,2.169234,0.43711,57.860085,-0.013153,0.030701,1.026443,-0.016381,0.023728,-0.023122,62.774902,21.851456,-147.768723,,,
729607196.851276,2.169596,0.443595,57.85767,-0.01947,0.027603,1.022568,4.1e-05,0.026381,-0.010809,62.774902,21.851456,-147.768723,,,
729607196.854663,2.174891,0.437574,57.857655,-0.01947,0.027603,1.022568,4.1e-05,0.026381,-0.010809,62.774902,21.851456,-147.768723,,,
729607196.857929,2.174891,0.437574,57.857655,-0.01947,0.027603,1.022568,4.1e-05,0.026381,-0.010809,62.72316,22.037613,-147.778442,,,
729607196.861277,2.181367,0.441325,57.857968,-0.022507,0.025864,1.027451,0.024885,0.01712,-0.0002,62.72316,22.037613,-147.778442,,,
729607196.864609,2.190752,0.436945,57.858276,-0.022507,0.025864,1.027451,0.024885,0.01712,-0.0002,62.72316,22.037613,-147.778442,,,
729607196.868005,2.190752,0.436945,57.858276,-0.022507,0.025864,1.027451,0.024885,0.01712,-0.0002,62.72316,22.037613,-147.778442,,,
729607196.871274,2.200345,0.438612,57.857585,-0.018188,0.027374,1.023712,0.034199,0.006849,-0.003257,62.72316,22.037613,-147.778442,,,
729607196.874594,2.211035,0.437455,57.856262,-0.018188,0.027374,1.023712,0.034199,0.006849,-0.003257,62.72316,22.037613,-147.778442,,,
729607196.877941,2.211035,0.437455,57.856262,-0.018188,0.027374,1.023712,0.034199,0.006849,-0.003257,62.72316,22.037613,-147.778442,,,
729607196.88132,2.2208,0.438296,57.853809,-0.01384,0.030975,1.016769,0.03343,0.004326,-0.010099,62.72316,22.037613,-147.778442,,,
729607196.884597,2.230067,0.437464,57.850344,-0.01384,0.030975,1.016769,0.03343,0.004326,-0.010099,62.72316,22.037613,-147.778442,,,
729607196.88793,2.230067,0.437464,57.850344,-0.01384,0.030975,1.016769,0.03343,0.004326,-0.010099,62.72316,22.037613,-147.778442,,,
729607196.891282,2.238665,0.439763,57.845909,-0.009796,0.03627,1.010864,0.031075,0.00956,-0.017626,62.72316,22.037613,-147.778442,,,
729607196.894673,2.246797,0.439906,57.840993,-0.009796,0.03627,1.010864,0.031075,0.00956,-0.017626,62.72316,22.037613,-147.778442,,,
729607196.897921,2.246797,0.439906,57.840993,-0.009796,0.03627,1.010864,0.031075,0.00956,-0.017626,62.966049,21.930176,-147.57785,,,
729607196.90132,2.25482,0.440639,57.836064,-0.006454,0.038803,1.006058,0.030635,0.007012,-0.018567,62.966049,21.930176,-147.57785,,,
729607196.904586,2.26172,0.441678,57.830799,-0.006454,0.038803,1.006058,0.030635,0.007012,-0.018567,62.966049,21.930176,-147.57785,,,
729607196.908003,2.26172,0.441678,57.830799,-0.006454,0.038803,1.006058,0.030635,0.007012,-0.018567,62.966049,21.930176,-147.57785,,,
729607196.911276,2.269112,0.442566,57.825266,-0.005219,0.03688,1.000534,0.024828,0.004123,-0.019396,62.966049,21.930176,-147.57785,,,
729607196.914612,2.274418,0.443957,57.820529,-0.005219,0.03688,1.000534,0.024828,0.004123,-0.019396,62.966049,21.930176,-147.57785,,,
729607196.917933,2.274418,0.443957,57.820529,-0.005219,0.03688,1.000534,0.024828,0.004123,-0.019396,62.966049,21.930176,-147.57785,,,
729607196.921317,2.281398,0.443001,57.817146,-0.004593,0.036987,0.995361,0.02359,-0.000221,-0.013739,62.966049,21.930176,-147.57785,,,
729607196.924599,2.286634,0.443682,57.814056,-0.004593,0.036987,0.995361,0.02359,-0.000221,-0.013739,62.966049,21.930176,-147.57785,,,
729607196.927936,2.286634,0.443682,57.814056,-0.004593,0.036987,0.995361,0.02359,-0.000221,-0.013739,62.966049,21.930176,-147.57785,,,
729607196.931266,2.294879,0.44005,57.810801,-0.002899,0.037994,0.990036,0.029477,-0.010076,-0.01132,62.966049,21.930176,-147.57785,,,
729607196.934686,2.300183,0.441646,57.807011,-0.002899,0.037994,0.990036,0.029477,-0.010076,-0.01132,62.966049,21.930176,-147.57785,,,
729607196.937922,2.300183,0.441646,57.807011,-0.002899,0.037994,0.990036,0.029477,-0.010076,-0.01132,62.946533,21.796387,-147.651871,,,
729607196.941297,2.307869,0.435847,57.802708,-0.000717,0.041946,0.985001,0.026032,-0.014956,-0.015663,62.946533,21.796387,-147.651871,,,
729607196.944602,2.310946,0.435435,57.797044,-0.000717,0.041946,0.985001,0.026032,-0.014956,-0.015663,62.946533,21.796387,-147.651871,,,
729607196.947986,2.310946,0.435435,57.797044,-0.000717,0.041946,0.985001,0.026032,-0.014956,-0.015663,62.946533,21.796387,-147.651871,,,
729607196.951271,2.316912,0.430467,57.790754,0.004364,0.04303,0.984497,0.021756,-0.016526,-0.02667,62.946533,21.796387,-147.651871,,,
729607196.954607,2.320558,0.432084,57.783723,0.004364,0.04303,0.984497,0.021756,-0.016526,-0.02667,62.946533,21.796387,-147.651871,,,
729607196.957922,2.320558,0.432084,57.783723,0.004364,0.04303,0.984497,0.021756,-0.016526,-0.02667,62.946533,21.796387,-147.651871,,,
729607196.961339,2.327638,0.432816,57.776629,0.001572,0.040741,0.993347,0.024177,0.002437,-0.029313,62.946533,21.796387,-147.651871,,,
729607196.964635,2.332616,0.438717,57.770044,0.001572,0.040741,0.993347,0.024177,0.002437,-0.029313,62.946533,21.796387,-147.651871,,,
729607196.967955,2.332616,0.438717,57.770044,0.001572,0.040741,0.993347,0.024177,0.002437,-0.029313,62.946533,21.796387,-147.651871,,,
729607196.971275,2.338943,0.446033,57.764799,-0.01033,0.037476,0.99762,0.024786,0.028455,-0.020869,62.946533,21.796387,-147.651871,,,
729607196.974588,2.344156,0.455632,57.761171,-0.01033,0.037476,0.99762,0.024786,0.028455,-0.020869,62.946533,21.796387,-147.651871,,,
729607196.97792,2.344156,0.455632,57.761171,-0.01033,0.037476,0.99762,0.024786,0.028455,-0.020869,62.946533,21.796387,-147.651871,,,
729607196.981287,2.349704,0.465584,57.758944,-0.021515,0.036041,0.993011,0.018065,0.037687,-0.008315,63.094742,21.7836,-147.730225,,,
729607196.984679,2.35427,0.473562,57.75759,-0.021515,0.036041,0.993011,0.018065,0.037687,-0.008315,63.094742,21.7836,-147.730225,,,
729607196.987929,2.35427,0.473562,57.75759,-0.021515,0.036041,0.993011,0.018065,0.037687,-0.008315,63.094742,21.7836,-147.730225,,,
729607196.991306,2.359091,0.480267,57.756549,-0.025406,0.037506,0.987366,0.018239,0.025436,-0.003405,63.094742,21.7836,-147.730225,,,
729607196.994605,2.363363,0.482168,57.755185,-0.025406,0.037506,0.987366,0.018239,0.025436,-0.003405,63.094742,21.7836,-147.730225,,,
729607196.99802,2.363363,0.482168,57.755185,-0.025406,0.037506,0.987366,0.018239,0.025436,-0.003405,63.094742,21.7836,-147.730225,,,
729607197.001267,2.368683,0.480921,57.753207,-0.022949,0.040802,0.984528,0.019455,-0.002573,-0.007196,63.094742,21.7836,-147.730225,,,
729607197.004607,2.372975,0.47391,57.750903,-0.022949,0.040802,0.984528,0.019455,-0.002573,-0.007196,63.094742,21.7836,-147.730225,,,
729607197.007924,2.372975,0.47391,57.750903,-0.022949,0.040802,0.984528,0.019455,-0.002573,-0.007196,63.094742,21.7836,-147.730225,,,
729607197.011298,2.377794,0.466029,57.74777,-0.017548,0.044891,0.978577,0.014623,-0.027141,-0.012235,63.094742,21.7836,-147.730225,,,
729607197.014618,2.380997,0.453592,57.743831,-0.017548,0.044891,0.978577,0.014623,-0.027141,-0.012235,63.094742,21.7836,-147.730225,,,
729607197.017933,2.380997,0.453592,57.743831,-0.017548,0.044891,0.978577,0.014623,-0.027141,-0.012235,63.094742,21.7836,-147.730225,,,
729607197.021257,2.383265,0.443506,57.739274,-0.011169,0.048904,0.979904,0.007098,-0.035091,-0.018944,63.157181,21.507217,-147.258774,,,
729607197.024681,2.384871,0.429987,57.734617,-0.011169,0.048904,0.979904,0.007098,-0.035091,-0.018944,63.157181,21.507217,-147.258774,,,
729607197.027943,2.384871,0.429987,57.734617,-0.011169,0.048904,0.979904,0.007098,-0.035091,-0.018944,63.157181,21.507217,-147.258774,,,
729607197.03127,2.38378,0.422996,57.729161,-0.002762,0.050339,0.981171,-0.005616,-0.023071,-0.019159,63.157181,21.507217,-147.258774,,,
729607197.034597,2.381145,0.414061,57.723607,-0.002762,0.050339,0.981171,-0.005616,-0.023071,-0.019159,63.157181,21.507217,-147.258774,,,
729607197.038,2.381145,0.414061,57.723607,-0.002762,0.050339,0.981171,-0.005616,-0.023071,-0.019159,63.157181,21.507217,-147.258774,,,
729607197.041259,2.377347,0.414273,57.717567,0.005325,0.050446,0.987747,-0.01025,0.004191,-0.021645,63.157181,21.507217,-147.258774,,,
729607197.044617,2.371984,0.416064,57.711565,0.005325,0.050446,0.987747,-0.01025,0.004191,-0.021645,63.157181,21.507217,-147.258774,,,
729607197.047919,2.371984,0.416064,57.711565,0.005325,0.050446,0.987747,-0.01025,0.004191,-0.021645,63.157181,21.507217,-147.258774,,,
729607197.051274,2.366779,0.423009,57.705933,0.005386,0.050858,0.994949,-0.017088,0.026208,-0.021571,63.157181,21.507217,-147.258774,,,
729607197.054597,2.361126,0.43482,57.700582,0.005386,0.050858,0.994949,-0.017088,0.026208,-0.021571,63.157181,21.507217,-147.258774,,,
729607197.057922,2.361126,0.43482,57.700582,0.005386,0.050858,0.994949,-0.017088,0.026208,-0.021571,63.157181,21.507217,-147.258774,,,
729607197.061296,2.35778,0.443518,57.695924,-0.003326,0.045074,0.998627,-0.01294,0.032619,-0.020622,62.96666,21.664352,-147.622025,,,
729607197.064607,2.355273,0.459469,57.69061,-0.003326,0.045074,0.998627,-0.01294,0.032619,-0.020622,62.96666,21.664352,-147.622025,,,
729607197.067931,2.355273,0.459469,57.69061,-0.003326,0.045074,0.998627,-0.01294,0.032619,-0.020622,62.96666,21.664352,-147.622025,,,
729607197.071295,2.355452,0.466714,57.685281,-0.010071,0.044342,1.001846,0.00141,0.02658,-0.018834,62.96666,21.664352,-147.622025,,,
729607197.074588,2.357639,0.480233,57.679761,-0.010071,0.044342,1.001846,0.00141,0.02658,-0.018834,62.96666,21.664352,-147.622025,,,
729607197.077941,2.357639,0.480233,57.679761,-0.010071,0.044342,1.001846,0.00141,0.02658,-0.018834,62.96666,21.664352,-147.622025,,,
729607197.081284,2.361119,0.484327,57.674802,-0.015579,0.048233,0.998444,0.013797,0.013895,-0.016467,62.96666,21.664352,-147.622025,,,
729607197.084599,2.364653,0.492867,57.670473,-0.015579,0.048233,0.998444,0.013797,0.013895,-0.016467,62.96666,21.664352,-147.622025,,,
729607197.088007,2.364653,0.492867,57.670473,-0.015579,0.048233,0.998444,0.013797,0.013895,-0.016467,62.96666,21.664352,-147.622025,,,
729607197.091256,2.367499,0.493259,57.667861,-0.020752,0.050919,0.994568,0.009958,0.004114,-0.010319,62.96666,21.664352,-147.622025,,,
729607197.094596,2.370522,0.494688,57.666275,-0.020752,0.050919,0.994568,0.009958,0.004114,-0.010319,62.96666,21.664352,-147.622025,,,
729607197.09794,2.370522,0.494688,57.666275,-0.020752,0.050919,0.994568,0.009958,0.004114,-0.010319,62.96666,21.664352,-147.622025,,,
729607197.101334,2.37093,0.489678,57.665674,-0.02066,0.051376,0.98613,0.002501,-0.015256,-0.002907,62.96666,21.664352,-147.622025,,,
729607197.104606,2.372274,0.482107,57.665585,-0.02066,0.051376,0.98613,0.002501,-0.015256,-0.002907,63.027557,21.515427,-147.40387,,,
729607197.107983,2.372274,0.482107,57.665585,-0.02066,0.051376,0.98613,0.002501,-0.015256,-0.002907,63.027557,21.515427,-147.40387,,,
729607197.111258,2.369855,0.473616,57.665561,-0.014771,0.052399,0.982468,-0.009799,-0.030152,-0.001108,63.027557,21.515427,-147.40387,,,
729607197.114683,2.368566,0.461188,57.666038,-0.014771,0.052399,0.982468,-0.009799,-0.030152,-0.001108,63.027557,21.515427,-147.40387,,,
729607197.117935,2.368566,0.461188,57.666038,-0.014771,0.052399,0.982468,-0.009799,-0.030152,-0.001108,63.027557,21.515427,-147.40387,,,
729607197.121287,2.365407,0.454834,57.66656,-0.008804,0.055771,0.990997,-0.011657,-0.019459,-0.000995,63.027557,21.515427,-147.40387,,,
729607197.124613,2.364315,0.444623,57.667559,-0.008804,0.055771,0.990997,-0.011657,-0.019459,-0.000995,63.027557,21.515427,-147.40387,,,
729607197.127988,2.364315,0.444623,57.667559,-0.008804,0.055771,0.990997,-0.011657,-0.019459,-0.000995,63.027557,21.515427,-147.40387,,,
729607197.131258,2.36116,0.445231,57.669426,-0.008087,0.053238,0.99971,-0.008899,0.004063,0.004277,63.027557,21.515427,-147.40387,,,
729607197.134599,2.360351,0.446608,57.672987,-0.008087,0.053238,0.99971,-0.008899,0.004063,0.004277,63.027557,21.515427,-147.40387,,,
729607197.137929,2.360351,0.446608,57.672987,-0.008087,0.053238,0.99971,-0.008899,0.004063,0.004277,63.027557,21.515427,-147.40387,,,
729607197.141267,2.358067,0.458128,57.678081,-0.011978,0.049744,1.006882,-0.007008,0.044498,0.014895,63.027557,21.515427,-147.40387,,,
729607197.144599,2.356757,0.471737,57.685883,-0.011978,0.049744,1.006882,-0.007008,0.044498,0.014895,62.852173,21.704575,-147.639206,,,
729607197.147942,2.356757,0.471737,57.685883,-0.011978,0.049744,1.006882,-0.007008,0.044498,0.014895,62.852173,21.704575,-147.639206,,,
729607197.15128,2.353978,0.486383,57.696253,-0.018539,0.049118,0.999237,-0.010536,0.052576,0.035524,62.852173,21.704575,-147.639206,,,
729607197.154726,2.351078,0.501232,57.707979,-0.018539,0.049118,0.999237,-0.010536,0.052576,0.035524,62.852173,21.704575,-147.639206,,,
729607197.157949,2.351078,0.501232,57.707979,-0.018539,0.049118,0.999237,-0.010536,0.052576,0.035524,62.852173,21.704575,-147.639206,,,
729607197.161302,2.346541,0.51157,57.720186,-0.019836,0.05014,0.989761,-0.015188,0.041514,0.041413,62.852173,21.704575,-147.639206,,,
729607197.164686,2.342423,0.520906,57.731574,-0.019836,0.05014,0.989761,-0.015188,0.041514,0.041413,62.852173,21.704575,-147.639206,,,
729607197.167937,2.342423,0.520906,57.731574,-0.019836,0.05014,0.989761,-0.015188,0.041514,0.041413,62.852173,21.704575,-147.639206,,,
729607197.171283,2.334324,0.51986,57.741532,-0.015411,0.053589,0.98497,-0.029339,0.002376,0.032372,62.852173,21.704575,-147.639206,,,
729607197.174611,2.327153,0.517877,57.749532,-0.015411,0.053589,0.98497,-0.029339,0.002376,0.032372,62.852173,21.704575,-147.639206,,,
729607197.178014,2.327153,0.517877,57.749532,-0.015411,0.053589,0.98497,-0.029339,0.002376,0.032372,62.852173,21.704575,-147.639206,,,
729607197.181282,2.31734,0.504595,57.755653,-0.008972,0.053223,0.987579,-0.031203,-0.044465,0.017815,62.852173,21.704575,-147.639206,,,
729607197.184602,2.310506,0.492155,57.759843,-0.008972,0.053223,0.987579,-0.031203,-0.044465,0.017815,63.044678,21.712173,-147.67572,,,
729607197.187934,2.310506,0.492155,57.759843,-0.008972,0.053223,0.987579,-0.031203,-0.044465,0.017815,63.044678,21.712173,-147.67572,,,
