Time (sec),Pitch (deg),Roll (deg),Yaw(deg),X-Acceleration (g),Y-Acceleration (g),Z-Acceleration (g),Pitch Rate (deg/sec),Roll Rate (deg/sec),Yaw Rate (deg/sec),Magnetic Field in X direction (uT),Magnetic Field in Y direction (uT),Magnetic Field in Z Direction (uT),Latitude (deg),Longitude (deg),Altitude (m)
729601173.621197,0.08949,1.322743,-10.690791,-0.040115,-0.008804,1.012344,0.013675,-0.13026,0.032879,70.427307,10.708176,-147.989166,,,
729601173.62455,0.094227,1.287448,-10.680948,-0.036819,0.003204,1.008377,0.013675,-0.13026,0.032879,70.427307,10.708176,-147.989166,,,
729601173.627867,0.097557,1.24732,-10.671089,-0.036819,0.003204,1.008377,0.0073,-0.137146,0.032831,70.427307,10.708176,-147.989166,,,
729601173.631221,0.097557,1.24732,-10.671089,-0.036819,0.003204,1.008377,0.0073,-0.137146,0.032831,70.427307,10.708176,-147.989166,,,
729601173.634546,0.097974,1.213313,-10.660859,-0.026703,0.016052,0.996628,0.0073,-0.137146,0.032831,70.427307,10.708176,-147.989166,,,
729601173.637869,0.094385,1.174181,-10.649354,-0.026703,0.016052,0.996628,-0.02328,-0.129427,0.040958,70.427307,10.708176,-147.989166,,,
729601173.641204,0.094385,1.174181,-10.649354,-0.026703,0.016052,0.996628,-0.02328,-0.129427,0.040958,70.427307,10.708176,-147.989166,,,
729601173.644549,0.085524,1.143119,-10.636259,-0.028885,0.01944,0.981781,-0.02328,-0.129427,0.040958,70.427307,10.708176,-147.989166,,,
729601173.647864,0.069831,1.107972,-10.621139,-0.028885,0.01944,0.981781,-0.065446,-0.116338,0.054254,70.427307,10.708176,-147.989166,,,
729601173.651263,0.069831,1.107972,-10.621139,-0.028885,0.01944,0.981781,-0.065446,-0.116338,0.054254,70.427307,10.708176,-147.989166,,,
729601173.654541,0.050028,1.078025,-10.605478,-0.030151,0.017166,0.97728,-0.065446,-0.116338,0.054254,70.427307,10.708176,-147.989166,,,
729601173.657866,0.023195,1.043645,-10.591021,-0.030151,0.017166,0.97728,-0.100834,-0.119076,0.045176,70.427307,10.708176,-147.989166,,,
729601173.661222,0.023195,1.043645,-10.591021,-0.030151,0.017166,0.97728,-0.100834,-0.119076,0.045176,70.032196,10.769699,-148.174927,,,
729601173.664604,-0.006374,1.012579,-10.578382,-0.013596,0.020874,0.976242,-0.100834,-0.119076,0.045176,70.032196,10.769699,-148.174927,,,
729601173.667863,-0.039905,0.976572,-10.56827,-0.013596,0.020874,0.976242,-0.120016,-0.125236,0.027286,70.032196,10.769699,-148.174927,,,
729601173.671203,-0.039905,0.976572,-10.56827,-0.013596,0.020874,0.976242,-0.120016,-0.125236,0.027286,70.032196,10.769699,-148.174927,,,
729601173.674536,-0.075334,0.946704,-10.560875,-0.007294,0.019165,0.983093,-0.120016,-0.125236,0.027286,70.032196,10.769699,-148.174927,,,
729601173.677885,-0.110452,0.909694,-10.555777,-0.007294,0.019165,0.983093,-0.121908,-0.127096,0.01143,70.032196,10.769699,-148.174927,,,
729601173.681034,-0.110452,0.909694,-10.555777,-0.007294,0.019165,0.983093,-0.121908,-0.127096,0.01143,70.032196,10.769699,-148.174927,,,
729601173.684569,-0.145612,0.879283,-10.551628,-0.007324,0.01265,0.997009,-0.121908,-0.127096,0.01143,70.032196,10.769699,-148.174927,,,
729601173.687872,-0.173481,0.839719,-10.54786,-0.007324,0.01265,0.997009,-0.087703,-0.139961,0.009507,70.032196,10.769699,-148.174927,,,
729601173.6912,-0.173481,0.839719,-10.54786,-0.007324,0.01265,0.997009,-0.087703,-0.139961,0.009507,70.032196,10.769699,-148.174927,,,
729601173.694549,-0.19628,0.804338,-10.54408,-0.005783,0.00293,1.008224,-0.087703,-0.139961,0.009507,70.032196,10.769699,-148.174927,,,
729601173.697881,-0.21297,0.758833,-10.539517,-0.005783,0.00293,1.008224,-0.049049,-0.158379,0.015673,70.032196,10.769699,-148.174927,,,
729601173.701197,-0.21297,0.758833,-10.539517,-0.005783,0.00293,1.008224,-0.049049,-0.158379,0.015673,69.678802,11.144119,-147.695526,,,
729601173.704595,-0.221824,0.719072,-10.534093,-0.00502,0.000656,1.008698,-0.049049,-0.158379,0.015673,69.678802,11.144119,-147.695526,,,
729601173.70786,-0.230514,0.674922,-10.527973,-0.00502,0.000656,1.008698,-0.027981,-0.148158,0.021014,69.678802,11.144119,-147.695526,,,
729601173.711196,-0.230514,0.674922,-10.527973,-0.00502,0.000656,1.008698,-0.027981,-0.148158,0.021014,69.678802,11.144119,-147.695526,,,
729601173.714535,-0.231821,0.635935,-10.520532,-0.009506,9.2e-05,1.005829,-0.027981,-0.148158,0.021014,69.678802,11.144119,-147.695526,,,
729601173.717876,-0.24063,0.593187,-10.512059,-0.009506,9.2e-05,1.005829,-0.035813,-0.145759,0.028271,69.678802,11.144119,-147.695526,,,
729601173.721211,-0.24063,0.593187,-10.512059,-0.009506,9.2e-05,1.005829,-0.035813,-0.145759,0.028271,69.678802,11.144119,-147.695526,,,
729601173.72455,-0.246258,0.555618,-10.503996,9.2e-05,0.003998,0.985138,-0.035813,-0.145759,0.028271,69.678802,11.144119,-147.695526,,,
729601173.727857,-0.260619,0.506766,-10.497741,9.2e-05,0.003998,0.985138,-0.05466,-0.17832,0.015765,69.678802,11.144119,-147.695526,,,
729601173.73131,-0.260619,0.506766,-10.497741,9.2e-05,0.003998,0.985138,-0.05466,-0.17832,0.015765,69.678802,11.144119,-147.695526,,,
729601173.734554,-0.271375,0.456177,-10.494196,0.013397,0.013672,0.964386,-0.05466,-0.17832,0.015765,69.678802,11.144119,-147.695526,,,
729601173.737877,-0.290957,0.394504,-10.494218,0.013397,0.013672,0.964386,-0.072089,-0.222029,-0.008944,69.678802,11.144119,-147.695526,,,
729601173.74127,-0.290957,0.394504,-10.494218,0.013397,0.013672,0.964386,-0.072089,-0.222029,-0.008944,69.287796,11.056183,-147.794846,,,
729601173.744611,-0.306005,0.328915,-10.498397,0.011887,0.020721,0.955093,-0.072089,-0.222029,-0.008944,69.287796,11.056183,-147.794846,,,
729601173.747869,-0.330239,0.258564,-10.506426,0.011887,0.020721,0.955093,-0.087753,-0.247976,-0.035666,69.287796,11.056183,-147.794846,,,
729601173.751223,-0.330239,0.258564,-10.506426,0.011887,0.020721,0.955093,-0.087753,-0.247976,-0.035666,69.287796,11.056183,-147.794846,,,
729601173.754556,-0.350977,0.187259,-10.517619,0.014389,0.018494,0.959808,-0.087753,-0.247976,-0.035666,69.287796,11.056183,-147.794846,,,
729601173.757873,-0.37894,0.11537,-10.530424,0.014389,0.018494,0.959808,-0.101592,-0.245753,-0.046616,69.287796,11.056183,-147.794846,,,
729601173.761195,-0.37894,0.11537,-10.530424,0.014389,0.018494,0.959808,-0.101592,-0.245753,-0.046616,69.287796,11.056183,-147.794846,,,
729601173.764554,-0.40619,0.046979,-10.543183,0.015915,0.009964,0.967941,-0.101592,-0.245753,-0.046616,69.287796,11.056183,-147.794846,,,
729601173.767874,-0.436551,-0.017314,-10.555118,0.015915,0.009964,0.967941,-0.104305,-0.210673,-0.040629,69.287796,11.056183,-147.794846,,,
729601173.771195,-0.436551,-0.017314,-10.555118,0.015915,0.009964,0.967941,-0.104305,-0.210673,-0.040629,69.287796,11.056183,-147.794846,,,
729601173.774556,-0.465757,-0.074544,-10.564832,0.016586,0.002502,0.980652,-0.104305,-0.210673,-0.040629,69.287796,11.056183,-147.794846,,,
729601173.777876,-0.495072,-0.124948,-10.571256,0.016586,0.002502,0.980652,-0.096438,-0.157878,-0.017495,69.287796,11.056183,-147.794846,,,
729601173.781272,-0.495072,-0.124948,-10.571256,0.016586,0.002502,0.980652,-0.096438,-0.157878,-0.017495,69.287796,11.056183,-147.794846,,,
729601173.784536,-0.520123,-0.165264,-10.574769,0.01503,-0.007401,0.991043,-0.096438,-0.157878,-0.017495,68.746292,11.353363,-147.623367,,,
729601173.787876,-0.54342,-0.198663,-10.576555,0.01503,-0.007401,0.991043,-0.074208,-0.10014,-0.005293,68.746292,11.353363,-147.623367,,,
729601173.791201,-0.54342,-0.198663,-10.576555,0.01503,-0.007401,0.991043,-0.074208,-0.10014,-0.005293,68.746292,11.353363,-147.623367,,,
729601173.794547,-0.560743,-0.223389,-10.576971,0.018372,-0.011429,1.007111,-0.074208,-0.10014,-0.005293,68.746292,11.353363,-147.623367,,,
729601173.797884,-0.574609,-0.246201,-10.575605,0.018372,-0.011429,1.007111,-0.038511,-0.070782,0.007191,68.746292,11.353363,-147.623367,,,
729601173.801199,-0.574609,-0.246201,-10.575605,0.018372,-0.011429,1.007111,-0.038511,-0.070782,0.007191,68.746292,11.353363,-147.623367,,,
729601173.804535,-0.580197,-0.265938,-10.572488,0.014587,-0.015717,1.016876,-0.038511,-0.070782,0.007191,68.746292,11.353363,-147.623367,,,
729601173.807876,-0.585481,-0.281221,-10.568145,0.014587,-0.015717,1.016876,-0.012364,-0.043614,0.015585,68.746292,11.353363,-147.623367,,,
729601173.811233,-0.585481,-0.281221,-10.568145,0.014587,-0.015717,1.016876,-0.012364,-0.043614,0.015585,68.746292,11.353363,-147.623367,,,
729601173.814561,-0.582004,-0.296011,-10.563187,0.0065,-0.01973,1.012405,-0.012364,-0.043614,0.015585,68.746292,11.353363,-147.623367,,,
729601173.817874,-0.585787,-0.306101,-10.558406,0.0065,-0.01973,1.012405,-0.014855,-0.028503,0.014224,68.746292,11.353363,-147.623367,,,
729601173.821273,-0.585787,-0.306101,-10.558406,0.0065,-0.01973,1.012405,-0.014855,-0.028503,0.014224,68.746292,11.353363,-147.623367,,,
729601173.824547,-0.582741,-0.316401,-10.55395,0.009064,-0.014313,1.000473,-0.014855,-0.028503,0.014224,68.913895,11.145386,-147.670685,,,
729601173.827875,-0.59124,-0.322456,-10.550732,0.009064,-0.014313,1.000473,-0.036362,-0.01426,0.00557,68.913895,11.145386,-147.670685,,,
729601173.831214,-0.59124,-0.322456,-10.550732,0.009064,-0.014313,1.000473,-0.036362,-0.01426,0.00557,68.913895,11.145386,-147.670685,,,
729601173.834594,-0.596013,-0.328968,-10.549389,0.01004,-0.0056,0.990646,-0.036362,-0.01426,0.00557,68.913895,11.145386,-147.670685,,,
729601173.837884,-0.610406,-0.330511,-10.549342,0.01004,-0.0056,0.990646,-0.052798,0.000836,-0.003606,68.913895,11.145386,-147.670685,,,
729601173.841216,-0.610406,-0.330511,-10.549342,0.01004,-0.0056,0.990646,-0.052798,0.000836,-0.003606,68.913895,11.145386,-147.670685,,,
729601173.844552,-0.620998,-0.333607,-10.550221,0.012466,-0.003342,0.989868,-0.052798,0.000836,-0.003606,68.913895,11.145386,-147.670685,,,
729601173.847872,-0.636317,-0.332468,-10.552259,0.012466,-0.003342,0.989868,-0.052919,0.007004,-0.011917,68.913895,11.145386,-147.670685,,,
729601173.851217,-0.636317,-0.332468,-10.552259,0.012466,-0.003342,0.989868,-0.052919,0.007004,-0.011917,68.913895,11.145386,-147.670685,,,
729601173.85454,-0.648084,-0.334048,-10.556222,0.012482,-0.005554,0.995621,-0.052919,0.007004,-0.011917,68.913895,11.145386,-147.670685,,,
729601173.857891,-0.660972,-0.332098,-10.56197,0.012482,-0.005554,0.995621,-0.042147,0.01151,-0.024606,68.913895,11.145386,-147.670685,,,
729601173.861276,-0.660972,-0.332098,-10.56197,0.012482,-0.005554,0.995621,-0.042147,0.01151,-0.024606,68.913895,11.145386,-147.670685,,,
729601173.864533,-0.671286,-0.332149,-10.569183,0.009567,-0.008667,1.00032,-0.042147,0.01151,-0.024606,68.872284,11.613892,-148.155441,,,
729601173.867879,-0.679717,-0.328947,-10.576888,0.009567,-0.008667,1.00032,-0.025838,0.015333,-0.02834,68.872284,11.613892,-148.155441,,,
729601173.871216,-0.679717,-0.328947,-10.576888,0.009567,-0.008667,1.00032,-0.025838,0.015333,-0.02834,68.872284,11.613892,-148.155441,,,
729601173.874599,-0.685546,-0.329185,-10.583875,0.005127,-0.00853,1.001205,-0.025838,0.015333,-0.02834,68.872284,11.613892,-148.155441,,,
729601173.877941,-0.687886,-0.326967,-10.589294,0.005127,-0.00853,1.001205,-0.002207,0.009613,-0.017915,68.872284,11.613892,-148.155441,,,
729601173.881194,-0.687886,-0.326967,-10.589294,0.005127,-0.00853,1.001205,-0.002207,0.009613,-0.017915,68.872284,11.613892,-148.155441,,,
729601173.884557,-0.688856,-0.326374,-10.592652,-0.001709,-0.011017,1.002625,-0.002207,0.009613,-0.017915,68.872284,11.613892,-148.155441,,,
729601173.887982,-0.685825,-0.324728,-10.593974,-0.001709,-0.011017,1.002625,0.015636,0.008093,-0.003938,68.872284,11.613892,-148.155441,,,
729601173.891193,-0.685825,-0.324728,-10.593974,-0.001709,-0.011017,1.002625,0.015636,0.008093,-0.003938,68.872284,11.613892,-148.155441,,,
729601173.894557,-0.682908,-0.323376,-10.594095,-0.003372,-0.011612,1.005219,0.015636,0.008093,-0.003938,68.872284,11.613892,-148.155441,,,
729601173.897871,-0.677988,-0.321493,-10.594465,-0.003372,-0.011612,1.005219,0.01595,0.009221,-0.005661,68.872284,11.613892,-148.155441,,,
729601173.901289,-0.677988,-0.321493,-10.594465,-0.003372,-0.011612,1.005219,0.01595,0.009221,-0.005661,68.872284,11.613892,-148.155441,,,
729601173.904633,-0.673987,-0.321025,-10.595791,-0.002899,-0.008118,1.005615,0.01595,0.009221,-0.005661,68.872284,11.613892,-148.155441,,,
729601173.907871,-0.671657,-0.319282,-10.597404,-0.002899,-0.008118,1.005615,0.005908,0.008958,-0.007721,68.999329,11.574997,-148.166687,,,
729601173.911211,-0.671657,-0.319282,-10.597404,-0.002899,-0.008118,1.005615,0.005908,0.008958,-0.007721,68.999329,11.574997,-148.166687,,,
729601173.914614,-0.669785,-0.319225,-10.598724,-0.003754,-0.002594,0.999008,0.005908,0.008958,-0.007721,68.999329,11.574997,-148.166687,,,
729601173.917865,-0.672747,-0.316368,-10.599142,-0.003754,-0.002594,0.999008,-0.014849,0.015999,-0.00145,68.999329,11.574997,-148.166687,,,
729601173.921216,-0.672747,-0.316368,-10.599142,-0.003754,-0.002594,0.999008,-0.014849,0.015999,-0.00145,68.999329,11.574997,-148.166687,,,
729601173.924552,-0.675573,-0.314642,-10.597543,-0.012909,-0.004471,0.997635,-0.014849,0.015999,-0.00145,68.999329,11.574997,-148.166687,,,
729601173.927873,-0.68212,-0.31045,-10.593607,-0.012909,-0.004471,0.997635,-0.025873,0.018239,0.014758,68.999329,11.574997,-148.166687,,,
729601173.931217,-0.68212,-0.31045,-10.593607,-0.012909,-0.004471,0.997635,-0.025873,0.018239,0.014758,68.999329,11.574997,-148.166687,,,
729601173.934552,-0.689282,-0.306903,-10.588297,-0.012238,-0.006729,1.000092,-0.025873,0.018239,0.014758,68.999329,11.574997,-148.166687,,,
729601173.937872,-0.699272,-0.30012,-10.582061,-0.012238,-0.006729,1.000092,-0.036062,0.027015,0.021104,68.999329,11.574997,-148.166687,,,
729601173.941201,-0.699272,-0.30012,-10.582061,-0.012238,-0.006729,1.000092,-0.036062,0.027015,0.021104,68.999329,11.574997,-148.166687,,,
729601173.944553,-0.708982,-0.29426,-10.575281,-0.004501,-0.005676,1.006821,-0.036062,0.027015,0.021104,68.999329,11.574997,-148.166687,,,
729601173.947873,-0.719015,-0.287888,-10.568638,-0.004501,-0.005676,1.006821,-0.03129,0.023891,0.019994,68.971619,11.714203,-147.916107,,,
729601173.951263,-0.719015,-0.287888,-10.568638,-0.004501,-0.005676,1.006821,-0.03129,0.023891,0.019994,68.971619,11.714203,-147.916107,,,
729601173.954542,-0.726049,-0.283099,-10.562733,0.001587,-0.004547,1.0103,-0.03129,0.023891,0.019994,68.971619,11.714203,-147.916107,,,
729601173.957873,-0.730984,-0.281779,-10.55724,0.001587,-0.004547,1.0103,-0.010003,0.005109,0.017089,68.971619,11.714203,-147.916107,,,
729601173.961271,-0.730984,-0.281779,-10.55724,0.001587,-0.004547,1.0103,-0.010003,0.005109,0.017089,68.971619,11.714203,-147.916107,,,
729601173.964602,-0.731106,-0.279119,-10.552231,0.00531,-0.010086,1.017624,-0.010003,0.005109,0.017089,68.971619,11.714203,-147.916107,,,
729601173.967866,-0.726476,-0.279462,-10.547738,0.00531,-0.010086,1.017624,0.023567,0.000515,0.013588,68.971619,11.714203,-147.916107,,,
729601173.971217,-0.726476,-0.279462,-10.547738,0.00531,-0.010086,1.017624,0.023567,0.000515,0.013588,68.971619,11.714203,-147.916107,,,
729601173.97455,-0.717001,-0.278585,-10.542991,0.004211,-0.014328,1.03186,0.023567,0.000515,0.013588,68.971619,11.714203,-147.916107,,,
729601173.977877,-0.704007,-0.281989,-10.537399,0.004211,-0.014328,1.03186,0.051614,-0.011765,0.019574,68.971619,11.714203,-147.916107,,,
729601173.981198,-0.704007,-0.281989,-10.537399,0.004211,-0.014328,1.03186,0.051614,-0.011765,0.019574,68.971619,11.714203,-147.916107,,,
729601173.984562,-0.686139,-0.284039,-10.530589,0.001373,-0.019409,1.027359,0.051614,-0.011765,0.019574,68.971619,11.714203,-147.916107,,,
729601173.987862,-0.667659,-0.287288,-10.523009,0.001373,-0.019409,1.027359,0.066679,-0.00416,0.02505,68.983734,11.581238,-147.820038,,,
729601173.991198,-0.667659,-0.287288,-10.523009,0.001373,-0.019409,1.027359,0.066679,-0.00416,0.02505,68.983734,11.581238,-147.820038,,,
729601173.994533,-0.646203,-0.28495,-10.515057,-0.000656,-0.016968,1.023849,0.066679,-0.00416,0.02505,68.983734,11.581238,-147.820038,,,
729601173.997864,-0.627872,-0.284804,-10.506355,-0.000656,-0.016968,1.023849,0.061421,0.004674,0.030623,68.983734,11.581238,-147.820038,,,
729601174.001221,-0.627872,-0.284804,-10.506355,-0.000656,-0.016968,1.023849,0.061421,0.004674,0.030623,68.983734,11.581238,-147.820038,,,
729601174.004553,-0.610317,-0.2778,-10.496639,-0.001358,-0.010971,1.015121,0.061421,0.004674,0.030623,68.983734,11.581238,-147.820038,,,
729601174.007867,-0.596482,-0.275578,-10.486095,-0.001358,-0.010971,1.015121,0.044071,0.012954,0.036919,68.983734,11.581238,-147.820038,,,
729601174.011199,-0.596482,-0.275578,-10.486095,-0.001358,-0.010971,1.015121,0.044071,0.012954,0.036919,68.983734,11.581238,-147.820038,,,
729601174.014532,-0.584737,-0.267705,-10.474855,-0.002838,-0.009659,1.003601,0.044071,0.012954,0.036919,68.983734,11.581238,-147.820038,,,
729601174.017869,-0.577217,-0.263729,-10.46327,-0.002838,-0.009659,1.003601,0.021208,0.015436,0.039753,68.983734,11.581238,-147.820038,,,
729601174.021198,-0.577217,-0.263729,-10.46327,-0.002838,-0.009659,1.003601,0.021208,0.015436,0.039753,68.983734,11.581238,-147.820038,,,
729601174.024532,-0.571008,-0.259093,-10.452649,0.003311,-0.007111,0.997711,0.021208,0.015436,0.039753,68.983734,11.581238,-147.820038,,,
729601174.027873,-0.568047,-0.258769,-10.443879,0.003311,-0.007111,0.997711,0.008106,0.001014,0.027141,69.005142,11.437057,-148.119415,,,
729601174.031213,-0.568047,-0.258769,-10.443879,0.003311,-0.007111,0.997711,0.008106,0.001014,0.027141,69.005142,11.437057,-148.119415,,,
729601174.034528,-0.564737,-0.260511,-10.436256,0.004517,-0.00708,0.994629,0.008106,0.001014,0.027141,69.005142,11.437057,-148.119415,,,
729601174.037859,-0.56206,-0.264184,-10.430087,0.004517,-0.00708,0.994629,0.010047,-0.011298,0.01701,69.005142,11.437057,-148.119415,,,
729601174.041215,-0.56206,-0.264184,-10.430087,0.004517,-0.00708,0.994629,0.010047,-0.011298,0.01701,69.005142,11.437057,-148.119415,,,
729601174.044533,-0.558438,-0.269608,-10.425062,0.005188,-0.010544,1.00032,0.010047,-0.011298,0.01701,69.005142,11.437057,-148.119415,,,
729601174.047968,-0.551459,-0.276149,-10.420322,0.005188,-0.010544,1.00032,0.03115,-0.020611,0.014894,69.005142,11.437057,-148.119415,,,
729601174.051275,-0.551459,-0.276149,-10.420322,0.005188,-0.010544,1.00032,0.03115,-0.020611,0.014894,69.005142,11.437057,-148.119415,,,
729601174.054559,-0.542104,-0.282472,-10.415333,0.005035,-0.016373,1.010651,0.03115,-0.020611,0.014894,69.005142,11.437057,-148.119415,,,
729601174.057865,-0.527909,-0.290507,-10.409785,0.005035,-0.016373,1.010651,0.05463,-0.029238,0.018679,69.005142,11.437057,-148.119415,,,
729601174.061198,-0.527909,-0.290507,-10.409785,0.005035,-0.016373,1.010651,0.05463,-0.029238,0.018679,69.005142,11.437057,-148.119415,,,
729601174.06455,-0.513512,-0.297829,-10.404062,0.006409,-0.020279,1.012543,0.05463,-0.029238,0.018679,69.005142,11.437057,-148.119415,,,
729601174.067869,-0.494333,-0.306281,-10.398048,0.006409,-0.020279,1.012543,0.068872,-0.025588,0.020793,69.005142,11.437057,-148.119415,,,
729601174.07122,-0.494333,-0.306281,-10.398048,0.006409,-0.020279,1.012543,0.068872,-0.025588,0.020793,68.569305,11.457306,-147.977966,,,
729601174.074596,-0.477028,-0.312532,-10.391562,0.009125,-0.014709,1.001938,0.068872,-0.025588,0.020793,68.569305,11.457306,-147.977966,,,
729601174.077859,-0.460558,-0.31924,-10.385815,0.009125,-0.014709,1.001938,0.053213,-0.018511,0.015836,68.569305,11.457306,-147.977966,,,
729601174.081226,-0.460558,-0.31924,-10.385815,0.009125,-0.014709,1.001938,0.053213,-0.018511,0.015836,68.569305,11.457306,-147.977966,,,
729601174.084544,-0.448591,-0.322518,-10.381107,0.008331,-0.0056,0.987549,0.053213,-0.018511,0.015836,68.569305,11.457306,-147.977966,,,
729601174.087958,-0.440298,-0.327988,-10.376888,0.008331,-0.0056,0.987549,0.024124,-0.016104,0.012768,68.569305,11.457306,-147.977966,,,
729601174.091213,-0.440298,-0.327988,-10.376888,0.008331,-0.0056,0.987549,0.024124,-0.016104,0.012768,68.569305,11.457306,-147.977966,,,
729601174.09455,-0.434992,-0.331092,-10.373428,0.01236,-0.001328,0.981781,0.024124,-0.016104,0.012768,68.569305,11.457306,-147.977966,,,
729601174.097862,-0.431045,-0.335418,-10.370786,0.01236,-0.001328,0.981781,0.012247,-0.010768,0.007269,68.569305,11.457306,-147.977966,,,
729601174.101199,-0.431045,-0.335418,-10.370786,0.01236,-0.001328,0.981781,0.012247,-0.010768,0.007269,68.569305,11.457306,-147.977966,,,
729601174.104538,-0.428139,-0.338522,-10.368441,0.011765,-0.003464,0.987045,0.012247,-0.010768,0.007269,68.569305,11.457306,-147.977966,,,
729601174.107868,-0.426717,-0.341232,-10.366196,0.011765,-0.003464,0.987045,0.003191,-0.005931,0.006649,68.569305,11.457306,-147.977966,,,
729601174.111211,-0.426717,-0.341232,-10.366196,0.011765,-0.003464,0.987045,0.003191,-0.005931,0.006649,68.802582,11.201309,-147.885315,,,
729601174.114533,-0.426612,-0.34354,-10.363997,0.010788,-0.01268,0.988083,0.003191,-0.005931,0.006649,68.802582,11.201309,-147.885315,,,
729601174.117878,-0.426872,-0.344583,-10.362048,0.010788,-0.01268,0.988083,-0.000815,0.003728,0.004976,68.802582,11.201309,-147.885315,,,
729601174.121197,-0.426872,-0.344583,-10.362048,0.010788,-0.01268,0.988083,-0.000815,0.003728,0.004976,68.802582,11.201309,-147.885315,,,
729601174.124531,-0.429739,-0.342632,-10.36008,0.00882,-0.013458,0.988602,-0.000815,0.003728,0.004976,68.802582,11.201309,-147.885315,,,
729601174.127861,-0.433453,-0.339381,-10.357557,0.00882,-0.013458,0.988602,-0.014682,0.016281,0.008953,68.802582,11.201309,-147.885315,,,
729601174.131213,-0.433453,-0.339381,-10.357557,0.00882,-0.013458,0.988602,-0.014682,0.016281,0.008953,68.802582,11.201309,-147.885315,,,
729601174.134528,-0.441789,-0.335434,-10.354074,0.005615,-0.0112,0.986526,-0.014682,0.016281,0.008953,68.802582,11.201309,-147.885315,,,
729601174.137865,-0.448538,-0.330908,-10.349405,0.005615,-0.0112,0.986526,-0.024809,0.021426,0.017242,68.802582,11.201309,-147.885315,,,
729601174.141198,-0.448538,-0.330908,-10.349405,0.005615,-0.0112,0.986526,-0.024809,0.021426,0.017242,68.802582,11.201309,-147.885315,,,
729601174.144526,-0.459007,-0.325087,-10.343668,0.001083,-0.012482,0.982788,-0.024809,0.021426,0.017242,68.802582,11.201309,-147.885315,,,
729601174.147949,-0.467342,-0.317555,-10.337554,0.001083,-0.012482,0.982788,-0.028534,0.029977,0.019852,68.802582,11.201309,-147.885315,,,
729601174.151203,-0.467342,-0.317555,-10.337554,0.001083,-0.012482,0.982788,-0.028534,0.029977,0.019852,68.706802,11.300934,-147.880188,,,
729601174.154539,-0.475685,-0.311095,-10.330787,0.002945,-0.015411,0.990738,-0.028534,0.029977,0.019852,68.706802,11.300934,-147.880188,,,
729601174.157878,-0.481962,-0.305942,-10.322922,0.002945,-0.015411,0.990738,-0.018143,0.015724,0.027303,68.706802,11.300934,-147.880188,,,
729601174.161276,-0.481962,-0.305942,-10.322922,0.002945,-0.015411,0.990738,-0.018143,0.015724,0.027303,68.706802,11.300934,-147.880188,,,
729601174.164535,-0.485574,-0.304544,-10.314471,0.001312,-0.017288,0.993744,-0.018143,0.015724,0.027303,68.706802,11.300934,-147.880188,,,
729601174.167949,-0.489224,-0.303972,-10.305419,0.001312,-0.017288,0.993744,-0.010581,0.001414,0.031381,68.706802,11.300934,-147.880188,,,
729601174.171202,-0.489224,-0.303972,-10.305419,0.001312,-0.017288,0.993744,-0.010581,0.001414,0.031381,68.706802,11.300934,-147.880188,,,
729601174.174606,-0.491401,-0.306436,-10.296169,-0.001709,-0.018585,0.996048,-0.010581,0.001414,0.031381,68.706802,11.300934,-147.880188,,,
729601174.177868,-0.497185,-0.306676,-10.286672,-0.001709,-0.018585,0.996048,-0.022096,0.000934,0.033011,68.706802,11.300934,-147.880188,,,
729601174.181218,-0.497185,-0.306676,-10.286672,-0.001709,-0.018585,0.996048,-0.022096,0.000934,0.033011,68.706802,11.300934,-147.880188,,,
729601174.184543,-0.503886,-0.309242,-10.277117,0.002975,-0.016144,0.994583,-0.022096,0.000934,0.033011,68.706802,11.300934,-147.880188,,,
729601174.187967,-0.511712,-0.310505,-10.268812,0.002975,-0.016144,0.994583,-0.026351,-0.000812,0.024208,68.706802,11.300934,-147.880188,,,
729601174.191197,-0.511712,-0.310505,-10.268812,0.002975,-0.016144,0.994583,-0.026351,-0.000812,0.024208,68.762848,11.335587,-148.30365,,,
729601174.194539,-0.520271,-0.313837,-10.262286,0.01149,-0.01123,0.99704,-0.026351,-0.000812,0.024208,68.762848,11.335587,-148.30365,,,
729601174.197892,-0.526585,-0.317369,-10.256829,0.01149,-0.01123,0.99704,-0.019292,-0.013858,0.016598,68.762848,11.335587,-148.30365,,,
729601174.201268,-0.526585,-0.317369,-10.256829,0.01149,-0.01123,0.99704,-0.019292,-0.013858,0.016598,68.762848,11.335587,-148.30365,,,
729601174.204531,-0.533295,-0.323064,-10.252196,0.017395,-0.008102,0.999146,-0.019292,-0.013858,0.016598,68.762848,11.335587,-148.30365,,,
729601174.207912,-0.539891,-0.329035,-10.24835,0.017395,-0.008102,0.999146,-0.023502,-0.019588,0.011118,68.762848,11.335587,-148.30365,,,
729601174.211132,-0.539891,-0.329035,-10.24835,0.017395,-0.008102,0.999146,-0.023502,-0.019588,0.011118,68.762848,11.335587,-148.30365,,,
729601174.214539,-0.547858,-0.335318,-10.244724,0.018112,-0.008682,0.992508,-0.023502,-0.019588,0.011118,68.762848,11.335587,-148.30365,,,
729601174.217896,-0.55591,-0.342786,-10.241429,0.018112,-0.008682,0.992508,-0.027716,-0.025537,0.00886,68.762848,11.335587,-148.30365,,,
729601174.221205,-0.55591,-0.342786,-10.241429,0.018112,-0.008682,0.992508,-0.027716,-0.025537,0.00886,68.762848,11.335587,-148.30365,,,
729601174.224602,-0.56585,-0.349666,-10.238148,0.021286,-0.006561,0.989868,-0.027716,-0.025537,0.00886,68.762848,11.335587,-148.30365,,,
729601174.227898,-0.575996,-0.357969,-10.234301,0.021286,-0.006561,0.989868,-0.037302,-0.02551,0.012973,68.762848,11.335587,-148.30365,,,
729601174.231195,-0.575996,-0.357969,-10.234301,0.021286,-0.006561,0.989868,-0.037302,-0.02551,0.012973,68.762848,11.335587,-148.30365,,,
729601174.234538,-0.589298,-0.364894,-10.22953,0.022415,-0.00708,0.986847,-0.037302,-0.02551,0.012973,68.829773,11.281479,-147.73587,,,
729601174.237914,-0.589298,-0.371734,-10.223987,0.022415,-0.00708,0.986847,-0.037302,-0.02551,0.012973,68.829773,11.281479,-147.73587,,,
729601174.241211,-0.601932,-0.371734,-10.223987,0.022415,-0.00708,0.986847,-0.043093,-0.017977,0.018503,68.829773,11.281479,-147.73587,,,
729601174.244544,-0.616512,-0.375062,-10.218197,0.021347,-0.007904,0.992889,-0.043093,-0.017977,0.018503,68.829773,11.281479,-147.73587,,,
729601174.247864,-0.616512,-0.375062,-10.218197,0.021347,-0.007904,0.992889,-0.043093,-0.017977,0.018503,68.829773,11.281479,-147.73587,,,
729601174.251274,-0.629539,-0.378996,-10.212658,0.021347,-0.007904,0.992889,-0.045059,-0.009325,0.016929,68.829773,11.281479,-147.73587,,,
729601174.254543,-0.642977,-0.379753,-10.207117,0.022964,-0.006973,0.999359,-0.045059,-0.009325,0.016929,68.829773,11.281479,-147.73587,,,
729601174.257975,-0.652695,-0.381562,-10.201283,0.022964,-0.006973,0.999359,-0.030557,-0.001578,0.019023,68.829773,11.281479,-147.73587,,,
729601174.261214,-0.652695,-0.381562,-10.201283,0.022964,-0.006973,0.999359,-0.030557,-0.001578,0.019023,68.829773,11.281479,-147.73587,,,
729601174.264602,-0.661641,-0.382324,-10.195442,0.022079,-0.013321,1.006348,-0.030557,-0.001578,0.019023,68.829773,11.281479,-147.73587,,,
729601174.267861,-0.661641,-0.382324,-10.195442,0.022079,-0.013321,1.006348,-0.030557,-0.001578,0.019023,68.829773,11.281479,-147.73587,,,
729601174.271311,-0.667195,-0.381801,-10.189981,0.022079,-0.013321,1.006348,-0.013869,0.007136,0.016239,68.829773,11.281479,-147.73587,,,
729601174.274555,-0.66895,-0.383246,-10.184852,0.022156,-0.013687,1.012634,-0.013869,0.007136,0.016239,68.79129,11.142914,-147.732986,,,
729601174.277915,-0.66895,-0.383246,-10.184852,0.022156,-0.013687,1.012634,0.006349,0.001843,0.013685,68.79129,11.142914,-147.732986,,,
729601174.281203,-0.668371,-0.383107,-10.180043,0.022156,-0.013687,1.012634,0.006349,0.001843,0.013685,68.79129,11.142914,-147.732986,,,
729601174.284552,-0.664808,-0.387924,-10.175974,0.018814,-0.01123,1.013062,0.006349,0.001843,0.013685,68.79129,11.142914,-147.732986,,,
729601174.287918,-0.664808,-0.387924,-10.175974,0.018814,-0.01123,1.013062,0.006349,0.001843,0.013685,68.79129,11.142914,-147.732986,,,
729601174.291265,-0.661774,-0.390923,-10.172118,0.018814,-0.01123,1.013062,0.009761,-0.009054,0.011924,68.79129,11.142914,-147.732986,,,
729601174.294543,-0.659287,-0.398419,-10.168819,0.012634,-0.008667,1.00116,0.009761,-0.009054,0.011924,68.79129,11.142914,-147.732986,,,
729601174.297906,-0.659287,-0.398419,-10.168819,0.012634,-0.008667,1.00116,0.009761,-0.009054,0.011924,68.79129,11.142914,-147.732986,,,
729601174.301215,-0.658699,-0.403631,-10.166138,0.012634,-0.008667,1.00116,0.001517,-0.017129,0.007391,68.79129,11.142914,-147.732986,,,
729601174.304589,-0.658492,-0.41499,-10.164162,0.01236,-0.007278,0.990829,0.001517,-0.017129,0.007391,68.79129,11.142914,-147.732986,,,
729601174.307862,-0.658492,-0.41499,-10.164162,0.01236,-0.007278,0.990829,0.001517,-0.017129,0.007391,68.79129,11.142914,-147.732986,,,
729601174.311204,-0.661218,-0.423869,-10.163379,0.01236,-0.007278,0.990829,-0.01074,-0.032877,-0.001154,68.79129,11.142914,-147.732986,,,
729601174.314539,-0.6644,-0.438867,-10.163845,0.014282,-0.006943,0.989944,-0.01074,-0.032877,-0.001154,68.530228,11.426056,-148.015137,,,
729601174.317902,-0.6644,-0.438867,-10.163845,0.014282,-0.006943,0.989944,-0.01074,-0.032877,-0.001154,68.530228,11.426056,-148.015137,,,
729601174.321217,-0.669656,-0.450846,-10.165242,0.014282,-0.006943,0.989944,-0.0178,-0.040556,-0.007892,68.530228,11.426056,-148.015137,,,
729601174.324547,-0.673949,-0.467362,-10.167288,0.016647,-0.00885,0.991699,-0.0178,-0.040556,-0.007892,68.530228,11.426056,-148.015137,,,
729601174.327916,-0.673949,-0.467362,-10.167288,0.016647,-0.00885,0.991699,-0.0178,-0.040556,-0.007892,68.530228,11.426056,-148.015137,,,
729601174.331277,-0.679489,-0.477707,-10.16911,0.016647,-0.00885,0.991699,-0.020044,-0.030351,-0.00669,68.530228,11.426056,-148.015137,,,
729601174.334543,-0.684998,-0.490276,-10.170336,0.010483,-0.011063,0.996414,-0.020044,-0.030351,-0.00669,68.530228,11.426056,-148.015137,,,
729601174.338046,-0.684998,-0.490276,-10.170336,0.010483,-0.011063,0.996414,-0.019742,-0.025627,0.00122,68.530228,11.426056,-148.015137,,,
729601174.3412,-0.691331,-0.498192,-10.170382,0.010483,-0.011063,0.996414,-0.019742,-0.025627,0.00122,68.530228,11.426056,-148.015137,,,
729601174.344539,-0.698284,-0.509381,-10.168875,0.007492,-0.011887,0.997421,-0.019742,-0.025627,0.00122,68.530228,11.426056,-148.015137,,,
729601174.347923,-0.698284,-0.509381,-10.168875,0.007492,-0.011887,0.997421,-0.019742,-0.025627,0.00122,68.530228,11.426056,-148.015137,,,
729601174.351206,-0.705741,-0.513743,-10.165754,0.007492,-0.011887,0.997421,-0.026913,-0.006221,0.012159,68.530228,11.426056,-148.015137,,,
729601174.354348,-0.713493,-0.518524,-10.161236,0.008377,-0.012604,0.997467,-0.026913,-0.006221,0.012159,68.475021,11.287033,-147.917603,,,
729601174.357932,-0.713493,-0.518524,-10.161236,0.008377,-0.012604,0.997467,-0.026913,-0.006221,0.012159,68.475021,11.287033,-147.917603,,,
729601174.361197,-0.719496,-0.518812,-10.155958,0.008377,-0.012604,0.997467,-0.015495,0.001281,0.017034,68.475021,11.287033,-147.917603,,,
729601174.364533,-0.722082,-0.522447,-10.151668,0.012131,-0.012421,1.000656,-0.015495,0.001281,0.017034,68.475021,11.287033,-147.917603,,,
729601174.367944,-0.722082,-0.522447,-10.151668,0.012131,-0.012421,1.000656,-0.015495,0.001281,0.017034,68.475021,11.287033,-147.917603,,,
729601174.371206,-0.722695,-0.52574,-10.148678,0.012131,-0.012421,1.000656,0.003091,-0.011314,0.007598,68.475021,11.287033,-147.917603,,,
729601174.374529,-0.719068,-0.531299,-10.146305,0.016998,-0.009399,0.996979,0.003091,-0.011314,0.007598,68.475021,11.287033,-147.917603,,,
729601174.377875,-0.719068,-0.531299,-10.146305,0.016998,-0.009399,0.996979,0.003091,-0.011314,0.007598,68.475021,11.287033,-147.917603,,,
729601174.381261,-0.714318,-0.538025,-10.144549,0.016998,-0.009399,0.996979,0.018569,-0.024495,0.003104,68.475021,11.287033,-147.917603,,,
729601174.384522,-0.708018,-0.547393,-10.143602,0.011856,-0.014038,0.997253,0.018569,-0.024495,0.003104,68.475021,11.287033,-147.917603,,,
729601174.387896,-0.708018,-0.547393,-10.143602,0.011856,-0.014038,0.997253,0.018569,-0.024495,0.003104,68.475021,11.287033,-147.917603,,,
729601174.391218,-0.704381,-0.558352,-10.143329,0.011856,-0.014038,0.997253,0.010381,-0.041203,-0.001633,68.475021,11.287033,-147.917603,,,
729601174.394528,-0.701931,-0.57321,-10.143508,0.010834,-0.013077,0.987961,0.010381,-0.041203,-0.001633,68.475021,11.287033,-147.917603,,,
729601174.397881,-0.701931,-0.57321,-10.143508,0.010834,-0.013077,0.987961,0.010381,-0.041203,-0.001633,68.34642,11.63414,-147.830826,,,
729601174.401208,-0.703243,-0.587587,-10.144087,0.010834,-0.013077,0.987961,-0.007768,-0.049036,-0.0044,68.34642,11.63414,-147.830826,,,
729601174.404532,-0.705576,-0.604196,-10.144972,0.011337,-0.009445,0.985382,-0.007768,-0.049036,-0.0044,68.34642,11.63414,-147.830826,,,
729601174.407864,-0.705576,-0.604196,-10.144972,0.011337,-0.009445,0.985382,-0.007768,-0.049036,-0.0044,68.34642,11.63414,-147.830826,,,
729601174.411225,-0.709981,-0.61886,-10.146157,0.011337,-0.009445,0.985382,-0.017417,-0.046001,-0.006496,68.34642,11.63414,-147.830826,,,
729601174.414531,-0.715301,-0.631811,-10.146807,0.009705,-0.01506,0.991501,-0.017417,-0.046001,-0.006496,68.34642,11.63414,-147.830826,,,
729601174.417964,-0.715301,-0.631811,-10.146807,0.009705,-0.01506,0.991501,-0.017417,-0.046001,-0.006496,68.34642,11.63414,-147.830826,,,
729601174.421209,-0.721175,-0.642902,-10.146882,0.009705,-0.01506,0.991501,-0.019659,-0.028283,-0.002411,68.34642,11.63414,-147.830826,,,
729601174.424537,-0.726541,-0.649104,-10.146835,0.015228,-0.016693,1.001038,-0.019659,-0.028283,-0.002411,68.34642,11.63414,-147.830826,,,
729601174.427862,-0.726541,-0.649104,-10.146835,0.015228,-0.016693,1.001038,-0.019659,-0.028283,-0.002411,68.34642,11.63414,-147.830826,,,
729601174.43121,-0.731192,-0.652534,-10.146342,0.015228,-0.016693,1.001038,-0.013864,-0.000798,0.000682,68.34642,11.63414,-147.830826,,,
729601174.434536,-0.73445,-0.650106,-10.145412,0.015579,-0.019409,1.00798,-0.013864,-0.000798,0.000682,68.34642,11.63414,-147.830826,,,
729601174.43787,-0.73445,-0.650106,-10.145412,0.015579,-0.019409,1.00798,-0.013864,-0.000798,0.000682,68.607315,11.425262,-148.094482,,,
729601174.441218,-0.73583,-0.642849,-10.143963,0.015579,-0.019409,1.00798,-0.000958,0.037255,0.004233,68.607315,11.425262,-148.094482,,,
729601174.444532,-0.735688,-0.632689,-10.142616,0.014984,-0.019882,1.009674,-0.000958,0.037255,0.004233,68.607315,11.425262,-148.094482,,,
729601174.447869,-0.735688,-0.632689,-10.142616,0.014984,-0.019882,1.009674,-0.000958,0.037255,0.004233,68.607315,11.425262,-148.094482,,,
729601174.45123,-0.734176,-0.619814,-10.141049,0.014984,-0.019882,1.009674,0.010529,0.049165,0.005526,68.607315,11.425262,-148.094482,,,
729601174.454538,-0.730159,-0.607662,-10.138655,0.00975,-0.016785,1.002335,0.010529,0.049165,0.005526,68.607315,11.425262,-148.094482,,,
729601174.457864,-0.730159,-0.607662,-10.138655,0.00975,-0.016785,1.002335,0.010529,0.049165,0.005526,68.607315,11.425262,-148.094482,,,
729601174.461284,-0.726334,-0.593645,-10.135133,0.00975,-0.016785,1.002335,0.013481,0.051169,0.013214,68.607315,11.425262,-148.094482,,,
729601174.464526,-0.72356,-0.580282,-10.131016,0.00618,-0.013153,0.991394,0.013481,0.051169,0.013214,68.607315,11.425262,-148.094482,,,
729601174.467938,-0.72356,-0.580282,-10.131016,0.00618,-0.013153,0.991394,0.013481,0.051169,0.013214,68.607315,11.425262,-148.094482,,,
729601174.471197,-0.72097,-0.568522,-10.127156,0.00618,-0.013153,0.991394,0.006674,0.040374,0.011566,68.607315,11.425262,-148.094482,,,
729601174.474529,-0.719848,-0.559971,-10.124049,0.007248,-0.006546,0.978409,0.006674,0.040374,0.011566,68.607315,11.425262,-148.094482,,,
729601174.477861,-0.719848,-0.559971,-10.124049,0.007248,-0.006546,0.978409,0.006674,0.040374,0.011566,68.745117,11.281387,-147.702728,,,
729601174.481263,-0.720646,-0.55387,-10.121849,0.007248,-0.006546,0.978409,-0.003914,0.018451,0.005305,68.745117,11.281387,-147.702728,,,
729601174.484519,-0.722915,-0.55042,-10.120541,0.01001,-0.006622,0.971207,-0.003914,0.018451,0.005305,68.745117,11.281387,-147.702728,,,
729601174.487873,-0.722915,-0.55042,-10.120541,0.01001,-0.006622,0.971207,-0.003914,0.018451,0.005305,68.745117,11.281387,-147.702728,,,
729601174.491219,-0.726616,-0.550073,-10.119668,0.01001,-0.006622,0.971207,-0.011482,-0.002836,0.002395,68.745117,11.281387,-147.702728,,,
729601174.49453,-0.731292,-0.553505,-10.119052,0.009888,-0.00914,0.977386,-0.011482,-0.002836,0.002395,68.745117,11.281387,-147.702728,,,
729601174.497876,-0.731292,-0.553505,-10.119052,0.009888,-0.00914,0.977386,-0.011482,-0.002836,0.002395,68.745117,11.281387,-147.702728,,,
729601174.501218,-0.735093,-0.558885,-10.118987,0.009888,-0.00914,0.977386,-0.011317,-0.021279,-0.001535,68.745117,11.281387,-147.702728,,,
729601174.504526,-0.739324,-0.568842,-10.119571,0.009659,-0.013412,0.986374,-0.011317,-0.021279,-0.001535,68.745117,11.281387,-147.702728,,,
729601174.507863,-0.739324,-0.568842,-10.119571,0.009659,-0.013412,0.986374,-0.011317,-0.021279,-0.001535,68.745117,11.281387,-147.702728,,,
729601174.511196,-0.741704,-0.57811,-10.121215,0.009659,-0.013412,0.986374,-0.00655,-0.028238,-0.009132,68.745117,11.281387,-147.702728,,,
729601174.514527,-0.745028,-0.587822,-10.123506,0.015717,-0.009979,0.993988,-0.00655,-0.028238,-0.009132,68.745117,11.281387,-147.702728,,,
729601174.517931,-0.745028,-0.587822,-10.123506,0.015717,-0.009979,0.993988,-0.00655,-0.028238,-0.009132,68.793091,11.455093,-148.121414,,,
729601174.521197,-0.746178,-0.593927,-10.12563,0.015717,-0.009979,0.993988,-0.003371,-0.013866,-0.008145,68.793091,11.455093,-148.121414,,,
729601174.524527,-0.749124,-0.598373,-10.126897,0.012207,-0.00946,0.999512,-0.003371,-0.013866,-0.008145,68.793091,11.455093,-148.121414,,,
729601174.527858,-0.749124,-0.598373,-10.126897,0.012207,-0.00946,0.999512,-0.003371,-0.013866,-0.008145,68.793091,11.455093,-148.121414,,,
729601174.531285,-0.752232,-0.600216,-10.126994,0.012207,-0.00946,0.999512,-0.014034,-0.000766,1.9e-05,68.793091,11.455093,-148.121414,,,
729601174.534526,-0.758462,-0.599111,-10.125086,0.007385,-0.00975,0.997131,-0.014034,-0.000766,1.9e-05,68.793091,11.455093,-148.121414,,,
729601174.537868,-0.758462,-0.599111,-10.125086,0.007385,-0.00975,0.997131,-0.014034,-0.000766,1.9e-05,68.793091,11.455093,-148.121414,,,
729601174.541225,-0.766487,-0.595616,-10.12124,0.007385,-0.00975,0.997131,-0.031376,0.020303,0.013757,68.793091,11.455093,-148.121414,,,
729601174.544554,-0.776097,-0.588543,-10.116241,0.005829,-0.011703,0.991989,-0.031376,0.020303,0.013757,68.793091,11.455093,-148.121414,,,
729601174.547877,-0.776097,-0.588543,-10.116241,0.005829,-0.011703,0.991989,-0.031376,0.020303,0.013757,68.793091,11.455093,-148.121414,,,
729601174.551243,-0.786982,-0.582751,-10.110907,0.005829,-0.011703,0.991989,-0.035084,0.020589,0.016185,68.793091,11.455093,-148.121414,,,
729601174.554559,-0.795702,-0.578389,-10.106965,0.010437,-0.01149,0.995224,-0.035084,0.020589,0.016185,68.793091,11.455093,-148.121414,,,
729601174.557873,-0.795702,-0.578389,-10.106965,0.010437,-0.01149,0.995224,-0.035084,0.020589,0.016185,68.793091,11.455093,-148.121414,,,
729601174.561215,-0.80524,-0.577453,-10.10401,0.010437,-0.01149,0.995224,-0.027732,0.000135,0.009266,68.611221,11.4646,-147.850784,,,
729601174.564528,-0.810034,-0.57886,-10.10155,0.011246,-0.014633,1.002625,-0.027732,0.000135,0.009266,68.611221,11.4646,-147.850784,,,
729601174.567938,-0.810034,-0.57886,-10.10155,0.011246,-0.014633,1.002625,-0.027732,0.000135,0.009266,68.611221,11.4646,-147.850784,,,
729601174.571214,-0.813227,-0.582759,-10.099515,0.011246,-0.014633,1.002625,-0.004908,-0.016944,0.00604,68.611221,11.4646,-147.850784,,,
729601174.574535,-0.812888,-0.590328,-10.097058,0.00943,-0.021652,1.011642,-0.004908,-0.016944,0.00604,68.611221,11.4646,-147.850784,,,
729601174.57788,-0.812888,-0.590328,-10.097058,0.00943,-0.021652,1.011642,-0.004908,-0.016944,0.00604,68.611221,11.4646,-147.850784,,,
729601174.581288,-0.811469,-0.601639,-10.093901,0.00943,-0.021652,1.011642,0.007428,-0.042343,0.010776,68.611221,11.4646,-147.850784,,,
729601174.584535,-0.809613,-0.615297,-10.090046,0.009552,-0.02858,1.006058,0.007428,-0.042343,0.010776,68.611221,11.4646,-147.850784,,,
729601174.587992,-0.809613,-0.615297,-10.090046,0.009552,-0.02858,1.006058,0.007428,-0.042343,0.010776,68.611221,11.4646,-147.850784,,,
729601174.591217,-0.8078,-0.629015,-10.085657,0.009552,-0.02858,1.006058,0.008882,-0.04564,0.014438,68.611221,11.4646,-147.850784,,,
729601174.594566,-0.804334,-0.644664,-10.081391,0.009323,-0.029968,1.007294,0.008882,-0.04564,0.014438,68.611221,11.4646,-147.850784,,,
729601174.597892,-0.804334,-0.644664,-10.081391,0.009323,-0.029968,1.007294,0.008882,-0.04564,0.014438,68.611221,11.4646,-147.850784,,,
729601174.601196,-0.801883,-0.659894,-10.077926,0.009323,-0.029968,1.007294,0.010189,-0.052837,0.008727,68.431808,11.32486,-147.914627,,,
729601174.604537,-0.798888,-0.675664,-10.076074,0.025482,-0.02243,1.003677,0.010189,-0.052837,0.008727,68.431808,11.32486,-147.914627,,,
729601174.607867,-0.798888,-0.675664,-10.076074,0.025482,-0.02243,1.003677,0.010189,-0.052837,0.008727,68.431808,11.32486,-147.914627,,,
729601174.611201,-0.797882,-0.691447,-10.076203,0.025482,-0.02243,1.003677,0.002968,-0.049046,-0.00492,68.431808,11.32486,-147.914627,,,
729601174.614529,-0.796655,-0.704597,-10.077864,0.029099,-0.017715,1.002228,0.002968,-0.049046,-0.00492,68.431808,11.32486,-147.914627,,,
729601174.617861,-0.796655,-0.704597,-10.077864,0.029099,-0.017715,1.002228,0.002968,-0.049046,-0.00492,68.431808,11.32486,-147.914627,,,
729601174.621221,-0.798107,-0.717851,-10.080183,0.029099,-0.017715,1.002228,-0.009439,-0.040359,-0.009202,68.431808,11.32486,-147.914627,,,
729601174.624529,-0.80157,-0.728809,-10.082126,0.029495,-0.02269,1.003586,-0.009439,-0.040359,-0.009202,68.431808,11.32486,-147.914627,,,
729601174.627882,-0.80157,-0.728809,-10.082126,0.029495,-0.02269,1.003586,-0.009439,-0.040359,-0.009202,68.431808,11.32486,-147.914627,,,
729601174.631205,-0.808077,-0.741392,-10.083711,0.029495,-0.02269,1.003586,-0.027348,-0.039388,-0.006297,68.431808,11.32486,-147.914627,,,
729601174.634531,-0.816725,-0.752881,-10.084467,0.0271,-0.025452,0.99649,-0.027348,-0.039388,-0.006297,68.431808,11.32486,-147.914627,,,
729601174.637877,-0.816725,-0.752881,-10.084467,0.0271,-0.025452,0.99649,-0.027348,-0.039388,-0.006297,68.431808,11.32486,-147.914627,,,
729601174.641196,-0.828022,-0.762693,-10.084349,0.0271,-0.025452,0.99649,-0.042457,-0.027221,-3.1e-05,68.358948,11.525208,-147.936005,,,
729601174.644528,-0.840831,-0.769478,-10.083631,0.025024,-0.027115,1.000076,-0.042457,-0.027221,-3.1e-05,68.358948,11.525208,-147.936005,,,
729601174.647882,-0.840831,-0.769478,-10.083631,0.025024,-0.027115,1.000076,-0.042457,-0.027221,-3.1e-05,68.358948,11.525208,-147.936005,,,
729601174.651216,-0.853205,-0.777069,-10.08286,0.025024,-0.027115,1.000076,-0.04288,-0.026389,0.000455,68.358948,11.525208,-147.936005,,,
729601174.654539,-0.867466,-0.784653,-10.082739,0.033691,-0.026413,1.005661,-0.04288,-0.026389,0.000455,68.358948,11.525208,-147.936005,,,
729601174.657863,-0.867466,-0.784653,-10.082739,0.033691,-0.026413,1.005661,-0.04288,-0.026389,0.000455,68.358948,11.525208,-147.936005,,,
729601174.661219,-0.877749,-0.792349,-10.083932,0.033691,-0.026413,1.005661,-0.031291,-0.02108,-0.008786,68.358948,11.525208,-147.936005,,,
729601174.664521,-0.888517,-0.797243,-10.087125,0.03273,-0.026184,1.011429,-0.031291,-0.02108,-0.008786,68.358948,11.525208,-147.936005,,,
729601174.667922,-0.888517,-0.797243,-10.087125,0.03273,-0.026184,1.011429,-0.031291,-0.02108,-0.008786,68.358948,11.525208,-147.936005,,,
729601174.671199,-0.892465,-0.803084,-10.092173,0.03273,-0.026184,1.011429,-0.008484,-0.01589,-0.021806,68.358948,11.525208,-147.936005,,,
729601174.674531,-0.896548,-0.809689,-10.098485,0.030899,-0.028442,1.017715,-0.008484,-0.01589,-0.021806,68.358948,11.525208,-147.936005,,,
729601174.67787,-0.896548,-0.809689,-10.098485,0.030899,-0.028442,1.017715,-0.008484,-0.01589,-0.021806,68.358948,11.525208,-147.936005,,,
729601174.681218,-0.894795,-0.817205,-10.104782,0.030899,-0.028442,1.017715,0.01225,-0.023025,-0.02198,68.358948,11.525208,-147.936005,,,
729601174.684525,-0.891526,-0.827539,-10.109353,0.02327,-0.027771,1.01062,0.01225,-0.023025,-0.02198,68.401672,11.649338,-147.941467,,,
729601174.687877,-0.891526,-0.827539,-10.109353,0.02327,-0.027771,1.01062,0.01225,-0.023025,-0.02198,68.401672,11.649338,-147.941467,,,
729601174.691205,-0.885835,-0.830371,-10.111094,0.02327,-0.027771,1.01062,0.022494,0.000494,-0.00287,68.401672,11.649338,-147.941467,,,
729601174.694526,-0.880573,-0.834307,-10.111816,0.015762,-0.02597,1.013382,0.022494,0.000494,-0.00287,68.401672,11.649338,-147.941467,,,
729601174.697875,-0.880573,-0.834307,-10.111816,0.015762,-0.02597,1.013382,0.022494,0.000494,-0.00287,68.401672,11.649338,-147.941467,,,
729601174.701209,-0.874645,-0.833356,-10.113451,0.015762,-0.02597,1.013382,0.020974,0.005576,-0.009627,68.401672,11.649338,-147.941467,,,
729601174.704523,-0.871317,-0.836835,-10.11687,0.026093,-0.014709,1.007172,0.020974,0.005576,-0.009627,68.401672,11.649338,-147.941467,,,
729601174.707865,-0.871317,-0.836835,-10.11687,0.026093,-0.014709,1.007172,0.020974,0.005576,-0.009627,68.401672,11.649338,-147.941467,,,
729601174.711299,-0.867243,-0.83581,-10.122904,0.026093,-0.014709,1.007172,0.011301,0.009303,-0.028169,68.401672,11.649338,-147.941467,,,
729601174.714586,-0.868325,-0.836834,-10.131182,0.02771,-0.004959,0.996017,0.011301,0.009303,-0.028169,68.401672,11.649338,-147.941467,,,
729601174.71791,-0.868325,-0.836834,-10.131182,0.02771,-0.004959,0.996017,0.011301,0.009303,-0.028169,68.401672,11.649338,-147.941467,,,
729601174.721198,-0.86923,-0.835072,-10.140588,0.02771,-0.004959,0.996017,-0.007428,0.00803,-0.036021,68.401672,11.649338,-147.941467,,,
729601174.724532,-0.875873,-0.83686,-10.151334,0.022934,-0.004272,0.990005,-0.007428,0.00803,-0.036021,68.308731,11.618942,-148.079559,,,
729601174.727881,-0.875873,-0.83686,-10.151334,0.022934,-0.004272,0.990005,-0.007428,0.00803,-0.036021,68.308731,11.618942,-148.079559,,,
729601174.731239,-0.883237,-0.834338,-10.162672,0.022934,-0.004272,0.990005,-0.032695,0.011646,-0.040175,68.308731,11.618942,-148.079559,,,
729601174.734529,-0.896446,-0.837328,-10.172894,0.016373,-0.00563,0.982651,-0.032695,0.011646,-0.040175,68.308731,11.618942,-148.079559,,,
729601174.73787,-0.896446,-0.837328,-10.172894,0.016373,-0.00563,0.982651,-0.032695,0.011646,-0.040175,68.308731,11.618942,-148.079559,,,
729601174.741206,-0.909496,-0.835213,-10.18151,0.016373,-0.00563,0.982651,-0.048782,0.00854,-0.029297,68.308731,11.618942,-148.079559,,,
729601174.744526,-0.92704,-0.83876,-10.189784,0.008621,-0.007019,0.986084,-0.048782,0.00854,-0.029297,68.308731,11.618942,-148.079559,,,
729601174.747872,-0.92704,-0.83876,-10.189784,0.008621,-0.007019,0.986084,-0.048782,0.00854,-0.029297,68.308731,11.618942,-148.079559,,,
729601174.751212,-0.942442,-0.839395,-10.198433,0.008621,-0.007019,0.986084,-0.054115,-0.004859,-0.03236,68.308731,11.618942,-148.079559,,,
729601174.754524,-0.959838,-0.847359,-10.20786,0.009598,-0.009033,0.988953,-0.054115,-0.004859,-0.03236,68.308731,11.618942,-148.079559,,,
729601174.757862,-0.959838,-0.847359,-10.20786,0.009598,-0.009033,0.988953,-0.054115,-0.004859,-0.03236,68.308731,11.618942,-148.079559,,,
729601174.761207,-0.971968,-0.8541,-10.218156,0.009598,-0.009033,0.988953,-0.037213,-0.024181,-0.039064,68.308731,11.618942,-148.079559,,,
729601174.76453,-0.982676,-0.866253,-10.229386,0.005997,-0.011841,0.997726,-0.037213,-0.024181,-0.039064,68.272812,11.759155,-147.945908,,,
729601174.767954,-0.982676,-0.866253,-10.229386,0.005997,-0.011841,0.997726,-0.037213,-0.024181,-0.039064,68.272812,11.759155,-147.945908,,,
729601174.771199,-0.986187,-0.882289,-10.240726,0.005997,-0.011841,0.997726,-0.005326,-0.059542,-0.040438,68.272812,11.759155,-147.945908,,,
729601174.774538,-0.9876,-0.902358,-10.250765,0.003311,-0.018906,1.003922,-0.005326,-0.059542,-0.040438,68.272812,11.759155,-147.945908,,,
729601174.777887,-0.9876,-0.902358,-10.250765,0.003311,-0.018906,1.003922,-0.005326,-0.059542,-0.040438,68.272812,11.759155,-147.945908,,,
729601174.781268,-0.985159,-0.922918,-10.258003,0.003311,-0.018906,1.003922,0.011264,-0.067603,-0.021263,68.272812,11.759155,-147.945908,,,
729601174.784516,-0.979872,-0.947172,-10.262581,-0.006042,-0.024155,1.003494,0.011264,-0.067603,-0.021263,68.272812,11.759155,-147.945908,,,
729601174.787858,-0.979872,-0.947172,-10.262581,-0.006042,-0.024155,1.003494,0.011264,-0.067603,-0.021263,68.272812,11.759155,-147.945908,,,
729601174.791195,-0.976773,-0.966824,-10.264847,-0.006042,-0.024155,1.003494,0.009534,-0.062451,-0.005588,68.272812,11.759155,-147.945908,,,
729601174.794529,-0.971399,-0.987,-10.265348,-0.002121,-0.020386,0.999359,0.009534,-0.062451,-0.005588,68.272812,11.759155,-147.945908,,,
729601174.79788,-0.971399,-0.987,-10.265348,-0.002121,-0.020386,0.999359,0.009534,-0.062451,-0.005588,68.272812,11.759155,-147.945908,,,
729601174.801206,-0.970496,-1.002033,-10.265224,-0.002121,-0.020386,0.999359,0.000798,-0.043972,-0.001337,68.272812,11.759155,-147.945908,,,
729601174.804528,-0.968989,-1.014535,-10.264957,0.011002,-0.016754,0.999161,0.000798,-0.043972,-0.001337,68.055283,11.582184,-148.039795,,,
729601174.807863,-0.968989,-1.014535,-10.264957,0.011002,-0.016754,0.999161,0.000798,-0.043972,-0.001337,68.055283,11.582184,-148.039795,,,
729601174.811193,-0.97358,-1.022403,-10.264834,0.011002,-0.016754,0.999161,-0.019621,-0.019095,-0.002107,68.055283,11.582184,-148.039795,,,
729601174.81453,-0.977638,-1.026122,-10.265458,0.014862,-0.014252,0.998062,-0.019621,-0.019095,-0.002107,68.055283,11.582184,-148.039795,,,
729601174.817929,-0.977638,-1.026122,-10.265458,0.014862,-0.014252,0.998062,-0.019621,-0.019095,-0.002107,68.055283,11.582184,-148.039795,,,
729601174.821195,-0.986068,-1.029808,-10.266824,0.014862,-0.014252,0.998062,-0.031897,-0.008201,-0.006886,68.055283,11.582184,-148.039795,,,
729601174.824526,-0.993981,-1.030558,-10.269061,0.018829,-0.008636,0.99704,-0.031897,-0.008201,-0.006886,68.055283,11.582184,-148.039795,,,
729601174.827887,-0.993981,-1.030558,-10.269061,0.018829,-0.008636,0.99704,-0.031897,-0.008201,-0.006886,68.055283,11.582184,-148.039795,,,
729601174.831191,-1.004688,-1.033327,-10.271696,0.018829,-0.008636,0.99704,-0.035501,-0.005265,-0.009338,68.055283,11.582184,-148.039795,,,
729601174.834524,-1.013538,-1.033413,-10.274438,0.017151,-0.008301,1.000061,-0.035501,-0.005265,-0.009338,68.055283,11.582184,-148.039795,,,
729601174.837903,-1.013538,-1.033413,-10.274438,0.017151,-0.008301,1.000061,-0.035501,-0.005265,-0.009338,68.055283,11.582184,-148.039795,,,
729601174.841207,-1.025046,-1.036633,-10.277179,0.017151,-0.008301,1.000061,-0.040048,-0.00956,-0.008928,68.055283,11.582184,-148.039795,,,
729601174.844532,-1.035659,-1.036746,-10.279576,0.015213,-0.012756,0.999908,-0.040048,-0.00956,-0.008928,68.055283,11.582184,-148.039795,,,
729601174.847872,-1.035659,-1.036746,-10.279576,0.015213,-0.012756,0.999908,-0.040048,-0.00956,-0.008928,68.297531,11.728058,-147.76886,,,
729601174.851203,-1.046318,-1.0403,-10.281848,0.015213,-0.012756,0.999908,-0.033841,-0.007866,-0.007701,68.297531,11.728058,-147.76886,,,
729601174.854545,-1.056121,-1.038852,-10.283913,0.016159,-0.014496,0.999557,-0.033841,-0.007866,-0.007701,68.297531,11.728058,-147.76886,,,
729601174.85795,-1.056121,-1.038852,-10.283913,0.016159,-0.014496,0.999557,-0.033841,-0.007866,-0.007701,68.297531,11.728058,-147.76886,,,
729601174.861198,-1.063174,-1.044361,-10.286369,0.016159,-0.014496,0.999557,-0.01779,-0.02073,-0.010022,68.297531,11.728058,-147.76886,,,
729601174.864527,-1.067151,-1.045547,-10.289071,0.021088,-0.013214,1.005554,-0.01779,-0.02073,-0.010022,68.297531,11.728058,-147.76886,,,
729601174.867878,-1.067151,-1.045547,-10.289071,0.021088,-0.013214,1.005554,-0.01779,-0.02073,-0.010022,68.297531,11.728058,-147.76886,,,
729601174.871257,-1.064649,-1.056648,-10.292327,0.021088,-0.013214,1.005554,0.017987,-0.038118,-0.013537,68.297531,11.728058,-147.76886,,,
729601174.874378,-1.064649,-1.056648,-10.292327,0.017242,-0.019913,1.014069,0.017987,-0.038118,-0.013537,68.297531,11.728058,-147.76886,,,
729601174.877905,-1.057667,-1.064227,-10.294564,0.017242,-0.019913,1.014069,0.017987,-0.038118,-0.013537,68.297531,11.728058,-147.76886,,,
729601174.881207,-1.046762,-1.075465,-10.295268,0.017242,-0.019913,1.014069,0.045049,-0.034766,-0.002832,68.297531,11.728058,-147.76886,,,
729601174.884525,-1.032866,-1.085174,-10.294459,0.01091,-0.02449,1.019394,0.045049,-0.034766,-0.002832,68.297531,11.728058,-147.76886,,,
729601174.887874,-1.032866,-1.085174,-10.294459,0.01091,-0.02449,1.019394,0.045049,-0.034766,-0.002832,68.080917,11.617157,-147.765869,,,
729601174.89122,-1.018302,-1.096368,-10.292115,0.01091,-0.02449,1.019394,0.052875,-0.035648,0.007892,68.080917,11.617157,-147.765869,,,
729601174.894527,-1.002092,-1.104434,-10.288904,0.012589,-0.021912,1.010391,0.052875,-0.035648,0.007892,68.080917,11.617157,-147.765869,,,
729601174.89795,-1.002092,-1.104434,-10.288904,0.012589,-0.021912,1.010391,0.052875,-0.035648,0.007892,68.080917,11.617157,-147.765869,,,
729601174.901202,-0.988069,-1.110337,-10.285859,0.012589,-0.021912,1.010391,0.047105,-0.012063,0.007007,68.080917,11.617157,-147.765869,,,
729601174.904536,-0.973377,-1.11326,-10.283323,0.018478,-0.014511,1.011581,0.047105,-0.012063,0.007007,68.080917,11.617157,-147.765869,,,
729601174.90789,-0.973377,-1.11326,-10.283323,0.018478,-0.014511,1.011581,0.047105,-0.012063,0.007007,68.080917,11.617157,-147.765869,,,
729601174.911302,-0.963007,-1.113109,-10.28053,0.018478,-0.014511,1.011581,0.033988,0.008376,0.009019,68.080917,11.617157,-147.765869,,,
729601174.914532,-0.953118,-1.109318,-10.277307,0.018875,-0.010559,1.002197,0.033988,0.008376,0.009019,68.080917,11.617157,-147.765869,,,
729601174.917868,-0.953118,-1.109318,-10.277307,0.018875,-0.010559,1.002197,0.033988,0.008376,0.009019,68.080917,11.617157,-147.765869,,,
729601174.921215,-0.946,-1.103975,-10.273484,0.018875,-0.010559,1.002197,0.026439,0.025074,0.013418,68.080917,11.617157,-147.765869,,,
729601174.924536,-0.938157,-1.096637,-10.268882,0.015137,-0.013031,0.999588,0.026439,0.025074,0.013418,68.080917,11.617157,-147.765869,,,
729601174.927861,-0.938157,-1.096637,-10.268882,0.015137,-0.013031,0.999588,0.026439,0.025074,0.013418,68.118057,11.725693,-147.907791,,,
729601174.931198,-0.931461,-1.091831,-10.263544,0.015137,-0.013031,0.999588,0.023677,0.015588,0.018745,68.118057,11.725693,-147.907791,,,
729601174.934528,-0.924559,-1.088385,-10.257583,0.016266,-0.012497,0.995361,0.023677,0.015588,0.018745,68.118057,11.725693,-147.907791,,,
729601174.937963,-0.924559,-1.088385,-10.257583,0.016266,-0.012497,0.995361,0.023677,0.015588,0.018745,68.118057,11.725693,-147.907791,,,
729601174.941204,-0.91797,-1.087309,-10.251178,0.016266,-0.012497,0.995361,0.025213,0.000872,0.021855,68.118057,11.725693,-147.907791,,,
729601174.944541,-0.910868,-1.090208,-10.244332,0.014572,-0.012802,0.986923,0.025213,0.000872,0.021855,68.118057,11.725693,-147.907791,,,
729601174.947882,-0.910868,-1.090208,-10.244332,0.014572,-0.012802,0.986923,0.025213,0.000872,0.021855,68.118057,11.725693,-147.907791,,,
729601174.951264,-0.904026,-1.09519,-10.23769,0.014572,-0.012802,0.986923,0.024954,-0.018882,0.020319,68.118057,11.725693,-147.907791,,,
729601174.954519,-0.904026,-1.09519,-10.23769,0.019043,-0.011932,0.985748,0.024954,-0.018882,0.020319,68.118057,11.725693,-147.907791,,,
729601174.957881,-0.899357,-1.100616,-10.231436,0.019043,-0.011932,0.985748,0.024954,-0.018882,0.020319,68.118057,11.725693,-147.907791,,,
729601174.961202,-0.893725,-1.109465,-10.226023,0.019043,-0.011932,0.985748,0.02066,-0.032744,0.014684,68.118057,11.725693,-147.907791,,,
729601174.964528,-0.893725,-1.118401,-10.221507,0.023468,-0.012894,0.982361,0.02066,-0.032744,0.014684,68.118057,11.725693,-147.907791,,,
729601174.967861,-0.89109,-1.118401,-10.221507,0.023468,-0.012894,0.982361,0.02066,-0.032744,0.014684,68.016525,11.616028,-147.959961,,,
729601174.971192,-0.88761,-1.131831,-10.217736,0.023468,-0.012894,0.982361,0.011394,-0.046815,0.00995,68.016525,11.616028,-147.959961,,,
729601174.974526,-0.88761,-1.131831,-10.217736,0.025085,-0.012909,0.981155,0.011394,-0.046815,0.00995,68.016525,11.616028,-147.959961,,,
729601174.977964,-0.885659,-1.144796,-10.214142,0.025085,-0.012909,0.981155,0.011394,-0.046815,0.00995,68.016525,11.616028,-147.959961,,,
729601174.981213,-0.884171,-1.160096,-10.210077,0.025085,-0.012909,0.981155,0.003318,-0.051899,0.013518,68.016525,11.616028,-147.959961,,,
729601174.984534,-0.884171,-1.160096,-10.210077,0.02298,-0.015808,0.984802,0.003318,-0.051899,0.013518,68.016525,11.616028,-147.959961,,,
729601174.987885,-0.883918,-1.17517,-10.20535,0.02298,-0.015808,0.984802,0.003318,-0.051899,0.013518,68.016525,11.616028,-147.959961,,,
729601174.991252,-0.886428,-1.18837,-10.19971,0.02298,-0.015808,0.984802,-0.010498,-0.038189,0.020173,68.016525,11.616028,-147.959961,,,
729601174.994607,-0.886428,-1.18837,-10.19971,0.021637,-0.019043,0.984894,-0.010498,-0.038189,0.020173,68.016525,11.616028,-147.959961,,,
729601174.997878,-0.889258,-1.198072,-10.192708,0.021637,-0.019043,0.984894,-0.010498,-0.038189,0.020173,68.016525,11.616028,-147.959961,,,
729601175.001215,-0.893887,-1.207082,-10.184375,0.021637,-0.019043,0.984894,-0.015764,-0.025522,0.029721,68.016525,11.616028,-147.959961,,,
729601175.004554,-0.893887,-1.207082,-10.184375,0.024048,-0.022079,0.99324,-0.015764,-0.025522,0.029721,68.016525,11.616028,-147.959961,,,
729601175.007891,-0.897652,-1.213593,-10.175295,0.024048,-0.022079,0.99324,-0.015764,-0.025522,0.029721,68.016525,11.616028,-147.959961,,,
729601175.011206,-0.90095,-1.221066,-10.166147,0.024048,-0.022079,0.99324,-0.008941,-0.022307,0.030185,67.788589,11.569656,-147.377121,,,
729601175.014619,-0.90095,-1.221066,-10.166147,0.031601,-0.021591,1.000122,-0.008941,-0.022307,0.030185,67.788589,11.569656,-147.377121,,,
729601175.017945,-0.902649,-1.226095,-10.157217,0.031601,-0.021591,1.000122,-0.008941,-0.022307,0.030185,67.788589,11.569656,-147.377121,,,
729601175.021209,-0.905038,-1.231646,-10.148937,0.031601,-0.021591,1.000122,-0.008575,-0.015423,0.025787,67.788589,11.569656,-147.377121,,,
729601175.024612,-0.905038,-1.231646,-10.148937,0.029099,-0.018631,0.997589,-0.008575,-0.015423,0.025787,67.788589,11.569656,-147.377121,,,
729601175.027868,-0.907617,-1.234837,-10.141749,0.029099,-0.018631,0.997589,-0.008575,-0.015423,0.025787,67.788589,11.569656,-147.377121,,,
729601175.031204,-0.912409,-1.239199,-10.135525,0.029099,-0.018631,0.997589,-0.018,-0.012001,0.019498,67.788589,11.569656,-147.377121,,,
729601175.034592,-0.912409,-1.239199,-10.135525,0.03125,-0.015594,0.990463,-0.018,-0.012001,0.019498,67.788589,11.569656,-147.377121,,,
729601175.03787,-0.917747,-1.243614,-10.130513,0.03125,-0.015594,0.990463,-0.018,-0.012001,0.019498,67.788589,11.569656,-147.377121,,,
729601175.041193,-0.925252,-1.248618,-10.126635,0.03125,-0.015594,0.990463,-0.026803,-0.015407,0.011857,67.788589,11.569656,-147.377121,,,
729601175.044529,-0.925252,-1.248618,-10.126635,0.03125,-0.015594,0.990463,-0.026803,-0.015407,0.011857,67.788589,11.569656,-147.377121,,,
729601175.047874,-0.933113,-1.255582,-10.124182,0.038712,-0.015411,0.987,-0.026803,-0.015407,0.011857,67.788589,11.569656,-147.377121,,,
729601175.051191,-0.941913,-1.263596,-10.123299,0.038712,-0.015411,0.987,-0.029294,-0.028108,0.000834,67.84729,11.610306,-147.755844,,,
729601175.054601,-0.941913,-1.263596,-10.123299,0.039566,-0.017059,0.986084,-0.029294,-0.028108,0.000834,67.84729,11.610306,-147.755844,,,
729601175.057862,-0.94974,-1.273799,-10.123646,0.039566,-0.017059,0.986084,-0.029294,-0.028108,0.000834,67.84729,11.610306,-147.755844,,,
