Time (sec),Pitch (deg),Roll (deg),Yaw(deg),X-Acceleration (g),Y-Acceleration (g),Z-Acceleration (g),Pitch Rate (deg/sec),Roll Rate (deg/sec),Yaw Rate (deg/sec),Magnetic Field in X direction (uT),Magnetic Field in Y direction (uT),Magnetic Field in Z Direction (uT),Latitude (deg),Longitude (deg),Altitude (m)
729606762.113134,2.270077,-1.503893,59.340402,0.003845,0.035294,1.012939,-0.001485,0.013491,0.009681,60.037704,21.865921,-146.556381,,,
729606762.116464,2.268383,-1.49951,59.344416,0.008087,0.03537,1.011597,-0.004796,0.018241,0.015071,60.037704,21.865921,-146.556381,,,
729606762.11982,2.268383,-1.49951,59.344416,0.008087,0.03537,1.011597,-0.004796,0.018241,0.015071,60.037704,21.865921,-146.556381,,,
729606762.123132,2.271577,-1.501539,59.349176,0.008087,0.03537,1.011597,-0.004796,0.018241,0.015071,60.037704,21.865921,-146.556381,,,
729606762.126609,2.270215,-1.495962,59.353297,0.009491,0.037827,1.011292,-0.006204,0.022468,0.010199,60.037704,21.865921,-146.556381,,,
729606762.129775,2.270215,-1.495962,59.353297,0.009491,0.037827,1.011292,-0.006204,0.022468,0.010199,60.037704,21.865921,-146.556381,,,
729606762.133142,2.272434,-1.494329,59.356591,0.009491,0.037827,1.011292,-0.006204,0.022468,0.010199,60.037704,21.865921,-146.556381,,,
729606762.136245,2.271127,-1.490997,59.35981,0.011612,0.039597,1.008881,-0.00332,0.016123,0.006503,59.678696,21.890778,-146.7211,,,
729606762.139873,2.271127,-1.490997,59.35981,0.011612,0.039597,1.008881,-0.00332,0.016123,0.006503,59.678696,21.890778,-146.7211,,,
729606762.143117,2.273165,-1.491342,59.364163,0.011612,0.039597,1.008881,-0.00332,0.016123,0.006503,59.678696,21.890778,-146.7211,,,
729606762.146458,2.272931,-1.493193,59.370401,0.01178,0.037338,0.998306,0.003097,-0.003584,0.020831,59.678696,21.890778,-146.7211,,,
729606762.149799,2.272931,-1.493193,59.370401,0.01178,0.037338,0.998306,0.003097,-0.003584,0.020831,59.678696,21.890778,-146.7211,,,
729606762.153216,2.273457,-1.494106,59.378514,0.01178,0.037338,0.998306,0.003097,-0.003584,0.020831,59.678696,21.890778,-146.7211,,,
729606762.156485,2.273814,-1.498935,59.388306,0.013153,0.034943,0.997437,0.00425,-0.015278,0.034645,59.678696,21.890778,-146.7211,,,
729606762.159814,2.273814,-1.498935,59.388306,0.013153,0.034943,0.997437,0.00425,-0.015278,0.034645,59.678696,21.890778,-146.7211,,,
729606762.163134,2.275483,-1.495511,59.399201,0.013153,0.034943,0.997437,0.00425,-0.015278,0.034645,59.678696,21.890778,-146.7211,,,
729606762.16646,2.278301,-1.499378,59.411561,0.021408,0.039886,0.999069,0.010137,-0.007801,0.040309,59.678696,21.890778,-146.7211,,,
729606762.169794,2.278301,-1.499378,59.411561,0.021408,0.039886,0.999069,0.010137,-0.007801,0.040309,59.678696,21.890778,-146.7211,,,
729606762.173131,2.281463,-1.492794,59.423861,0.021408,0.039886,0.999069,0.010137,-0.007801,0.040309,59.678696,21.890778,-146.7211,,,
729606762.176489,2.284694,-1.492897,59.436594,0.033981,0.045685,1.002518,0.015147,0.004078,0.039223,60.010101,21.72319,-146.492035,,,
729606762.179868,2.284694,-1.492897,59.436594,0.033981,0.045685,1.002518,0.015147,0.004078,0.039223,60.010101,21.72319,-146.492035,,,
729606762.183131,2.286391,-1.482462,59.448257,0.033981,0.045685,1.002518,0.015147,0.004078,0.039223,60.010101,21.72319,-146.492035,,,
729606762.186454,2.286012,-1.478664,59.458857,0.039658,0.050018,0.994293,0.002618,0.017689,0.03552,60.010101,21.72319,-146.492035,,,
729606762.189792,2.286012,-1.478664,59.458857,0.039658,0.050018,0.994293,0.002618,0.017689,0.03552,60.010101,21.72319,-146.492035,,,
729606762.193212,2.28125,-1.462601,59.468152,0.039658,0.050018,0.994293,0.002618,0.017689,0.03552,60.010101,21.72319,-146.492035,,,
729606762.196451,2.275288,-1.45348,59.477287,0.035339,0.046753,0.994476,-0.016693,0.037161,0.029521,60.010101,21.72319,-146.492035,,,
729606762.199811,2.275288,-1.45348,59.477287,0.035339,0.046753,0.994476,-0.016693,0.037161,0.029521,60.010101,21.72319,-146.492035,,,
729606762.203166,2.268469,-1.437416,59.48634,0.035339,0.046753,0.994476,-0.016693,0.037161,0.029521,60.010101,21.72319,-146.492035,,,
729606762.206456,2.262328,-1.430055,59.49656,0.025818,0.040924,0.994766,-0.020755,0.02853,0.034299,60.010101,21.72319,-146.492035,,,
729606762.209801,2.262328,-1.430055,59.49656,0.025818,0.040924,0.994766,-0.020755,0.02853,0.034299,60.010101,21.72319,-146.492035,,,
729606762.21313,2.256255,-1.418195,59.507597,0.025818,0.040924,0.994766,-0.020755,0.02853,0.034299,60.010101,21.72319,-146.492035,,,
729606762.216477,2.251452,-1.414703,59.51942,0.02301,0.03981,0.996979,-0.015158,0.019523,0.039355,59.745789,21.817383,-146.809097,,,
729606762.219858,2.251452,-1.414703,59.51942,0.02301,0.03981,0.996979,-0.015158,0.019523,0.039355,59.745789,21.817383,-146.809097,,,
729606762.223127,2.246763,-1.407013,59.530742,0.02301,0.03981,0.996979,-0.015158,0.019523,0.039355,59.745789,21.817383,-146.809097,,,
729606762.226466,2.242223,-1.406053,59.542143,0.026138,0.04184,0.99617,-0.012434,0.007727,0.03937,59.745789,21.817383,-146.809097,,,
729606762.229807,2.242223,-1.406053,59.542143,0.026138,0.04184,0.99617,-0.012434,0.007727,0.03937,59.745789,21.817383,-146.809097,,,
729606762.233193,2.237468,-1.400062,59.552955,0.026138,0.04184,0.99617,-0.012434,0.007727,0.03937,59.745789,21.817383,-146.809097,,,
729606762.236466,2.23349,-1.400074,59.56331,0.032227,0.041153,0.992035,-0.0116,0.002913,0.037799,59.745789,21.817383,-146.809097,,,
729606762.239813,2.23349,-1.400074,59.56331,0.032227,0.041153,0.992035,-0.0116,0.002913,0.037799,59.745789,21.817383,-146.809097,,,
729606762.243126,2.228244,-1.396737,59.573109,0.032227,0.041153,0.992035,-0.0116,0.002913,0.037799,59.745789,21.817383,-146.809097,,,
729606762.246469,2.222574,-1.396734,59.582319,0.037933,0.043594,0.993484,-0.018704,0.005417,0.029694,59.745789,21.817383,-146.809097,,,
729606762.24981,2.222574,-1.396734,59.582319,0.037933,0.043594,0.993484,-0.018704,0.005417,0.029694,59.745789,21.817383,-146.809097,,,
729606762.253145,2.21678,-1.396433,59.590485,0.037933,0.043594,0.993484,-0.018704,0.005417,0.029694,59.745789,21.817383,-146.809097,,,
729606762.256469,2.209523,-1.395338,59.597657,0.039307,0.042892,0.990723,-0.024841,0.00791,0.024553,59.745789,21.817383,-146.809097,,,
729606762.259853,2.209523,-1.395338,59.597657,0.039307,0.042892,0.990723,-0.024841,0.00791,0.024553,59.917328,21.961273,-146.793396,,,
729606762.263127,2.203769,-1.399976,59.604175,0.039307,0.042892,0.990723,-0.024841,0.00791,0.024553,59.917328,21.961273,-146.793396,,,
729606762.266484,2.203769,-1.397917,59.60955,0.038391,0.039719,0.994995,-0.0273,0.011803,0.017873,59.917328,21.961273,-146.793396,,,
729606762.269801,2.195772,-1.397917,59.60955,0.038391,0.039719,0.994995,-0.0273,0.011803,0.017873,59.917328,21.961273,-146.793396,,,
729606762.273208,2.189409,-1.400556,59.613639,0.038391,0.039719,0.994995,-0.0273,0.011803,0.017873,59.917328,21.961273,-146.793396,,,
729606762.276508,2.179218,-1.396997,59.616524,0.037537,0.037949,0.999023,-0.033973,0.016059,0.011933,59.917328,21.961273,-146.793396,,,
729606762.27981,2.179218,-1.396997,59.616524,0.037537,0.037949,0.999023,-0.033973,0.016059,0.011933,59.917328,21.961273,-146.793396,,,
729606762.283133,2.169436,-1.397728,59.619519,0.037537,0.037949,0.999023,-0.033973,0.016059,0.011933,59.917328,21.961273,-146.793396,,,
729606762.286553,2.157081,-1.396795,59.622206,0.029007,0.035355,0.994812,-0.040717,0.005158,0.011108,59.917328,21.961273,-146.793396,,,
729606762.28981,2.157081,-1.396795,59.622206,0.029007,0.035355,0.994812,-0.040717,0.005158,0.011108,59.917328,21.961273,-146.793396,,,
729606762.293154,2.14479,-1.396401,59.624945,0.029007,0.035355,0.994812,-0.040717,0.005158,0.011108,59.917328,21.961273,-146.793396,,,
729606762.296553,2.131749,-1.396536,59.62679,0.024521,0.032974,1.003616,-0.042844,0.002887,0.007638,59.917328,21.961273,-146.793396,,,
729606762.299877,2.131749,-1.396536,59.62679,0.024521,0.032974,1.003616,-0.042844,0.002887,0.007638,60.024948,21.858521,-146.523224,,,
729606762.30312,2.118389,-1.397074,59.626461,0.024521,0.032974,1.003616,-0.042844,0.002887,0.007638,60.024948,21.858521,-146.523224,,,
729606762.306503,2.118389,-1.398698,59.62433,0.023315,0.033493,1.005875,-0.054865,-0.004979,-0.007032,60.024948,21.858521,-146.523224,,,
729606762.3098,2.102604,-1.398698,59.62433,0.023315,0.033493,1.005875,-0.054865,-0.004979,-0.007032,60.024948,21.858521,-146.523224,,,
729606762.313198,2.087657,-1.40198,59.620648,0.023315,0.033493,1.005875,-0.054865,-0.004979,-0.007032,60.024948,21.858521,-146.523224,,,
729606762.316447,2.087657,-1.40198,59.620648,0.023315,0.033493,1.005875,-0.054865,-0.004979,-0.007032,60.024948,21.858521,-146.523224,,,
729606762.319818,2.072214,-1.403273,59.61538,0.018875,0.029678,1.010666,-0.052649,-0.000258,-0.018137,60.024948,21.858521,-146.523224,,,
729606762.323124,2.058958,-1.409991,59.610091,0.018875,0.029678,1.010666,-0.052649,-0.000258,-0.018137,60.024948,21.858521,-146.523224,,,
729606762.326496,2.058958,-1.413734,59.605431,0.009949,0.024216,1.014572,-0.04888,-0.008118,-0.018446,60.024948,21.858521,-146.523224,,,
729606762.329812,2.045434,-1.413734,59.605431,0.009949,0.024216,1.014572,-0.04888,-0.008118,-0.018446,60.024948,21.858521,-146.523224,,,
729606762.333131,2.034901,-1.423712,59.602411,0.009949,0.024216,1.014572,-0.04888,-0.008118,-0.018446,60.024948,21.858521,-146.523224,,,
729606762.336461,2.034901,-1.423712,59.602411,0.009949,0.024216,1.014572,-0.04888,-0.006127,-0.007576,60.024948,21.858521,-146.523224,,,
729606762.339788,2.024398,-1.42655,59.60065,0.007904,0.021347,1.013626,-0.034435,-0.006127,-0.007576,60.007996,22.083313,-146.619324,,,
729606762.343141,2.017449,-1.433295,59.600776,0.007904,0.021347,1.013626,-0.034435,-0.006127,-0.007576,60.007996,22.083313,-146.619324,,,
729606762.346452,2.017449,-1.433295,59.600776,0.007904,0.021347,1.013626,-0.034435,-0.006127,-0.007576,60.007996,22.083313,-146.619324,,,
729606762.349849,2.010894,-1.432623,59.602388,0.009766,0.022171,1.017288,-0.02428,0.006153,0.00429,60.007996,22.083313,-146.619324,,,
729606762.353116,2.007174,-1.435699,59.604813,0.009766,0.022171,1.017288,-0.02428,0.006153,0.00429,60.007996,22.083313,-146.619324,,,
729606762.356456,2.007174,-1.435699,59.604813,0.009766,0.022171,1.017288,-0.02428,0.006153,0.00429,60.007996,22.083313,-146.619324,,,
729606762.359797,2.005085,-1.430817,59.607093,0.016296,0.024734,1.016083,-0.004651,0.021628,0.007087,60.007996,22.083313,-146.619324,,,
729606762.363187,2.00628,-1.428532,59.609058,0.016296,0.024734,1.016083,-0.004651,0.021628,0.007087,60.007996,22.083313,-146.619324,,,
729606762.36646,2.00628,-1.428532,59.609058,0.016296,0.024734,1.016083,-0.004651,0.021628,0.007087,60.007996,22.083313,-146.619324,,,
729606762.369791,2.009694,-1.42154,59.610414,0.021317,0.024231,1.011841,0.012128,0.027664,0.001793,60.007996,22.083313,-146.619324,,,
729606762.373134,2.014611,-1.414519,59.611697,0.021317,0.024231,1.011841,0.012128,0.027664,0.001793,60.007996,22.083313,-146.619324,,,
729606762.376536,2.014611,-1.414519,59.611697,0.021317,0.024231,1.011841,0.012128,0.027664,0.001793,60.007996,22.083313,-146.619324,,,
729606762.379782,2.020753,-1.407085,59.61389,0.020645,0.023575,1.002365,0.021503,0.029698,0.007174,59.985748,22.071976,-146.647858,,,
729606762.383147,2.02695,-1.400202,59.617173,0.020645,0.023575,1.002365,0.021503,0.029698,0.007174,59.985748,22.071976,-146.647858,,,
729606762.386483,2.02695,-1.400202,59.617173,0.020645,0.023575,1.002365,0.021503,0.029698,0.007174,59.985748,22.071976,-146.647858,,,
729606762.389787,2.032579,-1.39447,59.621008,0.022293,0.026352,0.994766,0.018124,0.024532,0.010356,59.985748,22.071976,-146.647858,,,
729606762.39315,2.035812,-1.39029,59.624959,0.022293,0.026352,0.994766,0.018124,0.024532,0.010356,59.985748,22.071976,-146.647858,,,
729606762.396581,2.035812,-1.39029,59.624959,0.022293,0.026352,0.994766,0.018124,0.024532,0.010356,59.985748,22.071976,-146.647858,,,
729606762.399789,2.038186,-1.38915,59.628537,0.025238,0.029739,0.985504,0.008531,0.008021,0.012933,59.985748,22.071976,-146.647858,,,
729606762.403208,2.037248,-1.385495,59.630601,0.025238,0.029739,0.985504,0.008531,0.008021,0.012933,59.985748,22.071976,-146.647858,,,
729606762.406502,2.037248,-1.385495,59.630601,0.025238,0.029739,0.985504,0.008531,0.008021,0.012933,59.985748,22.071976,-146.647858,,,
729606762.409804,2.037741,-1.386858,59.630792,0.029404,0.032242,0.985046,0.001537,-0.002392,0.000495,59.985748,22.071976,-146.647858,,,
729606762.413142,2.035649,-1.382792,59.629379,0.029404,0.032242,0.985046,0.001537,-0.002392,0.000495,59.985748,22.071976,-146.647858,,,
729606762.41655,2.035649,-1.382792,59.629379,0.029404,0.032242,0.985046,0.001537,-0.002392,0.000495,59.985748,22.071976,-146.647858,,,
729606762.419888,2.036811,-1.385117,59.627412,0.033646,0.037476,0.988541,0.00402,-0.00505,-0.00847,59.985748,22.071976,-146.647858,,,
729606762.423119,2.035536,-1.378043,59.624789,0.033646,0.037476,0.988541,0.00402,-0.00505,-0.00847,60.036621,21.893326,-146.743118,,,
729606762.426548,2.035536,-1.378043,59.624789,0.033646,0.037476,0.988541,0.00402,-0.00505,-0.00847,60.036621,21.893326,-146.743118,,,
729606762.429871,2.039494,-1.375214,59.622687,0.032928,0.03273,0.995361,0.013325,0.011234,-0.010139,60.036621,21.893326,-146.743118,,,
729606762.433134,2.042142,-1.365275,59.621016,0.032928,0.03273,0.995361,0.013325,0.011234,-0.010139,60.036621,21.893326,-146.743118,,,
729606762.43651,2.042142,-1.365275,59.621016,0.032928,0.03273,0.995361,0.013325,0.011234,-0.010139,60.036621,21.893326,-146.743118,,,
729606762.439794,2.048958,-1.358482,59.619962,0.035568,0.031769,0.994308,0.025,0.026661,-0.005077,60.036621,21.893326,-146.743118,,,
729606762.443166,2.054076,-1.347606,59.619793,0.035568,0.031769,0.994308,0.025,0.026661,-0.005077,60.036621,21.893326,-146.743118,,,
729606762.446464,2.054076,-1.347606,59.619793,0.035568,0.031769,0.994308,0.025,0.026661,-0.005077,60.036621,21.893326,-146.743118,,,
729606762.449811,2.061843,-1.336252,59.620405,0.033783,0.035538,0.989288,0.02969,0.04281,0.001002,60.036621,21.893326,-146.743118,,,
729606762.453132,2.067057,-1.322977,59.620588,0.033783,0.035538,0.989288,0.02969,0.04281,0.001002,60.036621,21.893326,-146.743118,,,
729606762.456533,2.067057,-1.322977,59.620588,0.033783,0.035538,0.989288,0.02969,0.04281,0.001002,60.036621,21.893326,-146.743118,,,
729606762.459796,2.075144,-1.310581,59.61997,0.033157,0.041061,0.983704,0.028143,0.046711,-0.004638,60.036621,21.893326,-146.743118,,,
729606762.463131,2.079483,-1.298393,59.618552,0.033157,0.041061,0.983704,0.028143,0.046711,-0.004638,60.00087,21.913116,-146.643616,,,
729606762.466499,2.079483,-1.298393,59.618552,0.033157,0.041061,0.983704,0.028143,0.046711,-0.004638,60.00087,21.913116,-146.643616,,,
729606762.469832,2.086026,-1.289571,59.61633,0.029907,0.042847,0.977478,0.022169,0.036013,-0.011717,60.00087,21.913116,-146.643616,,,
729606762.473141,2.091434,-1.283482,59.612833,0.029907,0.042847,0.977478,0.022169,0.036013,-0.011717,60.00087,21.913116,-146.643616,,,
729606762.47647,2.091434,-1.283482,59.612833,0.029907,0.042847,0.977478,0.022169,0.036013,-0.011717,60.00087,21.913116,-146.643616,,,
729606762.479812,2.098712,-1.278833,59.608438,0.027039,0.040604,0.97937,0.025484,0.018618,-0.017814,60.00087,21.913116,-146.643616,,,
729606762.483186,2.104723,-1.27705,59.604687,0.027039,0.040604,0.97937,0.025484,0.018618,-0.017814,60.00087,21.913116,-146.643616,,,
729606762.486466,2.104723,-1.27705,59.604687,0.027039,0.040604,0.97937,0.025484,0.018618,-0.017814,60.00087,21.913116,-146.643616,,,
729606762.489801,2.111842,-1.274424,59.60203,0.019257,0.038666,0.984665,0.027277,0.008406,-0.011885,60.00087,21.913116,-146.643616,,,
729606762.493143,2.117597,-1.275904,59.601416,0.019257,0.038666,0.984665,0.027277,0.008406,-0.011885,60.00087,21.913116,-146.643616,,,
729606762.496552,2.117597,-1.275904,59.601416,0.019257,0.038666,0.984665,0.027277,0.008406,-0.011885,60.00087,21.913116,-146.643616,,,
729606762.499788,2.123766,-1.271755,59.603378,0.013947,0.035568,0.986618,0.023355,0.019458,0.001949,60.00087,21.913116,-146.643616,,,
729606762.503129,2.130075,-1.271565,59.606588,0.013947,0.035568,0.986618,0.023355,0.019458,0.001949,60.015427,21.993591,-146.810928,,,
729606762.506469,2.130075,-1.271565,59.606588,0.013947,0.035568,0.986618,0.023355,0.019458,0.001949,60.015427,21.993591,-146.810928,,,
729606762.509851,2.136176,-1.266526,59.609402,0.020325,0.038223,0.991272,0.023866,0.022419,0.010855,60.015427,21.993591,-146.810928,,,
729606762.513138,2.139956,-1.266457,59.612541,0.020325,0.038223,0.991272,0.023866,0.022419,0.010855,60.015427,21.993591,-146.810928,,,
729606762.516467,2.139956,-1.266457,59.612541,0.020325,0.038223,0.991272,0.023866,0.022419,0.010855,60.015427,21.993591,-146.810928,,,
729606762.519799,2.143514,-1.261711,59.615599,0.027527,0.043396,0.987549,0.012883,0.021009,0.007346,60.015427,21.993591,-146.810928,,,
729606762.523183,2.14473,-1.26212,59.618403,0.027527,0.043396,0.987549,0.012883,0.021009,0.007346,60.015427,21.993591,-146.810928,,,
729606762.526455,2.14473,-1.26212,59.618403,0.027527,0.043396,0.987549,0.012883,0.021009,0.007346,60.015427,21.993591,-146.810928,,,
729606762.529805,2.145445,-1.257701,59.62058,0.027664,0.044617,0.986252,0.004655,0.020357,0.00795,60.015427,21.993591,-146.810928,,,
729606762.53315,2.144107,-1.259937,59.622447,0.027664,0.044617,0.986252,0.004655,0.020357,0.00795,60.015427,21.993591,-146.810928,,,
729606762.536448,2.144107,-1.259937,59.622447,0.027664,0.044617,0.986252,0.004655,0.020357,0.00795,60.015427,21.993591,-146.810928,,,
729606762.539803,2.140508,-1.261014,59.623974,0.029068,0.043167,0.983932,-0.011274,-0.000678,0.005553,60.015427,21.993591,-146.810928,,,
729606762.543126,2.136816,-1.269249,59.625845,0.029068,0.043167,0.983932,-0.011274,-0.000678,0.005553,60.067947,21.909439,-146.78212,,,
729606762.54646,2.136816,-1.269249,59.625845,0.029068,0.043167,0.983932,-0.011274,-0.000678,0.005553,60.067947,21.909439,-146.78212,,,
729606762.549848,2.131246,-1.276619,59.627445,0.029999,0.037201,0.987503,-0.017163,-0.022171,0.004919,60.067947,21.909439,-146.78212,,,
729606762.553134,2.126611,-1.288143,59.628879,0.029999,0.037201,0.987503,-0.017163,-0.022171,0.004919,60.067947,21.909439,-146.78212,,,
729606762.556459,2.126611,-1.288143,59.628879,0.029999,0.037201,0.987503,-0.017163,-0.022171,0.004919,60.067947,21.909439,-146.78212,,,
729606762.559801,2.121473,-1.296426,59.630134,0.028229,0.031448,1.000443,-0.019275,-0.025466,0.002609,60.067947,21.909439,-146.78212,,,
729606762.563191,2.117577,-1.304138,59.631139,0.028229,0.031448,1.000443,-0.019275,-0.025466,0.002609,60.067947,21.909439,-146.78212,,,
729606762.566454,2.117577,-1.304138,59.631139,0.028229,0.031448,1.000443,-0.019275,-0.025466,0.002609,60.067947,21.909439,-146.78212,,,
729606762.569807,2.113911,-1.307967,59.631676,0.028687,0.029846,1.015915,-0.010054,-0.012095,0.001543,60.067947,21.909439,-146.78212,,,
729606762.573133,2.111787,-1.305248,59.631752,0.028687,0.029846,1.015915,-0.010054,-0.012095,0.001543,60.067947,21.909439,-146.78212,,,
729606762.576489,2.111787,-1.305248,59.631752,0.028687,0.029846,1.015915,-0.010054,-0.012095,0.001543,60.067947,21.909439,-146.78212,,,
729606762.579799,2.110314,-1.301572,59.632446,0.027115,0.025208,1.021179,-0.005125,0.016605,-0.001537,60.067947,21.909439,-146.78212,,,
729606762.583131,2.10913,-1.291129,59.634518,0.027115,0.025208,1.021179,-0.005125,0.016605,-0.001537,60.067947,21.909439,-146.78212,,,
729606762.586472,2.10913,-1.291129,59.634518,0.027115,0.025208,1.021179,-0.005125,0.016605,-0.001537,59.965363,21.962402,-146.678513,,,
729606762.589861,2.109372,-1.280329,59.6375,0.018173,0.018661,1.024612,-0.000168,0.039827,0.008544,59.965363,21.962402,-146.678513,,,
729606762.593133,2.111361,-1.269829,59.641235,0.018173,0.018661,1.024612,-0.000168,0.039827,0.008544,59.965363,21.962402,-146.678513,,,
729606762.596477,2.111361,-1.269829,59.641235,0.018173,0.018661,1.024612,-0.000168,0.039827,0.008544,59.965363,21.962402,-146.678513,,,
729606762.599801,2.112961,-1.259774,59.645797,0.016846,0.021194,1.020676,0.00673,0.039574,0.012069,59.965363,21.962402,-146.678513,,,
729606762.603192,2.117883,-1.254559,59.650434,0.016846,0.021194,1.020676,0.00673,0.039574,0.012069,59.965363,21.962402,-146.678513,,,
729606762.606457,2.117883,-1.254559,59.650434,0.016846,0.021194,1.020676,0.00673,0.039574,0.012069,59.965363,21.962402,-146.678513,,,
729606762.609805,2.122311,-1.249306,59.654275,0.015121,0.024521,1.013977,0.013759,0.022538,0.011615,59.965363,21.962402,-146.678513,,,
729606762.61313,2.129389,-1.248488,59.657646,0.015121,0.024521,1.013977,0.013759,0.022538,0.011615,59.965363,21.962402,-146.678513,,,
729606762.616519,2.129389,-1.248488,59.657646,0.015121,0.024521,1.013977,0.013759,0.022538,0.011615,59.965363,21.962402,-146.678513,,,
729606762.619795,2.134896,-1.246607,59.660709,0.007233,0.02536,1.01355,0.020927,0.009313,0.008484,59.965363,21.962402,-146.678513,,,
729606762.623122,2.140999,-1.250497,59.664074,0.007233,0.02536,1.01355,0.020927,0.009313,0.008484,59.965363,21.962402,-146.678513,,,
729606762.626448,2.140999,-1.250497,59.664074,0.007233,0.02536,1.01355,0.020927,0.009313,0.008484,60.013977,21.787109,-147.076904,,,
729606762.629868,2.146272,-1.252683,59.667878,0.006332,0.024643,1.007538,0.021016,-0.002327,0.012667,60.013977,21.787109,-147.076904,,,
729606762.633123,2.15192,-1.259179,59.672556,0.006332,0.024643,1.007538,0.021016,-0.002327,0.012667,60.013977,21.787109,-147.076904,,,
729606762.636474,2.15192,-1.259179,59.672556,0.006332,0.024643,1.007538,0.021016,-0.002327,0.012667,60.013977,21.787109,-147.076904,,,
729606762.639818,2.158782,-1.264278,59.677786,0.012436,0.022141,1.00592,0.025397,-0.015716,0.017553,60.013977,21.787109,-147.076904,,,
729606762.643161,2.164699,-1.273841,59.683614,0.012436,0.022141,1.00592,0.025397,-0.015716,0.017553,60.013977,21.787109,-147.076904,,,
729606762.646468,2.164699,-1.273841,59.683614,0.012436,0.022141,1.00592,0.025397,-0.015716,0.017553,60.013977,21.787109,-147.076904,,,
729606762.649822,2.17267,-1.280868,59.68942,0.023727,0.024139,1.001984,0.026403,-0.019594,0.016907,60.013977,21.787109,-147.076904,,,
729606762.653114,2.177838,-1.288799,59.694594,0.023727,0.024139,1.001984,0.026403,-0.019594,0.016907,60.013977,21.787109,-147.076904,,,
729606762.656514,2.177838,-1.288799,59.694594,0.023727,0.024139,1.001984,0.026403,-0.019594,0.016907,60.013977,21.787109,-147.076904,,,
729606762.659808,2.182925,-1.292138,59.698515,0.030472,0.031876,0.99617,0.020079,-0.010175,0.012844,60.013977,21.787109,-147.076904,,,
729606762.66313,2.181353,-1.294352,59.70125,0.030472,0.031876,0.99617,0.020079,-0.010175,0.012844,60.013977,21.787109,-147.076904,,,
729606762.666452,2.181353,-1.294352,59.70125,0.030472,0.031876,0.99617,0.020079,-0.010175,0.012844,59.904327,21.853973,-147.008484,,,
729606762.669807,2.179621,-1.295619,59.702327,0.034454,0.037537,0.989716,-0.002811,0.000821,0.003337,59.904327,21.853973,-147.008484,,,
729606762.673157,2.170323,-1.294534,59.702143,0.034454,0.037537,0.989716,-0.002811,0.000821,0.003337,59.904327,21.853973,-147.008484,,,
729606762.676479,2.170323,-1.294534,59.702143,0.034454,0.037537,0.989716,-0.002811,0.000821,0.003337,59.904327,21.853973,-147.008484,,,
729606762.679805,2.162974,-1.296787,59.700909,0.03479,0.036438,0.986191,-0.02396,-0.004692,-0.005435,59.904327,21.853973,-147.008484,,,
729606762.683117,2.151319,-1.297936,59.698136,0.03479,0.036438,0.986191,-0.02396,-0.004692,-0.005435,59.904327,21.853973,-147.008484,,,
729606762.686471,2.151319,-1.297936,59.698136,0.03479,0.036438,0.986191,-0.02396,-0.004692,-0.005435,59.904327,21.853973,-147.008484,,,
729606762.689814,2.143518,-1.304097,59.69481,0.028488,0.034042,0.991013,-0.025846,-0.017772,-0.011176,59.904327,21.853973,-147.008484,,,
729606762.693193,2.133924,-1.307241,59.691424,0.028488,0.034042,0.991013,-0.025846,-0.017772,-0.011176,59.904327,21.853973,-147.008484,,,
729606762.696462,2.133924,-1.307241,59.691424,0.028488,0.034042,0.991013,-0.025846,-0.017772,-0.011176,59.904327,21.853973,-147.008484,,,
729606762.699812,2.128512,-1.313815,59.688732,0.025726,0.032043,1.00032,-0.019438,-0.020388,-0.010407,59.904327,21.853973,-147.008484,,,
729606762.703135,2.121622,-1.311533,59.686648,0.025726,0.032043,1.00032,-0.019438,-0.020388,-0.010407,59.904327,21.853973,-147.008484,,,
729606762.706452,2.121622,-1.311533,59.686648,0.025726,0.032043,1.00032,-0.019438,-0.020388,-0.010407,59.904327,21.853973,-147.008484,,,
729606762.709792,2.118449,-1.315426,59.685856,0.024887,0.033737,1.009003,-0.011016,-0.010499,-0.00329,59.845123,21.936066,-147.071259,,,
729606762.713145,2.11166,-1.311211,59.685647,0.024887,0.033737,1.009003,-0.011016,-0.010499,-0.00329,59.845123,21.936066,-147.071259,,,
729606762.716471,2.11166,-1.311211,59.685647,0.024887,0.033737,1.009003,-0.011016,-0.010499,-0.00329,59.845123,21.936066,-147.071259,,,
729606762.719891,2.10624,-1.310295,59.686059,0.029816,0.033707,1.005493,-0.018814,0.005921,0.002161,59.845123,21.936066,-147.071259,,,
729606762.723114,2.095822,-1.30356,59.686053,0.029816,0.033707,1.005493,-0.018814,0.005921,0.002161,59.845123,21.936066,-147.071259,,,
729606762.72648,2.095822,-1.30356,59.686053,0.029816,0.033707,1.005493,-0.018814,0.005921,0.002161,59.845123,21.936066,-147.071259,,,
729606762.729814,2.086988,-1.296926,59.685552,0.038177,0.038559,1.004608,-0.030379,0.027068,-0.000773,59.845123,21.936066,-147.071259,,,
729606762.733187,2.075413,-1.29056,59.683973,0.038177,0.038559,1.004608,-0.030379,0.027068,-0.000773,59.845123,21.936066,-147.071259,,,
729606762.736461,2.075413,-1.29056,59.683973,0.038177,0.038559,1.004608,-0.030379,0.027068,-0.000773,59.845123,21.936066,-147.071259,,,
729606762.739815,2.066015,-1.282915,59.681445,0.039368,0.04213,1.003937,-0.034967,0.033109,-0.01017,59.845123,21.936066,-147.071259,,,
729606762.743137,2.0573,-1.280363,59.677913,0.039368,0.04213,1.003937,-0.034967,0.033109,-0.01017,59.845123,21.936066,-147.071259,,,
729606762.746552,2.0573,-1.280363,59.677913,0.039368,0.04213,1.003937,-0.034967,0.033109,-0.01017,59.845123,21.936066,-147.071259,,,
729606762.749816,2.05048,-1.275257,59.6731,0.033798,0.040039,1.005432,-0.02342,0.019199,-0.018561,59.914902,21.921265,-146.851105,,,
729606762.753137,2.045592,-1.277334,59.6677,0.033798,0.040039,1.005432,-0.02342,0.019199,-0.018561,59.914902,21.921265,-146.851105,,,
729606762.756461,2.045592,-1.277334,59.6677,0.033798,0.040039,1.005432,-0.02342,0.019199,-0.018561,59.914902,21.921265,-146.851105,,,
729606762.759873,2.041299,-1.276182,59.661872,0.024246,0.036087,1.005615,-0.013997,0.007285,-0.020875,59.914902,21.921265,-146.851105,,,
729606762.763122,2.037893,-1.281962,59.657022,0.024246,0.036087,1.005615,-0.013997,0.007285,-0.020875,59.914902,21.921265,-146.851105,,,
729606762.76647,2.037893,-1.281962,59.657022,0.024246,0.036087,1.005615,-0.013997,0.007285,-0.020875,59.914902,21.921265,-146.851105,,,
729606762.769805,2.035627,-1.285448,59.651898,0.02063,0.032791,1.000183,-0.009823,-0.010478,-0.019272,59.914902,21.921265,-146.851105,,,
729606762.773193,2.033624,-1.290971,59.646916,0.02063,0.032791,1.000183,-0.009823,-0.010478,-0.019272,59.914902,21.921265,-146.851105,,,
729606762.776463,2.033624,-1.290971,59.646916,0.02063,0.032791,1.000183,-0.009823,-0.010478,-0.019272,59.914902,21.921265,-146.851105,,,
729606762.779805,2.033106,-1.293407,59.642106,0.025925,0.03183,0.998428,-0.001272,-0.006353,-0.019182,59.914902,21.921265,-146.851105,,,
729606762.783138,2.032529,-1.295579,59.636745,0.025925,0.03183,0.998428,-0.001272,-0.006353,-0.019182,59.914902,21.921265,-146.851105,,,
729606762.786452,2.032529,-1.295579,59.636745,0.025925,0.03183,0.998428,-0.001272,-0.006353,-0.019182,59.914902,21.921265,-146.851105,,,
729606762.789801,2.032157,-1.296135,59.630308,0.031937,0.038254,0.991699,-0.00366,-0.000501,-0.025089,59.96257,22.200577,-146.84581,,,
729606762.793122,2.030752,-1.297289,59.623068,0.031937,0.038254,0.991699,-0.00366,-0.000501,-0.025089,59.96257,22.200577,-146.84581,,,
729606762.79647,2.030752,-1.297289,59.623068,0.031937,0.038254,0.991699,-0.00366,-0.000501,-0.025089,59.96257,22.200577,-146.84581,,,
729606762.799857,2.028699,-1.2965,59.615867,0.029404,0.046112,0.983368,-0.008317,0.002655,-0.022788,59.96257,22.200577,-146.84581,,,
729606762.803145,2.024077,-1.299253,59.610019,0.029404,0.046112,0.983368,-0.008317,0.002655,-0.022788,59.96257,22.200577,-146.84581,,,
729606762.806476,2.024077,-1.299253,59.610019,0.029404,0.046112,0.983368,-0.008317,0.002655,-0.022788,59.96257,22.200577,-146.84581,,,
729606762.809813,2.016878,-1.297183,59.605714,0.017624,0.04126,0.975357,-0.022757,0.009957,-0.015457,59.96257,22.200577,-146.84581,,,
729606762.813205,2.008072,-1.302044,59.603738,0.017624,0.04126,0.975357,-0.022757,0.009957,-0.015457,59.96257,22.200577,-146.84581,,,
729606762.816472,2.008072,-1.302044,59.603738,0.017624,0.04126,0.975357,-0.022757,0.009957,-0.015457,59.96257,22.200577,-146.84581,,,
729606762.819816,1.995663,-1.301351,59.60364,0.013687,0.037781,0.971863,-0.040923,0.005522,-0.000175,59.96257,22.200577,-146.84581,,,
729606762.823139,1.982399,-1.308757,59.605504,0.013687,0.037781,0.971863,-0.040923,0.005522,-0.000175,59.96257,22.200577,-146.84581,,,
729606762.826452,1.982399,-1.308757,59.605504,0.013687,0.037781,0.971863,-0.040923,0.005522,-0.000175,59.96257,22.200577,-146.84581,,,
729606762.829796,1.966768,-1.311813,59.608098,0.012756,0.036804,0.973022,-0.053184,-0.005874,0.008082,59.784531,22.23587,-147.064117,,,
729606762.833138,1.952247,-1.319339,59.60978,0.012756,0.036804,0.973022,-0.053184,-0.005874,0.008082,59.784531,22.23587,-147.064117,,,
729606762.836536,1.952247,-1.319339,59.60978,0.012756,0.036804,0.973022,-0.053184,-0.005874,0.008082,59.784531,22.23587,-147.064117,,,
729606762.83979,1.937491,-1.325372,59.609748,0.017197,0.039368,0.985107,-0.053391,-0.015202,-0.000406,59.784531,22.23587,-147.064117,,,
729606762.843137,1.923573,-1.331692,59.607513,0.017197,0.039368,0.985107,-0.053391,-0.015202,-0.000406,59.784531,22.23587,-147.064117,,,
729606762.846463,1.923573,-1.331692,59.607513,0.017197,0.039368,0.985107,-0.053391,-0.015202,-0.000406,59.784531,22.23587,-147.064117,,,
729606762.849871,1.909114,-1.338637,59.603461,0.021835,0.0439,0.991943,-0.051018,-0.020534,-0.014953,59.784531,22.23587,-147.064117,,,
729606762.853133,1.894519,-1.34399,59.598362,0.021835,0.0439,0.991943,-0.051018,-0.020534,-0.014953,59.784531,22.23587,-147.064117,,,
729606762.85647,1.894519,-1.34399,59.598362,0.021835,0.0439,0.991943,-0.051018,-0.020534,-0.014953,59.784531,22.23587,-147.064117,,,
729606762.859811,1.880455,-1.34934,59.592448,0.018188,0.04126,0.998184,-0.049826,-0.015747,-0.021501,59.784531,22.23587,-147.064117,,,
729606762.863188,1.866208,-1.357332,59.586483,0.018188,0.04126,0.998184,-0.049826,-0.015747,-0.021501,59.784531,22.23587,-147.064117,,,
729606762.866459,1.866208,-1.357332,59.586483,0.018188,0.04126,0.998184,-0.049826,-0.015747,-0.021501,59.784531,22.23587,-147.064117,,,
729606762.869789,1.850833,-1.36366,59.580753,0.019135,0.03476,0.994919,-0.054466,-0.021132,-0.022686,60.109741,22.243393,-146.325867,,,
729606762.872927,1.836948,-1.373068,59.575111,0.019135,0.03476,0.994919,-0.054466,-0.021132,-0.022686,60.109741,22.243393,-146.325867,,,
729606762.876537,1.836948,-1.373068,59.575111,0.019135,0.03476,0.994919,-0.054466,-0.021132,-0.022686,60.109741,22.243393,-146.325867,,,
729606762.879779,1.821263,-1.377885,59.569311,0.0186,0.028839,0.998779,-0.053298,-0.016088,-0.018948,60.109741,22.243393,-146.325867,,,
729606762.883133,1.809941,-1.382059,59.563663,0.0186,0.028839,0.998779,-0.053298,-0.016088,-0.018948,60.109741,22.243393,-146.325867,,,
729606762.886462,1.809941,-1.382059,59.563663,0.0186,0.028839,0.998779,-0.053298,-0.016088,-0.018948,60.109741,22.243393,-146.325867,,,
729606762.889875,1.797477,-1.38425,59.558172,0.021713,0.033081,1.006699,-0.040638,-0.007365,-0.018505,60.109741,22.243393,-146.325867,,,
729606762.893147,1.789069,-1.381824,59.553325,0.021713,0.033081,1.006699,-0.040638,-0.007365,-0.018505,60.109741,22.243393,-146.325867,,,
729606762.89647,1.789069,-1.381824,59.553325,0.021713,0.033081,1.006699,-0.040638,-0.007365,-0.018505,60.109741,22.243393,-146.325867,,,
729606762.899819,1.780904,-1.381078,59.550047,0.019745,0.028503,1.010559,-0.029604,0.003738,-0.013771,60.109741,22.243393,-146.325867,,,
729606762.903185,1.77654,-1.374878,59.548423,0.019745,0.028503,1.010559,-0.029604,0.003738,-0.013771,60.109741,22.243393,-146.325867,,,
729606762.90646,1.77654,-1.374878,59.548423,0.019745,0.028503,1.010559,-0.029604,0.003738,-0.013771,60.109741,22.243393,-146.325867,,,
729606762.909799,1.772714,-1.372071,59.547817,0.021408,0.021301,1.011566,-0.011969,0.013096,-0.004428,60.109741,22.243393,-146.325867,,,
729606762.913128,1.772085,-1.365742,59.546482,0.021408,0.021301,1.011566,-0.011969,0.013096,-0.004428,60.019012,21.999207,-146.677338,,,
729606762.916517,1.772085,-1.365742,59.546482,0.021408,0.021301,1.011566,-0.011969,0.013096,-0.004428,60.019012,21.999207,-146.677338,,,
729606762.919785,1.771711,-1.364383,59.544956,0.026855,0.02536,1.006561,-0.000283,0.008151,-0.007698,60.019012,21.999207,-146.677338,,,
729606762.923143,1.774767,-1.361262,59.543666,0.026855,0.02536,1.006561,-0.000283,0.008151,-0.007698,60.019012,21.999207,-146.677338,,,
729606762.926483,1.774767,-1.361262,59.543666,0.026855,0.02536,1.006561,-0.000283,0.008151,-0.007698,60.019012,21.999207,-146.677338,,,
729606762.929862,1.775774,-1.358939,59.541328,0.026871,0.03006,1.000946,0.001707,0.012098,-0.010567,60.019012,21.999207,-146.677338,,,
729606762.933134,1.779591,-1.354992,59.537097,0.026871,0.03006,1.000946,0.001707,0.012098,-0.010567,60.019012,21.999207,-146.677338,,,
729606762.93646,1.779591,-1.354992,59.537097,0.026871,0.03006,1.000946,0.001707,0.012098,-0.010567,60.019012,21.999207,-146.677338,,,
729606762.939802,1.780437,-1.352929,59.53107,0.03093,0.034256,0.997849,0.002089,0.010563,-0.021517,60.019012,21.999207,-146.677338,,,
729606762.943168,1.782685,-1.350354,59.523074,0.03093,0.034256,0.997849,0.002089,0.010563,-0.021517,60.019012,21.999207,-146.677338,,,
729606762.946476,1.782685,-1.350354,59.523074,0.03093,0.034256,0.997849,0.002089,0.010563,-0.021517,60.019012,21.999207,-146.677338,,,
729606762.949851,1.782752,-1.351336,59.513304,0.036377,0.036484,0.98819,0.000111,-0.002923,-0.035534,60.019012,21.999207,-146.677338,,,
729606762.953145,1.782352,-1.351611,59.502402,0.036377,0.036484,0.98819,0.000111,-0.002923,-0.035534,59.996368,22.161453,-146.711212,,,
729606762.956562,1.782352,-1.351611,59.502402,0.036377,0.036484,0.98819,0.000111,-0.002923,-0.035534,59.996368,22.161453,-146.711212,,,
729606762.959816,1.781549,-1.355141,59.490629,0.033905,0.03302,0.985901,-0.003972,-0.007551,-0.042085,59.996368,22.161453,-146.711212,,,
729606762.963143,1.78084,-1.358407,59.477559,0.033905,0.03302,0.985901,-0.003972,-0.007551,-0.042085,59.996368,22.161453,-146.711212,,,
729606762.966466,1.78084,-1.358407,59.477559,0.033905,0.03302,0.985901,-0.003972,-0.007551,-0.042085,59.996368,22.161453,-146.711212,,,
729606762.969896,1.779902,-1.364013,59.463885,0.029449,0.032806,0.986801,-0.004206,-0.016258,-0.049016,59.996368,22.161453,-146.711212,,,
729606762.973132,1.779065,-1.368426,59.4499,0.029449,0.032806,0.986801,-0.004206,-0.016258,-0.049016,59.996368,22.161453,-146.711212,,,
729606762.976474,1.779065,-1.368426,59.4499,0.029449,0.032806,0.986801,-0.004206,-0.016258,-0.049016,59.996368,22.161453,-146.711212,,,
729606762.979814,1.778434,-1.373984,59.436146,0.024963,0.028549,0.988785,-0.003821,-0.018657,-0.047387,59.996368,22.161453,-146.711212,,,
729606762.983196,1.776658,-1.37836,59.423528,0.024963,0.028549,0.988785,-0.003821,-0.018657,-0.047387,59.996368,22.161453,-146.711212,,,
729606762.98647,1.776658,-1.37836,59.423528,0.024963,0.028549,0.988785,-0.003821,-0.018657,-0.047387,59.996368,22.161453,-146.711212,,,
729606762.989808,1.776929,-1.3843,59.412541,0.017197,0.019958,0.995941,0.000216,-0.015525,-0.038773,59.996368,22.161453,-146.711212,,,
729606762.993117,1.776405,-1.389776,59.403248,0.017197,0.019958,0.995941,0.000216,-0.015525,-0.038773,59.966919,22.012192,-146.631744,,,
729606762.996508,1.776405,-1.389776,59.403248,0.017197,0.019958,0.995941,0.000216,-0.015525,-0.038773,59.966919,22.012192,-146.631744,,,
729606762.9998,1.778615,-1.395214,59.395372,0.016525,0.013687,0.998611,0.009701,-0.016458,-0.028412,59.966919,22.012192,-146.631744,,,
729606763.003128,1.780999,-1.39987,59.388053,0.016525,0.013687,0.998611,0.009701,-0.016458,-0.028412,59.966919,22.012192,-146.631744,,,
729606763.006467,1.780999,-1.39987,59.388053,0.016525,0.013687,0.998611,0.009701,-0.016458,-0.028412,59.966919,22.012192,-146.631744,,,
729606763.009867,1.784963,-1.401507,59.380361,0.018707,0.017654,1.005463,0.013034,-0.003306,-0.028289,59.966919,22.012192,-146.631744,,,
729606763.013118,1.79003,-1.401986,59.371579,0.018707,0.017654,1.005463,0.013034,-0.003306,-0.028289,59.966919,22.012192,-146.631744,,,
729606763.016469,1.79003,-1.401986,59.371579,0.018707,0.017654,1.005463,0.013034,-0.003306,-0.028289,59.966919,22.012192,-146.631744,,,
729606763.019796,1.796737,-1.400221,59.361684,0.018936,0.021805,1.008942,0.023338,0.007546,-0.034523,59.966919,22.012192,-146.631744,,,
729606763.023204,1.805756,-1.403084,59.351202,0.018936,0.021805,1.008942,0.023338,0.007546,-0.034523,59.966919,22.012192,-146.631744,,,
729606763.026455,1.805756,-1.403084,59.351202,0.018936,0.021805,1.008942,0.023338,0.007546,-0.034523,59.966919,22.012192,-146.631744,,,
729606763.029813,1.814591,-1.401303,59.340959,0.014908,0.02095,1.003998,0.027858,0.008921,-0.037395,59.966919,22.012192,-146.631744,,,
729606763.033183,1.8251,-1.403932,59.332105,0.014908,0.02095,1.003998,0.027858,0.008921,-0.037395,59.966919,22.012192,-146.631744,,,
729606763.036488,1.8251,-1.403932,59.332105,0.014908,0.02095,1.003998,0.027858,0.008921,-0.037395,60.09137,21.78949,-146.786758,,,
729606763.03979,1.835301,-1.40277,59.324188,0.009277,0.017517,0.999969,0.034898,0.007969,-0.028904,60.09137,21.78949,-146.786758,,,
729606763.043119,1.845423,-1.405802,59.317569,0.009277,0.017517,0.999969,0.034898,0.007969,-0.028904,60.09137,21.78949,-146.786758,,,
729606763.046456,1.845423,-1.405802,59.317569,0.009277,0.017517,0.999969,0.034898,0.007969,-0.028904,60.09137,21.78949,-146.786758,,,
729606763.049842,1.854335,-1.405658,59.311913,0.007141,0.020508,0.99379,0.031018,0.001811,-0.021518,60.09137,21.78949,-146.786758,,,
729606763.053112,1.862583,-1.406593,59.306645,0.007141,0.020508,0.99379,0.031018,0.001811,-0.021518,60.09137,21.78949,-146.786758,,,
729606763.056451,1.862583,-1.406593,59.306645,0.007141,0.020508,0.99379,0.031018,0.001811,-0.021518,60.09137,21.78949,-146.786758,,,
729606763.059802,1.870143,-1.40447,59.301325,0.012863,0.024643,0.993286,0.024615,0.01243,-0.023019,60.09137,21.78949,-146.786758,,,
729606763.063174,1.87505,-1.40093,59.296033,0.012863,0.024643,0.993286,0.024615,0.01243,-0.023019,60.09137,21.78949,-146.786758,,,
729606763.066459,1.87505,-1.40093,59.296033,0.012863,0.024643,0.993286,0.024615,0.01243,-0.023019,60.09137,21.78949,-146.786758,,,
729606763.069804,1.879741,-1.397207,59.290676,0.015015,0.028168,0.991699,0.018417,0.015815,-0.022194,60.09137,21.78949,-146.786758,,,
729606763.073135,1.879866,-1.389245,59.28507,0.015015,0.028168,0.991699,0.018417,0.015815,-0.022194,60.09137,21.78949,-146.786758,,,
729606763.076534,1.879866,-1.389245,59.28507,0.015015,0.028168,0.991699,0.018417,0.015815,-0.022194,59.94693,21.785461,-147.141968,,,
729606763.0798,1.88343,-1.383971,59.280109,0.017197,0.029022,0.987961,0.014398,0.021534,-0.019371,59.94693,21.785461,-147.141968,,,
729606763.083131,1.88343,-1.383971,59.280109,0.017197,0.029022,0.987961,0.014398,0.021534,-0.019371,59.94693,21.785461,-147.141968,,,
729606763.086466,1.883181,-1.374693,59.275813,0.017197,0.029022,0.987961,0.014398,0.021534,-0.019371,59.94693,21.785461,-147.141968,,,
729606763.089845,1.887232,-1.366846,59.272562,0.017242,0.027695,0.992279,0.01397,0.031087,-0.013417,59.94693,21.785461,-147.141968,,,
729606763.093122,1.887232,-1.366846,59.270382,0.017242,0.027695,0.992279,0.01397,0.031087,-0.013417,59.94693,21.785461,-147.141968,,,
729606763.096467,1.889057,-1.356643,59.270382,0.017242,0.027695,0.992279,0.01397,0.031087,-0.013417,59.94693,21.785461,-147.141968,,,
729606763.099807,1.893776,-1.350678,59.269454,0.014847,0.024887,0.991913,0.019892,0.025591,-0.005591,59.94693,21.785461,-147.141968,,,
729606763.103182,1.893776,-1.350678,59.269075,0.014847,0.024887,0.991913,0.019892,0.025591,-0.005591,59.94693,21.785461,-147.141968,,,
729606763.10646,1.895902,-1.345081,59.269075,0.014847,0.024887,0.991913,0.019892,0.025591,-0.005591,59.94693,21.785461,-147.141968,,,
729606763.109799,1.900712,-1.342978,59.268437,0.018127,0.025467,0.986511,0.016149,0.010487,-0.002716,59.94693,21.785461,-147.141968,,,
729606763.113132,1.900712,-1.342978,59.268437,0.018127,0.025467,0.986511,0.016149,0.010487,-0.002716,59.94693,21.785461,-147.141968,,,
729606763.116534,1.902256,-1.33636,59.266842,0.018127,0.025467,0.986511,0.016149,0.010487,-0.002716,59.964005,21.922226,-146.940613,,,
729606763.119787,1.906572,-1.334607,59.264832,0.019897,0.033035,0.98967,0.015063,0.009795,-0.006157,59.964005,21.922226,-146.940613,,,
729606763.12315,1.906572,-1.334607,59.264832,0.019897,0.033035,0.98967,0.015063,0.009795,-0.006157,59.964005,21.922226,-146.940613,,,
729606763.126525,1.907247,-1.327106,59.26276,0.019897,0.033035,0.98967,0.015063,0.009795,-0.006157,59.964005,21.922226,-146.940613,,,
729606763.129779,1.911277,-1.326124,59.261119,0.023682,0.036011,0.987045,0.013664,0.005191,-0.005933,59.964005,21.922226,-146.940613,,,
729606763.133116,1.911277,-1.326124,59.261119,0.023682,0.036011,0.987045,0.013664,0.005191,-0.005933,59.964005,21.922226,-146.940613,,,
729606763.136459,1.912403,-1.319226,59.258691,0.023682,0.036011,0.987045,0.013664,0.005191,-0.005933,59.964005,21.922226,-146.940613,,,
729606763.139791,1.91588,-1.317272,59.255427,0.033859,0.03714,0.985535,0.011868,0.008828,-0.010702,59.964005,21.922226,-146.940613,,,
729606763.143119,1.91588,-1.317272,59.255427,0.033859,0.03714,0.985535,0.011868,0.008828,-0.010702,59.964005,21.922226,-146.940613,,,
729606763.146457,1.917681,-1.311168,59.251434,0.033859,0.03714,0.985535,0.011868,0.008828,-0.010702,59.964005,21.922226,-146.940613,,,
729606763.149792,1.920843,-1.306621,59.246742,0.03978,0.042068,0.98909,0.012545,0.017713,-0.019095,59.964005,21.922226,-146.940613,,,
729606763.153184,1.920843,-1.306621,59.246742,0.03978,0.042068,0.98909,0.012545,0.017713,-0.019095,59.964005,21.922226,-146.940613,,,
729606763.156451,1.922854,-1.295657,59.241844,0.03978,0.042068,0.98909,0.012545,0.017713,-0.019095,60.032303,21.979507,-146.897781,,,
729606763.159784,1.925502,-1.28363,59.237776,0.032028,0.038803,0.990707,0.010835,0.044896,-0.01699,60.032303,21.979507,-146.897781,,,
729606763.163139,1.925502,-1.28363,59.237776,0.032028,0.038803,0.990707,0.010835,0.044896,-0.01699,60.032303,21.979507,-146.897781,,,
729606763.166512,1.926176,-1.265939,59.234161,0.032028,0.038803,0.990707,0.010835,0.044896,-0.01699,60.032303,21.979507,-146.897781,,,
729606763.169786,1.926407,-1.247108,59.231121,0.026123,0.039749,0.987366,0.004576,0.068612,-0.010492,60.032303,21.979507,-146.897781,,,
729606763.173213,1.926407,-1.247108,59.231121,0.026123,0.039749,0.987366,0.004576,0.068612,-0.010492,60.032303,21.979507,-146.897781,,,
729606763.176465,1.923942,-1.224152,59.228828,0.026123,0.039749,0.987366,0.004576,0.068612,-0.010492,60.032303,21.979507,-146.897781,,,
729606763.179795,1.921755,-1.203666,59.227213,0.023193,0.042694,0.982178,-0.005533,0.072725,-0.005655,60.032303,21.979507,-146.897781,,,
729606763.18315,1.921755,-1.203666,59.227213,0.023193,0.042694,0.982178,-0.005533,0.072725,-0.005655,60.032303,21.979507,-146.897781,,,
729606763.186476,1.91619,-1.18309,59.226305,0.023193,0.042694,0.982178,-0.005533,0.072725,-0.005655,60.032303,21.979507,-146.897781,,,
729606763.189794,1.910748,-1.167725,59.226156,0.013168,0.045212,0.97644,-0.018009,0.059788,-0.002633,60.032303,21.979507,-146.897781,,,
729606763.193181,1.910748,-1.167725,59.226156,0.013168,0.045212,0.97644,-0.018009,0.059788,-0.002633,60.032303,21.979507,-146.897781,,,
729606763.196461,1.902552,-1.156145,59.225814,0.013168,0.045212,0.97644,-0.018009,0.059788,-0.002633,60.032303,21.979507,-146.897781,,,
729606763.199791,1.893677,-1.149223,59.224769,0.002106,0.04509,0.975845,-0.028194,0.026179,-0.005022,60.184464,21.948013,-147.320709,,,
729606763.203147,1.893677,-1.149223,59.224769,0.002106,0.04509,0.975845,-0.028194,0.026179,-0.005022,60.184464,21.948013,-147.320709,,,
729606763.206449,1.883749,-1.146551,59.222236,0.002106,0.04509,0.975845,-0.028194,0.026179,-0.005022,60.184464,21.948013,-147.320709,,,
729606763.209801,1.873669,-1.147947,59.217854,0.005127,0.042526,0.985626,-0.03513,-0.001041,-0.015602,60.184464,21.948013,-147.320709,,,
729606763.21313,1.873669,-1.147947,59.217854,0.005127,0.042526,0.985626,-0.03513,-0.001041,-0.015602,60.184464,21.948013,-147.320709,,,
729606763.216548,1.865156,-1.155272,59.2129,0.005127,0.042526,0.985626,-0.03513,-0.001041,-0.015602,60.184464,21.948013,-147.320709,,,
729606763.219776,1.856777,-1.162183,59.208143,0.008331,0.03598,0.99762,-0.030554,-0.024737,-0.017471,60.184464,21.948013,-147.320709,,,
729606763.223134,1.856777,-1.162183,59.208143,0.008331,0.03598,0.99762,-0.030554,-0.024737,-0.017471,60.184464,21.948013,-147.320709,,,
729606763.226474,1.850879,-1.17664,59.203955,0.008331,0.03598,0.99762,-0.030554,-0.024737,-0.017471,60.184464,21.948013,-147.320709,,,
729606763.229791,1.845703,-1.183981,59.200957,0.011658,0.026901,1.014221,-0.017848,-0.023516,-0.008501,60.184464,21.948013,-147.320709,,,
729606763.233145,1.845703,-1.183981,59.200957,0.011658,0.026901,1.014221,-0.017848,-0.023516,-0.008501,60.184464,21.948013,-147.320709,,,
729606763.236475,1.845503,-1.196342,59.200544,0.011658,0.026901,1.014221,-0.017848,-0.023516,-0.008501,60.184464,21.948013,-147.320709,,,
729606763.239783,1.846332,-1.199098,59.20175,0.020447,0.026184,1.026505,0.002243,-0.005792,0.001455,60.222656,21.942856,-146.966187,,,
729606763.243113,1.846332,-1.199098,59.20175,0.020447,0.026184,1.026505,0.002243,-0.005792,0.001455,60.222656,21.942856,-146.966187,,,
729606763.246469,1.851283,-1.201311,59.20432,0.020447,0.026184,1.026505,0.002243,-0.005792,0.001455,60.222656,21.942856,-146.966187,,,
729606763.249792,1.85769,-1.195996,59.207817,0.026947,0.028854,1.03299,0.026239,0.022442,0.01071,60.222656,21.942856,-146.966187,,,
729606763.253201,1.85769,-1.195996,59.207817,0.026947,0.028854,1.03299,0.026239,0.022442,0.01071,60.222656,21.942856,-146.966187,,,
729606763.256464,1.869112,-1.187565,59.211842,0.026947,0.028854,1.03299,0.026239,0.022442,0.01071,60.222656,21.942856,-146.966187,,,
729606763.259792,1.880185,-1.172445,59.216626,0.028259,0.031525,1.033768,0.037887,0.059611,0.01394,60.222656,21.942856,-146.966187,,,
729606763.263136,1.880185,-1.172445,59.216626,0.028259,0.031525,1.033768,0.037887,0.059611,0.01394,60.222656,21.942856,-146.966187,,,
729606763.266497,1.894248,-1.154162,59.221835,0.028259,0.031525,1.033768,0.037887,0.059611,0.01394,60.222656,21.942856,-146.966187,,,
729606763.269842,1.905607,-1.133542,59.22686,0.024902,0.035767,1.023926,0.04163,0.072651,0.016902,60.222656,21.942856,-146.966187,,,
729606763.273181,1.905607,-1.133542,59.22686,0.024902,0.035767,1.023926,0.04163,0.072651,0.016902,60.222656,21.942856,-146.966187,,,
729606763.276561,1.919589,-1.108137,59.23183,0.024902,0.035767,1.023926,0.04163,0.072651,0.016902,60.222656,21.942856,-146.966187,,,
729606763.279796,1.929993,-1.088433,59.236818,0.020447,0.036331,1.011108,0.035343,0.07519,0.017081,60.214874,22.004074,-147.070877,,,
729606763.283148,1.929993,-1.088433,59.236818,0.020447,0.036331,1.011108,0.035343,0.07519,0.017081,60.214874,22.004074,-147.070877,,,
729606763.286466,1.941556,-1.064322,59.241631,0.020447,0.036331,1.011108,0.035343,0.07519,0.017081,60.214874,22.004074,-147.070877,,,
729606763.289799,1.948648,-1.050765,59.246406,0.017227,0.039703,0.998016,0.026833,0.052594,0.013644,60.214874,22.004074,-147.070877,,,
729606763.293142,1.948648,-1.050765,59.246406,0.017227,0.039703,0.998016,0.026833,0.052594,0.013644,60.214874,22.004074,-147.070877,,,
729606763.296472,1.956037,-1.03734,59.250316,0.017227,0.039703,0.998016,0.026833,0.052594,0.013644,60.214874,22.004074,-147.070877,,,
729606763.299795,1.960999,-1.032891,59.253239,0.019531,0.04512,0.987045,0.018371,0.021427,0.007652,60.214874,22.004074,-147.070877,,,
729606763.303123,1.960999,-1.032891,59.253239,0.019531,0.04512,0.987045,0.018371,0.021427,0.007652,60.214874,22.004074,-147.070877,,,
729606763.306457,1.965058,-1.028772,59.254871,0.019531,0.04512,0.987045,0.018371,0.021427,0.007652,60.214874,22.004074,-147.070877,,,
729606763.309797,1.969381,-1.031683,59.255596,0.024307,0.043747,0.991806,0.014322,-0.010566,0.000323,60.214874,22.004074,-147.070877,,,
729606763.313228,1.969381,-1.031683,59.255596,0.024307,0.043747,0.991806,0.014322,-0.010566,0.000323,60.214874,22.004074,-147.070877,,,
729606763.31646,1.971631,-1.03636,59.25534,0.024307,0.043747,0.991806,0.014322,-0.010566,0.000323,60.214874,22.004074,-147.070877,,,
729606763.319789,1.976657,-1.045443,59.254441,0.027832,0.042419,0.997925,0.015594,-0.02714,-0.003993,60.431671,21.980759,-146.949768,,,
729606763.323136,1.976657,-1.045443,59.254441,0.027832,0.042419,0.997925,0.015594,-0.02714,-0.003993,60.431671,21.980759,-146.949768,,,
729606763.326527,1.981088,-1.058243,59.253398,0.027832,0.042419,0.997925,0.015594,-0.02714,-0.003993,60.431671,21.980759,-146.949768,,,
729606763.329785,1.988037,-1.070163,59.252151,0.028625,0.041809,1.004471,0.026775,-0.037808,-0.006608,60.431671,21.980759,-146.949768,,,
729606763.333134,1.988037,-1.070163,59.252151,0.028625,0.041809,1.004471,0.026775,-0.037808,-0.006608,60.431671,21.980759,-146.949768,,,
729606763.336455,1.994183,-1.084319,59.250156,0.028625,0.041809,1.004471,0.026775,-0.037808,-0.006608,60.431671,21.980759,-146.949768,,,
729606763.339785,2.001456,-1.092873,59.24733,0.032684,0.040619,1.00885,0.024108,-0.025418,-0.012425,60.431671,21.980759,-146.949768,,,
729606763.343132,2.001456,-1.092873,59.24733,0.032684,0.040619,1.00885,0.024108,-0.025418,-0.012425,60.431671,21.980759,-146.949768,,,
729606763.346474,2.007715,-1.101057,59.244699,0.032684,0.040619,1.00885,0.024108,-0.025418,-0.012425,60.431671,21.980759,-146.949768,,,
729606763.349791,2.014594,-1.104167,59.24257,0.030838,0.036926,1.009933,0.021662,-0.008842,-0.008414,60.431671,21.980759,-146.949768,,,
729606763.353117,2.014594,-1.104167,59.24257,0.030838,0.036926,1.009933,0.021662,-0.008842,-0.008414,60.431671,21.980759,-146.949768,,,
729606763.356463,2.021312,-1.10603,59.240967,0.030838,0.036926,1.009933,0.021662,-0.008842,-0.008414,60.431671,21.980759,-146.949768,,,
729606763.359785,2.028287,-1.103613,59.239605,0.02919,0.030869,1.012466,0.022554,0.013988,-0.007092,60.431671,21.980759,-146.949768,,,
729606763.36314,2.028287,-1.103613,59.239605,0.02919,0.030869,1.012466,0.022554,0.013988,-0.007092,60.612228,21.982193,-146.941605,,,
729606763.36651,2.036419,-1.098998,59.238274,0.02919,0.030869,1.012466,0.022554,0.013988,-0.007092,60.612228,21.982193,-146.941605,,,
729606763.369783,2.044962,-1.093785,59.236967,0.025238,0.029572,1.015289,0.029588,0.02283,-0.005745,60.612228,21.982193,-146.941605,,,
729606763.373126,2.044962,-1.093785,59.236967,0.025238,0.029572,1.015289,0.029588,0.02283,-0.005745,60.612228,21.982193,-146.941605,,,
729606763.376467,2.05555,-1.087713,59.235697,0.025238,0.029572,1.015289,0.029588,0.02283,-0.005745,60.612228,21.982193,-146.941605,,,
729606763.379781,2.065624,-1.082605,59.234506,0.016098,0.027588,1.010818,0.034782,0.021436,-0.007305,60.612228,21.982193,-146.941605,,,
729606763.383118,2.065624,-1.082605,59.234506,0.016098,0.027588,1.010818,0.034782,0.021436,-0.007305,60.612228,21.982193,-146.941605,,,
729606763.386469,2.07806,-1.079178,59.232694,0.016098,0.027588,1.010818,0.034782,0.021436,-0.007305,60.612228,21.982193,-146.941605,,,
729606763.389782,2.089844,-1.076038,59.230203,0.011368,0.024216,1.007217,0.042617,0.014904,-0.009367,60.612228,21.982193,-146.941605,,,
729606763.393173,2.089844,-1.076038,59.230203,0.011368,0.024216,1.007217,0.042617,0.014904,-0.009367,60.612228,21.982193,-146.941605,,,
729606763.396454,2.103878,-1.078556,59.227788,0.011368,0.024216,1.007217,0.042617,0.014904,-0.009367,60.612228,21.982193,-146.941605,,,
729606763.399781,2.116055,-1.080632,59.224449,0.010208,0.026321,0.997543,0.045065,-0.004675,-0.016236,60.612228,21.982193,-146.941605,,,
729606763.403119,2.116055,-1.080632,59.224449,0.010208,0.026321,0.997543,0.045065,-0.004675,-0.016236,60.475555,21.831635,-147.051224,,,
729606763.406514,2.128715,-1.087876,59.220914,0.010208,0.026321,0.997543,0.045065,-0.004675,-0.016236,60.475555,21.831635,-147.051224,,,
729606763.409789,2.139777,-1.092136,59.218468,0.006683,0.030472,0.990875,0.037976,-0.012972,-0.009031,60.475555,21.831635,-147.051224,,,
729606763.413117,2.139777,-1.092136,59.218468,0.006683,0.030472,0.990875,0.037976,-0.012972,-0.009031,60.475555,21.831635,-147.051224,,,
729606763.41647,2.150703,-1.10155,59.217941,0.006683,0.030472,0.990875,0.037976,-0.012972,-0.009031,60.475555,21.831635,-147.051224,,,
729606763.419783,2.160405,-1.106775,59.21913,-0.000793,0.024963,0.991821,0.034662,-0.017757,0.002694,60.475555,21.831635,-147.051224,,,
729606763.423143,2.160405,-1.106775,59.21913,-0.000793,0.024963,0.991821,0.034662,-0.017757,0.002694,60.475555,21.831635,-147.051224,,,
729606763.42648,2.170299,-1.117357,59.222595,-0.000793,0.024963,0.991821,0.034662,-0.017757,0.002694,60.475555,21.831635,-147.051224,,,
729606763.429787,2.179489,-1.122682,59.227873,-0.001099,0.021225,0.992188,0.030874,-0.014058,0.01617,60.475555,21.831635,-147.051224,,,
729606763.433225,2.179489,-1.122682,59.227873,-0.001099,0.021225,0.992188,0.030874,-0.014058,0.01617,60.475555,21.831635,-147.051224,,,
729606763.436469,2.188121,-1.130857,59.234739,-0.001099,0.021225,0.992188,0.030874,-0.014058,0.01617,60.475555,21.831635,-147.051224,,,
729606763.439798,2.197927,-1.132975,59.241463,0.007675,0.028519,0.996216,0.035589,-0.003737,0.020157,60.475555,21.831635,-147.051224,,,
729606763.443127,2.197927,-1.132975,59.241463,0.007675,0.028519,0.996216,0.035589,-0.003737,0.020157,60.367691,21.885986,-146.933044,,,
729606763.446515,2.205847,-1.136037,59.247861,0.007675,0.028519,0.996216,0.035589,-0.003737,0.020157,60.367691,21.885986,-146.933044,,,
729606763.44979,2.215449,-1.132737,59.253822,0.014008,0.033417,0.996674,0.033522,0.016994,0.01829,60.367691,21.885986,-146.933044,,,
729606763.453137,2.215449,-1.132737,59.253822,0.014008,0.033417,0.996674,0.033522,0.016994,0.01829,60.367691,21.885986,-146.933044,,,
729606763.456471,2.221854,-1.128308,59.259631,0.014008,0.033417,0.996674,0.033522,0.016994,0.01829,60.367691,21.885986,-146.933044,,,
729606763.459795,2.22918,-1.121913,59.265624,0.015839,0.032959,0.99115,0.02867,0.027757,0.020213,60.367691,21.885986,-146.933044,,,
729606763.463133,2.22918,-1.121913,59.265624,0.015839,0.032959,0.99115,0.02867,0.027757,0.020213,60.367691,21.885986,-146.933044,,,
729606763.466471,2.23248,-1.11368,59.271608,0.015839,0.032959,0.99115,0.02867,0.027757,0.020213,60.367691,21.885986,-146.933044,,,
729606763.469794,2.236888,-1.109498,59.278047,0.015167,0.033966,0.980988,0.016577,0.017468,0.01978,60.367691,21.885986,-146.933044,,,
729606763.473184,2.236888,-1.109498,59.278047,0.015167,0.033966,0.980988,0.016577,0.017468,0.01978,60.367691,21.885986,-146.933044,,,
729606763.476456,2.235631,-1.103593,59.284491,0.015167,0.033966,0.980988,0.016577,0.017468,0.01978,60.367691,21.885986,-146.933044,,,
729606763.479788,2.234538,-1.102301,59.290818,0.012665,0.034943,0.972992,-0.001593,0.010024,0.021485,60.367691,21.885986,-146.933044,,,
729606763.483126,2.234538,-1.102301,59.290818,0.012665,0.034943,0.972992,-0.001593,0.010024,0.021485,60.467697,21.634827,-147.23204,,,
729606763.486524,2.22863,-1.099074,59.297356,0.012665,0.034943,0.972992,-0.001593,0.010024,0.021485,60.467697,21.634827,-147.23204,,,
729606763.489785,2.222654,-1.10339,59.304399,0.014603,0.036621,0.971588,-0.0211,-0.009868,0.021591,60.467697,21.634827,-147.23204,,,
729606763.493136,2.222654,-1.10339,59.304399,0.014603,0.036621,0.971588,-0.0211,-0.009868,0.021591,60.467697,21.634827,-147.23204,,,
729606763.496468,2.21363,-1.104719,59.311237,0.014603,0.036621,0.971588,-0.0211,-0.009868,0.021591,60.467697,21.634827,-147.23204,,,
729606763.499798,2.20633,-1.114331,59.318099,0.018036,0.036377,0.976028,-0.021893,-0.030698,0.022237,60.467697,21.634827,-147.23204,,,
729606763.503131,2.20633,-1.114331,59.318099,0.018036,0.036377,0.976028,-0.021893,-0.030698,0.022237,60.467697,21.634827,-147.23204,,,
729606763.506463,2.19525,-1.116277,59.323463,0.018036,0.036377,0.976028,-0.021893,-0.030698,0.022237,60.467697,21.634827,-147.23204,,,
729606763.509795,2.186727,-1.126822,59.328024,0.025909,0.036484,0.981094,-0.02853,-0.033848,0.015968,60.467697,21.634827,-147.23204,,,
729606763.513202,2.186727,-1.126822,59.328024,0.025909,0.036484,0.981094,-0.02853,-0.033848,0.015968,60.467697,21.634827,-147.23204,,,
729606763.516459,2.173596,-1.129356,59.331079,0.025909,0.036484,0.981094,-0.02853,-0.033848,0.015968,60.467697,21.634827,-147.23204,,,
729606763.519785,2.162311,-1.137518,59.333288,0.032181,0.04213,0.983322,-0.03673,-0.024613,0.007097,60.467697,21.634827,-147.23204,,,
729606763.523125,2.162311,-1.137518,59.333288,0.032181,0.04213,0.983322,-0.03673,-0.024613,0.007097,60.467697,21.634827,-147.23204,,,
729606763.526517,2.148516,-1.139712,59.334845,0.032181,0.04213,0.983322,-0.03673,-0.024613,0.007097,60.229477,21.777756,-147.194321,,,
729606763.529784,2.134763,-1.143006,59.33569,0.039246,0.043457,0.990402,-0.043849,-0.008599,0.00386,60.229477,21.777756,-147.194321,,,
729606763.533128,2.134763,-1.143006,59.33569,0.039246,0.043457,0.990402,-0.043849,-0.008599,0.00386,60.229477,21.777756,-147.194321,,,
729606763.536448,2.119432,-1.142266,59.33556,0.039246,0.043457,0.990402,-0.043849,-0.008599,0.00386,60.229477,21.777756,-147.194321,,,
729606763.539788,2.104417,-1.142605,59.335284,0.038864,0.040451,0.989563,-0.054374,0.0029,0.000641,60.229477,21.777756,-147.194321,,,
729606763.543116,2.104417,-1.142605,59.335284,0.038864,0.040451,0.989563,-0.054374,0.0029,0.000641,60.229477,21.777756,-147.194321,,,
729606763.546463,2.088497,-1.141623,59.335341,0.038864,0.040451,0.989563,-0.054374,0.0029,0.000641,60.229477,21.777756,-147.194321,,,
729606763.549786,2.074538,-1.14163,59.336087,0.03006,0.031021,0.99498,-0.051027,0.004876,-0.001694,60.229477,21.777756,-147.194321,,,
729606763.553175,2.074538,-1.14163,59.336087,0.03006,0.031021,0.99498,-0.051027,0.004876,-0.001694,60.229477,21.777756,-147.194321,,,
729606763.556447,2.062365,-1.139393,59.338059,0.03006,0.031021,0.99498,-0.051027,0.004876,-0.001694,60.229477,21.777756,-147.194321,,,
729606763.559785,2.052725,-1.139429,59.340825,0.022049,0.025208,1.006699,-0.030239,0.00109,0.009998,60.229477,21.777756,-147.194321,,,
729606763.56312,2.052725,-1.139429,59.340825,0.022049,0.025208,1.006699,-0.030239,0.00109,0.009998,60.229477,21.777756,-147.194321,,,
729606763.56651,2.044917,-1.138589,59.343404,0.022049,0.025208,1.006699,-0.030239,0.00109,0.009998,60.469894,21.914902,-146.732132,,,
729606763.569784,2.037838,-1.141414,59.345474,0.02182,0.028351,1.007904,-0.024674,-0.005176,0.00641,60.469894,21.914902,-146.732132,,,
729606763.573118,2.037838,-1.141414,59.345474,0.02182,0.028351,1.007904,-0.024674,-0.005176,0.00641,60.469894,21.914902,-146.732132,,,
729606763.576468,2.031306,-1.14218,59.346028,0.02182,0.028351,1.007904,-0.024674,-0.005176,0.00641,60.469894,21.914902,-146.732132,,,
729606763.579782,2.023898,-1.143437,59.345244,0.021042,0.031281,1.009506,-0.026593,-0.00057,-0.004805,60.469894,21.914902,-146.732132,,,
729606763.583126,2.023898,-1.143437,59.345244,0.021042,0.031281,1.009506,-0.026593,-0.00057,-0.004805,60.469894,21.914902,-146.732132,,,
