Time (sec),Pitch (deg),Roll (deg),Yaw(deg),X-Acceleration (g),Y-Acceleration (g),Z-Acceleration (g),Pitch Rate (deg/sec),Roll Rate (deg/sec),Yaw Rate (deg/sec),Magnetic Field in X direction (uT),Magnetic Field in Y direction (uT),Magnetic Field in Z Direction (uT),Latitude (deg),Longitude (deg),Altitude (m)
729605501.184227,-0.390289,-1.744957,52.625233,0.038803,-0.000122,1.011917,-0.036549,-0.011528,-0.006728,60.485107,22.13324,-148.049194,,,
729605501.187416,-0.390289,-1.744957,52.625233,0.038803,-0.000122,1.011917,-0.036549,-0.011528,-0.006728,60.485107,22.13324,-148.049194,,,
729605501.190923,-0.400785,-1.742192,52.623591,0.038803,-0.000122,1.011917,-0.036549,-0.011528,-0.006728,60.485107,22.13324,-148.049194,,,
729605501.194223,-0.406596,-1.740545,52.62215,0.038422,-0.003738,1.014282,-0.017023,0.011958,-0.004351,60.485107,22.13324,-148.049194,,,
729605501.197327,-0.406596,-1.740545,52.62215,0.038422,-0.003738,1.014282,-0.017023,0.011958,-0.004351,60.485107,22.13324,-148.049194,,,
729605501.20101,-0.41181,-1.729442,52.621323,0.038422,-0.003738,1.014282,-0.017023,0.011958,-0.004351,60.524887,22.241364,-148.169693,,,
729605501.204214,-0.414865,-1.721719,52.621479,0.034409,-0.009628,1.011627,-0.007377,0.032611,-0.001439,60.524887,22.241364,-148.169693,,,
729605501.207561,-0.414865,-1.721719,52.621479,0.034409,-0.009628,1.011627,-0.007377,0.032611,-0.001439,60.524887,22.241364,-148.169693,,,
729605501.210912,-0.416279,-1.707141,52.622885,0.034409,-0.009628,1.011627,-0.007377,0.032611,-0.001439,60.524887,22.241364,-148.169693,,,
729605501.214226,-0.418981,-1.694252,52.625283,0.03244,-0.00676,1.004288,-0.010029,0.047576,0.009262,60.524887,22.241364,-148.169693,,,
729605501.217558,-0.418981,-1.694252,52.625283,0.03244,-0.00676,1.004288,-0.010029,0.047576,0.009262,60.524887,22.241364,-148.169693,,,
729605501.220791,-0.419032,-1.677101,52.628803,0.03244,-0.00676,1.004288,-0.010029,0.047576,0.009262,60.524887,22.241364,-148.169693,,,
729605501.22424,-0.421529,-1.664754,52.633492,0.026321,-0.002762,0.999039,-0.006932,0.044449,0.01705,60.524887,22.241364,-148.169693,,,
729605501.227566,-0.421529,-1.664754,52.633492,0.026321,-0.002762,0.999039,-0.006932,0.044449,0.01705,60.524887,22.241364,-148.169693,,,
729605501.230583,-0.419101,-1.649905,52.638969,0.026321,-0.002762,0.999039,-0.006932,0.044449,0.01705,60.524887,22.241364,-148.169693,,,
729605501.234268,-0.419908,-1.638404,52.64499,0.024429,-0.005142,0.99588,-0.00152,0.042147,0.018638,60.524887,22.241364,-148.169693,,,
729605501.237556,-0.419908,-1.638404,52.64499,0.024429,-0.005142,0.99588,-0.00152,0.042147,0.018638,60.524887,22.241364,-148.169693,,,
729605501.240913,-0.418129,-1.624474,52.651088,0.024429,-0.005142,0.99588,-0.00152,0.042147,0.018638,60.5215,22.337631,-147.958206,,,
729605501.244227,-0.420173,-1.614005,52.656388,0.024673,-0.010513,0.994781,-0.008117,0.03715,0.018238,60.5215,22.337631,-147.958206,,,
729605501.247558,-0.420173,-1.614005,52.656388,0.024673,-0.010513,0.994781,-0.008117,0.03715,0.018238,60.5215,22.337631,-147.958206,,,
729605501.250892,-0.421514,-1.604125,52.660911,0.024673,-0.010513,0.994781,-0.008117,0.03715,0.018238,60.5215,22.337631,-147.958206,,,
729605501.254238,-0.427058,-1.598029,52.664507,0.022507,-0.013641,0.986725,-0.017825,0.019735,0.011688,60.5215,22.337631,-147.958206,,,
729605501.257564,-0.427058,-1.598029,52.664507,0.022507,-0.013641,0.986725,-0.017825,0.019735,0.011688,60.5215,22.337631,-147.958206,,,
729605501.260891,-0.432047,-1.5944,52.667443,0.022507,-0.013641,0.986725,-0.017825,0.019735,0.011688,60.5215,22.337631,-147.958206,,,
729605501.264227,-0.440669,-1.591403,52.670701,0.013458,-0.015045,0.983307,-0.03181,0.010557,0.011833,60.5215,22.337631,-147.958206,,,
729605501.267556,-0.440669,-1.591403,52.670701,0.013458,-0.015045,0.983307,-0.03181,0.010557,0.011833,60.5215,22.337631,-147.958206,,,
729605501.270891,-0.449504,-1.591736,52.674459,0.013458,-0.015045,0.983307,-0.03181,0.010557,0.011833,60.5215,22.337631,-147.958206,,,
729605501.274248,-0.459127,-1.591198,52.678955,0.011246,-0.018372,0.984589,-0.03372,0.004748,0.014977,60.5215,22.337631,-147.958206,,,
729605501.277573,-0.459127,-1.591198,52.678955,0.011246,-0.018372,0.984589,-0.03372,0.004748,0.014977,60.5215,22.337631,-147.958206,,,
729605501.280896,-0.466361,-1.593049,52.684661,0.011246,-0.018372,0.984589,-0.03372,0.004748,0.014977,60.53511,22.372101,-147.785706,,,
729605501.284224,-0.471254,-1.593317,52.69127,0.014786,-0.024796,0.997742,-0.011674,-0.002757,0.022873,60.53511,22.372101,-147.785706,,,
729605501.287461,-0.471254,-1.593317,52.69127,0.014786,-0.024796,0.997742,-0.011674,-0.002757,0.022873,60.53511,22.372101,-147.785706,,,
729605501.290919,-0.472364,-1.594878,52.698959,0.014786,-0.024796,0.997742,-0.011674,-0.002757,0.022873,60.53511,22.372101,-147.785706,,,
729605501.294224,-0.46908,-1.594775,52.708568,0.014359,-0.032227,1.006073,0.017169,0.005429,0.033637,60.53511,22.372101,-147.785706,,,
729605501.297273,-0.46908,-1.594775,52.708568,0.014359,-0.032227,1.006073,0.017169,0.005429,0.033637,60.53511,22.372101,-147.785706,,,
729605501.300936,-0.461781,-1.594514,52.719573,0.014359,-0.032227,1.006073,0.017169,0.005429,0.033637,60.53511,22.372101,-147.785706,,,
729605501.304225,-0.451413,-1.594171,52.731016,0.017395,-0.031921,1.007812,0.043226,0.005732,0.038764,60.53511,22.372101,-147.785706,,,
729605501.307558,-0.451413,-1.594171,52.731016,0.017395,-0.031921,1.007812,0.043226,0.005732,0.038764,60.53511,22.372101,-147.785706,,,
729605501.310915,-0.436655,-1.594456,52.742181,0.017395,-0.031921,1.007812,0.043226,0.005732,0.038764,60.53511,22.372101,-147.785706,,,
729605501.314226,-0.421005,-1.596729,52.752438,0.025131,-0.020355,0.999268,0.057735,-0.007906,0.033026,60.53511,22.372101,-147.785706,,,
729605501.317557,-0.421005,-1.596729,52.752438,0.025131,-0.020355,0.999268,0.057735,-0.007906,0.033026,60.53511,22.372101,-147.785706,,,
729605501.320893,-0.405537,-1.599537,52.761417,0.025131,-0.020355,0.999268,0.057735,-0.007906,0.033026,60.53511,22.372101,-147.785706,,,
729605501.324296,-0.391557,-1.60348,52.769215,0.029587,-0.007004,0.99028,0.050137,-0.010063,0.023491,60.641357,22.155396,-147.766418,,,
729605501.327548,-0.391557,-1.60348,52.769215,0.029587,-0.007004,0.99028,0.050137,-0.010063,0.023491,60.641357,22.155396,-147.766418,,,
729605501.33062,-0.379644,-1.606942,52.776181,0.029587,-0.007004,0.99028,0.050137,-0.010063,0.023491,60.641357,22.155396,-147.766418,,,
729605501.33426,-0.367662,-1.611034,52.782418,0.033966,-0.00354,0.986786,0.040465,-0.009974,0.018392,60.641357,22.155396,-147.766418,,,
729605501.337551,-0.367662,-1.611034,52.782418,0.033966,-0.00354,0.986786,0.040465,-0.009974,0.018392,60.641357,22.155396,-147.766418,,,
729605501.340891,-0.357872,-1.613335,52.788228,0.033966,-0.00354,0.986786,0.040465,-0.009974,0.018392,60.641357,22.155396,-147.766418,,,
729605501.34424,-0.347283,-1.616729,52.793865,0.042389,-0.002533,0.987396,0.036338,-0.007397,0.015964,60.641357,22.155396,-147.766418,,,
729605501.347559,-0.347283,-1.616729,52.793865,0.042389,-0.002533,0.987396,0.036338,-0.007397,0.015964,60.641357,22.155396,-147.766418,,,
729605501.350892,-0.339609,-1.615718,52.799253,0.042389,-0.002533,0.987396,0.036338,-0.007397,0.015964,60.641357,22.155396,-147.766418,,,
729605501.354227,-0.331408,-1.615204,52.804501,0.042633,-0.004501,0.991043,0.028368,0.009677,0.017734,60.641357,22.155396,-147.766418,,,
729605501.357557,-0.331408,-1.615204,52.804501,0.042633,-0.004501,0.991043,0.028368,0.009677,0.017734,60.641357,22.155396,-147.766418,,,
729605501.360896,-0.327934,-1.609358,52.80925,0.042633,-0.004501,0.991043,0.028368,0.009677,0.017734,60.641357,22.155396,-147.766418,,,
729605501.364224,-0.323469,-1.603855,52.813075,0.04567,-0.002899,0.990372,0.016557,0.02546,0.012067,60.603867,22.220139,-147.910248,,,
729605501.367559,-0.323469,-1.603855,52.813075,0.04567,-0.002899,0.990372,0.016557,0.02546,0.012067,60.603867,22.220139,-147.910248,,,
729605501.370898,-0.324319,-1.593546,52.816249,0.04567,-0.002899,0.990372,0.016557,0.02546,0.012067,60.603867,22.220139,-147.910248,,,
729605501.374229,-0.321371,-1.584497,52.819367,0.047119,-7.6e-05,0.990356,0.009431,0.034932,0.010051,60.603867,22.220139,-147.910248,,,
729605501.377556,-0.321371,-1.584497,52.819367,0.047119,-7.6e-05,0.990356,0.009431,0.034932,0.010051,60.603867,22.220139,-147.910248,,,
729605501.380891,-0.323754,-1.57256,52.8228,0.047119,-7.6e-05,0.990356,0.009431,0.034932,0.010051,60.603867,22.220139,-147.910248,,,
729605501.384229,-0.319772,-1.562526,52.825941,0.0448,-0.002335,0.996017,0.018286,0.039791,0.005923,60.603867,22.220139,-147.910248,,,
729605501.387557,-0.319772,-1.562526,52.825941,0.0448,-0.002335,0.996017,0.018286,0.039791,0.005923,60.603867,22.220139,-147.910248,,,
729605501.390892,-0.31823,-1.550973,52.829287,0.0448,-0.002335,0.996017,0.018286,0.039791,0.005923,60.603867,22.220139,-147.910248,,,
729605501.394224,-0.310769,-1.541195,52.833609,0.03714,-0.004257,0.999329,0.028261,0.041581,0.012343,60.603867,22.220139,-147.910248,,,
729605501.397558,-0.310769,-1.541195,52.833609,0.03714,-0.004257,0.999329,0.028261,0.041581,0.012343,60.603867,22.220139,-147.910248,,,
729605501.40089,-0.304534,-1.531812,52.839268,0.03714,-0.004257,0.999329,0.028261,0.041581,0.012343,60.603867,22.220139,-147.910248,,,
729605501.404225,-0.296196,-1.523233,52.846201,0.030136,-0.00441,1.001205,0.029594,0.033113,0.023382,60.826462,22.10907,-147.97731,,,
729605501.407555,-0.296196,-1.523233,52.846201,0.030136,-0.00441,1.001205,0.029594,0.033113,0.023382,60.826462,22.10907,-147.97731,,,
729605501.410889,-0.288113,-1.518141,52.853641,0.030136,-0.00441,1.001205,0.029594,0.033113,0.023382,60.826462,22.10907,-147.97731,,,
729605501.414245,-0.280712,-1.514723,52.861323,0.031662,0.003036,0.994232,0.024525,0.015056,0.024976,60.826462,22.10907,-147.97731,,,
729605501.417628,-0.280712,-1.514723,52.861323,0.031662,0.003036,0.994232,0.024525,0.015056,0.024976,60.826462,22.10907,-147.97731,,,
729605501.420911,-0.273022,-1.515808,52.868643,0.031662,0.003036,0.994232,0.024525,0.015056,0.024976,60.826462,22.10907,-147.97731,,,
729605501.424227,-0.265707,-1.516295,52.874788,0.03598,0.011017,0.995605,0.027481,0.002238,0.018307,60.826462,22.10907,-147.97731,,,
729605501.427562,-0.265707,-1.516295,52.874788,0.03598,0.011017,0.995605,0.027481,0.002238,0.018307,60.826462,22.10907,-147.97731,,,
729605501.430737,-0.258891,-1.521793,52.87956,0.03598,0.011017,0.995605,0.027481,0.002238,0.018307,60.826462,22.10907,-147.97731,,,
729605501.434252,-0.253796,-1.525933,52.883063,0.038696,0.016113,0.996017,0.016397,-0.011542,0.007242,60.826462,22.10907,-147.97731,,,
729605501.437555,-0.253796,-1.525933,52.883063,0.038696,0.016113,0.996017,0.016397,-0.011542,0.007242,60.826462,22.10907,-147.97731,,,
729605501.440619,-0.250141,-1.532909,52.885557,0.038696,0.016113,0.996017,0.016397,-0.011542,0.007242,60.826462,22.10907,-147.97731,,,
729605501.444264,-0.246839,-1.534161,52.887206,0.038605,0.016617,0.996277,0.011532,0.000544,0.004579,60.450607,22.233566,-147.989807,,,
729605501.447552,-0.246839,-1.534161,52.887206,0.038605,0.016617,0.996277,0.011532,0.000544,0.004579,60.450607,22.233566,-147.989807,,,
729605501.450892,-0.242048,-1.535622,52.887695,0.038605,0.016617,0.996277,0.011532,0.000544,0.004579,60.450607,22.233566,-147.989807,,,
729605501.454245,-0.235897,-1.532374,52.88655,0.038956,0.014008,1.012131,0.022686,0.015079,-0.006128,60.450607,22.233566,-147.989807,,,
729605501.45756,-0.235897,-1.532374,52.88655,0.038956,0.014008,1.012131,0.022686,0.015079,-0.006128,60.450607,22.233566,-147.989807,,,
729605501.460895,-0.226677,-1.532382,52.88276,0.038956,0.014008,1.012131,0.022686,0.015079,-0.006128,60.450607,22.233566,-147.989807,,,
729605501.464222,-0.214998,-1.525942,52.875977,0.044342,0.015762,1.017517,0.044653,0.026866,-0.028827,60.450607,22.233566,-147.989807,,,
729605501.467556,-0.214998,-1.525942,52.875977,0.044342,0.015762,1.017517,0.044653,0.026866,-0.028827,60.450607,22.233566,-147.989807,,,
729605501.47089,-0.201358,-1.518576,52.867683,0.044342,0.015762,1.017517,0.044653,0.026866,-0.028827,60.450607,22.233566,-147.989807,,,
729605501.474233,-0.187218,-1.504839,52.859888,0.035553,0.012787,1.019928,0.050577,0.051318,-0.030746,60.450607,22.233566,-147.989807,,,
729605501.477555,-0.187218,-1.504839,52.859888,0.035553,0.012787,1.019928,0.050577,0.051318,-0.030746,60.450607,22.233566,-147.989807,,,
729605501.480896,-0.172649,-1.490949,52.853673,0.035553,0.012787,1.019928,0.050577,0.051318,-0.030746,60.450607,22.233566,-147.989807,,,
729605501.484223,-0.157931,-1.474784,52.850176,0.008057,0.000931,1.01033,0.052436,0.062645,-0.01058,60.450607,22.233566,-147.989807,,,
729605501.487562,-0.157931,-1.474784,52.850176,0.008057,0.000931,1.01033,0.052436,0.062645,-0.01058,60.443451,22.337646,-147.965607,,,
729605501.490889,-0.143648,-1.460054,52.850534,0.008057,0.000931,1.01033,0.052436,0.062645,-0.01058,60.443451,22.337646,-147.965607,,,
729605501.494225,-0.130487,-1.44639,52.854167,-0.001755,-0.003021,1.005981,0.045363,0.052131,0.011831,60.443451,22.337646,-147.965607,,,
729605501.497554,-0.130487,-1.44639,52.854167,-0.001755,-0.003021,1.005981,0.045363,0.052131,0.011831,60.443451,22.337646,-147.965607,,,
729605501.500894,-0.117364,-1.436127,52.86035,-0.001755,-0.003021,1.005981,0.045363,0.052131,0.011831,60.443451,22.337646,-147.965607,,,
729605501.504224,-0.107713,-1.428059,52.868236,-0.003433,-0.001953,0.998947,0.0358,0.026166,0.027222,60.443451,22.337646,-147.965607,,,
729605501.507556,-0.107713,-1.428059,52.868236,-0.003433,-0.001953,0.998947,0.0358,0.026166,0.027222,60.443451,22.337646,-147.965607,,,
729605501.510896,-0.097509,-1.42816,52.876784,-0.003433,-0.001953,0.998947,0.0358,0.026166,0.027222,60.443451,22.337646,-147.965607,,,
729605501.514223,-0.091882,-1.432086,52.884823,-0.007324,0.003418,0.99173,0.02023,-0.015676,0.025919,60.443451,22.337646,-147.965607,,,
729605501.517556,-0.091882,-1.432086,52.884823,-0.007324,0.003418,0.99173,0.02023,-0.015676,0.025919,60.443451,22.337646,-147.965607,,,
729605501.520891,-0.084062,-1.44398,52.891504,-0.007324,0.003418,0.99173,0.02023,-0.015676,0.025919,60.443451,22.337646,-147.965607,,,
729605501.524222,-0.081457,-1.457643,52.897528,-0.00563,0.005951,0.992615,0.007166,-0.047854,0.020015,60.443451,22.337646,-147.965607,,,
729605501.527557,-0.081457,-1.457643,52.897528,-0.00563,0.005951,0.992615,0.007166,-0.047854,0.020015,60.457932,22.018585,-148.285202,,,
729605501.530896,-0.076436,-1.477976,52.903896,-0.00563,0.005951,0.992615,0.007166,-0.047854,0.020015,60.457932,22.018585,-148.285202,,,
729605501.534222,-0.073004,-1.49955,52.91115,-0.004715,-0.002548,0.999939,0.011839,-0.075918,0.022228,60.457932,22.018585,-148.285202,,,
729605501.537555,-0.073004,-1.49955,52.91115,-0.004715,-0.002548,0.999939,0.011839,-0.075918,0.022228,60.457932,22.018585,-148.285202,,,
729605501.54089,-0.062988,-1.526199,52.919235,-0.004715,-0.002548,0.999939,0.011839,-0.075918,0.022228,60.457932,22.018585,-148.285202,,,
729605501.544222,-0.050842,-1.551675,52.929145,0.004349,-0.008423,1.017075,0.046974,-0.086928,0.03074,60.457932,22.018585,-148.285202,,,
729605501.547556,-0.050842,-1.551675,52.929145,0.004349,-0.008423,1.017075,0.046974,-0.086928,0.03074,60.457932,22.018585,-148.285202,,,
729605501.550894,-0.029728,-1.580099,52.940925,0.004349,-0.008423,1.017075,0.046974,-0.086928,0.03074,60.457932,22.018585,-148.285202,,,
729605501.554223,-0.005446,-1.602124,52.954487,0.009094,-0.01384,1.032776,0.09035,-0.071319,0.045549,60.457932,22.018585,-148.285202,,,
729605501.557556,-0.005446,-1.602124,52.954487,0.009094,-0.01384,1.032776,0.09035,-0.071319,0.045549,60.457932,22.018585,-148.285202,,,
729605501.56089,0.026538,-1.618396,52.970589,0.009094,-0.01384,1.032776,0.09035,-0.071319,0.045549,60.457932,22.018585,-148.285202,,,
729605501.564223,0.062197,-1.632971,52.989146,0.012512,-0.009125,1.039062,0.128125,-0.047326,0.060335,60.457932,22.018585,-148.285202,,,
729605501.567557,0.062197,-1.632971,52.989146,0.012512,-0.009125,1.039062,0.128125,-0.047326,0.060335,60.418289,21.951309,-147.985321,,,
729605501.570889,0.101063,-1.644083,53.010105,0.012512,-0.009125,1.039062,0.128125,-0.047326,0.060335,60.418289,21.951309,-147.985321,,,
729605501.574224,0.143084,-1.660826,53.033447,0.0112,-0.001907,1.012909,0.152761,-0.056876,0.077575,60.418289,21.951309,-147.985321,,,
729605501.577554,0.143084,-1.660826,53.033447,0.0112,-0.001907,1.012909,0.152761,-0.056876,0.077575,60.418289,21.951309,-147.985321,,,
729605501.58089,0.185515,-1.669984,53.058937,0.0112,-0.001907,1.012909,0.152761,-0.056876,0.077575,60.418289,21.951309,-147.985321,,,
729605501.584223,0.228659,-1.682078,53.08579,0.012543,0.009003,1.00502,0.150876,-0.03714,0.085903,60.418289,21.951309,-147.985321,,,
729605501.587554,0.228659,-1.682078,53.08579,0.012543,0.009003,1.00502,0.150876,-0.03714,0.085903,60.418289,21.951309,-147.985321,,,
729605501.590889,0.268774,-1.685671,53.114028,0.012543,0.009003,1.00502,0.150876,-0.03714,0.085903,60.418289,21.951309,-147.985321,,,
729605501.594222,0.306037,-1.694826,53.144143,0.014481,0.024384,0.99086,0.132392,-0.026501,0.100988,60.418289,21.951309,-147.985321,,,
729605501.597634,0.306037,-1.694826,53.144143,0.014481,0.024384,0.99086,0.132392,-0.026501,0.100988,60.418289,21.951309,-147.985321,,,
729605501.600882,0.33842,-1.697158,53.175906,0.014481,0.024384,0.99086,0.132392,-0.026501,0.100988,60.418289,21.951309,-147.985321,,,
729605501.604302,0.363173,-1.706364,53.208887,0.015152,0.030975,0.965164,0.083303,-0.028977,0.112412,60.418289,21.951309,-147.985321,,,
729605501.607615,0.363173,-1.706364,53.208887,0.015152,0.030975,0.965164,0.083303,-0.028977,0.112412,60.365189,21.716309,-148.449615,,,
729605501.610889,0.379141,-1.710459,53.242062,0.015152,0.030975,0.965164,0.083303,-0.028977,0.112412,60.365189,21.716309,-148.449615,,,
729605501.613961,0.388527,-1.724257,53.274444,0.026871,0.031418,0.948059,0.030184,-0.047959,0.109557,60.365189,21.716309,-148.449615,,,
729605501.617593,0.388527,-1.724257,53.274444,0.026871,0.031418,0.948059,0.030184,-0.047959,0.109557,60.365189,21.716309,-148.449615,,,
729605501.620886,0.390131,-1.736771,53.305729,0.026871,0.031418,0.948059,0.030184,-0.047959,0.109557,60.365189,21.716309,-148.449615,,,
729605501.624225,0.38894,-1.755104,53.335981,0.028793,0.019669,0.949081,-0.004695,-0.062173,0.103386,60.365189,21.716309,-148.449615,,,
729605501.627555,0.38894,-1.755104,53.335981,0.028793,0.019669,0.949081,-0.004695,-0.062173,0.103386,60.365189,21.716309,-148.449615,,,
729605501.63089,0.381936,-1.769884,53.365104,0.028793,0.019669,0.949081,-0.004695,-0.062173,0.103386,60.365189,21.716309,-148.449615,,,
729605501.634222,0.374539,-1.785399,53.394069,0.02626,0.00705,0.965103,-0.022376,-0.050973,0.103674,60.365189,21.716309,-148.449615,,,
729605501.637567,0.374539,-1.785399,53.394069,0.02626,0.00705,0.965103,-0.022376,-0.050973,0.103674,60.365189,21.716309,-148.449615,,,
729605501.640906,0.364432,-1.796469,53.423839,0.02626,0.00705,0.965103,-0.022376,-0.050973,0.103674,60.365189,21.716309,-148.449615,,,
729605501.64422,0.356754,-1.80818,53.454771,0.026672,-0.004929,0.973114,-0.023079,-0.036225,0.105654,60.365189,21.716309,-148.449615,,,
729605501.647557,0.356754,-1.80818,53.454771,0.026672,-0.004929,0.973114,-0.023079,-0.036225,0.105654,60.365189,21.716309,-148.449615,,,
729605501.650891,0.348635,-1.814504,53.486584,0.026672,-0.004929,0.973114,-0.023079,-0.036225,0.105654,60.07428,21.813004,-147.907669,,,
729605501.654223,0.344694,-1.81719,53.518503,0.031525,-0.012833,0.983521,-0.004576,-0.001018,0.107992,60.07428,21.813004,-147.907669,,,
729605501.657561,0.344694,-1.81719,53.518503,0.031525,-0.012833,0.983521,-0.004576,-0.001018,0.107992,60.07428,21.813004,-147.907669,,,
729605501.660887,0.344826,-1.8115,53.550422,0.031525,-0.012833,0.983521,-0.004576,-0.001018,0.107992,60.07428,21.813004,-147.907669,,,
729605501.664222,0.350098,-1.80256,53.582495,0.040527,-0.010422,0.999359,0.027099,0.040274,0.109507,60.07428,21.813004,-147.907669,,,
729605501.667557,0.350098,-1.80256,53.582495,0.040527,-0.010422,0.999359,0.027099,0.040274,0.109507,60.07428,21.813004,-147.907669,,,
729605501.670889,0.359088,-1.787061,53.614865,0.040527,-0.010422,0.999359,0.027099,0.040274,0.109507,60.07428,21.813004,-147.907669,,,
729605501.674226,0.367845,-1.769551,53.647594,0.032288,-0.008942,0.990112,0.035509,0.067172,0.110173,60.07428,21.813004,-147.907669,,,
729605501.677556,0.367845,-1.769551,53.647594,0.032288,-0.008942,0.990112,0.035509,0.067172,0.110173,60.07428,21.813004,-147.907669,,,
729605501.68089,0.379141,-1.747275,53.680094,0.032288,-0.008942,0.990112,0.035509,0.067172,0.110173,60.07428,21.813004,-147.907669,,,
729605501.684221,0.386831,-1.726998,53.710712,0.029449,-0.008087,0.972794,0.030727,0.07363,0.103293,60.07428,21.813004,-147.907669,,,
729605501.687559,0.386831,-1.726998,53.710712,0.029449,-0.008087,0.972794,0.030727,0.07363,0.103293,60.07428,21.813004,-147.907669,,,
729605501.690924,0.394288,-1.707405,53.737709,0.029449,-0.008087,0.972794,0.030727,0.07363,0.103293,60.208984,21.781647,-147.858337,,,
729605501.69422,0.394951,-1.689707,53.760637,0.038986,-0.003372,0.958725,-0.000199,0.065204,0.075277,60.208984,21.781647,-147.858337,,,
729605501.697558,0.394951,-1.689707,53.760637,0.038986,-0.003372,0.958725,-0.000199,0.065204,0.075277,60.208984,21.781647,-147.858337,,,
729605501.700696,0.393425,-1.674502,53.77943,0.038986,-0.003372,0.958725,-0.000199,0.065204,0.075277,60.208984,21.781647,-147.858337,,,
729605501.704112,0.385115,-1.663725,53.794664,0.035706,-4.6e-05,0.953506,-0.027716,0.036026,0.049436,60.208984,21.781647,-147.858337,,,
729605501.707581,0.385115,-1.663725,53.794664,0.035706,-4.6e-05,0.953506,-0.027716,0.036026,0.049436,60.208984,21.781647,-147.858337,,,
729605501.710891,0.374118,-1.657868,53.806865,0.035706,-4.6e-05,0.953506,-0.027716,0.036026,0.049436,60.208984,21.781647,-147.858337,,,
729605501.714241,0.358857,-1.656013,53.816973,0.037048,-0.002502,0.953735,-0.056045,0.008072,0.03556,60.208984,21.781647,-147.858337,,,
729605501.717565,0.358857,-1.656013,53.816973,0.037048,-0.002502,0.953735,-0.056045,0.008072,0.03556,60.208984,21.781647,-147.858337,,,
729605501.72089,0.340099,-1.65695,53.826027,0.037048,-0.002502,0.953735,-0.056045,0.008072,0.03556,60.208984,21.781647,-147.858337,,,
729605501.724235,0.319792,-1.660312,53.835561,0.036453,-0.009598,0.962173,-0.071796,-0.011994,0.036764,60.208984,21.781647,-147.858337,,,
729605501.72756,0.319792,-1.660312,53.835561,0.036453,-0.009598,0.962173,-0.071796,-0.011994,0.036764,60.208984,21.781647,-147.858337,,,
729605501.730894,0.29841,-1.665642,53.846448,0.036453,-0.009598,0.962173,-0.071796,-0.011994,0.036764,60.389709,21.861298,-147.939056,,,
729605501.734263,0.27837,-1.671606,53.85801,0.040741,-0.015503,0.974762,-0.068334,-0.018211,0.04195,60.389709,21.861298,-147.939056,,,
729605501.73757,0.27837,-1.671606,53.85801,0.040741,-0.015503,0.974762,-0.068334,-0.018211,0.04195,60.389709,21.861298,-147.939056,,,
729605501.740896,0.257941,-1.67685,53.870465,0.040741,-0.015503,0.974762,-0.068334,-0.018211,0.04195,60.389709,21.861298,-147.939056,,,
729605501.744274,0.237863,-1.679538,53.883392,0.045059,-0.019943,0.983475,-0.069343,-0.005302,0.046014,60.389709,21.861298,-147.939056,,,
729605501.747557,0.237863,-1.679538,53.883392,0.045059,-0.019943,0.983475,-0.069343,-0.005302,0.046014,60.389709,21.861298,-147.939056,,,
729605501.750894,0.215415,-1.679043,53.895171,0.045059,-0.019943,0.983475,-0.069343,-0.005302,0.046014,60.389709,21.861298,-147.939056,,,
729605501.754234,0.192999,-1.673882,53.904722,0.051895,-0.012466,0.984741,-0.075215,0.023805,0.030571,60.389709,21.861298,-147.939056,,,
729605501.757567,0.192999,-1.673882,53.904722,0.051895,-0.012466,0.984741,-0.075215,0.023805,0.030571,60.389709,21.861298,-147.939056,,,
729605501.760917,0.16966,-1.665227,53.911593,0.051895,-0.012466,0.984741,-0.075215,0.023805,0.030571,60.389709,21.861298,-147.939056,,,
729605501.764244,0.145822,-1.653521,53.916285,0.058716,-0.008789,0.990997,-0.081616,0.046807,0.014065,60.389709,21.861298,-147.939056,,,
729605501.767355,0.145822,-1.653521,53.916285,0.058716,-0.008789,0.990997,-0.081616,0.046807,0.014065,60.389709,21.861298,-147.939056,,,
729605501.770917,0.120816,-1.638822,53.919917,0.058716,-0.008789,0.990997,-0.081616,0.046807,0.014065,60.255859,22.003052,-147.475281,,,
729605501.77432,0.095767,-1.621286,53.923029,0.055191,-0.012665,0.994766,-0.086355,0.064679,0.012634,60.255859,22.003052,-147.475281,,,
729605501.777616,0.095767,-1.621286,53.923029,0.055191,-0.012665,0.994766,-0.086355,0.064679,0.012634,60.255859,22.003052,-147.475281,,,
729605501.780755,0.070004,-1.603703,53.926687,0.055191,-0.012665,0.994766,-0.086355,0.064679,0.012634,60.255859,22.003052,-147.475281,,,
729605501.78424,0.044135,-1.585508,53.931134,0.047958,-0.016022,0.998184,-0.087427,0.064956,0.016498,60.255859,22.003052,-147.475281,,,
729605501.787555,0.044135,-1.585508,53.931134,0.047958,-0.016022,0.998184,-0.087427,0.064956,0.016498,60.255859,22.003052,-147.475281,,,
729605501.790892,0.017497,-1.569086,53.934989,0.047958,-0.016022,0.998184,-0.087427,0.064956,0.016498,60.255859,22.003052,-147.475281,,,
729605501.794219,-0.010031,-1.554612,53.937279,0.050247,-0.013931,0.996109,-0.094789,0.049788,0.00545,60.255859,22.003052,-147.475281,,,
729605501.797556,-0.010031,-1.554612,53.937279,0.050247,-0.013931,0.996109,-0.094789,0.049788,0.00545,60.255859,22.003052,-147.475281,,,
729605501.800891,-0.039773,-1.545091,53.936457,0.050247,-0.013931,0.996109,-0.094789,0.049788,0.00545,60.255859,22.003052,-147.475281,,,
729605501.804218,-0.039773,-1.545091,53.936457,0.055771,-0.004791,0.989624,-0.10888,0.022138,-0.017305,60.255859,22.003052,-147.475281,,,
729605501.807646,-0.070765,-1.538881,53.931761,0.055771,-0.004791,0.989624,-0.10888,0.022138,-0.017305,60.255859,22.003052,-147.475281,,,
729605501.810792,-0.104245,-1.53717,53.922237,0.055771,-0.004791,0.989624,-0.10888,0.022138,-0.017305,60.255859,22.003052,-147.475281,,,
729605501.814302,-0.137791,-1.536837,53.907588,0.0578,0.001907,0.992645,-0.116259,0.004179,-0.05398,60.365555,22.397964,-147.856277,,,
729605501.817575,-0.137791,-1.536837,53.907588,0.0578,0.001907,0.992645,-0.116259,0.004179,-0.05398,60.365555,22.397964,-147.856277,,,
729605501.82067,-0.173252,-1.540668,53.889188,0.0578,0.001907,0.992645,-0.116259,0.004179,-0.05398,60.365555,22.397964,-147.856277,,,
729605501.824288,-0.173252,-1.540668,53.889188,0.0578,0.001907,0.992645,-0.116259,0.004179,-0.05398,60.365555,22.397964,-147.856277,,,
729605501.827566,-0.206115,-1.54529,53.86857,0.055206,-0.002518,1.00029,-0.114029,-0.01614,-0.074134,60.365555,22.397964,-147.856277,,,
729605501.83089,-0.238626,-1.553867,53.84687,0.055206,-0.002518,1.00029,-0.114029,-0.01614,-0.074134,60.365555,22.397964,-147.856277,,,
729605501.834249,-0.238626,-1.553867,53.84687,0.049606,-0.012253,1.009521,-0.1032,-0.021732,-0.076422,60.365555,22.397964,-147.856277,,,
729605501.837555,-0.267815,-1.561175,53.824993,0.049606,-0.012253,1.009521,-0.1032,-0.021732,-0.076422,60.365555,22.397964,-147.856277,,,
729605501.840894,-0.294602,-1.57094,53.804034,0.049606,-0.012253,1.009521,-0.1032,-0.021732,-0.076422,60.365555,22.397964,-147.856277,,,
729605501.844218,-0.294602,-1.57094,53.804034,0.047119,-0.016571,1.023132,-0.071137,-0.009904,-0.062704,60.365555,22.397964,-147.856277,,,
729605501.847571,-0.316252,-1.575481,53.784665,0.047119,-0.016571,1.023132,-0.071137,-0.009904,-0.062704,60.365555,22.397964,-147.856277,,,
729605501.850886,-0.332445,-1.583077,53.767393,0.047119,-0.016571,1.023132,-0.071137,-0.009904,-0.062704,60.365555,22.397964,-147.856277,,,
729605501.854221,-0.332445,-1.583077,53.767393,0.047119,-0.016571,1.023132,-0.030338,0.002884,-0.052596,60.514908,22.333191,-147.78804,,,
729605501.857564,-0.342191,-1.583604,53.752146,0.042053,-0.013275,1.037689,-0.030338,0.002884,-0.052596,60.514908,22.333191,-147.78804,,,
729605501.860887,-0.34903,-1.583853,53.738539,0.042053,-0.013275,1.037689,-0.030338,0.002884,-0.052596,60.514908,22.333191,-147.78804,,,
729605501.864254,-0.34903,-1.583853,53.738539,0.032959,-0.008713,1.03801,-0.007545,0.041952,-0.046558,60.514908,22.333191,-147.78804,,,
729605501.867558,-0.35127,-1.574118,53.725896,0.032959,-0.008713,1.03801,-0.007545,0.041952,-0.046558,60.514908,22.333191,-147.78804,,,
729605501.870887,-0.353413,-1.561363,53.713493,0.032959,-0.008713,1.03801,-0.007545,0.041952,-0.046558,60.514908,22.333191,-147.78804,,,
729605501.874263,-0.353413,-1.561363,53.713493,0.032959,-0.008713,1.03801,0.00244,0.077095,-0.044638,60.514908,22.333191,-147.78804,,,
729605501.877559,-0.353344,-1.54132,53.701018,0.036713,0.002686,1.038559,0.00244,0.077095,-0.044638,60.514908,22.333191,-147.78804,,,
729605501.880891,-0.354026,-1.523519,53.687866,0.036713,0.002686,1.038559,0.00244,0.077095,-0.044638,60.514908,22.333191,-147.78804,,,
729605501.884259,-0.354026,-1.523519,53.687866,0.036713,0.002686,1.038559,0.00244,0.077095,-0.044638,60.514908,22.333191,-147.78804,,,
729605501.887554,-0.354515,-1.5023,53.674412,0.034698,0.015762,1.026428,-0.002512,0.074222,-0.049127,60.514908,22.333191,-147.78804,,,
729605501.890889,-0.354411,-1.490016,53.660301,0.034698,0.015762,1.026428,-0.002512,0.074222,-0.049127,60.514908,22.333191,-147.78804,,,
729605501.894269,-0.354411,-1.490016,53.660301,0.034698,0.015762,1.026428,-0.004635,0.055398,-0.053705,60.638947,22.363113,-147.862274,,,
729605501.89755,-0.355406,-1.474464,53.645379,0.024185,0.018265,1.019135,-0.004635,0.055398,-0.053705,60.638947,22.363113,-147.862274,,,
729605501.900887,-0.355102,-1.467209,53.629591,0.024185,0.018265,1.019135,-0.004635,0.055398,-0.053705,60.638947,22.363113,-147.862274,,,
729605501.904269,-0.355102,-1.467209,53.629591,0.024185,0.018265,1.019135,-0.004635,0.055398,-0.053705,60.638947,22.363113,-147.862274,,,
729605501.907627,-0.357003,-1.457311,53.613098,0.015594,0.010208,1.023056,-0.008966,0.03649,-0.057935,60.638947,22.363113,-147.862274,,,
729605501.91088,-0.359938,-1.454967,53.596397,0.015594,0.010208,1.023056,-0.008966,0.03649,-0.057935,60.638947,22.363113,-147.862274,,,
729605501.914308,-0.359938,-1.454967,53.596397,0.015594,0.010208,1.023056,-0.015014,0.011318,-0.056744,60.638947,22.363113,-147.862274,,,
729605501.917545,-0.363673,-1.451547,53.579852,0.010162,0.000168,1.017517,-0.015014,0.011318,-0.056744,60.638947,22.363113,-147.862274,,,
729605501.920889,-0.369344,-1.453736,53.564144,0.010162,0.000168,1.017517,-0.015014,0.011318,-0.056744,60.638947,22.363113,-147.862274,,,
729605501.924271,-0.369344,-1.453736,53.564144,0.010162,0.000168,1.017517,-0.014783,-0.003256,-0.054825,60.638947,22.363113,-147.862274,,,
729605501.927548,-0.373752,-1.455356,53.54968,0.005814,-0.004898,1.014923,-0.014783,-0.003256,-0.054825,60.638947,22.363113,-147.862274,,,
729605501.930888,-0.378591,-1.461266,53.535374,0.005814,-0.004898,1.014923,-0.014783,-0.003256,-0.054825,60.638947,22.363113,-147.862274,,,
729605501.934223,-0.378591,-1.461266,53.535374,0.005814,-0.004898,1.014923,-0.014783,-0.003256,-0.054825,60.621902,22.532074,-147.945343,,,
729605501.937556,-0.381031,-1.466757,53.521101,0.011063,-0.002594,1.014542,-0.005215,-0.018908,-0.048526,60.621902,22.532074,-147.945343,,,
729605501.940891,-0.381274,-1.474967,53.507533,0.011063,-0.002594,1.014542,-0.005215,-0.018908,-0.048526,60.621902,22.532074,-147.945343,,,
729605501.944219,-0.381274,-1.474967,53.507533,0.011063,-0.002594,1.014542,-0.005215,-0.018908,-0.048526,60.621902,22.532074,-147.945343,,,
729605501.947638,-0.37726,-1.482334,53.495066,0.014084,0.001984,1.020142,0.017102,-0.023739,-0.043065,60.621902,22.532074,-147.945343,,,
729605501.950724,-0.367953,-1.490937,53.484598,0.014084,0.001984,1.020142,0.017102,-0.023739,-0.043065,60.621902,22.532074,-147.945343,,,
729605501.954321,-0.367953,-1.490937,53.484598,0.014084,0.001984,1.020142,0.017102,-0.023739,-0.043065,60.621902,22.532074,-147.945343,,,
729605501.957564,-0.353577,-1.498855,53.4764,0.013641,0.000839,1.026932,0.052734,-0.023213,-0.031117,60.621902,22.532074,-147.945343,,,
729605501.960893,-0.33335,-1.505185,53.471091,0.013641,0.000839,1.026932,0.052734,-0.023213,-0.031117,60.621902,22.532074,-147.945343,,,
729605501.964221,-0.33335,-1.505185,53.471091,0.013641,0.000839,1.026932,0.052734,-0.023213,-0.031117,60.621902,22.532074,-147.945343,,,
729605501.967562,-0.309732,-1.50734,53.46953,0.007416,-0.001343,1.031815,0.090012,-0.001864,-0.006621,60.621902,22.532074,-147.945343,,,
729605501.97089,-0.279957,-1.506114,53.471515,0.007416,-0.001343,1.031815,0.090012,-0.001864,-0.006621,60.621902,22.532074,-147.945343,,,
729605501.974241,-0.279957,-1.506114,53.471515,0.007416,-0.001343,1.031815,0.090012,-0.001864,-0.006621,60.621902,22.532074,-147.945343,,,
729605501.97756,-0.247471,-1.501268,53.475868,0.011383,0.005798,1.033447,0.115723,0.022635,0.010933,60.722626,22.213104,-148.048264,,,
729605501.980888,-0.211243,-1.494414,53.481619,0.011383,0.005798,1.033447,0.115723,0.022635,0.010933,60.722626,22.213104,-148.048264,,,
729605501.984221,-0.211243,-1.494414,53.481619,0.011383,0.005798,1.033447,0.115723,0.022635,0.010933,60.722626,22.213104,-148.048264,,,
729605501.987559,-0.176457,-1.487427,53.488614,0.012939,0.012482,1.015549,0.123291,0.028408,0.023553,60.722626,22.213104,-148.048264,,,
729605501.990888,-0.1435,-1.479186,53.496306,0.012939,0.012482,1.015549,0.123291,0.028408,0.023553,60.722626,22.213104,-148.048264,,,
729605501.994218,-0.1435,-1.479186,53.496306,0.012939,0.012482,1.015549,0.123291,0.028408,0.023553,60.722626,22.213104,-148.048264,,,
729605501.997556,-0.114557,-1.471752,53.503878,0.012817,0.016861,0.992828,0.098952,0.028444,0.019967,60.722626,22.213104,-148.048264,,,
729605502.000891,-0.091027,-1.463511,53.510981,0.012817,0.016861,0.992828,0.098952,0.028444,0.019967,60.722626,22.213104,-148.048264,,,
729605502.00423,-0.091027,-1.463511,53.510981,0.012817,0.016861,0.992828,0.098952,0.028444,0.019967,60.722626,22.213104,-148.048264,,,
729605502.007553,-0.07566,-1.456759,53.517956,0.01059,0.018661,0.970428,0.048713,0.025646,0.023728,60.722626,22.213104,-148.048264,,,
729605502.010888,-0.069252,-1.448806,53.525059,0.01059,0.018661,0.970428,0.048713,0.025646,0.023728,60.722626,22.213104,-148.048264,,,
729605502.014219,-0.069252,-1.448806,53.525059,0.01059,0.018661,0.970428,0.048713,0.025646,0.023728,60.722626,22.213104,-148.048264,,,
729605502.017554,-0.069939,-1.444154,53.532485,0.007462,0.01622,0.957565,-0.006771,0.01798,0.028995,60.671204,22.100128,-148.060165,,,
729605502.020886,-0.077303,-1.43977,53.540413,0.007462,0.01622,0.957565,-0.006771,0.01798,0.028995,60.671204,22.100128,-148.060165,,,
729605502.02422,-0.077303,-1.43977,53.540413,0.007462,0.01622,0.957565,-0.006771,0.01798,0.028995,60.671204,22.100128,-148.060165,,,
729605502.027552,-0.089509,-1.438668,53.548545,0.006622,0.012054,0.959824,-0.049686,0.005901,0.02715,60.671204,22.100128,-148.060165,,,
729605502.030888,-0.102304,-1.43715,53.556818,0.006622,0.012054,0.959824,-0.049686,0.005901,0.02715,60.671204,22.100128,-148.060165,,,
729605502.034218,-0.102304,-1.43715,53.556818,0.006622,0.012054,0.959824,-0.049686,0.005901,0.02715,60.671204,22.100128,-148.060165,,,
729605502.037554,-0.114202,-1.437714,53.566086,0.004013,-9.2e-05,0.980209,-0.039941,-0.001333,0.032248,60.671204,22.100128,-148.060165,,,
729605502.040886,-0.123064,-1.437432,53.577516,0.004013,-9.2e-05,0.980209,-0.039941,-0.001333,0.032248,60.671204,22.100128,-148.060165,,,
729605502.044221,-0.123064,-1.437432,53.577516,0.004013,-9.2e-05,0.980209,-0.039941,-0.001333,0.032248,60.671204,22.100128,-148.060165,,,
729605502.047553,-0.128315,-1.439738,53.591874,-0.004471,-0.020111,0.999557,-0.010646,-0.003704,0.051989,60.671204,22.100128,-148.060165,,,
729605502.050886,-0.130093,-1.439096,53.608689,-0.004471,-0.020111,0.999557,-0.010646,-0.003704,0.051989,60.671204,22.100128,-148.060165,,,
729605502.054219,-0.130093,-1.439096,53.608689,-0.004471,-0.020111,0.999557,-0.010646,-0.003704,0.051989,60.671204,22.100128,-148.060165,,,
729605502.057553,-0.129819,-1.440407,53.626935,-0.008301,-0.030594,1.004318,0.005832,-0.000576,0.063563,60.577271,22.299896,-148.097702,,,
729605502.060886,-0.125737,-1.441024,53.645164,-0.008301,-0.030594,1.004318,0.005832,-0.000576,0.063563,60.577271,22.299896,-148.097702,,,
729605502.064219,-0.125737,-1.441024,53.645164,-0.008301,-0.030594,1.004318,0.005832,-0.000576,0.063563,60.577271,22.299896,-148.097702,,,
729605502.067564,-0.121999,-1.444937,53.662214,0.007523,-0.023331,0.992081,0.013752,-0.010404,0.05724,60.577271,22.299896,-148.097702,,,
729605502.070884,-0.11613,-1.44777,53.677537,0.007523,-0.023331,0.992081,0.013752,-0.010404,0.05724,60.577271,22.299896,-148.097702,,,
729605502.07422,-0.11613,-1.44777,53.677537,0.007523,-0.023331,0.992081,0.013752,-0.010404,0.05724,60.577271,22.299896,-148.097702,,,
729605502.077553,-0.112855,-1.451387,53.691595,0.016205,-0.013794,0.982117,0.010717,-0.006805,0.045617,60.577271,22.299896,-148.097702,,,
729605502.080886,-0.106873,-1.451456,53.705665,0.016205,-0.013794,0.982117,0.010717,-0.006805,0.045617,60.577271,22.299896,-148.097702,,,
729605502.084221,-0.106873,-1.451456,53.705665,0.016205,-0.013794,0.982117,0.010717,-0.006805,0.045617,60.577271,22.299896,-148.097702,,,
729605502.087552,-0.103197,-1.451518,53.720019,0.019547,-0.01413,0.983368,0.013718,0.005175,0.048708,60.577271,22.299896,-148.097702,,,
729605502.090889,-0.096617,-1.447882,53.735093,0.019547,-0.01413,0.983368,0.013718,0.005175,0.048708,60.577271,22.299896,-148.097702,,,
729605502.094217,-0.096617,-1.447882,53.735093,0.019547,-0.01413,0.983368,0.013718,0.005175,0.048708,60.577271,22.299896,-148.097702,,,
729605502.097603,-0.094284,-1.444669,53.751287,0.027023,-0.016739,0.981354,0.01077,0.016394,0.056759,60.450775,22.26915,-147.948151,,,
729605502.100881,-0.092211,-1.437797,53.768607,0.027023,-0.016739,0.981354,0.01077,0.016394,0.056759,60.450775,22.26915,-147.948151,,,
729605502.104219,-0.092211,-1.437797,53.768607,0.027023,-0.016739,0.981354,0.01077,0.016394,0.056759,60.450775,22.26915,-147.948151,,,
729605502.107599,-0.096292,-1.432443,53.786648,0.032715,-0.014877,0.970474,-0.017539,0.022781,0.06292,60.450775,22.26915,-147.948151,,,
729605502.11088,-0.103321,-1.423528,53.804594,0.032715,-0.014877,0.970474,-0.017539,0.022781,0.06292,60.450775,22.26915,-147.948151,,,
729605502.114218,-0.103321,-1.423528,53.804594,0.032715,-0.014877,0.970474,-0.017539,0.022781,0.06292,60.450775,22.26915,-147.948151,,,
729605502.117551,-0.116841,-1.416957,53.822318,0.035431,-0.00383,0.961304,-0.05124,0.027917,0.063466,60.450775,22.26915,-147.948151,,,
729605502.120885,-0.135673,-1.407651,53.839277,0.035431,-0.00383,0.961304,-0.05124,0.027917,0.063466,60.450775,22.26915,-147.948151,,,
729605502.124218,-0.135673,-1.407651,53.839277,0.035431,-0.00383,0.961304,-0.05124,0.027917,0.063466,60.450775,22.26915,-147.948151,,,
729605502.127554,-0.15736,-1.403023,53.854872,0.038895,0.004242,0.955643,-0.078585,0.017648,0.053882,60.450775,22.26915,-147.948151,,,
729605502.130898,-0.18397,-1.396747,53.869428,0.038895,0.004242,0.955643,-0.078585,0.017648,0.053882,60.450775,22.26915,-147.948151,,,
729605502.134217,-0.18397,-1.396747,53.869428,0.038895,0.004242,0.955643,-0.078585,0.017648,0.053882,60.450775,22.26915,-147.948151,,,
729605502.137553,-0.209955,-1.395324,53.882806,0.043701,0.007004,0.960373,-0.090842,0.003573,0.044168,60.450775,22.26915,-147.948151,,,
729605502.140888,-0.238852,-1.392883,53.895133,0.043701,0.007004,0.960373,-0.090842,0.003573,0.044168,60.43045,22.489883,-148.245712,,,
729605502.144217,-0.238852,-1.392883,53.895133,0.043701,0.007004,0.960373,-0.090842,0.003573,0.044168,60.43045,22.489883,-148.245712,,,
729605502.147552,-0.265691,-1.392535,53.907239,0.040146,-0.000381,0.973434,-0.090327,0.005553,0.044794,60.43045,22.489883,-148.245712,,,
729605502.150885,-0.292257,-1.392952,53.919501,0.040146,-0.000381,0.973434,-0.090327,0.005553,0.044794,60.43045,22.489883,-148.245712,,,
729605502.154232,-0.292257,-1.392952,53.919501,0.040146,-0.000381,0.973434,-0.090327,0.005553,0.044794,60.43045,22.489883,-148.245712,,,
729605502.157553,-0.31585,-1.395699,53.932212,0.039902,-0.008179,0.979004,-0.076516,-0.008245,0.044336,60.43045,22.489883,-148.245712,,,
729605502.160884,-0.337176,-1.397423,53.944592,0.039902,-0.008179,0.979004,-0.076516,-0.008245,0.044336,60.43045,22.489883,-148.245712,,,
729605502.164241,-0.337176,-1.397423,53.944592,0.039902,-0.008179,0.979004,-0.076516,-0.008245,0.044336,60.43045,22.489883,-148.245712,,,
729605502.167554,-0.354056,-1.398805,53.95441,0.04924,-0.010849,0.994888,-0.053038,-0.001046,0.030682,60.43045,22.489883,-148.245712,,,
729605502.170885,-0.366988,-1.400429,53.961297,0.04924,-0.010849,0.994888,-0.053038,-0.001046,0.030682,60.43045,22.489883,-148.245712,,,
729605502.174225,-0.366988,-1.400429,53.961297,0.04924,-0.010849,0.994888,-0.053038,-0.001046,0.030682,60.43045,22.489883,-148.245712,,,
729605502.177552,-0.37562,-1.401924,53.965914,0.053497,-0.005844,1.001144,-0.025217,-0.002177,0.013852,60.43045,22.489883,-148.245712,,,
729605502.180887,-0.382836,-1.402288,53.968394,0.053497,-0.005844,1.001144,-0.025217,-0.002177,0.013852,60.642181,22.640549,-148.202759,,,
729605502.184243,-0.382836,-1.402288,53.968394,0.053497,-0.005844,1.001144,-0.025217,-0.002177,0.013852,60.642181,22.640549,-148.202759,,,
729605502.187549,-0.387013,-1.400327,53.968844,0.044556,-0.007568,1.006866,-0.011177,0.014077,-0.001008,60.642181,22.640549,-148.202759,,,
729605502.190887,-0.391321,-1.397927,53.967264,0.044556,-0.007568,1.006866,-0.011177,0.014077,-0.001008,60.642181,22.640549,-148.202759,,,
729605502.194218,-0.391321,-1.397927,53.967264,0.044556,-0.007568,1.006866,-0.011177,0.014077,-0.001008,60.642181,22.640549,-148.202759,,,
729605502.197553,-0.395428,-1.392157,53.963587,0.047913,-0.003235,1.005219,-0.013879,0.02636,-0.017263,60.642181,22.640549,-148.202759,,,
729605502.200888,-0.399353,-1.386126,53.958038,0.047913,-0.003235,1.005219,-0.013879,0.02636,-0.017263,60.642181,22.640549,-148.202759,,,
729605502.20423,-0.399353,-1.386126,53.958038,0.047913,-0.003235,1.005219,-0.013879,0.02636,-0.017263,60.642181,22.640549,-148.202759,,,
729605502.20763,-0.405533,-1.377141,53.95147,0.041733,-0.002167,1.002884,-0.024262,0.035516,-0.024246,60.642181,22.640549,-148.202759,,,
729605502.210883,-0.41164,-1.36922,53.944372,0.041733,-0.002167,1.002884,-0.024262,0.035516,-0.024246,60.642181,22.640549,-148.202759,,,
729605502.214095,-0.41164,-1.36922,53.944372,0.041733,-0.002167,1.002884,-0.024262,0.035516,-0.024246,60.642181,22.640549,-148.202759,,,
729605502.217571,-0.420802,-1.357515,53.936838,0.030136,-0.002274,1.005478,-0.035714,0.044278,-0.026608,60.642181,22.640549,-148.202759,,,
729605502.220883,-0.429688,-1.347061,53.929122,0.030136,-0.002274,1.005478,-0.035714,0.044278,-0.026608,60.816315,22.788696,-148.072708,,,
729605502.224219,-0.429688,-1.347061,53.929122,0.030136,-0.002274,1.005478,-0.035714,0.044278,-0.026608,60.816315,22.788696,-148.072708,,,
729605502.227555,-0.440395,-1.333245,53.920974,0.024704,-0.005722,1.009827,-0.037556,0.053093,-0.027039,60.816315,22.788696,-148.072708,,,
729605502.230884,-0.449581,-1.321776,53.912109,0.024704,-0.005722,1.009827,-0.037556,0.053093,-0.027039,60.816315,22.788696,-148.072708,,,
729605502.234219,-0.449581,-1.321776,53.912109,0.024704,-0.005722,1.009827,-0.037556,0.053093,-0.027039,60.816315,22.788696,-148.072708,,,
729605502.237555,-0.457051,-1.308078,53.90275,0.02211,-0.011673,1.01561,-0.0262,0.050405,-0.03394,60.816315,22.788696,-148.072708,,,
729605502.240885,-0.460823,-1.298246,53.892981,0.02211,-0.011673,1.01561,-0.0262,0.050405,-0.03394,60.816315,22.788696,-148.072708,,,
729605502.244222,-0.460823,-1.298246,53.892981,0.02211,-0.011673,1.01561,-0.0262,0.050405,-0.03394,60.816315,22.788696,-148.072708,,,
729605502.247554,-0.460326,-1.284453,53.882563,0.018921,-0.018951,1.022629,0.003117,0.050262,-0.040747,60.816315,22.788696,-148.072708,,,
729605502.250884,-0.455958,-1.274646,53.871942,0.018921,-0.018951,1.022629,0.003117,0.050262,-0.040747,60.816315,22.788696,-148.072708,,,
729605502.254222,-0.455958,-1.274646,53.871942,0.018921,-0.018951,1.022629,0.003117,0.050262,-0.040747,60.816315,22.788696,-148.072708,,,
729605502.257553,-0.446916,-1.257568,53.862339,0.010986,-0.025421,1.02829,0.035601,0.064253,-0.033828,60.816315,22.788696,-148.072708,,,
729605502.260899,-0.433379,-1.243592,53.854139,0.010986,-0.025421,1.02829,0.035601,0.064253,-0.033828,60.816315,22.788696,-148.072708,,,
729605502.26399,-0.433379,-1.243592,53.854139,0.010986,-0.025421,1.02829,0.035601,0.064253,-0.033828,60.965927,22.546951,-148.040543,,,
729605502.267591,-0.415601,-1.224855,53.847361,0.00618,-0.02565,1.028061,0.067048,0.069078,-0.024432,60.965927,22.546951,-148.040543,,,
729605502.270886,-0.393902,-1.209606,53.841706,0.00618,-0.02565,1.028061,0.067048,0.069078,-0.024432,60.965927,22.546951,-148.040543,,,
729605502.274219,-0.393902,-1.209606,53.841706,0.00618,-0.02565,1.028061,0.067048,0.069078,-0.024432,60.965927,22.546951,-148.040543,,,
729605502.277571,-0.368812,-1.192062,53.837593,0.006927,-0.021362,1.020493,0.090134,0.062502,-0.016192,60.965927,22.546951,-148.040543,,,
729605502.280968,-0.340613,-1.181874,53.834364,0.006927,-0.021362,1.020493,0.090134,0.062502,-0.016192,60.965927,22.546951,-148.040543,,,
729605502.284213,-0.340613,-1.181874,53.834364,0.006927,-0.021362,1.020493,0.090134,0.062502,-0.016192,60.965927,22.546951,-148.040543,,,
729605502.287613,-0.313519,-1.16997,53.831343,0.006119,-0.013489,1.012146,0.09477,0.042179,-0.015411,60.965927,22.546951,-148.040543,,,
729605502.290896,-0.287083,-1.163904,53.828437,0.006119,-0.013489,1.012146,0.09477,0.042179,-0.015411,60.965927,22.546951,-148.040543,,,
729605502.294219,-0.287083,-1.163904,53.828437,0.006119,-0.013489,1.012146,0.09477,0.042179,-0.015411,60.965927,22.546951,-148.040543,,,
729605502.297411,-0.262644,-1.156938,53.825042,0.005264,-0.007538,0.99884,0.084655,0.024712,-0.015938,60.965927,22.546951,-148.040543,,,
729605502.300908,-0.239964,-1.153172,53.821253,0.005264,-0.007538,0.99884,0.084655,0.024712,-0.015938,60.965927,22.546951,-148.040543,,,
729605502.304217,-0.239964,-1.153172,53.821253,0.005264,-0.007538,0.99884,0.084655,0.024712,-0.015938,61.032028,22.282333,-148.074356,,,
729605502.307294,-0.219771,-1.150254,53.817648,0.006271,-0.003815,0.994568,0.07008,0.010151,-0.016158,61.032028,22.282333,-148.074356,,,
729605502.310918,-0.202812,-1.149588,53.814571,0.006271,-0.003815,0.994568,0.07008,0.010151,-0.016158,61.032028,22.282333,-148.074356,,,
729605502.314212,-0.202812,-1.149588,53.814571,0.006271,-0.003815,0.994568,0.07008,0.010151,-0.016158,61.032028,22.282333,-148.074356,,,
729605502.317554,-0.18827,-1.14831,53.812278,0.008163,-0.003204,0.991699,0.047689,0.009213,-0.010199,61.032028,22.282333,-148.074356,,,
729605502.320891,-0.179128,-1.145988,53.811296,0.008163,-0.003204,0.991699,0.047689,0.009213,-0.010199,61.032028,22.282333,-148.074356,,,
729605502.324216,-0.179128,-1.145988,53.811296,0.008163,-0.003204,0.991699,0.047689,0.009213,-0.010199,61.032028,22.282333,-148.074356,,,
729605502.327554,-0.171414,-1.142284,53.811616,0.007874,-0.004074,0.992493,0.023668,0.016781,-0.000471,61.032028,22.282333,-148.074356,,,
729605502.330763,-0.170895,-1.136577,53.812596,0.007874,-0.004074,0.992493,0.023668,0.016781,-0.000471,61.032028,22.282333,-148.074356,,,
729605502.334231,-0.170895,-1.136577,53.812596,0.007874,-0.004074,0.992493,0.023668,0.016781,-0.000471,61.032028,22.282333,-148.074356,,,
729605502.337554,-0.169095,-1.131006,53.813763,0.011795,0.001114,0.99025,0.004889,0.023956,-0.000517,61.032028,22.282333,-148.074356,,,
729605502.340606,-0.174216,-1.122549,53.814362,0.011795,0.001114,0.99025,0.004889,0.023956,-0.000517,61.032028,22.282333,-148.074356,,,
729605502.344252,-0.174216,-1.122549,53.814362,0.011795,0.001114,0.99025,0.004889,0.023956,-0.000517,61.072586,22.283783,-148.131241,,,
729605502.347549,-0.178111,-1.116026,53.814886,0.01355,0.004715,0.987061,-0.016877,0.027664,0.002965,61.072586,22.283783,-148.131241,,,
729605502.350883,-0.18776,-1.107543,53.815752,0.01355,0.004715,0.987061,-0.016877,0.027664,0.002965,61.072586,22.283783,-148.131241,,,
729605502.354232,-0.18776,-1.107543,53.815752,0.01355,0.004715,0.987061,-0.016877,0.027664,0.002965,61.072586,22.283783,-148.131241,,,
729605502.357551,-0.193455,-1.103708,53.816619,0.018692,0.002792,0.985062,-0.020192,0.017464,0.002625,61.072586,22.283783,-148.131241,,,
729605502.36089,-0.200186,-1.100858,53.81723,0.018692,0.002792,0.985062,-0.020192,0.017464,0.002625,61.072586,22.283783,-148.131241,,,
729605502.364072,-0.200186,-1.100858,53.81723,0.018692,0.002792,0.985062,-0.020192,0.017464,0.002625,61.072586,22.283783,-148.131241,,,
729605502.367571,-0.200868,-1.102797,53.818068,0.01944,-0.002304,0.988297,0.001522,-0.003666,0.002259,61.072586,22.283783,-148.131241,,,
729605502.370961,-0.199497,-1.102217,53.819779,0.01944,-0.002304,0.988297,0.001522,-0.003666,0.002259,61.072586,22.283783,-148.131241,,,
729605502.373971,-0.199497,-1.102217,53.819779,0.01944,-0.002304,0.988297,0.001522,-0.003666,0.002259,61.072586,22.283783,-148.131241,,,
729605502.377589,-0.193366,-1.103518,53.822681,0.020355,-0.011597,0.99913,0.028366,-0.003866,0.011473,61.072586,22.283783,-148.131241,,,
729605502.380882,-0.186866,-1.101303,53.827417,0.020355,-0.011597,0.99913,0.028366,-0.003866,0.011473,61.072586,22.283783,-148.131241,,,
729605502.384227,-0.186866,-1.101303,53.827417,0.020355,-0.011597,0.99913,0.028366,-0.003866,0.011473,61.063049,22.45285,-148.268677,,,
729605502.387552,-0.180977,-1.099338,53.83437,0.019928,-0.013885,0.994492,0.022103,0.010065,0.024657,61.063049,22.45285,-148.268677,,,
729605502.390884,-0.1774,-1.092464,53.843896,0.019928,-0.013885,0.994492,0.022103,0.010065,0.024657,61.063049,22.45285,-148.268677,,,
729605502.394217,-0.1774,-1.092464,53.843896,0.019928,-0.013885,0.994492,0.022103,0.010065,0.024657,61.063049,22.45285,-148.268677,,,
729605502.397553,-0.178729,-1.084855,53.855292,0.022263,-0.004333,0.983459,-0.005809,0.034499,0.0394,61.063049,22.45285,-148.268677,,,
729605502.400965,-0.186081,-1.071582,53.867838,0.022263,-0.004333,0.983459,-0.005809,0.034499,0.0394,61.063049,22.45285,-148.268677,,,
729605502.404218,-0.186081,-1.071582,53.867838,0.022263,-0.004333,0.983459,-0.005809,0.034499,0.0394,61.063049,22.45285,-148.268677,,,
729605502.407454,-0.198937,-1.058023,53.880173,0.025223,0.007965,0.976471,-0.048546,0.053498,0.041958,61.063049,22.45285,-148.268677,,,
729605502.410899,-0.217381,-1.041507,53.891488,0.025223,0.007965,0.976471,-0.048546,0.053498,0.041958,61.063049,22.45285,-148.268677,,,
729605502.414215,-0.217381,-1.041507,53.891488,0.025223,0.007965,0.976471,-0.048546,0.053498,0.041958,61.063049,22.45285,-148.268677,,,
729605502.417334,-0.241139,-1.027653,53.900871,0.026184,0.016678,0.9711,-0.088498,0.050378,0.028022,61.063049,22.45285,-148.268677,,,
729605502.420926,-0.26812,-1.016218,53.906151,0.026184,0.016678,0.9711,-0.088498,0.050378,0.028022,61.063049,22.45285,-148.268677,,,
729605502.42422,-0.26812,-1.016218,53.906151,0.026184,0.016678,0.9711,-0.088498,0.050378,0.028022,61.063049,22.45285,-148.268677,,,
729605502.427552,-0.30004,-1.011127,53.906624,0.029312,0.019577,0.969391,-0.113094,0.016503,-0.0018,61.016861,22.538742,-148.288895,,,
729605502.430894,-0.3323,-1.012125,53.902405,0.029312,0.019577,0.969391,-0.113094,0.016503,-0.0018,61.016861,22.538742,-148.288895,,,
729605502.434215,-0.3323,-1.012125,53.902405,0.029312,0.019577,0.969391,-0.113094,0.016503,-0.0018,61.016861,22.538742,-148.288895,,,
729605502.437551,-0.36569,-1.01892,53.893551,0.028229,0.014511,0.978592,-0.114292,-0.023322,-0.035083,61.016861,22.538742,-148.288895,,,
729605502.440885,-0.394791,-1.029749,53.880805,0.028229,0.014511,0.978592,-0.114292,-0.023322,-0.035083,61.016861,22.538742,-148.288895,,,
729605502.444217,-0.394791,-1.029749,53.880805,0.028229,0.014511,0.978592,-0.114292,-0.023322,-0.035083,61.016861,22.538742,-148.288895,,,
729605502.447557,-0.420665,-1.043704,53.866097,0.025925,0.002792,1.005341,-0.087771,-0.04881,-0.048855,61.016861,22.538742,-148.288895,,,
729605502.450886,-0.44162,-1.059785,53.852343,0.025925,0.002792,1.005341,-0.087771,-0.04881,-0.048855,61.016861,22.538742,-148.288895,,,
729605502.454233,-0.44162,-1.059785,53.852343,0.025925,0.002792,1.005341,-0.087771,-0.04881,-0.048855,61.016861,22.538742,-148.288895,,,
729605502.45755,-0.458815,-1.074132,53.841694,0.013855,-0.01033,1.017883,-0.057309,-0.044018,-0.035892,61.016861,22.538742,-148.288895,,,
729605502.460884,-0.473461,-1.085849,53.833816,0.013855,-0.01033,1.017883,-0.057309,-0.044018,-0.035892,61.016861,22.538742,-148.288895,,,
729605502.464233,-0.473461,-1.085849,53.833816,0.013855,-0.01033,1.017883,-0.057309,-0.044018,-0.035892,61.016861,22.538742,-148.288895,,,
729605502.467561,-0.483935,-1.093109,53.828384,0.012466,-0.018005,1.026443,-0.033652,-0.016721,-0.017629,61.155258,22.589096,-148.310989,,,
729605502.470888,-0.493102,-1.095577,53.825083,0.012466,-0.018005,1.026443,-0.033652,-0.016721,-0.017629,61.155258,22.589096,-148.310989,,,
729605502.474217,-0.493102,-1.095577,53.825083,0.012466,-0.018005,1.026443,-0.033652,-0.016721,-0.017629,61.155258,22.589096,-148.310989,,,
729605502.477553,-0.501175,-1.092039,53.823359,0.024536,-0.011551,1.023132,-0.027026,0.018599,-0.005743,61.155258,22.589096,-148.310989,,,
729605502.480882,-0.507443,-1.08291,53.823101,0.024536,-0.011551,1.023132,-0.027026,0.018599,-0.005743,61.155258,22.589096,-148.310989,,,
729605502.484217,-0.507443,-1.08291,53.823101,0.024536,-0.011551,1.023132,-0.027026,0.018599,-0.005743,61.155258,22.589096,-148.310989,,,
729605502.487554,-0.515833,-1.067729,53.823759,0.018234,-0.004425,1.017639,-0.030298,0.060224,0.001536,61.155258,22.589096,-148.310989,,,
729605502.490894,-0.520966,-1.050938,53.82515,0.018234,-0.004425,1.017639,-0.030298,0.060224,0.001536,61.155258,22.589096,-148.310989,,,
729605502.494215,-0.520966,-1.050938,53.82515,0.018234,-0.004425,1.017639,-0.030298,0.060224,0.001536,61.155258,22.589096,-148.310989,,,
729605502.497551,-0.531926,-1.030736,53.826694,0.013077,-0.002518,1.010437,-0.041649,0.075314,0.006147,61.155258,22.589096,-148.310989,,,
729605502.500887,-0.540085,-1.011213,53.827946,0.013077,-0.002518,1.010437,-0.041649,0.075314,0.006147,61.155258,22.589096,-148.310989,,,
729605502.504217,-0.540085,-1.011213,53.827946,0.013077,-0.002518,1.010437,-0.041649,0.075314,0.006147,61.155258,22.589096,-148.310989,,,
729605502.507555,-0.556444,-0.989188,53.829144,0.006165,-0.002304,1.003845,-0.056645,0.080419,0.004097,61.2314,22.754135,-148.39183,,,
729605502.510884,-0.56871,-0.970736,53.829661,0.006165,-0.002304,1.003845,-0.056645,0.080419,0.004097,61.2314,22.754135,-148.39183,,,
729605502.514217,-0.56871,-0.970736,53.829661,0.006165,-0.002304,1.003845,-0.056645,0.080419,0.004097,61.2314,22.754135,-148.39183,,,
729605502.51755,-0.586825,-0.953375,53.829352,0.002701,-0.005173,1.002731,-0.064819,0.061269,-0.001272,61.2314,22.754135,-148.39183,,,
729605502.520883,-0.600642,-0.943427,53.828028,0.002701,-0.005173,1.002731,-0.064819,0.061269,-0.001272,61.2314,22.754135,-148.39183,,,
729605502.524223,-0.600642,-0.943427,53.828028,0.002701,-0.005173,1.002731,-0.064819,0.061269,-0.001272,61.2314,22.754135,-148.39183,,,
729605502.527549,-0.618032,-0.937084,53.825515,0.003922,-0.009644,0.99707,-0.058066,0.020273,-0.009625,61.2314,22.754135,-148.39183,,,
729605502.530883,-0.633315,-0.936586,53.821865,0.003922,-0.009644,0.99707,-0.058066,0.020273,-0.009625,61.2314,22.754135,-148.39183,,,
729605502.534216,-0.633315,-0.936586,53.821865,0.003922,-0.009644,0.99707,-0.058066,0.020273,-0.009625,61.2314,22.754135,-148.39183,,,
729605502.537549,-0.649558,-0.938582,53.817273,0.00209,-0.014374,0.99733,-0.054093,-0.005417,-0.016476,61.2314,22.754135,-148.39183,,,
729605502.540974,-0.665236,-0.942882,53.812581,0.00209,-0.014374,0.99733,-0.054093,-0.005417,-0.016476,61.2314,22.754135,-148.39183,,,
729605502.544208,-0.665236,-0.942882,53.812581,0.00209,-0.014374,0.99733,-0.054093,-0.005417,-0.016476,61.2314,22.754135,-148.39183,,,
729605502.547555,-0.677231,-0.950902,53.808551,0.003998,-0.015305,1.000519,-0.035912,-0.02505,-0.015297,61.194809,22.732666,-148.527115,,,
729605502.550895,-0.684124,-0.960101,53.80546,0.003998,-0.015305,1.000519,-0.035912,-0.02505,-0.015297,61.194809,22.732666,-148.527115,,,
729605502.554222,-0.684124,-0.960101,53.80546,0.003998,-0.015305,1.000519,-0.035912,-0.02505,-0.015297,61.194809,22.732666,-148.527115,,,
729605502.557553,-0.682499,-0.971228,53.803641,0.009796,-0.02095,1.018051,0.013605,-0.036924,-0.006794,61.194809,22.732666,-148.527115,,,
729605502.56076,-0.682499,-0.971228,53.803641,0.009796,-0.02095,1.018051,0.013605,-0.036924,-0.006794,61.194809,22.732666,-148.527115,,,
729605502.564231,-0.672746,-0.985865,53.803716,0.009796,-0.02095,1.018051,0.013605,-0.036924,-0.006794,61.194809,22.732666,-148.527115,,,
729605502.56755,-0.65882,-0.999411,53.805575,0.010605,-0.026184,1.024979,0.054685,-0.043837,0.005285,61.194809,22.732666,-148.527115,,,
729605502.570636,-0.65882,-0.999411,53.805575,0.010605,-0.026184,1.024979,0.054685,-0.043837,0.005285,61.194809,22.732666,-148.527115,,,
729605502.574257,-0.640874,-1.009933,53.808503,0.010605,-0.026184,1.024979,0.054685,-0.043837,0.005285,61.194809,22.732666,-148.527115,,,
729605502.577549,-0.623636,-1.017627,53.811384,0.011047,-0.018784,1.021744,0.063045,-0.022844,0.00823,61.194809,22.732666,-148.527115,,,
729605502.580887,-0.623636,-1.017627,53.811384,0.011047,-0.018784,1.021744,0.063045,-0.022844,0.00823,61.194809,22.732666,-148.527115,,,
729605502.584221,-0.606097,-1.021406,53.812919,0.011047,-0.018784,1.021744,0.063045,-0.022844,0.00823,61.194809,22.732666,-148.527115,,,
729605502.587555,-0.593177,-1.023835,53.812863,0.023209,-0.003983,1.004868,0.043562,-0.002361,-0.006653,61.194809,22.732666,-148.527115,,,
729605502.590882,-0.593177,-1.023835,53.812863,0.023209,-0.003983,1.004868,0.043562,-0.002361,-0.006653,61.053955,22.755508,-148.315704,,,
729605502.594103,-0.582326,-1.021234,53.811133,0.023209,-0.003983,1.004868,0.043562,-0.002361,-0.006653,61.053955,22.755508,-148.315704,,,
729605502.597566,-0.576373,-1.018429,53.807199,0.028076,0.002853,0.992767,0.018014,0.016595,-0.017708,61.053955,22.755508,-148.315704,,,
729605502.600879,-0.576373,-1.018429,53.807199,0.028076,0.002853,0.992767,0.018014,0.016595,-0.017708,61.053955,22.755508,-148.315704,,,
729605502.603981,-0.572658,-1.011134,53.802105,0.028076,0.002853,0.992767,0.018014,0.016595,-0.017708,61.053955,22.755508,-148.315704,,,
729605502.607582,-0.572121,-1.004915,53.796652,0.025833,0.001984,0.990402,-0.003205,0.026255,-0.021735,61.053955,22.755508,-148.315704,,,
729605502.610877,-0.572121,-1.004915,53.796652,0.025833,0.001984,0.990402,-0.003205,0.026255,-0.021735,61.053955,22.755508,-148.315704,,,
729605502.614215,-0.574296,-0.994006,53.791535,0.025833,0.001984,0.990402,-0.003205,0.026255,-0.021735,61.053955,22.755508,-148.315704,,,
729605502.617589,-0.577483,-0.983975,53.787383,0.016251,-0.007019,0.989746,-0.011783,0.039429,-0.013803,61.053955,22.755508,-148.315704,,,
729605502.620949,-0.581997,-0.970737,53.783945,0.016251,-0.007019,0.989746,-0.011783,0.039429,-0.013803,61.053955,22.755508,-148.315704,,,
729605502.62428,-0.581997,-0.970737,53.783945,0.016251,-0.007019,0.989746,-0.011783,0.039429,-0.013803,61.053955,22.755508,-148.315704,,,
729605502.627475,-0.58485,-0.9609,53.781124,0.012756,-0.011932,0.993088,-0.005216,0.037055,-0.010349,61.053955,22.755508,-148.315704,,,
729605502.630895,-0.58485,-0.9609,53.781124,0.012756,-0.011932,0.993088,-0.005216,0.037055,-0.010349,61.291794,22.429413,-148.093323,,,
729605502.634214,-0.58768,-0.950771,53.778949,0.012756,-0.011932,0.993088,-0.005216,0.037055,-0.010349,61.291794,22.429413,-148.093323,,,
729605502.637296,-0.586701,-0.945381,53.777676,0.008453,-0.014877,0.993027,0.006793,0.017664,-0.004149,61.291794,22.429413,-148.093323,,,
