Time (sec),Pitch (deg),Roll (deg),Yaw(deg),X-Acceleration (g),Y-Acceleration (g),Z-Acceleration (g),Pitch Rate (deg/sec),Roll Rate (deg/sec),Yaw Rate (deg/sec),Magnetic Field in X direction (uT),Magnetic Field in Y direction (uT),Magnetic Field in Z Direction (uT),Latitude (deg),Longitude (deg),Altitude (m)
729601272.717378,0.654508,-1.17449,-20.611314,0.033066,0.022461,0.998642,-0.03874,-0.025706,-0.017817,69.629974,9.080551,-146.203125,,,
729601272.720754,0.644681,-1.178721,-20.614776,0.033066,0.022461,0.998642,-0.029982,-0.006853,-0.01109,69.629974,9.080551,-146.203125,,,
729601272.724021,0.635049,-1.179716,-20.616911,0.03125,0.019135,1.009232,-0.029982,-0.006853,-0.01109,69.676193,9.117798,-146.191833,,,
729601272.727383,0.635049,-1.179716,-20.616911,0.03125,0.019135,1.009232,-0.029982,-0.006853,-0.01109,69.676193,9.117798,-146.191833,,,
729601272.730726,0.626839,-1.178666,-20.617241,0.03125,0.019135,1.009232,-0.028436,0.009991,0.001402,69.676193,9.117798,-146.191833,,,
729601272.734025,0.618845,-1.177769,-20.61619,0.027374,0.016617,1.009094,-0.028436,0.009991,0.001402,69.676193,9.117798,-146.191833,,,
729601272.737375,0.618845,-1.177769,-20.61619,0.027374,0.016617,1.009094,-0.028436,0.009991,0.001402,69.676193,9.117798,-146.191833,,,
729601272.740708,0.611027,-1.176973,-20.614807,0.027374,0.016617,1.009094,-0.025449,0.00434,0.003735,69.676193,9.117798,-146.191833,,,
729601272.744069,0.603736,-1.176592,-20.613944,0.027832,0.016449,1.002121,-0.025449,0.00434,0.003735,69.676193,9.117798,-146.191833,,,
729601272.747452,0.603736,-1.176592,-20.613944,0.027832,0.016449,1.002121,-0.025449,0.00434,0.003735,69.676193,9.117798,-146.191833,,,
729601272.750718,0.59552,-1.175063,-20.614223,0.027832,0.016449,1.002121,-0.028391,0.009061,-0.00412,69.676193,9.117798,-146.191833,,,
729601272.754024,0.588128,-1.173657,-20.615383,0.026428,0.016922,1.006546,-0.028391,0.009061,-0.00412,69.676193,9.117798,-146.191833,,,
729601272.75737,0.588128,-1.173657,-20.615383,0.026428,0.016922,1.006546,-0.028391,0.009061,-0.00412,69.676193,9.117798,-146.191833,,,
729601272.760717,0.57967,-1.174692,-20.61718,0.026428,0.016922,1.006546,-0.028463,-0.004069,-0.008601,69.676193,9.117798,-146.191833,,,
729601272.764032,0.574383,-1.176564,-20.619573,0.023178,0.012024,1.006805,-0.028463,-0.004069,-0.008601,69.625534,9.270447,-146.200836,,,
729601272.767252,0.574383,-1.176564,-20.619573,0.023178,0.012024,1.006805,-0.028463,-0.004069,-0.008601,69.625534,9.270447,-146.200836,,,
729601272.770811,0.567457,-1.180091,-20.622267,0.023178,0.012024,1.006805,-0.021908,-0.011815,-0.01081,69.625534,9.270447,-146.200836,,,
729601272.774023,0.564975,-1.185729,-20.62522,0.021667,0.008591,1.010437,-0.021908,-0.011815,-0.01081,69.625534,9.270447,-146.200836,,,
729601272.777404,0.564975,-1.185729,-20.62522,0.021667,0.008591,1.010437,-0.021908,-0.011815,-0.01081,69.625534,9.270447,-146.200836,,,
729601272.780734,0.560568,-1.192186,-20.628545,0.021667,0.008591,1.010437,-0.010168,-0.021855,-0.013607,69.625534,9.270447,-146.200836,,,
729601272.784029,0.562791,-1.202827,-20.631636,0.021744,0.004852,1.020523,-0.010168,-0.021855,-0.013607,69.625534,9.270447,-146.200836,,,
729601272.787383,0.562791,-1.202827,-20.631636,0.021744,0.004852,1.020523,-0.010168,-0.021855,-0.013607,69.625534,9.270447,-146.200836,,,
729601272.790713,0.562905,-1.210561,-20.633722,0.021744,0.004852,1.020523,0.00185,-0.02089,-0.00667,69.625534,9.270447,-146.200836,,,
729601272.794069,0.567853,-1.221122,-20.634626,0.017776,0.000656,1.02298,0.00185,-0.02089,-0.00667,69.625534,9.270447,-146.200836,,,
729601272.797439,0.567853,-1.221122,-20.634626,0.017776,0.000656,1.02298,0.00185,-0.02089,-0.00667,69.625534,9.270447,-146.200836,,,
729601272.800692,0.57066,-1.227765,-20.634982,0.017776,0.000656,1.02298,0.009658,-0.019568,-0.002811,69.625534,9.270447,-146.200836,,,
729601272.804024,0.576045,-1.236342,-20.635121,0.018661,0.003693,1.01857,0.009658,-0.019568,-0.002811,69.680893,9.339905,-146.556168,,,
729601272.807369,0.576045,-1.236342,-20.635121,0.018661,0.003693,1.01857,0.009658,-0.019568,-0.002811,69.680893,9.339905,-146.556168,,,
729601272.810737,0.580749,-1.242202,-20.635099,0.018661,0.003693,1.01857,0.019244,-0.017479,-0.001741,69.680893,9.339905,-146.556168,,,
729601272.814031,0.588384,-1.249391,-20.635462,0.026443,0.008347,1.011032,0.019244,-0.017479,-0.001741,69.680893,9.339905,-146.556168,,,
729601272.817392,0.588384,-1.249391,-20.635462,0.026443,0.008347,1.011032,0.019244,-0.017479,-0.001741,69.680893,9.339905,-146.556168,,,
729601272.82076,0.595914,-1.254769,-20.636379,0.026443,0.008347,1.011032,0.029368,-0.015466,-0.005743,69.680893,9.339905,-146.556168,,,
729601272.824007,0.60672,-1.261916,-20.637778,0.031082,0.010452,1.011124,0.029368,-0.015466,-0.005743,69.680893,9.339905,-146.556168,,,
729601272.827406,0.60672,-1.261916,-20.637778,0.031082,0.010452,1.011124,0.029368,-0.015466,-0.005743,69.680893,9.339905,-146.556168,,,
729601272.830702,0.617275,-1.267882,-20.639477,0.031082,0.010452,1.011124,0.039257,-0.020626,-0.007931,69.680893,9.339905,-146.556168,,,
729601272.834019,0.630157,-1.276242,-20.64059,0.028915,0.008438,1.002808,0.039257,-0.020626,-0.007931,69.680893,9.339905,-146.556168,,,
729601272.837359,0.630157,-1.276242,-20.64059,0.028915,0.008438,1.002808,0.039257,-0.020626,-0.007931,69.680893,9.339905,-146.556168,,,
729601272.840713,0.641858,-1.284825,-20.640783,0.028915,0.008438,1.002808,0.04038,-0.029438,-0.001494,69.680893,9.339905,-146.556168,,,
729601272.844066,0.652603,-1.295631,-20.640355,0.024643,0.007156,0.993271,0.04038,-0.029438,-0.001494,69.670578,9.324249,-146.298752,,,
729601272.847455,0.652603,-1.295631,-20.640355,0.024643,0.007156,0.993271,0.04038,-0.029438,-0.001494,69.670578,9.324249,-146.298752,,,
729601272.850714,0.662201,-1.310077,-20.639874,0.024643,0.007156,0.993271,0.030999,-0.053877,-0.000954,69.670578,9.324249,-146.298752,,,
729601272.854026,0.667838,-1.328124,-20.639155,0.025543,0.006866,0.979767,0.030999,-0.053877,-0.000954,69.670578,9.324249,-146.298752,,,
729601272.857373,0.667838,-1.328124,-20.639155,0.025543,0.006866,0.979767,0.030999,-0.053877,-0.000954,69.670578,9.324249,-146.298752,,,
729601272.860735,0.671384,-1.349472,-20.637843,0.025543,0.006866,0.979767,0.008522,-0.075314,0.003647,69.670578,9.324249,-146.298752,,,
729601272.864028,0.66926,-1.371053,-20.636287,0.023819,0.006958,0.969711,0.008522,-0.075314,0.003647,69.670578,9.324249,-146.298752,,,
729601272.867434,0.66926,-1.371053,-20.636287,0.023819,0.006958,0.969711,0.008522,-0.075314,0.003647,69.670578,9.324249,-146.298752,,,
729601272.87075,0.666438,-1.394019,-20.63411,0.023819,0.006958,0.969711,-0.012986,-0.076381,0.008354,69.670578,9.324249,-146.298752,,,
729601272.874019,0.657568,-1.414715,-20.631037,0.028397,0.007477,0.971298,-0.012986,-0.076381,0.008354,69.670578,9.324249,-146.298752,,,
729601272.877527,0.657568,-1.414715,-20.631037,0.028397,0.007477,0.971298,-0.012986,-0.076381,0.008354,69.670578,9.324249,-146.298752,,,
729601272.880724,0.648546,-1.43774,-20.627275,0.028397,0.007477,0.971298,-0.033874,-0.075002,0.013436,69.670578,9.324249,-146.298752,,,
729601272.884061,0.635603,-1.457641,-20.623132,0.029678,0.00618,0.970444,-0.033874,-0.075002,0.013436,69.670578,9.324249,-146.298752,,,
729601272.887373,0.635603,-1.457641,-20.623132,0.029678,0.00618,0.970444,-0.033874,-0.075002,0.013436,69.404205,9.213577,-146.11792,,,
729601272.890711,0.621531,-1.476714,-20.618422,0.029678,0.00618,0.970444,-0.052771,-0.060261,0.017726,69.404205,9.213577,-146.11792,,,
729601272.894067,0.605706,-1.494885,-20.61301,0.031769,0.006104,0.974548,-0.052771,-0.060261,0.017726,69.404205,9.213577,-146.11792,,,
729601272.89736,0.605706,-1.494885,-20.61301,0.031769,0.006104,0.974548,-0.052771,-0.060261,0.017726,69.404205,9.213577,-146.11792,,,
729601272.900723,0.590433,-1.511115,-20.607379,0.031769,0.006104,0.974548,-0.050922,-0.051391,0.019265,69.404205,9.213577,-146.11792,,,
729601272.904029,0.57548,-1.527182,-20.601636,0.036163,0.00737,0.977814,-0.050922,-0.051391,0.019265,69.404205,9.213577,-146.11792,,,
729601272.90745,0.57548,-1.527182,-20.601636,0.036163,0.00737,0.977814,-0.050922,-0.051391,0.019265,69.404205,9.213577,-146.11792,,,
729601272.910726,0.561692,-1.541178,-20.595581,0.036163,0.00737,0.977814,-0.044733,-0.044934,0.021372,69.404205,9.213577,-146.11792,,,
729601272.914031,0.548253,-1.555389,-20.589839,0.038971,0.006927,0.983353,-0.044733,-0.044934,0.021372,69.404205,9.213577,-146.11792,,,
729601272.91738,0.548253,-1.555389,-20.589839,0.038971,0.006927,0.983353,-0.044733,-0.044934,0.021372,69.404205,9.213577,-146.11792,,,
729601272.920777,0.535861,-1.569487,-20.584786,0.038971,0.006927,0.983353,-0.040532,-0.044561,0.016496,69.404205,9.213577,-146.11792,,,
729601272.924014,0.523397,-1.582057,-20.580962,0.037033,0.009308,0.983383,-0.040532,-0.044561,0.016496,69.404205,9.213577,-146.11792,,,
729601272.927387,0.523397,-1.582057,-20.580962,0.037033,0.009308,0.983383,-0.040532,-0.044561,0.016496,69.377426,9.191849,-146.284515,,,
729601272.930716,0.51098,-1.594678,-20.578808,0.037033,0.009308,0.983383,-0.043522,-0.042182,0.004941,69.377426,9.191849,-146.284515,,,
729601272.934017,0.497088,-1.607445,-20.577795,0.037643,0.011032,0.983704,-0.043522,-0.042182,0.004941,69.377426,9.191849,-146.284515,,,
729601272.937358,0.497088,-1.607445,-20.577795,0.037643,0.011032,0.983704,-0.043522,-0.042182,0.004941,69.377426,9.191849,-146.284515,,,
729601272.940701,0.481529,-1.621258,-20.57733,0.037643,0.011032,0.983704,-0.059658,-0.045141,0.001588,69.377426,9.191849,-146.284515,,,
729601272.944072,0.462829,-1.632916,-20.577439,0.03389,0.011261,0.976654,-0.059658,-0.045141,0.001588,69.377426,9.191849,-146.284515,,,
729601272.947452,0.462829,-1.632916,-20.577439,0.03389,0.011261,0.976654,-0.059658,-0.045141,0.001588,69.377426,9.191849,-146.284515,,,
729601272.950745,0.442625,-1.642433,-20.578897,0.03389,0.011261,0.976654,-0.072963,-0.025792,-0.007405,69.377426,9.191849,-146.284515,,,
729601272.954023,0.421359,-1.650114,-20.581293,0.033279,0.013062,0.981644,-0.072963,-0.025792,-0.007405,69.377426,9.191849,-146.284515,,,
729601272.957373,0.421359,-1.650114,-20.581293,0.033279,0.013062,0.981644,-0.072963,-0.025792,-0.007405,69.377426,9.191849,-146.284515,,,
729601272.960726,0.400653,-1.656153,-20.584838,0.033279,0.013062,0.981644,-0.069849,-0.016354,-0.01542,69.377426,9.191849,-146.284515,,,
729601272.964033,0.379128,-1.661557,-20.59007,0.036469,0.01178,0.988739,-0.069849,-0.016354,-0.01542,69.377426,9.191849,-146.284515,,,
729601272.967361,0.379128,-1.661557,-20.59007,0.036469,0.01178,0.988739,-0.069849,-0.016354,-0.01542,69.003525,9.440643,-146.090118,,,
729601272.970713,0.357232,-1.666405,-20.595964,0.036469,0.01178,0.988739,-0.074316,-0.014175,-0.019913,69.003525,9.440643,-146.090118,,,
729601272.974027,0.335766,-1.672793,-20.60162,0.033707,0.007919,0.984772,-0.074316,-0.014175,-0.019913,69.003525,9.440643,-146.090118,,,
729601272.977409,0.335766,-1.672793,-20.60162,0.033707,0.007919,0.984772,-0.074316,-0.014175,-0.019913,69.003525,9.440643,-146.090118,,,
729601272.980692,0.314171,-1.679608,-20.606958,0.033707,0.007919,0.984772,-0.074701,-0.02266,-0.017651,69.003525,9.440643,-146.090118,,,
729601272.984028,0.293196,-1.689202,-20.612368,0.024307,0.00325,0.98233,-0.074701,-0.02266,-0.017651,69.003525,9.440643,-146.090118,,,
729601272.987367,0.293196,-1.689202,-20.612368,0.024307,0.00325,0.98233,-0.074701,-0.02266,-0.017651,69.003525,9.440643,-146.090118,,,
729601272.990704,0.273114,-1.699503,-20.616972,0.024307,0.00325,0.98233,-0.066727,-0.036826,-0.012253,69.003525,9.440643,-146.090118,,,
729601272.99406,0.255059,-1.713233,-20.620513,0.02623,0.000351,0.983353,-0.066727,-0.036826,-0.012253,69.003525,9.440643,-146.090118,,,
729601272.997376,0.255059,-1.713233,-20.620513,0.02623,0.000351,0.983353,-0.066727,-0.036826,-0.012253,69.003525,9.440643,-146.090118,,,
729601273.000388,0.238789,-1.726421,-20.623679,0.02623,0.000351,0.983353,-0.051478,-0.042581,-0.009936,69.003525,9.440643,-146.090118,,,
729601273.004077,0.226584,-1.739848,-20.626778,0.032043,-0.003845,0.989304,-0.051478,-0.042581,-0.009936,69.003525,9.440643,-146.090118,,,
729601273.007356,0.226584,-1.739848,-20.626778,0.032043,-0.003845,0.989304,-0.051478,-0.042581,-0.009936,68.953247,9.698715,-146.184479,,,
729601273.010746,0.216853,-1.7512,-20.630658,0.032043,-0.003845,0.989304,-0.029295,-0.035034,-0.01599,68.953247,9.698715,-146.184479,,,
729601273.014029,0.211118,-1.762906,-20.635368,0.043213,-0.002975,0.998795,-0.029295,-0.035034,-0.01599,68.953247,9.698715,-146.184479,,,
729601273.017396,0.211118,-1.762906,-20.635368,0.043213,-0.002975,0.998795,-0.029295,-0.035034,-0.01599,68.953247,9.698715,-146.184479,,,
729601273.020761,0.20651,-1.773074,-20.64154,0.043213,-0.002975,0.998795,-0.0138,-0.032639,-0.026564,68.953247,9.698715,-146.184479,,,
729601273.02404,0.204662,-1.782567,-20.65006,0.054138,0.004608,0.98877,-0.0138,-0.032639,-0.026564,68.953247,9.698715,-146.184479,,,
729601273.027422,0.204662,-1.782567,-20.65006,0.054138,0.004608,0.98877,-0.0138,-0.032639,-0.026564,68.953247,9.698715,-146.184479,,,
729601273.030699,0.202806,-1.789839,-20.661836,0.054138,0.004608,0.98877,-0.005449,-0.019496,-0.049474,68.953247,9.698715,-146.184479,,,
729601273.034081,0.202258,-1.796987,-20.677324,0.068115,0.01355,0.995911,-0.005449,-0.019496,-0.049474,68.953247,9.698715,-146.184479,,,
729601273.037381,0.202258,-1.796987,-20.677324,0.068115,0.01355,0.995911,-0.005449,-0.019496,-0.049474,68.953247,9.698715,-146.184479,,,
729601273.040704,0.197996,-1.802979,-20.694569,0.068115,0.01355,0.995911,-0.019662,-0.017801,-0.06125,68.953247,9.698715,-146.184479,,,
729601273.044066,0.192447,-1.808848,-20.711839,0.060654,0.01593,0.98555,-0.019662,-0.017801,-0.06125,68.953247,9.698715,-146.184479,,,
729601273.047459,0.192447,-1.808848,-20.711839,0.060654,0.01593,0.98555,-0.019662,-0.017801,-0.06125,68.953247,9.698715,-146.184479,,,
729601273.050746,0.182058,-1.81041,-20.728743,0.060654,0.01593,0.98555,-0.044213,0.004012,-0.057861,69.177765,9.486404,-146.027817,,,
729601273.054023,0.168391,-1.80848,-20.744825,0.049591,0.011108,0.981552,-0.044213,0.004012,-0.057861,69.177765,9.486404,-146.027817,,,
729601273.057373,0.168391,-1.80848,-20.744825,0.049591,0.011108,0.981552,-0.044213,0.004012,-0.057861,69.177765,9.486404,-146.027817,,,
729601273.060706,0.15056,-1.805243,-20.760438,0.049591,0.011108,0.981552,-0.06847,0.015305,-0.053831,69.177765,9.486404,-146.027817,,,
729601273.064015,0.130813,-1.798814,-20.775677,0.051376,0.012115,0.988373,-0.06847,0.015305,-0.053831,69.177765,9.486404,-146.027817,,,
729601273.067361,0.130813,-1.798814,-20.775677,0.051376,0.012115,0.988373,-0.06847,0.015305,-0.053831,69.177765,9.486404,-146.027817,,,
729601273.070779,0.109192,-1.790124,-20.79082,0.051376,0.012115,0.988373,-0.081206,0.042117,-0.052753,69.177765,9.486404,-146.027817,,,
729601273.074015,0.086204,-1.775792,-20.80657,0.043259,0.009628,1.000259,-0.081206,0.042117,-0.052753,69.177765,9.486404,-146.027817,,,
729601273.077422,0.086204,-1.775792,-20.80657,0.043259,0.009628,1.000259,-0.081206,0.042117,-0.052753,69.177765,9.486404,-146.027817,,,
729601273.08074,0.065445,-1.759286,-20.822829,0.043259,0.009628,1.000259,-0.071257,0.063606,-0.056586,69.177765,9.486404,-146.027817,,,
729601273.084023,0.044989,-1.743374,-20.839399,0.036316,-0.000809,1.015076,-0.071257,0.063606,-0.056586,69.177765,9.486404,-146.027817,,,
729601273.087365,0.044989,-1.743374,-20.839399,0.036316,-0.000809,1.015076,-0.071257,0.063606,-0.056586,69.177765,9.486404,-146.027817,,,
729601273.09071,0.028455,-1.725078,-20.856446,0.036316,-0.000809,1.015076,-0.054458,0.067634,-0.060463,69.212265,9.74411,-145.775009,,,
729601273.094059,0.014498,-1.712173,-20.874089,0.029404,-0.006592,1.018723,-0.054458,0.067634,-0.060463,69.212265,9.74411,-145.775009,,,
729601273.097453,0.014498,-1.712173,-20.874089,0.029404,-0.006592,1.018723,-0.054458,0.067634,-0.060463,69.212265,9.74411,-145.775009,,,
729601273.100688,0.003415,-1.6972,-20.892079,0.029404,-0.006592,1.018723,-0.036846,0.047036,-0.063404,69.212265,9.74411,-145.775009,,,
729601273.104027,-0.00277,-1.696681,-20.909995,0.015564,-0.010498,1.018372,-0.036846,0.047036,-0.063404,69.212265,9.74411,-145.775009,,,
729601273.107372,-0.00277,-1.696681,-20.909995,0.015564,-0.010498,1.018372,-0.036846,0.047036,-0.063404,69.212265,9.74411,-145.775009,,,
729601273.110799,-0.008937,-1.69128,-20.927596,0.015564,-0.010498,1.018372,-0.019691,0.015173,-0.061681,69.212265,9.74411,-145.775009,,,
729601273.114061,-0.009632,-1.701286,-20.944747,0.002853,-0.012115,1.014603,-0.019691,0.015173,-0.061681,69.212265,9.74411,-145.775009,,,
729601273.117401,-0.009632,-1.701286,-20.944747,0.002853,-0.012115,1.014603,-0.019691,0.015173,-0.061681,69.212265,9.74411,-145.775009,,,
729601273.120686,-0.013407,-1.701533,-20.961154,0.002853,-0.012115,1.014603,-0.011138,-0.000763,-0.056713,69.212265,9.74411,-145.775009,,,
729601273.124025,-0.012373,-1.711278,-20.976628,-0.0047,-0.013306,1.018234,-0.011138,-0.000763,-0.056713,69.212265,9.74411,-145.775009,,,
729601273.127379,-0.012373,-1.711278,-20.976628,-0.0047,-0.013306,1.018234,-0.011138,-0.000763,-0.056713,69.212265,9.74411,-145.775009,,,
729601273.130688,-0.014923,-1.714439,-20.990667,-0.0047,-0.013306,1.018234,-0.008464,-0.011581,-0.046819,69.27739,9.727448,-146.045578,,,
729601273.134053,-0.015203,-1.723505,-21.002641,-0.000198,-0.011459,1.01593,-0.008464,-0.011581,-0.046819,69.27739,9.727448,-146.045578,,,
729601273.137374,-0.015203,-1.723505,-21.002641,-0.000198,-0.011459,1.01593,-0.008464,-0.011581,-0.046819,69.27739,9.727448,-146.045578,,,
729601273.140712,-0.019222,-1.725369,-21.012665,-0.000198,-0.011459,1.01593,-0.016752,-0.001084,-0.032984,69.27739,9.727448,-146.045578,,,
729601273.144059,-0.022017,-1.730425,-21.021832,0.006348,-0.009491,1.016922,-0.016752,-0.001084,-0.032984,69.27739,9.727448,-146.045578,,,
729601273.147454,-0.022017,-1.730425,-21.021832,0.006348,-0.009491,1.016922,-0.016752,-0.001084,-0.032984,69.27739,9.727448,-146.045578,,,
729601273.150716,-0.029219,-1.727769,-21.030371,0.006348,-0.009491,1.016922,-0.028083,0.015859,-0.028288,69.27739,9.727448,-146.045578,,,
729601273.154026,-0.035703,-1.724965,-21.037284,0.011963,-0.005386,1.018951,-0.028083,0.015859,-0.028288,69.27739,9.727448,-146.045578,,,
729601273.157365,-0.035703,-1.724965,-21.037284,0.011963,-0.005386,1.018951,-0.028083,0.015859,-0.028288,69.27739,9.727448,-146.045578,,,
729601273.160736,-0.042842,-1.718234,-21.04271,0.011963,-0.005386,1.018951,-0.023184,0.027863,-0.018053,69.27739,9.727448,-146.045578,,,
729601273.164026,-0.050005,-1.712256,-21.047253,0.012436,-0.005386,1.018845,-0.023184,0.027863,-0.018053,69.27739,9.727448,-146.045578,,,
729601273.167377,-0.050005,-1.712256,-21.047253,0.012436,-0.005386,1.018845,-0.023184,0.027863,-0.018053,69.27739,9.727448,-146.045578,,,
729601273.17069,-0.055234,-1.705605,-21.051255,0.012436,-0.005386,1.018845,-0.013801,0.024695,-0.014583,69.433945,9.782074,-146.157364,,,
729601273.174018,-0.059747,-1.699394,-21.054978,0.015671,-0.007385,1.019867,-0.013801,0.024695,-0.014583,69.433945,9.782074,-146.157364,,,
729601273.177401,-0.059747,-1.699394,-21.054978,0.015671,-0.007385,1.019867,-0.013801,0.024695,-0.014583,69.433945,9.782074,-146.157364,,,
729601273.180695,-0.060704,-1.697403,-21.058249,0.015671,-0.007385,1.019867,0.000934,0.004602,-0.011876,69.433945,9.782074,-146.157364,,,
729601273.184026,-0.060704,-1.697403,-21.060938,0.018494,-0.005112,1.014252,0.000934,0.004602,-0.011876,69.433945,9.782074,-146.157364,,,
729601273.187458,-0.062358,-1.692124,-21.060938,0.018494,-0.005112,1.014252,0.000934,0.004602,-0.011876,69.433945,9.782074,-146.157364,,,
729601273.190765,-0.06052,-1.693609,-21.063551,0.018494,-0.005112,1.014252,0.009301,-0.005889,-0.011537,69.433945,9.782074,-146.157364,,,
729601273.194081,-0.061087,-1.687524,-21.065776,0.018387,-0.001709,1.011658,0.009301,-0.005889,-0.011537,69.433945,9.782074,-146.157364,,,
729601273.197384,-0.061087,-1.687524,-21.065776,0.018387,-0.001709,1.011658,0.009301,-0.005889,-0.011537,69.433945,9.782074,-146.157364,,,
729601273.200779,-0.058828,-1.691846,-21.067111,0.018387,-0.001709,1.011658,0.007864,-0.013609,-0.00513,69.433945,9.782074,-146.157364,,,
729601273.204091,-0.059583,-1.687116,-21.066996,0.017929,0.002045,1.005478,0.007864,-0.013609,-0.00513,69.433945,9.782074,-146.157364,,,
729601273.207361,-0.059583,-1.687116,-21.066996,0.017929,0.002045,1.005478,0.007864,-0.013609,-0.00513,69.433945,9.782074,-146.157364,,,
729601273.210727,-0.058015,-1.689615,-21.065078,0.017929,0.002045,1.005478,0.006247,-0.003647,0.007526,69.433945,9.782074,-146.157364,,,
729601273.214031,-0.057524,-1.685823,-21.062228,0.020996,0.001465,1.010757,0.006247,-0.003647,0.007526,69.18779,9.709488,-146.164215,,,
729601273.21738,-0.057524,-1.685823,-21.062228,0.020996,0.001465,1.010757,0.006247,-0.003647,0.007526,69.18779,9.709488,-146.164215,,,
729601273.22071,-0.053679,-1.688312,-21.059191,0.020996,0.001465,1.010757,0.017692,-0.00689,0.00855,69.18779,9.709488,-146.164215,,,
729601273.224013,-0.053679,-1.688312,-21.059191,0.029587,0.00209,1.013138,0.017692,-0.00689,0.00855,69.18779,9.709488,-146.164215,,,
729601273.227387,-0.050271,-1.68661,-21.056642,0.029587,0.00209,1.013138,0.017692,-0.00689,0.00855,69.18779,9.709488,-146.164215,,,
729601273.230698,-0.044918,-1.687744,-21.055261,0.029587,0.00209,1.013138,0.022386,0.003268,0.000217,69.18779,9.709488,-146.164215,,,
729601273.234113,-0.03859,-1.68424,-21.055096,0.0336,0.003952,1.014786,0.022386,0.003268,0.000217,69.18779,9.709488,-146.164215,,,
729601273.237431,-0.03859,-1.68424,-21.055096,0.0336,0.003952,1.014786,0.022386,0.003268,0.000217,69.18779,9.709488,-146.164215,,,
729601273.240707,-0.030197,-1.68363,-21.055138,0.0336,0.003952,1.014786,0.032425,0.004415,-0.001494,69.18779,9.709488,-146.164215,,,
729601273.244117,-0.030197,-1.68363,-21.055138,0.030762,0.001724,1.012238,0.032425,0.004415,-0.001494,69.18779,9.709488,-146.164215,,,
729601273.247397,-0.022549,-1.679958,-21.054614,0.030762,0.001724,1.012238,0.032425,0.004415,-0.001494,69.18779,9.709488,-146.164215,,,
729601273.250779,-0.013596,-1.680336,-21.053256,0.030762,0.001724,1.012238,0.033848,-0.00011,0.004296,69.18779,9.709488,-146.164215,,,
729601273.254065,-0.013596,-1.680336,-21.053256,0.02887,0.000198,1.003845,0.033848,-0.00011,0.004296,69.136505,9.501328,-146.129211,,,
729601273.257386,-0.005042,-1.678864,-21.05099,0.02887,0.000198,1.003845,0.033848,-0.00011,0.004296,69.136505,9.501328,-146.129211,,,
729601273.260793,0.005878,-1.680286,-21.048855,0.02887,0.000198,1.003845,0.041371,-0.002724,0.003074,69.136505,9.501328,-146.129211,,,
729601273.264064,0.005878,-1.680286,-21.048855,0.02887,0.000198,1.003845,0.041371,-0.002724,0.003074,69.136505,9.501328,-146.129211,,,
729601273.267375,0.018362,-1.679406,-21.048021,0.036972,0.005569,1.003464,0.041371,-0.002724,0.003074,69.136505,9.501328,-146.129211,,,
729601273.270692,0.034144,-1.681726,-21.048783,0.036972,0.005569,1.003464,0.058212,-0.006025,-0.008581,69.136505,9.501328,-146.129211,,,
729601273.274127,0.034144,-1.681726,-21.048783,0.043427,0.007156,1.006378,0.058212,-0.006025,-0.008581,69.136505,9.501328,-146.129211,,,
729601273.277425,0.050965,-1.681472,-21.0509,0.043427,0.007156,1.006378,0.058212,-0.006025,-0.008581,69.136505,9.501328,-146.129211,,,
729601273.280718,0.068679,-1.683761,-21.053209,0.043427,0.007156,1.006378,0.063226,-0.004379,-0.010096,69.136505,9.501328,-146.129211,,,
729601273.284056,0.068679,-1.683761,-21.053209,0.035141,0.001373,1.002304,0.063226,-0.004379,-0.010096,69.136505,9.501328,-146.129211,,,
729601273.28743,0.087402,-1.681809,-21.054917,0.035141,0.001373,1.002304,0.063226,-0.004379,-0.010096,69.136505,9.501328,-146.129211,,,
729601273.290684,0.105873,-1.680423,-21.055106,0.035141,0.001373,1.002304,0.063894,0.01166,0.000503,69.136505,9.501328,-146.129211,,,
729601273.294126,0.105873,-1.680423,-21.055106,0.030518,-0.002289,1.000214,0.063894,0.01166,0.000503,69.102875,9.528137,-146.421722,,,
729601273.297376,0.123074,-1.675814,-21.053134,0.030518,-0.002289,1.000214,0.063894,0.01166,0.000503,69.102875,9.528137,-146.421722,,,
729601273.300779,0.139367,-1.671902,-21.049553,0.030518,-0.002289,1.000214,0.056472,0.018702,0.011926,69.102875,9.528137,-146.421722,,,
729601273.30403,0.139367,-1.671902,-21.049553,0.030518,-0.002289,1.000214,0.056472,0.018702,0.011926,69.102875,9.528137,-146.421722,,,
729601273.307373,0.154709,-1.667216,-21.04496,0.030273,-0.00238,0.992828,0.056472,0.018702,0.011926,69.102875,9.528137,-146.421722,,,
729601273.310829,0.168386,-1.660572,-21.039971,0.030273,-0.00238,0.992828,0.046135,0.027482,0.015011,69.102875,9.528137,-146.421722,,,
729601273.314059,0.168386,-1.660572,-21.039971,0.030273,-0.00238,0.992828,0.046135,0.027482,0.015011,69.102875,9.528137,-146.421722,,,
729601273.317375,0.181086,-1.654551,-21.035525,0.029068,0.001877,0.988373,0.046135,0.027482,0.015011,69.102875,9.528137,-146.421722,,,
729601273.320691,0.192342,-1.647514,-21.032583,0.029068,0.001877,0.988373,0.037439,0.025305,0.0048,69.102875,9.528137,-146.421722,,,
729601273.324069,0.192342,-1.647514,-21.032583,0.029068,0.001877,0.988373,0.037439,0.025305,0.0048,69.102875,9.528137,-146.421722,,,
729601273.327378,0.201999,-1.64225,-21.030712,0.03093,0.005829,0.983139,0.037439,0.025305,0.0048,69.102875,9.528137,-146.421722,,,
729601273.330687,0.211795,-1.638359,-21.029574,0.03093,0.005829,0.983139,0.032994,0.015217,-0.000139,69.102875,9.528137,-146.421722,,,
729601273.334064,0.211795,-1.638359,-21.029574,0.03093,0.005829,0.983139,0.032994,0.015217,-0.000139,69.102875,9.528137,-146.421722,,,
729601273.337352,0.22029,-1.636281,-21.028672,0.029556,0.003525,0.980057,0.032994,0.015217,-0.000139,69.313675,9.380325,-146.275269,,,
729601273.340715,0.22858,-1.635974,-21.027049,0.029556,0.003525,0.980057,0.027744,-0.001427,0.005051,69.313675,9.380325,-146.275269,,,
729601273.344156,0.22858,-1.635974,-21.027049,0.029556,0.003525,0.980057,0.027744,-0.001427,0.005051,69.313675,9.380325,-146.275269,,,
729601273.347378,0.236592,-1.641592,-21.023794,0.023285,0.000687,0.976242,0.027744,-0.001427,0.005051,69.313675,9.380325,-146.275269,,,
729601273.350696,0.243631,-1.643997,-21.018634,0.023285,0.000687,0.976242,0.026369,-0.00605,0.018516,69.313675,9.380325,-146.275269,,,
729601273.354041,0.243631,-1.643997,-21.018634,0.023285,0.000687,0.976242,0.026369,-0.00605,0.018516,69.313675,9.380325,-146.275269,,,
729601273.357396,0.251036,-1.65051,-21.012574,0.021164,0.003143,0.975525,0.026369,-0.00605,0.018516,69.313675,9.380325,-146.275269,,,
729601273.360731,0.257578,-1.65414,-21.005864,0.021164,0.003143,0.975525,0.024396,-0.010414,0.023176,69.313675,9.380325,-146.275269,,,
729601273.36413,0.257578,-1.65414,-21.005864,0.021164,0.003143,0.975525,0.024396,-0.010414,0.023176,69.313675,9.380325,-146.275269,,,
729601273.367361,0.262384,-1.658876,-20.998593,0.025238,0.007645,0.976379,0.024396,-0.010414,0.023176,69.313675,9.380325,-146.275269,,,
729601273.370697,0.26718,-1.662299,-20.991316,0.025238,0.007645,0.976379,0.015274,-0.007472,0.023499,69.313675,9.380325,-146.275269,,,
729601273.374066,0.26718,-1.662299,-20.991316,0.025238,0.007645,0.976379,0.015274,-0.007472,0.023499,69.313675,9.380325,-146.275269,,,
729601273.377436,0.26808,-1.665185,-20.984226,0.030411,0.01152,0.975861,0.015274,-0.007472,0.023499,69.248032,9.331284,-146.414368,,,
729601273.380786,0.270324,-1.666366,-20.978091,0.030411,0.01152,0.975861,0.008818,0.001082,0.017076,69.248032,9.331284,-146.414368,,,
729601273.384161,0.270324,-1.666366,-20.978091,0.030411,0.01152,0.975861,0.008818,0.001082,0.017076,69.248032,9.331284,-146.414368,,,
729601273.387419,0.270046,-1.667168,-20.973294,0.03392,0.011368,0.977585,0.008818,0.001082,0.017076,69.248032,9.331284,-146.414368,,,
729601273.390661,0.269846,-1.668081,-20.969521,0.03392,0.011368,0.977585,0.000211,-0.001451,0.010193,69.248032,9.331284,-146.414368,,,
729601273.394007,0.269846,-1.668081,-20.969521,0.03392,0.011368,0.977585,0.000211,-0.001451,0.010193,69.248032,9.331284,-146.414368,,,
729601273.397393,0.268112,-1.6692,-20.966501,0.035751,0.011688,0.982071,0.000211,-0.001451,0.010193,69.248032,9.331284,-146.414368,,,
729601273.400692,0.264191,-1.669832,-20.964141,0.035751,0.011688,0.982071,-0.017273,0.000904,0.006063,69.248032,9.331284,-146.414368,,,
729601273.403947,0.264191,-1.669832,-20.964141,0.035751,0.011688,0.982071,-0.017273,0.000904,0.006063,69.248032,9.331284,-146.414368,,,
729601273.407287,0.257965,-1.670703,-20.962532,0.027954,0.00589,0.980484,-0.017273,0.000904,0.006063,69.248032,9.331284,-146.414368,,,
729601273.410776,0.249413,-1.671138,-20.96144,0.027954,0.00589,0.980484,-0.03316,-0.000226,0.002909,69.248032,9.331284,-146.414368,,,
729601273.414142,0.249413,-1.671138,-20.96144,0.027954,0.00589,0.980484,-0.03316,-0.000226,0.002909,69.248032,9.331284,-146.414368,,,
729601273.417411,0.238165,-1.671408,-20.960584,0.0233,0.007141,0.985352,-0.03316,-0.000226,0.002909,69.537476,9.285065,-146.193481,,,
729601273.420698,0.225208,-1.670891,-20.959986,0.0233,0.007141,0.985352,-0.047633,0.005965,0.00148,69.537476,9.285065,-146.193481,,,
729601273.424042,0.225208,-1.670891,-20.959986,0.0233,0.007141,0.985352,-0.047633,0.005965,0.00148,69.537476,9.285065,-146.193481,,,
729601273.427388,0.210761,-1.667853,-20.959232,0.023544,0.003967,0.991776,-0.047633,0.005965,0.00148,69.537476,9.285065,-146.193481,,,
729601273.4307,0.197148,-1.664499,-20.95895,0.023544,0.003967,0.991776,-0.045841,0.017677,-0.001887,69.537476,9.285065,-146.193481,,,
729601273.434038,0.197148,-1.664499,-20.95895,0.023544,0.003967,0.991776,-0.045841,0.017677,-0.001887,69.537476,9.285065,-146.193481,,,
729601273.437445,0.184634,-1.657899,-20.959295,0.022446,-0.002716,1.00386,-0.045841,0.017677,-0.001887,69.537476,9.285065,-146.193481,,,
729601273.440693,0.173321,-1.652132,-20.959681,0.022446,-0.002716,1.00386,-0.035017,0.022636,-0.002541,69.537476,9.285065,-146.193481,,,
729601273.444075,0.173321,-1.652132,-20.959681,0.022446,-0.002716,1.00386,-0.035017,0.022636,-0.002541,69.537476,9.285065,-146.193481,,,
729601273.447399,0.16574,-1.646737,-20.959628,0.022385,-0.007126,1.005951,-0.035017,0.022636,-0.002541,69.537476,9.285065,-146.193481,,,
729601273.45068,0.160127,-1.642071,-20.958998,0.022385,-0.007126,1.005951,-0.012955,0.01755,0.000846,69.537476,9.285065,-146.193481,,,
729601273.45404,0.160127,-1.642071,-20.958998,0.022385,-0.007126,1.005951,-0.012955,0.01755,0.000846,69.537476,9.285065,-146.193481,,,
729601273.457364,0.160326,-1.638603,-20.958117,0.01889,-0.011963,1.009888,-0.012955,0.01755,0.000846,69.588898,9.208496,-146.392365,,,
729601273.460762,0.162791,-1.63599,-20.956721,0.01889,-0.011963,1.009888,0.016663,0.008013,0.003633,69.588898,9.208496,-146.392365,,,
729601273.464013,0.162791,-1.63599,-20.956721,0.01889,-0.011963,1.009888,0.016663,0.008013,0.003633,69.588898,9.208496,-146.392365,,,
729601273.467374,0.171364,-1.638438,-20.95495,0.020248,-0.01062,1.018356,0.016663,0.008013,0.003633,69.588898,9.208496,-146.392365,,,
729601273.47068,0.180234,-1.64126,-20.953067,0.020248,-0.01062,1.018356,0.03452,-0.010161,0.003996,69.588898,9.208496,-146.392365,,,
729601273.474133,0.180234,-1.64126,-20.953067,0.020248,-0.01062,1.018356,0.03452,-0.010161,0.003996,69.588898,9.208496,-146.392365,,,
729601273.477384,0.192701,-1.646651,-20.951232,0.022507,-0.008301,1.012711,0.03452,-0.010161,0.003996,69.588898,9.208496,-146.392365,,,
729601273.480702,0.20442,-1.650309,-20.949963,0.022507,-0.008301,1.012711,0.040844,-0.008963,-0.000147,69.588898,9.208496,-146.392365,,,
729601273.484047,0.20442,-1.650309,-20.949963,0.022507,-0.008301,1.012711,0.040844,-0.008963,-0.000147,69.588898,9.208496,-146.392365,,,
729601273.487427,0.216721,-1.653198,-20.949936,0.030167,-0.005768,1.013657,0.040844,-0.008963,-0.000147,69.588898,9.208496,-146.392365,,,
729601273.490688,0.228906,-1.657375,-20.951555,0.030167,-0.005768,1.013657,0.043918,-0.011384,-0.011693,69.588898,9.208496,-146.392365,,,
729601273.494069,0.228906,-1.657375,-20.951555,0.030167,-0.005768,1.013657,0.043918,-0.011384,-0.011693,69.588898,9.208496,-146.392365,,,
729601273.497418,0.241188,-1.659216,-20.95433,0.041809,-0.000198,1.006393,0.043918,-0.011384,-0.011693,69.588898,9.208496,-146.392365,,,
729601273.500689,0.250736,-1.661008,-20.957727,0.041809,-0.000198,1.006393,0.029758,-0.000989,-0.015647,69.45195,9.262253,-146.174179,,,
729601273.504032,0.250736,-1.661008,-20.957727,0.041809,-0.000198,1.006393,0.029758,-0.000989,-0.015647,69.45195,9.262253,-146.174179,,,
729601273.507372,0.257563,-1.658727,-20.962227,0.0448,0.004242,1.002289,0.029758,-0.000989,-0.015647,69.45195,9.262253,-146.174179,,,
729601273.510742,0.262555,-1.655731,-20.967651,0.0448,0.004242,1.002289,0.012357,0.017955,-0.021592,69.45195,9.262253,-146.174179,,,
729601273.514111,0.262555,-1.655731,-20.967651,0.0448,0.004242,1.002289,0.012357,0.017955,-0.021592,69.45195,9.262253,-146.174179,,,
729601273.517349,0.26287,-1.648712,-20.973619,0.049164,0.0103,0.99617,0.012357,0.017955,-0.021592,69.45195,9.262253,-146.174179,,,
729601273.520697,0.263476,-1.641638,-20.97994,0.049164,0.0103,0.99617,-0.001168,0.03231,-0.023714,69.45195,9.262253,-146.174179,,,
729601273.524016,0.263476,-1.641638,-20.97994,0.049164,0.0103,0.99617,-0.001168,0.03231,-0.023714,69.45195,9.262253,-146.174179,,,
729601273.527389,0.258467,-1.630072,-20.986192,0.050568,0.012253,0.994568,-0.001168,0.03231,-0.023714,69.45195,9.262253,-146.174179,,,
729601273.530683,0.25676,-1.619444,-20.992537,0.050568,0.012253,0.994568,-0.004278,0.041501,-0.0244,69.45195,9.262253,-146.174179,,,
729601273.534044,0.25676,-1.619444,-20.992537,0.050568,0.012253,0.994568,-0.004278,0.041501,-0.0244,69.45195,9.262253,-146.174179,,,
729601273.537421,0.251601,-1.60519,-20.999211,0.051819,0.010559,0.995605,-0.004278,0.041501,-0.0244,69.45195,9.262253,-146.174179,,,
729601273.540684,0.251251,-1.594238,-21.005682,0.051819,0.010559,0.995605,-0.000813,0.039911,-0.023212,69.580872,9.106125,-146.28772,,,
729601273.544077,0.251251,-1.594238,-21.005682,0.051819,0.010559,0.995605,-0.000813,0.039911,-0.023212,69.580872,9.106125,-146.28772,,,
729601273.54747,0.247923,-1.582588,-21.012363,0.048523,0.006531,0.992386,-0.000813,0.039911,-0.023212,69.580872,9.106125,-146.28772,,,
729601273.550759,0.248992,-1.575093,-21.019475,0.048523,0.006531,0.992386,0.00377,0.026393,-0.026406,69.580872,9.106125,-146.28772,,,
729601273.554041,0.248992,-1.575093,-21.019475,0.048523,0.006531,0.992386,0.00377,0.026393,-0.026406,69.580872,9.106125,-146.28772,,,
729601273.557361,0.246825,-1.567808,-21.026468,0.042542,0.005936,0.987137,0.00377,0.026393,-0.026406,69.580872,9.106125,-146.28772,,,
729601273.560735,0.24798,-1.563422,-21.033618,0.042542,0.005936,0.987137,0.004565,0.014773,-0.027492,69.580872,9.106125,-146.28772,,,
729601273.564111,0.24798,-1.563422,-21.033618,0.042542,0.005936,0.987137,0.004565,0.014773,-0.027492,69.580872,9.106125,-146.28772,,,
729601273.567368,0.247017,-1.562982,-21.041305,0.038818,0.004715,0.989578,0.004565,0.014773,-0.027492,69.580872,9.106125,-146.28772,,,
729601273.570694,0.247312,-1.5618,-21.049309,0.038818,0.004715,0.989578,-0.002076,0.00439,-0.029418,69.580872,9.106125,-146.28772,,,
729601273.574041,0.247312,-1.5618,-21.049309,0.038818,0.004715,0.989578,-0.002076,0.00439,-0.029418,69.580872,9.106125,-146.28772,,,
729601273.577401,0.245406,-1.566147,-21.05718,0.036224,0.004456,0.984131,-0.002076,0.00439,-0.029418,69.580872,9.106125,-146.28772,,,
729601273.580695,0.241875,-1.565654,-21.064803,0.036224,0.004456,0.984131,-0.018852,0.004541,-0.027054,69.451614,9.112946,-145.962799,,,
729601273.584044,0.241875,-1.565654,-21.064803,0.036224,0.004456,0.984131,-0.018852,0.004541,-0.027054,69.451614,9.112946,-145.962799,,,
729601273.587361,0.236545,-1.571343,-21.071832,0.031448,0.00618,0.980713,-0.018852,0.004541,-0.027054,69.451614,9.112946,-145.962799,,,
729601273.590693,0.228783,-1.570967,-21.078148,0.031448,0.00618,0.980713,-0.030818,0.006594,-0.021622,69.451614,9.112946,-145.962799,,,
729601273.59407,0.228783,-1.570967,-21.078148,0.031448,0.00618,0.980713,-0.030818,0.006594,-0.021622,69.451614,9.112946,-145.962799,,,
729601273.597361,0.220961,-1.577232,-21.083592,0.030228,0.008286,0.986252,-0.030818,0.006594,-0.021622,69.451614,9.112946,-145.962799,,,
729601273.600424,0.209997,-1.576009,-21.088166,0.030228,0.008286,0.986252,-0.038829,0.009297,-0.01512,69.451614,9.112946,-145.962799,,,
729601273.604126,0.209997,-1.576009,-21.088166,0.030228,0.008286,0.986252,-0.038829,0.009297,-0.01512,69.451614,9.112946,-145.962799,,,
729601273.607354,0.200422,-1.581415,-21.092028,0.030121,0.007538,0.991028,-0.038829,0.009297,-0.01512,69.451614,9.112946,-145.962799,,,
729601273.610746,0.188045,-1.579312,-21.095515,0.030121,0.007538,0.991028,-0.044131,0.010419,-0.012164,69.451614,9.112946,-145.962799,,,
729601273.614066,0.188045,-1.579312,-21.095515,0.030121,0.007538,0.991028,-0.044131,0.010419,-0.012164,69.451614,9.112946,-145.962799,,,
729601273.61744,0.176055,-1.585268,-21.098563,0.025192,0.004761,0.991547,-0.044131,0.010419,-0.012164,69.451614,9.112946,-145.962799,,,
729601273.620685,0.161225,-1.583778,-21.101538,0.025192,0.004761,0.991547,-0.052567,0.007783,-0.011271,69.291489,9.373611,-146.628708,,,
729601273.624046,0.161225,-1.583778,-21.101538,0.025192,0.004761,0.991547,-0.052567,0.007783,-0.011271,69.291489,9.373611,-146.628708,,,
729601273.627392,0.146776,-1.588517,-21.104326,0.024124,0.007431,0.989487,-0.052567,0.007783,-0.011271,69.291489,9.373611,-146.628708,,,
729601273.630691,0.130476,-1.588778,-21.10723,0.024124,0.007431,0.989487,-0.059006,0.000232,-0.011754,69.291489,9.373611,-146.628708,,,
729601273.634034,0.130476,-1.588778,-21.10723,0.024124,0.007431,0.989487,-0.059006,0.000232,-0.011754,69.291489,9.373611,-146.628708,,,
729601273.63737,0.114341,-1.593798,-21.110371,0.02507,0.006943,0.991959,-0.059006,0.000232,-0.011754,69.291489,9.373611,-146.628708,,,
729601273.640689,0.098273,-1.595031,-21.112776,0.02507,0.006943,0.991959,-0.051782,-0.0018,-0.00672,69.291489,9.373611,-146.628708,,,
729601273.644069,0.098273,-1.595031,-21.112776,0.02507,0.006943,0.991959,-0.051782,-0.0018,-0.00672,69.291489,9.373611,-146.628708,,,
729601273.647364,0.08518,-1.600052,-21.114387,0.020462,0.00029,0.998428,-0.051782,-0.0018,-0.00672,69.291489,9.373611,-146.628708,,,
729601273.650696,0.073148,-1.602274,-21.115434,0.020462,0.00029,0.998428,-0.036746,-0.006718,-0.003149,69.291489,9.373611,-146.628708,,,
729601273.654015,0.073148,-1.602274,-21.115434,0.020462,0.00029,0.998428,-0.036746,-0.006718,-0.003149,69.291489,9.373611,-146.628708,,,
729601273.657376,0.064031,-1.607226,-21.115867,0.021286,-0.001816,1.007828,-0.036746,-0.006718,-0.003149,69.291489,9.373611,-146.628708,,,
729601273.660696,0.055368,-1.609968,-21.115905,0.021286,-0.001816,1.007828,-0.026653,-0.005334,-0.000599,69.291489,9.373611,-146.628708,,,
729601273.664051,0.055368,-1.609968,-21.115905,0.021286,-0.001816,1.007828,-0.026653,-0.005334,-0.000599,69.105896,9.527649,-146.620773,,,
729601273.667422,0.049972,-1.61294,-21.115452,0.020691,-0.00325,1.007477,-0.026653,-0.005334,-0.000599,69.105896,9.527649,-146.620773,,,
729601273.670682,0.043703,-1.613372,-21.114299,0.020691,-0.00325,1.007477,-0.02061,0.005342,0.004136,69.105896,9.527649,-146.620773,,,
729601273.674033,0.043703,-1.613372,-21.114299,0.020691,-0.00325,1.007477,-0.02061,0.005342,0.004136,69.105896,9.527649,-146.620773,,,
729601273.677427,0.040686,-1.613767,-21.11259,0.017883,-0.006226,1.009094,-0.02061,0.005342,0.004136,69.105896,9.527649,-146.620773,,,
729601273.680707,0.03716,-1.613576,-21.111084,0.017883,-0.006226,1.009094,-0.00979,0.003249,0.002429,69.105896,9.527649,-146.620773,,,
729601273.684057,0.03716,-1.613576,-21.111084,0.017883,-0.006226,1.009094,-0.00979,0.003249,0.002429,69.105896,9.527649,-146.620773,,,
729601273.687363,0.036488,-1.613329,-21.110089,0.022644,-0.004822,1.010666,-0.00979,0.003249,0.002429,69.105896,9.527649,-146.620773,,,
729601273.690696,0.03521,-1.611345,-21.109639,0.022644,-0.004822,1.010666,-0.001815,0.014045,-0.001586,69.105896,9.527649,-146.620773,,,
729601273.694106,0.03521,-1.611345,-21.109639,0.022644,-0.004822,1.010666,-0.001815,0.014045,-0.001586,69.105896,9.527649,-146.620773,,,
729601273.697385,0.036326,-1.606545,-21.109852,0.024826,-0.00267,1.0103,-0.001815,0.014045,-0.001586,69.105896,9.527649,-146.620773,,,
729601273.700704,0.036964,-1.601649,-21.11026,0.024826,-0.00267,1.0103,0.003195,0.022145,-0.00308,69.105896,9.527649,-146.620773,,,
729601273.704075,0.036964,-1.601649,-21.11026,0.024826,-0.00267,1.0103,0.003195,0.022145,-0.00308,69.257355,9.628433,-146.836761,,,
729601273.707363,0.039348,-1.595621,-21.110828,0.026016,0.001099,1.008423,0.003195,0.022145,-0.00308,69.257355,9.628433,-146.836761,,,
729601273.710743,0.038804,-1.590478,-21.111417,0.026016,0.001099,1.008423,-0.003476,0.021881,-0.003058,69.257355,9.628433,-146.836761,,,
729601273.714069,0.038804,-1.590478,-21.111417,0.026016,0.001099,1.008423,-0.003476,0.021881,-0.003058,69.257355,9.628433,-146.836761,,,
729601273.717357,0.038328,-1.58378,-21.111735,0.023743,0.003387,0.998886,-0.003476,0.021881,-0.003058,69.257355,9.628433,-146.836761,,,
729601273.720692,0.036737,-1.578128,-21.111609,0.023743,0.003387,0.998886,-0.004243,0.022419,5.2e-05,69.257355,9.628433,-146.836761,,,
729601273.724054,0.036737,-1.578128,-21.111609,0.023743,0.003387,0.998886,-0.004243,0.022419,5.2e-05,69.257355,9.628433,-146.836761,,,
729601273.727369,0.034709,-1.571004,-21.111339,0.021866,0.004959,0.997131,-0.004243,0.022419,5.2e-05,69.257355,9.628433,-146.836761,,,
729601273.730686,0.033978,-1.567592,-21.111117,0.021866,0.004959,0.997131,0.001575,0.010799,-0.000448,69.257355,9.628433,-146.836761,,,
729601273.734031,0.033978,-1.567592,-21.111117,0.021866,0.004959,0.997131,0.001575,0.010799,-0.000448,69.257355,9.628433,-146.836761,,,
729601273.737363,0.03449,-1.564423,-21.111363,0.022797,0.004715,0.995773,0.001575,0.010799,-0.000448,69.257355,9.628433,-146.836761,,,
729601273.74068,0.037726,-1.564471,-21.111716,0.022797,0.004715,0.995773,0.016219,-0.000107,-0.001576,69.257355,9.628433,-146.836761,,,
729601273.744067,0.037726,-1.564471,-21.111716,0.022797,0.004715,0.995773,0.016219,-0.000107,-0.001576,69.272141,9.464844,-146.495697,,,
729601273.747402,0.042263,-1.562694,-21.112032,0.0271,0.003189,1.003891,0.016219,-0.000107,-0.001576,69.272141,9.464844,-146.495697,,,
729601273.750737,0.050795,-1.563415,-21.112569,0.0271,0.003189,1.003891,0.033949,0.000901,-0.003609,69.272141,9.464844,-146.495697,,,
729601273.754115,0.050795,-1.563415,-21.112569,0.0271,0.003189,1.003891,0.033949,0.000901,-0.003609,69.272141,9.464844,-146.495697,,,
729601273.757399,0.058472,-1.560212,-21.112435,0.023392,-0.000565,1.009521,0.033949,0.000901,-0.003609,69.272141,9.464844,-146.495697,,,
729601273.760797,0.068145,-1.557865,-21.111244,0.023392,-0.000565,1.009521,0.035285,0.01251,0.003719,69.272141,9.464844,-146.495697,,,
729601273.763868,0.068145,-1.557865,-21.111244,0.023392,-0.000565,1.009521,0.035285,0.01251,0.003719,69.272141,9.464844,-146.495697,,,
729601273.767455,0.07742,-1.553535,-21.109571,0.021561,0.000137,1.009064,0.035285,0.01251,0.003719,69.272141,9.464844,-146.495697,,,
729601273.770686,0.088662,-1.549761,-21.108589,0.021561,0.000137,1.009064,0.039361,0.015336,-0.001207,69.272141,9.464844,-146.495697,,,
729601273.774038,0.088662,-1.549761,-21.108589,0.021561,0.000137,1.009064,0.039361,0.015336,-0.001207,69.272141,9.464844,-146.495697,,,
729601273.777395,0.098932,-1.545502,-21.108441,0.027283,0.005951,1.005402,0.039361,0.015336,-0.001207,69.272141,9.464844,-146.495697,,,
729601273.780689,0.110312,-1.541576,-21.108603,0.027283,0.005951,1.005402,0.040551,0.01759,-0.003398,69.272141,9.464844,-146.495697,,,
729601273.784022,0.110312,-1.541576,-21.108603,0.027283,0.005951,1.005402,0.040551,0.01759,-0.003398,69.327805,9.436707,-146.437576,,,
729601273.787359,0.121566,-1.535867,-21.108393,0.022949,0.008789,1.002991,0.040551,0.01759,-0.003398,69.327805,9.436707,-146.437576,,,
729601273.790689,0.132191,-1.530269,-21.107387,0.022949,0.008789,1.002991,0.036465,0.022104,0.002334,69.327805,9.436707,-146.437576,,,
729601273.794062,0.132191,-1.530269,-21.107387,0.022949,0.008789,1.002991,0.036465,0.022104,0.002334,69.327805,9.436707,-146.437576,,,
729601273.797369,0.142421,-1.524067,-21.105797,0.019531,0.00618,1.004288,0.036465,0.022104,0.002334,69.327805,9.436707,-146.437576,,,
729601273.800679,0.150407,-1.519945,-21.103777,0.019531,0.00618,1.004288,0.025168,0.014407,0.005673,69.327805,9.436707,-146.437576,,,
729601273.804082,0.150407,-1.519945,-21.103777,0.019531,0.00618,1.004288,0.025168,0.014407,0.005673,69.327805,9.436707,-146.437576,,,
729601273.807335,0.157429,-1.515381,-21.101284,0.021042,0.006668,0.9935,0.025168,0.014407,0.005673,69.327805,9.436707,-146.437576,,,
729601273.810732,0.161672,-1.512134,-21.098526,0.021042,0.006668,0.9935,0.010722,0.014486,0.007916,69.327805,9.436707,-146.437576,,,
729601273.814063,0.161672,-1.512134,-21.098526,0.021042,0.006668,0.9935,0.010722,0.014486,0.007916,69.327805,9.436707,-146.437576,,,
729601273.817448,0.164247,-1.508632,-21.095166,0.022949,0.009857,0.993195,0.010722,0.014486,0.007916,69.327805,9.436707,-146.437576,,,
729601273.820691,0.164065,-1.506889,-21.091189,0.022949,0.009857,0.993195,-0.004499,0.007189,0.012585,69.327805,9.436707,-146.437576,,,
729601273.824042,0.164065,-1.506889,-21.091189,0.022949,0.009857,0.993195,-0.004499,0.007189,0.012585,69.327805,9.436707,-146.437576,,,
729601273.827393,0.161287,-1.506085,-21.087007,0.023239,0.009201,0.988373,-0.004499,0.007189,0.012585,69.433594,9.474213,-146.795853,,,
729601273.830696,0.158353,-1.506208,-21.082943,0.023239,0.009201,0.988373,-0.007826,0.000223,0.011892,69.433594,9.474213,-146.795853,,,
729601273.834037,0.158353,-1.506208,-21.082943,0.023239,0.009201,0.988373,-0.007826,0.000223,0.011892,69.433594,9.474213,-146.795853,,,
729601273.837356,0.156467,-1.506071,-21.079607,0.026627,0.008514,0.988876,-0.007826,0.000223,0.011892,69.433594,9.474213,-146.795853,,,
729601273.840693,0.158726,-1.509408,-21.07711,0.026627,0.008514,0.988876,0.013752,-0.011859,0.005377,69.433594,9.474213,-146.795853,,,
729601273.844065,0.158726,-1.509408,-21.07711,0.026627,0.008514,0.988876,0.013752,-0.011859,0.005377,69.433594,9.474213,-146.795853,,,
729601273.847357,0.163602,-1.513266,-21.075421,0.034058,0.005829,1.004379,0.013752,-0.011859,0.005377,69.433594,9.474213,-146.795853,,,
729601273.850696,0.170709,-1.519675,-21.0743,0.034058,0.005829,1.004379,0.028754,-0.022121,0.00095,69.433594,9.474213,-146.795853,,,
729601273.854108,0.170709,-1.519675,-21.0743,0.034058,0.005829,1.004379,0.028754,-0.022121,0.00095,69.433594,9.474213,-146.795853,,,
729601273.857355,0.181069,-1.526842,-21.073141,0.031204,0.002121,1.000885,0.028754,-0.022121,0.00095,69.433594,9.474213,-146.795853,,,
729601273.860716,0.191719,-1.532179,-21.071694,0.031204,0.002121,1.000885,0.039778,-0.012363,0.002632,69.433594,9.474213,-146.795853,,,
729601273.864011,0.191719,-1.532179,-21.071694,0.031204,0.002121,1.000885,0.039778,-0.012363,0.002632,69.433594,9.474213,-146.795853,,,
729601273.867443,0.204666,-1.535092,-21.070042,0.032806,0.001282,1.009155,0.039778,-0.012363,0.002632,69.502396,9.247879,-146.539047,,,
729601273.870682,0.216332,-1.541747,-21.068229,0.032806,0.001282,1.009155,0.038677,-0.024922,0.003767,69.502396,9.247879,-146.539047,,,
729601273.874031,0.216332,-1.541747,-21.068229,0.032806,0.001282,1.009155,0.038677,-0.024922,0.003767,69.502396,9.247879,-146.539047,,,
729601273.877471,0.226947,-1.547484,-21.065894,0.035934,0.004028,1.003204,0.038677,-0.024922,0.003767,69.502396,9.247879,-146.539047,,,
729601273.880688,0.235265,-1.553281,-21.062899,0.035934,0.004028,1.003204,0.026547,-0.010178,0.008592,69.502396,9.247879,-146.539047,,,
729601273.884041,0.235265,-1.553281,-21.062899,0.035934,0.004028,1.003204,0.026547,-0.010178,0.008592,69.502396,9.247879,-146.539047,,,
729601273.887207,0.243695,-1.553918,-21.060414,0.031097,0.002869,0.999588,0.026547,-0.010178,0.008592,69.502396,9.247879,-146.539047,,,
729601273.890704,0.250584,-1.55417,-21.059179,0.031097,0.002869,0.999588,0.024519,0.001407,-6.1e-05,69.502396,9.247879,-146.539047,,,
729601273.89403,0.250584,-1.55417,-21.059179,0.031097,0.002869,0.999588,0.024519,0.001407,-6.1e-05,69.502396,9.247879,-146.539047,,,
729601273.89736,0.258003,-1.554411,-21.059081,0.037811,0.003845,1.013824,0.024519,0.001407,-6.1e-05,69.502396,9.247879,-146.539047,,,
729601273.900687,0.262712,-1.55786,-21.059673,0.037811,0.003845,1.013824,0.01611,-0.011913,-0.004706,69.502396,9.247879,-146.539047,,,
729601273.904079,0.262712,-1.55786,-21.059673,0.037811,0.003845,1.013824,0.01611,-0.011913,-0.004706,69.502396,9.247879,-146.539047,,,
729601273.907338,0.26737,-1.559559,-21.060668,0.036209,0.005966,0.998734,0.01611,-0.011913,-0.004706,69.397171,9.22934,-146.584671,,,
729601273.910765,0.269807,-1.560117,-21.062128,0.036209,0.005966,0.998734,0.008032,0.003453,-0.007734,69.397171,9.22934,-146.584671,,,
729601273.914049,0.269807,-1.560117,-21.062128,0.036209,0.005966,0.998734,0.008032,0.003453,-0.007734,69.397171,9.22934,-146.584671,,,
729601273.917432,0.272434,-1.562231,-21.06364,0.034225,0.002563,1.004562,0.008032,0.003453,-0.007734,69.397171,9.22934,-146.584671,,,
729601273.920686,0.273409,-1.566786,-21.064869,0.034225,0.002563,1.004562,0.002835,-0.01919,-0.005607,69.397171,9.22934,-146.584671,,,
729601273.924042,0.273409,-1.566786,-21.064869,0.034225,0.002563,1.004562,0.002835,-0.01919,-0.005607,69.397171,9.22934,-146.584671,,,
729601273.927377,0.273987,-1.575945,-21.066086,0.031204,0.003464,0.990982,0.002835,-0.01919,-0.005607,69.397171,9.22934,-146.584671,,,
729601273.930686,0.274284,-1.584629,-21.067895,0.031204,0.003464,0.990982,0.001056,-0.028776,-0.009648,69.397171,9.22934,-146.584671,,,
729601273.934046,0.274284,-1.584629,-21.067895,0.031204,0.003464,0.990982,0.001056,-0.028776,-0.009648,69.397171,9.22934,-146.584671,,,
729601273.937347,0.274332,-1.594713,-21.07092,0.033081,0.002655,0.99263,0.001056,-0.028776,-0.009648,69.397171,9.22934,-146.584671,,,
729601273.940732,0.277049,-1.605798,-21.075459,0.033081,0.002655,0.99263,0.012626,-0.040128,-0.020494,69.397171,9.22934,-146.584671,,,
729601273.944078,0.277049,-1.605798,-21.075459,0.033081,0.002655,0.99263,0.012626,-0.040128,-0.020494,69.397171,9.22934,-146.584671,,,
729601273.94743,0.280526,-1.62089,-21.081327,0.036636,0.00322,0.999466,0.012626,-0.040128,-0.020494,69.237335,9.3396,-146.678619,,,
729601273.950761,0.285261,-1.634692,-21.087682,0.036636,0.00322,0.999466,0.01762,-0.04649,-0.023969,69.237335,9.3396,-146.678619,,,
729601273.954032,0.285261,-1.634692,-21.087682,0.036636,0.00322,0.999466,0.01762,-0.04649,-0.023969,69.237335,9.3396,-146.678619,,,
729601273.95743,0.291171,-1.649214,-21.093564,0.033768,-0.002991,0.996948,0.01762,-0.04649,-0.023969,69.237335,9.3396,-146.678619,,,
729601273.960748,0.299147,-1.660052,-21.09865,0.033768,-0.002991,0.996948,0.03019,-0.030439,-0.018752,69.237335,9.3396,-146.678619,,,
729601273.964046,0.299147,-1.660052,-21.09865,0.033768,-0.002991,0.996948,0.03019,-0.030439,-0.018752,69.237335,9.3396,-146.678619,,,
729601273.967359,0.307361,-1.669102,-21.10316,0.036453,-0.004684,1.005676,0.03019,-0.030439,-0.018752,69.237335,9.3396,-146.678619,,,
729601273.970709,0.316699,-1.674896,-21.107599,0.036453,-0.004684,1.005676,0.032088,-0.013173,-0.018306,69.237335,9.3396,-146.678619,,,
729601273.97404,0.316699,-1.674896,-21.107599,0.036453,-0.004684,1.005676,0.032088,-0.013173,-0.018306,69.237335,9.3396,-146.678619,,,
729601273.977395,0.326421,-1.681189,-21.111753,0.042236,-0.003113,1.001511,0.032088,-0.013173,-0.018306,69.237335,9.3396,-146.678619,,,
729601273.980695,0.335796,-1.681911,-21.115591,0.042236,-0.003113,1.001511,0.02908,0.006314,-0.015862,69.237335,9.3396,-146.678619,,,
729601273.984116,0.335796,-1.681911,-21.115591,0.042236,-0.003113,1.001511,0.02908,0.006314,-0.015862,69.237335,9.3396,-146.678619,,,
729601273.987364,0.343145,-1.680485,-21.118589,0.038498,-0.001785,0.997116,0.02908,0.006314,-0.015862,69.237335,9.3396,-146.678619,,,
729601273.990697,0.347942,-1.675161,-21.120046,0.038498,-0.001785,0.997116,0.010463,0.02384,-0.004529,69.380371,9.200302,-146.540359,,,
729601273.994064,0.347942,-1.675161,-21.120046,0.038498,-0.001785,0.997116,0.010463,0.02384,-0.004529,69.380371,9.200302,-146.540359,,,
729601273.997346,0.349213,-1.670555,-21.120404,0.02771,0.000198,0.991241,0.010463,0.02384,-0.004529,69.380371,9.200302,-146.540359,,,
729601274.000691,0.349527,-1.665865,-21.119673,0.02771,0.000198,0.991241,-0.00249,0.015422,0.003455,69.380371,9.200302,-146.540359,,,
729601274.004023,0.349527,-1.665865,-21.119673,0.02771,0.000198,0.991241,-0.00249,0.015422,0.003455,69.380371,9.200302,-146.540359,,,
729601274.007385,0.347715,-1.663972,-21.118393,0.024734,0.002487,0.979416,-0.00249,0.015422,0.003455,69.380371,9.200302,-146.540359,,,
729601274.010816,0.346475,-1.664414,-21.118146,0.024734,0.002487,0.979416,-0.003684,-0.004426,-0.00368,69.380371,9.200302,-146.540359,,,
729601274.014051,0.346475,-1.664414,-21.118146,0.024734,0.002487,0.979416,-0.003684,-0.004426,-0.00368,69.380371,9.200302,-146.540359,,,
729601274.017374,0.344378,-1.669868,-21.120101,0.027313,0.003586,0.979233,-0.003684,-0.004426,-0.00368,69.380371,9.200302,-146.540359,,,
729601274.020714,0.342237,-1.676184,-21.124496,0.027313,0.003586,0.979233,-0.009883,-0.024514,-0.020462,69.380371,9.200302,-146.540359,,,
729601274.02407,0.342237,-1.676184,-21.124496,0.027313,0.003586,0.979233,-0.009883,-0.024514,-0.020462,69.380371,9.200302,-146.540359,,,
729601274.027383,0.338126,-1.68725,-21.130917,0.030777,0.006409,0.980133,-0.009883,-0.024514,-0.020462,69.380371,9.200302,-146.540359,,,
729601274.030713,0.333563,-1.696456,-21.138178,0.030777,0.006409,0.980133,-0.020665,-0.026597,-0.02594,69.325592,9.299057,-146.440872,,,
729601274.034104,0.333563,-1.696456,-21.138178,0.030777,0.006409,0.980133,-0.020665,-0.026597,-0.02594,69.325592,9.299057,-146.440872,,,
729601274.037369,0.323167,-1.70456,-21.144911,0.02684,0.00386,0.975739,-0.020665,-0.026597,-0.02594,69.325592,9.299057,-146.440872,,,
729601274.040701,0.313126,-1.710431,-21.150465,0.02684,0.00386,0.975739,-0.036931,-0.017897,-0.017166,69.325592,9.299057,-146.440872,,,
729601274.044077,0.313126,-1.710431,-21.150465,0.02684,0.00386,0.975739,-0.036931,-0.017897,-0.017166,69.325592,9.299057,-146.440872,,,
729601274.047454,0.299859,-1.720965,-21.155409,0.027496,0.00473,0.97583,-0.036931,-0.017897,-0.017166,69.325592,9.299057,-146.440872,,,
729601274.050693,0.289119,-1.729904,-21.160618,0.027496,0.00473,0.97583,-0.035813,-0.026301,-0.018957,69.325592,9.299057,-146.440872,,,
729601274.054045,0.289119,-1.729904,-21.160618,0.027496,0.00473,0.97583,-0.035813,-0.026301,-0.018957,69.325592,9.299057,-146.440872,,,
729601274.05736,0.276926,-1.740444,-21.16569,0.039658,0.00972,0.981079,-0.035813,-0.026301,-0.018957,69.325592,9.299057,-146.440872,,,
729601274.060773,0.266268,-1.744433,-21.170926,0.039658,0.00972,0.981079,-0.039295,-0.005594,-0.019799,69.325592,9.299057,-146.440872,,,
729601274.064051,0.266268,-1.744433,-21.170926,0.039658,0.00972,0.981079,-0.039295,-0.005594,-0.019799,69.325592,9.299057,-146.440872,,,
729601274.067376,0.253046,-1.74617,-21.175654,0.038437,0.006256,0.990784,-0.039295,-0.005594,-0.019799,69.325592,9.299057,-146.440872,,,
729601274.07076,0.253046,-1.743974,-21.178281,0.038437,0.006256,0.990784,-0.042878,0.013384,-0.005039,69.158218,9.413757,-146.371536,,,
729601274.07408,0.240818,-1.743974,-21.178281,0.038437,0.006256,0.990784,-0.042878,0.013384,-0.005039,69.158218,9.413757,-146.371536,,,
729601274.077396,0.22842,-1.738652,-21.179195,0.02536,0.00061,0.987564,-0.042878,0.013384,-0.005039,69.158218,9.413757,-146.371536,,,
729601274.080778,0.22842,-1.738652,-21.179575,0.02536,0.00061,0.987564,-0.042878,0.013384,-0.005039,69.158218,9.413757,-146.371536,,,
729601274.084039,0.218181,-1.733108,-21.179575,0.02536,0.00061,0.987564,-0.033022,0.024024,-0.001679,69.158218,9.413757,-146.371536,,,
729601274.087355,0.210048,-1.725953,-21.179449,0.022491,-0.004303,0.996597,-0.033022,0.024024,-0.001679,69.158218,9.413757,-146.371536,,,
729601274.090701,0.210048,-1.725953,-21.179449,0.022491,-0.004303,0.996597,-0.009829,0.015337,-0.003765,69.158218,9.413757,-146.371536,,,
729601274.09406,0.20555,-1.721439,-21.179516,0.022491,-0.004303,0.996597,-0.009829,0.015337,-0.003765,69.158218,9.413757,-146.371536,,,
729601274.097349,0.202703,-1.719181,-21.180163,0.030594,-0.004898,1.003143,-0.009829,0.015337,-0.003765,69.158218,9.413757,-146.371536,,,
729601274.100728,0.202703,-1.719181,-21.180163,0.030594,-0.004898,1.003143,-0.009829,0.015337,-0.003765,69.158218,9.413757,-146.371536,,,
729601274.104026,0.199084,-1.719388,-21.181227,0.030594,-0.004898,1.003143,-0.012573,0.000632,-0.006526,69.158218,9.413757,-146.371536,,,
729601274.107354,0.195576,-1.720988,-21.183012,0.02562,-0.000412,0.992203,-0.012573,0.000632,-0.006526,69.158218,9.413757,-146.371536,,,
729601274.110787,0.195576,-1.720988,-21.183012,0.02562,-0.000412,0.992203,-0.012573,0.000632,-0.006526,69.158218,9.413757,-146.371536,,,
729601274.114098,0.190056,-1.724432,-21.186112,0.02562,-0.000412,0.992203,-0.021865,-0.013801,-0.015491,69.31041,9.218307,-146.581329,,,
729601274.117378,0.182522,-1.729685,-21.191072,0.025391,0.001114,0.990799,-0.021865,-0.013801,-0.015491,69.31041,9.218307,-146.581329,,,
729601274.120681,0.182522,-1.729685,-21.191072,0.025391,0.001114,0.990799,-0.021865,-0.013801,-0.015491,69.31041,9.218307,-146.581329,,,
729601274.12403,0.173842,-1.73914,-21.197564,0.025391,0.001114,0.990799,-0.031812,-0.032823,-0.025933,69.31041,9.218307,-146.581329,,,
729601274.127381,0.164712,-1.749703,-21.205103,0.036835,0.007828,0.988647,-0.031812,-0.032823,-0.025933,69.31041,9.218307,-146.581329,,,
729601274.130776,0.164712,-1.749703,-21.205103,0.036835,0.007828,0.988647,-0.031812,-0.032823,-0.025933,69.31041,9.218307,-146.581329,,,
729601274.134029,0.153378,-1.758814,-21.213328,0.036835,0.007828,0.988647,-0.041064,-0.025724,-0.030324,69.31041,9.218307,-146.581329,,,
729601274.137354,0.142191,-1.769348,-21.221774,0.038498,0.009613,0.994415,-0.041064,-0.025724,-0.030324,69.31041,9.218307,-146.581329,,,
729601274.140678,0.142191,-1.769348,-21.221774,0.038498,0.009613,0.994415,-0.041064,-0.025724,-0.030324,69.31041,9.218307,-146.581329,,,
729601274.144119,0.129115,-1.774691,-21.229647,0.038498,0.009613,0.994415,-0.044322,-0.010407,-0.026175,69.31041,9.218307,-146.581329,,,
729601274.147353,0.116432,-1.777688,-21.237141,0.039124,0.006592,0.998154,-0.044322,-0.010407,-0.026175,69.31041,9.218307,-146.581329,,,
729601274.150684,0.116432,-1.777688,-21.237141,0.039124,0.006592,0.998154,-0.044322,-0.010407,-0.026175,69.31041,9.218307,-146.581329,,,
729601274.154031,0.102892,-1.777649,-21.243666,0.039124,0.006592,0.998154,-0.046842,0.005632,-0.01934,69.402893,9.439346,-146.617966,,,
729601274.157346,0.088596,-1.773119,-21.248742,0.04184,0.005814,1.002441,-0.046842,0.005632,-0.01934,69.402893,9.439346,-146.617966,,,
729601274.160746,0.088596,-1.773119,-21.248742,0.04184,0.005814,1.002441,-0.046842,0.005632,-0.01934,69.402893,9.439346,-146.617966,,,
729601274.164105,0.075145,-1.76868,-21.252791,0.04184,0.005814,1.002441,-0.047088,0.022471,-0.012233,69.402893,9.439346,-146.617966,,,
729601274.167356,0.059216,-1.760258,-21.255837,0.036713,0.004044,0.999786,-0.047088,0.022471,-0.012233,69.402893,9.439346,-146.617966,,,
729601274.170728,0.059216,-1.760258,-21.255837,0.036713,0.004044,0.999786,-0.047088,0.022471,-0.012233,69.402893,9.439346,-146.617966,,,
729601274.174032,0.0438,-1.751895,-21.257982,0.036713,0.004044,0.999786,-0.054436,0.033645,-0.005786,69.402893,9.439346,-146.617966,,,
729601274.177397,0.027814,-1.743608,-21.259812,0.031281,0.004288,0.998291,-0.054436,0.033645,-0.005786,69.402893,9.439346,-146.617966,,,
