Time (sec),Pitch (deg),Roll (deg),Yaw(deg),X-Acceleration (g),Y-Acceleration (g),Z-Acceleration (g),Pitch Rate (deg/sec),Roll Rate (deg/sec),Yaw Rate (deg/sec),Magnetic Field in X direction (uT),Magnetic Field in Y direction (uT),Magnetic Field in Z Direction (uT),Latitude (deg),Longitude (deg),Altitude (m)
729607023.718681,0.707851,1.167974,50.239832,0.002136,0.017212,0.984955,-0.030317,0.000991,-0.025801,62.691391,21.233627,-147.949478,,,
729607023.72206,0.69976,1.164981,50.230153,0.000366,0.016663,0.992126,-0.026685,-0.007583,-0.034244,62.691391,21.233627,-147.949478,,,
729607023.725448,0.69976,1.164981,50.230153,0.000366,0.016663,0.992126,-0.026685,-0.007583,-0.034244,62.691391,21.233627,-147.949478,,,
729607023.728673,0.69107,1.160966,50.219826,0.000366,0.016663,0.992126,-0.026685,-0.007583,-0.034244,62.691391,21.233627,-147.949478,,,
729607023.732012,0.69107,1.160966,50.209719,-0.005905,0.015137,0.994156,-0.029389,-0.002488,-0.036922,62.691391,21.233627,-147.949478,,,
729607023.735355,0.683061,1.159371,50.209719,-0.005905,0.015137,0.994156,-0.029389,-0.002488,-0.036922,62.691391,21.233627,-147.949478,,,
729607023.738767,0.673859,1.161182,50.200855,-0.005905,0.015137,0.994156,-0.029389,-0.002488,-0.036922,62.691391,21.233627,-147.949478,,,
729607023.742041,0.673859,1.161182,50.200855,-0.008774,0.013214,1.002335,-0.023862,0.013389,-0.030159,62.691391,21.233627,-147.949478,,,
729607023.745361,0.666674,1.164288,50.193498,-0.008774,0.013214,1.002335,-0.023862,0.013389,-0.030159,62.691391,21.233627,-147.949478,,,
729607023.748677,0.659934,1.16954,50.187474,-0.008774,0.013214,1.002335,-0.023862,0.013389,-0.030159,62.691391,21.233627,-147.949478,,,
729607023.752037,0.659934,1.16954,50.187474,-0.011215,0.012283,1.00856,-0.008288,0.023057,-0.014441,62.691391,21.233627,-147.949478,,,
729607023.755352,0.65682,1.176088,50.183691,-0.011215,0.012283,1.00856,-0.008288,0.023057,-0.014441,62.691391,21.233627,-147.949478,,,
729607023.758722,0.655054,1.182765,50.1822,-0.011215,0.012283,1.00856,-0.008288,0.023057,-0.014441,62.917511,21.328125,-147.927475,,,
729607023.762005,0.655054,1.182765,50.1822,-0.011215,0.012283,1.00856,0.000105,0.044162,0.000748,62.917511,21.328125,-147.927475,,,
729607023.765349,0.654435,1.195029,50.182919,-0.011978,0.012024,1.013336,0.000105,0.044162,0.000748,62.917511,21.328125,-147.927475,,,
729607023.768672,0.654284,1.204568,50.18594,-0.011978,0.012024,1.013336,0.000105,0.044162,0.000748,62.917511,21.328125,-147.927475,,,
729607023.772035,0.654284,1.204568,50.18594,-0.011978,0.012024,1.013336,-0.006259,0.063413,0.014677,62.917511,21.328125,-147.927475,,,
729607023.775344,0.652106,1.221318,50.19105,-0.017609,0.012802,1.004211,-0.006259,0.063413,0.014677,62.917511,21.328125,-147.927475,,,
729607023.778675,0.650883,1.230296,50.197018,-0.017609,0.012802,1.004211,-0.006259,0.063413,0.014677,62.917511,21.328125,-147.927475,,,
729607023.782022,0.650883,1.230296,50.197018,-0.017609,0.012802,1.004211,-0.01865,0.06212,0.0171,62.917511,21.328125,-147.927475,,,
729607023.78535,0.646701,1.246863,50.202224,-0.014999,0.01825,0.996613,-0.01865,0.06212,0.0171,62.917511,21.328125,-147.927475,,,
729607023.78874,0.642928,1.249505,50.205767,-0.014999,0.01825,0.996613,-0.01865,0.06212,0.0171,62.917511,21.328125,-147.927475,,,
729607023.79207,0.642928,1.249505,50.205767,-0.014999,0.01825,0.996613,-0.024963,0.027293,0.000966,62.917511,21.328125,-147.927475,,,
729607023.795347,0.635466,1.256843,50.206116,-0.008041,0.028214,0.991287,-0.024963,0.027293,0.000966,62.917511,21.328125,-147.927475,,,
729607023.79867,0.627988,1.246558,50.202684,-0.008041,0.028214,0.991287,-0.024963,0.027293,0.000966,62.917511,21.328125,-147.927475,,,
729607023.802075,0.627988,1.246558,50.202684,-0.008041,0.028214,0.991287,-0.024963,0.027293,0.000966,62.941132,21.235626,-147.888275,,,
729607023.805354,0.619215,1.240276,50.195473,-0.00737,0.027618,0.987549,-0.030037,-0.021342,-0.027392,62.941132,21.235626,-147.888275,,,
729607023.808704,0.611921,1.220674,50.185816,-0.00737,0.027618,0.987549,-0.030037,-0.021342,-0.027392,62.941132,21.235626,-147.888275,,,
729607023.812009,0.611921,1.220674,50.185816,-0.00737,0.027618,0.987549,-0.030037,-0.021342,-0.027392,62.941132,21.235626,-147.888275,,,
729607023.815341,0.605423,1.206199,50.174106,-0.012619,0.018387,1.003647,-0.019548,-0.048177,-0.044105,62.941132,21.235626,-147.888275,,,
729607023.818692,0.601447,1.183106,50.161255,-0.012619,0.018387,1.003647,-0.019548,-0.048177,-0.044105,62.941132,21.235626,-147.888275,,,
729607023.8221,0.601447,1.183106,50.161255,-0.012619,0.018387,1.003647,-0.019548,-0.048177,-0.044105,62.941132,21.235626,-147.888275,,,
729607023.82541,0.598362,1.165103,50.148874,-0.013977,0.015854,1.011185,-0.012663,-0.062533,-0.044161,62.941132,21.235626,-147.888275,,,
729607023.828665,0.59803,1.142953,50.138434,-0.013977,0.015854,1.011185,-0.012663,-0.062533,-0.044161,62.941132,21.235626,-147.888275,,,
729607023.832065,0.59803,1.142953,50.138434,-0.013977,0.015854,1.011185,-0.012663,-0.062533,-0.044161,62.941132,21.235626,-147.888275,,,
729607023.835366,0.599841,1.128326,50.129854,-0.014404,0.014343,1.017944,0.007867,-0.050137,-0.032621,62.941132,21.235626,-147.888275,,,
729607023.838678,0.604449,1.114162,50.123232,-0.014404,0.014343,1.017944,0.007867,-0.050137,-0.032621,62.941132,21.235626,-147.888275,,,
729607023.842033,0.604449,1.114162,50.123232,-0.014404,0.014343,1.017944,0.007867,-0.050137,-0.032621,62.889145,21.162964,-147.82579,,,
729607023.84546,0.611111,1.10826,50.117641,-0.019043,0.005676,1.025208,0.023004,-0.019413,-0.020137,62.889145,21.162964,-147.82579,,,
729607023.848684,0.620681,1.10309,50.112896,-0.019043,0.005676,1.025208,0.023004,-0.019413,-0.020137,62.889145,21.162964,-147.82579,,,
729607023.85209,0.620681,1.10309,50.112896,-0.019043,0.005676,1.025208,0.023004,-0.019413,-0.020137,62.889145,21.162964,-147.82579,,,
729607023.855335,0.631784,1.103646,50.108844,-0.022568,0.003922,1.023834,0.039811,0.006691,-0.014662,62.889145,21.162964,-147.82579,,,
729607023.858756,0.644507,1.107088,50.10448,-0.022568,0.003922,1.023834,0.039811,0.006691,-0.014662,62.889145,21.162964,-147.82579,,,
729607023.862077,0.644507,1.107088,50.10448,-0.022568,0.003922,1.023834,0.039811,0.006691,-0.014662,62.889145,21.162964,-147.82579,,,
729607023.865341,0.657405,1.11341,50.099018,-0.022537,0.006363,1.017715,0.045524,0.02472,-0.01732,62.889145,21.162964,-147.82579,,,
729607023.868693,0.672326,1.116681,50.09214,-0.022537,0.006363,1.017715,0.045524,0.02472,-0.01732,62.889145,21.162964,-147.82579,,,
729607023.872082,0.672326,1.116681,50.09214,-0.022537,0.006363,1.017715,0.045524,0.02472,-0.01732,62.889145,21.162964,-147.82579,,,
729607023.875422,0.685188,1.122498,50.083289,-0.023468,0.010254,1.002594,0.049388,0.022013,-0.031896,62.889145,21.162964,-147.82579,,,
729607023.878715,0.701089,1.121282,50.071941,-0.023468,0.010254,1.002594,0.049388,0.022013,-0.031896,62.889145,21.162964,-147.82579,,,
729607023.88205,0.701089,1.121282,50.071941,-0.023468,0.010254,1.002594,0.049388,0.022013,-0.031896,62.818817,21.144974,-147.800415,,,
729607023.885344,0.713855,1.123929,50.058643,-0.026581,0.00769,0.996201,0.046194,0.010858,-0.046665,62.818817,21.144974,-147.800415,,,
729607023.88874,0.729393,1.121326,50.044476,-0.026581,0.00769,0.996201,0.046194,0.010858,-0.046665,62.818817,21.144974,-147.800415,,,
729607023.892044,0.729393,1.121326,50.044476,-0.026581,0.00769,0.996201,0.046194,0.010858,-0.046665,62.818817,21.144974,-147.800415,,,
729607023.895363,0.742056,1.12243,50.029795,-0.035263,0.002991,0.994186,0.04686,0.005957,-0.051431,62.818817,21.144974,-147.800415,,,
729607023.898683,0.754514,1.119714,50.01545,-0.035263,0.002991,0.994186,0.04686,0.005957,-0.051431,62.818817,21.144974,-147.800415,,,
729607023.902035,0.754514,1.119714,50.01545,-0.035263,0.002991,0.994186,0.04686,0.005957,-0.051431,62.818817,21.144974,-147.800415,,,
729607023.905352,0.766079,1.11774,50.002111,-0.04126,0.002747,0.988434,0.041147,-0.007231,-0.04664,62.818817,21.144974,-147.800415,,,
729607023.908688,0.777251,1.112023,49.989596,-0.04126,0.002747,0.988434,0.041147,-0.007231,-0.04664,62.818817,21.144974,-147.800415,,,
729607023.912116,0.777251,1.112023,49.989596,-0.04126,0.002747,0.988434,0.041147,-0.007231,-0.04664,62.818817,21.144974,-147.800415,,,
729607023.915331,0.787861,1.108517,49.977858,-0.044952,0.001282,0.988663,0.039163,-0.008316,-0.039987,62.818817,21.144974,-147.800415,,,
729607023.918685,0.799176,1.10521,49.967271,-0.044952,0.001282,0.988663,0.039163,-0.008316,-0.039987,62.818817,21.144974,-147.800415,,,
729607023.922011,0.799176,1.10521,49.967271,-0.044952,0.001282,0.988663,0.039163,-0.008316,-0.039987,62.852859,21.120285,-148.008987,,,
729607023.925399,0.812952,1.10481,49.957171,-0.0466,-0.000778,0.998505,0.04859,-0.001698,-0.034118,62.852859,21.120285,-148.008987,,,
729607023.928684,0.826865,1.105528,49.947962,-0.0466,-0.000778,0.998505,0.04859,-0.001698,-0.034118,62.852859,21.120285,-148.008987,,,
729607023.932077,0.826865,1.105528,49.947962,-0.0466,-0.000778,0.998505,0.04859,-0.001698,-0.034118,62.852859,21.120285,-148.008987,,,
729607023.935423,0.844647,1.10681,49.940116,-0.047974,-0.000595,1.005585,0.063587,0.004597,-0.025756,62.852859,21.120285,-148.008987,,,
729607023.938676,0.861683,1.109584,49.933546,-0.047974,-0.000595,1.005585,0.063587,0.004597,-0.025756,62.852859,21.120285,-148.008987,,,
729607023.942036,0.861683,1.109584,49.933546,-0.047974,-0.000595,1.005585,0.063587,0.004597,-0.025756,62.852859,21.120285,-148.008987,,,
729607023.94538,0.881823,1.110196,49.928692,-0.048309,-0.001526,0.999542,0.071408,0.006484,-0.016736,62.852859,21.120285,-148.008987,,,
729607023.94868,0.901224,1.111571,49.924929,-0.048309,-0.001526,0.999542,0.071408,0.006484,-0.016736,62.852859,21.120285,-148.008987,,,
729607023.952006,0.901224,1.111571,49.924929,-0.048309,-0.001526,0.999542,0.071408,0.006484,-0.016736,62.852859,21.120285,-148.008987,,,
729607023.955363,0.921464,1.110932,49.922005,-0.04631,-0.003357,0.999359,0.073671,0.001152,-0.00841,62.852859,21.120285,-148.008987,,,
729607023.958732,0.94042,1.110955,49.920182,-0.04631,-0.003357,0.999359,0.073671,0.001152,-0.00841,62.852859,21.120285,-148.008987,,,
729607023.962065,0.94042,1.110955,49.920182,-0.04631,-0.003357,0.999359,0.073671,0.001152,-0.00841,62.852859,21.120285,-148.008987,,,
729607023.965334,0.96092,1.108392,49.919147,-0.04303,-0.003204,0.995834,0.070469,-0.005052,-0.003006,62.913528,20.921494,-147.868042,,,
729607023.968718,0.97954,1.109355,49.918264,-0.04303,-0.003204,0.995834,0.070469,-0.005052,-0.003006,62.913528,20.921494,-147.868042,,,
729607023.972044,0.97954,1.109355,49.918264,-0.04303,-0.003204,0.995834,0.070469,-0.005052,-0.003006,62.913528,20.921494,-147.868042,,,
729607023.975358,1.001076,1.105482,49.917732,-0.03772,0.004333,0.998749,0.074213,-0.013526,-0.000712,62.913528,20.921494,-147.868042,,,
729607023.978674,1.020057,1.10966,49.917011,-0.03772,0.004333,0.998749,0.074213,-0.013526,-0.000712,62.913528,20.921494,-147.868042,,,
729607023.982031,1.020057,1.10966,49.917011,-0.03772,0.004333,0.998749,0.074213,-0.013526,-0.000712,62.913528,20.921494,-147.868042,,,
729607023.985361,1.040946,1.106062,49.916481,-0.026718,0.010696,0.994263,0.071247,-0.009691,-0.000346,62.913528,20.921494,-147.868042,,,
729607023.988767,1.058144,1.114068,49.916311,-0.026718,0.010696,0.994263,0.071247,-0.009691,-0.000346,62.913528,20.921494,-147.868042,,,
729607023.992098,1.058144,1.114068,49.916311,-0.026718,0.010696,0.994263,0.071247,-0.009691,-0.000346,62.913528,20.921494,-147.868042,,,
729607023.995368,1.076939,1.112666,49.916515,-0.019012,0.016998,0.994064,0.06679,-0.001359,-0.000664,62.913528,20.921494,-147.868042,,,
729607023.998681,1.090853,1.124793,49.916302,-0.019012,0.016998,0.994064,0.06679,-0.001359,-0.000664,62.913528,20.921494,-147.868042,,,
729607024.002075,1.090853,1.124793,49.916302,-0.019012,0.016998,0.994064,0.06679,-0.001359,-0.000664,62.913528,20.921494,-147.868042,,,
729607024.005306,1.106617,1.125606,49.916586,-0.014938,0.020386,0.991699,0.053645,0.004232,0.00188,62.965744,20.79274,-147.721573,,,
729607024.008685,1.117489,1.138817,49.917381,-0.014938,0.020386,0.991699,0.053645,0.004232,0.00188,62.965744,20.79274,-147.721573,,,
729607024.012019,1.117489,1.138817,49.917381,-0.014938,0.020386,0.991699,0.053645,0.004232,0.00188,62.965744,20.79274,-147.721573,,,
729607024.01534,1.130964,1.140284,49.918867,-0.015793,0.021301,0.987411,0.048178,0.006903,0.006559,62.965744,20.79274,-147.721573,,,
729607024.018675,1.139994,1.154153,49.920838,-0.015793,0.021301,0.987411,0.048178,0.006903,0.006559,62.965744,20.79274,-147.721573,,,
729607024.022001,1.139994,1.154153,49.920838,-0.015793,0.021301,0.987411,0.048178,0.006903,0.006559,62.965744,20.79274,-147.721573,,,
729607024.025445,1.151719,1.15645,49.923929,-0.016327,0.023132,0.99231,0.043593,0.010529,0.011872,62.965744,20.79274,-147.721573,,,
729607024.028667,1.158007,1.171645,49.927555,-0.016327,0.023132,0.99231,0.043593,0.010529,0.011872,62.965744,20.79274,-147.721573,,,
729607024.032021,1.158007,1.171645,49.927555,-0.016327,0.023132,0.99231,0.043593,0.010529,0.011872,62.965744,20.79274,-147.721573,,,
729607024.035346,1.167211,1.174815,49.932797,-0.021103,0.021011,0.993301,0.033678,0.014323,0.02051,62.965744,20.79274,-147.721573,,,
729607024.038668,1.171598,1.188384,49.939203,-0.021103,0.021011,0.993301,0.033678,0.014323,0.02051,62.965744,20.79274,-147.721573,,,
729607024.042026,1.171598,1.188384,49.939203,-0.021103,0.021011,0.993301,0.033678,0.014323,0.02051,62.965744,20.79274,-147.721573,,,
729607024.045336,1.179777,1.1917,49.945867,-0.022186,0.018234,0.991913,0.029228,0.014887,0.021358,62.964813,20.912613,-148.204651,,,
729607024.048673,1.183867,1.205421,49.951774,-0.022186,0.018234,0.991913,0.029228,0.014887,0.021358,62.964813,20.912613,-148.204651,,,
729607024.052099,1.183867,1.205421,49.951774,-0.022186,0.018234,0.991913,0.029228,0.014887,0.021358,62.964813,20.912613,-148.204651,,,
729607024.055339,1.190936,1.210153,49.95682,-0.012497,0.01889,0.999985,0.025909,0.018807,0.016959,62.964813,20.912613,-148.204651,,,
729607024.05884,1.193581,1.219035,49.959789,-0.012497,0.01889,0.999985,0.025909,0.018807,0.016959,62.964813,20.912613,-148.204651,,,
729607024.061986,1.193581,1.219035,49.959789,-0.012497,0.01889,0.999985,0.025909,0.018807,0.016959,62.964813,20.912613,-148.204651,,,
729607024.065386,1.196128,1.220401,49.960947,-0.012421,0.022202,0.991028,0.010455,0.007338,0.003865,62.964813,20.912613,-148.204651,,,
729607024.068691,1.19478,1.221243,49.960141,-0.012421,0.022202,0.991028,0.010455,0.007338,0.003865,62.964813,20.912613,-148.204651,,,
729607024.072006,1.19478,1.221243,49.960141,-0.012421,0.022202,0.991028,0.010455,0.007338,0.003865,62.964813,20.912613,-148.204651,,,
729607024.075425,1.193371,1.21891,49.95796,-0.015594,0.021515,0.985733,-0.004521,-0.004998,-0.010078,62.964813,20.912613,-148.204651,,,
729607024.078682,1.191497,1.212297,49.955664,-0.015594,0.021515,0.985733,-0.004521,-0.004998,-0.010078,62.964813,20.912613,-148.204651,,,
729607024.082009,1.191497,1.212297,49.955664,-0.015594,0.021515,0.985733,-0.004521,-0.004998,-0.010078,62.964813,20.912613,-148.204651,,,
729607024.085446,1.190364,1.205171,49.953706,-0.017426,0.018784,0.992783,-0.001383,-0.024221,-0.008915,62.954422,20.633041,-148.210327,,,
729607024.088766,1.189807,1.193108,49.952645,-0.017426,0.018784,0.992783,-0.001383,-0.024221,-0.008915,62.954422,20.633041,-148.210327,,,
729607024.092133,1.189807,1.193108,49.952645,-0.017426,0.018784,0.992783,-0.001383,-0.024221,-0.008915,62.954422,20.633041,-148.210327,,,
729607024.095354,1.189464,1.182139,49.952504,-0.017059,0.014801,0.995911,-9.2e-05,-0.035118,-0.003387,62.954422,20.633041,-148.210327,,,
729607024.098694,1.189536,1.170216,49.952691,-0.017059,0.014801,0.995911,-9.2e-05,-0.035118,-0.003387,62.954422,20.633041,-148.210327,,,
729607024.102008,1.189536,1.170216,49.952691,-0.017059,0.014801,0.995911,-9.2e-05,-0.035118,-0.003387,62.954422,20.633041,-148.210327,,,
729607024.105402,1.188963,1.162725,49.952634,-0.013748,0.014984,0.998581,-0.000362,-0.023068,-0.001368,62.954422,20.633041,-148.210327,,,
729607024.108725,1.187853,1.157007,49.952847,-0.013748,0.014984,0.998581,-0.000362,-0.023068,-0.001368,62.954422,20.633041,-148.210327,,,
729607024.112028,1.187853,1.157007,49.952847,-0.013748,0.014984,0.998581,-0.000362,-0.023068,-0.001368,62.954422,20.633041,-148.210327,,,
729607024.115345,1.185261,1.155925,49.953251,-0.007675,0.018051,1.002274,-0.008868,-0.001542,0.000277,62.954422,20.633041,-148.210327,,,
729607024.118698,1.181437,1.1595,49.953022,-0.007675,0.018051,1.002274,-0.008868,-0.001542,0.000277,62.954422,20.633041,-148.210327,,,
729607024.12202,1.181437,1.1595,49.953022,-0.007675,0.018051,1.002274,-0.008868,-0.001542,0.000277,62.954422,20.633041,-148.210327,,,
729607024.125467,1.177234,1.164553,49.951773,-0.001755,0.024857,0.999207,-0.011999,0.020386,-0.005843,62.954422,20.633041,-148.210327,,,
729607024.128717,1.172099,1.172184,49.949352,-0.001755,0.024857,0.999207,-0.011999,0.020386,-0.005843,62.969345,20.799469,-148.006638,,,
729607024.132044,1.172099,1.172184,49.949352,-0.001755,0.024857,0.999207,-0.011999,0.020386,-0.005843,62.969345,20.799469,-148.006638,,,
729607024.135394,1.165972,1.18268,49.94571,-0.000168,0.027374,1.001221,-0.022111,0.040297,-0.014967,62.969345,20.799469,-148.006638,,,
729607024.138777,1.158012,1.189444,49.941307,-0.000168,0.027374,1.001221,-0.022111,0.040297,-0.014967,62.969345,20.799469,-148.006638,,,
729607024.142023,1.158012,1.189444,49.941307,-0.000168,0.027374,1.001221,-0.022111,0.040297,-0.014967,62.969345,20.799469,-148.006638,,,
729607024.145365,1.148544,1.199057,49.935772,-0.002213,0.024582,0.991211,-0.02671,0.03398,-0.02385,62.969345,20.799469,-148.006638,,,
729607024.148672,1.13948,1.202611,49.929149,-0.002213,0.024582,0.991211,-0.02671,0.03398,-0.02385,62.969345,20.799469,-148.006638,,,
729607024.15212,1.13948,1.202611,49.929149,-0.002213,0.024582,0.991211,-0.02671,0.03398,-0.02385,62.969345,20.799469,-148.006638,,,
729607024.155361,1.130461,1.205494,49.921343,-0.006821,0.021347,0.991226,-0.030751,0.011538,-0.029321,62.969345,20.799469,-148.006638,,,
729607024.158734,1.122467,1.201596,49.912395,-0.006821,0.021347,0.991226,-0.030751,0.011538,-0.029321,62.969345,20.799469,-148.006638,,,
729607024.162011,1.122467,1.201596,49.912395,-0.006821,0.021347,0.991226,-0.030751,0.011538,-0.029321,62.969345,20.799469,-148.006638,,,
729607024.165433,1.116112,1.193439,49.901914,-0.009384,0.021271,0.992355,-0.020905,-0.025225,-0.039566,62.969345,20.799469,-148.006638,,,
729607024.168692,1.111268,1.178145,49.889748,-0.009384,0.021271,0.992355,-0.020905,-0.025225,-0.039566,62.851166,20.710144,-147.833557,,,
729607024.172017,1.111268,1.178145,49.889748,-0.009384,0.021271,0.992355,-0.020905,-0.025225,-0.039566,62.851166,20.710144,-147.833557,,,
729607024.175366,1.108435,1.160248,49.876065,-0.009689,0.021439,0.99176,-0.007563,-0.061864,-0.050891,62.851166,20.710144,-147.833557,,,
729607024.178755,1.105962,1.139642,49.86062,-0.009689,0.021439,0.99176,-0.007563,-0.061864,-0.050891,62.851166,20.710144,-147.833557,,,
729607024.181997,1.105962,1.139642,49.86062,-0.009689,0.021439,0.99176,-0.007563,-0.061864,-0.050891,62.851166,20.710144,-147.833557,,,
729607024.185347,1.104469,1.121695,49.843619,-0.004807,0.023041,0.996002,-0.003276,-0.064388,-0.057948,62.851166,20.710144,-147.833557,,,
729607024.188687,1.101813,1.102039,49.825965,-0.004807,0.023041,0.996002,-0.003276,-0.064388,-0.057948,62.851166,20.710144,-147.833557,,,
729607024.192124,1.101813,1.102039,49.825965,-0.004807,0.023041,0.996002,-0.003276,-0.064388,-0.057948,62.851166,20.710144,-147.833557,,,
729607024.195336,1.100445,1.089616,49.808193,-0.005173,0.023071,0.99736,-0.005339,-0.041865,-0.06279,62.851166,20.710144,-147.833557,,,
729607024.198679,1.098928,1.077078,49.791104,-0.005173,0.023071,0.99736,-0.005339,-0.041865,-0.06279,62.851166,20.710144,-147.833557,,,
729607024.202014,1.098928,1.077078,49.791104,-0.005173,0.023071,0.99736,-0.005339,-0.041865,-0.06279,62.851166,20.710144,-147.833557,,,
729607024.205412,1.095358,1.076023,49.775455,-0.008102,0.020645,0.99794,-0.009588,-0.001299,-0.055835,62.851166,20.710144,-147.833557,,,
729607024.208672,1.091642,1.07225,49.762307,-0.008102,0.020645,0.99794,-0.009588,-0.001299,-0.055835,62.765656,20.902267,-147.941559,,,
729607024.212017,1.091642,1.07225,49.762307,-0.008102,0.020645,0.99794,-0.009588,-0.001299,-0.055835,62.765656,20.902267,-147.941559,,,
729607024.215442,1.084847,1.080657,49.751637,-0.015961,0.019318,0.994949,-0.024293,0.033121,-0.039306,62.765656,20.902267,-147.941559,,,
729607024.218729,1.077556,1.083972,49.743494,-0.015961,0.019318,0.994949,-0.024293,0.033121,-0.039306,62.765656,20.902267,-147.941559,,,
729607024.222027,1.077556,1.083972,49.743494,-0.015961,0.019318,0.994949,-0.024293,0.033121,-0.039306,62.765656,20.902267,-147.941559,,,
729607024.22541,1.067884,1.096273,49.73689,-0.024124,0.016815,0.992172,-0.033135,0.046381,-0.025228,62.765656,20.902267,-147.941559,,,
729607024.228676,1.05892,1.101134,49.731532,-0.024124,0.016815,0.992172,-0.033135,0.046381,-0.025228,62.765656,20.902267,-147.941559,,,
729607024.23208,1.05892,1.101134,49.731532,-0.024124,0.016815,0.992172,-0.033135,0.046381,-0.025228,62.765656,20.902267,-147.941559,,,
729607024.235353,1.049597,1.109392,49.726369,-0.029831,0.016876,0.993622,-0.030758,0.029464,-0.021059,62.765656,20.902267,-147.941559,,,
729607024.238685,1.041877,1.108199,49.720611,-0.029831,0.016876,0.993622,-0.030758,0.029464,-0.021059,62.765656,20.902267,-147.941559,,,
729607024.242016,1.041877,1.108199,49.720611,-0.029831,0.016876,0.993622,-0.030758,0.029464,-0.021059,62.765656,20.902267,-147.941559,,,
729607024.245427,1.034749,1.106764,49.714184,-0.034546,0.020615,0.99501,-0.025751,3.1e-05,-0.025116,62.765656,20.902267,-147.941559,,,
729607024.248695,1.02916,1.097339,49.70721,-0.034546,0.020615,0.99501,-0.025751,3.1e-05,-0.025116,62.765656,20.902267,-147.941559,,,
729607024.252024,1.02916,1.097339,49.70721,-0.034546,0.020615,0.99501,-0.025751,3.1e-05,-0.025116,62.987686,21.075211,-148.147949,,,
729607024.255358,1.023913,1.088635,49.700361,-0.037323,0.021927,0.996048,-0.021187,-0.029117,-0.026463,62.987686,21.075211,-148.147949,,,
729607024.258766,1.020639,1.072906,49.69442,-0.037323,0.021927,0.996048,-0.021187,-0.029117,-0.026463,62.987686,21.075211,-148.147949,,,
729607024.262019,1.020639,1.072906,49.69442,-0.037323,0.021927,0.996048,-0.021187,-0.029117,-0.026463,62.987686,21.075211,-148.147949,,,
729607024.265347,1.017564,1.060066,49.689504,-0.037003,0.015839,1.005768,-0.009532,-0.044649,-0.018829,62.987686,21.075211,-148.147949,,,
729607024.268669,1.016596,1.0395,49.68635,-0.037003,0.015839,1.005768,-0.009532,-0.044649,-0.018829,62.987686,21.075211,-148.147949,,,
729607024.272002,1.016596,1.0395,49.68635,-0.037003,0.015839,1.005768,-0.009532,-0.044649,-0.018829,62.987686,21.075211,-148.147949,,,
729607024.275355,1.015489,1.023926,49.684823,-0.034851,0.00882,1.008759,-0.001816,-0.049435,-0.008439,62.987686,21.075211,-148.147949,,,
729607024.278675,1.014718,1.003395,49.684989,-0.034851,0.00882,1.008759,-0.001816,-0.049435,-0.008439,62.987686,21.075211,-148.147949,,,
729607024.282005,1.014718,1.003395,49.684989,-0.034851,0.00882,1.008759,-0.001816,-0.049435,-0.008439,62.987686,21.075211,-148.147949,,,
729607024.285338,1.013243,0.990112,49.686056,-0.031326,0.008865,1.006454,-0.005447,-0.043991,0.002956,62.987686,21.075211,-148.147949,,,
729607024.288684,1.013407,0.976764,49.687307,-0.031326,0.008865,1.006454,-0.005447,-0.043991,0.002956,62.987686,21.075211,-148.147949,,,
729607024.292041,1.013407,0.976764,49.687307,-0.031326,0.008865,1.006454,-0.005447,-0.043991,0.002956,62.822586,20.889404,-147.575607,,,
729607024.295346,1.014484,0.969434,49.687574,-0.021774,0.017548,1.024872,0.006722,-0.022645,0.000996,62.822586,20.889404,-147.575607,,,
729607024.29868,1.016593,0.965159,49.687071,-0.021774,0.017548,1.024872,0.006722,-0.022645,0.000996,62.822586,20.889404,-147.575607,,,
729607024.302016,1.016593,0.965159,49.687071,-0.021774,0.017548,1.024872,0.006722,-0.022645,0.000996,62.822586,20.889404,-147.575607,,,
729607024.305358,1.018664,0.960183,49.685925,-0.020081,0.019867,1.019196,0.010527,-0.015424,-0.003886,62.822586,20.889404,-147.575607,,,
729607024.308725,1.020876,0.961261,49.684216,-0.020081,0.019867,1.019196,0.010527,-0.015424,-0.003886,62.822586,20.889404,-147.575607,,,
729607024.312001,1.020876,0.961261,49.684216,-0.020081,0.019867,1.019196,0.010527,-0.015424,-0.003886,62.822586,20.889404,-147.575607,,,
729607024.315337,1.02352,0.959239,49.682626,-0.023529,0.012939,1.015656,0.01029,-0.005513,-0.005126,62.822586,20.889404,-147.575607,,,
729607024.318691,1.0259,0.964041,49.681011,-0.023529,0.012939,1.015656,0.01029,-0.005513,-0.005126,62.822586,20.889404,-147.575607,,,
729607024.322092,1.0259,0.964041,49.681011,-0.023529,0.012939,1.015656,0.01029,-0.005513,-0.005126,62.822586,20.889404,-147.575607,,,
729607024.325397,1.028092,0.960669,49.678892,-0.025284,0.011353,1.011246,0.009114,-0.008502,-0.008139,62.822586,20.889404,-147.575607,,,
729607024.328689,1.031093,0.964515,49.67569,-0.025284,0.011353,1.011246,0.009114,-0.008502,-0.008139,62.822586,20.889404,-147.575607,,,
729607024.332001,1.031093,0.964515,49.67569,-0.025284,0.011353,1.011246,0.009114,-0.008502,-0.008139,62.778198,20.714645,-147.983597,,,
729607024.335339,1.032876,0.959424,49.672212,-0.022888,0.014786,1.007202,0.00495,-0.015668,-0.015561,62.778198,20.714645,-147.983597,,,
729607024.338689,1.034484,0.963126,49.667905,-0.022888,0.014786,1.007202,0.00495,-0.015668,-0.015561,62.778198,20.714645,-147.983597,,,
729607024.342022,1.034484,0.963126,49.667905,-0.022888,0.014786,1.007202,0.00495,-0.015668,-0.015561,62.778198,20.714645,-147.983597,,,
729607024.345416,1.036494,0.95784,49.663848,-0.025894,0.015076,1.006546,0.007113,-0.015978,-0.014279,62.778198,20.714645,-147.983597,,,
729607024.348675,1.03892,0.960894,49.660138,-0.025894,0.015076,1.006546,0.007113,-0.015978,-0.014279,62.778198,20.714645,-147.983597,,,
729607024.352073,1.03892,0.960894,49.660138,-0.025894,0.015076,1.006546,0.007113,-0.015978,-0.014279,62.778198,20.714645,-147.983597,,,
729607024.355369,1.042412,0.956636,49.656856,-0.025955,0.01445,1.008026,0.015759,-0.012086,-0.014893,62.778198,20.714645,-147.983597,,,
729607024.358724,1.043514,0.960334,49.654339,-0.025955,0.01445,1.008026,0.015759,-0.012086,-0.014893,62.778198,20.714645,-147.983597,,,
729607024.362019,1.043514,0.960334,49.654339,-0.025955,0.01445,1.008026,0.015759,-0.012086,-0.014893,62.778198,20.714645,-147.983597,,,
729607024.365364,1.045199,0.956994,49.653298,-0.025345,0.016754,0.99646,0.00566,-0.009862,-0.003837,62.778198,20.714645,-147.983597,,,
729607024.368686,1.04448,0.958841,49.65382,-0.025345,0.016754,0.99646,0.00566,-0.009862,-0.003837,62.778198,20.714645,-147.983597,,,
729607024.372005,1.04448,0.958841,49.65382,-0.025345,0.016754,0.99646,0.00566,-0.009862,-0.003837,62.778198,20.714645,-147.983597,,,
729607024.375344,1.044916,0.953882,49.656162,-0.025787,0.014709,0.992554,-0.000738,-0.012881,0.007674,62.777023,20.689377,-148.119141,,,
729607024.378678,1.046313,0.948,49.659835,-0.025787,0.014709,0.992554,-0.000738,-0.012881,0.007674,62.777023,20.689377,-148.119141,,,
729607024.382002,1.046313,0.948,49.659835,-0.025787,0.014709,0.992554,-0.000738,-0.012881,0.007674,62.777023,20.689377,-148.119141,,,
729607024.385341,1.049011,0.939749,49.66396,-0.02565,0.013626,0.995132,0.011086,-0.025994,0.013622,62.777023,20.689377,-148.119141,,,
729607024.3887,1.054101,0.931866,49.667942,-0.02565,0.013626,0.995132,0.011086,-0.025994,0.013622,62.777023,20.689377,-148.119141,,,
729607024.392062,1.054101,0.931866,49.667942,-0.02565,0.013626,0.995132,0.011086,-0.025994,0.013622,62.777023,20.689377,-148.119141,,,
729607024.395404,1.061809,0.920118,49.671885,-0.018829,0.013824,1.002609,0.026893,-0.037936,0.014417,62.777023,20.689377,-148.119141,,,
729607024.398661,1.069566,0.91121,49.675419,-0.018829,0.013824,1.002609,0.026893,-0.037936,0.014417,62.777023,20.689377,-148.119141,,,
729607024.402023,1.069566,0.91121,49.675419,-0.018829,0.013824,1.002609,0.026893,-0.037936,0.014417,62.777023,20.689377,-148.119141,,,
729607024.405352,1.078878,0.899658,49.677761,-0.011185,0.017105,1.000534,0.027464,-0.038136,0.009204,62.777023,20.689377,-148.119141,,,
729607024.408725,1.086547,0.893864,49.678624,-0.011185,0.017105,1.000534,0.027464,-0.038136,0.009204,62.777023,20.689377,-148.119141,,,
729607024.412011,1.086547,0.893864,49.678624,-0.011185,0.017105,1.000534,0.027464,-0.038136,0.009204,62.777023,20.689377,-148.119141,,,
729607024.415348,1.094317,0.885189,49.678213,-0.000214,0.021851,0.998917,0.027337,-0.02616,-0.004477,62.368286,20.649643,-147.933121,,,
729607024.418688,1.099882,0.880821,49.676269,-0.000214,0.021851,0.998917,0.027337,-0.02616,-0.004477,62.368286,20.649643,-147.933121,,,
729607024.422074,1.099882,0.880821,49.676269,-0.000214,0.021851,0.998917,0.027337,-0.02616,-0.004477,62.368286,20.649643,-147.933121,,,
729607024.425395,1.104358,0.873708,49.673601,0.004562,0.021744,0.992874,0.015388,-0.022793,-0.010655,62.368286,20.649643,-147.933121,,,
729607024.428696,1.105454,0.872109,49.669862,0.004562,0.021744,0.992874,0.015388,-0.022793,-0.010655,62.368286,20.649643,-147.933121,,,
729607024.432016,1.105454,0.872109,49.669862,0.004562,0.021744,0.992874,0.015388,-0.022793,-0.010655,62.368286,20.649643,-147.933121,,,
729607024.43541,1.104409,0.866056,49.664931,0.00325,0.022949,0.985764,-0.0014,-0.017946,-0.018955,62.368286,20.649643,-147.933121,,,
729607024.438688,1.100059,0.864615,49.659382,0.00325,0.022949,0.985764,-0.0014,-0.017946,-0.018955,62.368286,20.649643,-147.933121,,,
729607024.442013,1.100059,0.864615,49.659382,0.00325,0.022949,0.985764,-0.0014,-0.017946,-0.018955,62.368286,20.649643,-147.933121,,,
729607024.445342,1.092842,0.859461,49.65325,0.000854,0.020172,0.983643,-0.026268,-0.015848,-0.022941,62.368286,20.649643,-147.933121,,,
729607024.448671,1.082474,0.859146,49.646279,0.000854,0.020172,0.983643,-0.026268,-0.015848,-0.022941,62.368286,20.649643,-147.933121,,,
729607024.45201,1.082474,0.859146,49.646279,0.000854,0.020172,0.983643,-0.026268,-0.015848,-0.022941,62.368286,20.649643,-147.933121,,,
729607024.455359,1.071386,0.853357,49.639237,-0.00502,0.017761,0.984634,-0.037493,-0.018461,-0.024544,62.625305,20.689377,-147.631668,,,
729607024.458786,1.058651,0.851265,49.632152,-0.00502,0.017761,0.984634,-0.037493,-0.018461,-0.024544,62.625305,20.689377,-147.631668,,,
729607024.461997,1.058651,0.851265,49.632152,-0.00502,0.017761,0.984634,-0.037493,-0.018461,-0.024544,62.625305,20.689377,-147.631668,,,
729607024.465347,1.046892,0.843128,49.624587,-0.001938,0.016846,0.988098,-0.04115,-0.024603,-0.030175,62.625305,20.689377,-147.631668,,,
729607024.468685,1.03529,0.838829,49.615622,-0.001938,0.016846,0.988098,-0.04115,-0.024603,-0.030175,62.625305,20.689377,-147.631668,,,
729607024.472092,1.03529,0.838829,49.615622,-0.001938,0.016846,0.988098,-0.04115,-0.024603,-0.030175,62.625305,20.689377,-147.631668,,,
729607024.475352,1.02619,0.831539,49.605809,-0.0009,0.019058,0.998978,-0.033055,-0.022217,-0.034605,62.625305,20.689377,-147.631668,,,
729607024.478694,1.018614,0.826244,49.595827,-0.0009,0.019058,0.998978,-0.033055,-0.022217,-0.034605,62.625305,20.689377,-147.631668,,,
729607024.482002,1.018614,0.826244,49.595827,-0.0009,0.019058,0.998978,-0.033055,-0.022217,-0.034605,62.625305,20.689377,-147.631668,,,
729607024.485339,1.014103,0.8212,49.586096,-0.007233,0.015717,1.006165,-0.017213,-0.015111,-0.038563,62.625305,20.689377,-147.631668,,,
729607024.488681,1.011964,0.813718,49.577394,-0.007233,0.015717,1.006165,-0.017213,-0.015111,-0.038563,62.625305,20.689377,-147.631668,,,
729607024.492058,1.011964,0.813718,49.577394,-0.007233,0.015717,1.006165,-0.017213,-0.015111,-0.038563,62.625305,20.689377,-147.631668,,,
729607024.49534,1.011818,0.810344,49.5706,-0.015533,0.00975,1.002609,-0.001116,-0.0109,-0.025633,62.683777,20.811646,-147.732437,,,
729607024.498672,1.014484,0.801124,49.565727,-0.015533,0.00975,1.002609,-0.001116,-0.0109,-0.025633,62.683777,20.811646,-147.732437,,,
729607024.502015,1.014484,0.801124,49.565727,-0.015533,0.00975,1.002609,-0.001116,-0.0109,-0.025633,62.683777,20.811646,-147.732437,,,
729607024.50536,1.017904,0.798578,49.5619,-0.017609,0.012543,1.00325,0.01328,-0.005175,-0.013595,62.683777,20.811646,-147.732437,,,
729607024.508737,1.023522,0.787191,49.558557,-0.017609,0.012543,1.00325,0.01328,-0.005175,-0.013595,62.683777,20.811646,-147.732437,,,
729607024.512009,1.023522,0.787191,49.558557,-0.017609,0.012543,1.00325,0.01328,-0.005175,-0.013595,62.683777,20.811646,-147.732437,,,
729607024.515338,1.028253,0.783088,49.554187,-0.012543,0.016251,0.998077,0.016947,-0.013917,-0.015756,62.683777,20.811646,-147.732437,,,
729607024.518688,1.028253,0.783088,49.547635,-0.012543,0.016251,0.998077,0.016947,-0.013917,-0.015756,62.683777,20.811646,-147.732437,,,
729607024.522062,1.033119,0.77133,49.547635,-0.012543,0.016251,0.998077,0.016947,-0.013917,-0.015756,62.683777,20.811646,-147.732437,,,
729607024.525372,1.036419,0.766824,49.537397,-0.008713,0.021164,0.989502,0.012161,-0.014251,-0.036662,62.683777,20.811646,-147.732437,,,
729607024.528684,1.03896,0.757422,49.523317,-0.008713,0.021164,0.989502,0.012161,-0.014251,-0.036662,62.683777,20.811646,-147.732437,,,
729607024.532013,1.03896,0.757422,49.523317,-0.008713,0.021164,0.989502,0.012161,-0.014251,-0.036662,62.683777,20.811646,-147.732437,,,
729607024.535344,1.040386,0.753405,49.505943,-0.004501,0.027573,0.989365,0.005893,-0.010267,-0.060252,62.445801,20.81311,-147.81041,,,
729607024.538677,1.040386,0.753405,49.505943,-0.004501,0.027573,0.989365,0.005893,-0.010267,-0.060252,62.445801,20.81311,-147.81041,,,
729607024.542028,1.041458,0.745725,49.486413,-0.004501,0.027573,0.989365,0.005893,-0.010267,-0.060252,62.445801,20.81311,-147.81041,,,
729607024.54533,1.043558,0.742183,49.465033,-0.008377,0.027374,0.99028,0.011155,-0.01217,-0.078477,62.445801,20.81311,-147.81041,,,
729607024.548678,1.043558,0.742183,49.442526,-0.008377,0.027374,0.99028,0.011155,-0.01217,-0.078477,62.445801,20.81311,-147.81041,,,
729607024.552014,1.04731,0.734535,49.442526,-0.008377,0.027374,0.99028,0.011155,-0.01217,-0.078477,62.445801,20.81311,-147.81041,,,
729607024.555341,1.053324,0.734011,49.420491,-0.019791,0.017715,0.998566,0.023602,-0.002019,-0.076685,62.445801,20.81311,-147.81041,,,
729607024.558742,1.053324,0.734011,49.420491,-0.019791,0.017715,0.998566,0.023602,-0.002019,-0.076685,62.445801,20.81311,-147.81041,,,
729607024.562014,1.060819,0.731261,49.39968,-0.019791,0.017715,0.998566,0.023602,-0.002019,-0.076685,62.445801,20.81311,-147.81041,,,
729607024.565342,1.069066,0.734593,49.379663,-0.026993,0.016052,0.997345,0.030989,0.011829,-0.071958,62.445801,20.81311,-147.81041,,,
729607024.568686,1.069066,0.734593,49.379663,-0.026993,0.016052,0.997345,0.030989,0.011829,-0.071958,62.445801,20.81311,-147.81041,,,
729607024.572058,1.077301,0.738371,49.36102,-0.026993,0.016052,0.997345,0.030989,0.011829,-0.071958,62.445801,20.81311,-147.81041,,,
729607024.575333,1.086995,0.745433,49.344099,-0.03215,0.015289,0.994339,0.035211,0.026559,-0.058399,62.445801,20.81311,-147.81041,,,
729607024.578684,1.086995,0.745433,49.344099,-0.03215,0.015289,0.994339,0.035211,0.026559,-0.058399,62.610001,20.691086,-147.856003,,,
729607024.582009,1.095922,0.756152,49.329083,-0.03215,0.015289,0.994339,0.035211,0.026559,-0.058399,62.610001,20.691086,-147.856003,,,
729607024.585338,1.10743,0.765394,49.315672,-0.042007,0.015732,0.992416,0.040688,0.034832,-0.046716,62.610001,20.691086,-147.856003,,,
729607024.588678,1.10743,0.765394,49.315672,-0.042007,0.015732,0.992416,0.040688,0.034832,-0.046716,62.610001,20.691086,-147.856003,,,
729607024.592057,1.119353,0.775209,49.30408,-0.042007,0.015732,0.992416,0.040688,0.034832,-0.046716,62.610001,20.691086,-147.856003,,,
729607024.595331,1.132807,0.78263,49.293944,-0.041245,0.015762,0.991547,0.046981,0.025386,-0.037318,62.610001,20.691086,-147.856003,,,
729607024.598674,1.132807,0.78263,49.293944,-0.041245,0.015762,0.991547,0.046981,0.025386,-0.037318,62.610001,20.691086,-147.856003,,,
729607024.602018,1.146524,0.788235,49.285394,-0.041245,0.015762,0.991547,0.046981,0.025386,-0.037318,62.610001,20.691086,-147.856003,,,
729607024.605339,1.16103,0.79451,49.278606,-0.039612,0.014191,0.991531,0.053451,0.024336,-0.025225,62.610001,20.691086,-147.856003,,,
729607024.608697,1.16103,0.79451,49.278606,-0.039612,0.014191,0.991531,0.053451,0.024336,-0.025225,62.610001,20.691086,-147.856003,,,
729607024.612038,1.17561,0.797211,49.273542,-0.039612,0.014191,0.991531,0.053451,0.024336,-0.025225,62.610001,20.691086,-147.856003,,,
729607024.61533,1.188597,0.801853,49.270177,-0.03891,0.01767,0.991119,0.046234,0.019412,-0.011616,62.610001,20.691086,-147.856003,,,
729607024.618668,1.188597,0.801853,49.270177,-0.03891,0.01767,0.991119,0.046234,0.019412,-0.011616,62.811539,20.563583,-147.693298,,,
729607024.622065,1.201663,0.801572,49.268939,-0.03891,0.01767,0.991119,0.046234,0.019412,-0.011616,62.811539,20.563583,-147.693298,,,
729607024.625444,1.21147,0.804951,49.269397,-0.033463,0.021301,0.986771,0.032264,0.015131,0.002944,62.811539,20.563583,-147.693298,,,
729607024.628677,1.21147,0.804951,49.269397,-0.033463,0.021301,0.986771,0.032264,0.015131,0.002944,62.811539,20.563583,-147.693298,,,
729607024.632019,1.22018,0.808126,49.270854,-0.033463,0.021301,0.986771,0.032264,0.015131,0.002944,62.811539,20.563583,-147.693298,,,
729607024.635332,1.227191,0.811888,49.272853,-0.021347,0.024734,0.985916,0.025285,0.017274,0.005385,62.811539,20.563583,-147.693298,,,
729607024.638675,1.227191,0.811888,49.272853,-0.021347,0.024734,0.985916,0.025285,0.017274,0.005385,62.811539,20.563583,-147.693298,,,
729607024.642007,1.232439,0.819287,49.27462,-0.021347,0.024734,0.985916,0.025285,0.017274,0.005385,62.811539,20.563583,-147.693298,,,
729607024.64534,1.237089,0.822264,49.276002,-0.011536,0.030563,0.988083,0.014827,0.012369,0.001894,62.811539,20.563583,-147.693298,,,
729607024.648687,1.237089,0.822264,49.276002,-0.011536,0.030563,0.988083,0.014827,0.012369,0.001894,62.811539,20.563583,-147.693298,,,
729607024.652012,1.238412,0.829195,49.276491,-0.011536,0.030563,0.988083,0.014827,0.012369,0.001894,62.811539,20.563583,-147.693298,,,
729607024.655325,1.238107,0.827567,49.275608,-0.009384,0.035461,0.979401,-0.001547,-0.00259,-0.004993,62.811539,20.563583,-147.693298,,,
729607024.658717,1.238107,0.827567,49.275608,-0.009384,0.035461,0.979401,-0.001547,-0.00259,-0.004993,62.673691,20.626572,-147.755798,,,
729607024.662011,1.234802,0.834394,49.273248,-0.009384,0.035461,0.979401,-0.001547,-0.00259,-0.004993,62.673691,20.626572,-147.755798,,,
729607024.665342,1.230515,0.830309,49.270298,-0.008789,0.0327,0.979004,-0.01272,-0.013607,-0.012528,62.673691,20.626572,-147.755798,,,
729607024.668695,1.230515,0.830309,49.270298,-0.008789,0.0327,0.979004,-0.01272,-0.013607,-0.012528,62.673691,20.626572,-147.755798,,,
729607024.672101,1.223163,0.837206,49.266562,-0.008789,0.0327,0.979004,-0.01272,-0.013607,-0.012528,62.673691,20.626572,-147.755798,,,
729607024.675337,1.215506,0.831184,49.263132,-0.011734,0.025772,0.983795,-0.02676,-0.017941,-0.013634,62.673691,20.626572,-147.755798,,,
729607024.67869,1.215506,0.831184,49.263132,-0.011734,0.025772,0.983795,-0.02676,-0.017941,-0.013634,62.673691,20.626572,-147.755798,,,
729607024.682002,1.205367,0.835868,49.259962,-0.011734,0.025772,0.983795,-0.02676,-0.017941,-0.013634,62.673691,20.626572,-147.755798,,,
729607024.685344,1.195302,0.831092,49.25757,-0.012009,0.020584,0.989807,-0.034355,-0.016135,-0.010697,62.673691,20.626572,-147.755798,,,
729607024.688665,1.195302,0.831092,49.25757,-0.012009,0.020584,0.989807,-0.034355,-0.016135,-0.010697,62.673691,20.626572,-147.755798,,,
729607024.692067,1.183997,0.838369,49.255851,-0.012009,0.020584,0.989807,-0.034355,-0.016135,-0.010697,62.673691,20.626572,-147.755798,,,
729607024.695336,1.17455,0.8365,49.255766,-0.01445,0.016296,1.000778,-0.032189,-0.004435,-0.00049,62.673691,20.626572,-147.755798,,,
729607024.698695,1.17455,0.8365,49.255766,-0.01445,0.016296,1.000778,-0.032189,-0.004435,-0.00049,62.622009,20.708679,-147.652924,,,
729607024.702014,1.165787,0.846913,49.25699,-0.01445,0.016296,1.000778,-0.032189,-0.004435,-0.00049,62.622009,20.708679,-147.652924,,,
729607024.70534,1.15911,0.849532,49.259575,-0.010239,0.017639,1.00705,-0.021235,0.011327,0.00712,62.622009,20.708679,-147.652924,,,
729607024.708737,1.15911,0.849532,49.259575,-0.010239,0.017639,1.00705,-0.021235,0.011327,0.00712,62.622009,20.708679,-147.652924,,,
729607024.712018,1.154254,0.860007,49.262054,-0.010239,0.017639,1.00705,-0.021235,0.011327,0.00712,62.622009,20.708679,-147.652924,,,
729607024.715341,1.148941,0.864312,49.263806,-0.004318,0.020325,1.004974,-0.015707,0.017511,0.006157,62.622009,20.708679,-147.652924,,,
729607024.718681,1.148941,0.864312,49.263806,-0.004318,0.020325,1.004974,-0.015707,0.017511,0.006157,62.622009,20.708679,-147.652924,,,
729607024.722077,1.144811,0.869388,49.264748,-0.004318,0.020325,1.004974,-0.015707,0.017511,0.006157,62.622009,20.708679,-147.652924,,,
729607024.725375,1.139413,0.872576,49.264856,-0.004868,0.021423,0.992935,-0.017525,0.013157,-0.001365,62.622009,20.708679,-147.652924,,,
729607024.728677,1.139413,0.872576,49.264856,-0.004868,0.021423,0.992935,-0.017525,0.013157,-0.001365,62.622009,20.708679,-147.652924,,,
729607024.732009,1.135376,0.872643,49.263759,-0.004868,0.021423,0.992935,-0.017525,0.013157,-0.001365,62.622009,20.708679,-147.652924,,,
729607024.735345,1.128106,0.874316,49.261375,-0.004776,0.022705,0.99054,-0.023562,0.007483,-0.010255,62.622009,20.708679,-147.652924,,,
729607024.73867,1.128106,0.874316,49.261375,-0.004776,0.022705,0.99054,-0.023562,0.007483,-0.010255,62.622009,20.708679,-147.652924,,,
729607024.742029,1.123041,0.872381,49.257851,-0.004776,0.022705,0.99054,-0.023562,0.007483,-0.010255,62.767776,20.63916,-147.913788,,,
729607024.745342,1.1136,0.872589,49.252813,-0.003235,0.025665,0.990311,-0.030613,0.002647,-0.017149,62.767776,20.63916,-147.913788,,,
729607024.74867,1.1136,0.872589,49.252813,-0.003235,0.025665,0.990311,-0.030613,0.002647,-0.017149,62.767776,20.63916,-147.913788,,,
729607024.752017,1.104779,0.869018,49.2468,-0.003235,0.025665,0.990311,-0.030613,0.002647,-0.017149,62.767776,20.63916,-147.913788,,,
729607024.755342,1.092931,0.866574,49.240703,-0.007019,0.024033,0.991547,-0.037499,-0.007105,-0.022735,62.767776,20.63916,-147.913788,,,
729607024.758732,1.092931,0.866574,49.240703,-0.007019,0.024033,0.991547,-0.037499,-0.007105,-0.022735,62.767776,20.63916,-147.913788,,,
729607024.762062,1.080809,0.862381,49.234628,-0.007019,0.024033,0.991547,-0.037499,-0.007105,-0.022735,62.767776,20.63916,-147.913788,,,
729607024.765336,1.066926,0.860229,49.22883,-0.01329,0.020477,0.999069,-0.048847,-0.005082,-0.022411,62.767776,20.63916,-147.913788,,,
729607024.768683,1.066926,0.860229,49.22883,-0.01329,0.020477,0.999069,-0.048847,-0.005082,-0.022411,62.767776,20.63916,-147.913788,,,
729607024.772012,1.05243,0.856923,49.223667,-0.01329,0.020477,0.999069,-0.048847,-0.005082,-0.022411,62.767776,20.63916,-147.913788,,,
729607024.775343,1.037822,0.853519,49.218894,-0.013336,0.018066,1.003311,-0.051237,-0.008704,-0.01968,62.767776,20.63916,-147.913788,,,
729607024.778674,1.037822,0.853519,49.218894,-0.013336,0.018066,1.003311,-0.051237,-0.008704,-0.01968,62.767776,20.63916,-147.913788,,,
729607024.782008,1.023255,0.849769,49.214337,-0.013336,0.018066,1.003311,-0.051237,-0.008704,-0.01968,62.847839,20.75856,-147.9646,,,
729607024.785375,1.008878,0.847214,49.209555,-0.012741,0.020401,1.011398,-0.049716,-0.006337,-0.01938,62.847839,20.75856,-147.9646,,,
729607024.788723,1.008878,0.847214,49.209555,-0.012741,0.020401,1.011398,-0.049716,-0.006337,-0.01938,62.847839,20.75856,-147.9646,,,
729607024.792072,0.995592,0.843292,49.204256,-0.012741,0.020401,1.011398,-0.049716,-0.006337,-0.01938,62.847839,20.75856,-147.9646,,,
729607024.79534,0.98414,0.843273,49.198751,-0.012985,0.020996,1.017197,-0.040001,0.003449,-0.023461,62.847839,20.75856,-147.9646,,,
729607024.79867,0.98414,0.843273,49.198751,-0.012985,0.020996,1.017197,-0.040001,0.003449,-0.023461,62.847839,20.75856,-147.9646,,,
729607024.802013,0.975049,0.839155,49.193531,-0.012985,0.020996,1.017197,-0.040001,0.003449,-0.023461,62.847839,20.75856,-147.9646,,,
729607024.805344,0.967089,0.839889,49.188563,-0.01442,0.017044,1.017365,-0.026935,0.003294,-0.017759,62.847839,20.75856,-147.9646,,,
729607024.808684,0.967089,0.839889,49.188563,-0.01442,0.017044,1.017365,-0.026935,0.003294,-0.017759,62.847839,20.75856,-147.9646,,,
729607024.812117,0.961237,0.836489,49.1847,-0.01442,0.017044,1.017365,-0.026935,0.003294,-0.017759,62.847839,20.75856,-147.9646,,,
729607024.815326,0.956016,0.836943,49.182067,-0.01474,0.008316,1.015793,-0.017992,0.004416,-0.010601,62.847839,20.75856,-147.9646,,,
729607024.81868,0.956016,0.836943,49.182067,-0.01474,0.008316,1.015793,-0.017992,0.004416,-0.010601,62.847839,20.75856,-147.9646,,,
729607024.822006,0.953166,0.833089,49.180796,-0.01474,0.008316,1.015793,-0.017992,0.004416,-0.010601,62.75296,20.870575,-147.944916,,,
729607024.825386,0.949475,0.834305,49.180829,-0.017151,0.008957,1.016724,-0.007232,0.007245,-0.001415,62.75296,20.870575,-147.944916,,,
729607024.828672,0.949475,0.834305,49.180829,-0.017151,0.008957,1.016724,-0.007232,0.007245,-0.001415,62.75296,20.870575,-147.944916,,,
729607024.832011,0.948046,0.830466,49.18179,-0.017151,0.008957,1.016724,-0.007232,0.007245,-0.001415,62.75296,20.870575,-147.944916,,,
729607024.835364,0.944795,0.829909,49.183751,-0.019669,0.011185,1.010452,-0.01279,0.001577,0.005662,62.75296,20.870575,-147.944916,,,
729607024.838753,0.944795,0.829909,49.183751,-0.019669,0.011185,1.010452,-0.01279,0.001577,0.005662,62.75296,20.870575,-147.944916,,,
729607024.842008,0.94206,0.826098,49.186741,-0.019669,0.011185,1.010452,-0.01279,0.001577,0.005662,62.75296,20.870575,-147.944916,,,
729607024.845337,0.937362,0.824119,49.190364,-0.023712,0.008942,1.009796,-0.017387,-0.002942,0.013369,62.75296,20.870575,-147.944916,,,
729607024.848673,0.937362,0.824119,49.190364,-0.023712,0.008942,1.009796,-0.017387,-0.002942,0.013369,62.75296,20.870575,-147.944916,,,
729607024.852099,0.931918,0.821504,49.193993,-0.023712,0.008942,1.009796,-0.017387,-0.002942,0.013369,62.75296,20.870575,-147.944916,,,
729607024.855332,0.924774,0.817827,49.196922,-0.013763,0.011978,1.009979,-0.024819,-0.010262,0.01108,62.75296,20.870575,-147.944916,,,
729607024.858748,0.924774,0.817827,49.196922,-0.013763,0.011978,1.009979,-0.024819,-0.010262,0.01108,62.75296,20.870575,-147.944916,,,
729607024.862091,0.91727,0.811049,49.19966,-0.013763,0.011978,1.009979,-0.024819,-0.010262,0.01108,62.75296,20.870575,-147.944916,,,
729607024.865359,0.908189,0.801881,49.202028,-0.011902,0.015488,1.001205,-0.029401,-0.029135,0.006268,62.799377,20.865204,-147.848404,,,
729607024.868675,0.908189,0.801881,49.202028,-0.011902,0.015488,1.001205,-0.029401,-0.029135,0.006268,62.799377,20.865204,-147.848404,,,
729607024.872024,0.897931,0.789737,49.204045,-0.011902,0.015488,1.001205,-0.029401,-0.029135,0.006268,62.799377,20.865204,-147.848404,,,
729607024.875346,0.885232,0.77763,49.205971,-0.012985,0.012573,0.998245,-0.044463,-0.038099,0.003095,62.799377,20.865204,-147.848404,,,
729607024.878777,0.885232,0.77763,49.205971,-0.012985,0.012573,0.998245,-0.044463,-0.038099,0.003095,62.799377,20.865204,-147.848404,,,
729607024.882006,0.871959,0.76509,49.208238,-0.012985,0.012573,0.998245,-0.044463,-0.038099,0.003095,62.799377,20.865204,-147.848404,,,
729607024.885347,0.856406,0.75196,49.211653,-0.013641,0.008286,0.994858,-0.055238,-0.043707,0.010279,62.799377,20.865204,-147.848404,,,
729607024.888675,0.856406,0.75196,49.211653,-0.013641,0.008286,0.994858,-0.055238,-0.043707,0.010279,62.799377,20.865204,-147.848404,,,
729607024.892094,0.84026,0.738062,49.217167,-0.013641,0.008286,0.994858,-0.055238,-0.043707,0.010279,62.799377,20.865204,-147.848404,,,
729607024.89534,0.824829,0.723594,49.224798,-0.011978,0.007645,0.994644,-0.054359,-0.046926,0.021689,62.799377,20.865204,-147.848404,,,
729607024.89867,0.824829,0.723594,49.224798,-0.011978,0.007645,0.994644,-0.054359,-0.046926,0.021689,62.799377,20.865204,-147.848404,,,
729607024.902018,0.809259,0.709854,49.234518,-0.011978,0.007645,0.994644,-0.054359,-0.046926,0.021689,62.799377,20.865204,-147.848404,,,
729607024.905407,0.79594,0.694553,49.246314,-0.009491,0.006317,1.00322,-0.04657,-0.049811,0.03617,62.548721,21.092102,-147.890961,,,
729607024.908662,0.79594,0.694553,49.246314,-0.009491,0.006317,1.00322,-0.04657,-0.049811,0.03617,62.548721,21.092102,-147.890961,,,
729607024.912005,0.782577,0.681779,49.259118,-0.009491,0.006317,1.00322,-0.04657,-0.049811,0.03617,62.548721,21.092102,-147.890961,,,
729607024.915337,0.770197,0.667502,49.272141,-0.007675,0.007309,1.002563,-0.042088,-0.045892,0.043326,62.548721,21.092102,-147.890961,,,
729607024.918714,0.770197,0.667502,49.272141,-0.007675,0.007309,1.002563,-0.042088,-0.045892,0.043326,62.548721,21.092102,-147.890961,,,
729607024.921999,0.757109,0.659787,49.28455,-0.007675,0.007309,1.002563,-0.042088,-0.045892,0.043326,62.548721,21.092102,-147.890961,,,
729607024.925383,0.744809,0.648968,49.295626,-0.001022,0.010284,1.011353,-0.039168,-0.032207,0.034974,62.548721,21.092102,-147.890961,,,
729607024.928677,0.744809,0.648968,49.295626,-0.001022,0.010284,1.011353,-0.039168,-0.032207,0.034974,62.548721,21.092102,-147.890961,,,
729607024.932064,0.731849,0.641828,49.304936,-0.001022,0.010284,1.011353,-0.039168,-0.032207,0.034974,62.548721,21.092102,-147.890961,,,
729607024.935324,0.71923,0.630365,49.312781,0.002319,0.011948,1.004684,-0.041849,-0.032737,0.02436,62.548721,21.092102,-147.890961,,,
729607024.938676,0.71923,0.630365,49.312781,0.002319,0.011948,1.004684,-0.041849,-0.032737,0.02436,62.548721,21.092102,-147.890961,,,
729607024.94201,0.707141,0.619932,49.318856,0.002319,0.011948,1.004684,-0.041849,-0.032737,0.02436,62.548721,21.092102,-147.890961,,,
729607024.945335,0.695458,0.610015,49.321944,0.002625,0.012283,1.005905,-0.039151,-0.032999,0.009675,62.349701,21.080002,-147.71138,,,
729607024.948667,0.695458,0.610015,49.321944,0.002625,0.012283,1.005905,-0.039151,-0.032999,0.009675,62.349701,21.080002,-147.71138,,,
729607024.952021,0.685406,0.60075,49.321452,0.002625,0.012283,1.005905,-0.039151,-0.032999,0.009675,62.349701,21.080002,-147.71138,,,
729607024.955331,0.676614,0.588902,49.317862,0.00502,0.012222,1.006073,-0.032707,-0.040012,-0.014232,62.349701,21.080002,-147.71138,,,
729607024.958778,0.676614,0.588902,49.317862,0.00502,0.012222,1.006073,-0.032707,-0.040012,-0.014232,62.349701,21.080002,-147.71138,,,
729607024.962004,0.66916,0.576555,49.311311,0.00502,0.012222,1.006073,-0.032707,-0.040012,-0.014232,62.349701,21.080002,-147.71138,,,
729607024.965337,0.663325,0.562482,49.302505,0.000702,0.011047,1.003265,-0.020422,-0.047195,-0.03495,62.349701,21.080002,-147.71138,,,
729607024.968675,0.663325,0.562482,49.302505,0.000702,0.011047,1.003265,-0.020422,-0.047195,-0.03495,62.349701,21.080002,-147.71138,,,
729607024.972094,0.658432,0.551285,49.292863,0.000702,0.011047,1.003265,-0.020422,-0.047195,-0.03495,62.349701,21.080002,-147.71138,,,
729607024.975333,0.655086,0.541575,49.283678,-0.009216,0.007996,1.005585,-0.010613,-0.034243,-0.032113,62.349701,21.080002,-147.71138,,,
729607024.978668,0.655086,0.541575,49.283678,-0.009216,0.007996,1.005585,-0.010613,-0.034243,-0.032113,62.349701,21.080002,-147.71138,,,
729607024.982005,0.651391,0.534802,49.275773,-0.009216,0.007996,1.005585,-0.010613,-0.034243,-0.032113,62.349701,21.080002,-147.71138,,,
729607024.98534,0.649619,0.528126,49.269798,-0.010254,0.005692,1.000183,-0.00334,-0.018981,-0.018575,62.457092,21.214127,-147.251389,,,
729607024.988678,0.649619,0.528126,49.269798,-0.010254,0.005692,1.000183,-0.00334,-0.018981,-0.018575,62.457092,21.214127,-147.251389,,,
729607024.992067,0.648933,0.522891,49.265951,-0.010254,0.005692,1.000183,-0.00334,-0.018981,-0.018575,62.457092,21.214127,-147.251389,,,
729607024.995335,0.651152,0.52032,49.263855,-0.01181,0.007217,1.001877,0.007335,-0.00401,-0.008257,62.457092,21.214127,-147.251389,,,
729607024.998671,0.651152,0.52032,49.263855,-0.01181,0.007217,1.001877,0.007335,-0.00401,-0.008257,62.457092,21.214127,-147.251389,,,
729607025.002026,0.65466,0.51877,49.262696,-0.01181,0.007217,1.001877,0.007335,-0.00401,-0.008257,62.457092,21.214127,-147.251389,,,
729607025.005342,0.659844,0.521421,49.261919,-0.009842,0.007675,1.00618,0.019488,0.011316,-0.003184,62.457092,21.214127,-147.251389,,,
729607025.008762,0.659844,0.521421,49.261919,-0.009842,0.007675,1.00618,0.019488,0.011316,-0.003184,62.457092,21.214127,-147.251389,,,
729607025.012003,0.666512,0.521761,49.260911,-0.009842,0.007675,1.00618,0.019488,0.011316,-0.003184,62.457092,21.214127,-147.251389,,,
729607025.015335,0.675185,0.527204,49.259035,-0.00737,0.009811,1.00325,0.028206,0.022435,-0.006689,62.457092,21.214127,-147.251389,,,
729607025.018682,0.675185,0.527204,49.259035,-0.00737,0.009811,1.00325,0.028206,0.022435,-0.006689,62.457092,21.214127,-147.251389,,,
729607025.022084,0.684775,0.526687,49.256563,-0.00737,0.009811,1.00325,0.028206,0.022435,-0.006689,62.457092,21.214127,-147.251389,,,
729607025.025417,0.69464,0.52999,49.252771,-0.003281,0.013855,0.997879,0.036506,0.013844,-0.017296,62.457092,21.214127,-147.251389,,,
729607025.028669,0.69464,0.52999,49.252771,-0.003281,0.013855,0.997879,0.036506,0.013844,-0.017296,62.37056,21.196411,-147.659042,,,
729607025.032005,0.704765,0.526013,49.247757,-0.003281,0.013855,0.997879,0.036506,0.013844,-0.017296,62.37056,21.196411,-147.659042,,,
729607025.035345,0.713387,0.525317,49.242236,-0.00621,0.019684,0.986618,0.031885,0.00092,-0.020934,62.37056,21.196411,-147.659042,,,
729607025.038539,0.713387,0.525317,49.242236,-0.00621,0.019684,0.986618,0.031885,0.00092,-0.020934,62.37056,21.196411,-147.659042,,,
729607025.042026,0.719116,0.516979,49.236688,-0.00621,0.019684,0.986618,0.031885,0.00092,-0.020934,62.37056,21.196411,-147.659042,,,
729607025.045341,0.72186,0.513229,49.231583,-0.011154,0.018753,0.976212,0.009452,-0.010767,-0.019703,62.37056,21.196411,-147.659042,,,
729607025.048667,0.72186,0.513229,49.231583,-0.011154,0.018753,0.976212,0.009452,-0.010767,-0.019703,62.37056,21.196411,-147.659042,,,
729607025.051998,0.721396,0.50445,49.227114,-0.011154,0.018753,0.976212,0.009452,-0.010767,-0.019703,62.37056,21.196411,-147.659042,,,
729607025.055342,0.71837,0.494565,49.222842,-0.011612,0.016357,0.973358,-0.013582,-0.033523,-0.014282,62.37056,21.196411,-147.659042,,,
729607025.058713,0.71837,0.494565,49.222842,-0.011612,0.016357,0.973358,-0.013582,-0.033523,-0.014282,62.37056,21.196411,-147.659042,,,
729607025.062085,0.713208,0.481461,49.218942,-0.011612,0.016357,0.973358,-0.013582,-0.033523,-0.014282,62.37056,21.196411,-147.659042,,,
729607025.065347,0.709015,0.46464,49.214566,-0.00708,0.018005,0.975464,-0.016165,-0.05597,-0.018029,62.37056,21.196411,-147.659042,,,
729607025.068688,0.709015,0.46464,49.214566,-0.00708,0.018005,0.975464,-0.016165,-0.05597,-0.018029,62.323715,21.070435,-147.630676,,,
729607025.072014,0.703885,0.44871,49.208419,-0.00708,0.018005,0.975464,-0.016165,-0.05597,-0.018029,62.323715,21.070435,-147.630676,,,
729607025.07534,0.700497,0.432358,49.201108,-0.004822,0.020248,0.991638,-0.010078,-0.055253,-0.028863,62.323715,21.070435,-147.630676,,,
729607025.078682,0.700497,0.432358,49.201108,-0.004822,0.020248,0.991638,-0.010078,-0.055253,-0.028863,62.323715,21.070435,-147.630676,,,
729607025.082002,0.697192,0.418712,49.193827,-0.004822,0.020248,0.991638,-0.010078,-0.055253,-0.028863,62.323715,21.070435,-147.630676,,,
729607025.085341,0.695619,0.406019,49.187599,-0.007675,0.017426,0.999039,-0.002574,-0.040886,-0.024144,62.323715,21.070435,-147.630676,,,
729607025.088747,0.695619,0.406019,49.187599,-0.007675,0.017426,0.999039,-0.002574,-0.040886,-0.024144,62.323715,21.070435,-147.630676,,,
729607025.092087,0.694726,0.397983,49.183209,-0.007675,0.017426,0.999039,-0.002574,-0.040886,-0.024144,62.323715,21.070435,-147.630676,,,
729607025.095391,0.696582,0.393213,49.18139,-0.012939,0.009933,1.00943,0.006987,-0.014673,-0.008692,62.323715,21.070435,-147.630676,,,
729607025.098682,0.696582,0.393213,49.18139,-0.012939,0.009933,1.00943,0.006987,-0.014673,-0.008692,62.323715,21.070435,-147.630676,,,
729607025.102061,0.700259,0.391618,49.182043,-0.012939,0.009933,1.00943,0.006987,-0.014673,-0.008692,62.323715,21.070435,-147.630676,,,
729607025.105334,0.705795,0.393104,49.184779,-0.010773,0.008423,1.009903,0.021023,0.007624,0.007072,62.323715,21.070435,-147.630676,,,
729607025.108464,0.705795,0.393104,49.184779,-0.010773,0.008423,1.009903,0.021023,0.007624,0.007072,62.347321,20.954987,-147.480957,,,
729607025.112045,0.713814,0.395877,49.189493,-0.010773,0.008423,1.009903,0.021023,0.007624,0.007072,62.347321,20.954987,-147.480957,,,
729607025.115335,0.722719,0.403265,49.194634,-0.011871,0.012009,1.005951,0.031369,0.02631,0.0181,62.347321,20.954987,-147.480957,,,
729607025.118695,0.722719,0.403265,49.194634,-0.011871,0.012009,1.005951,0.031369,0.02631,0.0181,62.347321,20.954987,-147.480957,,,
729607025.12201,0.733825,0.413762,49.198564,-0.011871,0.012009,1.005951,0.031369,0.02631,0.0181,62.347321,20.954987,-147.480957,,,
729607025.125409,0.74279,0.424749,49.201003,-0.008972,0.024307,1.001617,0.030247,0.040746,0.009024,62.347321,20.954987,-147.480957,,,
729607025.128748,0.74279,0.424749,49.201003,-0.008972,0.024307,1.001617,0.030247,0.040746,0.009024,62.347321,20.954987,-147.480957,,,
729607025.132006,0.750362,0.437801,49.20197,-0.008972,0.024307,1.001617,0.030247,0.040746,0.009024,62.347321,20.954987,-147.480957,,,
729607025.135339,0.7547,0.447643,49.201723,-0.01239,0.027954,0.984222,0.015425,0.037918,-0.003038,62.347321,20.954987,-147.480957,,,
729607025.138674,0.7547,0.447643,49.201723,-0.01239,0.027954,0.984222,0.015425,0.037918,-0.003038,62.347321,20.954987,-147.480957,,,
729607025.142083,0.758086,0.458332,49.200334,-0.01239,0.027954,0.984222,0.015425,0.037918,-0.003038,62.347321,20.954987,-147.480957,,,
729607025.145332,0.759925,0.466612,49.199063,-0.021072,0.022095,0.986511,0.008075,0.02919,-0.003587,62.347321,20.954987,-147.480957,,,
729607025.148676,0.759925,0.466612,49.199063,-0.021072,0.022095,0.986511,0.008075,0.02919,-0.003587,62.310333,21.10144,-147.416458,,,
729607025.152,0.762999,0.469562,49.198936,-0.021072,0.022095,0.986511,0.008075,0.02919,-0.003587,62.310333,21.10144,-147.416458,,,
729607025.155335,0.765557,0.468224,49.200083,-0.024918,0.016495,0.985901,0.009237,-0.001188,0.002159,62.310333,21.10144,-147.416458,,,
729607025.158724,0.765557,0.468224,49.200083,-0.024918,0.016495,0.985901,0.009237,-0.001188,0.002159,62.310333,21.10144,-147.416458,,,
729607025.162008,0.770869,0.461314,49.202263,-0.024918,0.016495,0.985901,0.009237,-0.001188,0.002159,62.310333,21.10144,-147.416458,,,
729607025.165331,0.77612,0.453108,49.205187,-0.025513,0.012924,0.99173,0.019043,-0.027841,0.009516,62.310333,21.10144,-147.416458,,,
729607025.168748,0.77612,0.453108,49.205187,-0.025513,0.012924,0.99173,0.019043,-0.027841,0.009516,62.310333,21.10144,-147.416458,,,
729607025.172006,0.781429,0.443883,49.208575,-0.025513,0.012924,0.99173,0.019043,-0.027841,0.009516,62.310333,21.10144,-147.416458,,,
729607025.175337,0.78608,0.432239,49.211445,-0.023178,0.015656,0.994934,0.018602,-0.039489,0.011442,62.310333,21.10144,-147.416458,,,
729607025.178703,0.78608,0.432239,49.211445,-0.023178,0.015656,0.994934,0.018602,-0.039489,0.011442,62.310333,21.10144,-147.416458,,,
729607025.182,0.789077,0.422604,49.213703,-0.023178,0.015656,0.994934,0.018602,-0.039489,0.011442,62.310333,21.10144,-147.416458,,,
729607025.185349,0.792031,0.412408,49.215418,-0.017563,0.017166,0.995758,0.011426,-0.033087,0.005138,62.310333,21.10144,-147.416458,,,
