Time (sec),Pitch (deg),Roll (deg),Yaw(deg),X-Acceleration (g),Y-Acceleration (g),Z-Acceleration (g),Pitch Rate (deg/sec),Roll Rate (deg/sec),Yaw Rate (deg/sec),Magnetic Field in X direction (uT),Magnetic Field in Y direction (uT),Magnetic Field in Z Direction (uT),Latitude (deg),Longitude (deg),Altitude (m)
729605698.781008,-3.808308,-0.915318,51.594419,0.003082,-0.052124,0.960938,-0.016985,0.046825,0.008084,60.148071,24.924057,-147.336807,,,
729605698.784281,-3.817829,-0.903515,51.600618,0.003082,-0.052124,0.960938,-0.030784,0.028519,0.021151,60.148071,24.924057,-147.336807,,,
729605698.787626,-3.817829,-0.903515,51.600618,0.003082,-0.052124,0.960938,-0.030784,0.028519,0.021151,60.148071,24.924057,-147.336807,,,
729605698.790951,-3.826455,-0.897451,51.607389,0.003769,-0.057297,0.96312,-0.030784,0.028519,0.021151,60.148071,24.924057,-147.336807,,,
729605698.793978,-3.826455,-0.897451,51.607389,0.003769,-0.057297,0.96312,-0.021901,0.010186,0.02305,60.148071,24.924057,-147.336807,,,
729605698.797644,-3.833177,-0.892942,51.614368,0.003769,-0.057297,0.96312,-0.021901,0.010186,0.02305,60.225601,25.15123,-147.546753,,,
729605698.800938,-3.837075,-0.894199,51.62176,0.007828,-0.05806,0.975647,-0.021901,0.010186,0.02305,60.225601,25.15123,-147.546753,,,
729605698.804272,-3.837895,-0.897944,51.629332,0.007828,-0.05806,0.975647,-0.004779,-0.015776,0.026107,60.225601,25.15123,-147.546753,,,
729605698.807616,-3.837895,-0.897944,51.629332,0.007828,-0.05806,0.975647,-0.004779,-0.015776,0.026107,60.225601,25.15123,-147.546753,,,
729605698.810633,-3.838212,-0.90235,51.636821,0.004456,-0.062347,0.982635,-0.004779,-0.015776,0.026107,60.225601,25.15123,-147.546753,,,
729605698.814316,-3.834972,-0.908747,51.644338,0.004456,-0.062347,0.982635,0.004907,-0.015125,0.026957,60.225601,25.15123,-147.546753,,,
729605698.817604,-3.834972,-0.908747,51.644338,0.004456,-0.062347,0.982635,0.004907,-0.015125,0.026957,60.225601,25.15123,-147.546753,,,
729605698.820942,-3.834732,-0.913051,51.652726,0.003342,-0.065567,0.982803,0.004907,-0.015125,0.026957,60.225601,25.15123,-147.546753,,,
729605698.82427,-3.834035,-0.919187,51.660905,0.003342,-0.065567,0.982803,-0.00834,-0.011152,0.025375,60.225601,25.15123,-147.546753,,,
729605698.827324,-3.834035,-0.919187,51.660905,0.003342,-0.065567,0.982803,-0.00834,-0.011152,0.025375,60.225601,25.15123,-147.546753,,,
729605698.830978,-3.839442,-0.922397,51.668845,0.009613,-0.061935,0.97345,-0.00834,-0.011152,0.025375,60.225601,25.15123,-147.546753,,,
729605698.834268,-3.839442,-0.922397,51.668845,0.009613,-0.061935,0.97345,-0.043511,0.000245,0.023657,60.225601,25.15123,-147.546753,,,
729605698.837605,-3.847216,-0.924856,51.67626,0.009613,-0.061935,0.97345,-0.043511,0.000245,0.023657,60.08403,25.176559,-147.293274,,,
729605698.841002,-3.862984,-0.922588,51.682516,0.014221,-0.056992,0.9729,-0.043511,0.000245,0.023657,60.08403,25.176559,-147.293274,,,
729605698.843967,-3.862984,-0.922588,51.682516,0.014221,-0.056992,0.9729,-0.043511,0.000245,0.023657,60.08403,25.176559,-147.293274,,,
729605698.847664,-3.881353,-0.918779,51.687448,0.014221,-0.056992,0.9729,-0.075587,0.020963,0.019116,60.08403,25.176559,-147.293274,,,
729605698.850953,-3.905793,-0.912002,51.691517,0.018524,-0.056732,0.978607,-0.075587,0.020963,0.019116,60.08403,25.176559,-147.293274,,,
729605698.854274,-3.930292,-0.903498,51.694612,0.018524,-0.056732,0.978607,-0.093064,0.029926,0.008099,60.08403,25.176559,-147.293274,,,
729605698.85762,-3.930292,-0.903498,51.694612,0.018524,-0.056732,0.978607,-0.093064,0.029926,0.008099,60.08403,25.176559,-147.293274,,,
729605698.860641,-3.95758,-0.894774,51.695967,0.018341,-0.058105,0.985214,-0.093064,0.029926,0.008099,60.08403,25.176559,-147.293274,,,
729605698.86431,-3.982685,-0.883223,51.695695,0.018341,-0.058105,0.985214,-0.090088,0.038487,-0.000393,60.08403,25.176559,-147.293274,,,
729605698.867663,-3.982685,-0.883223,51.695695,0.018341,-0.058105,0.985214,-0.090088,0.038487,-0.000393,60.08403,25.176559,-147.293274,,,
729605698.870943,-4.007528,-0.872622,51.69515,0.016098,-0.06308,0.998062,-0.090088,0.038487,-0.000393,60.08403,25.176559,-147.293274,,,
729605698.874272,-4.007528,-0.872622,51.69515,0.016098,-0.06308,0.998062,-0.078255,0.042051,0.003536,60.08403,25.176559,-147.293274,,,
729605698.877313,-4.029123,-0.860592,51.695982,0.016098,-0.06308,0.998062,-0.078255,0.042051,0.003536,60.08403,25.176559,-147.293274,,,
729605698.880978,-4.049863,-0.850359,51.698425,0.007065,-0.073975,1.001846,-0.078255,0.042051,0.003536,60.334824,25.486389,-147.575073,,,
729605698.884269,-4.067858,-0.841637,51.703568,0.007065,-0.073975,1.001846,-0.063528,0.027443,0.018579,60.334824,25.486389,-147.575073,,,
729605698.887621,-4.067858,-0.841637,51.703568,0.007065,-0.073975,1.001846,-0.063528,0.027443,0.018579,60.334824,25.486389,-147.575073,,,
729605698.890939,-4.085363,-0.836145,51.711274,-0.002884,-0.080917,0.997437,-0.063528,0.027443,0.018579,60.334824,25.486389,-147.575073,,,
729605698.894077,-4.085363,-0.836145,51.711274,-0.002884,-0.080917,0.997437,-0.063528,0.027443,0.018579,60.334824,25.486389,-147.575073,,,
729605698.897662,-4.099623,-0.829898,51.721953,-0.002884,-0.080917,0.997437,-0.048052,0.016035,0.037869,60.334824,25.486389,-147.575073,,,
729605698.900965,-4.111809,-0.825688,51.734364,-0.00412,-0.084885,1.004272,-0.048052,0.016035,0.037869,60.334824,25.486389,-147.575073,,,
729605698.90429,-4.111809,-0.825688,51.734364,-0.00412,-0.084885,1.004272,-0.028804,0.005184,0.043944,60.334824,25.486389,-147.575073,,,
729605698.907679,-4.120196,-0.82203,51.74686,-0.00412,-0.084885,1.004272,-0.028804,0.005184,0.043944,60.334824,25.486389,-147.575073,,,
729605698.910645,-4.125676,-0.822249,51.759151,0.006744,-0.08284,1.011871,-0.028804,0.005184,0.043944,60.334824,25.486389,-147.575073,,,
729605698.914313,-4.125676,-0.822249,51.759151,0.006744,-0.08284,1.011871,-0.001797,-0.005542,0.039703,60.334824,25.486389,-147.575073,,,
729605698.917614,-4.125394,-0.823305,51.771261,0.006744,-0.08284,1.011871,-0.001797,-0.005542,0.039703,60.334824,25.486389,-147.575073,,,
729605698.920988,-4.123746,-0.825431,51.783709,0.009537,-0.082642,1.018921,-0.001797,-0.005542,0.039703,60.26564,25.474258,-147.265961,,,
729605698.92426,-4.123746,-0.825431,51.783709,0.009537,-0.082642,1.018921,0.016171,-0.005412,0.045778,60.26564,25.474258,-147.265961,,,
729605698.927329,-4.117378,-0.82751,51.796502,0.009537,-0.082642,1.018921,0.016171,-0.005412,0.045778,60.26564,25.474258,-147.265961,,,
729605698.930979,-4.112967,-0.827369,51.810066,0.004364,-0.08197,1.020477,0.016171,-0.005412,0.045778,60.26564,25.474258,-147.265961,,,
729605698.934299,-4.112967,-0.827369,51.810066,0.004364,-0.08197,1.020477,0.018376,0.012071,0.047768,60.26564,25.474258,-147.265961,,,
729605698.937629,-4.104953,-0.825558,51.824053,0.004364,-0.08197,1.020477,0.018376,0.012071,0.047768,60.26564,25.474258,-147.265961,,,
729605698.941003,-4.100497,-0.821671,51.837656,0.012787,-0.079163,1.017593,0.018376,0.012071,0.047768,60.26564,25.474258,-147.265961,,,
729605698.944103,-4.100497,-0.821671,51.837656,0.012787,-0.079163,1.017593,0.018376,0.012071,0.047768,60.26564,25.474258,-147.265961,,,
729605698.947732,-4.094238,-0.818714,51.850215,0.012787,-0.079163,1.017593,0.012203,0.0152,0.040433,60.26564,25.474258,-147.265961,,,
729605698.950958,-4.091829,-0.814286,51.861087,0.019608,-0.071823,1.008286,0.012203,0.0152,0.040433,60.26564,25.474258,-147.265961,,,
729605698.954319,-4.091829,-0.814286,51.861087,0.019608,-0.071823,1.008286,0.005674,0.021167,0.030399,60.26564,25.474258,-147.265961,,,
729605698.957615,-4.089216,-0.809052,51.870344,0.019608,-0.071823,1.008286,0.005674,0.021167,0.030399,60.26564,25.474258,-147.265961,,,
729605698.960659,-4.088934,-0.803204,51.877676,0.019394,-0.070816,1.004791,0.005674,0.021167,0.030399,60.379349,25.497101,-147.094696,,,
729605698.964316,-4.088934,-0.803204,51.877676,0.019394,-0.070816,1.004791,0.000682,0.024925,0.018294,60.379349,25.497101,-147.094696,,,
729605698.967612,-4.09016,-0.794337,51.883412,0.019394,-0.070816,1.004791,0.000682,0.024925,0.018294,60.379349,25.497101,-147.094696,,,
729605698.970944,-4.089536,-0.787672,51.887653,0.022446,-0.071259,1.004883,0.000682,0.024925,0.018294,60.379349,25.497101,-147.094696,,,
729605698.974348,-4.089536,-0.787672,51.887653,0.022446,-0.071259,1.004883,0.00688,0.03066,0.006949,60.379349,25.497101,-147.094696,,,
729605698.977307,-4.091226,-0.774755,51.890962,0.022446,-0.071259,1.004883,0.00688,0.03066,0.006949,60.379349,25.497101,-147.094696,,,
729605698.980982,-4.088622,-0.766551,51.892972,0.02417,-0.07016,1.0103,0.00688,0.03066,0.006949,60.379349,25.497101,-147.094696,,,
729605698.984292,-4.088622,-0.766551,51.892972,0.02417,-0.07016,1.0103,0.00688,0.03066,0.006949,60.379349,25.497101,-147.094696,,,
729605698.987672,-4.086875,-0.756663,51.894626,0.02417,-0.07016,1.0103,0.019437,0.021376,0.004203,60.379349,25.497101,-147.094696,,,
729605698.990931,-4.080242,-0.751835,51.896281,0.024017,-0.069244,1.004074,0.019437,0.021376,0.004203,60.379349,25.497101,-147.094696,,,
729605698.993995,-4.080242,-0.751835,51.896281,0.024017,-0.069244,1.004074,0.019437,0.021376,0.004203,60.379349,25.497101,-147.094696,,,
729605698.997678,-4.074495,-0.74696,51.898895,0.024017,-0.069244,1.004074,0.033955,0.014327,0.007798,60.379349,25.497101,-147.094696,,,
729605699.000931,-4.06498,-0.743384,51.902627,0.017044,-0.068863,1.003128,0.033955,0.014327,0.007798,60.575531,25.569809,-147.580002,,,
729605699.004284,-4.06498,-0.743384,51.902627,0.017044,-0.068863,1.003128,0.033955,0.014327,0.007798,60.575531,25.569809,-147.580002,,,
729605699.00762,-4.057233,-0.739356,51.907443,0.017044,-0.068863,1.003128,0.034355,0.01039,0.016093,60.575531,25.569809,-147.580002,,,
729605699.010636,-4.047652,-0.738552,51.91326,0.013565,-0.07019,0.999725,0.034355,0.01039,0.016093,60.575531,25.569809,-147.580002,,,
729605699.014364,-4.047652,-0.738552,51.91326,0.013565,-0.07019,0.999725,0.034734,0.00015,0.022152,60.575531,25.569809,-147.580002,,,
729605699.017605,-4.039955,-0.737278,51.920007,0.013565,-0.07019,0.999725,0.034734,0.00015,0.022152,60.575531,25.569809,-147.580002,,,
729605699.021012,-4.029764,-0.736988,51.92637,0.018234,-0.070282,0.999084,0.034734,0.00015,0.022152,60.575531,25.569809,-147.580002,,,
729605699.024334,-4.029764,-0.736988,51.92637,0.018234,-0.070282,0.999084,0.034734,0.00015,0.022152,60.575531,25.569809,-147.580002,,,
729605699.027316,-4.020172,-0.736593,51.932346,0.018234,-0.070282,0.999084,0.037539,0.006435,0.018603,60.575531,25.569809,-147.580002,,,
729605699.030978,-4.009258,-0.735558,51.937293,0.02124,-0.071625,1.010056,0.037539,0.006435,0.018603,60.575531,25.569809,-147.580002,,,
729605699.03428,-4.009258,-0.735558,51.937293,0.02124,-0.071625,1.010056,0.037539,0.006435,0.018603,60.575531,25.569809,-147.580002,,,
729605699.037664,-3.997837,-0.737255,51.940836,0.02124,-0.071625,1.010056,0.039525,0.003063,0.009843,60.575531,25.569809,-147.580002,,,
729605699.04094,-3.985522,-0.738023,51.943224,0.022552,-0.069016,1.004684,0.039525,0.003063,0.009843,60.575531,25.569809,-147.580002,,,
729605699.043969,-3.985522,-0.738023,51.943224,0.022552,-0.069016,1.004684,0.039525,0.003063,0.009843,60.32048,25.395432,-147.532318,,,
729605699.04766,-3.973065,-0.740894,51.943458,0.022552,-0.069016,1.004684,0.046941,-0.002626,-0.002979,60.32048,25.395432,-147.532318,,,
729605699.050931,-3.959852,-0.741896,51.941431,0.023315,-0.064484,1.002853,0.046941,-0.002626,-0.002979,60.32048,25.395432,-147.532318,,,
729605699.054307,-3.959852,-0.741896,51.941431,0.023315,-0.064484,1.002853,0.046941,-0.002626,-0.002979,60.32048,25.395432,-147.532318,,,
729605699.05761,-3.947294,-0.745467,51.936615,0.023315,-0.064484,1.002853,0.043463,0.002954,-0.020384,60.32048,25.395432,-147.532318,,,
729605699.060633,-3.935426,-0.748574,51.929666,0.02565,-0.062698,0.996094,0.043463,0.002954,-0.020384,60.32048,25.395432,-147.532318,,,
729605699.064346,-3.935426,-0.748574,51.929666,0.02565,-0.062698,0.996094,0.043463,0.002954,-0.020384,60.32048,25.395432,-147.532318,,,
729605699.067583,-3.924942,-0.758267,51.919954,0.02565,-0.062698,0.996094,0.036622,-0.021222,-0.037921,60.32048,25.395432,-147.532318,,,
729605699.070985,-3.915787,-0.769715,51.907191,0.025635,-0.062622,0.97934,0.036622,-0.021222,-0.037921,60.32048,25.395432,-147.532318,,,
729605699.074388,-3.915787,-0.769715,51.907191,0.025635,-0.062622,0.97934,0.036622,-0.021222,-0.037921,60.32048,25.395432,-147.532318,,,
729605699.077358,-3.907123,-0.786869,51.891069,0.025635,-0.062622,0.97934,0.032623,-0.048535,-0.058921,60.32048,25.395432,-147.532318,,,
729605699.081026,-3.898974,-0.804883,51.872275,0.025894,-0.063324,0.980026,0.032623,-0.048535,-0.058921,60.32048,25.395432,-147.532318,,,
729605699.084336,-3.898974,-0.804883,51.872275,0.025894,-0.063324,0.980026,0.032623,-0.048535,-0.058921,60.425247,25.231552,-147.705231,,,
729605699.087634,-3.892357,-0.827186,51.850865,0.025894,-0.063324,0.980026,0.024502,-0.072947,-0.080124,60.425247,25.231552,-147.705231,,,
729605699.090958,-3.886791,-0.853224,51.828841,0.022827,-0.069687,0.97789,0.024502,-0.072947,-0.080124,60.425247,25.231552,-147.705231,,,
729605699.093937,-3.886791,-0.853224,51.828841,0.022827,-0.069687,0.97789,0.024502,-0.072947,-0.080124,60.425247,25.231552,-147.705231,,,
729605699.097683,-3.883253,-0.880676,51.808122,0.022827,-0.069687,0.97789,0.013988,-0.090388,-0.071762,60.425247,25.231552,-147.705231,,,
729605699.100941,-3.880744,-0.907543,51.789802,0.009277,-0.081238,0.974426,0.013988,-0.090388,-0.071762,60.425247,25.231552,-147.705231,,,
729605699.104273,-3.880744,-0.907543,51.789802,0.009277,-0.081238,0.974426,0.013988,-0.090388,-0.071762,60.425247,25.231552,-147.705231,,,
729605699.107671,-3.879936,-0.933234,51.774866,0.009277,-0.081238,0.974426,0.004063,-0.077038,-0.052693,60.425247,25.231552,-147.705231,,,
729605699.11067,-3.879354,-0.955393,51.7635,0.007324,-0.087326,0.98616,0.004063,-0.077038,-0.052693,60.425247,25.231552,-147.705231,,,
729605699.114405,-3.879354,-0.955393,51.7635,0.007324,-0.087326,0.98616,0.004063,-0.077038,-0.052693,60.425247,25.231552,-147.705231,,,
729605699.117705,-3.880102,-0.975354,51.755695,0.007324,-0.087326,0.98616,0.000161,-0.0573,-0.025214,60.425247,25.231552,-147.705231,,,
729605699.120984,-3.88063,-0.990685,51.751149,0.013824,-0.086365,0.993088,0.000161,-0.0573,-0.025214,60.425247,25.231552,-147.705231,,,
729605699.124295,-3.88063,-0.990685,51.751149,0.013824,-0.086365,0.993088,0.000161,-0.0573,-0.025214,60.142853,25.390686,-147.856659,,,
729605699.127294,-3.881268,-1.004285,51.749479,0.013824,-0.086365,0.993088,-0.003528,-0.037595,-0.006363,60.142853,25.390686,-147.856659,,,
729605699.131008,-3.882814,-1.013204,51.750324,0.015335,-0.083466,0.988724,-0.003528,-0.037595,-0.006363,60.142853,25.390686,-147.856659,,,
729605699.134286,-3.882814,-1.013204,51.750324,0.015335,-0.083466,0.988724,-0.003528,-0.037595,-0.006363,60.142853,25.390686,-147.856659,,,
729605699.137353,-3.885075,-1.019866,51.752034,0.015335,-0.083466,0.988724,-0.012639,-0.011789,0.00619,60.142853,25.390686,-147.856659,,,
729605699.140986,-3.890274,-1.021196,51.754093,0.018173,-0.08107,0.985703,-0.012639,-0.011789,0.00619,60.142853,25.390686,-147.856659,,,
729605699.144278,-3.890274,-1.021196,51.754093,0.018173,-0.08107,0.985703,-0.012639,-0.011789,0.00619,60.142853,25.390686,-147.856659,,,
729605699.147723,-3.897347,-1.022,51.75555,0.018173,-0.08107,0.985703,-0.029068,0.010597,0.002686,60.142853,25.390686,-147.856659,,,
729605699.150766,-3.909507,-1.01817,51.756365,0.022552,-0.077835,0.979309,-0.029068,0.010597,0.002686,60.142853,25.390686,-147.856659,,,
729605699.154325,-3.909507,-1.01817,51.756365,0.022552,-0.077835,0.979309,-0.029068,0.010597,0.002686,60.142853,25.390686,-147.856659,,,
729605699.157612,-3.9247,-1.015305,51.756332,0.022552,-0.077835,0.979309,-0.059578,0.020134,-0.002325,60.142853,25.390686,-147.856659,,,
729605699.160673,-3.943835,-1.010104,51.755602,0.023193,-0.075302,0.968323,-0.059578,0.020134,-0.002325,60.142853,25.390686,-147.856659,,,
729605699.164346,-3.943835,-1.010104,51.755602,0.023193,-0.075302,0.968323,-0.059578,0.020134,-0.002325,60.142853,25.390686,-147.856659,,,
729605699.16762,-3.965141,-1.007159,51.75436,0.023193,-0.075302,0.968323,-0.077414,0.024372,-0.00305,60.29541,25.185303,-147.462906,,,
729605699.170947,-3.989759,-1.001698,51.75237,0.02005,-0.079605,0.97168,-0.077414,0.024372,-0.00305,60.29541,25.185303,-147.462906,,,
729605699.174347,-3.989759,-1.001698,51.75237,0.02005,-0.079605,0.97168,-0.077414,0.024372,-0.00305,60.29541,25.185303,-147.462906,,,
729605699.177313,-4.017552,-0.996482,51.749421,0.02005,-0.079605,0.97168,-0.092281,0.024338,-0.008832,60.29541,25.185303,-147.462906,,,
729605699.180983,-4.044724,-0.991891,51.745858,0.017761,-0.081284,0.979218,-0.092281,0.024338,-0.008832,60.29541,25.185303,-147.462906,,,
729605699.184281,-4.044724,-0.991891,51.745858,0.017761,-0.081284,0.979218,-0.092281,0.024338,-0.008832,60.29541,25.185303,-147.462906,,,
729605699.187706,-4.074329,-0.986048,51.741462,0.017761,-0.081284,0.979218,-0.09239,0.017387,-0.014189,60.29541,25.185303,-147.462906,,,
729605699.190647,-4.09909,-0.982938,51.736317,0.019424,-0.080109,0.987717,-0.09239,0.017387,-0.014189,60.29541,25.185303,-147.462906,,,
729605699.193938,-4.09909,-0.982938,51.736317,0.019424,-0.080109,0.987717,-0.09239,0.017387,-0.014189,60.29541,25.185303,-147.462906,,,
729605699.197671,-4.124313,-0.978208,51.731134,0.019424,-0.080109,0.987717,-0.072779,0.017185,-0.01765,60.29541,25.185303,-147.462906,,,
729605699.200931,-4.144327,-0.974253,51.726128,0.018661,-0.07637,0.997086,-0.072779,0.017185,-0.01765,60.29541,25.185303,-147.462906,,,
729605699.204305,-4.144327,-0.974253,51.726128,0.018661,-0.07637,0.997086,-0.072779,0.017185,-0.01765,60.29541,25.185303,-147.462906,,,
729605699.207617,-4.164077,-0.970255,51.722136,0.018661,-0.07637,0.997086,-0.054866,0.016883,-0.01317,60.399536,25.488358,-147.395172,,,
729605699.210631,-4.17903,-0.967722,51.71928,0.01738,-0.073578,0.999069,-0.054866,0.016883,-0.01317,60.399536,25.488358,-147.395172,,,
729605699.214391,-4.17903,-0.967722,51.71928,0.01738,-0.073578,0.999069,-0.054866,0.016883,-0.01317,60.399536,25.488358,-147.395172,,,
729605699.217626,-4.195464,-0.966537,51.71719,0.01738,-0.073578,0.999069,-0.051313,0.005062,-0.006212,60.399536,25.488358,-147.395172,,,
729605699.220952,-4.210692,-0.967094,51.715842,0.01976,-0.072357,0.987961,-0.051313,0.005062,-0.006212,60.399536,25.488358,-147.395172,,,
729605699.224286,-4.210692,-0.967094,51.715842,0.01976,-0.072357,0.987961,-0.051313,0.005062,-0.006212,60.399536,25.488358,-147.395172,,,
729605699.227349,-4.227292,-0.969929,51.71394,0.01976,-0.072357,0.987961,-0.052104,-0.007415,-0.005874,60.399536,25.488358,-147.395172,,,
729605699.230984,-4.242437,-0.973666,51.710823,0.020523,-0.071869,0.988739,-0.052104,-0.007415,-0.005874,60.399536,25.488358,-147.395172,,,
729605699.23429,-4.242437,-0.973666,51.710823,0.020523,-0.071869,0.988739,-0.052104,-0.007415,-0.005874,60.399536,25.488358,-147.395172,,,
729605699.237635,-4.258346,-0.980092,51.706111,0.020523,-0.071869,0.988739,-0.053151,-0.014172,-0.020711,60.399536,25.488358,-147.395172,,,
729605699.240947,-4.273796,-0.986193,51.699547,0.023361,-0.06636,0.991608,-0.053151,-0.014172,-0.020711,60.399536,25.488358,-147.395172,,,
729605699.244005,-4.273796,-0.986193,51.699547,0.023361,-0.06636,0.991608,-0.053151,-0.014172,-0.020711,60.399536,25.488358,-147.395172,,,
729605699.247649,-4.290389,-0.993347,51.691568,0.023361,-0.06636,0.991608,-0.054429,-0.01733,-0.029245,60.401962,25.551544,-147.596069,,,
729605699.250943,-4.306947,-0.998483,51.682059,0.02594,-0.062637,0.992584,-0.054429,-0.01733,-0.029245,60.401962,25.551544,-147.596069,,,
729605699.254337,-4.306947,-0.998483,51.682059,0.02594,-0.062637,0.992584,-0.054429,-0.01733,-0.029245,60.401962,25.551544,-147.596069,,,
729605699.257615,-4.325801,-1.002364,51.670809,0.02594,-0.062637,0.992584,-0.059284,-0.002696,-0.040071,60.401962,25.551544,-147.596069,,,
729605699.26095,-4.343094,-1.004261,51.659123,0.022888,-0.061401,0.999771,-0.059284,-0.002696,-0.040071,60.401962,25.551544,-147.596069,,,
729605699.264304,-4.343094,-1.004261,51.659123,0.022888,-0.061401,0.999771,-0.059284,-0.002696,-0.040071,60.401962,25.551544,-147.596069,,,
729605699.267695,-4.36244,-1.004818,51.647952,0.022888,-0.061401,0.999771,-0.064117,0.006845,-0.038203,60.401962,25.551544,-147.596069,,,
729605699.270845,-4.380726,-1.003242,51.638034,0.016098,-0.068649,1.001404,-0.064117,0.006845,-0.038203,60.401962,25.551544,-147.596069,,,
729605699.274289,-4.380726,-1.003242,51.638034,0.016098,-0.068649,1.001404,-0.064117,0.006845,-0.038203,60.401962,25.551544,-147.596069,,,
729605699.277621,-4.399785,-1.001004,51.629101,0.016098,-0.068649,1.001404,-0.061532,0.018307,-0.031015,60.401962,25.551544,-147.596069,,,
729605699.280938,-4.418425,-0.996668,51.621259,0.009232,-0.074463,1.00177,-0.061532,0.018307,-0.031015,60.401962,25.551544,-147.596069,,,
729605699.28429,-4.418425,-0.996668,51.621259,0.009232,-0.074463,1.00177,-0.061532,0.018307,-0.031015,60.401962,25.551544,-147.596069,,,
729605699.287607,-4.435813,-0.992592,51.614555,0.009232,-0.074463,1.00177,-0.060372,0.021819,-0.024053,60.378906,25.811264,-147.436264,,,
729605699.290937,-4.451578,-0.989764,51.607747,0.012405,-0.075928,1.004959,-0.060372,0.021819,-0.024053,60.378906,25.811264,-147.436264,,,
729605699.294361,-4.451578,-0.989764,51.607747,0.012405,-0.075928,1.004959,-0.060372,0.021819,-0.024053,60.378906,25.811264,-147.436264,,,
729605699.29764,-4.464487,-0.988162,51.600152,0.012405,-0.075928,1.004959,-0.047931,0.011869,-0.027308,60.378906,25.811264,-147.436264,,,
729605699.300942,-4.476496,-0.986492,51.592128,0.014542,-0.074677,1.010788,-0.047931,0.011869,-0.027308,60.378906,25.811264,-147.436264,,,
729605699.304291,-4.476496,-0.986492,51.592128,0.014542,-0.074677,1.010788,-0.047931,0.011869,-0.027308,60.378906,25.811264,-147.436264,,,
729605699.307661,-4.484125,-0.984202,51.583874,0.014542,-0.074677,1.010788,-0.028557,0.018598,-0.02933,60.378906,25.811264,-147.436264,,,
729605699.310941,-4.488492,-0.979979,51.575466,0.014053,-0.077286,1.019943,-0.028557,0.018598,-0.02933,60.378906,25.811264,-147.436264,,,
729605699.314293,-4.488492,-0.979979,51.575466,0.014053,-0.077286,1.019943,-0.028557,0.018598,-0.02933,60.378906,25.811264,-147.436264,,,
729605699.317628,-4.487203,-0.977037,51.567183,0.014053,-0.077286,1.019943,0.001462,0.016921,-0.030751,60.378906,25.811264,-147.436264,,,
729605699.320946,-4.483628,-0.974754,51.559463,0.011581,-0.08165,1.022537,0.001462,0.016921,-0.030751,60.378906,25.811264,-147.436264,,,
729605699.32429,-4.483628,-0.974754,51.559463,0.011581,-0.08165,1.022537,0.001462,0.016921,-0.030751,60.378906,25.811264,-147.436264,,,
729605699.327626,-4.472869,-0.975131,51.552258,0.011581,-0.08165,1.022537,0.030978,0.011271,-0.024776,60.378906,25.811264,-147.436264,,,
729605699.330951,-4.461895,-0.972482,51.546764,0.009613,-0.082458,1.024353,0.030978,0.011271,-0.024776,60.466125,25.638626,-147.328232,,,
729605699.33434,-4.461895,-0.972482,51.546764,0.009613,-0.082458,1.024353,0.030978,0.011271,-0.024776,60.466125,25.638626,-147.328232,,,
729605699.337618,-4.446018,-0.970917,51.542377,0.009613,-0.082458,1.024353,0.044379,0.017175,-0.014483,60.466125,25.638626,-147.328232,,,
729605699.34095,-4.43271,-0.967774,51.538545,0.006424,-0.08313,1.020203,0.044379,0.017175,-0.014483,60.466125,25.638626,-147.328232,,,
729605699.344292,-4.43271,-0.967774,51.538545,0.006424,-0.08313,1.020203,0.044379,0.017175,-0.014483,60.466125,25.638626,-147.328232,,,
729605699.347664,-4.415897,-0.967123,51.534995,0.006424,-0.08313,1.020203,0.050966,0.008003,-0.013249,60.466125,25.638626,-147.328232,,,
729605699.350942,-4.402076,-0.967675,51.531318,0.009155,-0.077988,1.009903,0.050966,0.008003,-0.013249,60.466125,25.638626,-147.328232,,,
729605699.354281,-4.402076,-0.967675,51.531318,0.009155,-0.077988,1.009903,0.050966,0.008003,-0.013249,60.466125,25.638626,-147.328232,,,
729605699.357617,-4.38769,-0.969198,51.526523,0.009155,-0.077988,1.009903,0.044449,-0.003964,-0.016753,60.466125,25.638626,-147.328232,,,
729605699.360938,-4.376425,-0.972577,51.52028,0.014023,-0.073547,1.001083,0.044449,-0.003964,-0.016753,60.466125,25.638626,-147.328232,,,
729605699.36428,-4.376425,-0.972577,51.52028,0.014023,-0.073547,1.001083,0.044449,-0.003964,-0.016753,60.466125,25.638626,-147.328232,,,
729605699.36762,-4.366807,-0.973902,51.512996,0.014023,-0.073547,1.001083,0.032133,-0.003294,-0.027306,60.466125,25.638626,-147.328232,,,
729605699.370943,-4.359362,-0.975631,51.504827,0.016464,-0.069946,1.000031,0.032133,-0.003294,-0.027306,60.455551,25.777466,-147.515671,,,
729605699.374336,-4.359362,-0.975631,51.504827,0.016464,-0.069946,1.000031,0.032133,-0.003294,-0.027306,60.455551,25.777466,-147.515671,,,
729605699.377614,-4.353138,-0.97485,51.496226,0.016464,-0.069946,1.000031,0.018441,0.003743,-0.030745,60.455551,25.777466,-147.515671,,,
729605699.380939,-4.348704,-0.973944,51.488047,0.014542,-0.071304,0.999649,0.018441,0.003743,-0.030745,60.455551,25.777466,-147.515671,,,
729605699.384291,-4.348704,-0.973944,51.488047,0.014542,-0.071304,0.999649,0.018441,0.003743,-0.030745,60.455551,25.777466,-147.515671,,,
729605699.387716,-4.344931,-0.972008,51.480891,0.014542,-0.071304,0.999649,0.01239,0.010109,-0.02522,60.455551,25.777466,-147.515671,,,
729605699.39095,-4.342008,-0.970146,51.474418,0.011047,-0.072968,0.99585,0.01239,0.010109,-0.02522,60.455551,25.777466,-147.515671,,,
729605699.394279,-4.342008,-0.970146,51.474418,0.011047,-0.072968,0.99585,0.01239,0.010109,-0.02522,60.455551,25.777466,-147.515671,,,
729605699.39766,-4.339164,-0.96687,51.469445,0.011047,-0.072968,0.99585,0.014542,0.012547,-0.018892,60.455551,25.777466,-147.515671,,,
729605699.400993,-4.334216,-0.964046,51.465004,0.011215,-0.07724,1.000366,0.014542,0.012547,-0.018892,60.455551,25.777466,-147.515671,,,
729605699.40434,-4.334216,-0.964046,51.465004,0.011215,-0.07724,1.000366,0.014542,0.012547,-0.018892,60.455551,25.777466,-147.515671,,,
729605699.407626,-4.32715,-0.959657,51.461431,0.011215,-0.07724,1.000366,0.029333,0.013504,-0.012353,60.455551,25.777466,-147.515671,,,
729605699.411037,-4.315883,-0.957585,51.459439,0.010208,-0.077637,1.005432,0.029333,0.013504,-0.012353,60.356216,25.739227,-147.643616,,,
729605699.414292,-4.315883,-0.957585,51.459439,0.010208,-0.077637,1.005432,0.029333,0.013504,-0.012353,60.356216,25.739227,-147.643616,,,
729605699.417652,-4.302952,-0.954229,51.459094,0.010208,-0.077637,1.005432,0.049743,0.00443,-0.000859,60.356216,25.739227,-147.643616,,,
729605699.420946,-4.287314,-0.952509,51.460034,0.005692,-0.079437,1.004059,0.049743,0.00443,-0.000859,60.356216,25.739227,-147.643616,,,
729605699.424392,-4.287314,-0.952509,51.460034,0.005692,-0.079437,1.004059,0.049743,0.00443,-0.000859,60.356216,25.739227,-147.643616,,,
729605699.427638,-4.272524,-0.947338,51.462423,0.005692,-0.079437,1.004059,0.059953,0.013123,0.00687,60.356216,25.739227,-147.643616,,,
729605699.430956,-4.257012,-0.944976,51.465491,0.008301,-0.080399,1.00058,0.059953,0.013123,0.00687,60.356216,25.739227,-147.643616,,,
729605699.433967,-4.257012,-0.944976,51.465491,0.008301,-0.080399,1.00058,0.059953,0.013123,0.00687,60.356216,25.739227,-147.643616,,,
729605699.437728,-4.243131,-0.942547,51.469289,0.008301,-0.080399,1.00058,0.048488,0.006648,0.010384,60.356216,25.739227,-147.643616,,,
729605699.440975,-4.230916,-0.942543,51.473086,0.010956,-0.078247,0.98912,0.048488,0.006648,0.010384,60.356216,25.739227,-147.643616,,,
729605699.444307,-4.230916,-0.942543,51.473086,0.010956,-0.078247,0.98912,0.048488,0.006648,0.010384,60.356216,25.739227,-147.643616,,,
729605699.447622,-4.220513,-0.942282,51.476395,0.010956,-0.078247,0.98912,0.033831,0.004611,0.007237,60.356216,25.739227,-147.643616,,,
729605699.450958,-4.213751,-0.942222,51.479341,0.009872,-0.075607,0.982742,0.033831,0.004611,0.007237,60.446762,25.599762,-147.672546,,,
729605699.454271,-4.213751,-0.942222,51.479341,0.009872,-0.075607,0.982742,0.033831,0.004611,0.007237,60.446762,25.599762,-147.672546,,,
729605699.457628,-4.209765,-0.942452,51.481843,0.009872,-0.075607,0.982742,0.009838,0.002827,0.005935,60.446762,25.599762,-147.672546,,,
729605699.460968,-4.209016,-0.943997,51.483358,0.011475,-0.071991,0.979507,0.009838,0.002827,0.005935,60.446762,25.599762,-147.672546,,,
729605699.464294,-4.209016,-0.943997,51.483358,0.011475,-0.071991,0.979507,0.009838,0.002827,0.005935,60.446762,25.599762,-147.672546,,,
729605699.467633,-4.209993,-0.947702,51.483914,0.011475,-0.071991,0.979507,-0.007598,-0.013765,-0.002499,60.446762,25.599762,-147.672546,,,
729605699.470952,-4.213927,-0.953429,51.48353,0.015152,-0.070572,0.97464,-0.007598,-0.013765,-0.002499,60.446762,25.599762,-147.672546,,,
729605699.474289,-4.213927,-0.953429,51.48353,0.015152,-0.070572,0.97464,-0.007598,-0.013765,-0.002499,60.446762,25.599762,-147.672546,,,
729605699.477633,-4.220786,-0.957934,51.482445,0.015152,-0.070572,0.97464,-0.022177,-0.017687,-0.005461,60.446762,25.599762,-147.672546,,,
729605699.48095,-4.229647,-0.963232,51.481097,0.017944,-0.070923,0.975189,-0.022177,-0.017687,-0.005461,60.446762,25.599762,-147.672546,,,
729605699.484297,-4.229647,-0.963232,51.481097,0.017944,-0.070923,0.975189,-0.022177,-0.017687,-0.005461,60.446762,25.599762,-147.672546,,,
729605699.487696,-4.240984,-0.96623,51.48059,0.017944,-0.070923,0.975189,-0.038384,-0.010882,-0.000428,60.446762,25.599762,-147.672546,,,
729605699.490932,-4.253125,-0.969566,51.480732,0.013748,-0.07251,0.980728,-0.038384,-0.010882,-0.000428,60.446762,25.599762,-147.672546,,,
729605699.494278,-4.253125,-0.969566,51.480732,0.013748,-0.07251,0.980728,-0.038384,-0.010882,-0.000428,60.518494,25.680893,-147.658783,,,
729605699.497624,-4.26718,-0.970889,51.481692,0.013748,-0.07251,0.980728,-0.047599,-0.008,0.00513,60.518494,25.680893,-147.658783,,,
729605699.500936,-4.280374,-0.975224,51.484097,0.016266,-0.075989,0.979782,-0.047599,-0.008,0.00513,60.518494,25.680893,-147.658783,,,
729605699.504272,-4.280374,-0.975224,51.484097,0.016266,-0.075989,0.979782,-0.047599,-0.008,0.00513,60.518494,25.680893,-147.658783,,,
729605699.507623,-4.294176,-0.976605,51.487807,0.016266,-0.075989,0.979782,-0.043729,-0.011387,0.013116,60.518494,25.680893,-147.658783,,,
729605699.51095,-4.304874,-0.978796,51.491472,0.018707,-0.078735,0.989807,-0.043729,-0.011387,0.013116,60.518494,25.680893,-147.658783,,,
729605699.514273,-4.304874,-0.978796,51.491472,0.018707,-0.078735,0.989807,-0.043729,-0.011387,0.013116,60.518494,25.680893,-147.658783,,,
729605699.517605,-4.314492,-0.977798,51.495732,0.018707,-0.078735,0.989807,-0.027592,0.001674,0.014851,60.518494,25.680893,-147.658783,,,
729605699.520948,-4.320702,-0.978503,51.500072,0.022034,-0.077988,1.002365,-0.027592,0.001674,0.014851,60.518494,25.680893,-147.658783,,,
729605699.524286,-4.320702,-0.978503,51.500072,0.022034,-0.077988,1.002365,-0.027592,0.001674,0.014851,60.518494,25.680893,-147.658783,,,
729605699.527669,-4.325908,-0.978503,51.504583,0.022034,-0.077988,1.002365,-0.012578,-0.006883,0.013524,60.518494,25.680893,-147.658783,,,
729605699.530931,-4.329564,-0.980275,51.509238,0.021057,-0.078354,0.994492,-0.012578,-0.006883,0.013524,60.518494,25.680893,-147.658783,,,
729605699.534275,-4.329564,-0.980275,51.509238,0.021057,-0.078354,0.994492,-0.012578,-0.006883,0.013524,60.490921,25.627167,-147.632446,,,
729605699.537616,-4.333394,-0.978702,51.514203,0.021057,-0.078354,0.994492,-0.012236,0.004045,0.015299,60.490921,25.627167,-147.632446,,,
729605699.540943,-4.338086,-0.977281,51.518403,0.022568,-0.076691,0.994034,-0.012236,0.004045,0.015299,60.490921,25.627167,-147.632446,,,
729605699.544312,-4.338086,-0.977281,51.518403,0.022568,-0.076691,0.994034,-0.012236,0.004045,0.015299,60.490921,25.627167,-147.632446,,,
729605699.547608,-4.344165,-0.974741,51.520975,0.022568,-0.076691,0.994034,-0.024416,0.008878,0.005078,60.490921,25.627167,-147.632446,,,
729605699.550948,-4.354166,-0.973951,51.521729,0.028992,-0.069336,0.984314,-0.024416,0.008878,0.005078,60.490921,25.627167,-147.632446,,,
729605699.55428,-4.354166,-0.973951,51.521729,0.028992,-0.069336,0.984314,-0.024416,0.008878,0.005078,60.490921,25.627167,-147.632446,,,
729605699.557609,-4.3662,-0.973913,51.520809,0.028992,-0.069336,0.984314,-0.044295,0.004212,-0.007241,60.490921,25.627167,-147.632446,,,
729605699.560941,-4.381227,-0.974304,51.518181,0.018738,-0.069489,0.981415,-0.044295,0.004212,-0.007241,60.490921,25.627167,-147.632446,,,
729605699.564272,-4.381227,-0.974304,51.518181,0.018738,-0.069489,0.981415,-0.044295,0.004212,-0.007241,60.490921,25.627167,-147.632446,,,
729605699.567622,-4.397397,-0.975635,51.514253,0.018738,-0.069489,0.981415,-0.059938,-0.001591,-0.015319,60.490921,25.627167,-147.632446,,,
729605699.57095,-4.416202,-0.979611,51.509223,0.014786,-0.075439,0.984558,-0.059938,-0.001591,-0.015319,60.490921,25.627167,-147.632446,,,
729605699.574276,-4.416202,-0.979611,51.509223,0.014786,-0.075439,0.984558,-0.059938,-0.001591,-0.015319,60.508484,25.589355,-147.611877,,,
729605699.577614,-4.436081,-0.98608,51.502834,0.014786,-0.075439,0.984558,-0.072373,-0.023537,-0.022819,60.508484,25.589355,-147.611877,,,
729605699.580944,-4.457161,-0.996477,51.495179,0.013336,-0.077499,0.984558,-0.072373,-0.023537,-0.022819,60.508484,25.589355,-147.611877,,,
729605699.584275,-4.457161,-0.996477,51.495179,0.013336,-0.077499,0.984558,-0.072373,-0.023537,-0.022819,60.508484,25.589355,-147.611877,,,
729605699.587634,-4.477962,-1.010342,51.487106,0.013336,-0.077499,0.984558,-0.071062,-0.046489,-0.026141,60.508484,25.589355,-147.611877,,,
729605699.590938,-4.497654,-1.026129,51.479391,0.010803,-0.080368,0.98967,-0.071062,-0.046489,-0.026141,60.508484,25.589355,-147.611877,,,
729605699.594355,-4.497654,-1.026129,51.479391,0.010803,-0.080368,0.98967,-0.071062,-0.046489,-0.026141,60.508484,25.589355,-147.611877,,,
729605699.597641,-4.516082,-1.043026,51.472771,0.010803,-0.080368,0.98967,-0.061972,-0.053635,-0.023611,60.508484,25.589355,-147.611877,,,
729605699.600967,-4.532919,-1.059004,51.46768,0.009216,-0.08371,0.99884,-0.061972,-0.053635,-0.023611,60.508484,25.589355,-147.611877,,,
729605699.604426,-4.532919,-1.059004,51.46768,0.009216,-0.08371,0.99884,-0.061972,-0.053635,-0.023611,60.508484,25.589355,-147.611877,,,
729605699.607615,-4.546986,-1.074273,51.46461,0.009216,-0.08371,0.99884,-0.048002,-0.046548,-0.011437,60.508484,25.589355,-147.611877,,,
729605699.610999,-4.557711,-1.086762,51.464457,0.011658,-0.085663,1.007187,-0.048002,-0.046548,-0.011437,60.508484,25.589355,-147.611877,,,
729605699.614277,-4.557711,-1.086762,51.464457,0.011658,-0.085663,1.007187,-0.048002,-0.046548,-0.011437,60.184052,25.801544,-147.383484,,,
729605699.61772,-4.565224,-1.096897,51.46743,0.011658,-0.085663,1.007187,-0.024292,-0.031008,0.013435,60.184052,25.801544,-147.383484,,,
729605699.620953,-4.570538,-1.103168,51.473433,0.014069,-0.085388,1.015808,-0.024292,-0.031008,0.013435,60.184052,25.801544,-147.383484,,,
729605699.624278,-4.570538,-1.103168,51.473433,0.014069,-0.085388,1.015808,-0.024292,-0.031008,0.013435,60.184052,25.801544,-147.383484,,,
729605699.627632,-4.572397,-1.107677,51.480585,0.014069,-0.085388,1.015808,-0.008236,-0.003555,0.023812,60.184052,25.801544,-147.383484,,,
729605699.630971,-4.573301,-1.107964,51.488184,0.021515,-0.080704,1.017578,-0.008236,-0.003555,0.023812,60.184052,25.801544,-147.383484,,,
729605699.634302,-4.573301,-1.107964,51.488184,0.021515,-0.080704,1.017578,-0.008236,-0.003555,0.023812,60.184052,25.801544,-147.383484,,,
729605699.637637,-4.571175,-1.108769,51.496056,0.021515,-0.080704,1.017578,0.002053,0.004035,0.026007,60.184052,25.801544,-147.383484,,,
729605699.640974,-4.572254,-1.107089,51.50359,0.02507,-0.074417,1.006271,0.002053,0.004035,0.026007,60.184052,25.801544,-147.383484,,,
729605699.644346,-4.572254,-1.107089,51.50359,0.02507,-0.074417,1.006271,0.002053,0.004035,0.026007,60.184052,25.801544,-147.383484,,,
729605699.647623,-4.573467,-1.103691,51.509646,0.02507,-0.074417,1.006271,-0.009167,0.010516,0.017677,60.184052,25.801544,-147.383484,,,
729605699.651006,-4.578516,-1.10078,51.513883,0.023163,-0.069641,0.993958,-0.009167,0.010516,0.017677,60.184052,25.801544,-147.383484,,,
729605699.654272,-4.578516,-1.10078,51.513883,0.023163,-0.069641,0.993958,-0.009167,0.010516,0.017677,60.184052,25.801544,-147.383484,,,
729605699.65769,-4.586521,-1.098444,51.516821,0.023163,-0.069641,0.993958,-0.031523,0.005275,0.006072,60.231384,25.884064,-147.156235,,,
729605699.661,-4.597623,-1.100181,51.517989,0.024246,-0.066666,0.987503,-0.031523,0.005275,0.006072,60.231384,25.884064,-147.156235,,,
729605699.664285,-4.597623,-1.100181,51.517989,0.024246,-0.066666,0.987503,-0.031523,0.005275,0.006072,60.231384,25.884064,-147.156235,,,
729605699.667628,-4.61085,-1.103912,51.517439,0.024246,-0.066666,0.987503,-0.047725,-0.014775,-0.005187,60.231384,25.884064,-147.156235,,,
729605699.670933,-4.62543,-1.112215,51.515583,0.022583,-0.066956,0.984253,-0.047725,-0.014775,-0.005187,60.231384,25.884064,-147.156235,,,
729605699.674285,-4.62543,-1.112215,51.515583,0.022583,-0.066956,0.984253,-0.047725,-0.014775,-0.005187,60.231384,25.884064,-147.156235,,,
729605699.677622,-4.640248,-1.120655,51.513043,0.022583,-0.066956,0.984253,-0.051149,-0.034119,-0.009648,60.231384,25.884064,-147.156235,,,
729605699.680938,-4.65362,-1.133793,51.509381,0.021835,-0.07106,0.991867,-0.051149,-0.034119,-0.009648,60.231384,25.884064,-147.156235,,,
729605699.684371,-4.65362,-1.133793,51.509381,0.021835,-0.07106,0.991867,-0.051149,-0.034119,-0.009648,60.231384,25.884064,-147.156235,,,
729605699.687635,-4.664769,-1.146682,51.505352,0.021835,-0.07106,0.991867,-0.031348,-0.052193,-0.015904,60.231384,25.884064,-147.156235,,,
729605699.690939,-4.672394,-1.163092,51.500605,0.023102,-0.073868,1.004959,-0.031348,-0.052193,-0.015904,60.231384,25.884064,-147.156235,,,
729605699.69429,-4.672394,-1.163092,51.500605,0.023102,-0.073868,1.004959,-0.031348,-0.052193,-0.015904,60.231384,25.884064,-147.156235,,,
729605699.697685,-4.677603,-1.178042,51.49622,0.023102,-0.073868,1.004959,-0.013709,-0.055095,-0.016588,60.26944,26.080582,-147.23317,,,
729605699.700961,-4.679152,-1.195325,51.492392,0.020905,-0.076843,1.008316,-0.013709,-0.055095,-0.016588,60.26944,26.080582,-147.23317,,,
729605699.704294,-4.679152,-1.195325,51.492392,0.020905,-0.076843,1.008316,-0.013709,-0.055095,-0.016588,60.26944,26.080582,-147.23317,,,
729605699.707636,-4.679257,-1.210575,51.489378,0.020905,-0.076843,1.008316,0.001618,-0.053809,-0.010684,60.26944,26.080582,-147.23317,,,
729605699.710955,-4.677359,-1.22547,51.488007,0.015839,-0.080444,1.004608,0.001618,-0.053809,-0.010684,60.26944,26.080582,-147.23317,,,
729605699.7143,-4.677359,-1.22547,51.488007,0.015839,-0.080444,1.004608,0.001618,-0.053809,-0.010684,60.26944,26.080582,-147.23317,,,
729605699.717612,-4.674188,-1.238713,51.487981,0.015839,-0.080444,1.004608,0.008051,-0.038615,-0.001404,60.26944,26.080582,-147.23317,,,
729605699.721023,-4.672757,-1.249305,51.489381,0.015045,-0.081635,1.005356,0.008051,-0.038615,-0.001404,60.26944,26.080582,-147.23317,,,
729605699.72434,-4.672757,-1.249305,51.489381,0.015045,-0.081635,1.005356,0.008051,-0.038615,-0.001404,60.26944,26.080582,-147.23317,,,
729605699.727621,-4.669404,-1.258539,51.492685,0.015045,-0.081635,1.005356,0.004749,-0.026069,0.011761,60.26944,26.080582,-147.23317,,,
729605699.730978,-4.669238,-1.263792,51.497374,0.014313,-0.083496,0.999649,0.004749,-0.026069,0.011761,60.26944,26.080582,-147.23317,,,
729605699.734299,-4.669238,-1.263792,51.497374,0.014313,-0.083496,0.999649,0.004749,-0.026069,0.011761,60.26944,26.080582,-147.23317,,,
729605699.737608,-4.667741,-1.265523,51.501982,0.014313,-0.083496,0.999649,-0.004193,0.001336,0.015794,60.137817,26.030319,-147.590302,,,
729605699.74095,-4.669588,-1.264668,51.506189,0.014313,-0.083496,0.999649,-0.004193,0.001336,0.015794,60.137817,26.030319,-147.590302,,,
729605699.744288,-4.669588,-1.264668,51.506189,0.0168,-0.082047,1.0047,-0.004193,0.001336,0.015794,60.137817,26.030319,-147.590302,,,
729605699.747624,-4.669292,-1.263775,51.509836,0.0168,-0.082047,1.0047,-0.011157,0.009533,0.0097,60.137817,26.030319,-147.590302,,,
729605699.751004,-4.673166,-1.262886,51.511821,0.021729,-0.079376,1.000122,-0.011157,0.009533,0.0097,60.137817,26.030319,-147.590302,,,
729605699.754284,-4.673166,-1.262886,51.511821,0.021729,-0.079376,1.000122,-0.011157,0.009533,0.0097,60.137817,26.030319,-147.590302,,,
729605699.75763,-4.674488,-1.263639,51.512264,0.021729,-0.079376,1.000122,-0.008978,-0.000775,-0.000227,60.137817,26.030319,-147.590302,,,
729605699.760981,-4.674488,-1.265648,51.511751,0.01944,-0.078735,0.994736,-0.008978,-0.000775,-0.000227,60.137817,26.030319,-147.590302,,,
729605699.764326,-4.677747,-1.265648,51.511751,0.01944,-0.078735,0.994736,-0.008978,-0.000775,-0.000227,60.137817,26.030319,-147.590302,,,
729605699.767614,-4.678597,-1.269816,51.50949,0.01944,-0.078735,0.994736,-0.00959,-0.011398,-0.008601,60.137817,26.030319,-147.590302,,,
729605699.770979,-4.678597,-1.269816,51.505894,0.01915,-0.081802,0.996552,-0.00959,-0.011398,-0.008601,60.137817,26.030319,-147.590302,,,
729605699.774272,-4.680649,-1.278343,51.505894,0.01915,-0.081802,0.996552,-0.00959,-0.011398,-0.008601,60.137817,26.030319,-147.590302,,,
729605699.777683,-4.680453,-1.291463,51.50205,0.01915,-0.081802,0.996552,-0.003879,-0.043797,-0.014712,60.137817,26.030319,-147.590302,,,
729605699.781071,-4.681321,-1.307513,51.498296,0.01915,-0.081802,0.996552,-0.003879,-0.043797,-0.014712,59.89798,25.986282,-147.691193,,,
729605699.78432,-4.681321,-1.307513,51.498296,0.016769,-0.088364,0.990799,-0.003879,-0.043797,-0.014712,59.89798,25.986282,-147.691193,,,
729605699.787695,-4.679991,-1.3232,51.495533,0.016769,-0.088364,0.990799,0.004854,-0.057082,-0.009065,59.89798,25.986282,-147.691193,,,
729605699.791044,-4.678181,-1.339781,51.494038,0.016769,-0.088364,0.990799,0.004854,-0.057082,-0.009065,59.89798,25.986282,-147.691193,,,
729605699.794278,-4.678181,-1.339781,51.494038,0.016876,-0.092056,0.996063,0.004854,-0.057082,-0.009065,59.89798,25.986282,-147.691193,,,
729605699.79763,-4.675038,-1.354601,51.493991,0.016876,-0.092056,0.996063,0.013435,-0.056362,-0.001441,59.89798,25.986282,-147.691193,,,
729605699.800952,-4.675038,-1.354601,51.493991,0.016876,-0.092056,0.996063,0.013435,-0.056362,-0.001441,59.89798,25.986282,-147.691193,,,
729605699.804299,-4.670607,-1.370708,51.494088,0.024246,-0.091599,0.997879,0.013435,-0.056362,-0.001441,59.89798,25.986282,-147.691193,,,
729605699.807625,-4.664612,-1.381757,51.494255,0.024246,-0.091599,0.997879,0.0231,-0.036227,-0.003165,59.89798,25.986282,-147.691193,,,
729605699.811006,-4.664612,-1.381757,51.494255,0.024246,-0.091599,0.997879,0.0231,-0.036227,-0.003165,59.89798,25.986282,-147.691193,,,
729605699.814352,-4.657093,-1.390148,51.494802,0.031967,-0.088104,1.002762,0.0231,-0.036227,-0.003165,59.89798,25.986282,-147.691193,,,
729605699.817643,-4.648615,-1.391043,51.495333,0.031967,-0.088104,1.002762,0.031368,-0.005471,2.6e-05,59.89798,25.986282,-147.691193,,,
729605699.820959,-4.648615,-1.391043,51.495333,0.031967,-0.088104,1.002762,0.031368,-0.005471,2.6e-05,59.910095,25.928299,-147.531723,,,
729605699.824285,-4.639781,-1.39046,51.495975,0.034302,-0.084137,1.006653,0.031368,-0.005471,2.6e-05,59.910095,25.928299,-147.531723,,,
729605699.827611,-4.632112,-1.386095,51.497757,0.034302,-0.084137,1.006653,0.024411,0.014209,0.00374,59.910095,25.928299,-147.531723,,,
729605699.830962,-4.632112,-1.386095,51.497757,0.034302,-0.084137,1.006653,0.024411,0.014209,0.00374,59.910095,25.928299,-147.531723,,,
729605699.834307,-4.626143,-1.380436,51.499743,0.033936,-0.084869,0.993973,0.024411,0.014209,0.00374,59.910095,25.928299,-147.531723,,,
729605699.837624,-4.62098,-1.37225,51.501734,0.033936,-0.084869,0.993973,0.017385,0.031834,0.003728,59.910095,25.928299,-147.531723,,,
729605699.841041,-4.62098,-1.37225,51.501734,0.033936,-0.084869,0.993973,0.017385,0.031834,0.003728,59.910095,25.928299,-147.531723,,,
729605699.844275,-4.618155,-1.363701,51.502644,0.033951,-0.081955,0.987427,0.017385,0.031834,0.003728,59.910095,25.928299,-147.531723,,,
729605699.847644,-4.616002,-1.354952,51.502398,0.033951,-0.081955,0.987427,0.007272,0.027115,-0.002352,59.910095,25.928299,-147.531723,,,
729605699.850979,-4.616002,-1.354952,51.502398,0.033951,-0.081955,0.987427,0.007272,0.027115,-0.002352,59.910095,25.928299,-147.531723,,,
729605699.854285,-4.613853,-1.350007,51.501302,0.036026,-0.077499,0.982346,0.007272,0.027115,-0.002352,59.910095,25.928299,-147.531723,,,
729605699.857632,-4.612625,-1.347035,51.4987,0.036026,-0.077499,0.982346,0.005017,0.007144,-0.012689,59.910095,25.928299,-147.531723,,,
729605699.860997,-4.612625,-1.347035,51.4987,0.036026,-0.077499,0.982346,0.005017,0.007144,-0.012689,59.943298,25.777969,-147.495071,,,
729605699.864336,-4.610658,-1.347868,51.494256,0.034195,-0.077744,0.977798,0.005017,0.007144,-0.012689,59.943298,25.777969,-147.495071,,,
729605699.867606,-4.61162,-1.349365,51.488334,0.034195,-0.077744,0.977798,0.004201,-0.008746,-0.024776,59.943298,25.777969,-147.495071,,,
729605699.870999,-4.61162,-1.349365,51.488334,0.034195,-0.077744,0.977798,0.004201,-0.008746,-0.024776,59.943298,25.777969,-147.495071,,,
729605699.874286,-4.611803,-1.354659,51.481072,0.031097,-0.077225,0.974289,0.004201,-0.008746,-0.024776,59.943298,25.777969,-147.495071,,,
729605699.877608,-4.616736,-1.36011,51.473316,0.031097,-0.077225,0.974289,-0.008801,-0.017819,-0.027323,59.943298,25.777969,-147.495071,,,
729605699.880948,-4.616736,-1.36011,51.473316,0.031097,-0.077225,0.974289,-0.008801,-0.017819,-0.027323,59.943298,25.777969,-147.495071,,,
729605699.884292,-4.620838,-1.367688,51.465021,0.03273,-0.075424,0.967834,-0.008801,-0.017819,-0.027323,59.943298,25.777969,-147.495071,,,
729605699.887608,-4.628391,-1.377128,51.456629,0.03273,-0.075424,0.967834,-0.021223,-0.023756,-0.030674,59.943298,25.777969,-147.495071,,,
729605699.89104,-4.628391,-1.377128,51.456629,0.03273,-0.075424,0.967834,-0.021223,-0.023756,-0.030674,59.943298,25.777969,-147.495071,,,
729605699.894284,-4.635741,-1.385688,51.448606,0.034729,-0.074951,0.970856,-0.021223,-0.023756,-0.030674,59.943298,25.777969,-147.495071,,,
729605699.897609,-4.646119,-1.395268,51.440924,0.034729,-0.074951,0.970856,-0.030802,-0.02167,-0.026142,59.943298,25.777969,-147.495071,,,
729605699.900984,-4.646119,-1.395268,51.440924,0.034729,-0.074951,0.970856,-0.030802,-0.02167,-0.026142,59.802368,26.037064,-147.247742,,,
729605699.904318,-4.656046,-1.401505,51.434298,0.031128,-0.07666,0.976837,-0.030802,-0.02167,-0.026142,59.802368,26.037064,-147.247742,,,
729605699.90762,-4.665263,-1.408475,51.429375,0.031128,-0.07666,0.976837,-0.030334,-0.00985,-0.017106,59.802368,26.037064,-147.247742,,,
729605699.910963,-4.665263,-1.408475,51.429375,0.031128,-0.07666,0.976837,-0.030334,-0.00985,-0.017106,59.802368,26.037064,-147.247742,,,
729605699.914375,-4.672799,-1.41053,51.426114,0.027817,-0.080551,0.988876,-0.030334,-0.00985,-0.017106,59.802368,26.037064,-147.247742,,,
729605699.917615,-4.679414,-1.412462,51.423454,0.027817,-0.080551,0.988876,-0.020996,0.005752,-0.010072,59.802368,26.037064,-147.247742,,,
729605699.920963,-4.679414,-1.412462,51.423454,0.027817,-0.080551,0.988876,-0.020996,0.005752,-0.010072,59.802368,26.037064,-147.247742,,,
729605699.92429,-4.683995,-1.412096,51.421857,0.031693,-0.084869,0.992447,-0.020996,0.005752,-0.010072,59.802368,26.037064,-147.247742,,,
729605699.927619,-4.687445,-1.413795,51.420636,0.031693,-0.084869,0.992447,-0.012922,0.00679,-0.001912,59.802368,26.037064,-147.247742,,,
729605699.930963,-4.687445,-1.413795,51.420636,0.031693,-0.084869,0.992447,-0.012922,0.00679,-0.001912,59.802368,26.037064,-147.247742,,,
729605699.934283,-4.690865,-1.41082,51.420434,0.034439,-0.08728,0.991516,-0.012922,0.00679,-0.001912,59.802368,26.037064,-147.247742,,,
729605699.937615,-4.694865,-1.408202,51.419654,0.034439,-0.08728,0.991516,-0.014717,0.0263,-0.003367,59.802368,26.037064,-147.247742,,,
729605699.941037,-4.694865,-1.408202,51.419654,0.034439,-0.08728,0.991516,-0.014717,0.0263,-0.003367,59.802368,26.037064,-147.247742,,,
729605699.944275,-4.701436,-1.401567,51.417432,0.040161,-0.081268,0.990997,-0.014717,0.0263,-0.003367,59.78212,25.961731,-147.398529,,,
729605699.947616,-4.710516,-1.397205,51.41328,0.040161,-0.081268,0.990997,-0.034287,0.028159,-0.016648,59.78212,25.961731,-147.398529,,,
729605699.95096,-4.710516,-1.397205,51.41328,0.040161,-0.081268,0.990997,-0.034287,0.028159,-0.016648,59.78212,25.961731,-147.398529,,,
729605699.95434,-4.722361,-1.390998,51.407168,0.041687,-0.075195,0.980743,-0.034287,0.028159,-0.016648,59.78212,25.961731,-147.398529,,,
729605699.957607,-4.734934,-1.386666,51.398802,0.041687,-0.075195,0.980743,-0.048623,0.02724,-0.029102,59.78212,25.961731,-147.398529,,,
729605699.960958,-4.734934,-1.386666,51.398802,0.041687,-0.075195,0.980743,-0.048623,0.02724,-0.029102,59.78212,25.961731,-147.398529,,,
729605699.964392,-4.749638,-1.380525,51.389459,0.034927,-0.075821,0.984863,-0.048623,0.02724,-0.029102,59.78212,25.961731,-147.398529,,,
729605699.967635,-4.763656,-1.378674,51.379642,0.034927,-0.075821,0.984863,-0.054138,0.016621,-0.03476,59.78212,25.961731,-147.398529,,,
729605699.970977,-4.763656,-1.378674,51.379642,0.034927,-0.075821,0.984863,-0.054138,0.016621,-0.03476,59.78212,25.961731,-147.398529,,,
729605699.974299,-4.77833,-1.378003,51.370047,0.022446,-0.080063,0.983459,-0.054138,0.016621,-0.03476,59.78212,25.961731,-147.398529,,,
729605699.977614,-4.791048,-1.381626,51.360895,0.022446,-0.080063,0.983459,-0.045643,-0.004208,-0.031207,59.78212,25.961731,-147.398529,,,
729605699.981051,-4.791048,-1.381626,51.360895,0.022446,-0.080063,0.983459,-0.045643,-0.004208,-0.031207,59.78212,25.961731,-147.398529,,,
729605699.984303,-4.80365,-1.383921,51.352974,0.015701,-0.084244,0.98616,-0.045643,-0.004208,-0.031207,59.861053,26.17067,-147.571198,,,
729605699.987615,-4.814515,-1.386792,51.346367,0.015701,-0.084244,0.98616,-0.041363,-0.001148,-0.02267,59.861053,26.17067,-147.571198,,,
729605699.990963,-4.814515,-1.386792,51.346367,0.015701,-0.084244,0.98616,-0.041363,-0.001148,-0.02267,59.861053,26.17067,-147.571198,,,
729605699.994378,-4.824949,-1.388414,51.340485,0.016632,-0.082855,0.994659,-0.041363,-0.001148,-0.02267,59.861053,26.17067,-147.571198,,,
729605699.997604,-4.833989,-1.3905,51.334926,0.016632,-0.082855,0.994659,-0.03036,-0.000581,-0.017569,59.861053,26.17067,-147.571198,,,
729605700.000942,-4.833989,-1.3905,51.334926,0.016632,-0.082855,0.994659,-0.03036,-0.000581,-0.017569,59.861053,26.17067,-147.571198,,,
729605700.004377,-4.841834,-1.391128,51.330576,0.016495,-0.082123,0.992661,-0.03036,-0.000581,-0.017569,59.861053,26.17067,-147.571198,,,
729605700.007613,-4.848575,-1.391971,51.327361,0.016495,-0.082123,0.992661,-0.020584,0.009484,-0.009569,59.861053,26.17067,-147.571198,,,
729605700.010912,-4.848575,-1.391971,51.327361,0.016495,-0.082123,0.992661,-0.020584,0.009484,-0.009569,59.861053,26.17067,-147.571198,,,
729605700.014256,-4.853866,-1.389376,51.325705,0.011993,-0.082504,0.996735,-0.020584,0.009484,-0.009569,59.861053,26.17067,-147.571198,,,
729605700.017664,-4.858452,-1.389115,51.325507,0.011993,-0.082504,0.996735,-0.013283,0.013722,0.001688,59.861053,26.17067,-147.571198,,,
729605700.021002,-4.858452,-1.389115,51.325507,0.011993,-0.082504,0.996735,-0.013283,0.013722,0.001688,59.861053,26.17067,-147.571198,,,
729605700.024293,-4.862534,-1.3877,51.326576,0.014145,-0.085678,0.99379,-0.013283,0.013722,0.001688,60.03479,26.120163,-147.506638,,,
729605700.027669,-4.865434,-1.391647,51.327226,0.014145,-0.085678,0.99379,-0.016561,0.002061,0.001859,60.03479,26.120163,-147.506638,,,
729605700.030988,-4.865434,-1.391647,51.327226,0.014145,-0.085678,0.99379,-0.016561,0.002061,0.001859,60.03479,26.120163,-147.506638,,,
729605700.034318,-4.869282,-1.391985,51.327642,0.017075,-0.081894,0.99173,-0.016561,0.002061,0.001859,60.03479,26.120163,-147.506638,,,
729605700.037609,-4.870867,-1.395629,51.326924,0.017075,-0.081894,0.99173,-0.010524,0.006695,-0.003961,60.03479,26.120163,-147.506638,,,
729605700.040944,-4.870867,-1.395629,51.326924,0.017075,-0.081894,0.99173,-0.010524,0.006695,-0.003961,60.03479,26.120163,-147.506638,,,
729605700.044389,-4.874846,-1.394925,51.325602,0.015259,-0.08313,1.0009,-0.010524,0.006695,-0.003961,60.03479,26.120163,-147.506638,,,
729605700.047622,-4.878593,-1.395647,51.323398,0.015259,-0.08313,1.0009,-0.017389,0.006604,-0.008104,60.03479,26.120163,-147.506638,,,
729605700.050973,-4.878593,-1.395647,51.323398,0.015259,-0.08313,1.0009,-0.017389,0.006604,-0.008104,60.03479,26.120163,-147.506638,,,
729605700.054301,-4.884882,-1.394305,51.321171,0.011185,-0.08638,0.995209,-0.017389,0.006604,-0.008104,60.03479,26.120163,-147.506638,,,
729605700.057614,-4.89185,-1.391282,51.319713,0.011185,-0.08638,0.995209,-0.02713,0.010642,-0.005156,60.03479,26.120163,-147.506638,,,
729605700.060982,-4.89185,-1.391282,51.319713,0.011185,-0.08638,0.995209,-0.02713,0.010642,-0.005156,60.03479,26.120163,-147.506638,,,
729605700.064281,-4.899558,-1.389345,51.318516,0.006516,-0.090195,0.996445,-0.02713,0.010642,-0.005156,59.847672,26.108383,-147.761871,,,
729605700.067652,-4.906501,-1.38579,51.31768,0.006516,-0.090195,0.996445,-0.022339,0.00672,-0.004261,59.847672,26.108383,-147.761871,,,
729605700.070947,-4.906501,-1.38579,51.31768,0.006516,-0.090195,0.996445,-0.022339,0.00672,-0.004261,59.847672,26.108383,-147.761871,,,
729605700.074274,-4.912786,-1.386247,51.316981,0.008316,-0.094498,1.00029,-0.022339,0.00672,-0.004261,59.847672,26.108383,-147.761871,,,
729605700.077607,-4.917727,-1.387436,51.317258,0.008316,-0.094498,1.00029,-0.018511,-0.00792,0.000961,59.847672,26.108383,-147.761871,,,
729605700.081045,-4.917727,-1.387436,51.317258,0.008316,-0.094498,1.00029,-0.018511,-0.00792,0.000961,59.847672,26.108383,-147.761871,,,
729605700.084346,-4.923217,-1.391079,51.318756,0.00351,-0.093765,0.992691,-0.018511,-0.00792,0.000961,59.847672,26.108383,-147.761871,,,
729605700.087636,-4.927846,-1.391494,51.321319,0.00351,-0.093765,0.992691,-0.016133,-0.00743,0.008796,59.847672,26.108383,-147.761871,,,
729605700.090975,-4.927846,-1.391494,51.321319,0.00351,-0.093765,0.992691,-0.016133,-0.00743,0.008796,59.847672,26.108383,-147.761871,,,
729605700.094271,-4.932332,-1.39325,51.324151,0.004028,-0.090973,0.99794,-0.016133,-0.00743,0.008796,59.847672,26.108383,-147.761871,,,
729605700.097625,-4.935881,-1.391764,51.327016,0.004028,-0.090973,0.99794,-0.012274,-0.002827,0.00851,59.847672,26.108383,-147.761871,,,
729605700.100948,-4.935881,-1.391764,51.327016,0.004028,-0.090973,0.99794,-0.012274,-0.002827,0.00851,59.847672,26.108383,-147.761871,,,
729605700.104452,-4.939676,-1.39349,51.329391,0.013245,-0.08606,0.997864,-0.012274,-0.002827,0.00851,59.847672,26.108383,-147.761871,,,
729605700.107603,-4.94322,-1.392733,51.33217,0.013245,-0.08606,0.997864,-0.012987,-0.001219,0.007941,59.750519,26.166962,-147.344421,,,
729605700.110948,-4.94322,-1.392733,51.33217,0.013245,-0.08606,0.997864,-0.012987,-0.001219,0.007941,59.750519,26.166962,-147.344421,,,
729605700.11428,-4.94745,-1.391554,51.334839,0.020126,-0.087143,0.993927,-0.012987,-0.001219,0.007941,59.750519,26.166962,-147.344421,,,
729605700.117618,-4.951549,-1.386184,51.338118,0.020126,-0.087143,0.993927,-0.016388,0.017453,0.0107,59.750519,26.166962,-147.344421,,,
729605700.12095,-4.951549,-1.386184,51.338118,0.020126,-0.087143,0.993927,-0.016388,0.017453,0.0107,59.750519,26.166962,-147.344421,,,
729605700.124285,-4.957201,-1.381622,51.341864,0.024673,-0.087875,0.992477,-0.016388,0.017453,0.0107,59.750519,26.166962,-147.344421,,,
729605700.127614,-4.963024,-1.374759,51.34612,0.024673,-0.087875,0.992477,-0.019423,0.016544,0.013409,59.750519,26.166962,-147.344421,,,
729605700.131042,-4.963024,-1.374759,51.34612,0.024673,-0.087875,0.992477,-0.019423,0.016544,0.013409,59.750519,26.166962,-147.344421,,,
729605700.134303,-4.969805,-1.369664,51.350664,0.028397,-0.086304,0.989166,-0.019423,0.016544,0.013409,59.750519,26.166962,-147.344421,,,
729605700.137616,-4.977346,-1.360681,51.355165,0.028397,-0.086304,0.989166,-0.025424,0.020329,0.012204,59.750519,26.166962,-147.344421,,,
729605700.140989,-4.977346,-1.360681,51.355165,0.028397,-0.086304,0.989166,-0.025424,0.020329,0.012204,59.750519,26.166962,-147.344421,,,
729605700.144281,-4.984629,-1.355255,51.358156,0.034729,-0.084717,0.991318,-0.025424,0.020329,0.012204,59.750519,26.166962,-147.344421,,,
729605700.147625,-4.992624,-1.346045,51.360012,0.034729,-0.084717,0.991318,-0.023239,0.022685,0.004223,59.847733,26.447525,-147.665298,,,
729605700.151028,-4.992624,-1.346045,51.360012,0.034729,-0.084717,0.991318,-0.023239,0.022685,0.004223,59.847733,26.447525,-147.665298,,,
729605700.154372,-4.999472,-1.340741,51.360235,0.038071,-0.081802,0.993469,-0.023239,0.022685,0.004223,59.847733,26.447525,-147.665298,,,
729605700.157612,-5.007273,-1.331984,51.360895,0.038071,-0.081802,0.993469,-0.018105,0.019572,-0.000609,59.847733,26.447525,-147.665298,,,
729605700.160968,-5.007273,-1.331984,51.360895,0.038071,-0.081802,0.993469,-0.018105,0.019572,-0.000609,59.847733,26.447525,-147.665298,,,
729605700.164282,-5.012919,-1.327689,51.361431,0.03273,-0.083496,0.991196,-0.018105,0.019572,-0.000609,59.847733,26.447525,-147.665298,,,
729605700.167608,-5.019803,-1.318817,51.362269,0.03273,-0.083496,0.991196,-0.019588,0.017072,0.001072,59.847733,26.447525,-147.665298,,,
729605700.170963,-5.019803,-1.318817,51.362269,0.03273,-0.083496,0.991196,-0.019588,0.017072,0.001072,59.847733,26.447525,-147.665298,,,
729605700.174287,-5.024898,-1.314821,51.363365,0.032028,-0.088379,0.993301,-0.019588,0.017072,0.001072,59.847733,26.447525,-147.665298,,,
729605700.177615,-5.028621,-1.307719,51.365008,0.032028,-0.088379,0.993301,-0.011836,0.015695,0.001177,59.847733,26.447525,-147.665298,,,
729605700.181007,-5.028621,-1.307719,51.365008,0.032028,-0.088379,0.993301,-0.011836,0.015695,0.001177,59.847733,26.447525,-147.665298,,,
729605700.184286,-5.030977,-1.305523,51.366186,0.036896,-0.091736,0.998444,-0.011836,0.015695,0.001177,59.847733,26.447525,-147.665298,,,
729605700.187606,-5.03289,-1.303311,51.366764,0.036896,-0.091736,0.998444,-0.007035,0.001903,-0.001372,60.0578,26.182495,-147.233414,,,
729605700.190939,-5.03289,-1.303311,51.366764,0.036896,-0.091736,0.998444,-0.007035,0.001903,-0.001372,60.0578,26.182495,-147.233414,,,
729605700.194372,-5.036214,-1.303563,51.366322,0.037018,-0.091537,0.99176,-0.007035,0.001903,-0.001372,60.0578,26.182495,-147.233414,,,
729605700.197611,-5.040861,-1.303699,51.365298,0.037018,-0.091537,0.99176,-0.017906,0.002685,-0.006776,60.0578,26.182495,-147.233414,,,
729605700.200956,-5.040861,-1.303699,51.365298,0.037018,-0.091537,0.99176,-0.017906,0.002685,-0.006776,60.0578,26.182495,-147.233414,,,
729605700.204298,-5.046344,-1.303943,51.362897,0.031616,-0.091217,0.994034,-0.017906,0.002685,-0.006776,60.0578,26.182495,-147.233414,,,
729605700.207613,-5.052001,-1.305949,51.359455,0.031616,-0.091217,0.994034,-0.01934,-0.001788,-0.013274,60.0578,26.182495,-147.233414,,,
729605700.210957,-5.052001,-1.305949,51.359455,0.031616,-0.091217,0.994034,-0.01934,-0.001788,-0.013274,60.0578,26.182495,-147.233414,,,
729605700.214298,-5.057243,-1.30842,51.356455,0.024292,-0.093307,0.996063,-0.01934,-0.001788,-0.013274,60.0578,26.182495,-147.233414,,,
729605700.217615,-5.061506,-1.313333,51.354404,0.024292,-0.093307,0.996063,-0.013923,-0.008122,-0.006511,60.0578,26.182495,-147.233414,,,
729605700.221021,-5.061506,-1.313333,51.354404,0.024292,-0.093307,0.996063,-0.013923,-0.008122,-0.006511,60.0578,26.182495,-147.233414,,,
729605700.224274,-5.064863,-1.316108,51.353868,0.020004,-0.095764,1.00032,-0.013923,-0.008122,-0.006511,60.0578,26.182495,-147.233414,,,
729605700.22761,-5.066324,-1.321661,51.354204,0.020004,-0.095764,1.00032,-0.006555,-0.003518,6.7e-05,59.969604,26.270462,-147.496384,,,
