Time (sec),Pitch (deg),Roll (deg),Yaw(deg),X-Acceleration (g),Y-Acceleration (g),Z-Acceleration (g),Pitch Rate (deg/sec),Roll Rate (deg/sec),Yaw Rate (deg/sec),Magnetic Field in X direction (uT),Magnetic Field in Y direction (uT),Magnetic Field in Z Direction (uT),Latitude (deg),Longitude (deg),Altitude (m)
729608352.74702,1.217515,-0.662269,55.34269,-0.001434,0.006088,0.989395,0.066718,-0.013322,0.00933,63.204544,22.220749,-147.447708,,,
729608352.750344,1.232855,-0.670244,55.347452,-0.008301,0.002075,0.975815,0.056563,-0.034639,0.015807,63.204544,22.220749,-147.447708,,,
729608352.753687,1.232855,-0.670244,55.347452,-0.008301,0.002075,0.975815,0.056563,-0.034639,0.015807,63.204544,22.220749,-147.447708,,,
729608352.757027,1.247819,-0.68232,55.352852,-0.008301,0.002075,0.975815,0.056563,-0.034639,0.015807,63.011703,22.190262,-147.513123,,,
729608352.76035,1.25988,-0.696763,55.359033,-0.008102,0.002808,0.965454,0.050189,-0.062333,0.022628,63.011703,22.190262,-147.513123,,,
729608352.763708,1.25988,-0.696763,55.359033,-0.008102,0.002808,0.965454,0.050189,-0.062333,0.022628,63.011703,22.190262,-147.513123,,,
729608352.76701,1.273913,-0.716395,55.365905,-0.008102,0.002808,0.965454,0.050189,-0.062333,0.022628,63.011703,22.190262,-147.513123,,,
729608352.770361,1.283348,-0.736679,55.372912,-0.001434,0.00589,0.962692,0.039396,-0.080539,0.021035,63.011703,22.190262,-147.513123,,,
729608352.773694,1.283348,-0.736679,55.372912,-0.001434,0.00589,0.962692,0.039396,-0.080539,0.021035,63.011703,22.190262,-147.513123,,,
729608352.777023,1.295679,-0.760939,55.379437,-0.001434,0.00589,0.962692,0.039396,-0.080539,0.021035,63.011703,22.190262,-147.513123,,,
729608352.780165,1.295679,-0.760939,55.379437,-0.001434,0.00589,0.962692,0.039396,-0.080539,0.021035,63.011703,22.190262,-147.513123,,,
729608352.783703,1.304204,-0.784256,55.385003,0.009766,0.008408,0.961594,0.034259,-0.08301,0.015875,63.011703,22.190262,-147.513123,,,
729608352.787006,1.313293,-0.80877,55.3899,0.009766,0.008408,0.961594,0.034259,-0.08301,0.015875,63.011703,22.190262,-147.513123,,,
729608352.790354,1.318271,-0.830748,55.393224,0.018692,0.012436,0.959915,0.021384,-0.073058,0.00601,63.011703,22.190262,-147.513123,,,
729608352.793675,1.318271,-0.830748,55.393224,0.018692,0.012436,0.959915,0.021384,-0.073058,0.00601,63.011703,22.190262,-147.513123,,,
729608352.797029,1.323053,-0.851618,55.395037,0.018692,0.012436,0.959915,0.021384,-0.073058,0.00601,62.858429,22.162918,-147.966064,,,
729608352.800364,1.322946,-0.869304,55.396057,0.02858,0.017258,0.95961,0.001219,-0.055544,-0.000558,62.858429,22.162918,-147.966064,,,
729608352.803682,1.322946,-0.869304,55.396057,0.02858,0.017258,0.95961,0.001219,-0.055544,-0.000558,62.858429,22.162918,-147.966064,,,
729608352.80705,1.322403,-0.885858,55.39669,0.02858,0.017258,0.95961,0.001219,-0.055544,-0.000558,62.858429,22.162918,-147.966064,,,
729608352.810437,1.318019,-0.898778,55.397102,0.034729,0.016525,0.956726,-0.011614,-0.038415,0.00053,62.858429,22.162918,-147.966064,,,
729608352.813663,1.318019,-0.898778,55.397102,0.034729,0.016525,0.956726,-0.011614,-0.038415,0.00053,62.858429,22.162918,-147.966064,,,
729608352.817017,1.313444,-0.91032,55.397281,0.034729,0.016525,0.956726,-0.011614,-0.038415,0.00053,62.858429,22.162918,-147.966064,,,
729608352.82038,1.306911,-0.918495,55.396557,0.040085,0.015213,0.961945,-0.013892,-0.02817,-0.007692,62.858429,22.162918,-147.966064,,,
729608352.8237,1.306911,-0.918495,55.396557,0.040085,0.015213,0.961945,-0.013892,-0.02817,-0.007692,62.858429,22.162918,-147.966064,,,
729608352.827004,1.30258,-0.926568,55.394165,0.040085,0.015213,0.961945,-0.013892,-0.02817,-0.007692,62.858429,22.162918,-147.966064,,,
729608352.830432,1.30258,-0.931292,55.389409,0.050629,0.017197,0.9655,-0.015939,-0.023308,-0.025961,62.858429,22.162918,-147.966064,,,
729608352.833736,1.296028,-0.931292,55.389409,0.050629,0.017197,0.9655,-0.015939,-0.023308,-0.025961,62.858429,22.162918,-147.966064,,,
729608352.837021,1.291882,-0.93824,55.382037,0.050629,0.017197,0.9655,-0.015939,-0.023308,-0.025961,62.858429,22.162918,-147.966064,,,
729608352.840337,1.291882,-0.93824,55.382037,0.050629,0.017197,0.9655,-0.015939,-0.023308,-0.025961,62.806152,21.928604,-147.704025,,,
729608352.84368,1.285959,-0.940628,55.37245,0.053909,0.019821,0.963928,-0.012133,-0.013528,-0.038054,62.806152,21.928604,-147.704025,,,
729608352.847066,1.28333,-0.945253,55.361188,0.053909,0.019821,0.963928,-0.012133,-0.013528,-0.038054,62.806152,21.928604,-147.704025,,,
729608352.850326,1.28333,-0.945253,55.361188,0.053909,0.019821,0.963928,-0.005991,-0.010929,-0.049994,62.806152,21.928604,-147.704025,,,
729608352.853705,1.279378,-0.945961,55.347821,0.050369,0.020798,0.966751,-0.005991,-0.010929,-0.049994,62.806152,21.928604,-147.704025,,,
729608352.857026,1.278198,-0.950055,55.33315,0.050369,0.020798,0.966751,-0.005991,-0.010929,-0.049994,62.806152,21.928604,-147.704025,,,
729608352.860339,1.278198,-0.950055,55.33315,0.050369,0.020798,0.966751,-0.005991,-0.010929,-0.049994,62.806152,21.928604,-147.704025,,,
729608352.86367,1.275007,-0.953787,55.317848,0.048111,0.018295,0.962234,-0.011981,-0.012563,-0.058912,62.806152,21.928604,-147.704025,,,
729608352.867002,1.270747,-0.958516,55.302241,0.048111,0.018295,0.962234,-0.011981,-0.012563,-0.058912,62.806152,21.928604,-147.704025,,,
729608352.87034,1.270747,-0.958516,55.302241,0.048111,0.018295,0.962234,-0.011981,-0.012563,-0.058912,62.806152,21.928604,-147.704025,,,
729608352.873701,1.262487,-0.962648,55.286753,0.036133,0.019272,0.955444,-0.031602,-0.012065,-0.053241,62.806152,21.928604,-147.704025,,,
729608352.877019,1.2519,-0.966263,55.271443,0.036133,0.019272,0.955444,-0.031602,-0.012065,-0.053241,62.806152,21.928604,-147.704025,,,
729608352.880335,1.2519,-0.966263,55.271443,0.036133,0.019272,0.955444,-0.053033,-0.011939,-0.056149,62.572128,21.93129,-147.824829,,,
729608352.883685,1.238572,-0.970614,55.256144,0.02919,0.028259,0.957321,-0.053033,-0.011939,-0.056149,62.572128,21.93129,-147.824829,,,
729608352.887066,1.223313,-0.974384,55.23986,0.02919,0.028259,0.957321,-0.053033,-0.011939,-0.056149,62.572128,21.93129,-147.824829,,,
729608352.890405,1.223313,-0.974384,55.23986,0.02919,0.028259,0.957321,-0.053033,-0.011939,-0.056149,62.572128,21.93129,-147.824829,,,
729608352.893694,1.20632,-0.979139,55.221871,0.029922,0.035706,0.963501,-0.061843,-0.010832,-0.067958,62.572128,21.93129,-147.824829,,,
729608352.897001,1.189422,-0.982065,55.201872,0.029922,0.035706,0.963501,-0.061843,-0.010832,-0.067958,62.572128,21.93129,-147.824829,,,
729608352.90041,1.189422,-0.982065,55.201872,0.029922,0.035706,0.963501,-0.054671,0.003608,-0.079075,62.572128,21.93129,-147.824829,,,
729608352.903678,1.172858,-0.98431,55.179942,0.028824,0.035629,0.978989,-0.054671,0.003608,-0.079075,62.572128,21.93129,-147.824829,,,
729608352.907017,1.158137,-0.982576,55.157229,0.028824,0.035629,0.978989,-0.054671,0.003608,-0.079075,62.572128,21.93129,-147.824829,,,
729608352.910431,1.158137,-0.982576,55.157229,0.028824,0.035629,0.978989,-0.054671,0.003608,-0.079075,62.572128,21.93129,-147.824829,,,
729608352.913681,1.145897,-0.978801,55.134475,0.023849,0.028275,0.997726,-0.032996,0.028895,-0.076277,62.572128,21.93129,-147.824829,,,
729608352.917017,1.136183,-0.969431,55.112813,0.023849,0.028275,0.997726,-0.032996,0.028895,-0.076277,62.572128,21.93129,-147.824829,,,
729608352.920333,1.136183,-0.969431,55.112813,0.023849,0.028275,0.997726,-0.022897,0.058321,-0.0609,62.993683,21.801422,-147.924957,,,
729608352.923766,1.128732,-0.958802,55.093466,0.01503,0.01857,1.00705,-0.022897,0.058321,-0.0609,62.993683,21.801422,-147.924957,,,
729608352.926992,1.123031,-0.942526,55.076487,0.01503,0.01857,1.00705,-0.022897,0.058321,-0.0609,62.993683,21.801422,-147.924957,,,
729608352.930342,1.123031,-0.942526,55.076487,0.01503,0.01857,1.00705,-0.022897,0.058321,-0.0609,62.993683,21.801422,-147.924957,,,
729608352.933685,1.118284,-0.927108,55.06202,0.000412,0.016632,1.005829,-0.016366,0.065943,-0.045028,62.993683,21.801422,-147.924957,,,
729608352.937059,1.113213,-0.908635,55.049547,0.000412,0.016632,1.005829,-0.016366,0.065943,-0.045028,62.993683,21.801422,-147.924957,,,
729608352.940401,1.113213,-0.908635,55.049547,0.000412,0.016632,1.005829,-0.016366,0.065943,-0.045028,62.993683,21.801422,-147.924957,,,
729608352.943681,1.108263,-0.893078,55.039411,-0.012192,0.020187,1.003937,-0.016363,0.064111,-0.029139,62.993683,21.801422,-147.924957,,,
729608352.947021,1.10393,-0.875045,55.031684,-0.012192,0.020187,1.003937,-0.016363,0.064111,-0.029139,62.993683,21.801422,-147.924957,,,
729608352.95042,1.10393,-0.875045,55.031684,-0.012192,0.020187,1.003937,-0.016363,0.064111,-0.029139,62.993683,21.801422,-147.924957,,,
729608352.953671,1.099858,-0.859766,55.025853,-0.017197,0.026306,1.009293,-0.009283,0.064614,-0.020135,62.993683,21.801422,-147.924957,,,
729608352.957009,1.0973,-0.84267,55.021176,-0.017197,0.026306,1.009293,-0.009283,0.064614,-0.020135,62.993683,21.801422,-147.924957,,,
729608352.960434,1.0973,-0.84267,55.021176,-0.017197,0.026306,1.009293,-0.009283,0.064614,-0.020135,62.879425,21.949615,-147.775284,,,
729608352.963715,1.097769,-0.829365,55.017596,-0.016129,0.025909,1.013992,0.001856,0.054791,-0.010125,62.879425,21.949615,-147.775284,,,
729608352.967,1.098958,-0.815632,55.015095,-0.016129,0.025909,1.013992,0.001856,0.054791,-0.010125,62.879425,21.949615,-147.775284,,,
729608352.970424,1.098958,-0.815632,55.015095,-0.016129,0.025909,1.013992,0.001856,0.054791,-0.010125,62.879425,21.949615,-147.775284,,,
729608352.973684,1.102874,-0.806202,55.012932,-0.015427,0.025955,1.012589,0.008765,0.038964,-0.007349,62.879425,21.949615,-147.775284,,,
729608352.976999,1.104633,-0.796294,55.010548,-0.015427,0.025955,1.012589,0.008765,0.038964,-0.007349,62.879425,21.949615,-147.775284,,,
729608352.980358,1.104633,-0.796294,55.010548,-0.015427,0.025955,1.012589,0.008765,0.038964,-0.007349,62.879425,21.949615,-147.775284,,,
729608352.983676,1.108869,-0.791154,55.008913,-0.012573,0.02861,1.009155,0.002286,0.023101,-0.005333,62.879425,21.949615,-147.775284,,,
729608352.987003,1.108487,-0.785882,55.007636,-0.012573,0.02861,1.009155,0.002286,0.023101,-0.005333,62.879425,21.949615,-147.775284,,,
729608352.990476,1.108487,-0.785882,55.007636,-0.012573,0.02861,1.009155,0.002286,0.023101,-0.005333,62.879425,21.949615,-147.775284,,,
729608352.993653,1.108164,-0.785681,55.006561,-0.011932,0.032318,1.002914,-0.007878,0.003324,-0.004639,62.879425,21.949615,-147.775284,,,
729608352.997004,1.105514,-0.785676,55.006124,-0.011932,0.032318,1.002914,-0.007878,0.003324,-0.004639,62.879425,21.949615,-147.775284,,,
729608353.000368,1.105514,-0.785676,55.006124,-0.011932,0.032318,1.002914,-0.007878,0.003324,-0.004639,62.879425,21.949615,-147.775284,,,
729608353.003729,1.103236,-0.78924,55.006067,-0.012711,0.02858,1.004211,-0.007308,-0.009977,-0.002034,62.805237,22.143799,-147.725906,,,
729608353.006994,1.101303,-0.793332,55.006179,-0.012711,0.02858,1.004211,-0.007308,-0.009977,-0.002034,62.805237,22.143799,-147.725906,,,
729608353.010354,1.101303,-0.793332,55.006179,-0.012711,0.02858,1.004211,-0.007308,-0.009977,-0.002034,62.805237,22.143799,-147.725906,,,
729608353.013675,1.099792,-0.795311,55.006407,-0.007782,0.022171,1.014191,-0.000193,-0.006987,0.000204,62.805237,22.143799,-147.725906,,,
729608353.017004,1.099944,-0.797304,55.006979,-0.007782,0.022171,1.014191,-0.000193,-0.006987,0.000204,62.805237,22.143799,-147.725906,,,
729608353.020333,1.099944,-0.797304,55.006979,-0.007782,0.022171,1.014191,-0.000193,-0.006987,0.000204,62.805237,22.143799,-147.725906,,,
729608353.023686,1.101877,-0.790547,55.008726,-0.00563,0.014252,1.03093,0.017763,0.013916,0.012025,62.805237,22.143799,-147.725906,,,
729608353.027003,1.107017,-0.785913,55.012643,-0.00563,0.014252,1.03093,0.017763,0.013916,0.012025,62.805237,22.143799,-147.725906,,,
729608353.030425,1.107017,-0.785913,55.012643,-0.00563,0.014252,1.03093,0.017763,0.013916,0.012025,62.805237,22.143799,-147.725906,,,
729608353.033679,1.117329,-0.768294,55.018628,-0.003052,0.002151,1.044724,0.047149,0.050283,0.025103,62.805237,22.143799,-147.725906,,,
729608353.037012,1.131766,-0.753793,55.027199,-0.003052,0.002151,1.044724,0.047149,0.050283,0.025103,62.805237,22.143799,-147.725906,,,
729608353.040358,1.131766,-0.753793,55.027199,-0.003052,0.002151,1.044724,0.047149,0.050283,0.025103,62.805237,22.143799,-147.725906,,,
729608353.04374,1.152728,-0.726553,55.036734,0.00145,-0.004532,1.051254,0.081748,0.081766,0.03152,62.845291,21.939774,-147.914017,,,
729608353.047001,1.175441,-0.70305,55.047101,0.00145,-0.004532,1.051254,0.081748,0.081766,0.03152,62.845291,21.939774,-147.914017,,,
729608353.050352,1.175441,-0.70305,55.047101,0.00145,-0.004532,1.051254,0.081748,0.081766,0.03152,62.845291,21.939774,-147.914017,,,
729608353.053687,1.200883,-0.669166,55.058038,0.008713,-0.005371,1.040039,0.085822,0.110078,0.035234,62.845291,21.939774,-147.914017,,,
729608353.057058,1.22473,-0.637439,55.068877,0.008713,-0.005371,1.040039,0.085822,0.110078,0.035234,62.845291,21.939774,-147.914017,,,
729608353.060334,1.22473,-0.637439,55.068877,0.008713,-0.005371,1.040039,0.085822,0.110078,0.035234,62.845291,21.939774,-147.914017,,,
729608353.063682,1.247162,-0.59916,55.079983,0.013672,0.001129,1.020187,0.070383,0.122116,0.039873,62.845291,21.939774,-147.914017,,,
729608353.067009,1.266586,-0.565061,55.09174,0.013672,0.001129,1.020187,0.070383,0.122116,0.039873,62.845291,21.939774,-147.914017,,,
729608353.070409,1.266586,-0.565061,55.09174,0.013672,0.001129,1.020187,0.070383,0.122116,0.039873,62.845291,21.939774,-147.914017,,,
729608353.073715,1.284049,-0.529733,55.103659,0.015045,0.009659,0.998871,0.04786,0.104714,0.041127,62.845291,21.939774,-147.914017,,,
729608353.077045,1.295904,-0.502005,55.115737,0.015045,0.009659,0.998871,0.04786,0.104714,0.041127,62.845291,21.939774,-147.914017,,,
729608353.080363,1.295904,-0.502005,55.115737,0.015045,0.009659,0.998871,0.04786,0.104714,0.041127,62.845291,21.939774,-147.914017,,,
729608353.083682,1.303079,-0.476128,55.127131,0.008423,0.014816,0.978729,0.005858,0.064561,0.035368,63.164398,21.806274,-147.8918,,,
729608353.087011,1.302748,-0.460366,55.137153,0.008423,0.014816,0.978729,0.005858,0.064561,0.035368,63.164398,21.806274,-147.8918,,,
729608353.090345,1.302748,-0.460366,55.137153,0.008423,0.014816,0.978729,0.005858,0.064561,0.035368,63.164398,21.806274,-147.8918,,,
729608353.093685,1.297461,-0.448083,55.145647,0.010468,0.019211,0.967209,-0.029492,0.015197,0.024271,63.164398,21.806274,-147.8918,,,
729608353.09701,1.287425,-0.446419,55.152588,0.010468,0.019211,0.967209,-0.029492,0.015197,0.024271,63.164398,21.806274,-147.8918,,,
729608353.100342,1.287425,-0.446419,55.152588,0.010468,0.019211,0.967209,-0.029492,0.015197,0.024271,63.164398,21.806274,-147.8918,,,
729608353.103694,1.272903,-0.449249,55.158268,0.014694,0.019989,0.970688,-0.052012,-0.035488,0.018306,63.164398,21.806274,-147.8918,,,
729608353.107006,1.257063,-0.46224,55.163844,0.014694,0.019989,0.970688,-0.052012,-0.035488,0.018306,63.164398,21.806274,-147.8918,,,
729608353.110438,1.257063,-0.46224,55.163844,0.014694,0.019989,0.970688,-0.052012,-0.035488,0.018306,63.164398,21.806274,-147.8918,,,
729608353.113683,1.237023,-0.477868,55.168698,0.017639,0.013184,0.982224,-0.061069,-0.071232,0.011212,63.164398,21.806274,-147.8918,,,
729608353.117011,1.219148,-0.499177,55.1713,0.017639,0.013184,0.982224,-0.061069,-0.071232,0.011212,63.164398,21.806274,-147.8918,,,
729608353.120347,1.219148,-0.499177,55.1713,0.017639,0.013184,0.982224,-0.061069,-0.071232,0.011212,63.164398,21.806274,-147.8918,,,
729608353.123667,1.196338,-0.520431,55.170282,0.02916,0.012924,0.991409,-0.065724,-0.080316,-0.012307,63.065369,21.909744,-147.553223,,,
729608353.127045,1.176892,-0.544236,55.165998,0.02916,0.012924,0.991409,-0.065724,-0.080316,-0.012307,63.065369,21.909744,-147.553223,,,
729608353.130351,1.176892,-0.544236,55.165998,0.02916,0.012924,0.991409,-0.065724,-0.080316,-0.012307,63.065369,21.909744,-147.553223,,,
729608353.13368,1.153531,-0.566312,55.158716,0.042755,0.019073,1.002762,-0.064058,-0.070299,-0.034098,63.065369,21.909744,-147.553223,,,
729608353.137002,1.135414,-0.586039,55.149559,0.042755,0.019073,1.002762,-0.064058,-0.070299,-0.034098,63.065369,21.909744,-147.553223,,,
729608353.140354,1.135414,-0.586039,55.149559,0.042755,0.019073,1.002762,-0.064058,-0.070299,-0.034098,63.065369,21.909744,-147.553223,,,
729608353.143683,1.114333,-0.602508,55.139253,0.04068,0.014709,1.014465,-0.053405,-0.042987,-0.041179,63.065369,21.909744,-147.553223,,,
729608353.147009,1.099048,-0.61509,55.12841,0.04068,0.014709,1.014465,-0.053405,-0.042987,-0.041179,63.065369,21.909744,-147.553223,,,
729608353.150338,1.099048,-0.61509,55.12841,0.04068,0.014709,1.014465,-0.053405,-0.042987,-0.041179,63.065369,21.909744,-147.553223,,,
729608353.153711,1.083673,-0.626,55.116806,0.035294,0.007126,1.018082,-0.04308,-0.029058,-0.043717,63.065369,21.909744,-147.553223,,,
729608353.157004,1.071057,-0.633925,55.103854,0.035294,0.007126,1.018082,-0.04308,-0.029058,-0.043717,63.065369,21.909744,-147.553223,,,
729608353.16034,1.071057,-0.633925,55.103854,0.035294,0.007126,1.018082,-0.04308,-0.029058,-0.043717,63.065369,21.909744,-147.553223,,,
729608353.163757,1.057516,-0.640011,55.089964,0.028442,0.007065,1.0112,-0.043313,-0.015556,-0.051908,63.065369,21.909744,-147.553223,,,
729608353.167002,1.044597,-0.644965,55.075541,0.028442,0.007065,1.0112,-0.043313,-0.015556,-0.051908,63.076645,22.024612,-147.861755,,,
729608353.170362,1.044597,-0.644965,55.075541,0.028442,0.007065,1.0112,-0.043313,-0.015556,-0.051908,63.076645,22.024612,-147.861755,,,
729608353.173693,1.031485,-0.649301,55.061194,0.018738,0.010544,1.004395,-0.04824,-0.016195,-0.052925,63.076645,22.024612,-147.861755,,,
729608353.177006,1.01811,-0.655419,55.046931,0.018738,0.010544,1.004395,-0.04824,-0.016195,-0.052925,63.076645,22.024612,-147.861755,,,
729608353.180351,1.01811,-0.655419,55.046931,0.018738,0.010544,1.004395,-0.04824,-0.016195,-0.052925,63.076645,22.024612,-147.861755,,,
729608353.183679,1.005667,-0.664227,55.03267,0.0103,0.010834,0.99675,-0.043367,-0.03314,-0.050317,63.076645,22.024612,-147.861755,,,
729608353.187011,0.992789,-0.674749,55.018142,0.0103,0.010834,0.99675,-0.043367,-0.03314,-0.050317,63.076645,22.024612,-147.861755,,,
729608353.190338,0.992789,-0.674749,55.018142,0.0103,0.010834,0.99675,-0.043367,-0.03314,-0.050317,63.076645,22.024612,-147.861755,,,
729608353.193748,0.980341,-0.688493,55.003389,0.007477,0.007523,0.994324,-0.037149,-0.049912,-0.049789,63.076645,22.024612,-147.861755,,,
729608353.196993,0.969902,-0.704047,54.988371,0.007477,0.007523,0.994324,-0.037149,-0.049912,-0.049789,63.076645,22.024612,-147.861755,,,
729608353.200401,0.969902,-0.704047,54.988371,0.007477,0.007523,0.994324,-0.037149,-0.049912,-0.049789,63.076645,22.024612,-147.861755,,,
729608353.203684,0.960353,-0.72616,54.974037,0.006638,0.007248,0.993118,-0.023476,-0.070868,-0.048027,63.076645,22.024612,-147.861755,,,
729608353.207003,0.954082,-0.748495,54.960848,0.006638,0.007248,0.993118,-0.023476,-0.070868,-0.048027,62.845627,21.979828,-147.568695,,,
729608353.21035,0.954082,-0.748495,54.960848,0.006638,0.007248,0.993118,-0.023476,-0.070868,-0.048027,62.845627,21.979828,-147.568695,,,
729608353.213677,0.949448,-0.780161,54.947839,0.011841,0.010574,0.990677,-0.015101,-0.088267,-0.047745,62.845627,21.979828,-147.568695,,,
729608353.217009,0.945409,-0.805392,54.933689,0.011841,0.010574,0.990677,-0.015101,-0.088267,-0.047745,62.845627,21.979828,-147.568695,,,
729608353.22035,0.945409,-0.805392,54.933689,0.011841,0.010574,0.990677,-0.015101,-0.088267,-0.047745,62.845627,21.979828,-147.568695,,,
729608353.223679,0.942113,-0.837952,54.918325,0.024628,0.020203,0.982483,-0.012565,-0.076427,-0.056449,62.845627,21.979828,-147.568695,,,
729608353.227003,0.93917,-0.858845,54.901947,0.024628,0.020203,0.982483,-0.012565,-0.076427,-0.056449,62.845627,21.979828,-147.568695,,,
729608353.230364,0.93917,-0.858845,54.901947,0.024628,0.020203,0.982483,-0.012565,-0.076427,-0.056449,62.845627,21.979828,-147.568695,,,
729608353.233677,0.935835,-0.881048,54.885195,0.034302,0.027924,0.989029,2.8e-05,-0.044013,-0.059825,62.845627,21.979828,-147.568695,,,
729608353.237006,0.935711,-0.893311,54.869103,0.034302,0.027924,0.989029,2.8e-05,-0.044013,-0.059825,62.845627,21.979828,-147.568695,,,
729608353.240412,0.935711,-0.893311,54.869103,0.034302,0.027924,0.989029,2.8e-05,-0.044013,-0.059825,62.845627,21.979828,-147.568695,,,
729608353.243672,0.934043,-0.906468,54.854359,0.040237,0.028076,0.99025,0.004774,-0.018708,-0.053967,62.845627,21.979828,-147.568695,,,
729608353.247001,0.935875,-0.911112,54.839896,0.040237,0.028076,0.99025,0.004774,-0.018708,-0.053967,62.803314,22.271393,-147.805191,,,
729608353.250364,0.935875,-0.911112,54.839896,0.040237,0.028076,0.99025,0.004774,-0.018708,-0.053967,62.803314,22.271393,-147.805191,,,
729608353.253728,0.93538,-0.912764,54.825331,0.034042,0.027893,0.985275,0.002532,0.016716,-0.053817,62.803314,22.271393,-147.805191,,,
729608353.257,0.935833,-0.907929,54.810261,0.034042,0.027893,0.985275,0.002532,0.016716,-0.053817,62.803314,22.271393,-147.805191,,,
729608353.260338,0.935833,-0.907929,54.810261,0.034042,0.027893,0.985275,0.002532,0.016716,-0.053817,62.803314,22.271393,-147.805191,,,
729608353.263685,0.934169,-0.900461,54.795579,0.032059,0.034561,0.986115,-0.002946,0.025129,-0.051367,62.803314,22.271393,-147.805191,,,
729608353.266999,0.93284,-0.894336,54.781717,0.032059,0.034561,0.986115,-0.002946,0.025129,-0.051367,62.803314,22.271393,-147.805191,,,
729608353.270369,0.93284,-0.894336,54.781717,0.032059,0.034561,0.986115,-0.002946,0.025129,-0.051367,62.803314,22.271393,-147.805191,,,
729608353.27368,0.928206,-0.887904,54.767863,0.028564,0.039841,0.975403,-0.009438,0.011095,-0.050089,62.803314,22.271393,-147.805191,,,
729608353.277008,0.924178,-0.885085,54.75332,0.028564,0.039841,0.975403,-0.009438,0.011095,-0.050089,62.803314,22.271393,-147.805191,,,
729608353.280437,0.924178,-0.885085,54.75332,0.028564,0.039841,0.975403,-0.009438,0.011095,-0.050089,62.803314,22.271393,-147.805191,,,
729608353.28367,0.916122,-0.880842,54.73725,0.021317,0.04126,0.975052,-0.023437,0.003258,-0.063425,62.803314,22.271393,-147.805191,,,
729608353.287013,0.909424,-0.880728,54.719508,0.021317,0.04126,0.975052,-0.023437,0.003258,-0.063425,62.803345,22.275131,-147.654327,,,
729608353.290349,0.909424,-0.880728,54.719508,0.021317,0.04126,0.975052,-0.023437,0.003258,-0.063425,62.803345,22.275131,-147.654327,,,
729608353.293677,0.901208,-0.88073,54.701043,0.022552,0.040543,0.980957,-0.017612,-0.009706,-0.064398,62.803345,22.275131,-147.654327,,,
729608353.297005,0.89562,-0.884062,54.682817,0.022552,0.040543,0.980957,-0.017612,-0.009706,-0.064398,62.803345,22.275131,-147.654327,,,
729608353.300345,0.89562,-0.884062,54.682817,0.022552,0.040543,0.980957,-0.017612,-0.009706,-0.064398,62.803345,22.275131,-147.654327,,,
729608353.30369,0.89121,-0.889047,54.665437,0.016953,0.032242,0.985214,-0.012502,-0.010417,-0.058503,62.803345,22.275131,-147.654327,,,
729608353.307041,0.888321,-0.89237,54.648992,0.016953,0.032242,0.985214,-0.012502,-0.010417,-0.058503,62.803345,22.275131,-147.654327,,,
729608353.310343,0.888321,-0.89237,54.648992,0.016953,0.032242,0.985214,-0.012502,-0.010417,-0.058503,62.803345,22.275131,-147.654327,,,
729608353.31369,0.889299,-0.899036,54.633042,0.012711,0.028305,0.992554,-0.003173,0.000935,-0.053781,62.803345,22.275131,-147.654327,,,
729608353.317002,0.888082,-0.898255,54.618049,0.012711,0.028305,0.992554,-0.003173,0.000935,-0.053781,62.803345,22.275131,-147.654327,,,
729608353.320393,0.888082,-0.898255,54.618049,0.012711,0.028305,0.992554,-0.003173,0.000935,-0.053781,62.803345,22.275131,-147.654327,,,
729608353.323699,0.891322,-0.900656,54.604696,0.015137,0.032516,0.999969,0.005709,0.025685,-0.042412,62.803345,22.275131,-147.654327,,,
729608353.327001,0.893206,-0.893801,54.592879,0.015137,0.032516,0.999969,0.005709,0.025685,-0.042412,62.803345,22.275131,-147.654327,,,
729608353.33037,0.893206,-0.893801,54.592879,0.015137,0.032516,0.999969,0.005709,0.025685,-0.042412,62.989441,22.365799,-147.699158,,,
729608353.33374,0.899545,-0.891305,54.58292,0.009171,0.032593,1.003723,0.016029,0.033483,-0.031657,62.989441,22.365799,-147.699158,,,
729608353.336995,0.904063,-0.882617,54.57414,0.009171,0.032593,1.003723,0.016029,0.033483,-0.031657,62.989441,22.365799,-147.699158,,,
729608353.340359,0.904063,-0.882617,54.57414,0.009171,0.032593,1.003723,0.016029,0.033483,-0.031657,62.989441,22.365799,-147.699158,,,
729608353.343704,0.912899,-0.877358,54.566893,0.00354,0.032089,0.999512,0.012225,0.041729,-0.025312,62.989441,22.365799,-147.699158,,,
729608353.347007,0.916334,-0.866386,54.561053,0.00354,0.032089,0.999512,0.012225,0.041729,-0.025312,62.989441,22.365799,-147.699158,,,
729608353.350364,0.916334,-0.866386,54.561053,0.00354,0.032089,0.999512,0.012225,0.041729,-0.025312,62.989441,22.365799,-147.699158,,,
729608353.353691,0.924096,-0.858496,54.556401,-1.5e-05,0.033768,0.995026,0.005289,0.048628,-0.014206,62.989441,22.365799,-147.699158,,,
729608353.357006,0.925404,-0.846086,54.553329,-1.5e-05,0.033768,0.995026,0.005289,0.048628,-0.014206,62.989441,22.365799,-147.699158,,,
729608353.360414,0.925404,-0.846086,54.553329,-1.5e-05,0.033768,0.995026,0.005289,0.048628,-0.014206,62.989441,22.365799,-147.699158,,,
729608353.363688,0.932978,-0.838551,54.552055,-0.00473,0.034714,0.995941,0.005657,0.029571,-0.00169,62.989441,22.365799,-147.699158,,,
729608353.367001,0.935123,-0.831613,54.552295,-0.00473,0.034714,0.995941,0.005657,0.029571,-0.00169,62.989441,22.365799,-147.699158,,,
729608353.370335,0.935123,-0.831613,54.552295,-0.00473,0.034714,0.995941,0.005657,0.029571,-0.00169,63.033569,22.445541,-147.931839,,,
729608353.373752,0.944958,-0.830165,54.553787,-0.010254,0.029953,0.998611,0.014281,0.008104,0.007829,63.033569,22.445541,-147.931839,,,
729608353.377,0.948577,-0.829583,54.555797,-0.010254,0.029953,0.998611,0.014281,0.008104,0.007829,63.033569,22.445541,-147.931839,,,
729608353.38036,0.948577,-0.829583,54.555797,-0.010254,0.029953,0.998611,0.014281,0.008104,0.007829,63.033569,22.445541,-147.931839,,,
729608353.383682,0.957748,-0.83368,54.558261,-0.00827,0.025909,1.002167,0.015451,-0.013309,0.004571,63.033569,22.445541,-147.931839,,,
729608353.386998,0.961878,-0.838921,54.560762,-0.00827,0.025909,1.002167,0.015451,-0.013309,0.004571,63.033569,22.445541,-147.931839,,,
729608353.390346,0.961878,-0.838921,54.560762,-0.00827,0.025909,1.002167,0.015451,-0.013309,0.004571,63.033569,22.445541,-147.931839,,,
729608353.393681,0.969283,-0.845839,54.563064,-0.002365,0.029617,0.999069,0.015396,-0.027672,0.006097,63.033569,22.445541,-147.931839,,,
729608353.397006,0.973721,-0.854207,54.565736,-0.002365,0.029617,0.999069,0.015396,-0.027672,0.006097,63.033569,22.445541,-147.931839,,,
729608353.400401,0.973721,-0.854207,54.565736,-0.002365,0.029617,0.999069,0.015396,-0.027672,0.006097,63.033569,22.445541,-147.931839,,,
729608353.403687,0.981478,-0.863306,54.569479,-0.000549,0.032333,1.000809,0.018197,-0.027949,0.014191,63.033569,22.445541,-147.931839,,,
729608353.407001,0.985976,-0.871932,54.574352,-0.000549,0.032333,1.000809,0.018197,-0.027949,0.014191,63.033569,22.445541,-147.931839,,,
729608353.410333,0.985976,-0.871932,54.574352,-0.000549,0.032333,1.000809,0.018197,-0.027949,0.014191,63.154236,22.337631,-147.697281,,,
729608353.41369,0.99484,-0.87826,54.580356,0.001358,0.023392,1.00264,0.016478,-0.01658,0.01902,63.154236,22.337631,-147.697281,,,
729608353.416992,1.000004,-0.883554,54.586763,0.001358,0.023392,1.00264,0.016478,-0.01658,0.01902,63.154236,22.337631,-147.697281,,,
729608353.42035,1.000004,-0.883554,54.586763,0.001358,0.023392,1.00264,0.016478,-0.01658,0.01902,63.154236,22.337631,-147.697281,,,
729608353.423762,1.009563,-0.883587,54.59369,0.006378,0.019806,1.007767,0.023735,-0.000634,0.026621,63.154236,22.337631,-147.697281,,,
729608353.427031,1.016173,-0.884202,54.60222,0.006378,0.019806,1.007767,0.023735,-0.000634,0.026621,63.154236,22.337631,-147.697281,,,
729608353.430411,1.016173,-0.884202,54.60222,0.006378,0.019806,1.007767,0.023735,-0.000634,0.026621,63.154236,22.337631,-147.697281,,,
729608353.433666,1.028205,-0.877951,54.611924,0.007736,0.018311,1.0112,0.03412,0.021074,0.03466,63.154236,22.337631,-147.697281,,,
729608353.437006,1.037765,-0.872647,54.622779,0.007736,0.018311,1.0112,0.03412,0.021074,0.03466,63.154236,22.337631,-147.697281,,,
729608353.440352,1.037765,-0.872647,54.622779,0.007736,0.018311,1.0112,0.03412,0.021074,0.03466,63.154236,22.337631,-147.697281,,,
729608353.443687,1.052877,-0.860527,54.634055,0.008926,0.016708,1.015381,0.041847,0.032855,0.038091,63.154236,22.337631,-147.697281,,,
729608353.447009,1.064598,-0.851792,54.645641,0.008926,0.016708,1.015381,0.041847,0.032855,0.038091,63.154236,22.337631,-147.697281,,,
729608353.450354,1.064598,-0.851792,54.645641,0.008926,0.016708,1.015381,0.041847,0.032855,0.038091,63.066284,22.224091,-147.97348,,,
729608353.453689,1.080417,-0.835749,54.65738,0.007462,0.015335,1.011978,0.046939,0.037502,0.039723,63.066284,22.224091,-147.97348,,,
729608353.457,1.093385,-0.826388,54.669195,0.007462,0.015335,1.011978,0.046939,0.037502,0.039723,63.066284,22.224091,-147.97348,,,
729608353.460348,1.093385,-0.826388,54.669195,0.007462,0.015335,1.011978,0.046939,0.037502,0.039723,63.066284,22.224091,-147.97348,,,
729608353.463687,1.108818,-0.811369,54.680688,0.009109,0.016266,1.007126,0.049197,0.029668,0.039386,63.066284,22.224091,-147.97348,,,
729608353.467005,1.121809,-0.804522,54.691791,0.009109,0.016266,1.007126,0.049197,0.029668,0.039386,63.066284,22.224091,-147.97348,,,
729608353.470354,1.121809,-0.804522,54.691791,0.009109,0.016266,1.007126,0.049197,0.029668,0.039386,63.066284,22.224091,-147.97348,,,
729608353.473689,1.136552,-0.793824,54.702586,0.010025,0.017212,1.000259,0.043016,0.022152,0.03619,63.066284,22.224091,-147.97348,,,
729608353.477002,1.149195,-0.789697,54.71333,0.010025,0.017212,1.000259,0.043016,0.022152,0.03619,63.066284,22.224091,-147.97348,,,
729608353.480336,1.149195,-0.789697,54.71333,0.010025,0.017212,1.000259,0.043016,0.022152,0.03619,63.066284,22.224091,-147.97348,,,
729608353.483682,1.164673,-0.782838,54.72385,0.013504,0.018112,0.997665,0.044748,0.011123,0.035506,63.066284,22.224091,-147.97348,,,
729608353.487007,1.176659,-0.780685,54.734496,0.013504,0.018112,0.997665,0.044748,0.011123,0.035506,63.066284,22.224091,-147.97348,,,
729608353.490331,1.176659,-0.780685,54.734496,0.013504,0.018112,0.997665,0.044748,0.011123,0.035506,63.066284,22.224091,-147.97348,,,
729608353.493698,1.190393,-0.774852,54.744373,0.01593,0.011826,0.998444,0.043248,0.010908,0.033548,62.879227,22.256027,-148.077103,,,
729608353.496996,1.202116,-0.773433,54.754071,0.01593,0.011826,0.998444,0.043248,0.010908,0.033548,62.879227,22.256027,-148.077103,,,
729608353.500443,1.202116,-0.773433,54.754071,0.01593,0.011826,0.998444,0.043248,0.010908,0.033548,62.879227,22.256027,-148.077103,,,
729608353.503687,1.213071,-0.770123,54.764615,0.01445,0.00946,0.995987,0.039005,0.005586,0.037655,62.879227,22.256027,-148.077103,,,
729608353.507012,1.223439,-0.770239,54.77616,0.01445,0.00946,0.995987,0.039005,0.005586,0.037655,62.879227,22.256027,-148.077103,,,
729608353.510354,1.223439,-0.770239,54.77616,0.01445,0.00946,0.995987,0.039005,0.005586,0.037655,62.879227,22.256027,-148.077103,,,
729608353.51374,1.231372,-0.769516,54.787227,0.015656,0.01033,0.991776,0.025197,-0.002684,0.033108,62.879227,22.256027,-148.077103,,,
729608353.516993,1.23799,-0.772343,54.796701,0.015656,0.01033,0.991776,0.025197,-0.002684,0.033108,62.879227,22.256027,-148.077103,,,
729608353.520351,1.23799,-0.772343,54.796701,0.015656,0.01033,0.991776,0.025197,-0.002684,0.033108,62.879227,22.256027,-148.077103,,,
729608353.523696,1.241801,-0.77615,54.80419,0.027115,0.018539,0.988724,0.012108,-0.015429,0.015958,62.879227,22.256027,-148.077103,,,
729608353.526996,1.244809,-0.782819,54.809148,0.027115,0.018539,0.988724,0.012108,-0.015429,0.015958,62.879227,22.256027,-148.077103,,,
729608353.530338,1.244809,-0.782819,54.809148,0.027115,0.018539,0.988724,0.012108,-0.015429,0.015958,62.879227,22.256027,-148.077103,,,
729608353.533683,1.245218,-0.787975,54.811512,0.033432,0.023026,0.991302,0.009221,-0.017255,0.004073,62.842804,22.385086,-148.02095,,,
729608353.537071,1.247526,-0.793857,54.812267,0.033432,0.023026,0.991302,0.009221,-0.017255,0.004073,62.842804,22.385086,-148.02095,,,
729608353.54033,1.247526,-0.793857,54.812267,0.033432,0.023026,0.991302,0.009221,-0.017255,0.004073,62.842804,22.385086,-148.02095,,,
729608353.543682,1.249347,-0.796851,54.812242,0.0327,0.012726,1.000916,0.013307,-0.010176,-0.003653,62.842804,22.385086,-148.02095,,,
729608353.547008,1.253341,-0.799679,54.811804,0.0327,0.012726,1.000916,0.013307,-0.010176,-0.003653,62.842804,22.385086,-148.02095,,,
729608353.5504,1.253341,-0.799679,54.811804,0.0327,0.012726,1.000916,0.013307,-0.010176,-0.003653,62.842804,22.385086,-148.02095,,,
729608353.553677,1.256244,-0.798517,54.810971,0.032532,0.003677,1.006363,0.017606,0.0111,-0.005068,62.842804,22.385086,-148.02095,,,
729608353.557,1.260361,-0.794754,54.810018,0.032532,0.003677,1.006363,0.017606,0.0111,-0.005068,62.842804,22.385086,-148.02095,,,
729608353.560354,1.260361,-0.794754,54.810018,0.032532,0.003677,1.006363,0.017606,0.0111,-0.005068,62.842804,22.385086,-148.02095,,,
729608353.563676,1.262483,-0.786855,54.808783,0.034119,0.002365,1.004578,0.008873,0.037921,-0.005446,62.842804,22.385086,-148.02095,,,
729608353.567,1.264638,-0.776832,54.807351,0.034119,0.002365,1.004578,0.008873,0.037921,-0.005446,62.842804,22.385086,-148.02095,,,
729608353.570353,1.264638,-0.776832,54.807351,0.034119,0.002365,1.004578,0.008873,0.037921,-0.005446,62.842804,22.385086,-148.02095,,,
729608353.573668,1.264064,-0.765795,54.805769,0.030914,0.005463,1.000061,0.001172,0.048702,-0.00965,63.024124,22.109741,-147.488632,,,
729608353.577001,1.2642,-0.752895,54.803657,0.030914,0.005463,1.000061,0.001172,0.048702,-0.00965,63.024124,22.109741,-147.488632,,,
729608353.580351,1.2642,-0.752895,54.803657,0.030914,0.005463,1.000061,0.001172,0.048702,-0.00965,63.024124,22.109741,-147.488632,,,
729608353.583693,1.260063,-0.74014,54.800464,0.025284,0.009415,0.992172,-0.007441,0.050243,-0.015495,63.024124,22.109741,-147.488632,,,
729608353.586995,1.258036,-0.727352,54.795867,0.025284,0.009415,0.992172,-0.007441,0.050243,-0.015495,63.024124,22.109741,-147.488632,,,
729608353.590402,1.258036,-0.727352,54.795867,0.025284,0.009415,0.992172,-0.007441,0.050243,-0.015495,63.024124,22.109741,-147.488632,,,
729608353.593659,1.252425,-0.716795,54.790325,0.022003,0.01239,0.992569,-0.009229,0.032861,-0.021956,63.024124,22.109741,-147.488632,,,
729608353.596996,1.24972,-0.709147,54.78374,0.022003,0.01239,0.992569,-0.009229,0.032861,-0.021956,63.024124,22.109741,-147.488632,,,
729608353.60034,1.24972,-0.709147,54.78374,0.022003,0.01239,0.992569,-0.009229,0.032861,-0.021956,63.024124,22.109741,-147.488632,,,
729608353.603712,1.245098,-0.708092,54.776144,0.01886,0.013474,0.989853,-0.011577,0.006442,-0.030961,63.024124,22.109741,-147.488632,,,
729608353.607072,1.241406,-0.707256,54.767563,0.01886,0.013474,0.989853,-0.011577,0.006442,-0.030961,63.024124,22.109741,-147.488632,,,
729608353.6103,1.241406,-0.707256,54.767563,0.01886,0.013474,0.989853,-0.011577,0.006442,-0.030961,63.024124,22.109741,-147.488632,,,
729608353.613747,1.237907,-0.714379,54.758146,0.015106,0.01651,0.988708,-0.012466,-0.011015,-0.038137,63.003235,22.169174,-147.782181,,,
729608353.61697,1.233946,-0.719179,54.747722,0.015106,0.01651,0.988708,-0.012466,-0.011015,-0.038137,63.003235,22.169174,-147.782181,,,
729608353.620302,1.233946,-0.719179,54.747722,0.015106,0.01651,0.988708,-0.012466,-0.011015,-0.038137,63.003235,22.169174,-147.782181,,,
729608353.623633,1.229378,-0.731034,54.736364,0.013458,0.017532,0.991516,-0.013037,-0.021882,-0.042236,63.003235,22.169174,-147.782181,,,
729608353.626987,1.225914,-0.736807,54.724394,0.013458,0.017532,0.991516,-0.013037,-0.021882,-0.042236,63.003235,22.169174,-147.782181,,,
729608353.630272,1.225914,-0.736807,54.724394,0.013458,0.017532,0.991516,-0.013037,-0.021882,-0.042236,63.003235,22.169174,-147.782181,,,
729608353.633699,1.218676,-0.747498,54.712372,0.014542,0.016281,0.993668,-0.011559,-0.01492,-0.043426,63.003235,22.169174,-147.782181,,,
729608353.636946,1.215593,-0.752121,54.701028,0.014542,0.016281,0.993668,-0.011559,-0.01492,-0.043426,63.003235,22.169174,-147.782181,,,
729608353.640265,1.215593,-0.752121,54.701028,0.014542,0.016281,0.993668,-0.011559,-0.01492,-0.043426,63.003235,22.169174,-147.782181,,,
729608353.643616,1.208313,-0.761747,54.691503,0.009216,0.012711,1.000015,-0.006376,-0.013124,-0.032451,63.003235,22.169174,-147.782181,,,
729608353.646944,1.20644,-0.765418,54.682933,0.009216,0.012711,1.000015,-0.006376,-0.013124,-0.032451,63.003235,22.169174,-147.782181,,,
729608353.650263,1.20644,-0.765418,54.682933,0.009216,0.012711,1.000015,-0.006376,-0.013124,-0.032451,63.003235,22.169174,-147.782181,,,
729608353.6536,1.200387,-0.773199,54.674816,0.005203,0.012314,1.00148,-0.004581,-0.005444,-0.029624,63.003235,22.169174,-147.782181,,,
729608353.656938,1.198562,-0.775025,54.666357,0.005203,0.012314,1.00148,-0.004581,-0.005444,-0.029624,63.204315,22.03363,-147.651154,,,
729608353.660264,1.198562,-0.775025,54.666357,0.005203,0.012314,1.00148,-0.004581,-0.005444,-0.029624,63.204315,22.03363,-147.651154,,,
729608353.663599,1.193564,-0.780046,54.657849,0.006668,0.0159,0.999176,-0.002872,-0.001365,-0.031881,63.204315,22.03363,-147.651154,,,
729608353.666942,1.192266,-0.780665,54.649711,0.006668,0.0159,0.999176,-0.002872,-0.001365,-0.031881,63.204315,22.03363,-147.651154,,,
729608353.670291,1.192266,-0.780665,54.649711,0.006668,0.0159,0.999176,-0.002872,-0.001365,-0.031881,63.204315,22.03363,-147.651154,,,
729608353.673595,1.188922,-0.783153,54.64254,0.002411,0.015854,1.002655,0.000283,0.002468,-0.02267,63.204315,22.03363,-147.651154,,,
729608353.676931,1.188078,-0.782988,54.636683,0.002411,0.015854,1.002655,0.000283,0.002468,-0.02267,63.204315,22.03363,-147.651154,,,
729608353.680264,1.188078,-0.782988,54.636683,0.002411,0.015854,1.002655,0.000283,0.002468,-0.02267,63.204315,22.03363,-147.651154,,,
729608353.683274,1.18546,-0.784549,54.631689,-0.002487,0.013718,1.00119,-0.003108,0.004839,-0.017199,63.204315,22.03363,-147.651154,,,
729608353.686971,1.184703,-0.783571,54.626786,-0.002487,0.013718,1.00119,-0.003108,0.004839,-0.017199,63.204315,22.03363,-147.651154,,,
729608353.690256,1.184703,-0.783571,54.626786,-0.002487,0.013718,1.00119,-0.003108,0.004839,-0.017199,63.204315,22.03363,-147.651154,,,
729608353.693599,1.182593,-0.783554,54.622619,0.000687,0.016678,0.997604,0.000581,0.005654,-0.012725,63.204315,22.03363,-147.651154,,,
729608353.696971,1.182744,-0.782815,54.619675,0.000687,0.016678,0.997604,0.000581,0.005654,-0.012725,63.024521,22.147812,-147.932434,,,
729608353.700259,1.182744,-0.782815,54.619675,0.000687,0.016678,0.997604,0.000581,0.005654,-0.012725,63.024521,22.147812,-147.932434,,,
729608353.703595,1.182981,-0.782147,54.61742,0.005966,0.020111,0.998444,0.007746,0.00376,-0.01011,63.024521,22.147812,-147.932434,,,
729608353.706975,1.184563,-0.782267,54.615714,0.005966,0.020111,0.998444,0.007746,0.00376,-0.01011,63.024521,22.147812,-147.932434,,,
729608353.710257,1.184563,-0.782267,54.615714,0.005966,0.020111,0.998444,0.007746,0.00376,-0.01011,63.024521,22.147812,-147.932434,,,
729608353.713617,1.186167,-0.783556,54.614593,0.011536,0.022552,0.993225,0.013239,-0.005926,-0.005841,63.024521,22.147812,-147.932434,,,
729608353.716927,1.189238,-0.784886,54.613182,0.011536,0.022552,0.993225,0.013239,-0.005926,-0.005841,63.024521,22.147812,-147.932434,,,
729608353.720279,1.189238,-0.784886,54.613182,0.011536,0.022552,0.993225,0.013239,-0.005926,-0.005841,63.024521,22.147812,-147.932434,,,
729608353.723693,1.189853,-0.784987,54.611097,0.017639,0.024185,0.987061,0.00633,0.001402,-0.012883,63.024521,22.147812,-147.932434,,,
729608353.72704,1.191019,-0.784477,54.608292,0.017639,0.024185,0.987061,0.00633,0.001402,-0.012883,63.024521,22.147812,-147.932434,,,
729608353.730343,1.191019,-0.784477,54.608292,0.017639,0.024185,0.987061,0.00633,0.001402,-0.012883,63.024521,22.147812,-147.932434,,,
729608353.733691,1.188957,-0.781057,54.604509,0.020462,0.029694,0.987381,0.000571,0.007899,-0.014649,63.024521,22.147812,-147.932434,,,
729608353.737041,1.188662,-0.778984,54.600057,0.020462,0.029694,0.987381,0.000571,0.007899,-0.014649,62.869553,22.117813,-147.915482,,,
729608353.740336,1.188662,-0.778984,54.600057,0.020462,0.029694,0.987381,0.000571,0.007899,-0.014649,62.869553,22.117813,-147.915482,,,
729608353.74368,1.186765,-0.773706,54.595458,0.021408,0.032776,0.98732,-0.000448,0.015417,-0.019037,62.869553,22.117813,-147.915482,,,
729608353.747159,1.186093,-0.769606,54.590491,0.021408,0.032776,0.98732,-0.000448,0.015417,-0.019037,62.869553,22.117813,-147.915482,,,
729608353.750401,1.186093,-0.769606,54.590491,0.021408,0.032776,0.98732,-0.000448,0.015417,-0.019037,62.869553,22.117813,-147.915482,,,
729608353.753672,1.183751,-0.763185,54.584944,0.019455,0.03038,0.991226,-0.006016,0.017192,-0.019236,62.869553,22.117813,-147.915482,,,
729608353.75706,1.181952,-0.759495,54.57965,0.019455,0.03038,0.991226,-0.006016,0.017192,-0.019236,62.869553,22.117813,-147.915482,,,
729608353.760338,1.181952,-0.759495,54.57965,0.019455,0.03038,0.991226,-0.006016,0.017192,-0.019236,62.869553,22.117813,-147.915482,,,
729608353.76376,1.178265,-0.752082,54.57463,0.017258,0.026672,0.98999,-0.007938,0.013896,-0.018431,62.869553,22.117813,-147.915482,,,
729608353.767016,1.178265,-0.752082,54.57463,0.017258,0.026672,0.98999,-0.007938,0.013896,-0.018431,62.869553,22.117813,-147.915482,,,
729608353.770353,1.175253,-0.749185,54.570094,0.017258,0.026672,0.98999,-0.007938,0.013896,-0.018431,62.869553,22.117813,-147.915482,,,
729608353.773669,1.169991,-0.743743,54.566274,0.015762,0.029129,0.987396,-0.016165,0.003075,-0.011896,62.869553,22.117813,-147.915482,,,
729608353.777067,1.169991,-0.743635,54.563344,0.015762,0.029129,0.987396,-0.016165,0.003075,-0.011896,62.869553,22.117813,-147.915482,,,
729608353.78039,1.164527,-0.743635,54.563344,0.015762,0.029129,0.987396,-0.016165,0.003075,-0.011896,62.985901,21.93219,-147.659882,,,
729608353.783684,1.157268,-0.742527,54.560897,0.013,0.031281,0.980133,-0.02493,-0.002809,-0.008992,62.985901,21.93219,-147.659882,,,
729608353.787016,1.157268,-0.742527,54.560897,0.013,0.031281,0.980133,-0.02493,-0.002809,-0.008992,62.985901,21.93219,-147.659882,,,
729608353.790419,1.150335,-0.744693,54.558995,0.013,0.031281,0.980133,-0.02493,-0.002809,-0.008992,62.985901,21.93219,-147.659882,,,
729608353.793667,1.144742,-0.745478,54.557479,0.013519,0.028732,0.984512,-0.017371,0.00011,-0.006679,62.985901,21.93219,-147.659882,,,
729608353.797021,1.144742,-0.745478,54.557479,0.013519,0.028732,0.984512,-0.017371,0.00011,-0.006679,62.985901,21.93219,-147.659882,,,
729608353.800349,1.140043,-0.745635,54.555929,0.013519,0.028732,0.984512,-0.017371,0.00011,-0.006679,62.985901,21.93219,-147.659882,,,
729608353.803678,1.137998,-0.745428,54.553988,0.019455,0.027527,0.993774,-0.004512,0.009851,-0.007838,62.985901,21.93219,-147.659882,,,
729608353.807006,1.137998,-0.745428,54.553988,0.019455,0.027527,0.993774,-0.004512,0.009851,-0.007838,62.985901,21.93219,-147.659882,,,
729608353.810361,1.136524,-0.74375,54.552242,0.019455,0.027527,0.993774,-0.004512,0.009851,-0.007838,62.985901,21.93219,-147.659882,,,
729608353.81375,1.137999,-0.742954,54.55168,0.015518,0.02626,0.996658,0.00123,0.016786,-0.001216,62.985901,21.93219,-147.659882,,,
729608353.817001,1.137999,-0.742954,54.55168,0.015518,0.02626,0.996658,0.00123,0.016786,-0.001216,62.985901,21.93219,-147.659882,,,
729608353.820466,1.137507,-0.738141,54.551745,0.015518,0.02626,0.996658,0.00123,0.016786,-0.001216,63.102264,22.004974,-147.717087,,,
729608353.823674,1.139073,-0.733405,54.551342,0.01355,0.027206,0.997162,-0.008575,0.034081,-0.006069,63.102264,22.004974,-147.717087,,,
729608353.827092,1.139073,-0.733405,54.551342,0.01355,0.027206,0.997162,-0.008575,0.034081,-0.006069,63.102264,22.004974,-147.717087,,,
729608353.830347,1.136619,-0.724729,54.549872,0.01355,0.027206,0.997162,-0.008575,0.034081,-0.006069,63.102264,22.004974,-147.717087,,,
729608353.833676,1.136057,-0.717423,54.547605,0.015137,0.032822,0.994415,-0.014961,0.038304,-0.008877,63.102264,22.004974,-147.717087,,,
729608353.837024,1.136057,-0.717423,54.547605,0.015137,0.032822,0.994415,-0.014961,0.038304,-0.008877,63.102264,22.004974,-147.717087,,,
729608353.840422,1.131469,-0.70747,54.545166,0.015137,0.032822,0.994415,-0.014961,0.038304,-0.008877,63.102264,22.004974,-147.717087,,,
729608353.843668,1.128115,-0.699808,54.543616,0.004639,0.028793,0.99559,-0.019654,0.029137,-0.003984,63.102264,22.004974,-147.717087,,,
729608353.847069,1.128115,-0.699808,54.543616,0.004639,0.028793,0.99559,-0.019654,0.029137,-0.003984,63.102264,22.004974,-147.717087,,,
729608353.850351,1.12273,-0.692161,54.542779,0.004639,0.028793,0.99559,-0.019654,0.029137,-0.003984,63.102264,22.004974,-147.717087,,,
729608353.853674,1.119601,-0.687588,54.542122,-0.001541,0.022079,0.996964,-0.014804,0.014557,-0.004887,63.102264,22.004974,-147.717087,,,
729608353.857022,1.119601,-0.687588,54.542122,-0.001541,0.022079,0.996964,-0.014804,0.014557,-0.004887,63.102264,22.004974,-147.717087,,,
729608353.860343,1.114989,-0.684118,54.541251,-0.001541,0.022079,0.996964,-0.014804,0.014557,-0.004887,63.023895,21.973755,-147.77298,,,
729608353.863683,1.114281,-0.683651,54.540375,-0.001846,0.021591,0.996521,-0.012426,-0.00223,-0.003959,63.023895,21.973755,-147.77298,,,
729608353.867083,1.114281,-0.683651,54.540375,-0.001846,0.021591,0.996521,-0.012426,-0.00223,-0.003959,63.023895,21.973755,-147.77298,,,
729608353.870344,1.111379,-0.684929,54.539817,-0.001846,0.021591,0.996521,-0.012426,-0.00223,-0.003959,63.023895,21.973755,-147.77298,,,
729608353.873676,1.111949,-0.687552,54.539891,-0.001801,0.019867,0.998154,-0.003166,-0.007683,0.001887,63.023895,21.973755,-147.77298,,,
729608353.877004,1.111949,-0.687552,54.539891,-0.001801,0.019867,0.998154,-0.003166,-0.007683,0.001887,63.023895,21.973755,-147.77298,,,
729608353.880455,1.110974,-0.690429,54.541211,-0.001801,0.019867,0.998154,-0.003166,-0.007683,0.001887,63.023895,21.973755,-147.77298,,,
729608353.883657,1.113191,-0.694299,54.544385,7.6e-05,0.016312,1.000092,0.004265,-0.002559,0.014939,63.023895,21.973755,-147.77298,,,
729608353.887003,1.113191,-0.694299,54.544385,7.6e-05,0.016312,1.000092,0.004265,-0.002559,0.014939,63.023895,21.973755,-147.77298,,,
729608353.890352,1.11468,-0.695647,54.549318,7.6e-05,0.016312,1.000092,0.004265,-0.002559,0.014939,63.023895,21.973755,-147.77298,,,
729608353.893669,1.120168,-0.697349,54.555373,0.002518,0.012619,1.003632,0.017761,0.008932,0.023835,63.023895,21.973755,-147.77298,,,
729608353.897012,1.120168,-0.697349,54.555373,0.002518,0.012619,1.003632,0.017761,0.008932,0.023835,63.023895,21.973755,-147.77298,,,
729608353.900338,1.126108,-0.695117,54.561953,0.002518,0.012619,1.003632,0.017761,0.008932,0.023835,63.125961,21.988022,-147.769608,,,
729608353.903676,1.134735,-0.690311,54.568511,0.006119,0.014664,1.00853,0.029513,0.033591,0.020284,63.125961,21.988022,-147.769608,,,
729608353.907089,1.134735,-0.690311,54.568511,0.006119,0.014664,1.00853,0.029513,0.033591,0.020284,63.125961,21.988022,-147.769608,,,
729608353.910346,1.142799,-0.682048,54.575346,0.006119,0.014664,1.00853,0.029513,0.033591,0.020284,63.125961,21.988022,-147.769608,,,
729608353.913725,1.154982,-0.673612,54.583485,0.003479,0.016754,1.01329,0.036803,0.036514,0.031905,63.125961,21.988022,-147.769608,,,
729608353.917026,1.154982,-0.673612,54.583485,0.003479,0.016754,1.01329,0.036803,0.036514,0.031905,63.125961,21.988022,-147.769608,,,
729608353.920416,1.165056,-0.664152,54.59339,0.003479,0.016754,1.01329,0.036803,0.036514,0.031905,63.125961,21.988022,-147.769608,,,
729608353.923671,1.177644,-0.654667,54.604166,0.000671,0.016235,1.005005,0.030362,0.030505,0.033541,63.125961,21.988022,-147.769608,,,
729608353.927015,1.177644,-0.654667,54.604166,0.000671,0.016235,1.005005,0.030362,0.030505,0.033541,63.125961,21.988022,-147.769608,,,
729608353.930357,1.185434,-0.646418,54.61411,0.000671,0.016235,1.005005,0.030362,0.030505,0.033541,63.125961,21.988022,-147.769608,,,
729608353.93367,1.191678,-0.636023,54.622462,0.007919,0.020905,0.997147,0.016101,0.022863,0.02347,63.125961,21.988022,-147.769608,,,
729608353.937021,1.191678,-0.636023,54.622462,0.007919,0.020905,0.997147,0.016101,0.022863,0.02347,63.125961,21.988022,-147.769608,,,
729608353.940353,1.195321,-0.630991,54.629153,0.007919,0.020905,0.997147,0.016101,0.022863,0.02347,63.125961,21.988022,-147.769608,,,
729608353.943701,1.197706,-0.625306,54.634611,0.011597,0.029953,0.992676,0.007457,0.00497,0.016305,63.088287,22.014542,-147.839157,,,
729608353.947084,1.197706,-0.625306,54.634611,0.011597,0.029953,0.992676,0.007457,0.00497,0.016305,63.088287,22.014542,-147.839157,,,
729608353.950353,1.199039,-0.625487,54.63982,0.011597,0.029953,0.992676,0.007457,0.00497,0.016305,63.088287,22.014542,-147.839157,,,
729608353.953679,1.199912,-0.6245,54.64519,0.011322,0.024185,0.992172,0.007274,-0.011733,0.017148,63.088287,22.014542,-147.839157,,,
729608353.957015,1.199912,-0.6245,54.64519,0.011322,0.024185,0.992172,0.007274,-0.011733,0.017148,63.088287,22.014542,-147.839157,,,
729608353.960437,1.201624,-0.629228,54.650826,0.011322,0.024185,0.992172,0.007274,-0.011733,0.017148,63.088287,22.014542,-147.839157,,,
729608353.963772,1.203532,-0.633595,54.655894,0.017822,0.015335,0.990707,0.007005,-0.024848,0.015477,63.088287,22.014542,-147.839157,,,
729608353.967001,1.203532,-0.633595,54.655894,0.017822,0.015335,0.990707,0.007005,-0.024848,0.015477,63.088287,22.014542,-147.839157,,,
729608353.970361,1.205759,-0.642508,54.660648,0.017822,0.015335,0.990707,0.007005,-0.024848,0.015477,63.088287,22.014542,-147.839157,,,
729608353.973677,1.205335,-0.648134,54.665495,0.022797,0.016602,0.991699,0.002633,-0.019027,0.01455,63.088287,22.014542,-147.839157,,,
729608353.977038,1.205335,-0.648134,54.665495,0.022797,0.016602,0.991699,0.002633,-0.019027,0.01455,63.088287,22.014542,-147.839157,,,
729608353.980422,1.205901,-0.654227,54.67021,0.022797,0.016602,0.991699,0.002633,-0.019027,0.01455,63.088287,22.014542,-147.839157,,,
729608353.983667,1.204481,-0.655581,54.674896,0.02507,0.018326,0.99939,0.002202,0.004057,0.013709,63.037201,22.220139,-147.641113,,,
729608353.987069,1.204481,-0.655581,54.674896,0.02507,0.018326,0.99939,0.002202,0.004057,0.013709,63.037201,22.220139,-147.641113,,,
729608353.990354,1.206352,-0.65541,54.679407,0.02507,0.018326,0.99939,0.002202,0.004057,0.013709,63.037201,22.220139,-147.641113,,,
729608353.993675,1.208647,-0.650986,54.682236,0.029922,0.01825,1.00795,0.014733,0.018884,0.004295,63.037201,22.220139,-147.641113,,,
729608353.997017,1.208647,-0.650986,54.682236,0.029922,0.01825,1.00795,0.014733,0.018884,0.004295,63.037201,22.220139,-147.641113,,,
729608354.000432,1.213125,-0.646153,54.683084,0.029922,0.01825,1.00795,0.014733,0.018884,0.004295,63.037201,22.220139,-147.641113,,,
729608354.003666,1.21723,-0.637311,54.681551,0.031403,0.01738,1.007767,0.020721,0.028477,-0.014532,63.037201,22.220139,-147.641113,,,
729608354.007025,1.21723,-0.637311,54.681551,0.031403,0.01738,1.007767,0.020721,0.028477,-0.014532,63.037201,22.220139,-147.641113,,,
729608354.010351,1.222548,-0.629546,54.677849,0.031403,0.01738,1.007767,0.020721,0.028477,-0.014532,63.037201,22.220139,-147.641113,,,
729608354.013719,1.226212,-0.618209,54.673139,0.027649,0.01857,1.003906,0.016923,0.038813,-0.018796,63.037201,22.220139,-147.641113,,,
729608354.017016,1.226212,-0.618209,54.673139,0.027649,0.01857,1.003906,0.016923,0.038813,-0.018796,63.037201,22.220139,-147.641113,,,
729608354.020379,1.230006,-0.607888,54.668445,0.027649,0.01857,1.003906,0.016923,0.038813,-0.018796,63.037201,22.220139,-147.641113,,,
729608354.023675,1.234382,-0.59757,54.664205,0.016937,0.01442,1.000061,0.007591,0.040006,-0.01448,63.20575,21.853104,-148.211884,,,
729608354.027081,1.234382,-0.59757,54.664205,0.016937,0.01442,1.000061,0.007591,0.040006,-0.01448,63.20575,21.853104,-148.211884,,,
729608354.030344,1.235705,-0.587125,54.660799,0.016937,0.01442,1.000061,0.007591,0.040006,-0.01448,63.20575,21.853104,-148.211884,,,
729608354.033676,1.237585,-0.578159,54.657082,0.009964,0.012451,0.993393,-0.000479,0.028366,-0.017721,63.20575,21.853104,-148.211884,,,
729608354.037022,1.237585,-0.578159,54.657082,0.009964,0.012451,0.993393,-0.000479,0.028366,-0.017721,63.20575,21.853104,-148.211884,,,
729608354.040414,1.237243,-0.571591,54.652489,0.009964,0.012451,0.993393,-0.000479,0.028366,-0.017721,63.20575,21.853104,-148.211884,,,
729608354.043661,1.235646,-0.569721,54.647514,0.005188,0.013397,0.991135,-0.003705,0.005436,-0.021879,63.20575,21.853104,-148.211884,,,
729608354.047137,1.235646,-0.569721,54.647514,0.005188,0.013397,0.991135,-0.003705,0.005436,-0.021879,63.20575,21.853104,-148.211884,,,
729608354.050349,1.234472,-0.569325,54.642103,0.005188,0.013397,0.991135,-0.003705,0.005436,-0.021879,63.20575,21.853104,-148.211884,,,
729608354.053677,1.231043,-0.573857,54.637106,0.001144,0.012436,0.993469,-0.006569,-0.005045,-0.014509,63.20575,21.853104,-148.211884,,,
729608354.057016,1.231043,-0.573857,54.637106,0.001144,0.012436,0.993469,-0.006569,-0.005045,-0.014509,63.20575,21.853104,-148.211884,,,
729608354.060357,1.228854,-0.57637,54.633567,0.001144,0.012436,0.993469,-0.006569,-0.005045,-0.014509,63.20575,21.853104,-148.211884,,,
729608354.063665,1.225594,-0.583894,54.632213,-0.000977,0.007812,0.996201,-0.008331,-0.014989,-0.000272,63.099258,22.011948,-148.069275,,,
729608354.067066,1.225594,-0.583894,54.632213,-0.000977,0.007812,0.996201,-0.008331,-0.014989,-0.000272,63.099258,22.011948,-148.069275,,,
729608354.070337,1.222773,-0.588784,54.632717,-0.000977,0.007812,0.996201,-0.008331,-0.014989,-0.000272,63.099258,22.011948,-148.069275,,,
729608354.073689,1.218774,-0.599099,54.634226,0.006027,0.006958,0.995621,-0.01776,-0.016801,0.002189,63.099258,22.011948,-148.069275,,,
729608354.077001,1.218774,-0.599099,54.634226,0.006027,0.006958,0.995621,-0.01776,-0.016801,0.002189,63.099258,22.011948,-148.069275,,,
729608354.080409,1.214301,-0.605476,54.635219,0.006027,0.006958,0.995621,-0.01776,-0.016801,0.002189,63.099258,22.011948,-148.069275,,,
729608354.083656,1.207532,-0.617327,54.6352,0.01387,0.016525,0.992432,-0.02357,-0.018253,-0.005107,63.099258,22.011948,-148.069275,,,
729608354.087007,1.207532,-0.617327,54.6352,0.01387,0.016525,0.992432,-0.02357,-0.018253,-0.005107,63.099258,22.011948,-148.069275,,,
729608354.090353,1.200825,-0.622994,54.634036,0.01387,0.016525,0.992432,-0.02357,-0.018253,-0.005107,63.099258,22.011948,-148.069275,,,
729608354.093669,1.193443,-0.633228,54.632534,0.018951,0.024994,0.99379,-0.021674,-0.014537,-0.007149,63.099258,22.011948,-148.069275,,,
729608354.097018,1.193443,-0.633228,54.632534,0.018951,0.024994,0.99379,-0.021674,-0.014537,-0.007149,63.099258,22.011948,-148.069275,,,
729608354.100345,1.187383,-0.637949,54.630709,0.018951,0.024994,0.99379,-0.021674,-0.014537,-0.007149,63.099258,22.011948,-148.069275,,,
729608354.103673,1.18028,-0.643891,54.62837,0.021149,0.021042,0.996887,-0.02243,-0.003908,-0.011978,63.099258,22.011948,-148.069275,,,
729608354.107081,1.18028,-0.643891,54.62837,0.021149,0.021042,0.996887,-0.02243,-0.003908,-0.011978,63.026016,22.140564,-147.998459,,,
729608354.110344,1.174129,-0.645426,54.625638,0.021149,0.021042,0.996887,-0.02243,-0.003908,-0.011978,63.026016,22.140564,-147.998459,,,
729608354.113719,1.165787,-0.645554,54.622494,0.021301,0.020218,0.999268,-0.025125,0.00897,-0.013449,63.026016,22.140564,-147.998459,,,
729608354.117015,1.165787,-0.645554,54.622494,0.021301,0.020218,0.999268,-0.025125,0.00897,-0.013449,63.026016,22.140564,-147.998459,,,
729608354.120413,1.158774,-0.644139,54.619033,0.021301,0.020218,0.999268,-0.025125,0.00897,-0.013449,63.026016,22.140564,-147.998459,,,
729608354.123662,1.149478,-0.640635,54.615729,0.01593,0.025665,0.997269,-0.029542,0.013993,-0.011951,63.026016,22.140564,-147.998459,,,
729608354.127035,1.149478,-0.640635,54.615729,0.01593,0.025665,0.997269,-0.029542,0.013993,-0.011951,63.026016,22.140564,-147.998459,,,
729608354.130351,1.141218,-0.63717,54.612849,0.01593,0.025665,0.997269,-0.029542,0.013993,-0.011951,63.026016,22.140564,-147.998459,,,
729608354.133668,1.130844,-0.631309,54.610379,0.013138,0.025558,0.993652,-0.030402,0.013663,-0.010701,63.026016,22.140564,-147.998459,,,
729608354.137024,1.130844,-0.631309,54.610379,0.013138,0.025558,0.993652,-0.030402,0.013663,-0.010701,63.026016,22.140564,-147.998459,,,
729608354.140352,1.121518,-0.628586,54.607283,0.013138,0.025558,0.993652,-0.030402,0.013663,-0.010701,63.026016,22.140564,-147.998459,,,
729608354.143674,1.110497,-0.623969,54.603539,0.014847,0.026047,0.993698,-0.030583,0.003024,-0.014249,63.026016,22.140564,-147.998459,,,
729608354.147042,1.110497,-0.623969,54.603539,0.014847,0.026047,0.993698,-0.030583,0.003024,-0.014249,63.108734,22.164261,-148.017349,,,
729608354.15035,1.101852,-0.624052,54.599695,0.014847,0.026047,0.993698,-0.030583,0.003024,-0.014249,63.108734,22.164261,-148.017349,,,
729608354.153668,1.089682,-0.623918,54.595371,0.013077,0.02356,0.987366,-0.03431,-0.00938,-0.020547,63.108734,22.164261,-148.017349,,,
729608354.157044,1.089682,-0.623918,54.595371,0.013077,0.02356,0.987366,-0.03431,-0.00938,-0.020547,63.108734,22.164261,-148.017349,,,
729608354.160408,1.079841,-0.628137,54.590909,0.013077,0.02356,0.987366,-0.03431,-0.00938,-0.020547,63.108734,22.164261,-148.017349,,,
729608354.163659,1.066178,-0.634181,54.587059,0.008667,0.026703,0.983841,-0.04746,-0.021685,-0.012951,63.108734,22.164261,-148.017349,,,
729608354.167024,1.066178,-0.634181,54.587059,0.008667,0.026703,0.983841,-0.04746,-0.021685,-0.012951,63.108734,22.164261,-148.017349,,,
729608354.170394,1.051451,-0.642219,54.584249,0.008667,0.026703,0.983841,-0.04746,-0.021685,-0.012951,63.108734,22.164261,-148.017349,,,
729608354.173661,1.036088,-0.65419,54.582567,0.003189,0.029404,0.982986,-0.061542,-0.038035,-0.00538,63.108734,22.164261,-148.017349,,,
729608354.177014,1.036088,-0.65419,54.582567,0.003189,0.029404,0.982986,-0.061542,-0.038035,-0.00538,63.108734,22.164261,-148.017349,,,
729608354.180386,1.017944,-0.66728,54.581541,0.003189,0.029404,0.982986,-0.061542,-0.038035,-0.00538,63.108734,22.164261,-148.017349,,,
729608354.183669,0.999665,-0.686126,54.580456,0.000488,0.034027,0.98494,-0.068139,-0.066376,-0.004099,63.108734,22.164261,-148.017349,,,
729608354.186998,0.999665,-0.686126,54.580456,0.000488,0.034027,0.98494,-0.068139,-0.066376,-0.004099,63.081467,22.366043,-147.886658,,,
729608354.19036,0.978552,-0.706096,54.579325,0.000488,0.034027,0.98494,-0.068139,-0.066376,-0.004099,63.081467,22.366043,-147.886658,,,
729608354.193671,0.957135,-0.731785,54.578555,0.000885,0.035858,0.985336,-0.07399,-0.086406,-0.001097,63.081467,22.366043,-147.886658,,,
729608354.197068,0.957135,-0.731785,54.578555,0.000885,0.035858,0.985336,-0.07399,-0.086406,-0.001097,63.081467,22.366043,-147.886658,,,
729608354.200338,0.935291,-0.757526,54.577844,0.000885,0.035858,0.985336,-0.07399,-0.086406,-0.001097,63.081467,22.366043,-147.886658,,,
729608354.203668,0.915303,-0.786812,54.577721,0.001144,0.034012,0.995056,-0.069735,-0.098311,-0.000546,63.081467,22.366043,-147.886658,,,
729608354.207018,0.915303,-0.786812,54.577721,0.001144,0.034012,0.995056,-0.069735,-0.098311,-0.000546,63.081467,22.366043,-147.886658,,,
729608354.210428,0.894624,-0.816101,54.578227,0.001144,0.034012,0.995056,-0.069735,-0.098311,-0.000546,63.081467,22.366043,-147.886658,,,
