Time (sec),Pitch (deg),Roll (deg),Yaw(deg),X-Acceleration (g),Y-Acceleration (g),Z-Acceleration (g),Pitch Rate (deg/sec),Roll Rate (deg/sec),Yaw Rate (deg/sec),Magnetic Field in X direction (uT),Magnetic Field in Y direction (uT),Magnetic Field in Z Direction (uT),Latitude (deg),Longitude (deg),Altitude (m)
729705737.713779,-2.104373,-2.708952,77.15402,0.041992,-0.039536,0.996033,-0.009356,-0.031895,-0.044867,85.427582,36.549469,-149.731628,,,
729705737.717155,-2.104063,-2.718718,77.141126,0.045898,-0.037689,0.997696,0.002374,-0.02579,-0.047377,85.427582,36.549469,-149.731628,,,
729705737.720534,-2.104063,-2.718718,77.141126,0.045898,-0.037689,0.997696,0.002374,-0.02579,-0.047377,85.427582,36.549469,-149.731628,,,
729705737.723774,-2.103569,-2.724603,77.128405,0.045898,-0.037689,0.997696,0.002374,-0.02579,-0.047377,85.427582,36.549469,-149.731628,,,
729705737.72717,-2.102193,-2.730668,77.11573,0.045898,-0.037689,0.997696,0.002374,-0.02579,-0.047377,85.427582,36.549469,-149.731628,,,
729705737.730457,-2.102193,-2.730668,77.11573,0.047531,-0.039474,0.997955,0.001963,-0.010897,-0.046428,85.427582,36.549469,-149.731628,,,
729705737.733778,-2.101815,-2.732023,77.103961,0.047531,-0.039474,0.997955,0.001963,-0.010897,-0.046428,85.427582,36.549469,-149.731628,,,
729705737.73715,-2.101815,-2.732023,77.093352,0.047531,-0.039474,0.997955,0.001963,-0.010897,-0.046428,85.427582,36.549469,-149.731628,,,
729705737.740449,-2.103166,-2.73331,77.093352,0.049561,-0.040939,0.992111,-0.00976,0.004018,-0.037195,85.427582,36.549469,-149.731628,,,
729705737.74379,-2.105203,-2.729722,77.08408,0.049561,-0.040939,0.992111,-0.00976,0.004018,-0.037195,85.204178,36.422867,-149.543381,,,
729705737.747154,-2.105203,-2.729722,77.076628,0.049561,-0.040939,0.992111,-0.00976,0.004018,-0.037195,85.204178,36.422867,-149.543381,,,
729705737.750431,-2.109892,-2.725364,77.076628,0.050919,-0.0401,0.988922,-0.019313,0.024517,-0.023455,85.204178,36.422867,-149.543381,,,
729705737.753784,-2.114044,-2.715671,77.071148,0.050919,-0.0401,0.988922,-0.019313,0.024517,-0.023455,85.204178,36.422867,-149.543381,,,
729705737.757106,-2.114044,-2.715671,77.071148,0.050919,-0.0401,0.988922,-0.019313,0.024517,-0.023455,85.204178,36.422867,-149.543381,,,
729705737.760558,-2.12069,-2.707905,77.067392,0.057617,-0.037933,0.992157,-0.025129,0.031248,-0.01042,85.204178,36.422867,-149.543381,,,
729705737.763777,-2.127461,-2.69821,77.065622,0.057617,-0.037933,0.992157,-0.025129,0.031248,-0.01042,85.204178,36.422867,-149.543381,,,
729705737.767188,-2.127461,-2.69821,77.064527,0.057617,-0.037933,0.992157,-0.025129,0.031248,-0.01042,85.204178,36.422867,-149.543381,,,
729705737.7704,-2.136445,-2.692196,77.064527,0.058945,-0.032913,0.985764,-0.032432,0.022655,-0.004733,85.204178,36.422867,-149.543381,,,
729705737.773781,-2.146432,-2.684815,77.063018,0.058945,-0.032913,0.985764,-0.032432,0.022655,-0.004733,85.204178,36.422867,-149.543381,,,
729705737.777105,-2.146432,-2.684815,77.063018,0.058945,-0.032913,0.985764,-0.032432,0.022655,-0.004733,85.204178,36.422867,-149.543381,,,
729705737.780453,-2.158182,-2.680248,77.060074,0.059875,-0.027252,0.986115,-0.043229,0.019577,-0.013624,85.204178,36.422867,-149.543381,,,
729705737.783773,-2.172172,-2.674796,77.055054,0.059875,-0.027252,0.986115,-0.043229,0.019577,-0.013624,85.534042,36.368347,-149.434845,,,
729705737.787187,-2.172172,-2.674796,77.055054,0.059875,-0.027252,0.986115,-0.057148,0.000786,-0.028941,85.534042,36.368347,-149.434845,,,
729705737.790451,-2.187414,-2.673967,77.047679,0.060257,-0.026169,0.982025,-0.057148,0.000786,-0.028941,85.534042,36.368347,-149.434845,,,
729705737.793773,-2.204671,-2.675865,77.037798,0.060257,-0.026169,0.982025,-0.057148,0.000786,-0.028941,85.534042,36.368347,-149.434845,,,
729705737.797133,-2.204671,-2.675865,77.037798,0.060257,-0.026169,0.982025,-0.057148,0.000786,-0.028941,85.534042,36.368347,-149.434845,,,
729705737.800514,-2.224156,-2.680902,77.025752,0.061279,-0.024292,0.975067,-0.072937,-0.017674,-0.043222,85.534042,36.368347,-149.434845,,,
729705737.803773,-2.245612,-2.688179,77.012675,0.061279,-0.024292,0.975067,-0.072937,-0.017674,-0.043222,85.534042,36.368347,-149.434845,,,
729705737.807164,-2.245612,-2.688179,77.012675,0.061279,-0.024292,0.975067,-0.072937,-0.017674,-0.043222,85.534042,36.368347,-149.434845,,,
729705737.810435,-2.268618,-2.69723,76.998979,0.057312,-0.02861,0.980728,-0.083081,-0.027885,-0.04692,85.534042,36.368347,-149.434845,,,
729705737.81378,-2.292114,-2.708029,76.984704,0.057312,-0.02861,0.980728,-0.083081,-0.027885,-0.04692,85.534042,36.368347,-149.434845,,,
729705737.817177,-2.292114,-2.708029,76.984704,0.057312,-0.02861,0.980728,-0.083081,-0.027885,-0.04692,85.534042,36.368347,-149.434845,,,
729705737.820441,-2.315027,-2.71969,76.970251,0.059708,-0.030045,0.985657,-0.080094,-0.036899,-0.048511,85.534042,36.368347,-149.434845,,,
729705737.823774,-2.33738,-2.732265,76.955798,0.059708,-0.030045,0.985657,-0.080094,-0.036899,-0.048511,85.534042,36.368347,-149.434845,,,
729705737.827246,-2.33738,-2.732265,76.955798,0.059708,-0.030045,0.985657,-0.080094,-0.036899,-0.048511,85.399307,36.585831,-149.662094,,,
729705737.830431,-2.358202,-2.743565,76.942032,0.058533,-0.034912,0.988831,-0.071832,-0.032507,-0.04428,85.399307,36.585831,-149.662094,,,
729705737.833777,-2.376919,-2.754642,76.929149,0.058533,-0.034912,0.988831,-0.071832,-0.032507,-0.04428,85.399307,36.585831,-149.662094,,,
729705737.83716,-2.376919,-2.754642,76.929149,0.058533,-0.034912,0.988831,-0.071832,-0.032507,-0.04428,85.399307,36.585831,-149.662094,,,
729705737.840537,-2.393769,-2.7627,76.917457,0.050232,-0.039719,0.998154,-0.056854,-0.023408,-0.037156,85.399307,36.585831,-149.662094,,,
729705737.843776,-2.408528,-2.773756,76.906545,0.050232,-0.039719,0.998154,-0.056854,-0.023408,-0.037156,85.399307,36.585831,-149.662094,,,
729705737.847152,-2.408528,-2.773756,76.906545,0.050232,-0.039719,0.998154,-0.056854,-0.023408,-0.037156,85.399307,36.585831,-149.662094,,,
729705737.850443,-2.424796,-2.783875,76.896173,0.048309,-0.043243,0.995621,-0.059473,-0.036622,-0.034,85.399307,36.585831,-149.662094,,,
729705737.853781,-2.438486,-2.799824,76.886544,0.048309,-0.043243,0.995621,-0.059473,-0.036622,-0.034,85.399307,36.585831,-149.662094,,,
729705737.857229,-2.438486,-2.799824,76.886544,0.048309,-0.043243,0.995621,-0.059473,-0.036622,-0.034,85.399307,36.585831,-149.662094,,,
729705737.860481,-2.455774,-2.815199,76.878206,0.038513,-0.046127,0.990234,-0.063406,-0.053116,-0.025684,85.399307,36.585831,-149.662094,,,
729705737.863783,-2.469759,-2.834687,76.870521,0.038513,-0.046127,0.990234,-0.063406,-0.053116,-0.025684,85.399307,36.585831,-149.662094,,,
729705737.867107,-2.469759,-2.834687,76.870521,0.038513,-0.046127,0.990234,-0.063406,-0.053116,-0.025684,85.423859,36.658035,-149.454086,,,
729705737.870456,-2.486727,-2.850972,76.863227,0.036697,-0.045151,0.997726,-0.057262,-0.05205,-0.024136,85.423859,36.658035,-149.454086,,,
729705737.87379,-2.498459,-2.868879,76.855904,0.036697,-0.045151,0.997726,-0.057262,-0.05205,-0.024136,85.423859,36.658035,-149.454086,,,
729705737.87714,-2.498459,-2.868879,76.855904,0.036697,-0.045151,0.997726,-0.057262,-0.05205,-0.024136,85.423859,36.658035,-149.454086,,,
729705737.880481,-2.512155,-2.880166,76.849059,0.039597,-0.046707,1.012482,-0.042191,-0.029163,-0.022548,85.423859,36.658035,-149.454086,,,
729705737.883773,-2.518364,-2.889966,76.842804,0.039597,-0.046707,1.012482,-0.042191,-0.029163,-0.022548,85.423859,36.658035,-149.454086,,,
729705737.887127,-2.518364,-2.889966,76.842804,0.039597,-0.046707,1.012482,-0.042191,-0.029163,-0.022548,85.423859,36.658035,-149.454086,,,
729705737.890502,-2.525654,-2.89346,76.837651,0.043289,-0.052032,1.026505,-0.021134,-0.00365,-0.016755,85.423859,36.658035,-149.454086,,,
729705737.893764,-2.527363,-2.896832,76.833378,0.043289,-0.052032,1.026505,-0.021134,-0.00365,-0.016755,85.423859,36.658035,-149.454086,,,
729705737.897127,-2.527363,-2.896832,76.833378,0.043289,-0.052032,1.026505,-0.021134,-0.00365,-0.016755,85.423859,36.658035,-149.454086,,,
729705737.900448,-2.530654,-2.896837,76.830587,0.041031,-0.053329,1.015457,-0.009745,0.005668,-0.007686,85.423859,36.658035,-149.454086,,,
729705737.903772,-2.53033,-2.897507,76.829552,0.041031,-0.053329,1.015457,-0.009745,0.005668,-0.007686,85.423859,36.658035,-149.454086,,,
729705737.907104,-2.53033,-2.897507,76.829552,0.041031,-0.053329,1.015457,-0.009745,0.005668,-0.007686,85.322144,36.817032,-149.456329,,,
729705737.910493,-2.532764,-2.892471,76.830089,0.039825,-0.048431,1.012787,-0.008987,0.025366,0.002381,85.322144,36.817032,-149.456329,,,
729705737.913773,-2.534481,-2.886699,76.832327,0.039825,-0.048431,1.012787,-0.008987,0.025366,0.002381,85.322144,36.817032,-149.456329,,,
729705737.917219,-2.534481,-2.886699,76.832327,0.039825,-0.048431,1.012787,-0.008987,0.025366,0.002381,85.322144,36.817032,-149.456329,,,
729705737.920463,-2.538948,-2.88017,76.836424,0.041473,-0.045456,1.010086,-0.016272,0.023602,0.015415,85.322144,36.817032,-149.456329,,,
729705737.923782,-2.545075,-2.875595,76.841824,0.041473,-0.045456,1.010086,-0.016272,0.023602,0.015415,85.322144,36.817032,-149.456329,,,
729705737.927173,-2.545075,-2.875595,76.841824,0.041473,-0.045456,1.010086,-0.016272,0.023602,0.015415,85.322144,36.817032,-149.456329,,,
729705737.930546,-2.554495,-2.873934,76.847946,0.040359,-0.044617,0.998047,-0.035052,0.003363,0.021393,85.322144,36.817032,-149.456329,,,
729705737.933764,-2.566296,-2.873955,76.8536,0.040359,-0.044617,0.998047,-0.035052,0.003363,0.021393,85.322144,36.817032,-149.456329,,,
729705737.937105,-2.566296,-2.873955,76.8536,0.040359,-0.044617,0.998047,-0.035052,0.003363,0.021393,85.322144,36.817032,-149.456329,,,
729705737.940451,-2.579847,-2.878504,76.857958,0.043274,-0.042847,0.992935,-0.04928,-0.016666,0.013493,85.322144,36.817032,-149.456329,,,
729705737.94377,-2.594429,-2.881571,76.861126,0.043274,-0.042847,0.992935,-0.04928,-0.016666,0.013493,85.322144,36.817032,-149.456329,,,
729705737.947121,-2.594429,-2.881571,76.861126,0.043274,-0.042847,0.992935,-0.04928,-0.016666,0.013493,85.341751,36.895264,-149.443726,,,
729705737.95045,-2.607285,-2.890146,76.863041,0.042953,-0.044266,1.001556,-0.038964,-0.030227,0.005371,85.341751,36.895264,-149.443726,,,
729705737.953778,-2.617266,-2.898283,76.864595,0.042953,-0.044266,1.001556,-0.038964,-0.030227,0.005371,85.341751,36.895264,-149.443726,,,
729705737.957194,-2.617266,-2.898283,76.864595,0.042953,-0.044266,1.001556,-0.038964,-0.030227,0.005371,85.341751,36.895264,-149.443726,,,
729705737.96045,-2.624486,-2.913746,76.86518,0.041245,-0.048233,1.002243,-0.019309,-0.057542,-0.001325,85.341751,36.895264,-149.443726,,,
729705737.96378,-2.62963,-2.929684,76.864908,0.041245,-0.048233,1.002243,-0.019309,-0.057542,-0.001325,85.341751,36.895264,-149.443726,,,
729705737.967107,-2.62963,-2.929684,76.864908,0.041245,-0.048233,1.002243,-0.019309,-0.057542,-0.001325,85.341751,36.895264,-149.443726,,,
729705737.970506,-2.632736,-2.949482,76.865149,0.041183,-0.053375,0.99971,-0.008573,-0.067075,0.002491,85.341751,36.895264,-149.443726,,,
729705737.973772,-2.636151,-2.965866,76.866412,0.041183,-0.053375,0.99971,-0.008573,-0.067075,0.002491,85.341751,36.895264,-149.443726,,,
729705737.977126,-2.636151,-2.965866,76.866412,0.041183,-0.053375,0.99971,-0.008573,-0.067075,0.002491,85.341751,36.895264,-149.443726,,,
729705737.980455,-2.637477,-2.981518,76.867208,0.044022,-0.054977,1.002945,-0.004531,-0.045263,-0.000219,85.341751,36.895264,-149.443726,,,
729705737.983776,-2.64072,-2.99148,76.868278,0.044022,-0.054977,1.002945,-0.004531,-0.045263,-0.000219,85.341751,36.895264,-149.443726,,,
729705737.987111,-2.64072,-2.99148,76.868278,0.044022,-0.054977,1.002945,-0.004531,-0.045263,-0.000219,85.341751,36.895264,-149.443726,,,
729705737.990518,-2.64338,-3.001414,76.870682,0.054535,-0.057571,1.000595,-0.00763,-0.023558,0.010218,85.334106,36.842117,-149.423416,,,
729705737.993768,-2.644931,-3.002809,76.874938,0.054535,-0.057571,1.000595,-0.00763,-0.023558,0.010218,85.334106,36.842117,-149.423416,,,
729705737.997185,-2.644931,-3.002809,76.874938,0.054535,-0.057571,1.000595,-0.00763,-0.023558,0.010218,85.334106,36.842117,-149.423416,,,
729705738.000446,-2.645167,-3.001232,76.88061,0.057846,-0.066254,1.008759,0.003725,0.017028,0.020411,85.334106,36.842117,-149.423416,,,
729705738.003791,-2.643714,-2.993028,76.887625,0.057846,-0.066254,1.008759,0.003725,0.017028,0.020411,85.334106,36.842117,-149.423416,,,
729705738.007122,-2.643714,-2.993028,76.887625,0.057846,-0.066254,1.008759,0.003725,0.017028,0.020411,85.334106,36.842117,-149.423416,,,
729705738.010511,-2.641743,-2.986668,76.895985,0.057983,-0.067215,1.000748,0.009413,0.025756,0.030524,85.334106,36.842117,-149.423416,,,
729705738.013771,-2.639391,-2.975907,76.906337,0.057983,-0.067215,1.000748,0.009413,0.025756,0.030524,85.334106,36.842117,-149.423416,,,
729705738.017127,-2.639391,-2.975907,76.906337,0.057983,-0.067215,1.000748,0.009413,0.025756,0.030524,85.334106,36.842117,-149.423416,,,
729705738.020461,-2.637672,-2.966135,76.91745,0.05481,-0.065491,0.995071,0.009409,0.037343,0.036703,85.334106,36.842117,-149.423416,,,
729705738.02377,-2.635283,-2.953236,76.928044,0.05481,-0.065491,0.995071,0.009409,0.037343,0.036703,85.334106,36.842117,-149.423416,,,
729705738.027116,-2.635283,-2.953236,76.928044,0.05481,-0.065491,0.995071,0.009409,0.037343,0.036703,85.334106,36.842117,-149.423416,,,
729705738.03045,-2.63478,-2.942164,76.937665,0.05809,-0.059814,0.992477,0.001604,0.038393,0.030951,85.451721,36.676682,-149.535843,,,
729705738.033774,-2.636836,-2.929359,76.946024,0.05809,-0.059814,0.992477,0.001604,0.038393,0.030951,85.451721,36.676682,-149.535843,,,
729705738.037191,-2.636836,-2.929359,76.946024,0.05809,-0.059814,0.992477,0.001604,0.038393,0.030951,85.451721,36.676682,-149.535843,,,
729705738.040453,-2.641719,-2.918829,76.952574,0.059479,-0.053421,0.98175,-0.019246,0.039822,0.020188,85.451721,36.676682,-149.535843,,,
729705738.043778,-2.65001,-2.905057,76.957857,0.059479,-0.053421,0.98175,-0.019246,0.039822,0.020188,85.451721,36.676682,-149.535843,,,
729705738.047171,-2.65001,-2.905057,76.957857,0.059479,-0.053421,0.98175,-0.019246,0.039822,0.020188,85.451721,36.676682,-149.535843,,,
729705738.050529,-2.660502,-2.893104,76.961646,0.059097,-0.052078,0.986526,-0.041979,0.044505,0.011667,85.451721,36.676682,-149.535843,,,
729705738.053791,-2.676633,-2.879824,76.964197,0.059097,-0.052078,0.986526,-0.041979,0.044505,0.011667,85.451721,36.676682,-149.535843,,,
729705738.057123,-2.676633,-2.879824,76.964197,0.059097,-0.052078,0.986526,-0.041979,0.044505,0.011667,85.451721,36.676682,-149.535843,,,
729705738.060442,-2.693854,-2.871052,76.965525,0.061066,-0.048248,0.97551,-0.064089,0.029329,0.004959,85.451721,36.676682,-149.535843,,,
729705738.063848,-2.715312,-2.86421,76.965541,0.061066,-0.048248,0.97551,-0.064089,0.029329,0.004959,85.451721,36.676682,-149.535843,,,
729705738.067111,-2.715312,-2.86421,76.965541,0.061066,-0.048248,0.97551,-0.064089,0.029329,0.004959,85.451721,36.676682,-149.535843,,,
729705738.070455,-2.736779,-2.858505,76.964082,0.068588,-0.050369,0.971741,-0.0773,0.02244,-0.00462,85.344711,36.875244,-149.107056,,,
729705738.073772,-2.763135,-2.853928,76.961193,0.068588,-0.050369,0.971741,-0.0773,0.02244,-0.00462,85.344711,36.875244,-149.107056,,,
729705738.077106,-2.763135,-2.853928,76.961193,0.068588,-0.050369,0.971741,-0.0773,0.02244,-0.00462,85.344711,36.875244,-149.107056,,,
729705738.080433,-2.787708,-2.847035,76.956749,0.073883,-0.053024,0.97493,-0.088649,0.027493,-0.015491,85.344711,36.875244,-149.107056,,,
729705738.083776,-2.818137,-2.842057,76.950811,0.073883,-0.053024,0.97493,-0.088649,0.027493,-0.015491,85.344711,36.875244,-149.107056,,,
729705738.087115,-2.818137,-2.842057,76.950811,0.073883,-0.053024,0.97493,-0.088649,0.027493,-0.015491,85.344711,36.875244,-149.107056,,,
729705738.090436,-2.844846,-2.834515,76.94354,0.075058,-0.051865,0.970184,-0.092549,0.031494,-0.02528,85.344711,36.875244,-149.107056,,,
729705738.09384,-2.874415,-2.827096,76.93481,0.075058,-0.051865,0.970184,-0.092549,0.031494,-0.02528,85.344711,36.875244,-149.107056,,,
729705738.097099,-2.874415,-2.827096,76.93481,0.075058,-0.051865,0.970184,-0.092549,0.031494,-0.02528,85.344711,36.875244,-149.107056,,,
729705738.100438,-2.899276,-2.814669,76.924486,0.079224,-0.045792,0.98143,-0.088724,0.0547,-0.03722,85.344711,36.875244,-149.107056,,,
729705738.103772,-2.927303,-2.801125,76.912634,0.079224,-0.045792,0.98143,-0.088724,0.0547,-0.03722,85.344711,36.875244,-149.107056,,,
729705738.107103,-2.927303,-2.801125,76.912634,0.079224,-0.045792,0.98143,-0.088724,0.0547,-0.03722,85.344711,36.875244,-149.107056,,,
729705738.110476,-2.953378,-2.784465,76.900574,0.077682,-0.040833,0.979721,-0.094578,0.064466,-0.039166,85.344711,36.875244,-149.107056,,,
729705738.113773,-2.982638,-2.770842,76.889545,0.077682,-0.040833,0.979721,-0.094578,0.064466,-0.039166,85.310974,37.28154,-149.1427,,,
729705738.117124,-2.982638,-2.770842,76.889545,0.077682,-0.040833,0.979721,-0.094578,0.064466,-0.039166,85.310974,37.28154,-149.1427,,,
729705738.120448,-3.013011,-2.753304,76.880268,0.066391,-0.040588,0.965744,-0.111442,0.07003,-0.027292,85.310974,37.28154,-149.1427,,,
729705738.123786,-3.046664,-2.735276,76.870444,0.066391,-0.040588,0.965744,-0.111442,0.07003,-0.027292,85.310974,37.28154,-149.1427,,,
729705738.127102,-3.046664,-2.735276,76.870444,0.066391,-0.040588,0.965744,-0.111442,0.07003,-0.027292,85.310974,37.28154,-149.1427,,,
729705738.130436,-3.083344,-2.711136,76.860411,0.071075,-0.03978,0.977341,-0.133282,0.092127,-0.028889,85.310974,37.28154,-149.1427,,,
729705738.133768,-3.122648,-2.689388,76.850686,0.071075,-0.03978,0.977341,-0.133282,0.092127,-0.028889,85.310974,37.28154,-149.1427,,,
729705738.137181,-3.122648,-2.689388,76.850686,0.071075,-0.03978,0.977341,-0.133282,0.092127,-0.028889,85.310974,37.28154,-149.1427,,,
729705738.140453,-3.166289,-2.665848,76.841055,0.063141,-0.044418,0.967896,-0.159152,0.085156,-0.02808,85.310974,37.28154,-149.1427,,,
729705738.143433,-3.212131,-2.647591,76.830836,0.063141,-0.044418,0.967896,-0.159152,0.085156,-0.02808,85.310974,37.28154,-149.1427,,,
729705738.147156,-3.212131,-2.647591,76.830836,0.063141,-0.044418,0.967896,-0.159152,0.085156,-0.02808,85.310974,37.28154,-149.1427,,,
729705738.150435,-3.262225,-2.62811,76.818958,0.057144,-0.045258,0.968857,-0.18294,0.070524,-0.039978,85.310974,37.28154,-149.1427,,,
729705738.153789,-3.315179,-2.615144,76.803637,0.057144,-0.045258,0.968857,-0.18294,0.070524,-0.039978,85.537018,37.6203,-149.048889,,,
729705738.156856,-3.315179,-2.615144,76.803637,0.057144,-0.045258,0.968857,-0.18294,0.070524,-0.039978,85.537018,37.6203,-149.048889,,,
729705738.160501,-3.370808,-2.600809,76.784569,0.056747,-0.040955,0.971527,-0.19909,0.053179,-0.067006,85.537018,37.6203,-149.048889,,,
729705738.163796,-3.426895,-2.592069,76.760477,0.056747,-0.040955,0.971527,-0.19909,0.053179,-0.067006,85.537018,37.6203,-149.048889,,,
729705738.167112,-3.426895,-2.592069,76.760477,0.056747,-0.040955,0.971527,-0.19909,0.053179,-0.067006,85.537018,37.6203,-149.048889,,,
729705738.170452,-3.484234,-2.580357,76.732724,0.052856,-0.044357,0.982666,-0.205351,0.048426,-0.093907,85.537018,37.6203,-149.048889,,,
729705738.17377,-3.540798,-2.573244,76.702362,0.052856,-0.044357,0.982666,-0.205351,0.048426,-0.093907,85.537018,37.6203,-149.048889,,,
729705738.177166,-3.540798,-2.573244,76.702362,0.052856,-0.044357,0.982666,-0.205351,0.048426,-0.093907,85.537018,37.6203,-149.048889,,,
729705738.180506,-3.598795,-2.563342,76.670631,0.044052,-0.049957,0.991013,-0.207232,0.040703,-0.105183,85.537018,37.6203,-149.048889,,,
729705738.183773,-3.655,-2.560172,76.637012,0.044052,-0.049957,0.991013,-0.207232,0.040703,-0.105183,85.537018,37.6203,-149.048889,,,
729705738.187174,-3.655,-2.560172,76.637012,0.044052,-0.049957,0.991013,-0.207232,0.040703,-0.105183,85.537018,37.6203,-149.048889,,,
729705738.190446,-3.71267,-2.553646,76.602095,0.033768,-0.055527,0.989044,-0.203347,0.034062,-0.116266,85.537018,37.6203,-149.048889,,,
729705738.193783,-3.766208,-2.550057,76.566511,0.033768,-0.055527,0.989044,-0.203347,0.034062,-0.116266,85.555984,37.9646,-149.146927,,,
729705738.19677,-3.766208,-2.550057,76.566511,0.033768,-0.055527,0.989044,-0.203347,0.034062,-0.116266,85.555984,37.9646,-149.146927,,,
729705738.200526,-3.820613,-2.542391,76.532392,0.032806,-0.062897,1.001923,-0.191325,0.038889,-0.108198,85.555984,37.9646,-149.146927,,,
729705738.2038,-3.870407,-2.537283,76.500391,0.032806,-0.062897,1.001923,-0.191325,0.038889,-0.108198,85.555984,37.9646,-149.146927,,,
729705738.207216,-3.870407,-2.537283,76.500391,0.032806,-0.062897,1.001923,-0.191325,0.038889,-0.108198,85.555984,37.9646,-149.146927,,,
729705738.210276,-3.92169,-2.52916,76.471913,0.024506,-0.07225,1.003799,-0.178622,0.034764,-0.085847,85.555984,37.9646,-149.146927,,,
729705738.213792,-3.966822,-2.526841,76.447637,0.024506,-0.07225,1.003799,-0.178622,0.034764,-0.085847,85.555984,37.9646,-149.146927,,,
729705738.217135,-3.966822,-2.526841,76.447637,0.024506,-0.07225,1.003799,-0.178622,0.034764,-0.085847,85.555984,37.9646,-149.146927,,,
729705738.220467,-4.012513,-2.52421,76.428389,0.016098,-0.079376,1.003845,-0.15663,0.007943,-0.053579,85.555984,37.9646,-149.146927,,,
729705738.223771,-4.052041,-2.529647,76.413572,0.016098,-0.079376,1.003845,-0.15663,0.007943,-0.053579,85.555984,37.9646,-149.146927,,,
729705738.227208,-4.052041,-2.529647,76.413572,0.016098,-0.079376,1.003845,-0.15663,0.007943,-0.053579,85.555984,37.9646,-149.146927,,,
729705738.230437,-4.090976,-2.537818,76.403511,0.010101,-0.082031,1.004074,-0.127545,-0.033276,-0.023172,85.555984,37.9646,-149.146927,,,
729705738.233877,-4.120941,-2.553367,76.396166,0.010101,-0.082031,1.004074,-0.127545,-0.033276,-0.023172,85.48584,38.392914,-148.714188,,,
729705738.237126,-4.120941,-2.553367,76.396166,0.010101,-0.082031,1.004074,-0.127545,-0.033276,-0.023172,85.48584,38.392914,-148.714188,,,
729705738.240466,-4.153166,-2.569341,76.389768,0.013702,-0.079147,1.008316,-0.10761,-0.05542,-0.018715,85.48584,38.392914,-148.714188,,,
729705738.243769,-4.176979,-2.589619,76.382182,0.013702,-0.079147,1.008316,-0.10761,-0.05542,-0.018715,85.48584,38.392914,-148.714188,,,
729705738.2471,-4.176979,-2.589619,76.382182,0.013702,-0.079147,1.008316,-0.10761,-0.05542,-0.018715,85.48584,38.392914,-148.714188,,,
729705738.250459,-4.204225,-2.608801,76.372335,0.022766,-0.072067,1.01123,-0.094068,-0.063258,-0.036212,85.48584,38.392914,-148.714188,,,
729705738.253769,-4.225348,-2.630082,76.359723,0.022766,-0.072067,1.01123,-0.094068,-0.063258,-0.036212,85.48584,38.392914,-148.714188,,,
729705738.257121,-4.225348,-2.630082,76.359723,0.022766,-0.072067,1.01123,-0.094068,-0.063258,-0.036212,85.48584,38.392914,-148.714188,,,
729705738.26045,-4.250612,-2.650581,76.344872,0.022552,-0.066742,1.011566,-0.089602,-0.063856,-0.052426,85.48584,38.392914,-148.714188,,,
729705738.263776,-4.270701,-2.668971,76.329089,0.022552,-0.066742,1.011566,-0.089602,-0.063856,-0.052426,85.48584,38.392914,-148.714188,,,
729705738.267161,-4.270701,-2.668971,76.329089,0.022552,-0.066742,1.011566,-0.089602,-0.063856,-0.052426,85.48584,38.392914,-148.714188,,,
729705738.270444,-4.295666,-2.690274,76.313371,0.023087,-0.07048,1.007965,-0.088533,-0.068686,-0.050764,85.48584,38.392914,-148.714188,,,
729705738.273771,-4.316743,-2.708655,76.299629,0.023087,-0.07048,1.007965,-0.088533,-0.068686,-0.050764,85.48584,38.392914,-148.714188,,,
729705738.277118,-4.316743,-2.708655,76.299629,0.023087,-0.07048,1.007965,-0.088533,-0.068686,-0.050764,85.339157,38.485092,-149.008759,,,
729705738.280499,-4.341252,-2.72996,76.288305,0.026718,-0.078247,1.004929,-0.084726,-0.067044,-0.032286,85.339157,38.485092,-149.008759,,,
729705738.283762,-4.36378,-2.744527,76.280296,0.026718,-0.078247,1.004929,-0.084726,-0.067044,-0.032286,85.339157,38.485092,-149.008759,,,
729705738.287124,-4.36378,-2.744527,76.280296,0.026718,-0.078247,1.004929,-0.084726,-0.067044,-0.032286,85.339157,38.485092,-149.008759,,,
729705738.290441,-4.388802,-2.760502,76.275806,0.033127,-0.080276,1.009064,-0.086559,-0.046303,-0.005232,85.339157,38.485092,-149.008759,,,
729705738.293769,-4.412994,-2.765518,76.275881,0.033127,-0.080276,1.009064,-0.086559,-0.046303,-0.005232,85.339157,38.485092,-149.008759,,,
729705738.297116,-4.412994,-2.765518,76.275881,0.033127,-0.080276,1.009064,-0.086559,-0.046303,-0.005232,85.339157,38.485092,-149.008759,,,
729705738.300457,-4.437312,-2.773847,76.278482,0.041183,-0.078598,1.0103,-0.08483,-0.019581,0.016239,85.339157,38.485092,-149.008759,,,
729705738.303765,-4.462156,-2.768095,76.28427,0.041183,-0.078598,1.0103,-0.08483,-0.019581,0.016239,85.339157,38.485092,-149.008759,,,
729705738.307206,-4.462156,-2.768095,76.28427,0.041183,-0.078598,1.0103,-0.08483,-0.019581,0.016239,85.339157,38.485092,-149.008759,,,
729705738.310469,-4.485654,-2.767244,76.290037,0.044952,-0.077835,1.009964,-0.081451,0.012192,0.021056,85.339157,38.485092,-149.008759,,,
729705738.31378,-4.508249,-2.753166,76.296436,0.044952,-0.077835,1.009964,-0.081451,0.012192,0.021056,85.339157,38.485092,-149.008759,,,
729705738.317119,-4.508249,-2.753166,76.296436,0.044952,-0.077835,1.009964,-0.081451,0.012192,0.021056,85.267685,38.634735,-148.835159,,,
729705738.32044,-4.528875,-2.746278,76.302466,0.046677,-0.073853,1.009262,-0.071542,0.030078,0.023255,85.267685,38.634735,-148.835159,,,
729705738.32378,-4.547784,-2.730057,76.309085,0.046677,-0.073853,1.009262,-0.071542,0.030078,0.023255,85.267685,38.634735,-148.835159,,,
729705738.327103,-4.547784,-2.730057,76.309085,0.046677,-0.073853,1.009262,-0.071542,0.030078,0.023255,85.267685,38.634735,-148.835159,,,
729705738.330518,-4.566713,-2.721423,76.315922,0.044434,-0.07605,1.003098,-0.064275,0.028858,0.028518,85.267685,38.634735,-148.835159,,,
729705738.33376,-4.582359,-2.706745,76.323772,0.044434,-0.07605,1.003098,-0.064275,0.028858,0.028518,85.267685,38.634735,-148.835159,,,
729705738.337124,-4.582359,-2.706745,76.323772,0.044434,-0.07605,1.003098,-0.064275,0.028858,0.028518,85.267685,38.634735,-148.835159,,,
729705738.340451,-4.600818,-2.697077,76.331023,0.042343,-0.076141,1.003296,-0.063776,0.037601,0.027844,85.267685,38.634735,-148.835159,,,
729705738.343766,-4.616607,-2.680375,76.339461,0.042343,-0.076141,1.003296,-0.063776,0.037601,0.027844,85.267685,38.634735,-148.835159,,,
729705738.347126,-4.616607,-2.680375,76.339461,0.042343,-0.076141,1.003296,-0.063776,0.037601,0.027844,85.267685,38.634735,-148.835159,,,
729705738.350529,-4.637159,-2.671249,76.347724,0.043701,-0.07547,1.000824,-0.075864,0.02922,0.030716,85.267685,38.634735,-148.835159,,,
729705738.353751,-4.658495,-2.658726,76.356244,0.043701,-0.07547,1.000824,-0.075864,0.02922,0.030716,85.267685,38.634735,-148.835159,,,
729705738.357109,-4.658495,-2.658726,76.356244,0.043701,-0.07547,1.000824,-0.075864,0.02922,0.030716,85.494415,38.91449,-149.090134,,,
729705738.360438,-4.683768,-2.654549,76.363258,0.049332,-0.073456,0.988586,-0.091789,0.01207,0.02422,85.494415,38.91449,-149.090134,,,
729705738.36377,-4.711337,-2.647413,76.369426,0.049332,-0.073456,0.988586,-0.091789,0.01207,0.02422,85.494415,38.91449,-149.090134,,,
729705738.367153,-4.711337,-2.647413,76.369426,0.049332,-0.073456,0.988586,-0.091789,0.01207,0.02422,85.494415,38.91449,-149.090134,,,
729705738.370448,-4.742028,-2.645205,76.374302,0.050003,-0.073242,0.989212,-0.110975,0.0092,0.018588,85.494415,38.91449,-149.090134,,,
729705738.373769,-4.775113,-2.64103,76.37803,0.050003,-0.073242,0.989212,-0.110975,0.0092,0.018588,85.494415,38.91449,-149.090134,,,
729705738.377108,-4.775113,-2.64103,76.37803,0.050003,-0.073242,0.989212,-0.110975,0.0092,0.018588,85.494415,38.91449,-149.090134,,,
729705738.380517,-4.812851,-2.640069,76.380446,0.049103,-0.077209,0.985352,-0.136242,0.003412,0.011864,85.494415,38.91449,-149.090134,,,
729705738.383787,-4.852432,-2.640295,76.382123,0.049103,-0.077209,0.985352,-0.136242,0.003412,0.011864,85.494415,38.91449,-149.090134,,,
729705738.387131,-4.852432,-2.640295,76.382123,0.049103,-0.077209,0.985352,-0.136242,0.003412,0.011864,85.494415,38.91449,-149.090134,,,
729705738.390453,-4.896677,-2.643449,76.382835,0.050919,-0.082611,0.973648,-0.15887,-0.011349,0.006601,85.494415,38.91449,-149.090134,,,
729705738.393793,-4.942064,-2.648536,76.382644,0.050919,-0.082611,0.973648,-0.15887,-0.011349,0.006601,85.494415,38.91449,-149.090134,,,
729705738.397105,-4.942064,-2.648536,76.382644,0.050919,-0.082611,0.973648,-0.15887,-0.011349,0.006601,85.306961,39.104263,-148.7211,,,
729705738.400452,-4.994513,-2.654751,76.382134,0.054276,-0.083893,0.971436,-0.190333,-0.017968,0.005967,85.306961,39.104263,-148.7211,,,
729705738.403767,-5.049618,-2.660147,76.381818,0.054276,-0.083893,0.971436,-0.190333,-0.017968,0.005967,85.306961,39.104263,-148.7211,,,
729705738.407186,-5.049618,-2.660147,76.381818,0.054276,-0.083893,0.971436,-0.190333,-0.017968,0.005967,85.306961,39.104263,-148.7211,,,
729705738.410451,-5.114076,-2.663823,76.382372,0.052078,-0.082703,0.968979,-0.23383,-0.00394,0.01435,85.306961,39.104263,-148.7211,,,
729705738.413806,-5.182023,-2.663899,76.384397,0.052078,-0.082703,0.968979,-0.23383,-0.00394,0.01435,85.306961,39.104263,-148.7211,,,
729705738.417116,-5.182023,-2.663899,76.384397,0.052078,-0.082703,0.968979,-0.23383,-0.00394,0.01435,85.306961,39.104263,-148.7211,,,
729705738.420513,-5.259253,-2.664492,76.385923,0.051666,-0.081436,0.967438,-0.278046,-0.001927,0.01342,85.306961,39.104263,-148.7211,,,
729705738.423785,-5.338958,-2.665911,76.384058,0.051666,-0.081436,0.967438,-0.278046,-0.001927,0.01342,85.306961,39.104263,-148.7211,,,
729705738.427122,-5.338958,-2.665911,76.384058,0.051666,-0.081436,0.967438,-0.278046,-0.001927,0.01342,85.306961,39.104263,-148.7211,,,
729705738.430444,-5.429799,-2.668402,76.377864,0.079315,-0.069946,0.957733,-0.33058,-0.000888,-0.013647,85.306961,39.104263,-148.7211,,,
729705738.433876,-5.523189,-2.668938,76.369342,0.079315,-0.069946,0.957733,-0.33058,-0.000888,-0.013647,85.306961,39.104263,-148.7211,,,
729705738.437101,-5.523189,-2.668938,76.369342,0.079315,-0.069946,0.957733,-0.33058,-0.000888,-0.013647,85.306961,39.104263,-148.7211,,,
729705738.440439,-5.62721,-2.667535,76.359251,0.063919,-0.078873,0.965286,-0.373433,0.014631,-0.022416,85.319229,39.614975,-148.497421,,,
729705738.443839,-5.730402,-2.666661,76.347903,0.063919,-0.078873,0.965286,-0.373433,0.014631,-0.022416,85.319229,39.614975,-148.497421,,,
729705738.447175,-5.730402,-2.666661,76.347903,0.063919,-0.078873,0.965286,-0.373433,0.014631,-0.022416,85.319229,39.614975,-148.497421,,,
729705738.45044,-5.842818,-2.666572,76.335701,0.051773,-0.09552,0.964508,-0.397968,0.001777,-0.027997,85.319229,39.614975,-148.497421,,,
729705738.453794,-5.952907,-2.671462,76.321656,0.051773,-0.09552,0.964508,-0.397968,0.001777,-0.027997,85.319229,39.614975,-148.497421,,,
729705738.457124,-5.952907,-2.671462,76.321656,0.051773,-0.09552,0.964508,-0.397968,0.001777,-0.027997,85.319229,39.614975,-148.497421,,,
729705738.460513,-6.071793,-2.680026,76.305928,0.054993,-0.100372,0.956833,-0.422934,-0.027551,-0.038915,85.319229,39.614975,-148.497421,,,
729705738.463777,-6.190449,-2.692544,76.289381,0.054993,-0.100372,0.956833,-0.422934,-0.027551,-0.038915,85.319229,39.614975,-148.497421,,,
729705738.46711,-6.190449,-2.692544,76.289381,0.054993,-0.100372,0.956833,-0.422934,-0.027551,-0.038915,85.319229,39.614975,-148.497421,,,
729705738.470433,-6.316105,-2.706838,76.274166,0.043015,-0.109543,0.960754,-0.44554,-0.045113,-0.028839,85.319229,39.614975,-148.497421,,,
729705738.473822,-6.442192,-2.724538,76.261905,0.043015,-0.109543,0.960754,-0.44554,-0.045113,-0.028839,85.319229,39.614975,-148.497421,,,
729705738.477101,-6.442192,-2.724538,76.261905,0.043015,-0.109543,0.960754,-0.44554,-0.045113,-0.028839,85.319229,39.614975,-148.497421,,,
729705738.480455,-6.574287,-2.744047,76.254234,0.030533,-0.121979,0.958115,-0.464651,-0.067125,0.003475,85.350388,40.602249,-148.140244,,,
729705738.4838,-6.706986,-2.766005,76.251788,0.030533,-0.121979,0.958115,-0.464651,-0.067125,0.003475,85.350388,40.602249,-148.140244,,,
729705738.487161,-6.706986,-2.766005,76.251788,0.030533,-0.121979,0.958115,-0.464651,-0.067125,0.003475,85.350388,40.602249,-148.140244,,,
729705738.490434,-6.847464,-2.78813,76.255898,0.029037,-0.134155,0.956039,-0.495834,-0.07915,0.050149,85.350388,40.602249,-148.140244,,,
729705738.493815,-6.993321,-2.811095,76.268055,0.029037,-0.134155,0.956039,-0.495834,-0.07915,0.050149,85.350388,40.602249,-148.140244,,,
729705738.497186,-6.993321,-2.811095,76.268055,0.029037,-0.134155,0.956039,-0.495834,-0.07915,0.050149,85.350388,40.602249,-148.140244,,,
729705738.500577,-7.144167,-2.834032,76.287991,0.023743,-0.144394,0.94899,-0.527763,-0.08563,0.105931,85.350388,40.602249,-148.140244,,,
729705738.50385,-7.2987,-2.854837,76.314528,0.023743,-0.144394,0.94899,-0.527763,-0.08563,0.105931,85.350388,40.602249,-148.140244,,,
729705738.507124,-7.2987,-2.854837,76.314528,0.023743,-0.144394,0.94899,-0.527763,-0.08563,0.105931,85.350388,40.602249,-148.140244,,,
729705738.510454,-7.455382,-2.870413,76.346148,0.028824,-0.140762,0.956482,-0.541019,-0.054085,0.142109,85.350388,40.602249,-148.140244,,,
729705738.513874,-7.612887,-2.879103,76.380012,0.028824,-0.140762,0.956482,-0.541019,-0.054085,0.142109,85.350388,40.602249,-148.140244,,,
729705738.517114,-7.612887,-2.879103,76.380012,0.028824,-0.140762,0.956482,-0.541019,-0.054085,0.142109,85.350388,40.602249,-148.140244,,,
729705738.520448,-7.771038,-2.88065,76.412658,0.048843,-0.128189,0.976089,-0.545822,-0.003637,0.133901,85.307739,41.653046,-147.810287,,,
729705738.523806,-7.929653,-2.874356,76.442595,0.048843,-0.128189,0.976089,-0.545822,-0.003637,0.133901,85.307739,41.653046,-147.810287,,,
729705738.527195,-7.929653,-2.874356,76.442595,0.048843,-0.128189,0.976089,-0.545822,-0.003637,0.133901,85.307739,41.653046,-147.810287,,,
729705738.530453,-8.089079,-2.859744,76.469183,0.056,-0.125061,0.978943,-0.552817,0.057145,0.110895,85.307739,41.653046,-147.810287,,,
729705738.533778,-8.089079,-2.859744,76.469183,0.056,-0.125061,0.978943,-0.552817,0.057145,0.110895,85.307739,41.653046,-147.810287,,,
729705738.53711,-8.251588,-2.837517,76.491551,0.056,-0.125061,0.978943,-0.552817,0.057145,0.110895,85.307739,41.653046,-147.810287,,,
729705738.5405,-8.417388,-2.809261,76.509713,0.052246,-0.12764,0.973648,-0.5776,0.103139,0.082573,85.307739,41.653046,-147.810287,,,
729705738.543778,-8.417388,-2.809261,76.509713,0.052246,-0.12764,0.973648,-0.5776,0.103139,0.082573,85.307739,41.653046,-147.810287,,,
729705738.547113,-8.586861,-2.777059,76.523701,0.052246,-0.12764,0.973648,-0.5776,0.103139,0.082573,85.307739,41.653046,-147.810287,,,
729705738.550453,-8.760967,-2.743385,76.533518,0.051895,-0.136719,0.957565,-0.611429,0.117678,0.054638,85.307739,41.653046,-147.810287,,,
729705738.553862,-8.938071,-2.710027,76.540491,0.051895,-0.136719,0.957565,-0.611429,0.117678,0.054638,85.307739,41.653046,-147.810287,,,
729705738.55711,-8.938071,-2.710027,76.540491,0.051895,-0.136719,0.957565,-0.611429,0.117678,0.054638,85.307739,41.653046,-147.810287,,,
729705738.560437,-9.117005,-2.678914,76.545793,0.047928,-0.152435,0.957504,-0.625136,0.103919,0.043096,85.36998,42.834,-147.254868,,,
729705738.563776,-9.117005,-2.678914,76.545793,0.047928,-0.152435,0.957504,-0.625136,0.103919,0.043096,85.36998,42.834,-147.254868,,,
729705738.567182,-9.298276,-2.651643,76.550661,0.047928,-0.152435,0.957504,-0.625136,0.103919,0.043096,85.36998,42.834,-147.254868,,,
729705738.570453,-9.482977,-2.629338,76.556399,0.034485,-0.168076,0.957001,-0.648632,0.068355,0.049616,85.36998,42.834,-147.254868,,,
729705738.573785,-9.482977,-2.629338,76.556399,0.034485,-0.168076,0.957001,-0.648632,0.068355,0.049616,85.36998,42.834,-147.254868,,,
729705738.577116,-9.672831,-2.613031,76.563659,0.034485,-0.168076,0.957001,-0.648632,0.068355,0.049616,85.36998,42.834,-147.254868,,,
729705738.58051,-9.867966,-2.604562,76.572953,0.020706,-0.180008,0.94371,-0.684889,0.011332,0.064944,85.36998,42.834,-147.254868,,,
729705738.583771,-9.867966,-2.604562,76.572953,0.020706,-0.180008,0.94371,-0.684889,0.011332,0.064944,85.36998,42.834,-147.254868,,,
729705738.587109,-10.067403,-2.60433,76.584446,0.020706,-0.180008,0.94371,-0.684889,0.011332,0.064944,85.36998,42.834,-147.254868,,,
729705738.590445,-10.270352,-2.610511,76.597599,0.01947,-0.186325,0.943604,-0.709192,-0.035478,0.0774,85.36998,42.834,-147.254868,,,
729705738.593827,-10.270352,-2.610511,76.610997,0.01947,-0.186325,0.943604,-0.709192,-0.035478,0.0774,85.36998,42.834,-147.254868,,,
729705738.597092,-10.476018,-2.620667,76.610997,0.01947,-0.186325,0.943604,-0.709192,-0.035478,0.0774,85.36998,42.834,-147.254868,,,
729705738.600434,-10.684889,-2.634024,76.623834,0.024811,-0.188202,0.956818,-0.731768,-0.057264,0.074931,85.36998,42.834,-147.254868,,,
729705738.603785,-10.684889,-2.634024,76.623834,0.024811,-0.188202,0.956818,-0.731768,-0.057264,0.074931,85.490677,43.999878,-146.792053,,,
729705738.607183,-10.897748,-2.65048,76.635851,0.024811,-0.188202,0.956818,-0.731768,-0.057264,0.074931,85.490677,43.999878,-146.792053,,,
729705738.610429,-11.114472,-2.669853,76.647542,0.02887,-0.192871,0.957062,-0.759135,-0.077327,0.07444,85.490677,43.999878,-146.792053,,,
729705738.613783,-11.114472,-2.669853,76.647542,0.02887,-0.192871,0.957062,-0.759135,-0.077327,0.07444,85.490677,43.999878,-146.792053,,,
729705738.617118,-11.33646,-2.690283,76.65912,0.02887,-0.192871,0.957062,-0.759135,-0.077327,0.07444,85.490677,43.999878,-146.792053,,,
729705738.620432,-11.56509,-2.709257,76.670668,0.030228,-0.201828,0.956161,-0.805131,-0.06726,0.07689,85.490677,43.999878,-146.792053,,,
729705738.623798,-11.56509,-2.709257,76.670668,0.030228,-0.201828,0.956161,-0.805131,-0.06726,0.07689,85.490677,43.999878,-146.792053,,,
729705738.627105,-11.802237,-2.725189,76.683242,0.030228,-0.201828,0.956161,-0.805131,-0.06726,0.07689,85.490677,43.999878,-146.792053,,,
729705738.630434,-12.049723,-2.73618,76.697363,0.036407,-0.211548,0.952271,-0.876671,-0.035254,0.091189,85.490677,43.999878,-146.792053,,,
729705738.633853,-12.049723,-2.73618,76.697363,0.036407,-0.211548,0.952271,-0.876671,-0.035254,0.091189,85.490677,43.999878,-146.792053,,,
729705738.637118,-12.308077,-2.739081,76.713936,0.036407,-0.211548,0.952271,-0.876671,-0.035254,0.091189,85.490677,43.999878,-146.792053,,,
729705738.64044,-12.576939,-2.731399,76.733996,0.039001,-0.228439,0.957184,-0.948409,0.032915,0.118094,85.490677,43.999878,-146.792053,,,
729705738.643787,-12.576939,-2.731399,76.733996,0.039001,-0.228439,0.957184,-0.948409,0.032915,0.118094,85.718094,45.721832,-146.084351,,,
729705738.647173,-12.856571,-2.713192,76.757959,0.039001,-0.228439,0.957184,-0.948409,0.032915,0.118094,85.718094,45.721832,-146.084351,,,
729705738.650427,-13.148337,-2.686348,76.786522,0.04155,-0.240662,0.963989,-1.03162,0.085211,0.152415,85.718094,45.721832,-146.084351,,,
729705738.653839,-13.148337,-2.686348,76.786522,0.04155,-0.240662,0.963989,-1.03162,0.085211,0.152415,85.718094,45.721832,-146.084351,,,
729705738.657118,-13.452964,-2.652273,76.8192,0.04155,-0.240662,0.963989,-1.03162,0.085211,0.152415,85.718094,45.721832,-146.084351,,,
729705738.660439,-13.76987,-2.613026,76.855163,0.043045,-0.24913,0.950409,-1.116804,0.114877,0.176994,85.718094,45.721832,-146.084351,,,
729705738.663777,-13.76987,-2.613026,76.855163,0.043045,-0.24913,0.950409,-1.116804,0.114877,0.176994,85.718094,45.721832,-146.084351,,,
729705738.667115,-14.098441,-2.570567,76.893299,0.043045,-0.24913,0.950409,-1.116804,0.114877,0.176994,85.718094,45.721832,-146.084351,,,
729705738.670438,-14.438376,-2.526043,76.931153,0.046341,-0.25148,0.941269,-1.196396,0.12841,0.176542,85.718094,45.721832,-146.084351,,,
729705738.673823,-14.438376,-2.526043,76.931153,0.046341,-0.25148,0.941269,-1.196396,0.12841,0.176542,85.718094,45.721832,-146.084351,,,
729705738.677142,-14.788591,-2.480522,76.966893,0.046341,-0.25148,0.941269,-1.196396,0.12841,0.176542,85.718094,45.721832,-146.084351,,,
729705738.680433,-15.146707,-2.435291,76.998177,0.051025,-0.254105,0.934952,-1.25358,0.133128,0.146776,85.718094,45.721832,-146.084351,,,
729705738.683769,-15.146707,-2.435291,76.998177,0.051025,-0.254105,0.934952,-1.25358,0.133128,0.146776,85.870239,48.012863,-144.676224,,,
729705738.687173,-15.510236,-2.391287,77.022133,0.051025,-0.254105,0.934952,-1.25358,0.133128,0.146776,85.870239,48.012863,-144.676224,,,
729705738.690422,-15.876167,-2.348839,77.036425,0.058289,-0.259659,0.935303,-1.272805,0.139563,0.08058,85.870239,48.012863,-144.676224,,,
729705738.693767,-15.876167,-2.348839,77.036425,0.058289,-0.259659,0.935303,-1.272805,0.139563,0.08058,85.870239,48.012863,-144.676224,,,
729705738.697128,-16.24151,-2.308431,77.040058,0.058289,-0.259659,0.935303,-1.272805,0.139563,0.08058,85.870239,48.012863,-144.676224,,,
729705738.700429,-16.60474,-2.272703,77.03238,0.062164,-0.269165,0.949936,-1.261327,0.129231,0.002811,85.870239,48.012863,-144.676224,,,
729705738.703783,-16.60474,-2.272703,77.03238,0.062164,-0.269165,0.949936,-1.261327,0.129231,0.002811,85.870239,48.012863,-144.676224,,,
729705738.707106,-16.967361,-2.244976,77.013857,0.062164,-0.269165,0.949936,-1.261327,0.129231,0.002811,85.870239,48.012863,-144.676224,,,
729705738.710578,-17.330915,-2.227953,76.986018,0.054962,-0.284592,0.934494,-1.269826,0.074691,-0.059577,85.870239,48.012863,-144.676224,,,
729705738.713777,-17.330915,-2.227953,76.986018,0.054962,-0.284592,0.934494,-1.269826,0.074691,-0.059577,85.870239,48.012863,-144.676224,,,
729705738.717135,-17.694042,-2.222179,76.950045,0.054962,-0.284592,0.934494,-1.269826,0.074691,-0.059577,85.870239,48.012863,-144.676224,,,
729705738.720449,-18.054404,-2.224095,76.907358,0.049408,-0.304871,0.925415,-1.25238,0.037142,-0.104422,85.870239,48.012863,-144.676224,,,
729705738.723844,-18.054404,-2.224095,76.907358,0.049408,-0.304871,0.925415,-1.25238,0.037142,-0.104422,85.870239,48.012863,-144.676224,,,
729705738.727128,-18.410021,-2.228715,76.860322,0.049408,-0.304871,0.925415,-1.25238,0.037142,-0.104422,86.006714,50.215698,-143.242432,,,
729705738.730448,-18.758538,-2.233039,76.811654,0.048187,-0.327621,0.950546,-1.203984,0.044912,-0.116293,86.006714,50.215698,-143.242432,,,
729705738.733783,-18.758538,-2.233039,76.811654,0.048187,-0.327621,0.950546,-1.203984,0.044912,-0.116293,86.006714,50.215698,-143.242432,,,
729705738.737202,-19.096666,-2.238432,76.762951,0.048187,-0.327621,0.950546,-1.203984,0.044912,-0.116293,86.006714,50.215698,-143.242432,,,
729705738.740425,-19.422436,-2.24646,76.715152,0.048416,-0.346451,0.971893,-1.117363,0.026482,-0.112743,86.006714,50.215698,-143.242432,,,
729705738.743833,-19.422436,-2.24646,76.715152,0.048416,-0.346451,0.971893,-1.117363,0.026482,-0.112743,86.006714,50.215698,-143.242432,,,
729705738.747178,-19.735327,-2.256056,76.669743,0.048416,-0.346451,0.971893,-1.117363,0.026482,-0.112743,86.006714,50.215698,-143.242432,,,
729705738.7505,-20.035441,-2.266478,76.628054,0.043259,-0.360733,0.97937,-1.027576,0.013637,-0.09087,86.006714,50.215698,-143.242432,,,
729705738.753786,-20.035441,-2.266478,76.628054,0.043259,-0.360733,0.97937,-1.027576,0.013637,-0.09087,86.006714,50.215698,-143.242432,,,
729705738.757014,-20.323711,-2.275469,76.590415,0.043259,-0.360733,0.97937,-1.027576,0.013637,-0.09087,86.006714,50.215698,-143.242432,,,
729705738.760542,-20.601856,-2.281188,76.556772,0.040955,-0.36734,0.982651,-0.955807,0.028047,-0.066789,86.006714,50.215698,-143.242432,,,
729705738.763765,-20.601856,-2.281188,76.556772,0.040955,-0.36734,0.982651,-0.955807,0.028047,-0.066789,86.006714,50.215698,-143.242432,,,
729705738.767122,-20.872607,-2.283132,76.526548,0.040955,-0.36734,0.982651,-0.955807,0.028047,-0.066789,86.089386,52.147415,-141.566467,,,
729705738.770432,-21.140255,-2.280144,76.49894,0.049637,-0.367737,0.971817,-0.933642,0.056904,-0.050169,86.089386,52.147415,-141.566467,,,
729705738.773857,-21.140255,-2.280144,76.49894,0.049637,-0.367737,0.971817,-0.933642,0.056904,-0.050169,86.089386,52.147415,-141.566467,,,
729705738.777223,-21.409491,-2.269866,76.473998,0.049637,-0.367737,0.971817,-0.933642,0.056904,-0.050169,86.089386,52.147415,-141.566467,,,
729705738.78046,-21.684508,-2.25217,76.45221,0.051239,-0.375366,0.952698,-0.973562,0.101432,-0.028186,86.089386,52.147415,-141.566467,,,
729705738.783769,-21.684508,-2.25217,76.45221,0.051239,-0.375366,0.952698,-0.973562,0.101432,-0.028186,86.089386,52.147415,-141.566467,,,
729705738.787203,-21.96936,-2.227464,76.434328,0.051239,-0.375366,0.952698,-0.973562,0.101432,-0.028186,86.089386,52.147415,-141.566467,,,
729705738.790431,-22.267921,-2.193749,76.420834,0.048233,-0.384811,0.922104,-1.067989,0.15344,0.003077,86.089386,52.147415,-141.566467,,,
729705738.79386,-22.267921,-2.193749,76.420834,0.048233,-0.384811,0.922104,-1.067989,0.15344,0.003077,86.089386,52.147415,-141.566467,,,
729705738.797107,-22.583338,-2.14669,76.411583,0.048233,-0.384811,0.922104,-1.067989,0.15344,0.003077,86.089386,52.147415,-141.566467,,,
729705738.800435,-22.917578,-2.081978,76.406348,0.04895,-0.39389,0.91423,-1.198665,0.266163,0.031765,86.089386,52.147415,-141.566467,,,
729705738.803774,-22.917578,-2.081978,76.406348,0.04895,-0.39389,0.91423,-1.198665,0.266163,0.031765,86.089386,52.147415,-141.566467,,,
729705738.807106,-23.272577,-1.999815,76.404405,0.04895,-0.39389,0.91423,-1.198665,0.266163,0.031765,86.611374,54.132401,-140.562195,,,
729705738.810556,-23.649133,-1.901982,76.40609,0.055893,-0.404297,0.886139,-1.347641,0.365418,0.056119,86.611374,54.132401,-140.562195,,,
729705738.813771,-23.649133,-1.901982,76.40609,0.055893,-0.404297,0.886139,-1.347641,0.365418,0.056119,86.611374,54.132401,-140.562195,,,
729705738.817121,-24.04415,-1.788927,76.411854,0.055893,-0.404297,0.886139,-1.347641,0.365418,0.056119,86.611374,54.132401,-140.562195,,,
729705738.820534,-24.450466,-1.660571,76.422483,0.043869,-0.424179,0.873611,-1.425737,0.458018,0.083459,86.611374,54.132401,-140.562195,,,
729705738.823793,-24.450466,-1.660571,76.422483,0.043869,-0.424179,0.873611,-1.425737,0.458018,0.083459,86.611374,54.132401,-140.562195,,,
729705738.82716,-24.860309,-1.517635,76.438885,0.043869,-0.424179,0.873611,-1.425737,0.458018,0.083459,86.611374,54.132401,-140.562195,,,
729705738.830436,-25.268674,-1.364451,76.459676,0.025085,-0.438156,0.914856,-1.415918,0.516045,0.103271,86.611374,54.132401,-140.562195,,,
729705738.833795,-25.268674,-1.364451,76.459676,0.025085,-0.438156,0.914856,-1.415918,0.516045,0.103271,86.611374,54.132401,-140.562195,,,
729705738.83717,-25.67281,-1.206634,76.483129,0.025085,-0.438156,0.914856,-1.415918,0.516045,0.103271,86.611374,54.132401,-140.562195,,,
729705738.840433,-26.070406,-1.048262,76.50759,0.008133,-0.444336,0.921707,-1.370928,0.515968,0.100444,86.611374,54.132401,-140.562195,,,
729705738.843912,-26.070406,-1.048262,76.50759,0.008133,-0.444336,0.921707,-1.370928,0.515968,0.100444,86.611374,54.132401,-140.562195,,,
729705738.847156,-26.461242,-0.891241,76.531286,0.008133,-0.444336,0.921707,-1.370928,0.515968,0.100444,87.488678,56.5448,-138.364487,,,
729705738.850433,-26.84546,-0.736577,76.552745,-0.002731,-0.444305,0.913956,-1.326151,0.505944,0.077934,87.488678,56.5448,-138.364487,,,
729705738.853792,-26.84546,-0.736577,76.552745,-0.002731,-0.444305,0.913956,-1.326151,0.505944,0.077934,87.488678,56.5448,-138.364487,,,
729705738.857105,-27.223883,-0.584776,76.570843,-0.002731,-0.444305,0.913956,-1.326151,0.505944,0.077934,87.488678,56.5448,-138.364487,,,
729705738.860476,-27.598862,-0.437907,76.584765,-0.010513,-0.447037,0.904846,-1.302378,0.484186,0.044691,87.488678,56.5448,-138.364487,,,
729705738.863866,-27.598862,-0.437907,76.584765,-0.010513,-0.447037,0.904846,-1.302378,0.484186,0.044691,87.488678,56.5448,-138.364487,,,
729705738.867107,-27.973949,-0.298098,76.594463,-0.010513,-0.447037,0.904846,-1.302378,0.484186,0.044691,87.488678,56.5448,-138.364487,,,
729705738.870441,-28.353307,-0.165155,76.600139,-0.013321,-0.456924,0.876312,-1.332518,0.4493,0.013748,87.488678,56.5448,-138.364487,,,
729705738.873781,-28.353307,-0.165155,76.600139,-0.013321,-0.456924,0.876312,-1.332518,0.4493,0.013748,87.488678,56.5448,-138.364487,,,
729705738.877252,-28.741181,-0.037671,76.602788,-0.013321,-0.456924,0.876312,-1.332518,0.4493,0.013748,87.488678,56.5448,-138.364487,,,
729705738.880453,-29.141998,0.08448,76.604129,-0.012329,-0.468048,0.849808,-1.422291,0.416402,-8.9e-05,87.488678,56.5448,-138.364487,,,
729705738.883793,-29.141998,0.08448,76.604129,-0.012329,-0.468048,0.849808,-1.422291,0.416402,-8.9e-05,87.488678,56.5448,-138.364487,,,
729705738.887115,-29.559339,0.199434,76.605394,-0.012329,-0.468048,0.849808,-1.422291,0.416402,-8.9e-05,87.488678,56.5448,-138.364487,,,
729705738.890431,-29.996051,0.304051,76.606852,-0.018478,-0.482986,0.799881,-1.557411,0.343749,-0.00495,88.245468,58.660782,-136.281494,,,
729705738.893773,-29.996051,0.304051,76.606852,-0.018478,-0.482986,0.799881,-1.557411,0.343749,-0.00495,88.245468,58.660782,-136.281494,,,
729705738.897111,-30.454199,0.398569,76.608765,-0.018478,-0.482986,0.799881,-1.557411,0.343749,-0.00495,88.245468,58.660782,-136.281494,,,
729705738.900432,-30.933422,0.488232,76.609824,-0.011398,-0.495697,0.759384,-1.704914,0.313145,-0.01632,88.245468,58.660782,-136.281494,,,
729705738.90386,-30.933422,0.488232,76.609824,-0.011398,-0.495697,0.759384,-1.704914,0.313145,-0.01632,88.245468,58.660782,-136.281494,,,
729705738.907111,-31.433025,0.580282,76.607671,-0.011398,-0.495697,0.759384,-1.704914,0.313145,-0.01632,88.245468,58.660782,-136.281494,,,
729705738.910489,-31.949964,0.681497,76.600117,0.013306,-0.5056,0.775009,-1.825337,0.397012,-0.055388,88.245468,58.660782,-136.281494,,,
729705738.913805,-31.949964,0.681497,76.600117,0.013306,-0.5056,0.775009,-1.825337,0.397012,-0.055388,88.245468,58.660782,-136.281494,,,
729705738.9172,-32.478742,0.798982,76.585164,0.013306,-0.5056,0.775009,-1.825337,0.397012,-0.055388,88.245468,58.660782,-136.281494,,,
729705738.920438,-33.013395,0.935594,76.56165,0.031723,-0.517654,0.819305,-1.866037,0.563667,-0.113789,88.245468,58.660782,-136.281494,,,
729705738.923768,-33.013395,0.935594,76.56165,0.031723,-0.517654,0.819305,-1.866037,0.563667,-0.113789,88.245468,58.660782,-136.281494,,,
729705738.927166,-33.549616,1.087208,76.530172,0.031723,-0.517654,0.819305,-1.866037,0.563667,-0.113789,88.245468,58.660782,-136.281494,,,
729705738.930478,-34.083554,1.247112,76.492206,0.031372,-0.52916,0.837357,-1.84811,0.648142,-0.159871,89.069794,61.528946,-133.286377,,,
729705738.933775,-34.083554,1.247112,76.492206,0.031372,-0.52916,0.837357,-1.84811,0.648142,-0.159871,89.069794,61.528946,-133.286377,,,
729705738.937131,-34.611725,1.410486,76.45154,0.031372,-0.52916,0.837357,-1.84811,0.648142,-0.159871,89.069794,61.528946,-133.286377,,,
729705738.940435,-35.13217,1.574531,76.413128,-0.006012,-0.557266,0.826614,-1.793836,0.646061,-0.15456,89.069794,61.528946,-133.286377,,,
729705738.94395,-35.13217,1.574531,76.413128,-0.006012,-0.557266,0.826614,-1.793836,0.646061,-0.15456,89.069794,61.528946,-133.286377,,,
729705738.94715,-35.644042,1.736499,76.380098,-0.006012,-0.557266,0.826614,-1.793836,0.646061,-0.15456,89.069794,61.528946,-133.286377,,,
729705738.950431,-36.146429,1.892843,76.354318,-0.044968,-0.584198,0.816406,-1.729149,0.579222,-0.120223,89.069794,61.528946,-133.286377,,,
729705738.95379,-36.146429,1.892843,76.354318,-0.044968,-0.584198,0.816406,-1.729149,0.579222,-0.120223,89.069794,61.528946,-133.286377,,,
729705738.957183,-36.638604,2.040021,76.336486,-0.044968,-0.584198,0.816406,-1.729149,0.579222,-0.120223,89.069794,61.528946,-133.286377,,,
729705738.960469,-37.120462,2.176283,76.327011,-0.05838,-0.60347,0.787018,-1.658587,0.469215,-0.078838,89.069794,61.528946,-133.286377,,,
729705738.96378,-37.120462,2.176283,76.327011,-0.05838,-0.60347,0.787018,-1.658587,0.469215,-0.078838,89.069794,61.528946,-133.286377,,,
729705738.967118,-37.59268,2.301398,76.324679,-0.05838,-0.60347,0.787018,-1.658587,0.469215,-0.078838,89.069794,61.528946,-133.286377,,,
729705738.970447,-38.054805,2.414855,76.327286,-0.062439,-0.616348,0.783585,-1.589858,0.36731,-0.055568,89.606003,63.943787,-130.212036,,,
729705738.973764,-38.054805,2.414855,76.327286,-0.062439,-0.616348,0.783585,-1.589858,0.36731,-0.055568,89.606003,63.943787,-130.212036,,,
729705738.977282,-38.506932,2.517685,76.33375,-0.062439,-0.616348,0.783585,-1.589858,0.36731,-0.055568,89.606003,63.943787,-130.212036,,,
729705738.980444,-38.949439,2.611489,76.341493,-0.056168,-0.628891,0.781906,-1.52251,0.298543,-0.051151,89.606003,63.943787,-130.212036,,,
729705738.98377,-38.949439,2.611489,76.341493,-0.056168,-0.628891,0.781906,-1.52251,0.298543,-0.051151,89.606003,63.943787,-130.212036,,,
729705738.987128,-39.382603,2.69935,76.347932,-0.056168,-0.628891,0.781906,-1.52251,0.298543,-0.051151,89.606003,63.943787,-130.212036,,,
729705738.990428,-39.809861,2.784286,76.351479,-0.045151,-0.638367,0.786911,-1.480631,0.290774,-0.069299,89.606003,63.943787,-130.212036,,,
729705738.993814,-39.809861,2.784286,76.351479,-0.045151,-0.638367,0.786911,-1.480631,0.290774,-0.069299,89.606003,63.943787,-130.212036,,,
729705738.997126,-40.235936,2.867454,76.350267,-0.045151,-0.638367,0.786911,-1.480631,0.290774,-0.069299,89.606003,63.943787,-130.212036,,,
729705739.000439,-40.66253,2.950025,76.342333,-0.027573,-0.647781,0.771088,-1.481713,0.317038,-0.109204,89.606003,63.943787,-130.212036,,,
729705739.003783,-40.66253,2.950025,76.342333,-0.027573,-0.647781,0.771088,-1.481713,0.317038,-0.109204,89.606003,63.943787,-130.212036,,,
729705739.007127,-41.090262,3.031983,76.327421,-0.027573,-0.647781,0.771088,-1.481713,0.317038,-0.109204,89.606003,63.943787,-130.212036,,,
729705739.01048,-41.521572,3.112286,76.305954,-0.018097,-0.657196,0.748489,-1.504566,0.336341,-0.148424,89.822845,65.859161,-127.499939,,,
729705739.013794,-41.521572,3.112286,76.305954,-0.018097,-0.657196,0.748489,-1.504566,0.336341,-0.148424,89.822845,65.859161,-127.499939,,,
729705739.017223,-41.957183,3.189633,76.278423,-0.018097,-0.657196,0.748489,-1.504566,0.336341,-0.148424,89.822845,65.859161,-127.499939,,,
729705739.020439,-42.396711,3.262808,76.246378,-0.019699,-0.667892,0.724808,-1.530821,0.329729,-0.176206,89.822845,65.859161,-127.499939,,,
729705739.024674,-42.396711,3.262808,76.246378,-0.019699,-0.667892,0.724808,-1.530821,0.329729,-0.176206,89.822845,65.859161,-127.499939,,,
729705739.02707,-42.840509,3.331314,76.211355,-0.019699,-0.667892,0.724808,-1.530821,0.329729,-0.176206,89.822845,65.859161,-127.499939,,,
729705739.030451,-43.286664,3.396801,76.175501,-0.032211,-0.685806,0.704758,-1.546071,0.314021,-0.183569,89.822845,65.859161,-127.499939,,,
729705739.03376,-43.286664,3.396801,76.175501,-0.032211,-0.685806,0.704758,-1.546071,0.314021,-0.183569,89.822845,65.859161,-127.499939,,,
729705739.037259,-43.73149,3.462818,76.140482,-0.032211,-0.685806,0.704758,-1.546071,0.314021,-0.183569,89.822845,65.859161,-127.499939,,,
729705739.040431,-44.17239,3.532543,76.107419,-0.045319,-0.703018,0.721024,-1.519109,0.331855,-0.174385,89.822845,65.859161,-127.499939,,,
729705739.043983,-44.17239,3.532543,76.107419,-0.045319,-0.703018,0.721024,-1.519109,0.331855,-0.174385,89.822845,65.859161,-127.499939,,,
729705739.047199,-44.606993,3.606995,76.077985,-0.045319,-0.703018,0.721024,-1.519109,0.331855,-0.174385,89.822845,65.859161,-127.499939,,,
729705739.050347,-45.033007,3.685714,76.053842,-0.050583,-0.718933,0.740555,-1.460167,0.336677,-0.147321,89.822845,65.859161,-127.499939,,,
729705739.053795,-45.033007,3.685714,76.053842,-0.050583,-0.718933,0.740555,-1.460167,0.336677,-0.147321,90.188095,67.908432,-124.822159,,,
729705739.057179,-45.449581,3.76751,76.036851,-0.050583,-0.718933,0.740555,-1.460167,0.336677,-0.147321,90.188095,67.908432,-124.822159,,,
729705739.060522,-45.856404,3.850832,76.027209,-0.06308,-0.735641,0.734512,-1.39456,0.311313,-0.110517,90.188095,67.908432,-124.822159,,,
729705739.063786,-45.856404,3.850832,76.027209,-0.06308,-0.735641,0.734512,-1.39456,0.311313,-0.110517,90.188095,67.908432,-124.822159,,,
729705739.067123,-46.252611,3.935973,76.025221,-0.06308,-0.735641,0.734512,-1.39456,0.311313,-0.110517,90.188095,67.908432,-124.822159,,,
729705739.07045,-46.638019,4.02425,76.031534,-0.066879,-0.745377,0.723129,-1.322648,0.291531,-0.069572,90.188095,67.908432,-124.822159,,,
729705739.073784,-46.638019,4.02425,76.031534,-0.066879,-0.745377,0.723129,-1.322648,0.291531,-0.069572,90.188095,67.908432,-124.822159,,,
729705739.077135,-47.014344,4.117149,76.045418,-0.066879,-0.745377,0.723129,-1.322648,0.291531,-0.069572,90.188095,67.908432,-124.822159,,,
729705739.080447,-47.383751,4.215821,76.066889,-0.0616,-0.749847,0.718414,-1.277087,0.292623,-0.034977,90.188095,67.908432,-124.822159,,,
729705739.083866,-47.383751,4.215821,76.066889,-0.0616,-0.749847,0.718414,-1.277087,0.292623,-0.034977,90.188095,67.908432,-124.822159,,,
729705739.087112,-47.748219,4.321275,76.096194,-0.0616,-0.749847,0.718414,-1.277087,0.292623,-0.034977,90.188095,67.908432,-124.822159,,,
729705739.090441,-48.109846,4.433733,76.133031,-0.057892,-0.756378,0.695404,-1.260447,0.301828,-0.004125,90.188095,67.908432,-124.822159,,,
729705739.093789,-48.109846,4.433733,76.133031,-0.057892,-0.756378,0.695404,-1.260447,0.301828,-0.004125,90.358841,69.320267,-122.013443,,,
729705739.097097,-48.470002,4.551768,76.177337,-0.057892,-0.756378,0.695404,-1.260447,0.301828,-0.004125,90.358841,69.320267,-122.013443,,,
729705739.100432,-48.829265,4.673267,76.228709,-0.051483,-0.764938,0.659561,-1.25643,0.287659,0.022249,90.358841,69.320267,-122.013443,,,
729705739.103766,-48.829265,4.673267,76.228709,-0.051483,-0.764938,0.659561,-1.25643,0.287659,0.022249,90.358841,69.320267,-122.013443,,,
729705739.107165,-49.188995,4.799085,76.28778,-0.051483,-0.764938,0.659561,-1.25643,0.287659,0.022249,90.358841,69.320267,-122.013443,,,
729705739.110604,-49.549886,4.930584,76.354475,-0.049164,-0.771011,0.636261,-1.267478,0.285311,0.048513,90.358841,69.320267,-122.013443,,,
729705739.11377,-49.549886,4.930584,76.354475,-0.049164,-0.771011,0.636261,-1.267478,0.285311,0.048513,90.358841,69.320267,-122.013443,,,
729705739.117108,-49.911802,5.068083,76.427638,-0.049164,-0.771011,0.636261,-1.267478,0.285311,0.048513,90.358841,69.320267,-122.013443,,,
729705739.120433,-50.275443,5.213559,76.50657,-0.043991,-0.775543,0.625977,-1.281415,0.307896,0.064503,90.358841,69.320267,-122.013443,,,
729705739.123782,-50.275443,5.213559,76.50657,-0.043991,-0.775543,0.625977,-1.281415,0.307896,0.064503,90.358841,69.320267,-122.013443,,,
729705739.127187,-50.641436,5.370648,76.591553,-0.043991,-0.775543,0.625977,-1.281415,0.307896,0.064503,90.358841,69.320267,-122.013443,,,
729705739.130433,-51.011811,5.543619,76.683916,-0.037491,-0.784485,0.610336,-1.315105,0.376373,0.083691,90.358841,69.320267,-122.013443,,,
729705739.133763,-51.011811,5.543619,76.683916,-0.037491,-0.784485,0.610336,-1.315105,0.376373,0.083691,90.815796,70.374344,-119.355347,,,
729705739.137103,-51.387505,5.734999,76.784258,-0.037491,-0.784485,0.610336,-1.315105,0.376373,0.083691,90.815796,70.374344,-119.355347,,,
729705739.140436,-51.766346,5.945823,76.894025,-0.043015,-0.794342,0.604279,-1.341982,0.457735,0.109336,90.815796,70.374344,-119.355347,,,
729705739.143846,-51.766346,5.945823,76.894025,-0.043015,-0.794342,0.604279,-1.341982,0.457735,0.109336,90.815796,70.374344,-119.355347,,,
729705739.147183,-52.145805,6.17579,77.014648,-0.043015,-0.794342,0.604279,-1.341982,0.457735,0.109336,90.815796,70.374344,-119.355347,,,
729705739.150434,-52.523681,6.421584,77.146386,-0.052887,-0.805069,0.605789,-1.336267,0.503134,0.142154,90.815796,70.374344,-119.355347,,,
729705739.153786,-52.523681,6.421584,77.146386,-0.052887,-0.805069,0.605789,-1.336267,0.503134,0.142154,90.815796,70.374344,-119.355347,,,
729705739.157201,-52.899452,6.681472,77.291443,-0.052887,-0.805069,0.605789,-1.336267,0.503134,0.142154,90.815796,70.374344,-119.355347,,,
