Time (sec),Pitch (deg),Roll (deg),Yaw(deg),X-Acceleration (g),Y-Acceleration (g),Z-Acceleration (g),Pitch Rate (deg/sec),Roll Rate (deg/sec),Yaw Rate (deg/sec),Magnetic Field in X direction (uT),Magnetic Field in Y direction (uT),Magnetic Field in Z Direction (uT),Latitude (deg),Longitude (deg),Altitude (m)
729706267.458709,-3.520164,0.675866,167.267789,-0.012268,-0.061707,0.983215,-0.028416,-0.008628,-0.009626,86.906464,14.62532,-146.729416,,,
729706267.462053,-3.520164,0.675866,167.267789,-0.012268,-0.061707,0.983215,-0.028416,-0.008628,-0.009626,86.906464,14.62532,-146.729416,,,
729706267.465407,-3.529131,0.673057,167.266381,-0.017395,-0.063339,0.985519,-0.034091,-0.006276,-0.005884,86.984039,14.816269,-146.954681,,,
729706267.46875,-3.540168,0.670357,167.265475,-0.017395,-0.063339,0.985519,-0.034091,-0.006276,-0.005884,86.984039,14.816269,-146.954681,,,
729706267.472117,-3.540168,0.670357,167.265475,-0.017395,-0.063339,0.985519,-0.034091,-0.006276,-0.005884,86.984039,14.816269,-146.954681,,,
729706267.475391,-3.552431,0.668091,167.265185,-0.019333,-0.063705,0.985748,-0.044369,-0.0053,-0.00182,86.984039,14.816269,-146.954681,,,
729706267.47871,-3.565488,0.665333,167.265529,-0.019333,-0.063705,0.985748,-0.044369,-0.0053,-0.00182,86.984039,14.816269,-146.954681,,,
729706267.482063,-3.565488,0.665333,167.265529,-0.019333,-0.063705,0.985748,-0.044369,-0.0053,-0.00182,86.984039,14.816269,-146.954681,,,
729706267.485451,-3.578322,0.661773,167.266558,-0.020279,-0.064407,0.988846,-0.04551,-0.013152,0.002789,86.984039,14.816269,-146.954681,,,
729706267.488697,-3.591515,0.656471,167.268661,-0.020279,-0.064407,0.988846,-0.04551,-0.013152,0.002789,86.984039,14.816269,-146.954681,,,
729706267.492061,-3.591515,0.656471,167.268661,-0.020279,-0.064407,0.988846,-0.04551,-0.013152,0.002789,86.984039,14.816269,-146.954681,,,
729706267.495401,-3.603295,0.649652,167.270889,-0.020279,-0.068588,0.991837,-0.03753,-0.023352,0.003795,86.984039,14.816269,-146.954681,,,
729706267.498712,-3.613413,0.642917,167.272207,-0.020279,-0.068588,0.991837,-0.03753,-0.023352,0.003795,86.984039,14.816269,-146.954681,,,
729706267.502045,-3.613413,0.642917,167.272207,-0.020279,-0.068588,0.991837,-0.03753,-0.023352,0.003795,86.984039,14.816269,-146.954681,,,
729706267.505391,-3.620953,0.635965,167.272654,-0.016388,-0.070953,1.001266,-0.023159,-0.021074,-0.001859,86.850159,14.946533,-146.662338,,,
729706267.508705,-3.627821,0.630479,167.272859,-0.016388,-0.070953,1.001266,-0.023159,-0.021074,-0.001859,86.850159,14.946533,-146.662338,,,
729706267.512105,-3.627821,0.630479,167.272859,-0.016388,-0.070953,1.001266,-0.023159,-0.021074,-0.001859,86.850159,14.946533,-146.662338,,,
729706267.515389,-3.632324,0.625786,167.273006,-0.01535,-0.070831,1.005234,-0.013573,-0.012582,-0.001949,86.850159,14.946533,-146.662338,,,
729706267.518714,-3.636945,0.621704,167.273179,-0.01535,-0.070831,1.005234,-0.013573,-0.012582,-0.001949,86.850159,14.946533,-146.662338,,,
729706267.522059,-3.636945,0.621704,167.273179,-0.01535,-0.070831,1.005234,-0.013573,-0.012582,-0.001949,86.850159,14.946533,-146.662338,,,
729706267.525386,-3.641776,0.617079,167.273794,-0.015259,-0.067978,0.999756,-0.019555,-0.013748,0.001241,86.850159,14.946533,-146.662338,,,
729706267.528743,-3.647993,0.612722,167.274887,-0.015259,-0.067978,0.999756,-0.019555,-0.013748,0.001241,86.850159,14.946533,-146.662338,,,
729706267.532065,-3.647993,0.612722,167.274887,-0.015259,-0.067978,0.999756,-0.019555,-0.013748,0.001241,86.850159,14.946533,-146.662338,,,
729706267.535403,-3.656005,0.608295,167.276597,-0.015793,-0.06691,0.996811,-0.032523,-0.0125,0.005523,86.850159,14.946533,-146.662338,,,
729706267.538713,-3.665781,0.605287,167.279013,-0.015793,-0.06691,0.996811,-0.032523,-0.0125,0.005523,86.850159,14.946533,-146.662338,,,
729706267.542057,-3.665781,0.605287,167.279013,-0.015793,-0.06691,0.996811,-0.032523,-0.0125,0.005523,86.850159,14.946533,-146.662338,,,
729706267.545381,-3.676295,0.60245,167.282221,-0.016739,-0.067627,1.001541,-0.036885,-0.006301,0.011341,86.866684,14.844406,-146.788651,,,
729706267.548708,-3.687085,0.601957,167.285879,-0.016739,-0.067627,1.001541,-0.036885,-0.006301,0.011341,86.866684,14.844406,-146.788651,,,
729706267.552134,-3.687085,0.601957,167.285879,-0.016739,-0.067627,1.001541,-0.036885,-0.006301,0.011341,86.866684,14.844406,-146.788651,,,
729706267.555399,-3.697362,0.600279,167.289786,-0.016098,-0.069443,1.006958,-0.034272,-0.003316,0.013848,86.866684,14.844406,-146.788651,,,
729706267.558711,-3.70649,0.600611,167.294345,-0.016098,-0.069443,1.006958,-0.034272,-0.003316,0.013848,86.866684,14.844406,-146.788651,,,
729706267.562045,-3.70649,0.600611,167.294345,-0.016098,-0.069443,1.006958,-0.034272,-0.003316,0.013848,86.866684,14.844406,-146.788651,,,
729706267.565457,-3.7144,0.599832,167.299613,-0.014465,-0.073944,1.011917,-0.025744,4e-05,0.019584,86.866684,14.844406,-146.788651,,,
729706267.568706,-3.720916,0.601744,167.306009,-0.014465,-0.073944,1.011917,-0.025744,4e-05,0.019584,86.866684,14.844406,-146.788651,,,
729706267.572055,-3.720916,0.601744,167.306009,-0.014465,-0.073944,1.011917,-0.025744,4e-05,0.019584,86.866684,14.844406,-146.788651,,,
729706267.57539,-3.725251,0.602207,167.312407,-0.016052,-0.074661,1.014099,-0.012652,0.003404,0.020624,86.866684,14.844406,-146.788651,,,
729706267.578707,-3.729116,0.604488,167.318923,-0.016052,-0.074661,1.014099,-0.012652,0.003404,0.020624,86.866684,14.844406,-146.788651,,,
729706267.582057,-3.729116,0.604488,167.318923,-0.016052,-0.074661,1.014099,-0.012652,0.003404,0.020624,86.866684,14.844406,-146.788651,,,
729706267.585415,-3.730545,0.605067,167.325633,-0.012207,-0.072968,1.012955,-0.002747,0.001199,0.022704,86.866684,14.844406,-146.788651,,,
729706267.588719,-3.731883,0.605884,167.332463,-0.012207,-0.072968,1.012955,-0.002747,0.001199,0.022704,86.833984,14.828445,-146.652588,,,
729706267.592127,-3.731883,0.605884,167.332463,-0.012207,-0.072968,1.012955,-0.002747,0.001199,0.022704,86.833984,14.828445,-146.652588,,,
729706267.595381,-3.730524,0.605822,167.338481,-0.012314,-0.071472,1.011627,0.009552,0.001137,0.017541,86.833984,14.828445,-146.652588,,,
729706267.598717,-3.727793,0.606539,167.343654,-0.012314,-0.071472,1.011627,0.009552,0.001137,0.017541,86.833984,14.828445,-146.652588,,,
729706267.602102,-3.727793,0.606539,167.343654,-0.012314,-0.071472,1.011627,0.009552,0.001137,0.017541,86.833984,14.828445,-146.652588,,,
729706267.605422,-3.722385,0.606388,167.34834,-0.011459,-0.073166,1.01178,0.024179,0.001372,0.014701,86.833984,14.828445,-146.652588,,,
729706267.608731,-3.715299,0.606936,167.352939,-0.011459,-0.073166,1.01178,0.024179,0.001372,0.014701,86.833984,14.828445,-146.652588,,,
729706267.612112,-3.715299,0.606936,167.352939,-0.011459,-0.073166,1.01178,0.024179,0.001372,0.014701,86.833984,14.828445,-146.652588,,,
729706267.615487,-3.706833,0.606364,167.35782,-0.012787,-0.074539,1.011063,0.030186,-0.001729,0.017013,86.833984,14.828445,-146.652588,,,
729706267.618738,-3.698487,0.605802,167.363132,-0.012787,-0.074539,1.011063,0.030186,-0.001729,0.017013,86.833984,14.828445,-146.652588,,,
729706267.622079,-3.698487,0.605802,167.363132,-0.012787,-0.074539,1.011063,0.030186,-0.001729,0.017013,86.833984,14.828445,-146.652588,,,
729706267.625406,-3.690402,0.603197,167.368291,-0.009079,-0.070038,1.003967,0.025824,-0.008062,0.016394,86.833984,14.828445,-146.652588,,,
729706267.628819,-3.683959,0.60128,167.373528,-0.009079,-0.070038,1.003967,0.025824,-0.008062,0.016394,86.658051,14.814804,-146.656967,,,
729706267.632036,-3.683959,0.60128,167.373528,-0.009079,-0.070038,1.003967,0.025824,-0.008062,0.016394,86.658051,14.814804,-146.656967,,,
729706267.6354,-3.678166,0.597849,167.378788,-0.011322,-0.065659,0.999512,0.015988,-0.012075,0.016855,86.658051,14.814804,-146.656967,,,
729706267.638724,-3.675294,0.59475,167.384027,-0.011322,-0.065659,0.999512,0.015988,-0.012075,0.016855,86.658051,14.814804,-146.656967,,,
729706267.642083,-3.675294,0.59475,167.384027,-0.011322,-0.065659,0.999512,0.015988,-0.012075,0.016855,86.658051,14.814804,-146.656967,,,
729706267.645387,-3.67207,0.590621,167.389145,-0.009171,-0.063965,0.997879,0.010175,-0.011942,0.01646,86.658051,14.814804,-146.656967,,,
729706267.648741,-3.670755,0.588378,167.394347,-0.009171,-0.063965,0.997879,0.010175,-0.011942,0.01646,86.658051,14.814804,-146.656967,,,
729706267.652156,-3.670755,0.588378,167.394347,-0.009171,-0.063965,0.997879,0.010175,-0.011942,0.01646,86.658051,14.814804,-146.656967,,,
729706267.655387,-3.667065,0.586088,167.399616,-0.009552,-0.065521,1.003082,0.014577,-0.006081,0.01738,86.658051,14.814804,-146.656967,,,
729706267.65873,-3.664238,0.584704,167.405382,-0.009552,-0.065521,1.003082,0.014577,-0.006081,0.01738,86.658051,14.814804,-146.656967,,,
729706267.662088,-3.664238,0.584704,167.405382,-0.009552,-0.065521,1.003082,0.014577,-0.006081,0.01738,86.658051,14.814804,-146.656967,,,
729706267.665401,-3.659027,0.583571,167.411735,-0.010544,-0.067261,1.007401,0.020816,-0.000494,0.021789,86.658051,14.814804,-146.656967,,,
729706267.668721,-3.654563,0.583768,167.418631,-0.010544,-0.067261,1.007401,0.020816,-0.000494,0.021789,86.83107,14.771194,-146.716385,,,
729706267.67215,-3.654563,0.583768,167.418631,-0.010544,-0.067261,1.007401,0.020816,-0.000494,0.021789,86.83107,14.771194,-146.716385,,,
729706267.67539,-3.648495,0.584686,167.425576,-0.005814,-0.064758,1.00618,0.022422,0.006621,0.022261,86.83107,14.771194,-146.716385,,,
729706267.678724,-3.642947,0.586414,167.432,-0.005814,-0.064758,1.00618,0.022422,0.006621,0.022261,86.83107,14.771194,-146.716385,,,
729706267.682057,-3.642947,0.586414,167.432,-0.005814,-0.064758,1.00618,0.022422,0.006621,0.022261,86.83107,14.771194,-146.716385,,,
729706267.685457,-3.634556,0.588567,167.437345,-0.001953,-0.064209,1.007507,0.032241,0.011279,0.014916,86.83107,14.771194,-146.716385,,,
729706267.688701,-3.627444,0.591523,167.442056,-0.001953,-0.064209,1.007507,0.032241,0.011279,0.014916,86.83107,14.771194,-146.716385,,,
729706267.692059,-3.627444,0.591523,167.442056,-0.001953,-0.064209,1.007507,0.032241,0.011279,0.014916,86.83107,14.771194,-146.716385,,,
729706267.695417,-3.618586,0.593637,167.446027,-0.002884,-0.062958,1.00441,0.033121,0.009139,0.009997,86.83107,14.771194,-146.716385,,,
729706267.698712,-3.610947,0.595431,167.448898,-0.002884,-0.062958,1.00441,0.033121,0.009139,0.009997,86.83107,14.771194,-146.716385,,,
729706267.702042,-3.610947,0.595431,167.448898,-0.002884,-0.062958,1.00441,0.033121,0.009139,0.009997,86.83107,14.771194,-146.716385,,,
729706267.705381,-3.601702,0.596814,167.451268,-0.003647,-0.059845,0.998367,0.033198,0.007474,0.006608,86.83107,14.771194,-146.716385,,,
729706267.708716,-3.593662,0.59704,167.453358,-0.003647,-0.059845,0.998367,0.033198,0.007474,0.006608,86.771317,14.734848,-146.777466,,,
729706267.712108,-3.593662,0.59704,167.453358,-0.003647,-0.059845,0.998367,0.033198,0.007474,0.006608,86.771317,14.734848,-146.777466,,,
729706267.715387,-3.585717,0.595754,167.455114,-0.005966,-0.05722,0.993637,0.02779,-0.003141,0.004168,86.771317,14.734848,-146.777466,,,
729706267.718711,-3.57822,0.593896,167.45647,-0.005966,-0.05722,0.993637,0.02779,-0.003141,0.004168,86.771317,14.734848,-146.777466,,,
729706267.722057,-3.57822,0.593896,167.45647,-0.005966,-0.05722,0.993637,0.02779,-0.003141,0.004168,86.771317,14.734848,-146.777466,,,
729706267.725447,-3.570673,0.591994,167.457687,-0.005341,-0.057251,0.990768,0.025106,-0.003136,0.003178,86.771317,14.734848,-146.777466,,,
729706267.728709,-3.564187,0.590483,167.459173,-0.005341,-0.057251,0.990768,0.025106,-0.003136,0.003178,86.771317,14.734848,-146.777466,,,
729706267.732064,-3.564187,0.590483,167.459173,-0.005341,-0.057251,0.990768,0.025106,-0.003136,0.003178,86.771317,14.734848,-146.777466,,,
729706267.735484,-3.558023,0.589914,167.461361,-0.004074,-0.059952,0.993195,0.021669,0.000973,0.007875,86.771317,14.734848,-146.777466,,,
729706267.738708,-3.553476,0.590375,167.463951,-0.004074,-0.059952,0.993195,0.021669,0.000973,0.007875,86.771317,14.734848,-146.777466,,,
729706267.742069,-3.553476,0.590375,167.463951,-0.004074,-0.059952,0.993195,0.021669,0.000973,0.007875,86.771317,14.734848,-146.777466,,,
729706267.74539,-3.548922,0.592211,167.466369,-0.004852,-0.060135,0.991272,0.016018,0.010994,0.006656,86.771317,14.734848,-146.777466,,,
729706267.748712,-3.544648,0.59502,167.468768,-0.004852,-0.060135,0.991272,0.016018,0.010994,0.006656,86.771317,14.734848,-146.777466,,,
729706267.752108,-3.544648,0.59502,167.468768,-0.004852,-0.060135,0.991272,0.016018,0.010994,0.006656,86.726898,14.523376,-146.633865,,,
729706267.755376,-3.539409,0.598967,167.470846,-0.002167,-0.058044,0.993195,0.018805,0.01753,0.004376,86.726898,14.523376,-146.633865,,,
729706267.758707,-3.534468,0.602464,167.471806,-0.002167,-0.058044,0.993195,0.018805,0.01753,0.004376,86.726898,14.523376,-146.633865,,,
729706267.762053,-3.534468,0.602464,167.471806,-0.002167,-0.058044,0.993195,0.018805,0.01753,0.004376,86.726898,14.523376,-146.633865,,,
729706267.765462,-3.529371,0.60801,167.472193,-0.002151,-0.056412,0.992508,0.018222,0.022029,-0.000208,86.726898,14.523376,-146.633865,,,
729706267.768706,-3.525363,0.612302,167.47198,-0.002151,-0.056412,0.992508,0.018222,0.022029,-0.000208,86.726898,14.523376,-146.633865,,,
729706267.772061,-3.525363,0.612302,167.47198,-0.002151,-0.056412,0.992508,0.018222,0.022029,-0.000208,86.726898,14.523376,-146.633865,,,
729706267.775394,-3.521932,0.617061,167.471253,-0.004501,-0.056168,0.985092,0.011062,0.016239,-0.004406,86.726898,14.523376,-146.633865,,,
729706267.778716,-3.519143,0.618254,167.470205,-0.004501,-0.056168,0.985092,0.011062,0.016239,-0.004406,86.726898,14.523376,-146.633865,,,
729706267.782063,-3.519143,0.618254,167.470205,-0.004501,-0.056168,0.985092,0.011062,0.016239,-0.004406,86.726898,14.523376,-146.633865,,,
729706267.785385,-3.517227,0.619206,167.469245,-0.007126,-0.058212,0.98233,0.004951,0.003875,-0.004538,86.726898,14.523376,-146.633865,,,
729706267.78872,-3.51547,0.617552,167.468087,-0.007126,-0.058212,0.98233,0.004951,0.003875,-0.004538,86.726898,14.523376,-146.633865,,,
729706267.792057,-3.51547,0.617552,167.468087,-0.007126,-0.058212,0.98233,0.004951,0.003875,-0.004538,86.547989,14.81311,-146.887909,,,
729706267.79539,-3.514225,0.615543,167.466361,-0.006363,-0.05687,0.981842,0.004338,-0.004889,-0.008871,86.547989,14.81311,-146.887909,,,
729706267.798717,-3.512833,0.612153,167.464209,-0.006363,-0.05687,0.981842,0.004338,-0.004889,-0.008871,86.547989,14.81311,-146.887909,,,
729706267.802105,-3.512833,0.612153,167.464209,-0.006363,-0.05687,0.981842,0.004338,-0.004889,-0.008871,86.547989,14.81311,-146.887909,,,
729706267.805402,-3.512435,0.610036,167.461678,-0.00592,-0.055969,0.982422,0.001909,-0.001558,-0.011897,86.547989,14.81311,-146.887909,,,
729706267.808714,-3.511655,0.608025,167.4583,-0.00592,-0.055969,0.982422,0.001909,-0.001558,-0.011897,86.547989,14.81311,-146.887909,,,
729706267.812056,-3.511655,0.608025,167.4583,-0.00592,-0.055969,0.982422,0.001909,-0.001558,-0.011897,86.547989,14.81311,-146.887909,,,
729706267.815452,-3.51257,0.608929,167.454552,-0.003937,-0.055801,0.987869,-0.00692,0.011231,-0.015044,86.547989,14.81311,-146.887909,,,
729706267.818707,-3.514936,0.610627,167.450798,-0.003937,-0.055801,0.987869,-0.00692,0.011231,-0.015044,86.547989,14.81311,-146.887909,,,
729706267.822059,-3.514936,0.610627,167.450798,-0.003937,-0.055801,0.987869,-0.00692,0.011231,-0.015044,86.547989,14.81311,-146.887909,,,
729706267.825378,-3.517476,0.61527,167.447432,-0.003876,-0.059692,0.989212,-0.007439,0.023541,-0.012834,86.547989,14.81311,-146.887909,,,
729706267.828711,-3.519767,0.620723,167.444154,-0.003876,-0.059692,0.989212,-0.007439,0.023541,-0.012834,86.547989,14.81311,-146.887909,,,
729706267.832046,-3.519767,0.620723,167.444154,-0.003876,-0.059692,0.989212,-0.007439,0.023541,-0.012834,86.747452,14.777725,-146.82309,,,
729706267.835377,-3.52234,0.628543,167.441277,-0.00499,-0.063309,0.995712,-0.006511,0.03134,-0.010574,86.747452,14.777725,-146.82309,,,
729706267.838715,-3.523621,0.635317,167.438841,-0.00499,-0.063309,0.995712,-0.006511,0.03134,-0.010574,86.747452,14.777725,-146.82309,,,
729706267.842113,-3.523621,0.635317,167.438841,-0.00499,-0.063309,0.995712,-0.006511,0.03134,-0.010574,86.747452,14.777725,-146.82309,,,
729706267.845389,-3.524724,0.644179,167.436805,-0.009445,-0.065369,0.997406,-0.000568,0.034478,-0.008404,86.747452,14.777725,-146.82309,,,
729706267.848712,-3.523407,0.65084,167.434756,-0.009445,-0.065369,0.997406,-0.000568,0.034478,-0.008404,86.747452,14.777725,-146.82309,,,
729706267.852052,-3.523407,0.65084,167.434756,-0.009445,-0.065369,0.997406,-0.000568,0.034478,-0.008404,86.747452,14.777725,-146.82309,,,
729706267.855462,-3.521065,0.657904,167.432692,-0.01001,-0.066376,0.999527,0.013978,0.026361,-0.00897,86.747452,14.777725,-146.82309,,,
729706267.858701,-3.51643,0.662497,167.430362,-0.01001,-0.066376,0.999527,0.013978,0.026361,-0.00897,86.747452,14.777725,-146.82309,,,
729706267.862041,-3.51643,0.662497,167.430362,-0.01001,-0.066376,0.999527,0.013978,0.026361,-0.00897,86.747452,14.777725,-146.82309,,,
729706267.865378,-3.51123,0.665133,167.428242,-0.013779,-0.063782,0.993958,0.021217,0.006602,-0.007801,86.747452,14.777725,-146.82309,,,
729706267.868713,-3.505002,0.664905,167.426278,-0.013779,-0.063782,0.993958,0.021217,0.006602,-0.007801,86.747452,14.777725,-146.82309,,,
729706267.872042,-3.505002,0.664905,167.426278,-0.013779,-0.063782,0.993958,0.021217,0.006602,-0.007801,86.857758,14.524811,-146.748901,,,
729706267.875387,-3.499603,0.664173,167.423998,-0.016357,-0.058411,0.988876,0.018474,-0.000955,-0.010289,86.857758,14.524811,-146.748901,,,
729706267.878708,-3.494417,0.661424,167.4212,-0.016357,-0.058411,0.988876,0.018474,-0.000955,-0.010289,86.857758,14.524811,-146.748901,,,
729706267.882109,-3.494417,0.661424,167.4212,-0.016357,-0.058411,0.988876,0.018474,-0.000955,-0.010289,86.857758,14.524811,-146.748901,,,
729706267.885373,-3.491103,0.658055,167.418105,-0.011627,-0.053986,0.98938,0.009925,-0.012152,-0.012886,86.857758,14.524811,-146.748901,,,
729706267.888713,-3.489215,0.651826,167.4145,-0.011627,-0.053986,0.98938,0.009925,-0.012152,-0.012886,86.857758,14.524811,-146.748901,,,
729706267.892054,-3.489215,0.651826,167.4145,-0.011627,-0.053986,0.98938,0.009925,-0.012152,-0.012886,86.857758,14.524811,-146.748901,,,
729706267.895431,-3.490922,0.645684,167.410678,-0.014816,-0.057205,0.980606,-0.008772,-0.01876,-0.015078,86.857758,14.524811,-146.748901,,,
729706267.898706,-3.493846,0.638238,167.406608,-0.014816,-0.057205,0.980606,-0.008772,-0.01876,-0.015078,86.857758,14.524811,-146.748901,,,
729706267.902063,-3.493846,0.638238,167.406608,-0.014816,-0.057205,0.980606,-0.008772,-0.01876,-0.015078,86.857758,14.524811,-146.748901,,,
729706267.905399,-3.498759,0.632324,167.402309,-0.011765,-0.058044,0.983963,-0.019757,-0.016822,-0.017315,86.857758,14.524811,-146.748901,,,
729706267.908705,-3.504934,0.625769,167.397941,-0.011765,-0.058044,0.983963,-0.019757,-0.016822,-0.017315,86.857758,14.524811,-146.748901,,,
729706267.912079,-3.504934,0.625769,167.397941,-0.011765,-0.058044,0.983963,-0.019757,-0.016822,-0.017315,86.857758,14.524811,-146.748901,,,
729706267.915395,-3.511541,0.621598,167.393678,-0.010284,-0.060699,0.990173,-0.024385,-0.009016,-0.017182,86.969025,14.605133,-146.73967,,,
729706267.91871,-3.519939,0.618043,167.388967,-0.010284,-0.060699,0.990173,-0.024385,-0.009016,-0.017182,86.969025,14.605133,-146.73967,,,
729706267.922071,-3.519939,0.618043,167.388967,-0.010284,-0.060699,0.990173,-0.024385,-0.009016,-0.017182,86.969025,14.605133,-146.73967,,,
729706267.925376,-3.528431,0.616244,167.384106,-0.008102,-0.062698,0.990952,-0.029936,-0.00048,-0.018532,86.969025,14.605133,-146.73967,,,
729706267.928705,-3.537324,0.61504,167.379089,-0.008102,-0.062698,0.990952,-0.029936,-0.00048,-0.018532,86.969025,14.605133,-146.73967,,,
729706267.932062,-3.537324,0.61504,167.379089,-0.008102,-0.062698,0.990952,-0.029936,-0.00048,-0.018532,86.969025,14.605133,-146.73967,,,
729706267.935075,-3.545073,0.615107,167.374109,-0.009491,-0.063156,0.996918,-0.02716,0.007373,-0.018241,86.969025,14.605133,-146.73967,,,
729706267.938764,-3.553386,0.616792,167.368851,-0.009491,-0.063156,0.996918,-0.02716,0.007373,-0.018241,86.969025,14.605133,-146.73967,,,
729706267.942049,-3.553386,0.616792,167.368851,-0.009491,-0.063156,0.996918,-0.02716,0.007373,-0.018241,86.969025,14.605133,-146.73967,,,
729706267.945378,-3.560057,0.619913,167.363774,-0.013092,-0.064758,1.00119,-0.020866,0.017255,-0.016954,86.969025,14.605133,-146.73967,,,
729706267.948731,-3.565938,0.624886,167.35975,-0.013092,-0.064758,1.00119,-0.020866,0.017255,-0.016954,86.969025,14.605133,-146.73967,,,
729706267.952047,-3.565938,0.624886,167.35975,-0.013092,-0.064758,1.00119,-0.020866,0.017255,-0.016954,86.969025,14.605133,-146.73967,,,
729706267.955382,-3.571016,0.628027,167.356175,-0.014511,-0.063248,0.996506,-0.015897,0.011897,-0.01332,86.942917,14.666351,-147.06488,,,
729706267.958757,-3.574373,0.630559,167.35268,-0.014511,-0.063248,0.996506,-0.015897,0.011897,-0.01332,86.942917,14.666351,-147.06488,,,
729706267.962132,-3.574373,0.630559,167.35268,-0.014511,-0.063248,0.996506,-0.015897,0.011897,-0.01332,86.942917,14.666351,-147.06488,,,
729706267.965374,-3.577786,0.631813,167.349634,-0.017883,-0.063477,0.994125,-0.008314,0.005176,-0.009969,86.942917,14.666351,-147.06488,,,
729706267.968707,-3.57903,0.632512,167.347047,-0.017883,-0.063477,0.994125,-0.008314,0.005176,-0.009969,86.942917,14.666351,-147.06488,,,
729706267.972064,-3.57903,0.632512,167.347047,-0.017883,-0.063477,0.994125,-0.008314,0.005176,-0.009969,86.942917,14.666351,-147.06488,,,
729706267.975455,-3.581414,0.631962,167.343808,-0.016937,-0.065292,0.99353,-0.00789,0.00045,-0.014271,86.942917,14.666351,-147.06488,,,
729706267.978725,-3.583663,0.631309,167.339868,-0.016937,-0.065292,0.99353,-0.00789,0.00045,-0.014271,86.942917,14.666351,-147.06488,,,
729706267.982057,-3.583663,0.631309,167.339868,-0.016937,-0.065292,0.99353,-0.00789,0.00045,-0.014271,86.942917,14.666351,-147.06488,,,
729706267.985451,-3.586946,0.630192,167.335125,-0.011856,-0.065292,0.996597,-0.010833,0.000635,-0.019703,86.942917,14.666351,-147.06488,,,
729706267.988781,-3.589995,0.630018,167.329981,-0.011856,-0.065292,0.996597,-0.010833,0.000635,-0.019703,86.942917,14.666351,-147.06488,,,
729706267.992056,-3.589995,0.630018,167.329981,-0.011856,-0.065292,0.996597,-0.010833,0.000635,-0.019703,86.942917,14.666351,-147.06488,,,
729706267.995381,-3.594639,0.631484,167.324829,-0.013794,-0.067368,1.005646,-0.017951,0.011846,-0.01986,86.800552,14.574966,-147.095062,,,
729706267.998718,-3.599609,0.633681,167.319964,-0.013794,-0.067368,1.005646,-0.017951,0.011846,-0.01986,86.800552,14.574966,-147.095062,,,
729706268.002039,-3.599609,0.633681,167.319964,-0.013794,-0.067368,1.005646,-0.017951,0.011846,-0.01986,86.800552,14.574966,-147.095062,,,
729706268.005373,-3.603841,0.636325,167.315797,-0.016724,-0.070602,1.007996,-0.013273,0.013548,-0.015041,86.800552,14.574966,-147.095062,,,
729706268.008776,-3.607196,0.637998,167.312611,-0.016724,-0.070602,1.007996,-0.013273,0.013548,-0.015041,86.800552,14.574966,-147.095062,,,
729706268.012107,-3.607196,0.637998,167.312611,-0.016724,-0.070602,1.007996,-0.013273,0.013548,-0.015041,86.800552,14.574966,-147.095062,,,
729706268.015397,-3.608969,0.639757,167.311033,-0.02063,-0.07251,1.010254,-0.00258,0.009612,-0.003993,86.800552,14.574966,-147.095062,,,
729706268.018717,-3.609609,0.641317,167.310665,-0.02063,-0.07251,1.010254,-0.00258,0.009612,-0.003993,86.800552,14.574966,-147.095062,,,
729706268.022058,-3.609609,0.641317,167.310665,-0.02063,-0.07251,1.010254,-0.00258,0.009612,-0.003993,86.800552,14.574966,-147.095062,,,
729706268.025457,-3.608774,0.641759,167.310884,-0.020081,-0.06897,1.010971,0.006574,0.00313,0.000289,86.800552,14.574966,-147.095062,,,
729706268.028734,-3.60699,0.641655,167.311689,-0.020081,-0.06897,1.010971,0.006574,0.00313,0.000289,86.800552,14.574966,-147.095062,,,
729706268.032054,-3.60699,0.641655,167.311689,-0.020081,-0.06897,1.010971,0.006574,0.00313,0.000289,86.800552,14.574966,-147.095062,,,
729706268.0354,-3.604101,0.640386,167.312616,-0.020813,-0.066269,1.005417,0.012501,-0.001929,0.001396,86.800552,14.574966,-147.095062,,,
729706268.038752,-3.600182,0.639566,167.313323,-0.020813,-0.066269,1.005417,0.012501,-0.001929,0.001396,87.022598,14.75943,-146.91217,,,
729706268.042056,-3.600182,0.639566,167.313323,-0.020813,-0.066269,1.005417,0.012501,-0.001929,0.001396,87.022598,14.75943,-146.91217,,,
729706268.045392,-3.595436,0.636914,167.313855,-0.018997,-0.064621,1.00235,0.017504,-0.007682,0.000661,87.022598,14.75943,-146.91217,,,
729706268.048785,-3.590819,0.635457,167.314375,-0.018997,-0.064621,1.00235,0.017504,-0.007682,0.000661,87.022598,14.75943,-146.91217,,,
729706268.052109,-3.590819,0.635457,167.314375,-0.018997,-0.064621,1.00235,0.017504,-0.007682,0.000661,87.022598,14.75943,-146.91217,,,
729706268.055388,-3.586024,0.632754,167.315126,-0.018021,-0.064499,0.997879,0.015672,-0.007931,0.002782,87.022598,14.75943,-146.91217,,,
729706268.058762,-3.582432,0.630112,167.316767,-0.018021,-0.064499,0.997879,0.015672,-0.007931,0.002782,87.022598,14.75943,-146.91217,,,
729706268.062054,-3.582432,0.630112,167.316767,-0.018021,-0.064499,0.997879,0.015672,-0.007931,0.002782,87.022598,14.75943,-146.91217,,,
729706268.065434,-3.578978,0.626795,167.319298,-0.014664,-0.066925,0.995239,0.011345,-0.008569,0.00916,87.022598,14.75943,-146.91217,,,
729706268.068746,-3.576766,0.623726,167.322548,-0.014664,-0.066925,0.995239,0.011345,-0.008569,0.00916,87.022598,14.75943,-146.91217,,,
729706268.072036,-3.576766,0.623726,167.322548,-0.014664,-0.066925,0.995239,0.011345,-0.008569,0.00916,87.022598,14.75943,-146.91217,,,
729706268.0754,-3.574547,0.620684,167.326198,-0.010132,-0.068451,0.994461,0.006583,-0.008421,0.011902,87.022598,14.75943,-146.91217,,,
729706268.078776,-3.573967,0.618491,167.329681,-0.010132,-0.068451,0.994461,0.006583,-0.008421,0.011902,86.856094,14.814148,-147.040253,,,
729706268.082035,-3.573967,0.618491,167.329681,-0.010132,-0.068451,0.994461,0.006583,-0.008421,0.011902,86.856094,14.814148,-147.040253,,,
729706268.085495,-3.572347,0.615669,167.332334,-0.007217,-0.066086,0.993637,0.007177,-0.006541,0.006519,86.856094,14.814148,-147.040253,,,
729706268.08873,-3.572459,0.61442,167.334177,-0.007217,-0.066086,0.993637,0.007177,-0.006541,0.006519,86.856094,14.814148,-147.040253,,,
729706268.092038,-3.572459,0.61442,167.334177,-0.007217,-0.066086,0.993637,0.007177,-0.006541,0.006519,86.856094,14.814148,-147.040253,,,
729706268.095434,-3.571768,0.611396,167.334935,-0.006302,-0.06308,0.993454,0.001683,-0.008881,-0.000526,86.856094,14.814148,-147.040253,,,
729706268.098716,-3.571768,0.611396,167.334613,-0.006302,-0.06308,0.993454,0.001683,-0.008881,-0.000526,86.856094,14.814148,-147.040253,,,
729706268.102122,-3.573117,0.609778,167.334613,-0.006302,-0.06308,0.993454,0.001683,-0.008881,-0.000526,86.856094,14.814148,-147.040253,,,
729706268.105394,-3.573633,0.606003,167.33345,-0.005386,-0.058929,0.99054,-0.002279,-0.010295,-0.005555,86.856094,14.814148,-147.040253,,,
729706268.108724,-3.573633,0.603701,167.33225,-0.005386,-0.058929,0.99054,-0.002279,-0.010295,-0.005555,86.856094,14.814148,-147.040253,,,
729706268.11204,-3.575226,0.603701,167.33225,-0.005386,-0.058929,0.99054,-0.002279,-0.010295,-0.005555,86.856094,14.814148,-147.040253,,,
729706268.115382,-3.576992,0.600097,167.330794,-0.005951,-0.059067,0.987564,-0.00743,-0.00766,-0.006715,86.856094,14.814148,-147.040253,,,
729706268.118714,-3.576992,0.600097,167.330794,-0.005951,-0.059067,0.987564,-0.00743,-0.00766,-0.006715,86.579819,14.644897,-147.155899,,,
729706268.122062,-3.580451,0.598105,167.32978,-0.005951,-0.059067,0.987564,-0.00743,-0.00766,-0.006715,86.579819,14.644897,-147.155899,,,
729706268.125388,-3.584318,0.594617,167.329302,-0.004974,-0.057693,0.985321,-0.013526,-0.007038,-0.002346,86.579819,14.644897,-147.155899,,,
729706268.128756,-3.584318,0.594617,167.328827,-0.004974,-0.057693,0.985321,-0.013526,-0.007038,-0.002346,86.579819,14.644897,-147.155899,,,
729706268.132047,-3.589133,0.59408,167.328827,-0.004974,-0.057693,0.985321,-0.013526,-0.007038,-0.002346,86.579819,14.644897,-147.155899,,,
729706268.135394,-3.595354,0.594109,167.328073,-0.006302,-0.060699,0.988403,-0.024071,0.007909,-0.003734,86.579819,14.644897,-147.155899,,,
729706268.138732,-3.595354,0.594109,167.328073,-0.006302,-0.060699,0.988403,-0.024071,0.007909,-0.003734,86.579819,14.644897,-147.155899,,,
729706268.142098,-3.603533,0.597157,167.327681,-0.006302,-0.060699,0.988403,-0.024071,0.007909,-0.003734,86.579819,14.644897,-147.155899,,,
729706268.145378,-3.611527,0.600802,167.327636,-0.004288,-0.064331,0.991043,-0.026322,0.01919,-0.000912,86.579819,14.644897,-147.155899,,,
729706268.148748,-3.611527,0.600802,167.327636,-0.004288,-0.064331,0.991043,-0.026322,0.01919,-0.000912,86.579819,14.644897,-147.155899,,,
729706268.152055,-3.621049,0.606517,167.327997,-0.004288,-0.064331,0.991043,-0.026322,0.01919,-0.000912,86.579819,14.644897,-147.155899,,,
729706268.155437,-3.630347,0.613676,167.328605,-0.006592,-0.06691,0.997818,-0.031083,0.03212,0.000898,86.579819,14.644897,-147.155899,,,
729706268.158711,-3.630347,0.613676,167.328605,-0.006592,-0.06691,0.997818,-0.031083,0.03212,0.000898,86.697037,14.659698,-147.037262,,,
729706268.162064,-3.640397,0.621829,167.329452,-0.006592,-0.06691,0.997818,-0.031083,0.03212,0.000898,86.697037,14.659698,-147.037262,,,
729706268.165387,-3.649675,0.630933,167.33054,-0.006973,-0.067703,1.000214,-0.03167,0.036197,0.002389,86.697037,14.659698,-147.037262,,,
729706268.168797,-3.649675,0.630933,167.33054,-0.006973,-0.067703,1.000214,-0.03167,0.036197,0.002389,86.697037,14.659698,-147.037262,,,
729706268.172054,-3.658669,0.640338,167.331796,-0.006973,-0.067703,1.000214,-0.03167,0.036197,0.002389,86.697037,14.659698,-147.037262,,,
729706268.17538,-3.666732,0.65087,167.333065,-0.008316,-0.06955,1.001129,-0.026753,0.039713,0.002241,86.697037,14.659698,-147.037262,,,
729706268.178723,-3.666732,0.65087,167.333065,-0.008316,-0.06955,1.001129,-0.026753,0.039713,0.002241,86.697037,14.659698,-147.037262,,,
729706268.182126,-3.673477,0.65896,167.333885,-0.008316,-0.06955,1.001129,-0.026753,0.039713,0.002241,86.697037,14.659698,-147.037262,,,
729706268.18537,-3.679475,0.666552,167.334921,-0.011429,-0.069839,1.003754,-0.017753,0.027866,0.003317,86.697037,14.659698,-147.037262,,,
729706268.18872,-3.679475,0.666552,167.334921,-0.011429,-0.069839,1.003754,-0.017753,0.027866,0.003317,86.697037,14.659698,-147.037262,,,
729706268.192057,-3.682605,0.671854,167.336198,-0.011429,-0.069839,1.003754,-0.017753,0.027866,0.003317,86.697037,14.659698,-147.037262,,,
729706268.195384,-3.684443,0.676094,167.337037,-0.012527,-0.069565,1.003937,-0.002978,0.014735,7.1e-05,86.697037,14.659698,-147.037262,,,
729706268.198719,-3.684443,0.676094,167.337037,-0.012527,-0.069565,1.003937,-0.002978,0.014735,7.1e-05,86.697037,14.659698,-147.037262,,,
729706268.20207,-3.683519,0.67729,167.336908,-0.012527,-0.069565,1.003937,-0.002978,0.014735,7.1e-05,86.784332,14.946411,-147.087799,,,
729706268.20538,-3.681483,0.678424,167.336537,-0.013931,-0.069733,1.003342,0.010576,0.005684,-0.002003,86.784332,14.946411,-147.087799,,,
729706268.20877,-3.681483,0.678424,167.336537,-0.013931,-0.069733,1.003342,0.010576,0.005684,-0.002003,86.784332,14.946411,-147.087799,,,
729706268.212061,-3.677057,0.67737,167.336259,-0.013931,-0.069733,1.003342,0.010576,0.005684,-0.002003,86.784332,14.946411,-147.087799,,,
729706268.215373,-3.672699,0.675613,167.336059,-0.012604,-0.069031,0.998428,0.016464,-0.005554,-0.001843,86.784332,14.946411,-147.087799,,,
729706268.218731,-3.672699,0.675613,167.336059,-0.012604,-0.069031,0.998428,0.016464,-0.005554,-0.001843,86.784332,14.946411,-147.087799,,,
729706268.222092,-3.668143,0.671172,167.335182,-0.012604,-0.069031,0.998428,0.016464,-0.005554,-0.001843,86.784332,14.946411,-147.087799,,,
729706268.225369,-3.664763,0.667014,167.333543,-0.008286,-0.065735,0.993225,0.009854,-0.0111,-0.007683,86.784332,14.946411,-147.087799,,,
729706268.228715,-3.664763,0.667014,167.333543,-0.008286,-0.065735,0.993225,0.009854,-0.0111,-0.007683,86.784332,14.946411,-147.087799,,,
729706268.232044,-3.663047,0.661522,167.331125,-0.008286,-0.065735,0.993225,0.009854,-0.0111,-0.007683,86.784332,14.946411,-147.087799,,,
729706268.235374,-3.66186,0.657566,167.328129,-0.005798,-0.063644,0.991043,0.003631,-0.008821,-0.012305,86.784332,14.946411,-147.087799,,,
729706268.238702,-3.66186,0.657566,167.328129,-0.005798,-0.063644,0.991043,0.003631,-0.008821,-0.012305,86.784332,14.946411,-147.087799,,,
729706268.242054,-3.66172,0.654188,167.324654,-0.005798,-0.063644,0.991043,0.003631,-0.008821,-0.012305,86.740753,14.719604,-146.990356,,,
729706268.245384,-3.661219,0.653522,167.320879,-0.006653,-0.064697,0.995316,0.001144,0.005558,-0.014701,86.740753,14.719604,-146.990356,,,
729706268.248751,-3.661219,0.653522,167.320879,-0.006653,-0.064697,0.995316,0.001144,0.005558,-0.014701,86.740753,14.719604,-146.990356,,,
729706268.252067,-3.662722,0.653606,167.317449,-0.006653,-0.064697,0.995316,0.001144,0.005558,-0.014701,86.740753,14.719604,-146.990356,,,
729706268.255376,-3.664796,0.655057,167.314444,-0.00856,-0.065842,0.993347,-0.007429,0.009731,-0.012169,86.740753,14.719604,-146.990356,,,
729706268.258708,-3.664796,0.655057,167.314444,-0.00856,-0.065842,0.993347,-0.007429,0.009731,-0.012169,86.740753,14.719604,-146.990356,,,
729706268.262106,-3.668419,0.656732,167.312047,-0.00856,-0.065842,0.993347,-0.007429,0.009731,-0.012169,86.740753,14.719604,-146.990356,,,
729706268.26538,-3.671012,0.6587,167.310489,-0.010574,-0.067459,0.992096,-0.006314,0.009746,-0.006458,86.740753,14.719604,-146.990356,,,
729706268.268722,-3.671012,0.6587,167.310489,-0.010574,-0.067459,0.992096,-0.006314,0.009746,-0.006458,86.740753,14.719604,-146.990356,,,
729706268.272052,-3.673233,0.660674,167.309094,-0.010574,-0.067459,0.992096,-0.006314,0.009746,-0.006458,86.740753,14.719604,-146.990356,,,
729706268.275372,-3.67303,0.662287,167.307778,-0.009369,-0.068176,0.994019,0.00372,0.008322,-0.005688,86.740753,14.719604,-146.990356,,,
729706268.278709,-3.67303,0.662287,167.307778,-0.009369,-0.068176,0.994019,0.00372,0.008322,-0.005688,86.740753,14.719604,-146.990356,,,
729706268.282038,-3.671882,0.664056,167.306606,-0.009369,-0.068176,0.994019,0.00372,0.008322,-0.005688,86.779663,14.647217,-146.928711,,,
729706268.285371,-3.668661,0.666246,167.305146,-0.009247,-0.066986,0.995514,0.012408,0.013027,-0.007504,86.779663,14.647217,-146.928711,,,
729706268.288802,-3.668661,0.666246,167.305146,-0.009247,-0.066986,0.995514,0.012408,0.013027,-0.007504,86.779663,14.647217,-146.928711,,,
729706268.292057,-3.665788,0.669378,167.302987,-0.009247,-0.066986,0.995514,0.012408,0.013027,-0.007504,86.779663,14.647217,-146.928711,,,
729706268.295381,-3.662198,0.671871,167.300207,-0.00563,-0.060699,0.992874,0.011484,0.010538,-0.011737,86.779663,14.647217,-146.928711,,,
729706268.298756,-3.662198,0.671871,167.300207,-0.00563,-0.060699,0.992874,0.011484,0.010538,-0.011737,86.779663,14.647217,-146.928711,,,
729706268.302105,-3.659739,0.672996,167.297169,-0.00563,-0.060699,0.992874,0.011484,0.010538,-0.011737,86.779663,14.647217,-146.928711,,,
729706268.305374,-3.657413,0.673857,167.293699,-0.008469,-0.062759,0.986176,0.006051,0.007182,-0.014875,86.779663,14.647217,-146.928711,,,
729706268.308725,-3.657413,0.673857,167.293699,-0.008469,-0.062759,0.986176,0.006051,0.007182,-0.014875,86.779663,14.647217,-146.928711,,,
729706268.31214,-3.65633,0.673238,167.289764,-0.008469,-0.062759,0.986176,0.006051,0.007182,-0.014875,86.779663,14.647217,-146.928711,,,
729706268.31537,-3.656885,0.672666,167.285977,-0.009933,-0.063477,0.983429,-0.005999,0.001022,-0.014425,86.779663,14.647217,-146.928711,,,
729706268.318725,-3.656885,0.672666,167.285977,-0.009933,-0.063477,0.983429,-0.005999,0.001022,-0.014425,86.779663,14.647217,-146.928711,,,
729706268.322053,-3.660141,0.670727,167.282246,-0.009933,-0.063477,0.983429,-0.005999,0.001022,-0.014425,86.874695,14.612183,-146.919312,,,
729706268.325378,-3.665873,0.66919,167.278566,-0.008362,-0.062103,0.977448,-0.024049,-0.002642,-0.014701,86.874695,14.612183,-146.919312,,,
729706268.328783,-3.665873,0.66919,167.278566,-0.008362,-0.062103,0.977448,-0.024049,-0.002642,-0.014701,86.874695,14.612183,-146.919312,,,
729706268.332053,-3.673989,0.66636,167.274673,-0.008362,-0.062103,0.977448,-0.024049,-0.002642,-0.014701,86.874695,14.612183,-146.919312,,,
729706268.335381,-3.683064,0.664389,167.270667,-0.00943,-0.062668,0.981735,-0.032361,-0.001976,-0.015927,86.874695,14.612183,-146.919312,,,
729706268.338726,-3.683064,0.664389,167.270667,-0.00943,-0.062668,0.981735,-0.032361,-0.001976,-0.015927,86.874695,14.612183,-146.919312,,,
729706268.342047,-3.693225,0.663121,167.266686,-0.00943,-0.062668,0.981735,-0.032361,-0.001976,-0.015927,86.874695,14.612183,-146.919312,,,
729706268.345378,-3.703257,0.663449,167.263007,-0.009781,-0.063309,0.987625,-0.034691,0.006836,-0.014002,86.874695,14.612183,-146.919312,,,
729706268.34873,-3.703257,0.663449,167.263007,-0.009781,-0.063309,0.987625,-0.034691,0.006836,-0.014002,86.874695,14.612183,-146.919312,,,
729706268.35206,-3.714578,0.664276,167.259588,-0.009781,-0.063309,0.987625,-0.034691,0.006836,-0.014002,86.874695,14.612183,-146.919312,,,
729706268.355379,-3.725855,0.666539,167.256822,-0.010956,-0.064697,0.988342,-0.038384,0.014794,-0.009592,86.874695,14.612183,-146.919312,,,
729706268.358729,-3.725855,0.666539,167.256822,-0.010956,-0.064697,0.988342,-0.038384,0.014794,-0.009592,86.874695,14.612183,-146.919312,,,
729706268.362049,-3.738055,0.669341,167.254592,-0.010956,-0.064697,0.988342,-0.038384,0.014794,-0.009592,86.874695,14.612183,-146.919312,,,
729706268.36538,-3.750327,0.672357,167.253087,-0.010391,-0.066315,0.986832,-0.043555,0.013472,-0.004804,87.153091,14.634308,-146.560837,,,
729706268.368769,-3.750327,0.672357,167.253087,-0.010391,-0.066315,0.986832,-0.043555,0.013472,-0.004804,87.153091,14.634308,-146.560837,,,
729706268.372052,-3.762974,0.674316,167.25196,-0.010391,-0.066315,0.986832,-0.043555,0.013472,-0.004804,87.153091,14.634308,-146.560837,,,
729706268.37538,-3.777159,0.676437,167.250599,-0.010254,-0.066269,0.983185,-0.052267,0.009594,-0.006859,87.153091,14.634308,-146.560837,,,
729706268.378723,-3.777159,0.676437,167.250599,-0.010254,-0.066269,0.983185,-0.052267,0.009594,-0.006859,87.153091,14.634308,-146.560837,,,
729706268.382114,-3.792286,0.677163,167.249094,-0.010254,-0.066269,0.983185,-0.052267,0.009594,-0.006859,87.153091,14.634308,-146.560837,,,
729706268.38537,-3.810009,0.678569,167.246911,-0.009857,-0.065521,0.981888,-0.06508,0.007702,-0.012197,87.153091,14.634308,-146.560837,,,
729706268.388714,-3.810009,0.678569,167.246911,-0.009857,-0.065521,0.981888,-0.06508,0.007702,-0.012197,87.153091,14.634308,-146.560837,,,
729706268.392064,-3.829988,0.678472,167.243551,-0.009857,-0.065521,0.981888,-0.06508,0.007702,-0.012197,87.153091,14.634308,-146.560837,,,
729706268.395375,-3.852894,0.67742,167.238447,-0.007278,-0.06398,0.979599,-0.083266,-0.000531,-0.024756,87.153091,14.634308,-146.560837,,,
729706268.398709,-3.852894,0.67742,167.238447,-0.007278,-0.06398,0.979599,-0.083266,-0.000531,-0.024756,87.153091,14.634308,-146.560837,,,
729706268.402057,-3.876827,0.674975,167.23103,-0.007278,-0.06398,0.979599,-0.083266,-0.000531,-0.024756,87.153091,14.634308,-146.560837,,,
729706268.405378,-3.902452,0.672517,167.222451,-0.008453,-0.066513,0.985977,-0.091824,-0.002592,-0.033099,87.105606,14.959274,-147.022186,,,
729706268.408732,-3.902452,0.672517,167.222451,-0.008453,-0.066513,0.985977,-0.091824,-0.002592,-0.033099,87.105606,14.959274,-147.022186,,,
729706268.412066,-3.928665,0.670423,167.212958,-0.008453,-0.066513,0.985977,-0.091824,-0.002592,-0.033099,87.105606,14.959274,-147.022186,,,
729706268.415445,-3.956329,0.669549,167.202852,-0.012039,-0.072678,0.994766,-0.097368,0.0031,-0.037635,87.105606,14.959274,-147.022186,,,
729706268.41872,-3.956329,0.669549,167.202852,-0.012039,-0.072678,0.994766,-0.097368,0.0031,-0.037635,87.105606,14.959274,-147.022186,,,
729706268.422112,-3.98418,0.668442,167.193325,-0.012039,-0.072678,0.994766,-0.097368,0.0031,-0.037635,87.105606,14.959274,-147.022186,,,
729706268.425371,-4.013638,0.667196,167.185399,-0.012741,-0.076157,0.991821,-0.10202,-0.001171,-0.026768,87.105606,14.959274,-147.022186,,,
729706268.428721,-4.013638,0.667196,167.185399,-0.012741,-0.076157,0.991821,-0.10202,-0.001171,-0.026768,87.105606,14.959274,-147.022186,,,
729706268.432052,-4.043493,0.665386,167.179758,-0.012741,-0.076157,0.991821,-0.10202,-0.001171,-0.026768,87.105606,14.959274,-147.022186,,,
729706268.435377,-4.077064,0.663723,167.176072,-0.017776,-0.077393,0.987488,-0.122677,-0.001633,-0.0134,87.105606,14.959274,-147.022186,,,
729706268.43872,-4.077064,0.663723,167.176072,-0.017776,-0.077393,0.987488,-0.122677,-0.001633,-0.0134,87.105606,14.959274,-147.022186,,,
729706268.442041,-4.112864,0.661191,167.173887,-0.017776,-0.077393,0.987488,-0.122677,-0.001633,-0.0134,87.105606,14.959274,-147.022186,,,
729706268.445381,-4.152648,0.657848,167.17301,-0.014862,-0.072159,0.980148,-0.145764,-0.009978,-0.004699,86.897675,15.070267,-147.214828,,,
729706268.448776,-4.152648,0.657848,167.17301,-0.014862,-0.072159,0.980148,-0.145764,-0.009978,-0.004699,86.897675,15.070267,-147.214828,,,
729706268.45205,-4.196078,0.654333,167.17225,-0.014862,-0.072159,0.980148,-0.145764,-0.009978,-0.004699,86.897675,15.070267,-147.214828,,,
729706268.455376,-4.245377,0.651428,167.170593,-0.013428,-0.070709,0.975098,-0.181052,-0.006402,-0.011419,86.897675,15.070267,-147.214828,,,
729706268.458713,-4.245377,0.651428,167.170593,-0.013428,-0.070709,0.975098,-0.181052,-0.006402,-0.011419,86.897675,15.070267,-147.214828,,,
729706268.46213,-4.300136,0.648934,167.168293,-0.013428,-0.070709,0.975098,-0.181052,-0.006402,-0.011419,86.897675,15.070267,-147.214828,,,
729706268.465372,-4.362763,0.646953,167.165294,-0.00975,-0.071671,0.973679,-0.229006,-0.003046,-0.016847,86.897675,15.070267,-147.214828,,,
729706268.468723,-4.362763,0.646953,167.165294,-0.00975,-0.071671,0.973679,-0.229006,-0.003046,-0.016847,86.897675,15.070267,-147.214828,,,
729706268.472065,-4.431993,0.643984,167.160936,-0.00975,-0.071671,0.973679,-0.229006,-0.003046,-0.016847,86.897675,15.070267,-147.214828,,,
729706268.475378,-4.512763,0.640136,167.155288,-0.007584,-0.072418,0.965134,-0.300964,-0.010462,-0.026743,86.897675,15.070267,-147.214828,,,
729706268.47873,-4.512763,0.640136,167.155288,-0.007584,-0.072418,0.965134,-0.300964,-0.010462,-0.026743,86.897675,15.070267,-147.214828,,,
729706268.482074,-4.603095,0.634004,167.148995,-0.007584,-0.072418,0.965134,-0.300964,-0.010462,-0.026743,86.897675,15.070267,-147.214828,,,
729706268.485427,-4.704313,0.625013,167.142301,-0.008347,-0.081116,0.961624,-0.366452,-0.033978,-0.030497,86.690094,15.72226,-147.041016,,,
729706268.488793,-4.704313,0.625013,167.142301,-0.008347,-0.081116,0.961624,-0.366452,-0.033978,-0.030497,86.690094,15.72226,-147.041016,,,
729706268.492056,-4.812911,0.613142,167.13577,-0.008347,-0.081116,0.961624,-0.366452,-0.033978,-0.030497,86.690094,15.72226,-147.041016,,,
729706268.495378,-4.930312,0.600731,167.130524,-0.016296,-0.088211,0.972565,-0.418869,-0.038502,-0.021969,86.690094,15.72226,-147.041016,,,
729706268.498713,-4.930312,0.600731,167.130524,-0.016296,-0.088211,0.972565,-0.418869,-0.038502,-0.021969,86.690094,15.72226,-147.041016,,,
729706268.502063,-5.052368,0.588618,167.126197,-0.016296,-0.088211,0.972565,-0.418869,-0.038502,-0.021969,86.690094,15.72226,-147.041016,,,
729706268.505405,-5.180192,0.575444,167.123495,-0.018555,-0.09285,0.985031,-0.450835,-0.045365,-0.010686,86.690094,15.72226,-147.041016,,,
729706268.50871,-5.180192,0.575444,167.123495,-0.018555,-0.09285,0.985031,-0.450835,-0.045365,-0.010686,86.690094,15.72226,-147.041016,,,
729706268.512062,-5.310327,0.561413,167.12319,-0.018555,-0.09285,0.985031,-0.450835,-0.045365,-0.010686,86.690094,15.72226,-147.041016,,,
729706268.515379,-5.445597,0.545337,167.124773,-0.020874,-0.101715,0.982941,-0.477614,-0.057138,0.002716,86.690094,15.72226,-147.041016,,,
729706268.518712,-5.445597,0.545337,167.124773,-0.020874,-0.101715,0.982941,-0.477614,-0.057138,0.002716,86.690094,15.72226,-147.041016,,,
729706268.522074,-5.582133,0.528547,167.128524,-0.020874,-0.101715,0.982941,-0.477614,-0.057138,0.002716,86.690094,15.72226,-147.041016,,,
729706268.525377,-5.723445,0.510093,167.134541,-0.017685,-0.106552,0.982132,-0.498641,-0.064811,0.019052,86.690094,15.72226,-147.041016,,,
729706268.528787,-5.723445,0.510093,167.134541,-0.017685,-0.106552,0.982132,-0.498641,-0.064811,0.019052,86.914032,16.661591,-147.257294,,,
729706268.532057,-5.86589,0.490608,167.142649,-0.017685,-0.106552,0.982132,-0.498641,-0.064811,0.019052,86.914032,16.661591,-147.257294,,,
729706268.535379,-6.015802,0.467261,167.152061,-0.016373,-0.110641,0.975281,-0.531541,-0.089459,0.028549,86.914032,16.661591,-147.257294,,,
729706268.538731,-6.015802,0.467261,167.152061,-0.016373,-0.110641,0.975281,-0.531541,-0.089459,0.028549,86.914032,16.661591,-147.257294,,,
729706268.542106,-6.168692,0.438221,167.162906,-0.016373,-0.110641,0.975281,-0.531541,-0.089459,0.028549,86.914032,16.661591,-147.257294,,,
729706268.545372,-6.331375,0.400828,167.174865,-0.015076,-0.114151,0.960358,-0.578963,-0.146115,0.03685,86.914032,16.661591,-147.257294,,,
729706268.548732,-6.331375,0.400828,167.174865,-0.015076,-0.114151,0.960358,-0.578963,-0.146115,0.03685,86.914032,16.661591,-147.257294,,,
729706268.552045,-6.501632,0.35448,167.186516,-0.015076,-0.114151,0.960358,-0.578963,-0.146115,0.03685,86.914032,16.661591,-147.257294,,,
729706268.555379,-6.679668,0.298557,167.196328,-0.011917,-0.113312,0.948975,-0.633294,-0.211698,0.024832,86.914032,16.661591,-147.257294,,,
729706268.558732,-6.679668,0.298557,167.196328,-0.011917,-0.113312,0.948975,-0.633294,-0.211698,0.024832,86.914032,16.661591,-147.257294,,,
729706268.562047,-6.865869,0.233392,167.203127,-0.011917,-0.113312,0.948975,-0.633294,-0.211698,0.024832,86.914032,16.661591,-147.257294,,,
729706268.565378,-7.059464,0.160415,167.206239,-0.007507,-0.110718,0.955627,-0.68495,-0.2633,0.000723,86.914032,16.661591,-147.257294,,,
729706268.568725,-7.059464,0.160415,167.206239,-0.007507,-0.110718,0.955627,-0.68495,-0.2633,0.000723,86.338348,17.784866,-147.232376,,,
729706268.572056,-7.260219,0.081998,167.20549,-0.007507,-0.110718,0.955627,-0.68495,-0.2633,0.000723,86.338348,17.784866,-147.232376,,,
729706268.575376,-7.469854,-4.3e-05,167.200404,0.000229,-0.115646,0.970779,-0.7471,-0.28481,-0.027348,86.338348,17.784866,-147.232376,,,
729706268.578795,-7.469854,-4.3e-05,167.200404,0.000229,-0.115646,0.970779,-0.7471,-0.28481,-0.027348,86.338348,17.784866,-147.232376,,,
729706268.582049,-7.688978,-0.084686,167.190839,0.000229,-0.115646,0.970779,-0.7471,-0.28481,-0.027348,86.338348,17.784866,-147.232376,,,
729706268.585133,-7.916344,-0.171308,167.177459,0.001083,-0.126846,0.97171,-0.804699,-0.294766,-0.051237,86.338348,17.784866,-147.232376,,,
729706268.588762,-7.916344,-0.171308,167.177459,0.001083,-0.126846,0.97171,-0.804699,-0.294766,-0.051237,86.338348,17.784866,-147.232376,,,
729706268.592114,-8.150705,-0.25976,167.161421,0.001083,-0.126846,0.97171,-0.804699,-0.294766,-0.051237,86.338348,17.784866,-147.232376,,,
729706268.595372,-8.391139,-0.349559,167.144074,-0.001526,-0.13974,0.972977,-0.846906,-0.302289,-0.057431,86.338348,17.784866,-147.232376,,,
729706268.598709,-8.391139,-0.349559,167.144074,-0.001526,-0.13974,0.972977,-0.846906,-0.302289,-0.057431,86.338348,17.784866,-147.232376,,,
729706268.602052,-8.635794,-0.440009,167.126596,-0.001526,-0.13974,0.972977,-0.846906,-0.302289,-0.057431,86.338348,17.784866,-147.232376,,,
729706268.605379,-8.883689,-0.530456,167.108915,-0.002625,-0.154297,0.976624,-0.869336,-0.301446,-0.055871,86.338348,17.784866,-147.232376,,,
729706268.608711,-8.883689,-0.530456,167.108915,-0.002625,-0.154297,0.976624,-0.869336,-0.301446,-0.055871,85.77301,19.518326,-147.472092,,,
729706268.612061,-9.13444,-0.620385,167.089047,-0.002625,-0.154297,0.976624,-0.869336,-0.301446,-0.055871,85.77301,19.518326,-147.472092,,,
729706268.615379,-9.388753,-0.710854,167.065993,0.005753,-0.152206,0.972977,-0.894255,-0.300942,-0.074625,85.77301,19.518326,-147.472092,,,
729706268.618786,-9.388753,-0.710854,167.065993,0.005753,-0.152206,0.972977,-0.894255,-0.300942,-0.074625,85.77301,19.518326,-147.472092,,,
729706268.622057,-9.648951,-0.803233,167.040565,0.005753,-0.152206,0.972977,-0.894255,-0.300942,-0.074625,85.77301,19.518326,-147.472092,,,
729706268.625376,-9.916783,-0.898013,167.013771,0.008545,-0.163483,0.948013,-0.947459,-0.315151,-0.080074,85.77301,19.518326,-147.472092,,,
729706268.628729,-9.916783,-0.898013,167.013771,0.008545,-0.163483,0.948013,-0.947459,-0.315151,-0.080074,85.77301,19.518326,-147.472092,,,
729706268.632101,-10.192642,-0.994947,166.987641,0.008545,-0.163483,0.948013,-0.947459,-0.315151,-0.080074,85.77301,19.518326,-147.472092,,,
729706268.635486,-10.477548,-1.092706,166.96394,0.013306,-0.180496,0.924713,-1.010052,-0.322943,-0.058844,85.77301,19.518326,-147.472092,,,
729706268.638724,-10.477548,-1.092706,166.96394,0.013306,-0.180496,0.924713,-1.010052,-0.322943,-0.058844,85.77301,19.518326,-147.472092,,,
729706268.642054,-10.77286,-1.189824,166.94301,0.013306,-0.180496,0.924713,-1.010052,-0.322943,-0.058844,85.77301,19.518326,-147.472092,,,
729706268.645376,-11.079628,-1.285633,166.925392,0.015228,-0.19133,0.919098,-1.089121,-0.317349,-0.030829,85.77301,19.518326,-147.472092,,,
729706268.648712,-11.079628,-1.285633,166.925392,0.015228,-0.19133,0.919098,-1.089121,-0.317349,-0.030829,85.77301,19.518326,-147.472092,,,
729706268.652057,-11.399141,-1.37926,166.911299,0.015228,-0.19133,0.919098,-1.089121,-0.317349,-0.030829,85.178558,21.423935,-147.850372,,,
729706268.655371,-11.732136,-1.469445,166.900111,0.021164,-0.197067,0.914734,-1.183059,-0.297053,-0.004986,85.178558,21.423935,-147.850372,,,
729706268.658712,-11.732136,-1.469445,166.900111,0.021164,-0.197067,0.914734,-1.183059,-0.297053,-0.004986,85.178558,21.423935,-147.850372,,,
729706268.662042,-12.077863,-1.555362,166.890131,0.021164,-0.197067,0.914734,-1.183059,-0.297053,-0.004986,85.178558,21.423935,-147.850372,,,
729706268.665367,-12.434914,-1.634416,166.879994,0.035934,-0.199509,0.928574,-1.262462,-0.248727,-0.000286,85.178558,21.423935,-147.850372,,,
729706268.668727,-12.434914,-1.634416,166.879994,0.035934,-0.199509,0.928574,-1.262462,-0.248727,-0.000286,85.178558,21.423935,-147.850372,,,
729706268.672126,-12.80296,-1.702741,166.869844,0.035934,-0.199509,0.928574,-1.262462,-0.248727,-0.000286,85.178558,21.423935,-147.850372,,,
729706268.675372,-13.180624,-1.757805,166.859966,0.042328,-0.213593,0.947998,-1.329912,-0.156421,0.006448,85.178558,21.423935,-147.850372,,,
729706268.678725,-13.180624,-1.757805,166.859966,0.042328,-0.213593,0.947998,-1.329912,-0.156421,0.006448,85.178558,21.423935,-147.850372,,,
729706268.682059,-13.565634,-1.79842,166.850782,0.042328,-0.213593,0.947998,-1.329912,-0.156421,0.006448,85.178558,21.423935,-147.850372,,,
729706268.685378,-13.956732,-1.824767,166.842432,0.041534,-0.239288,0.963928,-1.372667,-0.058048,0.015108,85.178558,21.423935,-147.850372,,,
729706268.688727,-13.956732,-1.824767,166.842432,0.041534,-0.239288,0.963928,-1.372667,-0.058048,0.015108,85.178558,21.423935,-147.850372,,,
729706268.692065,-14.353174,-1.837528,166.835624,0.041534,-0.239288,0.963928,-1.372667,-0.058048,0.015108,84.544037,24.283524,-147.638901,,,
729706268.695374,-14.754074,-1.838252,166.831756,0.043762,-0.264664,0.961868,-1.403635,0.020953,0.036306,84.544037,24.283524,-147.638901,,,
729706268.698709,-14.754074,-1.838252,166.831756,0.043762,-0.264664,0.961868,-1.403635,0.020953,0.036306,84.544037,24.283524,-147.638901,,,
729706268.70204,-15.159155,-1.828861,166.832679,0.043762,-0.264664,0.961868,-1.403635,0.020953,0.036306,84.544037,24.283524,-147.638901,,,
729706268.705377,-15.567789,-1.811942,166.839652,0.032715,-0.289642,0.946533,-1.427676,0.062194,0.077043,84.544037,24.283524,-147.638901,,,
729706268.708797,-15.567789,-1.811942,166.839652,0.032715,-0.289642,0.946533,-1.427676,0.062194,0.077043,84.544037,24.283524,-147.638901,,,
729706268.712044,-15.981395,-1.789281,166.851773,0.032715,-0.289642,0.946533,-1.427676,0.062194,0.077043,84.544037,24.283524,-147.638901,,,
729706268.715373,-16.400799,-1.761128,166.869637,0.026276,-0.306198,0.926727,-1.466953,0.08868,0.115247,84.544037,24.283524,-147.638901,,,
729706268.718728,-16.400799,-1.761128,166.869637,0.026276,-0.306198,0.926727,-1.466953,0.08868,0.115247,84.544037,24.283524,-147.638901,,,
729706268.722108,-16.826868,-1.730796,166.893303,0.026276,-0.306198,0.926727,-1.466953,0.08868,0.115247,84.544037,24.283524,-147.638901,,,
729706268.725373,-17.262305,-1.701905,166.920429,0.027451,-0.327576,0.905212,-1.531047,0.070343,0.138279,84.544037,24.283524,-147.638901,,,
729706268.728728,-17.262305,-1.701905,166.920429,0.027451,-0.327576,0.905212,-1.531047,0.070343,0.138279,84.544037,24.283524,-147.638901,,,
729706268.732061,-17.709589,-1.675423,166.949724,0.027451,-0.327576,0.905212,-1.531047,0.070343,0.138279,84.839828,27.194351,-147.323059,,,
729706268.735375,-18.172014,-1.652107,166.980131,0.025131,-0.30899,0.873169,-1.63579,0.04431,0.146807,84.839828,27.194351,-147.323059,,,
729706268.738719,-18.172014,-1.652107,166.980131,0.025131,-0.30899,0.873169,-1.63579,0.04431,0.146807,84.839828,27.194351,-147.323059,,,
729706268.742063,-18.652832,-1.633033,167.010939,0.025131,-0.30899,0.873169,-1.63579,0.04431,0.146807,84.839828,27.194351,-147.323059,,,
729706268.745378,-19.153545,-1.619562,167.041197,0.017822,-0.283203,0.846756,-1.773899,0.004723,0.145558,84.839828,27.194351,-147.323059,,,
729706268.748791,-19.153545,-1.619562,167.041197,0.017822,-0.283203,0.846756,-1.773899,0.004723,0.145558,84.839828,27.194351,-147.323059,,,
729706268.75205,-19.674112,-1.61311,167.069817,0.017822,-0.283203,0.846756,-1.773899,0.004723,0.145558,84.839828,27.194351,-147.323059,,,
729706268.755379,-20.215518,-1.614754,167.096613,0.018127,-0.295288,0.826859,-1.918672,-0.049105,0.136857,84.839828,27.194351,-147.323059,,,
729706268.758722,-20.215518,-1.614754,167.096613,0.018127,-0.295288,0.826859,-1.918672,-0.049105,0.136857,84.839828,27.194351,-147.323059,,,
729706268.762111,-20.777388,-1.625294,167.120142,0.018127,-0.295288,0.826859,-1.918672,-0.049105,0.136857,84.839828,27.194351,-147.323059,,,
729706268.76537,-21.359383,-1.645883,167.138872,0.025375,-0.329346,0.813614,-2.058866,-0.108612,0.110103,84.839828,27.194351,-147.323059,,,
729706268.768714,-21.359383,-1.645883,167.138872,0.025375,-0.329346,0.813614,-2.058866,-0.108612,0.110103,84.839828,27.194351,-147.323059,,,
729706268.772047,-21.960758,-1.676965,167.151973,0.025375,-0.329346,0.813614,-2.058866,-0.108612,0.110103,84.684113,31.05957,-146.877258,,,
729706268.775379,-22.580384,-1.717887,167.158607,0.034302,-0.362762,0.812119,-2.186282,-0.160967,0.074421,84.684113,31.05957,-146.877258,,,
729706268.778726,-22.580384,-1.717887,167.158607,0.034302,-0.362762,0.812119,-2.186282,-0.160967,0.074421,84.684113,31.05957,-146.877258,,,
729706268.782047,-23.216803,-1.769632,167.158414,0.034302,-0.362762,0.812119,-2.186282,-0.160967,0.074421,84.684113,31.05957,-146.877258,,,
729706268.785378,-23.869279,-1.833718,167.151509,0.041824,-0.392929,0.80925,-2.300219,-0.228364,0.039606,84.684113,31.05957,-146.877258,,,
729706268.78877,-23.869279,-1.833718,167.151509,0.041824,-0.392929,0.80925,-2.300219,-0.228364,0.039606,84.684113,31.05957,-146.877258,,,
729706268.792051,-24.537854,-1.911261,167.1382,0.041824,-0.392929,0.80925,-2.300219,-0.228364,0.039606,84.684113,31.05957,-146.877258,,,
729706268.795388,-25.222527,-2.003451,167.119397,0.036957,-0.416779,0.794083,-2.414316,-0.313431,0.016093,84.684113,31.05957,-146.877258,,,
729706268.798734,-25.222527,-2.003451,167.119397,0.036957,-0.416779,0.794083,-2.414316,-0.313431,0.016093,84.684113,31.05957,-146.877258,,,
729706268.802117,-25.924381,-2.112051,167.096207,0.036957,-0.416779,0.794083,-2.414316,-0.313431,0.016093,84.684113,31.05957,-146.877258,,,
729706268.805363,-26.644056,-2.238914,167.069717,0.028641,-0.442459,0.769119,-2.54008,-0.428856,0.011117,84.684113,31.05957,-146.877258,,,
729706268.808835,-26.644056,-2.238914,167.069717,0.028641,-0.442459,0.769119,-2.54008,-0.428856,0.011117,84.684113,31.05957,-146.877258,,,
729706268.812047,-27.382843,-2.386536,167.040452,0.028641,-0.442459,0.769119,-2.54008,-0.428856,0.011117,84.684113,31.05957,-146.877258,,,
729706268.815395,-28.139838,-2.556485,167.008308,0.025833,-0.47226,0.752426,-2.668499,-0.572914,0.014365,84.079681,35.933884,-145.643707,,,
729706268.818732,-28.139838,-2.556485,167.008308,0.025833,-0.47226,0.752426,-2.668499,-0.572914,0.014365,84.079681,35.933884,-145.643707,,,
729706268.822053,-28.913513,-2.747965,166.972147,0.025833,-0.47226,0.752426,-2.668499,-0.572914,0.014365,84.079681,35.933884,-145.643707,,,
729706268.825425,-29.701377,-2.958587,166.92949,0.037933,-0.502518,0.759842,-2.770105,-0.681378,0.000453,84.079681,35.933884,-145.643707,,,
729706268.828771,-29.701377,-2.958587,166.92949,0.037933,-0.502518,0.759842,-2.770105,-0.681378,0.000453,84.079681,35.933884,-145.643707,,,
729706268.832045,-30.499884,-3.18535,166.877661,0.037933,-0.502518,0.759842,-2.770105,-0.681378,0.000453,84.079681,35.933884,-145.643707,,,
729706268.835374,-31.305845,-3.425985,166.814893,0.059555,-0.532486,0.782578,-2.825577,-0.734509,-0.036572,84.079681,35.933884,-145.643707,,,
729706268.838715,-31.305845,-3.425985,166.814893,0.059555,-0.532486,0.782578,-2.825577,-0.734509,-0.036572,84.079681,35.933884,-145.643707,,,
729706268.842125,-32.116593,-3.678739,166.740429,0.059555,-0.532486,0.782578,-2.825577,-0.734509,-0.036572,84.079681,35.933884,-145.643707,,,
729706268.845381,-32.92882,-3.940659,166.654171,0.073685,-0.570038,0.799728,-2.839439,-0.747679,-0.075623,84.079681,35.933884,-145.643707,,,
729706268.848721,-32.92882,-3.940659,166.654171,0.073685,-0.570038,0.799728,-2.839439,-0.747679,-0.075623,84.079681,35.933884,-145.643707,,,
729706268.852058,-33.738538,-4.209143,166.556794,0.073685,-0.570038,0.799728,-2.839439,-0.747679,-0.075623,84.079681,35.933884,-145.643707,,,
729706268.855396,-34.541897,-4.482403,166.4506,0.073685,-0.570038,0.799728,-2.798394,-0.738289,-0.097568,82.397507,41.178696,-143.661423,,,
729706268.858729,-34.541897,-4.482403,166.4506,0.079285,-0.613602,0.815796,-2.798394,-0.738289,-0.097568,82.397507,41.178696,-143.661423,,,
729706268.862046,-35.335507,-4.75801,166.33875,0.079285,-0.613602,0.815796,-2.798394,-0.738289,-0.097568,82.397507,41.178696,-143.661423,,,
729706268.865397,-35.335507,-5.034397,166.22404,0.079285,-0.613602,0.815796,-2.710963,-0.723086,-0.08823,82.397507,41.178696,-143.661423,,,
729706268.868718,-36.116434,-5.034397,166.22404,0.074722,-0.653992,0.829422,-2.710963,-0.723086,-0.08823,82.397507,41.178696,-143.661423,,,
729706268.872056,-36.880278,-5.30964,166.110604,0.074722,-0.653992,0.829422,-2.710963,-0.723086,-0.08823,82.397507,41.178696,-143.661423,,,
729706268.875396,-37.624735,-5.581314,166.002853,0.069702,-0.689362,0.836349,-2.572557,-0.713616,-0.037827,82.397507,41.178696,-143.661423,,,
729706268.878783,-37.624735,-5.581314,166.002853,0.069702,-0.689362,0.836349,-2.572557,-0.713616,-0.037827,82.397507,41.178696,-143.661423,,,
729706268.882038,-38.347532,-5.846889,165.905112,0.069702,-0.689362,0.836349,-2.572557,-0.713616,-0.037827,82.397507,41.178696,-143.661423,,,
729706268.885453,-38.347532,-5.846889,165.905112,0.069702,-0.689362,0.836349,-2.572557,-0.713616,-0.037827,82.397507,41.178696,-143.661423,,,
729706268.888852,-39.047354,-6.104679,165.821364,0.057678,-0.719025,0.839523,-2.403922,-0.713398,0.04948,82.397507,41.178696,-143.661423,,,
