Time (sec),Pitch (deg),Roll (deg),Yaw(deg),X-Acceleration (g),Y-Acceleration (g),Z-Acceleration (g),Pitch Rate (deg/sec),Roll Rate (deg/sec),Yaw Rate (deg/sec),Magnetic Field in X direction (uT),Magnetic Field in Y direction (uT),Magnetic Field in Z Direction (uT),Latitude (deg),Longitude (deg),Altitude (m)
729706078.92443,-8.745193,2.419468,171.480218,-0.046753,-0.157639,0.990906,-0.001876,0.017138,-0.004789,87.477234,18.594498,-146.949554,,,
729706078.927763,-8.745193,2.419468,171.480218,-0.046753,-0.157639,0.990906,-0.001876,0.017138,-0.004789,87.477234,18.594498,-146.949554,,,
729706078.931125,-8.746766,2.424081,171.479536,-0.046753,-0.157639,0.990906,-0.001876,0.017138,-0.004789,87.477234,18.594498,-146.949554,,,
729706078.934493,-8.74807,2.428678,171.47838,-0.047379,-0.157013,0.989182,-0.002083,0.02058,-0.007607,87.477234,18.594498,-146.949554,,,
729706078.937762,-8.74807,2.428678,171.47838,-0.047379,-0.157013,0.989182,-0.002083,0.02058,-0.007607,87.477234,18.594498,-146.949554,,,
729706078.941114,-8.748924,2.433505,171.476671,-0.047379,-0.157013,0.989182,-0.002083,0.02058,-0.007607,87.477234,18.594498,-146.949554,,,
729706078.944443,-8.74906,2.437259,171.474999,-0.050888,-0.157425,0.988602,0.000967,0.016781,-0.00666,87.477234,18.594498,-146.949554,,,
729706078.947804,-8.74906,2.437259,171.474999,-0.050888,-0.157425,0.988602,0.000967,0.016781,-0.00666,87.391327,18.553543,-146.813965,,,
729706078.951099,-8.748464,2.44056,171.473322,-0.050888,-0.157425,0.988602,0.000967,0.016781,-0.00666,87.391327,18.553543,-146.813965,,,
729706078.954427,-8.747195,2.443058,171.471415,-0.050278,-0.158066,0.989899,0.006848,0.012092,-0.007894,87.391327,18.553543,-146.813965,,,
729706078.957766,-8.747195,2.443058,171.471415,-0.050278,-0.158066,0.989899,0.006848,0.012092,-0.007894,87.391327,18.553543,-146.813965,,,
729706078.961185,-8.744935,2.444802,171.469713,-0.050278,-0.158066,0.989899,0.006848,0.012092,-0.007894,87.391327,18.553543,-146.813965,,,
729706078.964507,-8.743143,2.445889,171.468594,-0.050705,-0.156998,0.989838,0.006283,0.006015,-0.004,87.391327,18.553543,-146.813965,,,
729706078.967687,-8.743143,2.445889,171.468594,-0.050705,-0.156998,0.989838,0.006283,0.006015,-0.004,87.391327,18.553543,-146.813965,,,
729706078.9711,-8.741134,2.445687,171.468168,-0.050705,-0.156998,0.989838,0.006283,0.006015,-0.004,87.391327,18.553543,-146.813965,,,
729706078.974426,-8.738376,2.4446,171.468138,-0.052322,-0.156738,0.987564,0.011811,-0.002225,-0.001312,87.391327,18.553543,-146.813965,,,
729706078.977774,-8.738376,2.4446,171.468138,-0.052322,-0.156738,0.987564,0.011811,-0.002225,-0.001312,87.391327,18.553543,-146.813965,,,
729706078.9811,-8.735842,2.442645,171.468253,-0.052322,-0.156738,0.987564,0.011811,-0.002225,-0.001312,87.391327,18.553543,-146.813965,,,
729706078.984528,-8.732466,2.440154,171.468747,-0.051239,-0.155441,0.986847,0.013718,-0.00673,0.001302,87.391327,18.553543,-146.813965,,,
729706078.987771,-8.732466,2.440154,171.468747,-0.051239,-0.155441,0.986847,0.013718,-0.00673,0.001302,87.458893,18.572586,-146.990723,,,
729706078.99111,-8.729578,2.437843,171.469264,-0.051239,-0.155441,0.986847,0.013718,-0.00673,0.001302,87.458893,18.572586,-146.990723,,,
729706078.994426,-8.726835,2.435638,171.469879,-0.048019,-0.154068,0.985901,0.009152,-0.004058,0.002085,87.458893,18.572586,-146.990723,,,
729706078.99785,-8.726835,2.435638,171.469879,-0.048019,-0.154068,0.985901,0.009152,-0.004058,0.002085,87.458893,18.572586,-146.990723,,,
729706079.001109,-8.725745,2.43407,171.470405,-0.048019,-0.154068,0.985901,0.009152,-0.004058,0.002085,87.458893,18.572586,-146.990723,,,
729706079.004428,-8.725168,2.432546,171.470211,-0.047668,-0.152588,0.983429,0.002181,0.000412,-0.00261,87.458893,18.572586,-146.990723,,,
729706079.007774,-8.725168,2.432546,171.470211,-0.047668,-0.152588,0.983429,0.002181,0.000412,-0.00261,87.458893,18.572586,-146.990723,,,
729706079.011162,-8.725271,2.432099,171.46977,-0.047668,-0.152588,0.983429,0.002181,0.000412,-0.00261,87.458893,18.572586,-146.990723,,,
729706079.01442,-8.725028,2.43156,171.469734,-0.044678,-0.154678,0.986557,0.000491,0.002671,0.000619,87.458893,18.572586,-146.990723,,,
729706079.017772,-8.725028,2.43156,171.469734,-0.044678,-0.154678,0.986557,0.000491,0.002671,0.000619,87.458893,18.572586,-146.990723,,,
729706079.021106,-8.725206,2.432899,171.470223,-0.044678,-0.154678,0.986557,0.000491,0.002671,0.000619,87.458893,18.572586,-146.990723,,,
729706079.024427,-8.724615,2.435328,171.470771,-0.043533,-0.157654,0.99295,0.002686,0.014768,0.001842,87.458893,18.572586,-146.990723,,,
729706079.02776,-8.724615,2.435328,171.470771,-0.043533,-0.157654,0.99295,0.002686,0.014768,0.001842,87.317917,18.752609,-146.943756,,,
729706079.031125,-8.724526,2.44024,171.471969,-0.043533,-0.157654,0.99295,0.002686,0.014768,0.001842,87.317917,18.752609,-146.943756,,,
729706079.034422,-8.723451,2.445017,171.473612,-0.04425,-0.158066,0.994888,0.005078,0.020081,0.006049,87.317917,18.752609,-146.943756,,,
729706079.037833,-8.723451,2.445017,171.473612,-0.04425,-0.158066,0.994888,0.005078,0.020081,0.006049,87.317917,18.752609,-146.943756,,,
729706079.041089,-8.722427,2.451015,171.476282,-0.04425,-0.158066,0.994888,0.005078,0.020081,0.006049,87.317917,18.752609,-146.943756,,,
729706079.044477,-8.720374,2.456515,171.479924,-0.044296,-0.158493,0.995392,0.008114,0.020729,0.013676,87.317917,18.752609,-146.943756,,,
729706079.047793,-8.720374,2.456515,171.479924,-0.044296,-0.158493,0.995392,0.008114,0.020729,0.013676,87.317917,18.752609,-146.943756,,,
729706079.051264,-8.718033,2.462536,171.484337,-0.044296,-0.158493,0.995392,0.008114,0.020729,0.013676,87.317917,18.752609,-146.943756,,,
729706079.054443,-8.714756,2.467126,171.489072,-0.044067,-0.155792,0.990067,0.011029,0.016262,0.016907,87.317917,18.752609,-146.943756,,,
729706079.057792,-8.714756,2.467126,171.489072,-0.044067,-0.155792,0.990067,0.011029,0.016262,0.016907,87.317917,18.752609,-146.943756,,,
729706079.061118,-8.712511,2.472045,171.493752,-0.044067,-0.155792,0.990067,0.011029,0.016262,0.016907,87.317917,18.752609,-146.943756,,,
729706079.064426,-8.710156,2.475025,171.496917,-0.041107,-0.155029,0.985474,0.008946,0.0106,0.007313,87.317917,18.752609,-146.943756,,,
729706079.067764,-8.710156,2.475025,171.496917,-0.041107,-0.155029,0.985474,0.008946,0.0106,0.007313,87.588104,18.47049,-146.823059,,,
729706079.071096,-8.708283,2.478104,171.49905,-0.041107,-0.155029,0.985474,0.008946,0.0106,0.007313,87.588104,18.47049,-146.823059,,,
729706079.074422,-8.706624,2.479667,171.499916,-0.04039,-0.153534,0.985229,0.006091,0.006635,-0.000735,87.588104,18.47049,-146.823059,,,
729706079.077858,-8.706624,2.479667,171.499916,-0.04039,-0.153534,0.985229,0.006091,0.006635,-0.000735,87.588104,18.47049,-146.823059,,,
729706079.081113,-8.705142,2.481844,171.499647,-0.04039,-0.153534,0.985229,0.006091,0.006635,-0.000735,87.588104,18.47049,-146.823059,,,
729706079.084428,-8.703377,2.483708,171.498294,-0.040924,-0.154617,0.989059,0.006859,0.009511,-0.007577,87.588104,18.47049,-146.823059,,,
729706079.087784,-8.703377,2.483708,171.498294,-0.040924,-0.154617,0.989059,0.006859,0.009511,-0.007577,87.588104,18.47049,-146.823059,,,
729706079.091164,-8.701752,2.486133,171.496435,-0.040924,-0.154617,0.989059,0.006859,0.009511,-0.007577,87.588104,18.47049,-146.823059,,,
729706079.094418,-8.699016,2.488786,171.494713,-0.040665,-0.156052,0.991287,0.012464,0.013535,-0.005955,87.588104,18.47049,-146.823059,,,
729706079.097758,-8.699016,2.488786,171.494713,-0.040665,-0.156052,0.991287,0.012464,0.013535,-0.005955,87.588104,18.47049,-146.823059,,,
729706079.101113,-8.695826,2.491931,171.493439,-0.040665,-0.156052,0.991287,0.012464,0.013535,-0.005955,87.588104,18.47049,-146.823059,,,
729706079.104423,-8.69178,2.495553,171.492505,-0.044907,-0.155701,0.991852,0.015243,0.017196,-0.003399,87.588104,18.47049,-146.823059,,,
729706079.107778,-8.69178,2.495553,171.492505,-0.044907,-0.155701,0.991852,0.015243,0.017196,-0.003399,87.588104,18.47049,-146.823059,,,
729706079.111112,-8.68743,2.499996,171.492394,-0.044907,-0.155701,0.991852,0.015243,0.017196,-0.003399,87.423294,18.569138,-146.779617,,,
729706079.114425,-8.682011,2.505514,171.493028,-0.04509,-0.152985,0.992203,0.018692,0.024052,0.001933,87.423294,18.569138,-146.779617,,,
729706079.117851,-8.682011,2.505514,171.493028,-0.04509,-0.152985,0.992203,0.018692,0.024052,0.001933,87.423294,18.569138,-146.779617,,,
729706079.121103,-8.677642,2.512317,171.494257,-0.04509,-0.152985,0.992203,0.018692,0.024052,0.001933,87.423294,18.569138,-146.779617,,,
729706079.124428,-8.672828,2.519946,171.495597,-0.047363,-0.153961,0.990585,0.017234,0.03054,0.002741,87.423294,18.569138,-146.779617,,,
729706079.127772,-8.672828,2.519946,171.495597,-0.047363,-0.153961,0.990585,0.017234,0.03054,0.002741,87.423294,18.569138,-146.779617,,,
729706079.131167,-8.668277,2.528417,171.496777,-0.047363,-0.153961,0.990585,0.017234,0.03054,0.002741,87.423294,18.569138,-146.779617,,,
729706079.134529,-8.66369,2.536779,171.498524,-0.049652,-0.155014,0.986847,0.014,0.029551,0.006568,87.423294,18.569138,-146.779617,,,
729706079.137747,-8.66369,2.536779,171.498524,-0.049652,-0.155014,0.986847,0.014,0.029551,0.006568,87.423294,18.569138,-146.779617,,,
729706079.141115,-8.660044,2.544613,171.500655,-0.049652,-0.155014,0.986847,0.014,0.029551,0.006568,87.423294,18.569138,-146.779617,,,
729706079.144425,-8.655894,2.552283,171.50231,-0.049744,-0.151382,0.985184,0.014134,0.027873,0.003153,87.423294,18.569138,-146.779617,,,
729706079.147779,-8.655894,2.552283,171.50231,-0.049744,-0.151382,0.985184,0.014134,0.027873,0.003153,87.423294,18.569138,-146.779617,,,
729706079.151108,-8.652616,2.557808,171.503538,-0.049744,-0.151382,0.985184,0.014134,0.027873,0.003153,87.646713,18.542953,-146.987198,,,
729706079.154418,-8.64884,2.561033,171.504697,-0.049606,-0.150421,0.979507,0.015411,0.009322,0.002355,87.646713,18.542953,-146.987198,,,
729706079.157834,-8.64884,2.561033,171.504697,-0.049606,-0.150421,0.979507,0.015411,0.009322,0.002355,87.646713,18.542953,-146.987198,,,
729706079.161105,-8.6449,2.562185,171.505144,-0.049606,-0.150421,0.979507,0.015411,0.009322,0.002355,87.646713,18.542953,-146.987198,,,
729706079.164424,-8.64056,2.562891,171.504585,-0.047363,-0.152023,0.981384,0.016008,0.005858,-0.004783,87.646713,18.542953,-146.987198,,,
729706079.16777,-8.64056,2.562891,171.504585,-0.047363,-0.152023,0.981384,0.016008,0.005858,-0.004783,87.646713,18.542953,-146.987198,,,
729706079.171166,-8.63703,2.563092,171.502911,-0.047363,-0.152023,0.981384,0.016008,0.005858,-0.004783,87.646713,18.542953,-146.987198,,,
729706079.174413,-8.633326,2.563913,171.500402,-0.046616,-0.152191,0.987808,0.014177,0.008181,-0.011059,87.646713,18.542953,-146.987198,,,
729706079.177764,-8.633326,2.563913,171.500402,-0.046616,-0.152191,0.987808,0.014177,0.008181,-0.011059,87.646713,18.542953,-146.987198,,,
729706079.181109,-8.630239,2.565226,171.497843,-0.046616,-0.152191,0.987808,0.014177,0.008181,-0.011059,87.646713,18.542953,-146.987198,,,
729706079.184421,-8.626795,2.567203,171.496068,-0.049149,-0.155701,0.992691,0.012221,0.011231,-0.00591,87.646713,18.542953,-146.987198,,,
729706079.187766,-8.626795,2.567203,171.496068,-0.049149,-0.155701,0.992691,0.012221,0.011231,-0.00591,87.646713,18.542953,-146.987198,,,
729706079.191095,-8.623593,2.569995,171.49499,-0.049149,-0.155701,0.992691,0.012221,0.011231,-0.00591,87.609604,18.801804,-147.064163,,,
729706079.194422,-8.619235,2.573684,171.495104,-0.05481,-0.15947,0.994476,0.017125,0.016803,0.002631,87.609604,18.801804,-147.064163,,,
729706079.197832,-8.619235,2.573684,171.495104,-0.05481,-0.15947,0.994476,0.017125,0.016803,0.002631,87.609604,18.801804,-147.064163,,,
729706079.201099,-8.614422,2.578043,171.496881,-0.05481,-0.15947,0.994476,0.017125,0.016803,0.002631,87.609604,18.801804,-147.064163,,,
729706079.204423,-8.608274,2.582663,171.499895,-0.053528,-0.157654,0.992874,0.023951,0.017975,0.011591,87.609604,18.801804,-147.064163,,,
729706079.207764,-8.608274,2.582663,171.499895,-0.053528,-0.157654,0.992874,0.023951,0.017975,0.011591,87.609604,18.801804,-147.064163,,,
729706079.211168,-8.601772,2.587694,171.503978,-0.053528,-0.157654,0.992874,0.023951,0.017975,0.011591,87.609604,18.801804,-147.064163,,,
729706079.214415,-8.594025,2.591339,171.508719,-0.052765,-0.155914,0.991989,0.028468,0.01098,0.016849,87.609604,18.801804,-147.064163,,,
729706079.217774,-8.594025,2.591339,171.508719,-0.052765,-0.155914,0.991989,0.028468,0.01098,0.016849,87.609604,18.801804,-147.064163,,,
729706079.22111,-8.585327,2.594579,171.51371,-0.052765,-0.155914,0.991989,0.028468,0.01098,0.016849,87.609604,18.801804,-147.064163,,,
729706079.224422,-8.574757,2.596733,171.518803,-0.050842,-0.152863,0.989731,0.038327,0.007167,0.018623,87.609604,18.801804,-147.064163,,,
729706079.227765,-8.574757,2.596733,171.518803,-0.050842,-0.152863,0.989731,0.038327,0.007167,0.018623,87.609604,18.801804,-147.064163,,,
729706079.231124,-8.563381,2.599114,171.523465,-0.050842,-0.152863,0.989731,0.038327,0.007167,0.018623,87.660034,18.365356,-146.792191,,,
729706079.234425,-8.551096,2.601274,171.527094,-0.045959,-0.151093,0.990494,0.043372,0.010368,0.012288,87.660034,18.365356,-146.792191,,,
729706079.237821,-8.551096,2.601274,171.527094,-0.045959,-0.151093,0.990494,0.043372,0.010368,0.012288,87.660034,18.365356,-146.792191,,,
729706079.241094,-8.539327,2.604877,171.53036,-0.045959,-0.151093,0.990494,0.043372,0.010368,0.012288,87.660034,18.365356,-146.792191,,,
729706079.244424,-8.527807,2.609009,171.533395,-0.0401,-0.151978,0.989807,0.038645,0.016773,0.010854,87.660034,18.365356,-146.792191,,,
729706079.247767,-8.527807,2.609009,171.533395,-0.0401,-0.151978,0.989807,0.038645,0.016773,0.010854,87.660034,18.365356,-146.792191,,,
729706079.251125,-8.517076,2.613783,171.536706,-0.0401,-0.151978,0.989807,0.038645,0.016773,0.010854,87.660034,18.365356,-146.792191,,,
729706079.25442,-8.506872,2.618415,171.540245,-0.044144,-0.152817,0.986588,0.031988,0.01733,0.012385,87.660034,18.365356,-146.792191,,,
729706079.25778,-8.506872,2.618415,171.540245,-0.044144,-0.152817,0.986588,0.031988,0.01733,0.012385,87.660034,18.365356,-146.792191,,,
729706079.261114,-8.498295,2.622887,171.544281,-0.044144,-0.152817,0.986588,0.031988,0.01733,0.012385,87.660034,18.365356,-146.792191,,,
729706079.264445,-8.49012,2.626685,171.54894,-0.043716,-0.152267,0.98378,0.025859,0.012634,0.016501,87.660034,18.365356,-146.792191,,,
729706079.267767,-8.49012,2.626685,171.54894,-0.043716,-0.152267,0.98378,0.025859,0.012634,0.016501,87.660034,18.365356,-146.792191,,,
729706079.271103,-8.484099,2.630762,171.554153,-0.043716,-0.152267,0.98378,0.025859,0.012634,0.016501,87.660034,18.365356,-146.792191,,,
729706079.274423,-8.478061,2.634197,171.559563,-0.043274,-0.150253,0.985489,0.019299,0.012949,0.018316,87.545547,18.260132,-146.708282,,,
729706079.277831,-8.478061,2.634197,171.559563,-0.043274,-0.150253,0.985489,0.019299,0.012949,0.018316,87.545547,18.260132,-146.708282,,,
729706079.281089,-8.473053,2.637935,171.564749,-0.043274,-0.150253,0.985489,0.019299,0.012949,0.018316,87.545547,18.260132,-146.708282,,,
729706079.284421,-8.467225,2.63941,171.569151,-0.042343,-0.149887,0.985352,0.018228,0.003966,0.013747,87.545547,18.260132,-146.708282,,,
729706079.287767,-8.467225,2.63941,171.569151,-0.042343,-0.149887,0.985352,0.018228,0.003966,0.013747,87.545547,18.260132,-146.708282,,,
729706079.291157,-8.462232,2.640595,171.573074,-0.042343,-0.149887,0.985352,0.018228,0.003966,0.013747,87.545547,18.260132,-146.708282,,,
729706079.294413,-8.455424,2.640858,171.576468,-0.041718,-0.148514,0.987625,0.025273,0.002822,0.011124,87.545547,18.260132,-146.708282,,,
729706079.297775,-8.455424,2.640858,171.576468,-0.041718,-0.148514,0.987625,0.025273,0.002822,0.011124,87.545547,18.260132,-146.708282,,,
729706079.301084,-8.448673,2.642191,171.579946,-0.041718,-0.148514,0.987625,0.025273,0.002822,0.011124,87.545547,18.260132,-146.708282,,,
729706079.304421,-8.441013,2.644338,171.583224,-0.036865,-0.147903,0.992508,0.026907,0.012989,0.010454,87.545547,18.260132,-146.708282,,,
729706079.307848,-8.441013,2.644338,171.583224,-0.036865,-0.147903,0.992508,0.026907,0.012989,0.010454,87.545547,18.260132,-146.708282,,,
729706079.311102,-8.432875,2.648782,171.58618,-0.036865,-0.147903,0.992508,0.026907,0.012989,0.010454,87.545547,18.260132,-146.708282,,,
729706079.314433,-8.423559,2.655087,171.589106,-0.035034,-0.15329,0.994415,0.032247,0.027534,0.010754,87.635605,18.261658,-146.739014,,,
729706079.317812,-8.423559,2.655087,171.589106,-0.035034,-0.15329,0.994415,0.032247,0.027534,0.010754,87.635605,18.261658,-146.739014,,,
729706079.321105,-8.414671,2.663011,171.592952,-0.035034,-0.15329,0.994415,0.032247,0.027534,0.010754,87.635605,18.261658,-146.739014,,,
729706079.324422,-8.404818,2.672647,171.597805,-0.040756,-0.156097,0.993607,0.035336,0.035877,0.017523,87.635605,18.261658,-146.739014,,,
729706079.32775,-8.404818,2.672647,171.597805,-0.040756,-0.156097,0.993607,0.035336,0.035877,0.017523,87.635605,18.261658,-146.739014,,,
729706079.331157,-8.395817,2.683014,171.603514,-0.040756,-0.156097,0.993607,0.035336,0.035877,0.017523,87.635605,18.261658,-146.739014,,,
729706079.334453,-8.387142,2.694447,171.610695,-0.042114,-0.155777,0.987915,0.028689,0.039457,0.027052,87.635605,18.261658,-146.739014,,,
729706079.337752,-8.387142,2.694447,171.610695,-0.042114,-0.155777,0.987915,0.028689,0.039457,0.027052,87.635605,18.261658,-146.739014,,,
729706079.341106,-8.379712,2.705361,171.618185,-0.042114,-0.155777,0.987915,0.028689,0.039457,0.027052,87.635605,18.261658,-146.739014,,,
729706079.344422,-8.372832,2.715647,171.625833,-0.040146,-0.15155,0.983887,0.019396,0.033742,0.027558,87.635605,18.261658,-146.739014,,,
729706079.347776,-8.372832,2.715647,171.625833,-0.040146,-0.15155,0.983887,0.019396,0.033742,0.027558,87.635605,18.261658,-146.739014,,,
729706079.351115,-8.368102,2.724844,171.633367,-0.040146,-0.15155,0.983887,0.019396,0.033742,0.027558,87.635605,18.261658,-146.739014,,,
729706079.35442,-8.364368,2.733593,171.640026,-0.03949,-0.148926,0.979965,0.008874,0.029029,0.020649,87.638855,18.136017,-146.823242,,,
729706079.357753,-8.364368,2.733593,171.640026,-0.03949,-0.148926,0.979965,0.008874,0.029029,0.020649,87.638855,18.136017,-146.823242,,,
729706079.36111,-8.362715,2.74108,171.645757,-0.03949,-0.148926,0.979965,0.008874,0.029029,0.020649,87.638855,18.136017,-146.823242,,,
729706079.364422,-8.361769,2.748077,171.65025,-0.040726,-0.148514,0.977646,0.001083,0.024628,0.011387,87.638855,18.136017,-146.823242,,,
729706079.36778,-8.361769,2.748077,171.65025,-0.040726,-0.148514,0.977646,0.001083,0.024628,0.011387,87.638855,18.136017,-146.823242,,,
729706079.371168,-8.362309,2.753449,171.653942,-0.040726,-0.148514,0.977646,0.001083,0.024628,0.011387,87.638855,18.136017,-146.823242,,,
729706079.374408,-8.362767,2.75803,171.657346,-0.040207,-0.151108,0.979187,-0.000909,0.015702,0.008756,87.638855,18.136017,-146.823242,,,
729706079.377771,-8.362767,2.75803,171.657346,-0.040207,-0.151108,0.979187,-0.000909,0.015702,0.008756,87.638855,18.136017,-146.823242,,,
729706079.381101,-8.363506,2.761586,171.65982,-0.040207,-0.151108,0.979187,-0.000909,0.015702,0.008756,87.638855,18.136017,-146.823242,,,
729706079.384418,-8.363696,2.766721,171.662418,-0.041336,-0.153,0.985931,0.00123,0.020962,0.008874,87.638855,18.136017,-146.823242,,,
729706079.387765,-8.363696,2.766721,171.662418,-0.041336,-0.153,0.985931,0.00123,0.020962,0.008874,87.638855,18.136017,-146.823242,,,
729706079.391092,-8.363085,2.772021,171.666002,-0.041336,-0.153,0.985931,0.00123,0.020962,0.008874,87.638855,18.136017,-146.823242,,,
729706079.394456,-8.361069,2.780655,171.670718,-0.04187,-0.158005,0.990631,0.008364,0.034183,0.01572,87.638855,18.136017,-146.823242,,,
729706079.397833,-8.361069,2.780655,171.670718,-0.04187,-0.158005,0.990631,0.008364,0.034183,0.01572,87.782944,17.992645,-147.004318,,,
729706079.401122,-8.358837,2.790519,171.675747,-0.04187,-0.158005,0.990631,0.008364,0.034183,0.01572,87.782944,17.992645,-147.004318,,,
729706079.404418,-8.35523,2.803869,171.681388,-0.040924,-0.158936,0.994614,0.011808,0.050409,0.019055,87.782944,17.992645,-147.004318,,,
729706079.407766,-8.35523,2.803869,171.681388,-0.040924,-0.158936,0.994614,0.011808,0.050409,0.019055,87.782944,17.992645,-147.004318,,,
729706079.411113,-8.352271,2.818735,171.686853,-0.040924,-0.158936,0.994614,0.011808,0.050409,0.019055,87.782944,17.992645,-147.004318,,,
729706079.414421,-8.347222,2.836233,171.691875,-0.042892,-0.156693,0.996567,0.018746,0.064779,0.01572,87.782944,17.992645,-147.004318,,,
729706079.417769,-8.347222,2.836233,171.691875,-0.042892,-0.156693,0.996567,0.018746,0.064779,0.01572,87.782944,17.992645,-147.004318,,,
729706079.42116,-8.342556,2.854481,171.696405,-0.042892,-0.156693,0.996567,0.018746,0.064779,0.01572,87.782944,17.992645,-147.004318,,,
729706079.424411,-8.336088,2.874578,171.700862,-0.048416,-0.156006,0.994125,0.025361,0.072041,0.014706,87.782944,17.992645,-147.004318,,,
729706079.427751,-8.336088,2.874578,171.700862,-0.048416,-0.156006,0.994125,0.025361,0.072041,0.014706,87.782944,17.992645,-147.004318,,,
729706079.431093,-8.328433,2.893501,171.704332,-0.048416,-0.156006,0.994125,0.025361,0.072041,0.014706,87.782944,17.992645,-147.004318,,,
729706079.434419,-8.319091,2.91172,171.706929,-0.052017,-0.152771,0.986847,0.033316,0.061329,0.00813,87.782944,17.992645,-147.004318,,,
729706079.437786,-8.319091,2.91172,171.706929,-0.052017,-0.152771,0.986847,0.033316,0.061329,0.00813,87.838348,17.989365,-146.595596,,,
729706079.441089,-8.310245,2.926545,171.709249,-0.052017,-0.152771,0.986847,0.033316,0.061329,0.00813,87.838348,17.989365,-146.595596,,,
729706079.444421,-8.301001,2.939777,171.711349,-0.057892,-0.14653,0.978424,0.032653,0.043788,0.005618,87.838348,17.989365,-146.595596,,,
729706079.447834,-8.301001,2.939777,171.711349,-0.057892,-0.14653,0.978424,0.032653,0.043788,0.005618,87.838348,17.989365,-146.595596,,,
729706079.451097,-8.29273,2.94899,171.712799,-0.057892,-0.14653,0.978424,0.032653,0.043788,0.005618,87.838348,17.989365,-146.595596,,,
729706079.454418,-8.283477,2.955721,171.714682,-0.061646,-0.145264,0.970886,0.034175,0.019188,0.007691,87.838348,17.989365,-146.595596,,,
729706079.457798,-8.283477,2.955721,171.714682,-0.061646,-0.145264,0.970886,0.034175,0.019188,0.007691,87.838348,17.989365,-146.595596,,,
729706079.461137,-8.275053,2.959402,171.716305,-0.061646,-0.145264,0.970886,0.034175,0.019188,0.007691,87.838348,17.989365,-146.595596,,,
729706079.464427,-8.266955,2.963702,171.717812,-0.061279,-0.142288,0.970627,0.026221,0.016175,0.005402,87.838348,17.989365,-146.595596,,,
729706079.467774,-8.266955,2.963702,171.717812,-0.061279,-0.142288,0.970627,0.026221,0.016175,0.005402,87.838348,17.989365,-146.595596,,,
729706079.471053,-8.260973,2.967083,171.719501,-0.061279,-0.142288,0.970627,0.026221,0.016175,0.005402,87.838348,17.989365,-146.595596,,,
729706079.47439,-8.254975,2.97145,171.721602,-0.060028,-0.137802,0.970154,0.017999,0.01656,0.006927,87.838348,17.989365,-146.595596,,,
729706079.477439,-8.254975,2.97145,171.721602,-0.060028,-0.137802,0.970154,0.017999,0.01656,0.006927,88.045639,18.042679,-146.958664,,,
729706079.481071,-8.251542,2.975317,171.724097,-0.060028,-0.137802,0.970154,0.017999,0.01656,0.006927,88.045639,18.042679,-146.958664,,,
729706079.484431,-8.247225,2.981675,171.728021,-0.063492,-0.137772,0.969482,0.014018,0.025449,0.015568,88.045639,18.042679,-146.958664,,,
729706079.487686,-8.247225,2.981675,171.728021,-0.063492,-0.137772,0.969482,0.014018,0.025449,0.015568,88.045639,18.042679,-146.958664,,,
729706079.491066,-8.245087,2.988657,171.733703,-0.063492,-0.137772,0.969482,0.014018,0.025449,0.015568,88.045639,18.042679,-146.958664,,,
729706079.494371,-8.242063,2.998122,171.740755,-0.063431,-0.138779,0.96962,0.010388,0.033783,0.023769,88.045639,18.042679,-146.958664,,,
729706079.497772,-8.242063,2.998122,171.740755,-0.063431,-0.138779,0.96962,0.010388,0.033783,0.023769,88.045639,18.042679,-146.958664,,,
729706079.501095,-8.240438,3.008045,171.748877,-0.063431,-0.138779,0.96962,0.010388,0.033783,0.023769,88.045639,18.042679,-146.958664,,,
729706079.504529,-8.238016,3.019781,171.758722,-0.062103,-0.139221,0.972794,0.007394,0.039547,0.03477,88.045639,18.042679,-146.958664,,,
729706079.507819,-8.238016,3.019781,171.758722,-0.062103,-0.139221,0.972794,0.007394,0.039547,0.03477,88.045639,18.042679,-146.958664,,,
729706079.511085,-8.236416,3.031068,171.769117,-0.062103,-0.139221,0.972794,0.007394,0.039547,0.03477,88.045639,18.042679,-146.958664,,,
729706079.514426,-8.233535,3.041515,171.779717,-0.062836,-0.133606,0.969223,0.008644,0.032043,0.036089,88.045639,18.042679,-146.958664,,,
729706079.517755,-8.233535,3.041515,171.779717,-0.062836,-0.133606,0.969223,0.008644,0.032043,0.036089,88.283661,17.993622,-146.979385,,,
729706079.521089,-8.231164,3.050284,171.7904,-0.062836,-0.133606,0.969223,0.008644,0.032043,0.036089,88.283661,17.993622,-146.979385,,,
729706079.524416,-8.227877,3.056199,171.800648,-0.059418,-0.130432,0.965683,0.010345,0.014759,0.033531,88.283661,17.993622,-146.979385,,,
729706079.527769,-8.227877,3.056199,171.800648,-0.059418,-0.130432,0.965683,0.010345,0.014759,0.033531,88.283661,17.993622,-146.979385,,,
729706079.531176,-8.225519,3.06056,171.810537,-0.059418,-0.130432,0.965683,0.010345,0.014759,0.033531,88.283661,17.993622,-146.979385,,,
729706079.53441,-8.223805,3.061522,171.819426,-0.060532,-0.130005,0.964554,0.003026,-0.002065,0.027109,88.283661,17.993622,-146.979385,,,
729706079.537774,-8.223805,3.061522,171.819426,-0.060532,-0.130005,0.964554,0.003026,-0.002065,0.027109,88.283661,17.993622,-146.979385,,,
729706079.541098,-8.223374,3.061268,171.827602,-0.060532,-0.130005,0.964554,0.003026,-0.002065,0.027109,88.283661,17.993622,-146.979385,,,
729706079.544415,-8.224118,3.058202,171.835483,-0.055145,-0.130737,0.963867,-0.007326,-0.015182,0.025402,88.283661,17.993622,-146.979385,,,
729706079.547748,-8.224118,3.058202,171.835483,-0.055145,-0.130737,0.963867,-0.007326,-0.015182,0.025402,88.283661,17.993622,-146.979385,,,
729706079.551091,-8.226448,3.053976,171.843404,-0.055145,-0.130737,0.963867,-0.007326,-0.015182,0.025402,88.283661,17.993622,-146.979385,,,
729706079.554413,-8.229974,3.047627,171.850881,-0.050034,-0.131363,0.967133,-0.015409,-0.02428,0.022682,88.283661,17.993622,-146.979385,,,
729706079.557836,-8.229974,3.047627,171.850881,-0.050034,-0.131363,0.967133,-0.015409,-0.02428,0.022682,88.283661,17.993622,-146.979385,,,
729706079.561101,-8.234101,3.041825,171.858241,-0.050034,-0.131363,0.967133,-0.015409,-0.02428,0.022682,87.984055,18.059494,-146.963562,,,
729706079.564422,-8.238557,3.035625,171.865579,-0.045334,-0.132263,0.974289,-0.015973,-0.022227,0.023195,87.984055,18.059494,-146.963562,,,
729706079.567762,-8.238557,3.035625,171.865579,-0.045334,-0.132263,0.974289,-0.015973,-0.022227,0.023195,87.984055,18.059494,-146.963562,,,
729706079.571158,-8.242873,3.031536,171.872721,-0.045334,-0.132263,0.974289,-0.015973,-0.022227,0.023195,87.984055,18.059494,-146.963562,,,
729706079.574404,-8.247183,3.028274,171.879525,-0.044113,-0.135788,0.979507,-0.014993,-0.010289,0.021752,87.984055,18.059494,-146.963562,,,
729706079.577765,-8.247183,3.028274,171.879525,-0.044113,-0.135788,0.979507,-0.014993,-0.010289,0.021752,87.984055,18.059494,-146.963562,,,
729706079.581082,-8.251303,3.026178,171.886447,-0.044113,-0.135788,0.979507,-0.014993,-0.010289,0.021752,87.984055,18.059494,-146.963562,,,
729706079.584414,-8.25542,3.023652,171.893259,-0.040649,-0.132462,0.976639,-0.014428,-0.008743,0.021665,87.984055,18.059494,-146.963562,,,
729706079.58776,-8.25542,3.023652,171.893259,-0.040649,-0.132462,0.976639,-0.014428,-0.008743,0.021665,87.984055,18.059494,-146.963562,,,
729706079.591091,-8.259479,3.022253,171.899885,-0.040649,-0.132462,0.976639,-0.014428,-0.008743,0.021665,87.984055,18.059494,-146.963562,,,
729706079.594411,-8.264147,3.020791,171.905739,-0.037231,-0.133743,0.97879,-0.016834,-0.004225,0.016825,87.984055,18.059494,-146.963562,,,
729706079.597823,-8.264147,3.020791,171.905739,-0.037231,-0.133743,0.97879,-0.016834,-0.004225,0.016825,87.984055,18.059494,-146.963562,,,
729706079.601091,-8.268773,3.020917,171.911369,-0.037231,-0.133743,0.97879,-0.016834,-0.004225,0.016825,88.264969,18.113464,-147.104843,,,
729706079.604417,-8.274309,3.0219,171.916254,-0.035812,-0.134918,0.98494,-0.019606,0.006249,0.012106,88.264969,18.113464,-147.104843,,,
729706079.607754,-8.274309,3.0219,171.916254,-0.035812,-0.134918,0.98494,-0.019606,0.006249,0.012106,88.264969,18.113464,-147.104843,,,
729706079.611083,-8.279026,3.025197,171.92009,-0.035812,-0.134918,0.98494,-0.019606,0.006249,0.012106,88.264969,18.113464,-147.104843,,,
729706079.614442,-8.284537,3.029954,171.922944,-0.033997,-0.137802,0.989471,-0.020933,0.021323,0.005804,88.264969,18.113464,-147.104843,,,
729706079.617747,-8.284537,3.029954,171.922944,-0.033997,-0.137802,0.989471,-0.020933,0.021323,0.005804,88.264969,18.113464,-147.104843,,,
729706079.621082,-8.289731,3.036887,171.925625,-0.033997,-0.137802,0.989471,-0.020933,0.021323,0.005804,88.264969,18.113464,-147.104843,,,
729706079.624419,-8.295325,3.044568,171.928543,-0.036392,-0.140396,0.992401,-0.019446,0.029233,0.007911,88.264969,18.113464,-147.104843,,,
729706079.627772,-8.295325,3.044568,171.928543,-0.036392,-0.140396,0.992401,-0.019446,0.029233,0.007911,88.264969,18.113464,-147.104843,,,
729706079.631097,-8.30014,3.05304,171.931834,-0.036392,-0.140396,0.992401,-0.019446,0.029233,0.007911,88.264969,18.113464,-147.104843,,,
729706079.634416,-8.305014,3.061714,171.934808,-0.041061,-0.141266,0.996048,-0.01527,0.031691,0.006038,88.264969,18.113464,-147.104843,,,
729706079.63784,-8.305014,3.061714,171.934808,-0.041061,-0.141266,0.996048,-0.01527,0.031691,0.006038,88.264969,18.113464,-147.104843,,,
729706079.64108,-8.307996,3.070063,171.936951,-0.041061,-0.141266,0.996048,-0.01527,0.031691,0.006038,88.017029,18.150955,-146.694778,,,
729706079.644415,-8.310173,3.078738,171.938922,-0.040833,-0.142258,0.998505,-0.004239,0.031243,0.005034,88.017029,18.150955,-146.694778,,,
729706079.647781,-8.310173,3.078738,171.938922,-0.040833,-0.142258,0.998505,-0.004239,0.031243,0.005034,88.017029,18.150955,-146.694778,,,
729706079.651091,-8.310204,3.085996,171.940456,-0.040833,-0.142258,0.998505,-0.004239,0.031243,0.005034,88.017029,18.150955,-146.694778,,,
729706079.654449,-8.310151,3.09337,171.941211,-0.041336,-0.138947,0.997421,0.0021,0.027673,-0.000804,88.017029,18.150955,-146.694778,,,
729706079.657773,-8.310151,3.09337,171.941211,-0.041336,-0.138947,0.997421,0.0021,0.027673,-0.000804,88.017029,18.150955,-146.694778,,,
729706079.661152,-8.308807,3.09853,171.940169,-0.041336,-0.138947,0.997421,0.0021,0.027673,-0.000804,88.017029,18.150955,-146.694778,,,
729706079.664448,-8.30843,3.103441,171.938035,-0.040924,-0.137268,0.994415,0.002011,0.019851,-0.00934,88.017029,18.150955,-146.694778,,,
729706079.667761,-8.30843,3.103441,171.938035,-0.040924,-0.137268,0.994415,0.002011,0.019851,-0.00934,88.017029,18.150955,-146.694778,,,
729706079.671112,-8.307372,3.105713,171.934497,-0.040924,-0.137268,0.994415,0.002011,0.019851,-0.00934,88.017029,18.150955,-146.694778,,,
729706079.674441,-8.307288,3.108276,171.929612,-0.043686,-0.137054,0.991501,0.00233,0.012602,-0.02018,88.017029,18.150955,-146.694778,,,
729706079.677763,-8.307288,3.108276,171.929612,-0.043686,-0.137054,0.991501,0.00233,0.012602,-0.02018,88.017029,18.150955,-146.694778,,,
729706079.681085,-8.306395,3.108034,171.923661,-0.043686,-0.137054,0.991501,0.00233,0.012602,-0.02018,88.017029,18.150955,-146.694778,,,
729706079.684421,-8.306395,3.108034,171.917382,-0.043686,-0.137054,0.991501,0.002002,0.01085,-0.024152,88.082092,18.257828,-146.92572,,,
729706079.687754,-8.306445,3.109181,171.917382,-0.044739,-0.142746,0.992447,0.002002,0.01085,-0.024152,88.082092,18.257828,-146.92572,,,
729706079.69108,-8.305339,3.108365,171.910339,-0.044739,-0.142746,0.992447,0.002002,0.01085,-0.024152,88.082092,18.257828,-146.92572,,,
729706079.694442,-8.304736,3.109292,171.903071,-0.048492,-0.14801,0.993362,0.004149,0.010179,-0.027501,88.082092,18.257828,-146.92572,,,
729706079.697807,-8.304736,3.109292,171.903071,-0.048492,-0.14801,0.993362,0.004149,0.010179,-0.027501,88.082092,18.257828,-146.92572,,,
729706079.701076,-8.302861,3.108535,171.895038,-0.048492,-0.14801,0.993362,0.004149,0.010179,-0.027501,88.082092,18.257828,-146.92572,,,
729706079.704426,-8.302861,3.108535,171.88714,-0.048492,-0.14801,0.993362,0.014714,0.013475,-0.027914,88.082092,18.257828,-146.92572,,,
729706079.707772,-8.300054,3.110154,171.88714,-0.04924,-0.146713,0.995361,0.014714,0.013475,-0.027914,88.082092,18.257828,-146.92572,,,
729706079.711079,-8.296079,3.110728,171.879394,-0.04924,-0.146713,0.995361,0.014714,0.013475,-0.027914,88.082092,18.257828,-146.92572,,,
729706079.714498,-8.296079,3.113458,171.872448,-0.04924,-0.146713,0.995361,0.014714,0.013475,-0.027914,88.082092,18.257828,-146.92572,,,
729706079.717769,-8.291666,3.113458,171.872448,-0.05365,-0.147079,0.999268,0.019888,0.017635,-0.02357,88.082092,18.257828,-146.92572,,,
729706079.721087,-8.285922,3.11601,171.86563,-0.05365,-0.147079,0.999268,0.019888,0.017635,-0.02357,88.082092,18.257828,-146.92572,,,
729706079.724463,-8.285922,3.11601,171.859392,-0.05365,-0.147079,0.999268,0.027591,0.020265,-0.020477,88.224182,18.071304,-146.960709,,,
729706079.727751,-8.27945,3.120314,171.859392,-0.056198,-0.149323,0.997009,0.027591,0.020265,-0.020477,88.224182,18.071304,-146.960709,,,
729706079.731134,-8.271759,3.124091,171.853413,-0.056198,-0.149323,0.997009,0.027591,0.020265,-0.020477,88.224182,18.071304,-146.960709,,,
729706079.734443,-8.271759,3.124091,171.853413,-0.056198,-0.149323,0.997009,0.027591,0.020265,-0.020477,88.224182,18.071304,-146.960709,,,
729706079.737812,-8.264172,3.130761,171.848032,-0.056549,-0.148071,0.996078,0.029242,0.030813,-0.017596,88.224182,18.071304,-146.960709,,,
729706079.741087,-8.255672,3.136415,171.842613,-0.056549,-0.148071,0.996078,0.029242,0.030813,-0.017596,88.224182,18.071304,-146.960709,,,
729706079.74441,-8.255672,3.136415,171.842613,-0.056549,-0.148071,0.996078,0.029242,0.030813,-0.017596,88.224182,18.071304,-146.960709,,,
729706079.747771,-8.247729,3.143657,171.83712,-0.055634,-0.147659,0.995514,0.030736,0.032591,-0.019383,88.224182,18.071304,-146.960709,,,
729706079.751076,-8.239258,3.149971,171.831418,-0.055634,-0.147659,0.995514,0.030736,0.032591,-0.019383,88.224182,18.071304,-146.960709,,,
729706079.754493,-8.239258,3.149971,171.831418,-0.055634,-0.147659,0.995514,0.030736,0.032591,-0.019383,88.224182,18.071304,-146.960709,,,
729706079.757738,-8.231869,3.157441,171.82576,-0.059418,-0.149414,0.993301,0.027638,0.032265,-0.020431,88.224182,18.071304,-146.960709,,,
729706079.760879,-8.224175,3.163452,171.819482,-0.059418,-0.149414,0.993301,0.027638,0.032265,-0.020431,88.224182,18.071304,-146.960709,,,
729706079.764503,-8.224175,3.163452,171.819482,-0.059418,-0.149414,0.993301,0.027638,0.032265,-0.020431,88.067932,17.943878,-146.786224,,,
729706079.767773,-8.217276,3.169132,171.813024,-0.062286,-0.14772,0.990067,0.025129,0.022726,-0.022918,88.067932,17.943878,-146.786224,,,
729706079.771094,-8.210483,3.172367,171.806517,-0.062286,-0.14772,0.990067,0.025129,0.022726,-0.022918,88.067932,17.943878,-146.786224,,,
729706079.774512,-8.210483,3.172367,171.806517,-0.062286,-0.14772,0.990067,0.025129,0.022726,-0.022918,88.067932,17.943878,-146.786224,,,
729706079.777763,-8.202499,3.175012,171.799659,-0.06485,-0.148102,0.991074,0.032233,0.013313,-0.025769,88.067932,17.943878,-146.786224,,,
729706079.781092,-8.194093,3.176526,171.791955,-0.06485,-0.148102,0.991074,0.032233,0.013313,-0.025769,88.067932,17.943878,-146.786224,,,
729706079.784473,-8.194093,3.176526,171.791955,-0.06485,-0.148102,0.991074,0.032233,0.013313,-0.025769,88.067932,17.943878,-146.786224,,,
729706079.787808,-8.185219,3.178559,171.784541,-0.06517,-0.149963,0.992737,0.032393,0.012661,-0.024351,88.067932,17.943878,-146.786224,,,
729706079.791082,-8.176394,3.17966,171.777601,-0.06517,-0.149963,0.992737,0.032393,0.012661,-0.024351,88.067932,17.943878,-146.786224,,,
729706079.794486,-8.176394,3.17966,171.777601,-0.06517,-0.149963,0.992737,0.032393,0.012661,-0.024351,88.067932,17.943878,-146.786224,,,
729706079.797769,-8.166999,3.180872,171.771746,-0.065414,-0.151276,0.992844,0.03455,0.009362,-0.017177,88.067932,17.943878,-146.786224,,,
729706079.801086,-8.15774,3.18241,171.767033,-0.065414,-0.151276,0.992844,0.03455,0.009362,-0.017177,88.067932,17.943878,-146.786224,,,
729706079.804443,-8.15774,3.18241,171.767033,-0.065414,-0.151276,0.992844,0.03455,0.009362,-0.017177,88.150513,18.096558,-146.62291,,,
729706079.807765,-8.148087,3.185063,171.763333,-0.064484,-0.150543,0.993179,0.033259,0.015721,-0.010332,88.150513,18.096558,-146.62291,,,
729706079.811087,-8.139567,3.188846,171.760533,-0.064484,-0.150543,0.993179,0.033259,0.015721,-0.010332,88.150513,18.096558,-146.62291,,,
729706079.814527,-8.139567,3.188846,171.760533,-0.064484,-0.150543,0.993179,0.033259,0.015721,-0.010332,88.150513,18.096558,-146.62291,,,
729706079.817751,-8.13042,3.193342,171.758327,-0.062225,-0.148422,0.99353,0.0335,0.021298,-0.006077,88.150513,18.096558,-146.62291,,,
729706079.821087,-8.121545,3.198368,171.756741,-0.062225,-0.148422,0.99353,0.0335,0.021298,-0.006077,88.150513,18.096558,-146.62291,,,
729706079.824457,-8.121545,3.198368,171.756741,-0.062225,-0.148422,0.99353,0.0335,0.021298,-0.006077,88.150513,18.096558,-146.62291,,,
729706079.827798,-8.112169,3.20331,171.755657,-0.06134,-0.14505,0.990936,0.03333,0.020607,-0.002548,88.150513,18.096558,-146.62291,,,
729706079.831082,-8.103452,3.208413,171.754498,-0.06134,-0.14505,0.990936,0.03333,0.020607,-0.002548,88.150513,18.096558,-146.62291,,,
729706079.834521,-8.103452,3.208413,171.754498,-0.06134,-0.14505,0.990936,0.03333,0.020607,-0.002548,88.150513,18.096558,-146.62291,,,
729706079.837751,-8.094548,3.213547,171.753009,-0.063599,-0.144165,0.986526,0.029917,0.022512,-0.004804,88.150513,18.096558,-146.62291,,,
729706079.841088,-8.086795,3.218965,171.751338,-0.063599,-0.144165,0.986526,0.029917,0.022512,-0.004804,88.150513,18.096558,-146.62291,,,
729706079.844487,-8.086795,3.218965,171.751338,-0.063599,-0.144165,0.986526,0.029917,0.022512,-0.004804,88.150513,18.096558,-146.62291,,,
729706079.84776,-8.078458,3.222902,171.749626,-0.061493,-0.146133,0.979538,0.029162,0.015741,-0.004606,88.351593,17.885559,-146.743958,,,
729706079.851089,-8.070597,3.226407,171.748404,-0.061493,-0.146133,0.979538,0.029162,0.015741,-0.004606,88.351593,17.885559,-146.743958,,,
729706079.854551,-8.070597,3.226407,171.748404,-0.061493,-0.146133,0.979538,0.029162,0.015741,-0.004606,88.351593,17.885559,-146.743958,,,
729706079.85773,-8.06157,3.227666,171.746705,-0.062134,-0.148239,0.975693,0.032931,0.00648,-0.006863,88.351593,17.885559,-146.743958,,,
729706079.861087,-8.052958,3.229244,171.744883,-0.062134,-0.148239,0.975693,0.032931,0.00648,-0.006863,88.351593,17.885559,-146.743958,,,
729706079.864432,-8.052958,3.229244,171.744883,-0.062134,-0.148239,0.975693,0.032931,0.00648,-0.006863,88.351593,17.885559,-146.743958,,,
729706079.867593,-8.042875,3.229828,171.742614,-0.059647,-0.146774,0.981995,0.037873,0.006236,-0.008791,88.351593,17.885559,-146.743958,,,
729706079.871105,-8.032611,3.232541,171.740133,-0.059647,-0.146774,0.981995,0.037873,0.006236,-0.008791,88.351593,17.885559,-146.743958,,,
729706079.87443,-8.032611,3.232541,171.740133,-0.059647,-0.146774,0.981995,0.037873,0.006236,-0.008791,88.351593,17.885559,-146.743958,,,
729706079.877773,-8.020444,3.236205,171.73751,-0.056732,-0.144028,0.987885,0.044583,0.01932,-0.008468,88.351593,17.885559,-146.743958,,,
729706079.881078,-8.008867,3.241596,171.735076,-0.056732,-0.144028,0.987885,0.044583,0.01932,-0.008468,88.351593,17.885559,-146.743958,,,
729706079.884554,-8.008867,3.241596,171.735076,-0.056732,-0.144028,0.987885,0.044583,0.01932,-0.008468,88.351593,17.885559,-146.743958,,,
729706079.887753,-7.995687,3.246564,171.732752,-0.056595,-0.143982,0.988663,0.048685,0.022114,-0.006611,88.496887,17.847229,-146.678894,,,
729706079.891082,-7.983322,3.25259,171.730968,-0.056595,-0.143982,0.988663,0.048685,0.022114,-0.006611,88.496887,17.847229,-146.678894,,,
729706079.89448,-7.983322,3.25259,171.730968,-0.056595,-0.143982,0.988663,0.048685,0.022114,-0.006611,88.496887,17.847229,-146.678894,,,
729706079.897768,-7.969999,3.25743,171.730014,-0.061996,-0.145203,0.987015,0.048012,0.01871,-8.8e-05,88.496887,17.847229,-146.678894,,,
729706079.90108,-7.957369,3.261972,171.72991,-0.061996,-0.145203,0.987015,0.048012,0.01871,-8.8e-05,88.496887,17.847229,-146.678894,,,
729706079.904435,-7.957369,3.261972,171.72991,-0.061996,-0.145203,0.987015,0.048012,0.01871,-8.8e-05,88.496887,17.847229,-146.678894,,,
729706079.907803,-7.943859,3.264876,171.729937,-0.064041,-0.146057,0.981476,0.049147,0.010395,0.001376,88.496887,17.847229,-146.678894,,,
729706079.911075,-7.93096,3.266748,171.730542,-0.064041,-0.146057,0.981476,0.049147,0.010395,0.001376,88.496887,17.847229,-146.678894,,,
729706079.914427,-7.93096,3.266748,171.730542,-0.064041,-0.146057,0.981476,0.049147,0.010395,0.001376,88.496887,17.847229,-146.678894,,,
729706079.917767,-7.917963,3.265754,171.731928,-0.064987,-0.143097,0.977615,0.045355,-0.005818,0.007156,88.496887,17.847229,-146.678894,,,
729706079.921085,-7.905649,3.263329,171.733181,-0.064987,-0.143097,0.977615,0.045355,-0.005818,0.007156,88.496887,17.847229,-146.678894,,,
729706079.924429,-7.905649,3.263329,171.733181,-0.064987,-0.143097,0.977615,0.045355,-0.005818,0.007156,88.496887,17.847229,-146.678894,,,
729706079.927779,-7.892684,3.258871,171.734122,-0.065308,-0.140381,0.972565,0.04512,-0.015666,0.005562,88.125809,17.800156,-146.590973,,,
729706079.931076,-7.881649,3.253242,171.735194,-0.065308,-0.140381,0.972565,0.04512,-0.015666,0.005562,88.125809,17.800156,-146.590973,,,
729706079.934471,-7.881649,3.253242,171.735194,-0.065308,-0.140381,0.972565,0.04512,-0.015666,0.005562,88.125809,17.800156,-146.590973,,,
729706079.937776,-7.869926,3.245372,171.735809,-0.060089,-0.135986,0.969727,0.041933,-0.026231,0.002859,88.125809,17.800156,-146.590973,,,
729706079.941086,-7.859399,3.237215,171.735744,-0.060089,-0.135986,0.969727,0.041933,-0.026231,0.002859,88.125809,17.800156,-146.590973,,,
729706079.944432,-7.859399,3.237215,171.735744,-0.060089,-0.135986,0.969727,0.041933,-0.026231,0.002859,88.125809,17.800156,-146.590973,,,
729706079.947832,-7.847545,3.228006,171.734299,-0.054382,-0.136063,0.972549,0.042316,-0.027897,-0.006057,88.125809,17.800156,-146.590973,,,
729706079.951077,-7.836261,3.219212,171.731675,-0.054382,-0.136063,0.972549,0.042316,-0.027897,-0.006057,88.125809,17.800156,-146.590973,,,
729706079.954442,-7.836261,3.219212,171.731675,-0.054382,-0.136063,0.972549,0.042316,-0.027897,-0.006057,88.125809,17.800156,-146.590973,,,
729706079.95776,-7.823739,3.210929,171.728578,-0.051895,-0.138931,0.979935,0.044967,-0.021491,-0.008837,88.125809,17.800156,-146.590973,,,
729706079.961079,-7.812134,3.204526,171.725334,-0.051895,-0.138931,0.979935,0.044967,-0.021491,-0.008837,88.125809,17.800156,-146.590973,,,
729706079.964424,-7.812134,3.204526,171.725334,-0.051895,-0.138931,0.979935,0.044967,-0.021491,-0.008837,88.125809,17.800156,-146.590973,,,
729706079.967752,-7.800395,3.200183,171.721744,-0.047836,-0.139587,0.982437,0.040869,-0.006054,-0.011386,88.056992,17.801819,-146.626343,,,
729706079.97108,-7.790254,3.198341,171.718715,-0.047836,-0.139587,0.982437,0.040869,-0.006054,-0.011386,88.056992,17.801819,-146.626343,,,
729706079.974496,-7.790254,3.198341,171.718715,-0.047836,-0.139587,0.982437,0.040869,-0.006054,-0.011386,88.056992,17.801819,-146.626343,,,
729706079.977762,-7.779685,3.197146,171.716717,-0.053757,-0.141708,0.982666,0.037111,1.3e-05,-0.004111,88.056992,17.801819,-146.626343,,,
729706079.981085,-7.770359,3.196925,171.716251,-0.053757,-0.141708,0.982666,0.037111,1.3e-05,-0.004111,88.056992,17.801819,-146.626343,,,
729706079.984433,-7.770359,3.196925,171.716251,-0.053757,-0.141708,0.982666,0.037111,1.3e-05,-0.004111,88.056992,17.801819,-146.626343,,,
729706079.987832,-7.760046,3.196031,171.717164,-0.054718,-0.142365,0.980637,0.035682,-0.000422,0.006138,88.056992,17.801819,-146.626343,,,
729706079.991074,-7.751145,3.196176,171.719694,-0.054718,-0.142365,0.980637,0.035682,-0.000422,0.006138,88.056992,17.801819,-146.626343,,,
729706079.994435,-7.751145,3.196176,171.719694,-0.054718,-0.142365,0.980637,0.035682,-0.000422,0.006138,88.056992,17.801819,-146.626343,,,
729706079.997777,-7.741642,3.195298,171.723551,-0.057205,-0.138397,0.977814,0.032373,-0.002505,0.016003,88.056992,17.801819,-146.626343,,,
729706080.001174,-7.733378,3.194821,171.728463,-0.057205,-0.138397,0.977814,0.032373,-0.002505,0.016003,88.056992,17.801819,-146.626343,,,
729706080.004434,-7.733378,3.194821,171.728463,-0.057205,-0.138397,0.977814,0.032373,-0.002505,0.016003,88.056992,17.801819,-146.626343,,,
729706080.007819,-7.725132,3.191574,171.733878,-0.056885,-0.135803,0.974335,0.025829,-0.013848,0.020257,88.056992,17.801819,-146.626343,,,
729706080.01106,-7.718856,3.187556,171.740055,-0.056885,-0.135803,0.974335,0.025829,-0.013848,0.020257,87.990814,17.865799,-146.755203,,,
729706080.014553,-7.718856,3.187556,171.740055,-0.056885,-0.135803,0.974335,0.025829,-0.013848,0.020257,87.990814,17.865799,-146.755203,,,
729706080.017763,-7.713828,3.181284,171.746793,-0.05397,-0.134445,0.97142,0.01239,-0.024416,0.024171,87.990814,17.865799,-146.755203,,,
729706080.021098,-7.710757,3.174353,171.753905,-0.05397,-0.134445,0.97142,0.01239,-0.024416,0.024171,87.990814,17.865799,-146.755203,,,
729706080.024494,-7.710757,3.174353,171.753905,-0.05397,-0.134445,0.97142,0.01239,-0.024416,0.024171,87.990814,17.865799,-146.755203,,,
729706080.027766,-7.707974,3.166726,171.760524,-0.053024,-0.132904,0.973755,0.007711,-0.0268,0.020772,87.990814,17.865799,-146.755203,,,
729706080.031167,-7.70671,3.159028,171.766383,-0.053024,-0.132904,0.973755,0.007711,-0.0268,0.020772,87.990814,17.865799,-146.755203,,,
729706080.034518,-7.70671,3.159028,171.766383,-0.053024,-0.132904,0.973755,0.007711,-0.0268,0.020772,87.990814,17.865799,-146.755203,,,
729706080.037772,-7.706152,3.151978,171.771569,-0.046997,-0.130463,0.977142,-0.000372,-0.022102,0.015626,87.990814,17.865799,-146.755203,,,
729706080.041092,-7.706783,3.145186,171.776171,-0.046997,-0.130463,0.977142,-0.000372,-0.022102,0.015626,87.990814,17.865799,-146.755203,,,
729706080.044454,-7.706783,3.145186,171.776171,-0.046997,-0.130463,0.977142,-0.000372,-0.022102,0.015626,87.990814,17.865799,-146.755203,,,
729706080.047751,-7.706919,3.139517,171.780652,-0.048019,-0.132385,0.980637,-0.001221,-0.017539,0.014297,87.990814,17.865799,-146.755203,,,
729706080.051107,-7.708443,3.134289,171.784695,-0.048019,-0.132385,0.980637,-0.001221,-0.017539,0.014297,87.941299,17.657364,-146.512924,,,
729706080.05444,-7.708443,3.134289,171.784695,-0.048019,-0.132385,0.980637,-0.001221,-0.017539,0.014297,87.941299,17.657364,-146.512924,,,
729706080.057764,-7.71024,3.130426,171.788596,-0.048508,-0.129776,0.982025,-0.007065,-0.010138,0.012686,87.941299,17.657364,-146.512924,,,
729706080.06108,-7.713668,3.128118,171.792775,-0.048508,-0.129776,0.982025,-0.007065,-0.010138,0.012686,87.941299,17.657364,-146.512924,,,
729706080.064467,-7.713668,3.128118,171.792775,-0.048508,-0.129776,0.982025,-0.007065,-0.010138,0.012686,87.941299,17.657364,-146.512924,,,
729706080.067811,-7.71724,3.126975,171.797044,-0.051178,-0.128632,0.981888,-0.013393,-0.001256,0.013091,87.941299,17.657364,-146.512924,,,
729706080.071072,-7.721832,3.127309,171.801435,-0.051178,-0.128632,0.981888,-0.013393,-0.001256,0.013091,87.941299,17.657364,-146.512924,,,
729706080.074484,-7.721832,3.127309,171.801435,-0.051178,-0.128632,0.981888,-0.013393,-0.001256,0.013091,87.941299,17.657364,-146.512924,,,
729706080.077756,-7.726372,3.128704,171.805402,-0.051224,-0.130753,0.98761,-0.017693,0.008209,0.010142,87.941299,17.657364,-146.512924,,,
729706080.080865,-7.731326,3.132274,171.810212,-0.051224,-0.130753,0.98761,-0.017693,0.008209,0.010142,87.941299,17.657364,-146.512924,,,
729706080.084463,-7.731326,3.132274,171.810212,-0.051224,-0.130753,0.98761,-0.017693,0.008209,0.010142,87.941299,17.657364,-146.512924,,,
729706080.087819,-7.735138,3.137791,171.81646,-0.053665,-0.134048,0.996201,-0.013134,0.023127,0.020708,87.941299,17.657364,-146.512924,,,
729706080.091082,-7.738713,3.145576,171.824004,-0.053665,-0.134048,0.996201,-0.013134,0.023127,0.020708,87.775955,17.684052,-146.95018,,,
729706080.094429,-7.738713,3.145576,171.824004,-0.053665,-0.134048,0.996201,-0.013134,0.023127,0.020708,87.775955,17.684052,-146.95018,,,
729706080.097791,-7.742271,3.154893,171.833192,-0.056427,-0.133804,0.998093,-0.015662,0.033822,0.032141,87.775955,17.684052,-146.95018,,,
729706080.101081,-7.746631,3.165871,171.84336,-0.056427,-0.133804,0.998093,-0.015662,0.033822,0.032141,87.775955,17.684052,-146.95018,,,
729706080.104434,-7.746631,3.165871,171.84336,-0.056427,-0.133804,0.998093,-0.015662,0.033822,0.032141,87.775955,17.684052,-146.95018,,,
729706080.107749,-7.75178,3.177076,171.854293,-0.05806,-0.135162,0.99556,-0.022197,0.03491,0.037125,87.775955,17.684052,-146.95018,,,
729706080.111084,-7.758152,3.187133,171.865586,-0.05806,-0.135162,0.99556,-0.022197,0.03491,0.037125,87.775955,17.684052,-146.95018,,,
729706080.114478,-7.758152,3.187133,171.865586,-0.05806,-0.135162,0.99556,-0.022197,0.03491,0.037125,87.775955,17.684052,-146.95018,,,
729706080.117768,-7.766043,3.197507,171.876846,-0.057953,-0.133484,0.993393,-0.03163,0.033925,0.035958,87.775955,17.684052,-146.95018,,,
729706080.121081,-7.774816,3.206579,171.888319,-0.057953,-0.133484,0.993393,-0.03163,0.033925,0.035958,87.775955,17.684052,-146.95018,,,
729706080.124428,-7.774816,3.206579,171.888319,-0.057953,-0.133484,0.993393,-0.03163,0.033925,0.035958,87.775955,17.684052,-146.95018,,,
729706080.127853,-7.784841,3.21568,171.8997,-0.055023,-0.133118,0.99437,-0.038185,0.02809,0.034115,87.775955,17.684052,-146.95018,,,
729706080.131085,-7.794145,3.222949,171.910221,-0.055023,-0.133118,0.99437,-0.038185,0.02809,0.034115,88.002975,17.718262,-146.634369,,,
729706080.134436,-7.794145,3.222949,171.910221,-0.055023,-0.133118,0.99437,-0.038185,0.02809,0.034115,88.002975,17.718262,-146.634369,,,
729706080.137768,-7.801611,3.229002,171.920071,-0.054306,-0.137054,1.000244,-0.023277,0.015177,0.029645,88.002975,17.718262,-146.634369,,,
729706080.141083,-7.80669,3.232947,171.929049,-0.054306,-0.137054,1.000244,-0.023277,0.015177,0.029645,88.002975,17.718262,-146.634369,,,
729706080.144431,-7.80669,3.232947,171.929049,-0.054306,-0.137054,1.000244,-0.023277,0.015177,0.029645,88.002975,17.718262,-146.634369,,,
729706080.147756,-7.8106,3.237021,171.937604,-0.052094,-0.1362,1.0056,-0.010937,0.012859,0.026913,88.002975,17.718262,-146.634369,,,
729706080.151078,-7.811953,3.240786,171.945441,-0.052094,-0.1362,1.0056,-0.010937,0.012859,0.026913,88.002975,17.718262,-146.634369,,,
729706080.15447,-7.811953,3.240786,171.945441,-0.052094,-0.1362,1.0056,-0.010937,0.012859,0.026913,88.002975,17.718262,-146.634369,,,
729706080.157752,-7.812022,3.245387,171.953126,-0.052719,-0.137573,1.009079,0.002091,0.015771,0.026161,88.002975,17.718262,-146.634369,,,
729706080.161082,-7.809739,3.250138,171.961221,-0.052719,-0.137573,1.009079,0.002091,0.015771,0.026161,88.002975,17.718262,-146.634369,,,
729706080.16442,-7.809739,3.250138,171.961221,-0.052719,-0.137573,1.009079,0.002091,0.015771,0.026161,88.002975,17.718262,-146.634369,,,
729706080.167807,-7.805985,3.255711,171.969641,-0.052719,-0.13765,1.008484,0.014846,0.018862,0.028801,88.002975,17.718262,-146.634369,,,
729706080.171165,-7.800372,3.26174,171.97787,-0.052719,-0.13765,1.008484,0.014846,0.018862,0.028801,88.002975,17.718262,-146.634369,,,
729706080.17442,-7.800372,3.26174,171.97787,-0.052719,-0.13765,1.008484,0.014846,0.018862,0.028801,88.069885,17.654175,-146.515137,,,
729706080.177784,-7.793591,3.268236,171.985784,-0.05394,-0.136047,1.00415,0.025055,0.021463,0.027078,88.069885,17.654175,-146.515137,,,
729706080.181079,-7.785489,3.274467,171.993518,-0.05394,-0.136047,1.00415,0.025055,0.021463,0.027078,88.069885,17.654175,-146.515137,,,
729706080.184425,-7.785489,3.274467,171.993518,-0.05394,-0.136047,1.00415,0.025055,0.021463,0.027078,88.069885,17.654175,-146.515137,,,
729706080.187772,-7.777153,3.280562,172.001002,-0.052734,-0.134186,0.99791,0.028619,0.021298,0.025624,88.069885,17.654175,-146.515137,,,
729706080.191095,-7.768743,3.28678,172.007876,-0.052734,-0.134186,0.99791,0.028619,0.021298,0.025624,88.069885,17.654175,-146.515137,,,
729706080.194433,-7.768743,3.28678,172.007876,-0.052734,-0.134186,0.99791,0.028619,0.021298,0.025624,88.069885,17.654175,-146.515137,,,
729706080.197761,-7.760916,3.292307,172.014465,-0.053253,-0.131821,0.991837,0.025652,0.018021,0.02367,88.069885,17.654175,-146.515137,,,
729706080.201087,-7.752908,3.296837,172.020451,-0.053253,-0.131821,0.991837,0.025652,0.018021,0.02367,88.069885,17.654175,-146.515137,,,
729706080.204486,-7.752908,3.296837,172.020451,-0.053253,-0.131821,0.991837,0.025652,0.018021,0.02367,88.069885,17.654175,-146.515137,,,
729706080.207759,-7.745862,3.300528,172.025133,-0.052231,-0.130646,0.985825,0.021124,0.013221,0.014365,88.069885,17.654175,-146.515137,,,
729706080.211086,-7.739947,3.30342,172.029235,-0.052231,-0.130646,0.985825,0.021124,0.013221,0.014365,88.069885,17.654175,-146.515137,,,
729706080.214416,-7.739947,3.30342,172.029235,-0.052231,-0.130646,0.985825,0.021124,0.013221,0.014365,88.195663,17.717636,-146.578079,,,
729706080.217844,-7.735025,3.306662,172.033356,-0.051468,-0.127609,0.981522,0.014647,0.013281,0.013825,88.195663,17.717636,-146.578079,,,
729706080.221072,-7.731075,3.309466,172.037148,-0.051468,-0.127609,0.981522,0.014647,0.013281,0.013825,88.195663,17.717636,-146.578079,,,
729706080.224442,-7.731075,3.309466,172.037148,-0.051468,-0.127609,0.981522,0.014647,0.013281,0.013825,88.195663,17.717636,-146.578079,,,
729706080.227765,-7.727297,3.312263,172.040798,-0.053177,-0.126892,0.981781,0.012873,0.01011,0.012272,88.195663,17.717636,-146.578079,,,
729706080.231077,-7.723307,3.314231,172.044149,-0.053177,-0.126892,0.981781,0.012873,0.01011,0.012272,88.195663,17.717636,-146.578079,,,
729706080.234432,-7.723307,3.314231,172.044149,-0.053177,-0.126892,0.981781,0.012873,0.01011,0.012272,88.195663,17.717636,-146.578079,,,
729706080.237743,-7.71918,3.316912,172.047709,-0.05481,-0.127289,0.983795,0.013938,0.0101,0.01314,88.195663,17.717636,-146.578079,,,
729706080.24108,-7.714825,3.319036,172.051366,-0.05481,-0.127289,0.983795,0.013938,0.0101,0.01314,88.195663,17.717636,-146.578079,,,
729706080.244504,-7.714825,3.319036,172.051366,-0.05481,-0.127289,0.983795,0.013938,0.0101,0.01314,88.195663,17.717636,-146.578079,,,
729706080.247755,-7.709701,3.322111,172.054998,-0.053558,-0.126572,0.983688,0.018955,0.012964,0.012766,88.195663,17.717636,-146.578079,,,
729706080.251086,-7.704198,3.325187,172.058744,-0.053558,-0.126572,0.983688,0.018955,0.012964,0.012766,88.195663,17.717636,-146.578079,,,
729706080.254414,-7.704198,3.325187,172.058744,-0.053558,-0.126572,0.983688,0.018955,0.012964,0.012766,88.016373,17.656387,-146.591629,,,
729706080.257747,-7.699238,3.328362,172.062048,-0.051147,-0.123123,0.980209,0.015067,0.010673,0.009014,88.016373,17.656387,-146.591629,,,
729706080.261076,-7.695114,3.330736,172.064456,-0.051147,-0.123123,0.980209,0.015067,0.010673,0.009014,88.016373,17.656387,-146.591629,,,
729706080.264452,-7.695114,3.330736,172.064456,-0.051147,-0.123123,0.980209,0.015067,0.010673,0.009014,88.016373,17.656387,-146.591629,,,
729706080.267826,-7.692692,3.333466,172.065847,-0.048981,-0.123108,0.974884,0.004115,0.01127,0.000961,88.016373,17.656387,-146.591629,,,
729706080.271069,-7.69167,3.335175,172.065842,-0.048981,-0.123108,0.974884,0.004115,0.01127,0.000961,88.016373,17.656387,-146.591629,,,
729706080.274438,-7.69167,3.335175,172.065842,-0.048981,-0.123108,0.974884,0.004115,0.01127,0.000961,88.016373,17.656387,-146.591629,,,
729706080.277755,-7.692024,3.337322,172.064394,-0.050217,-0.123596,0.973969,-0.003486,0.012182,-0.009962,88.016373,17.656387,-146.591629,,,
729706080.281077,-7.693096,3.338768,172.061621,-0.050217,-0.123596,0.973969,-0.003486,0.012182,-0.009962,88.016373,17.656387,-146.591629,,,
729706080.284425,-7.693096,3.338768,172.061621,-0.050217,-0.123596,0.973969,-0.003486,0.012182,-0.009962,88.016373,17.656387,-146.591629,,,
729706080.287743,-7.695029,3.340242,172.058136,-0.050461,-0.128632,0.976913,-0.007161,0.010027,-0.015513,88.016373,17.656387,-146.591629,,,
729706080.291075,-7.697057,3.341116,172.054327,-0.050461,-0.128632,0.976913,-0.007161,0.010027,-0.015513,88.016373,17.656387,-146.591629,,,
729706080.294408,-7.697057,3.341116,172.054327,-0.050461,-0.128632,0.976913,-0.007161,0.010027,-0.015513,88.097733,17.569153,-146.726547,,,
729706080.297758,-7.699221,3.342402,172.050846,-0.051849,-0.136688,0.981415,-0.005645,0.009144,-0.013621,88.097733,17.569153,-146.726547,,,
729706080.301067,-7.700462,3.342572,172.04714,-0.051849,-0.136688,0.981415,-0.005645,0.009144,-0.013621,88.097733,17.569153,-146.726547,,,
729706080.304421,-7.700462,3.342572,172.04714,-0.051849,-0.136688,0.981415,-0.005645,0.009144,-0.013621,88.097733,17.569153,-146.726547,,,
729706080.307812,-7.701387,3.342449,172.04326,-0.05101,-0.139359,0.984818,0.001026,0.003734,-0.014924,88.097733,17.569153,-146.726547,,,
729706080.311071,-7.700259,3.341946,172.039074,-0.05101,-0.139359,0.984818,0.001026,0.003734,-0.014924,88.097733,17.569153,-146.726547,,,
729706080.314425,-7.700259,3.341946,172.039074,-0.05101,-0.139359,0.984818,0.001026,0.003734,-0.014924,88.097733,17.569153,-146.726547,,,
729706080.317754,-7.69846,3.341253,172.034682,-0.054214,-0.135941,0.986938,0.009924,0.001196,-0.016027,88.097733,17.569153,-146.726547,,,
729706080.321095,-7.694505,3.339264,172.029523,-0.054214,-0.135941,0.986938,0.009924,0.001196,-0.016027,88.097733,17.569153,-146.726547,,,
729706080.324431,-7.694505,3.339264,172.029523,-0.054214,-0.135941,0.986938,0.009924,0.001196,-0.016027,88.097733,17.569153,-146.726547,,,
729706080.327787,-7.688514,3.336047,172.02348,-0.05423,-0.138382,0.989868,0.027927,-0.008983,-0.021427,88.097733,17.569153,-146.726547,,,
729706080.331087,-7.679014,3.331362,172.016613,-0.05423,-0.138382,0.989868,0.027927,-0.008983,-0.021427,88.097733,17.569153,-146.726547,,,
729706080.334498,-7.679014,3.331362,172.016613,-0.05423,-0.138382,0.989868,0.027927,-0.008983,-0.021427,88.097733,17.569153,-146.726547,,,
729706080.337762,-7.668007,3.327136,172.008523,-0.055084,-0.138184,0.990753,0.044917,-0.008181,-0.029379,88.122833,17.34285,-147.091293,,,
729706080.341082,-7.654257,3.321755,171.999315,-0.055084,-0.138184,0.990753,0.044917,-0.008181,-0.029379,88.122833,17.34285,-147.091293,,,
729706080.344409,-7.654257,3.321755,171.999315,-0.055084,-0.138184,0.990753,0.044917,-0.008181,-0.029379,88.122833,17.34285,-147.091293,,,
729706080.347903,-7.640566,3.316117,171.989428,-0.056,-0.135529,0.987,0.050904,-0.013953,-0.034359,88.122833,17.34285,-147.091293,,,
729706080.351112,-7.625684,3.308664,171.979256,-0.056,-0.135529,0.987,0.050904,-0.013953,-0.034359,88.122833,17.34285,-147.091293,,,
729706080.354486,-7.625684,3.308664,171.979256,-0.056,-0.135529,0.987,0.050904,-0.013953,-0.034359,88.122833,17.34285,-147.091293,,,
729706080.357742,-7.61109,3.300957,171.96914,-0.059189,-0.13533,0.983261,0.054532,-0.020446,-0.034398,88.122833,17.34285,-147.091293,,,
729706080.361082,-7.595503,3.29156,171.959057,-0.059189,-0.13533,0.983261,0.054532,-0.020446,-0.034398,88.122833,17.34285,-147.091293,,,
729706080.364422,-7.595503,3.29156,171.959057,-0.059189,-0.13533,0.983261,0.054532,-0.020446,-0.034398,88.122833,17.34285,-147.091293,,,
729706080.367762,-7.580451,3.282591,171.949756,-0.060379,-0.135422,0.980789,0.053551,-0.022678,-0.02967,88.122833,17.34285,-147.091293,,,
