Time (sec),Pitch (deg),Roll (deg),Yaw(deg),X-Acceleration (g),Y-Acceleration (g),Z-Acceleration (g),Pitch Rate (deg/sec),Roll Rate (deg/sec),Yaw Rate (deg/sec),Magnetic Field in X direction (uT),Magnetic Field in Y direction (uT),Magnetic Field in Z Direction (uT),Latitude (deg),Longitude (deg),Altitude (m)
729707104.953509,2.289291,2.38587,-22.185326,-0.054428,0.047714,0.990768,-0.014971,-0.027819,-0.011761,61.060181,28.411804,-146.695145,,,
729707104.956027,2.28517,2.372789,121.721326,-0.054428,0.047714,0.990768,-0.00808,-0.049852,-0.016793,61.060181,28.411804,-146.695145,,,
729707104.957663,2.285161,2.372756,-22.188856,-0.054428,0.047714,0.990768,-0.00808,-0.049852,-0.016793,61.060181,28.411804,-146.695145,,,
729707104.959328,2.283185,2.357289,121.716643,-0.045135,0.046158,0.997528,-0.00808,-0.049852,-0.016793,61.060181,28.411804,-146.695145,,,
729707104.960977,2.283175,2.357255,-22.193542,-0.045135,0.046158,0.997528,-0.00808,-0.049852,-0.016793,61.060181,28.411804,-146.695145,,,
729707104.962691,2.283185,2.357289,121.716643,-0.045135,0.046158,0.997528,-0.00808,-0.049852,-0.016793,61.060181,28.411804,-146.695145,,,
729707104.963476,2.283175,2.357255,-22.193542,-0.045135,0.046158,0.997528,-0.00808,-0.049852,-0.016793,61.060181,28.411804,-146.695145,,,
729707104.966015,2.282755,2.341256,121.711324,-0.045135,0.046158,0.997528,0.005527,-0.052611,-0.020713,61.060181,28.411804,-146.695145,,,
729707104.968582,2.282745,2.341223,-22.198864,-0.045135,0.046158,0.997528,0.005527,-0.052611,-0.020713,61.060181,28.411804,-146.695145,,,
729707104.969363,2.284785,2.327397,121.705791,-0.03891,0.0448,1.003006,0.005527,-0.052611,-0.020713,61.060181,28.411804,-146.695145,,,
729707104.970968,2.284775,2.327364,-22.204377,-0.03891,0.0448,1.003006,0.005527,-0.052611,-0.020713,61.060181,28.411804,-146.695145,,,
729707104.972753,2.284785,2.327397,121.705791,-0.03891,0.0448,1.003006,0.005527,-0.052611,-0.020713,61.060181,28.411804,-146.695145,,,
729707104.973479,2.284775,2.327364,-22.204377,-0.03891,0.0448,1.003006,0.005527,-0.052611,-0.020713,61.060181,28.411804,-146.695145,,,
729707104.976013,2.288485,2.317671,121.700622,-0.03891,0.0448,1.003006,0.018193,-0.023245,-0.017761,61.060181,28.411804,-146.695145,,,
729707104.978132,2.288475,2.317638,-22.209543,-0.03891,0.0448,1.003006,0.018193,-0.023245,-0.017761,61.060181,28.411804,-146.695145,,,
729707104.979327,2.294424,2.313407,121.696713,-0.036484,0.041641,1.011154,0.018193,-0.023245,-0.017761,61.060181,28.411804,-146.695145,,,
729707104.980682,2.294414,2.313374,-22.213466,-0.036484,0.041641,1.011154,0.018193,-0.023245,-0.017761,61.060181,28.411804,-146.695145,,,
729707104.982684,2.294424,2.313407,121.696713,-0.036484,0.041641,1.011154,0.018193,-0.023245,-0.017761,61.060181,28.411804,-146.695145,,,
729707104.98528,2.294414,2.313374,-22.213466,-0.036484,0.041641,1.011154,0.033454,0.010517,-0.0033,61.060181,28.411804,-146.695145,,,
729707104.986026,2.302242,2.315074,121.694739,-0.036484,0.041641,1.011154,0.033454,0.010517,-0.0033,61.060181,28.411804,-146.695145,,,
729707104.988505,2.302233,2.315041,-22.215443,-0.036484,0.041641,1.011154,0.033454,0.010517,-0.0033,61.158218,28.229431,-146.898117,,,
729707104.989333,2.311839,2.319148,121.695101,-0.036362,0.037216,1.009766,0.033454,0.010517,-0.0033,61.158218,28.229431,-146.898117,,,
729707104.990522,2.311829,2.319114,-22.215081,-0.036362,0.037216,1.009766,0.033454,0.010517,-0.0033,61.158218,28.229431,-146.898117,,,
729707104.99266,2.311839,2.319148,121.695101,-0.036362,0.037216,1.009766,0.033454,0.010517,-0.0033,61.158218,28.229431,-146.898117,,,
729707104.995161,2.311829,2.319114,-22.215081,-0.036362,0.037216,1.009766,0.035024,0.034996,0.01263,61.158218,28.229431,-146.898117,,,
729707104.996026,2.321229,2.329625,121.697619,-0.036362,0.037216,1.009766,0.035024,0.034996,0.01263,61.158218,28.229431,-146.898117,,,
729707104.997674,2.321219,2.329592,-22.212551,-0.036362,0.037216,1.009766,0.035024,0.034996,0.01263,61.158218,28.229431,-146.898117,,,
729707104.999331,2.330851,2.340154,121.701614,-0.039154,0.039124,1.001892,0.035024,0.034996,0.01263,61.158218,28.229431,-146.898117,,,
729707105.000968,2.330841,2.34012,-22.20856,-0.039154,0.039124,1.001892,0.035024,0.034996,0.01263,61.158218,28.229431,-146.898117,,,
729707105.002701,2.330851,2.340154,121.701614,-0.039154,0.039124,1.001892,0.035024,0.034996,0.01263,61.158218,28.229431,-146.898117,,,
729707105.003517,2.330841,2.34012,-22.20856,-0.039154,0.039124,1.001892,0.035024,0.034996,0.01263,61.158218,28.229431,-146.898117,,,
729707105.006013,2.339781,2.355346,121.705799,-0.039154,0.039124,1.001892,0.025845,0.047242,0.014483,61.158218,28.229431,-146.898117,,,
729707105.008066,2.339771,2.355313,-22.20437,-0.039154,0.039124,1.001892,0.025845,0.047242,0.014483,61.158218,28.229431,-146.898117,,,
729707105.009337,2.346753,2.367661,121.709178,-0.038101,0.047424,0.996368,0.025845,0.047242,0.014483,61.158218,28.229431,-146.898117,,,
729707105.010945,2.346743,2.367628,-22.200991,-0.038101,0.047424,0.996368,0.025845,0.047242,0.014483,61.158218,28.229431,-146.898117,,,
729707105.012682,2.346753,2.367661,121.709178,-0.038101,0.047424,0.996368,0.025845,0.047242,0.014483,61.158218,28.229431,-146.898117,,,
729707105.013503,2.346743,2.367628,-22.200991,-0.038101,0.047424,0.996368,0.025845,0.047242,0.014483,61.158218,28.229431,-146.898117,,,
729707105.016012,2.35478,2.381764,121.711494,-0.038101,0.047424,0.996368,0.018724,0.037332,0.007627,61.158218,28.229431,-146.898117,,,
729707105.017555,2.35477,2.381731,-22.198678,-0.038101,0.047424,0.996368,0.018724,0.037332,0.007627,61.158218,28.229431,-146.898117,,,
729707105.019346,2.359753,2.3902,121.713521,-0.040619,0.048309,0.99025,0.018724,0.037332,0.007627,61.158218,28.229431,-146.898117,,,
729707105.020969,2.359744,2.390167,-22.196651,-0.040619,0.048309,0.99025,0.018724,0.037332,0.007627,61.158218,28.229431,-146.898117,,,
729707105.022688,2.359753,2.3902,121.713521,-0.040619,0.048309,0.99025,0.018724,0.037332,0.007627,61.158218,28.229431,-146.898117,,,
729707105.023502,2.359744,2.390167,-22.196651,-0.040619,0.048309,0.99025,0.018724,0.037332,0.007627,61.158218,28.229431,-146.898117,,,
729707105.026043,2.36573,2.398439,121.713801,-0.040619,0.048309,0.99025,0.014393,0.011461,-0.00373,61.158218,28.229431,-146.898117,,,
729707105.02967,2.365721,2.398406,-22.196375,-0.040619,0.048309,0.99025,0.014393,0.011461,-0.00373,61.173782,28.383438,-146.540802,,,
729707105.029962,2.369219,2.399201,121.712573,-0.043961,0.045776,0.988083,0.014393,0.011461,-0.00373,61.173782,28.383438,-146.540802,,,
729707105.030244,2.369209,2.399168,-22.197597,-0.043961,0.045776,0.988083,0.014393,0.011461,-0.00373,61.173782,28.383438,-146.540802,,,
729707105.032681,2.369219,2.399201,121.712573,-0.043961,0.045776,0.988083,0.014393,0.011461,-0.00373,61.173782,28.383438,-146.540802,,,
729707105.033502,2.369209,2.399168,-22.197597,-0.043961,0.045776,0.988083,0.014393,0.011461,-0.00373,61.173782,28.383438,-146.540802,,,
729707105.036014,2.37341,2.399106,121.7101,-0.043961,0.045776,0.988083,0.011662,-0.008534,-0.011986,61.173782,28.383438,-146.540802,,,
729707105.038103,2.3734,2.399072,-22.200071,-0.043961,0.045776,0.988083,0.011662,-0.008534,-0.011986,61.173782,28.383438,-146.540802,,,
729707105.039341,2.377054,2.394859,121.706633,-0.043488,0.045853,0.987366,0.011662,-0.008534,-0.011986,61.173782,28.383438,-146.540802,,,
729707105.04082,2.377044,2.394826,-22.203536,-0.043488,0.045853,0.987366,0.011662,-0.008534,-0.011986,61.173782,28.383438,-146.540802,,,
729707105.04268,2.377054,2.394859,121.706633,-0.043488,0.045853,0.987366,0.011662,-0.008534,-0.011986,61.173782,28.383438,-146.540802,,,
729707105.043493,2.377044,2.394826,-22.203536,-0.043488,0.045853,0.987366,0.011662,-0.008534,-0.011986,61.173782,28.383438,-146.540802,,,
729707105.045989,2.381445,2.38869,121.702641,-0.043488,0.045853,0.987366,0.011961,-0.021475,-0.015725,61.173782,28.383438,-146.540802,,,
729707105.047465,2.381435,2.388657,-22.20753,-0.043488,0.045853,0.987366,0.011961,-0.021475,-0.015725,61.173782,28.383438,-146.540802,,,
729707105.049329,2.383727,2.381186,121.699106,-0.04306,0.042679,0.992065,0.011961,-0.021475,-0.015725,61.173782,28.383438,-146.540802,,,
729707105.050693,2.383717,2.381153,-22.211064,-0.04306,0.042679,0.992065,0.011961,-0.021475,-0.015725,61.173782,28.383438,-146.540802,,,
729707105.052689,2.383727,2.381186,121.699106,-0.04306,0.042679,0.992065,0.011961,-0.021475,-0.015725,61.173782,28.383438,-146.540802,,,
729707105.053522,2.383717,2.381153,-22.211064,-0.04306,0.042679,0.992065,0.011961,-0.021475,-0.015725,61.173782,28.383438,-146.540802,,,
729707105.055987,2.386003,2.372066,121.69697,-0.04306,0.042679,0.992065,0.009881,-0.025799,-0.006396,61.173782,28.383438,-146.540802,,,
729707105.05784,2.385993,2.372033,-22.213208,-0.04306,0.042679,0.992065,0.009881,-0.025799,-0.006396,61.173782,28.383438,-146.540802,,,
729707105.059329,2.388449,2.363983,121.695757,-0.040909,0.041794,0.993637,0.009881,-0.025799,-0.006396,61.173782,28.383438,-146.540802,,,
729707105.060467,2.388439,2.36395,-22.214421,-0.040909,0.041794,0.993637,0.009881,-0.025799,-0.006396,61.173782,28.383438,-146.540802,,,
729707105.062765,2.388449,2.363983,121.695757,-0.040909,0.041794,0.993637,0.009881,-0.025799,-0.006396,61.173782,28.383438,-146.540802,,,
729707105.063503,2.388439,2.36395,-22.214421,-0.040909,0.041794,0.993637,0.009881,-0.025799,-0.006396,61.173782,28.383438,-146.540802,,,
729707105.066027,2.390714,2.355745,121.69559,-0.040909,0.041794,0.993637,0.011772,-0.017932,0.000575,61.173782,28.383438,-146.540802,,,
729707105.068316,2.390705,2.355712,-22.214588,-0.040909,0.041794,0.993637,0.011772,-0.017932,0.000575,61.173782,28.383438,-146.540802,,,
729707105.069403,2.394314,2.351294,121.696385,-0.036285,0.045303,0.997787,0.011772,-0.017932,0.000575,61.173782,28.383438,-146.540802,,,
729707105.071579,2.394304,2.35126,-22.213793,-0.036285,0.045303,0.997787,0.011772,-0.017932,0.000575,61.077972,28.316849,-146.562073,,,
729707105.072708,2.394314,2.351294,121.696385,-0.036285,0.045303,0.997787,0.011772,-0.017932,0.000575,61.077972,28.316849,-146.562073,,,
729707105.073508,2.394304,2.35126,-22.213793,-0.036285,0.045303,0.997787,0.011772,-0.017932,0.000575,61.077972,28.316849,-146.562073,,,
729707105.076088,2.397527,2.349075,121.698237,-0.036285,0.045303,0.997787,0.01659,0.003493,0.007908,61.077972,28.316849,-146.562073,,,
729707105.078752,2.397517,2.349042,-22.211944,-0.036285,0.045303,0.997787,0.01659,0.003493,0.007908,61.077972,28.316849,-146.562073,,,
729707105.079346,2.402575,2.350633,121.700846,-0.034195,0.043564,1.002167,0.01659,0.003493,0.007908,61.077972,28.316849,-146.562073,,,
729707105.080604,2.402565,2.3506,-22.209332,-0.034195,0.043564,1.002167,0.01659,0.003493,0.007908,61.077972,28.316849,-146.562073,,,
729707105.082686,2.402575,2.350633,121.700846,-0.034195,0.043564,1.002167,0.01659,0.003493,0.007908,61.077972,28.316849,-146.562073,,,
729707105.08347,2.402565,2.3506,-22.209332,-0.034195,0.043564,1.002167,0.01659,0.003493,0.007908,61.077972,28.316849,-146.562073,,,
729707105.086033,2.40847,2.353023,121.704415,-0.034195,0.043564,1.002167,0.020895,0.013669,0.014611,61.077972,28.316849,-146.562073,,,
729707105.087393,2.40846,2.35299,-22.205764,-0.034195,0.043564,1.002167,0.020895,0.013669,0.014611,61.077972,28.316849,-146.562073,,,
729707105.089341,2.414449,2.356523,121.708642,-0.035309,0.040298,1.000092,0.020895,0.013669,0.014611,61.077972,28.316849,-146.562073,,,
729707105.090907,2.414439,2.35649,-22.20154,-0.035309,0.040298,1.000092,0.020895,0.013669,0.014611,61.077972,28.316849,-146.562073,,,
729707105.09268,2.414449,2.356523,121.708642,-0.035309,0.040298,1.000092,0.020895,0.013669,0.014611,61.077972,28.316849,-146.562073,,,
729707105.093472,2.414439,2.35649,-22.20154,-0.035309,0.040298,1.000092,0.020895,0.013669,0.014611,61.077972,28.316849,-146.562073,,,
729707105.096011,2.421845,2.359794,121.712999,-0.035309,0.040298,1.000092,0.02148,0.015547,0.015352,61.077972,28.316849,-146.562073,,,
729707105.09755,2.421836,2.359761,-22.197183,-0.035309,0.040298,1.000092,0.02148,0.015547,0.015352,61.077972,28.316849,-146.562073,,,
729707105.099332,2.427976,2.362971,121.717135,-0.037064,0.042038,1.0009,0.02148,0.015547,0.015352,61.077972,28.316849,-146.562073,,,
729707105.100684,2.427967,2.362938,-22.193043,-0.037064,0.042038,1.0009,0.02148,0.015547,0.015352,61.077972,28.316849,-146.562073,,,
729707105.102694,2.427976,2.362971,121.717135,-0.037064,0.042038,1.0009,0.02148,0.015547,0.015352,61.077972,28.316849,-146.562073,,,
729707105.103466,2.427967,2.362938,-22.193043,-0.037064,0.042038,1.0009,0.02148,0.015547,0.015352,61.077972,28.316849,-146.562073,,,
729707105.10602,2.435285,2.366152,121.72081,-0.037064,0.042038,1.0009,0.023938,0.011989,0.012408,61.077972,28.316849,-146.562073,,,
729707105.107841,2.435275,2.366119,-22.189368,-0.037064,0.042038,1.0009,0.023938,0.011989,0.012408,61.077972,28.316849,-146.562073,,,
729707105.109335,2.442091,2.36879,121.72405,-0.039551,0.046509,1.00148,0.023938,0.011989,0.012408,61.077972,28.316849,-146.562073,,,
729707105.110428,2.442081,2.368757,-22.186126,-0.039551,0.046509,1.00148,0.023938,0.011989,0.012408,61.077972,28.316849,-146.562073,,,
729707105.112669,2.442091,2.36879,121.72405,-0.039551,0.046509,1.00148,0.023938,0.011989,0.012408,61.037598,28.524109,-146.658646,,,
729707105.114235,2.442081,2.368757,-22.186126,-0.039551,0.046509,1.00148,0.023938,0.011989,0.012408,61.037598,28.524109,-146.658646,,,
729707105.116012,2.449364,2.372868,121.726552,-0.039551,0.046509,1.00148,0.022419,0.017456,0.007384,61.037598,28.524109,-146.658646,,,
729707105.117552,2.449355,2.372835,-22.183627,-0.039551,0.046509,1.00148,0.022419,0.017456,0.007384,61.037598,28.524109,-146.658646,,,
729707105.11934,2.456314,2.377965,121.729311,-0.041061,0.044083,1.002121,0.022419,0.017456,0.007384,61.037598,28.524109,-146.658646,,,
729707105.120988,2.456304,2.377931,-22.180868,-0.041061,0.044083,1.002121,0.022419,0.017456,0.007384,61.037598,28.524109,-146.658646,,,
729707105.122664,2.456314,2.377965,121.729311,-0.041061,0.044083,1.002121,0.022419,0.017456,0.007384,61.037598,28.524109,-146.658646,,,
729707105.123468,2.456304,2.377931,-22.180868,-0.041061,0.044083,1.002121,0.022419,0.017456,0.007384,61.037598,28.524109,-146.658646,,,
729707105.126083,2.463997,2.385216,121.733071,-0.041061,0.044083,1.002121,0.024073,0.027792,0.014634,61.037598,28.524109,-146.658646,,,
729707105.127486,2.463988,2.385182,-22.177102,-0.041061,0.044083,1.002121,0.024073,0.027792,0.014634,61.037598,28.524109,-146.658646,,,
729707105.12934,2.471282,2.392466,121.73817,-0.046524,0.038208,1.001205,0.024073,0.027792,0.014634,61.037598,28.524109,-146.658646,,,
729707105.130933,2.471272,2.392433,-22.172004,-0.046524,0.038208,1.001205,0.024073,0.027792,0.014634,61.037598,28.524109,-146.658646,,,
729707105.132687,2.471282,2.392466,121.73817,-0.046524,0.038208,1.001205,0.024073,0.027792,0.014634,61.037598,28.524109,-146.658646,,,
729707105.133472,2.471272,2.392433,-22.172004,-0.046524,0.038208,1.001205,0.024073,0.027792,0.014634,61.037598,28.524109,-146.658646,,,
729707105.136014,2.478425,2.400665,121.745014,-0.046524,0.038208,1.001205,0.024581,0.034414,0.026816,61.037598,28.524109,-146.658646,,,
729707105.137653,2.478415,2.400631,-22.165158,-0.046524,0.038208,1.001205,0.024581,0.034414,0.026816,61.037598,28.524109,-146.658646,,,
729707105.13933,2.485482,2.409248,121.753227,-0.048447,0.038849,0.999619,0.024581,0.034414,0.026816,61.037598,28.524109,-146.658646,,,
729707105.140968,2.485472,2.409215,-22.156942,-0.048447,0.038849,0.999619,0.024581,0.034414,0.026816,61.037598,28.524109,-146.658646,,,
729707105.142684,2.485482,2.409248,121.753227,-0.048447,0.038849,0.999619,0.024581,0.034414,0.026816,61.037598,28.524109,-146.658646,,,
729707105.143471,2.485472,2.409215,-22.156942,-0.048447,0.038849,0.999619,0.024581,0.034414,0.026816,61.037598,28.524109,-146.658646,,,
729707105.146003,2.492816,2.416541,121.762637,-0.048447,0.038849,0.999619,0.024333,0.032364,0.034822,61.037598,28.524109,-146.658646,,,
729707105.147347,2.492807,2.416507,-22.147532,-0.048447,0.038849,0.999619,0.024333,0.032364,0.034822,61.037598,28.524109,-146.658646,,,
729707105.14933,2.499146,2.424262,121.773064,-0.049988,0.04216,0.996994,0.024333,0.032364,0.034822,61.037598,28.524109,-146.658646,,,
729707105.15069,2.499136,2.424228,-22.137102,-0.049988,0.04216,0.996994,0.024333,0.032364,0.034822,61.037598,28.524109,-146.658646,,,
729707105.152683,2.499146,2.424262,121.773064,-0.049988,0.04216,0.996994,0.024333,0.032364,0.034822,61.264343,28.36615,-146.759003,,,
729707105.154186,2.499136,2.424228,-22.137102,-0.049988,0.04216,0.996994,0.024333,0.032364,0.034822,61.264343,28.36615,-146.759003,,,
729707105.156026,2.504192,2.430009,121.783518,-0.049988,0.04216,0.996994,0.013757,0.028944,0.034096,61.264343,28.36615,-146.759003,,,
729707105.157561,2.504183,2.429975,-22.126656,-0.049988,0.04216,0.996994,0.013757,0.028944,0.034096,61.264343,28.36615,-146.759003,,,
729707105.159329,2.508545,2.435802,121.793192,-0.049835,0.047134,0.991211,0.013757,0.028944,0.034096,61.264343,28.36615,-146.759003,,,
729707105.161402,2.508535,2.435769,-22.116981,-0.049835,0.047134,0.991211,0.013757,0.028944,0.034096,61.264343,28.36615,-146.759003,,,
729707105.162693,2.508545,2.435802,121.793192,-0.049835,0.047134,0.991211,0.013757,0.028944,0.034096,61.264343,28.36615,-146.759003,,,
729707105.163471,2.508535,2.435769,-22.116981,-0.049835,0.047134,0.991211,0.013757,0.028944,0.034096,61.264343,28.36615,-146.759003,,,
729707105.166003,2.512118,2.437653,121.801934,-0.049835,0.047134,0.991211,0.011887,0.013723,0.027,61.264343,28.36615,-146.759003,,,
729707105.167264,2.512108,2.43762,-22.108242,-0.049835,0.047134,0.991211,0.011887,0.013723,0.027,61.264343,28.36615,-146.759003,,,
729707105.169335,2.516225,2.439139,121.809812,-0.047928,0.044128,0.990753,0.011887,0.013723,0.027,61.264343,28.36615,-146.759003,,,
729707105.170877,2.516215,2.439106,-22.100362,-0.047928,0.044128,0.990753,0.011887,0.013723,0.027,61.264343,28.36615,-146.759003,,,
729707105.172663,2.516225,2.439139,121.809812,-0.047928,0.044128,0.990753,0.011887,0.013723,0.027,61.264343,28.36615,-146.759003,,,
729707105.17347,2.516215,2.439106,-22.100362,-0.047928,0.044128,0.990753,0.011887,0.013723,0.027,61.264343,28.36615,-146.759003,,,
729707105.176084,2.520885,2.436772,121.816974,-0.047928,0.044128,0.990753,0.02136,-0.003495,0.021956,61.264343,28.36615,-146.759003,,,
729707105.178679,2.520875,2.436739,-22.093199,-0.047928,0.044128,0.990753,0.02136,-0.003495,0.021956,61.264343,28.36615,-146.759003,,,
729707105.179345,2.527398,2.433831,121.822922,-0.048737,0.039017,0.994644,0.02136,-0.003495,0.021956,61.264343,28.36615,-146.759003,,,
729707105.180824,2.527388,2.433797,-22.087248,-0.048737,0.039017,0.994644,0.02136,-0.003495,0.021956,61.264343,28.36615,-146.759003,,,
729707105.182684,2.527398,2.433831,121.822922,-0.048737,0.039017,0.994644,0.02136,-0.003495,0.021956,61.264343,28.36615,-146.759003,,,
729707105.183473,2.527388,2.433797,-22.087248,-0.048737,0.039017,0.994644,0.02136,-0.003495,0.021956,61.264343,28.36615,-146.759003,,,
729707105.18608,2.535538,2.428538,121.82848,-0.048737,0.039017,0.994644,0.032229,-0.013449,0.019392,61.264343,28.36615,-146.759003,,,
729707105.187778,2.535528,2.428505,-22.08169,-0.048737,0.039017,0.994644,0.032229,-0.013449,0.019392,61.264343,28.36615,-146.759003,,,
729707105.189336,2.545884,2.423389,121.833782,-0.044891,0.033951,1.003891,0.032229,-0.013449,0.019392,61.264343,28.36615,-146.759003,,,
729707105.191359,2.545874,2.423356,-22.076386,-0.044891,0.033951,1.003891,0.032229,-0.013449,0.019392,61.264343,28.36615,-146.759003,,,
729707105.192665,2.545884,2.423389,121.833782,-0.044891,0.033951,1.003891,0.032229,-0.013449,0.019392,61.197235,28.339371,-146.865219,,,
729707105.194179,2.545874,2.423356,-22.076386,-0.044891,0.033951,1.003891,0.032229,-0.013449,0.019392,61.197235,28.339371,-146.865219,,,
729707105.195999,2.559023,2.417769,121.839142,-0.044891,0.033951,1.003891,0.049555,-0.012192,0.020347,61.197235,28.339371,-146.865219,,,
729707105.197587,2.559013,2.417736,-22.071025,-0.044891,0.033951,1.003891,0.049555,-0.012192,0.020347,61.197235,28.339371,-146.865219,,,
729707105.19933,2.574206,2.414673,121.844807,-0.041016,0.032547,1.005737,0.049555,-0.012192,0.020347,61.197235,28.339371,-146.865219,,,
729707105.200976,2.574196,2.41464,-22.065363,-0.041016,0.032547,1.005737,0.049555,-0.012192,0.020347,61.197235,28.339371,-146.865219,,,
729707105.202685,2.574206,2.414673,121.844807,-0.041016,0.032547,1.005737,0.049555,-0.012192,0.020347,61.197235,28.339371,-146.865219,,,
729707105.203481,2.574196,2.41464,-22.065363,-0.041016,0.032547,1.005737,0.049555,-0.012192,0.020347,61.197235,28.339371,-146.865219,,,
729707105.206029,2.589938,2.414936,121.850199,-0.041016,0.032547,1.005737,0.059056,0.008072,0.018997,61.197235,28.339371,-146.865219,,,
729707105.208961,2.589928,2.414903,-22.059966,-0.041016,0.032547,1.005737,0.059056,0.008072,0.018997,61.197235,28.339371,-146.865219,,,
729707105.209338,2.607745,2.418366,121.854989,-0.031174,0.039032,1.007828,0.059056,0.008072,0.018997,61.197235,28.339371,-146.865219,,,
729707105.211261,2.607735,2.418333,-22.055176,-0.031174,0.039032,1.007828,0.059056,0.008072,0.018997,61.197235,28.339371,-146.865219,,,
729707105.212729,2.607745,2.418366,121.854989,-0.031174,0.039032,1.007828,0.059056,0.008072,0.018997,61.197235,28.339371,-146.865219,,,
729707105.213476,2.607735,2.418333,-22.055176,-0.031174,0.039032,1.007828,0.059056,0.008072,0.018997,61.197235,28.339371,-146.865219,,,
729707105.216015,2.625404,2.427896,121.858922,-0.031174,0.039032,1.007828,0.067339,0.040479,0.013829,61.197235,28.339371,-146.865219,,,
729707105.218288,2.625394,2.427863,-22.051246,-0.031174,0.039032,1.007828,0.067339,0.040479,0.013829,61.197235,28.339371,-146.865219,,,
729707105.219351,2.643995,2.440127,121.862842,-0.028748,0.048111,1.003342,0.067339,0.040479,0.013829,61.197235,28.339371,-146.865219,,,
729707105.221159,2.643986,2.440094,-22.04733,-0.028748,0.048111,1.003342,0.067339,0.040479,0.013829,61.197235,28.339371,-146.865219,,,
729707105.222686,2.643995,2.440127,121.862842,-0.028748,0.048111,1.003342,0.067339,0.040479,0.013829,61.197235,28.339371,-146.865219,,,
729707105.223474,2.643986,2.440094,-22.04733,-0.028748,0.048111,1.003342,0.067339,0.040479,0.013829,61.197235,28.339371,-146.865219,,,
729707105.225991,2.660341,2.456685,121.866965,-0.028748,0.048111,1.003342,0.059454,0.062185,0.01537,61.197235,28.339371,-146.865219,,,
729707105.228218,2.660331,2.456652,-22.043205,-0.028748,0.048111,1.003342,0.059454,0.062185,0.01537,61.197235,28.339371,-146.865219,,,
729707105.229336,2.677262,2.474341,121.87143,-0.029144,0.053375,0.991913,0.059454,0.062185,0.01537,61.197235,28.339371,-146.865219,,,
729707105.230986,2.677252,2.474308,-22.038744,-0.029144,0.053375,0.991913,0.059454,0.062185,0.01537,61.197235,28.339371,-146.865219,,,
729707105.232657,2.677262,2.474341,121.87143,-0.029144,0.053375,0.991913,0.059454,0.062185,0.01537,61.197235,28.339371,-146.865219,,,
729707105.234117,2.677252,2.474308,-22.038744,-0.029144,0.053375,0.991913,0.059454,0.062185,0.01537,61.371902,28.243927,-146.800629,,,
729707105.236031,2.693232,2.494571,121.875915,-0.029144,0.053375,0.991913,0.053831,0.067413,0.015968,61.371902,28.243927,-146.800629,,,
729707105.23824,2.693222,2.494537,-22.034264,-0.029144,0.053375,0.991913,0.053831,0.067413,0.015968,61.371902,28.243927,-146.800629,,,
729707105.239322,2.708151,2.511976,121.879882,-0.028488,0.05603,0.985001,0.053831,0.067413,0.015968,61.371902,28.243927,-146.800629,,,
729707105.240984,2.708141,2.511943,-22.0303,-0.028488,0.05603,0.985001,0.053831,0.067413,0.015968,61.371902,28.243927,-146.800629,,,
729707105.242686,2.708151,2.511976,121.879882,-0.028488,0.05603,0.985001,0.053831,0.067413,0.015968,61.371902,28.243927,-146.800629,,,
729707105.243485,2.708141,2.511943,-22.0303,-0.028488,0.05603,0.985001,0.053831,0.067413,0.015968,61.371902,28.243927,-146.800629,,,
729707105.246016,2.720953,2.527953,121.883422,-0.028488,0.05603,0.985001,0.040919,0.048731,0.012939,61.371902,28.243927,-146.800629,,,
729707105.248048,2.720943,2.52792,-22.026747,-0.028488,0.05603,0.985001,0.040919,0.048731,0.012939,61.371902,28.243927,-146.800629,,,
729707105.249332,2.732266,2.539594,121.886562,-0.035614,0.057632,0.977676,0.040919,0.048731,0.012939,61.371902,28.243927,-146.800629,,,
729707105.251356,2.732256,2.539561,-22.023608,-0.035614,0.057632,0.977676,0.040919,0.048731,0.012939,61.371902,28.243927,-146.800629,,,
729707105.252673,2.732266,2.539594,121.886562,-0.035614,0.057632,0.977676,0.040919,0.048731,0.012939,61.371902,28.243927,-146.800629,,,
729707105.253476,2.732256,2.539561,-22.023608,-0.035614,0.057632,0.977676,0.040919,0.048731,0.012939,61.371902,28.243927,-146.800629,,,
729707105.256067,2.741275,2.549257,121.888417,-0.035614,0.057632,0.977676,0.032406,0.028962,0.003888,61.371902,28.243927,-146.800629,,,
729707105.258054,2.741266,2.549224,-22.021754,-0.035614,0.057632,0.977676,0.032406,0.028962,0.003888,61.371902,28.243927,-146.800629,,,
729707105.259333,2.749321,2.555379,121.888385,-0.037903,0.058075,0.973038,0.032406,0.028962,0.003888,61.371902,28.243927,-146.800629,,,
729707105.260975,2.749311,2.555345,-22.021788,-0.037903,0.058075,0.973038,0.032406,0.028962,0.003888,61.371902,28.243927,-146.800629,,,
729707105.262681,2.749321,2.555379,121.888385,-0.037903,0.058075,0.973038,0.032406,0.028962,0.003888,61.371902,28.243927,-146.800629,,,
729707105.263472,2.749311,2.555345,-22.021788,-0.037903,0.058075,0.973038,0.032406,0.028962,0.003888,61.371902,28.243927,-146.800629,,,
729707105.266065,2.753564,2.558647,121.886282,-0.037903,0.058075,0.973038,0.020895,0.003229,-0.010865,61.371902,28.243927,-146.800629,,,
729707105.268424,2.753554,2.558614,-22.0239,-0.037903,0.058075,0.973038,0.020895,0.003229,-0.010865,61.371902,28.243927,-146.800629,,,
729707105.269357,2.757819,2.556588,121.882851,-0.037018,0.057495,0.97258,0.020895,0.003229,-0.010865,61.371902,28.243927,-146.800629,,,
729707105.270749,2.757809,2.556554,-22.027333,-0.037018,0.057495,0.97258,0.020895,0.003229,-0.010865,61.371902,28.243927,-146.800629,,,
729707105.272681,2.757819,2.556588,121.882851,-0.037018,0.057495,0.97258,0.020895,0.003229,-0.010865,61.371902,28.243927,-146.800629,,,
729707105.273475,2.757809,2.556554,-22.027333,-0.037018,0.057495,0.97258,0.020895,0.003229,-0.010865,61.371902,28.243927,-146.800629,,,
729707105.275992,2.756472,2.549151,121.878239,-0.037018,0.057495,0.97258,0.002711,-0.030935,-0.020132,61.311203,27.949478,-146.85022,,,
729707105.27938,2.756462,2.549118,-22.031943,-0.037018,0.057495,0.97258,0.002711,-0.030935,-0.020132,61.311203,27.949478,-146.85022,,,
729707105.279657,2.755823,2.538514,121.872297,-0.039902,0.05394,0.976532,0.002711,-0.030935,-0.020132,61.311203,27.949478,-146.85022,,,
729707105.281055,2.755813,2.538481,-22.037889,-0.039902,0.05394,0.976532,0.002711,-0.030935,-0.020132,61.311203,27.949478,-146.85022,,,
729707105.282699,2.755823,2.538514,121.872297,-0.039902,0.05394,0.976532,0.002711,-0.030935,-0.020132,61.311203,27.949478,-146.85022,,,
729707105.283477,2.755813,2.538481,-22.037889,-0.039902,0.05394,0.976532,0.002711,-0.030935,-0.020132,61.311203,27.949478,-146.85022,,,
729707105.286011,2.750001,2.524102,121.865289,-0.039902,0.05394,0.976532,-0.015379,-0.044746,-0.0289,61.311203,27.949478,-146.85022,,,
729707105.288966,2.749991,2.524068,-22.04488,-0.039902,0.05394,0.976532,-0.015379,-0.044746,-0.0289,61.311203,27.949478,-146.85022,,,
729707105.289333,2.744331,2.51095,121.857375,-0.039902,0.05394,0.976532,-0.015379,-0.044746,-0.0289,61.311203,27.949478,-146.85022,,,
729707105.290984,2.744321,2.510917,-22.052798,-0.038956,0.053101,0.984863,-0.015379,-0.044746,-0.0289,61.311203,27.949478,-146.85022,,,
729707105.29275,2.744331,2.51095,121.857375,-0.038956,0.053101,0.984863,-0.015379,-0.044746,-0.0289,61.311203,27.949478,-146.85022,,,
729707105.293477,2.744321,2.510917,-22.052798,-0.038956,0.053101,0.984863,-0.015379,-0.044746,-0.0289,61.311203,27.949478,-146.85022,,,
729707105.295989,2.736573,2.495832,121.849184,-0.038956,0.053101,0.984863,-0.022766,-0.034064,-0.032333,61.311203,27.949478,-146.85022,,,
729707105.297628,2.736563,2.495799,-22.060985,-0.038956,0.053101,0.984863,-0.022766,-0.034064,-0.032333,61.311203,27.949478,-146.85022,,,
729707105.299358,2.72861,2.487006,121.840609,-0.038696,0.051117,0.996063,-0.022766,-0.034064,-0.032333,61.311203,27.949478,-146.85022,,,
729707105.301275,2.7286,2.486973,-22.069562,-0.038696,0.051117,0.996063,-0.022766,-0.034064,-0.032333,61.311203,27.949478,-146.85022,,,
729707105.302694,2.72861,2.487006,121.840609,-0.038696,0.051117,0.996063,-0.022766,-0.034064,-0.032333,61.311203,27.949478,-146.85022,,,
729707105.303479,2.7286,2.486973,-22.069562,-0.038696,0.051117,0.996063,-0.022766,-0.034064,-0.032333,61.311203,27.949478,-146.85022,,,
729707105.305991,2.720346,2.478951,121.83264,-0.038696,0.051117,0.996063,-0.030124,-0.00677,-0.029463,61.311203,27.949478,-146.85022,,,
729707105.308124,2.720336,2.478917,-22.077534,-0.038696,0.051117,0.996063,-0.030124,-0.00677,-0.029463,61.311203,27.949478,-146.85022,,,
729707105.309336,2.711522,2.478207,121.825872,-0.041412,0.046219,1.003265,-0.030124,-0.00677,-0.029463,61.311203,27.949478,-146.85022,,,
729707105.310477,2.711512,2.478174,-22.084301,-0.041412,0.046219,1.003265,-0.030124,-0.00677,-0.029463,61.311203,27.949478,-146.85022,,,
729707105.312745,2.711522,2.478207,121.825872,-0.041412,0.046219,1.003265,-0.030124,-0.00677,-0.029463,61.311203,27.949478,-146.85022,,,
729707105.313475,2.711512,2.478174,-22.084301,-0.041412,0.046219,1.003265,-0.030124,-0.00677,-0.029463,61.311203,27.949478,-146.85022,,,
729707105.316048,2.704714,2.477878,121.820675,-0.041412,0.046219,1.003265,-0.028013,0.020559,-0.01956,61.184296,28.155106,-146.750992,,,
729707105.319684,2.704704,2.477845,-22.089497,-0.041412,0.046219,1.003265,-0.028013,0.020559,-0.01956,61.184296,28.155106,-146.750992,,,
729707105.320244,2.69667,2.48455,121.816725,-0.046417,0.041702,1.005936,-0.028013,0.020559,-0.01956,61.184296,28.155106,-146.750992,,,
729707105.321139,2.69666,2.484517,-22.093449,-0.046417,0.041702,1.005936,-0.028013,0.020559,-0.01956,61.184296,28.155106,-146.750992,,,
729707105.322553,2.69667,2.48455,121.816725,-0.046417,0.041702,1.005936,-0.028013,0.020559,-0.01956,61.184296,28.155106,-146.750992,,,
729707105.323504,2.69666,2.484517,-22.093449,-0.046417,0.041702,1.005936,-0.028013,0.020559,-0.01956,61.184296,28.155106,-146.750992,,,
729707105.325993,2.691889,2.491193,121.81463,-0.046417,0.041702,1.005936,-0.01974,0.039506,-0.007111,61.184296,28.155106,-146.750992,,,
729707105.328292,2.691879,2.49116,-22.095542,-0.046417,0.041702,1.005936,-0.01974,0.039506,-0.007111,61.184296,28.155106,-146.750992,,,
729707105.329432,2.686003,2.502719,121.813987,-0.04924,0.038391,1.007507,-0.01974,0.039506,-0.007111,61.184296,28.155106,-146.750992,,,
729707105.330555,2.685994,2.502686,-22.096184,-0.04924,0.038391,1.007507,-0.01974,0.039506,-0.007111,61.184296,28.155106,-146.750992,,,
729707105.332747,2.686003,2.502719,121.813987,-0.04924,0.038391,1.007507,-0.01974,0.039506,-0.007111,61.184296,28.155106,-146.750992,,,
729707105.333467,2.685994,2.502686,-22.096184,-0.04924,0.038391,1.007507,-0.01974,0.039506,-0.007111,61.184296,28.155106,-146.750992,,,
729707105.336012,2.683364,2.513402,121.81491,-0.04924,0.038391,1.007507,-0.014938,0.041021,0.003704,61.184296,28.155106,-146.750992,,,
729707105.338887,2.683354,2.513368,-22.09526,-0.04924,0.038391,1.007507,-0.014938,0.041021,0.003704,61.184296,28.155106,-146.750992,,,
729707105.339346,2.679603,2.523134,121.816864,-0.054764,0.035492,1.00531,-0.014938,0.041021,0.003704,61.184296,28.155106,-146.750992,,,
729707105.340723,2.679593,2.523101,-22.093307,-0.054764,0.035492,1.00531,-0.014938,0.041021,0.003704,61.184296,28.155106,-146.750992,,,
729707105.34269,2.679603,2.523134,121.816864,-0.054764,0.035492,1.00531,-0.014938,0.041021,0.003704,61.184296,28.155106,-146.750992,,,
729707105.343476,2.679593,2.523101,-22.093307,-0.054764,0.035492,1.00531,-0.014938,0.041021,0.003704,61.184296,28.155106,-146.750992,,,
729707105.345992,2.679733,2.528479,121.819564,-0.054764,0.035492,1.00531,-0.00434,0.019854,0.008941,61.184296,28.155106,-146.750992,,,
729707105.347753,2.679724,2.528446,-22.090607,-0.054764,0.035492,1.00531,-0.00434,0.019854,0.008941,61.184296,28.155106,-146.750992,,,
729707105.349333,2.679197,2.531625,121.822511,-0.054764,0.035492,1.00531,-0.00434,0.019854,0.008941,61.184296,28.155106,-146.750992,,,
729707105.350592,2.679188,2.531592,-22.087655,-0.057999,0.039337,1.001709,-0.00434,0.019854,0.008941,61.184296,28.155106,-146.750992,,,
729707105.35278,2.679197,2.531625,121.822511,-0.057999,0.039337,1.001709,-0.00434,0.019854,0.008941,61.184296,28.155106,-146.750992,,,
729707105.353473,2.679188,2.531592,-22.087655,-0.057999,0.039337,1.001709,-0.00434,0.019854,0.008941,61.184296,28.155106,-146.750992,,,
729707105.356,2.681811,2.530286,121.824901,-0.057999,0.039337,1.001709,0.002829,-0.003582,0.004962,61.21701,28.26709,-146.607635,,,
729707105.359811,2.681802,2.530252,-22.08528,-0.057999,0.039337,1.001709,0.002829,-0.003582,0.004962,61.21701,28.26709,-146.607635,,,
729707105.360099,2.682388,2.527106,121.825902,-0.056046,0.043243,1.001083,0.002829,-0.003582,0.004962,61.21701,28.26709,-146.607635,,,
729707105.362712,2.682388,2.527106,121.825902,-0.056046,0.043243,1.001083,0.002829,-0.003582,0.004962,61.21701,28.26709,-146.607635,,,
729707105.363763,2.682378,2.527073,-22.084278,-0.056046,0.043243,1.001083,0.002829,-0.003582,0.004962,61.21701,28.26709,-146.607635,,,
729707105.366007,2.684524,2.520357,121.82534,-0.056046,0.043243,1.001083,0.004702,-0.024332,-0.006067,61.21701,28.26709,-146.607635,,,
729707105.368585,2.684514,2.520324,-22.084837,-0.056046,0.043243,1.001083,0.004702,-0.024332,-0.006067,61.21701,28.26709,-146.607635,,,
729707105.369363,2.685894,2.511927,121.823373,-0.056046,0.043243,1.001083,0.004702,-0.024332,-0.006067,61.21701,28.26709,-146.607635,,,
729707105.371254,2.685884,2.511893,-22.086807,-0.051895,0.043854,1.004807,0.004702,-0.024332,-0.006067,61.21701,28.26709,-146.607635,,,
729707105.37273,2.685894,2.511927,121.823373,-0.051895,0.043854,1.004807,0.004702,-0.024332,-0.006067,61.21701,28.26709,-146.607635,,,
729707105.373475,2.685884,2.511893,-22.086807,-0.051895,0.043854,1.004807,0.004702,-0.024332,-0.006067,61.21701,28.26709,-146.607635,,,
729707105.376007,2.689027,2.501003,121.820379,-0.051895,0.043854,1.004807,0.009583,-0.035376,-0.013373,61.21701,28.26709,-146.607635,,,
729707105.377598,2.689017,2.50097,-22.089807,-0.051895,0.043854,1.004807,0.009583,-0.035376,-0.013373,61.21701,28.26709,-146.607635,,,
729707105.37933,2.689027,2.501003,121.820379,-0.051895,0.043854,1.004807,0.009583,-0.035376,-0.013373,61.21701,28.26709,-146.607635,,,
729707105.380694,2.691334,2.490313,-22.093974,-0.045547,0.043549,1.008423,0.009583,-0.035376,-0.013373,61.21701,28.26709,-146.607635,,,
729707105.382762,2.691344,2.490346,121.816209,-0.045547,0.043549,1.008423,0.009583,-0.035376,-0.013373,61.21701,28.26709,-146.607635,,,
729707105.383475,2.691334,2.490313,-22.093974,-0.045547,0.043549,1.008423,0.009583,-0.035376,-0.013373,61.21701,28.26709,-146.607635,,,
729707105.386007,2.694224,2.479423,121.811008,-0.045547,0.043549,1.008423,0.011117,-0.030668,-0.020817,61.21701,28.26709,-146.607635,,,
729707105.387906,2.694214,2.47939,-22.099177,-0.045547,0.043549,1.008423,0.011117,-0.030668,-0.020817,61.21701,28.26709,-146.607635,,,
729707105.389373,2.694224,2.471221,121.805704,-0.045547,0.043549,1.008423,0.011117,-0.030668,-0.020817,61.21701,28.26709,-146.607635,,,
729707105.391007,2.697409,2.471187,-22.104482,-0.040955,0.040451,1.007736,0.011117,-0.030668,-0.020817,61.21701,28.26709,-146.607635,,,
729707105.392667,2.697419,2.471221,121.805704,-0.040955,0.040451,1.007736,0.011117,-0.030668,-0.020817,61.21701,28.26709,-146.607635,,,
729707105.393476,2.697409,2.471187,-22.104482,-0.040955,0.040451,1.007736,0.011117,-0.030668,-0.020817,61.21701,28.26709,-146.607635,,,
729707105.395997,2.700188,2.465123,121.800557,-0.040955,0.040451,1.007736,0.013471,-0.016297,-0.019483,61.21701,28.26709,-146.607635,,,
729707105.397669,2.700178,2.46509,-22.109613,-0.040955,0.040451,1.007736,0.013471,-0.016297,-0.019483,61.174271,28.266388,-146.835068,,,
729707105.399359,2.700188,2.465123,121.800557,-0.040955,0.040451,1.007736,0.013471,-0.016297,-0.019483,61.174271,28.266388,-146.835068,,,
729707105.400703,2.703483,2.461347,-22.114783,-0.03775,0.041626,1.004364,0.013471,-0.016297,-0.019483,61.174271,28.266388,-146.835068,,,
729707105.402688,2.703493,2.46138,121.795388,-0.03775,0.041626,1.004364,0.013471,-0.016297,-0.019483,61.174271,28.266388,-146.835068,,,
729707105.403475,2.703483,2.461347,-22.114783,-0.03775,0.041626,1.004364,0.013471,-0.016297,-0.019483,61.174271,28.266388,-146.835068,,,
729707105.405995,2.705159,2.461136,121.791249,-0.03775,0.041626,1.004364,0.011041,0.001239,-0.012055,61.174271,28.266388,-146.835068,,,
729707105.408748,2.70515,2.461103,-22.118916,-0.03775,0.041626,1.004364,0.011041,0.001239,-0.012055,61.174271,28.266388,-146.835068,,,
729707105.409393,2.705159,2.461136,121.78792,-0.03775,0.041626,1.004364,0.011041,0.001239,-0.012055,61.174271,28.266388,-146.835068,,,
729707105.410158,2.707884,2.462424,-22.12225,-0.035522,0.044891,1.002838,0.011041,0.001239,-0.012055,61.174271,28.266388,-146.835068,,,
729707105.412685,2.707893,2.462457,121.78792,-0.035522,0.044891,1.002838,0.011041,0.001239,-0.012055,61.174271,28.266388,-146.835068,,,
729707105.413472,2.707884,2.462424,-22.12225,-0.035522,0.044891,1.002838,0.011041,0.001239,-0.012055,61.174271,28.266388,-146.835068,,,
729707105.415996,2.708045,2.468446,121.784183,-0.035522,0.044891,1.002838,0.008696,0.020242,-0.014388,61.174271,28.266388,-146.835068,,,
729707105.417638,2.708035,2.468413,-22.125993,-0.035522,0.044891,1.002838,0.008696,0.020242,-0.014388,61.174271,28.266388,-146.835068,,,
729707105.419412,2.708045,2.468446,121.784183,-0.035522,0.044891,1.002838,0.008696,0.020242,-0.014388,61.174271,28.266388,-146.835068,,,
729707105.420612,2.710358,2.473484,-22.129147,-0.034363,0.048065,0.998566,0.008696,0.020242,-0.014388,61.174271,28.266388,-146.835068,,,
729707105.422684,2.710368,2.473517,121.781034,-0.034363,0.048065,0.998566,0.008696,0.020242,-0.014388,61.174271,28.266388,-146.835068,,,
729707105.423471,2.710358,2.473484,-22.129147,-0.034363,0.048065,0.998566,0.008696,0.020242,-0.014388,61.174271,28.266388,-146.835068,,,
729707105.425992,2.710532,2.481636,121.778354,-0.034363,0.048065,0.998566,0.006854,0.020636,-0.010195,61.174271,28.266388,-146.835068,,,
729707105.427162,2.710522,2.481603,-22.131825,-0.034363,0.048065,0.998566,0.006854,0.020636,-0.010195,61.174271,28.266388,-146.835068,,,
729707105.429358,2.710532,2.481636,121.778354,-0.034363,0.048065,0.998566,0.006854,0.020636,-0.010195,61.174271,28.266388,-146.835068,,,
729707105.431079,2.712275,2.486803,-22.135447,-0.035751,0.047089,0.99292,0.006854,0.020636,-0.010195,61.174271,28.266388,-146.835068,,,
729707105.432759,2.712285,2.486836,121.774735,-0.035751,0.047089,0.99292,0.006854,0.020636,-0.010195,61.174271,28.266388,-146.835068,,,
729707105.43348,2.712275,2.486803,-22.135447,-0.035751,0.047089,0.99292,0.006854,0.020636,-0.010195,61.174271,28.266388,-146.835068,,,
729707105.436017,2.712893,2.494411,121.769601,-0.035751,0.047089,0.99292,0.007551,0.016341,-0.019759,61.174271,28.266388,-146.835068,,,
729707105.437131,2.712883,2.494378,-22.140584,-0.035751,0.047089,0.99292,0.007551,0.016341,-0.019759,61.174271,28.266388,-146.835068,,,
729707105.439364,2.712893,2.494411,121.769601,-0.035751,0.047089,0.99292,0.007551,0.016341,-0.019759,61.455292,28.081177,-146.849869,,,
729707105.441648,2.71593,2.498123,-22.145899,-0.036819,0.048019,0.991714,0.007551,0.016341,-0.019759,61.455292,28.081177,-146.849869,,,
729707105.442684,2.71594,2.498156,121.764286,-0.036819,0.048019,0.991714,0.007551,0.016341,-0.019759,61.455292,28.081177,-146.849869,,,
729707105.443567,2.71593,2.498123,-22.145899,-0.036819,0.048019,0.991714,0.007551,0.016341,-0.019759,61.455292,28.081177,-146.849869,,,
729707105.445989,2.719446,2.503667,121.758433,-0.036819,0.048019,0.991714,0.015269,0.011975,-0.022407,61.455292,28.081177,-146.849869,,,
729707105.447328,2.719436,2.503634,-22.151753,-0.036819,0.048019,0.991714,0.015269,0.011975,-0.022407,61.455292,28.081177,-146.849869,,,
729707105.449358,2.719446,2.503667,121.758433,-0.036819,0.048019,0.991714,0.015269,0.011975,-0.022407,61.455292,28.081177,-146.849869,,,
729707105.450695,2.724903,2.506416,-22.157989,-0.037537,0.048233,0.987473,0.015269,0.011975,-0.022407,61.455292,28.081177,-146.849869,,,
729707105.452681,2.724913,2.506449,121.752198,-0.037537,0.048233,0.987473,0.015269,0.011975,-0.022407,61.455292,28.081177,-146.849869,,,
729707105.453476,2.724903,2.506416,-22.157989,-0.037537,0.048233,0.987473,0.015269,0.011975,-0.022407,61.455292,28.081177,-146.849869,,,
729707105.45599,2.731503,2.510201,121.745441,-0.037537,0.048233,0.987473,0.028342,0.011377,-0.025119,61.455292,28.081177,-146.849869,,,
729707105.457697,2.731493,2.510168,-22.164743,-0.037537,0.048233,0.987473,0.028342,0.011377,-0.025119,61.455292,28.081177,-146.849869,,,
729707105.459332,2.731503,2.510201,121.745441,-0.037537,0.048233,0.987473,0.028342,0.011377,-0.025119,61.455292,28.081177,-146.849869,,,
729707105.460686,2.738588,2.513121,-22.172127,-0.037491,0.04837,0.987,0.028342,0.011377,-0.025119,61.455292,28.081177,-146.849869,,,
729707105.462664,2.738597,2.513154,121.738057,-0.037491,0.04837,0.987,0.028342,0.011377,-0.025119,61.455292,28.081177,-146.849869,,,
729707105.463473,2.738588,2.513121,-22.172127,-0.037491,0.04837,0.987,0.028342,0.011377,-0.025119,61.455292,28.081177,-146.849869,,,
729707105.466013,2.743706,2.517213,121.730733,-0.037491,0.04837,0.987,0.023001,0.021094,-0.025034,61.455292,28.081177,-146.849869,,,
729707105.467755,2.743697,2.51718,-22.17945,-0.037491,0.04837,0.987,0.023001,0.021094,-0.025034,61.455292,28.081177,-146.849869,,,
729707105.469335,2.743706,2.517213,121.730733,-0.037491,0.04837,0.987,0.023001,0.021094,-0.025034,61.455292,28.081177,-146.849869,,,
729707105.470899,2.748877,2.523691,-22.185747,-0.041748,0.048508,0.983032,0.023001,0.021094,-0.025034,61.455292,28.081177,-146.849869,,,
729707105.472663,2.748887,2.523724,121.724422,-0.041748,0.048508,0.983032,0.023001,0.021094,-0.025034,61.455292,28.081177,-146.849869,,,
729707105.473476,2.748877,2.523691,-22.185747,-0.041748,0.048508,0.983032,0.023001,0.021094,-0.025034,61.455292,28.081177,-146.849869,,,
729707105.475999,2.750695,2.530842,121.719215,-0.041748,0.048508,0.983032,0.00922,0.032635,-0.018427,61.455292,28.081177,-146.849869,,,
729707105.477794,2.750685,2.530808,-22.190956,-0.041748,0.048508,0.983032,0.00922,0.032635,-0.018427,61.455292,28.081177,-146.849869,,,
729707105.479328,2.750695,2.530842,121.719215,-0.041748,0.048508,0.983032,0.00922,0.032635,-0.018427,61.332199,28.115875,-147.027527,,,
729707105.481469,2.751627,2.5404,-22.195413,-0.045364,0.049911,0.97728,0.00922,0.032635,-0.018427,61.332199,28.115875,-147.027527,,,
729707105.482728,2.751637,2.540434,121.714754,-0.045364,0.049911,0.97728,0.00922,0.032635,-0.018427,61.332199,28.115875,-147.027527,,,
729707105.483469,2.751627,2.5404,-22.195413,-0.045364,0.049911,0.97728,0.00922,0.032635,-0.018427,61.332199,28.115875,-147.027527,,,
729707105.486006,2.749326,2.549185,121.711289,-0.045364,0.049911,0.97728,-0.007225,0.039808,-0.012856,61.332199,28.115875,-147.027527,,,
729707105.488808,2.749316,2.549152,-22.198883,-0.045364,0.049911,0.97728,-0.007225,0.039808,-0.012856,61.332199,28.115875,-147.027527,,,
729707105.489358,2.749326,2.549185,121.711289,-0.045364,0.049911,0.97728,-0.007225,0.039808,-0.012856,61.332199,28.115875,-147.027527,,,
729707105.49115,2.745455,2.560078,-22.202321,-0.044006,0.05542,0.973267,-0.007225,0.039808,-0.012856,61.332199,28.115875,-147.027527,,,
729707105.492694,2.745465,2.560111,121.707856,-0.044006,0.05542,0.973267,-0.007225,0.039808,-0.012856,61.332199,28.115875,-147.027527,,,
729707105.493508,2.745455,2.560078,-22.202321,-0.044006,0.05542,0.973267,-0.007225,0.039808,-0.012856,61.332199,28.115875,-147.027527,,,
729707105.496001,2.738313,2.568659,121.70452,-0.044006,0.05542,0.973267,-0.028486,0.039534,-0.013913,61.332199,28.115875,-147.027527,,,
729707105.497864,2.738304,2.568626,-22.205663,-0.044006,0.05542,0.973267,-0.028486,0.039534,-0.013913,61.332199,28.115875,-147.027527,,,
729707105.499342,2.738313,2.568659,121.70452,-0.044006,0.05542,0.973267,-0.028486,0.039534,-0.013913,61.332199,28.115875,-147.027527,,,
729707105.500966,2.728784,2.579154,-22.209324,-0.048538,0.058868,0.969864,-0.028486,0.039534,-0.013913,61.332199,28.115875,-147.027527,,,
729707105.502672,2.728794,2.579187,121.700861,-0.048538,0.058868,0.969864,-0.028486,0.039534,-0.013913,61.332199,28.115875,-147.027527,,,
729707105.50348,2.728784,2.579154,-22.209324,-0.048538,0.058868,0.969864,-0.028486,0.039534,-0.013913,61.332199,28.115875,-147.027527,,,
729707105.506033,2.717721,2.585974,121.696228,-0.048538,0.058868,0.969864,-0.039137,0.028794,-0.021931,61.332199,28.115875,-147.027527,,,
729707105.50805,2.717711,2.58594,-22.213953,-0.048538,0.058868,0.969864,-0.039137,0.028794,-0.021931,61.332199,28.115875,-147.027527,,,
729707105.509354,2.717721,2.585974,121.696228,-0.048538,0.058868,0.969864,-0.039137,0.028794,-0.021931,61.332199,28.115875,-147.027527,,,
729707105.51087,2.70613,2.592031,-22.219089,-0.048294,0.056122,0.975082,-0.039137,0.028794,-0.021931,61.332199,28.115875,-147.027527,,,
729707105.512679,2.70614,2.592065,121.691088,-0.048294,0.056122,0.975082,-0.039137,0.028794,-0.021931,61.332199,28.115875,-147.027527,,,
729707105.513473,2.70613,2.592031,-22.219089,-0.048294,0.056122,0.975082,-0.039137,0.028794,-0.021931,61.332199,28.115875,-147.027527,,,
729707105.515999,2.694496,2.592198,121.686941,-0.048294,0.056122,0.975082,-0.040321,0.000734,-0.015726,61.332199,28.115875,-147.027527,,,
729707105.517385,2.694486,2.592165,-22.223245,-0.048294,0.056122,0.975082,-0.040321,0.000734,-0.015726,61.332199,28.115875,-147.027527,,,
729707105.519441,2.694496,2.592198,121.686941,-0.048294,0.056122,0.975082,-0.040321,0.000734,-0.015726,61.332199,28.115875,-147.027527,,,
729707105.521433,2.682563,2.589628,-22.226869,-0.05307,0.046036,0.980057,-0.040321,0.000734,-0.015726,61.511093,28.117874,-146.847809,,,
729707105.522696,2.682573,2.589662,121.683315,-0.05307,0.046036,0.980057,-0.040321,0.000734,-0.015726,61.511093,28.117874,-146.847809,,,
729707105.523489,2.682563,2.589628,-22.226869,-0.05307,0.046036,0.980057,-0.040321,0.000734,-0.015726,61.511093,28.117874,-146.847809,,,
729707105.525992,2.671203,2.581097,121.679657,-0.05307,0.046036,0.980057,-0.037735,-0.028724,-0.016418,61.511093,28.117874,-146.847809,,,
729707105.528649,2.671193,2.581064,-22.23053,-0.05307,0.046036,0.980057,-0.037735,-0.028724,-0.016418,61.511093,28.117874,-146.847809,,,
729707105.529361,2.671203,2.581097,121.679657,-0.05307,0.046036,0.980057,-0.037735,-0.028724,-0.016418,61.511093,28.117874,-146.847809,,,
729707105.531242,2.660239,2.571073,-22.234746,-0.051895,0.040512,0.990723,-0.037735,-0.028724,-0.016418,61.511093,28.117874,-146.847809,,,
729707105.532748,2.660248,2.571106,121.675427,-0.051895,0.040512,0.990723,-0.037735,-0.028724,-0.016418,61.511093,28.117874,-146.847809,,,
729707105.533469,2.660239,2.571073,-22.234746,-0.051895,0.040512,0.990723,-0.037735,-0.028724,-0.016418,61.511093,28.117874,-146.847809,,,
729707105.536004,2.650926,2.558322,121.670794,-0.051895,0.040512,0.990723,-0.030773,-0.038147,-0.019426,61.511093,28.117874,-146.847809,,,
729707105.538104,2.650916,2.558289,-22.239378,-0.051895,0.040512,0.990723,-0.030773,-0.038147,-0.019426,61.511093,28.117874,-146.847809,,,
729707105.539328,2.650926,2.558322,121.670794,-0.051895,0.040512,0.990723,-0.030773,-0.038147,-0.019426,61.511093,28.117874,-146.847809,,,
729707105.541192,2.642225,2.547377,-22.24475,-0.044968,0.043716,1.005402,-0.030773,-0.038147,-0.019426,61.511093,28.117874,-146.847809,,,
729707105.542684,2.642235,2.547411,121.665425,-0.044968,0.043716,1.005402,-0.030773,-0.038147,-0.019426,61.511093,28.117874,-146.847809,,,
729707105.543473,2.642225,2.547377,-22.24475,-0.044968,0.043716,1.005402,-0.030773,-0.038147,-0.019426,61.511093,28.117874,-146.847809,,,
729707105.54601,2.6348,2.537858,121.659423,-0.044968,0.043716,1.005402,-0.025395,-0.019753,-0.024007,61.511093,28.117874,-146.847809,,,
729707105.547838,2.63479,2.537825,-22.250749,-0.044968,0.043716,1.005402,-0.025395,-0.019753,-0.024007,61.511093,28.117874,-146.847809,,,
729707105.549329,2.6348,2.537858,121.659423,-0.044968,0.043716,1.005402,-0.025395,-0.019753,-0.024007,61.511093,28.117874,-146.847809,,,
729707105.550895,2.627958,2.53366,-22.257012,-0.040833,0.044525,1.016953,-0.025395,-0.019753,-0.024007,61.511093,28.117874,-146.847809,,,
729707105.552703,2.627968,2.533693,121.653159,-0.040833,0.044525,1.016953,-0.025395,-0.019753,-0.024007,61.511093,28.117874,-146.847809,,,
729707105.553473,2.627958,2.53366,-22.257012,-0.040833,0.044525,1.016953,-0.025395,-0.019753,-0.024007,61.511093,28.117874,-146.847809,,,
729707105.556001,2.623226,2.533711,121.646422,-0.040833,0.044525,1.016953,-0.01592,0.007313,-0.02679,61.511093,28.117874,-146.847809,,,
729707105.55871,2.623216,2.533678,-22.263751,-0.040833,0.044525,1.016953,-0.01592,0.007313,-0.02679,61.511093,28.117874,-146.847809,,,
729707105.559349,2.623226,2.533711,121.646422,-0.040833,0.044525,1.016953,-0.01592,0.007313,-0.02679,61.511093,28.117874,-146.847809,,,
729707105.561502,2.618829,2.536893,-22.270223,-0.03569,0.042282,1.017136,-0.01592,0.007313,-0.02679,61.204727,28.208755,-146.758224,,,
729707105.562677,2.618839,2.536926,121.639948,-0.03569,0.042282,1.017136,-0.01592,0.007313,-0.02679,61.204727,28.208755,-146.758224,,,
729707105.563487,2.618829,2.536893,-22.270223,-0.03569,0.042282,1.017136,-0.01592,0.007313,-0.02679,61.204727,28.208755,-146.758224,,,
729707105.565991,2.617075,2.543471,121.634657,-0.03569,0.042282,1.017136,-0.008199,0.029674,-0.018148,61.204727,28.208755,-146.758224,,,
729707105.567673,2.617065,2.543438,-22.275515,-0.03569,0.042282,1.017136,-0.008199,0.029674,-0.018148,61.204727,28.208755,-146.758224,,,
729707105.56938,2.617075,2.543471,121.634657,-0.03569,0.042282,1.017136,-0.008199,0.029674,-0.018148,61.204727,28.208755,-146.758224,,,
729707105.570989,2.614397,2.553084,-22.279757,-0.038147,0.04277,1.013382,-0.008199,0.029674,-0.018148,61.204727,28.208755,-146.758224,,,
729707105.572684,2.614407,2.553118,121.630411,-0.038147,0.04277,1.013382,-0.008199,0.029674,-0.018148,61.204727,28.208755,-146.758224,,,
729707105.573473,2.614397,2.553084,-22.279757,-0.038147,0.04277,1.013382,-0.008199,0.029674,-0.018148,61.204727,28.208755,-146.758224,,,
729707105.575999,2.614578,2.565454,121.62711,-0.038147,0.04277,1.013382,-0.006279,0.044108,-0.011232,61.204727,28.208755,-146.758224,,,
729707105.577559,2.614568,2.56542,-22.283058,-0.038147,0.04277,1.013382,-0.006279,0.044108,-0.011232,61.204727,28.208755,-146.758224,,,
729707105.579331,2.614578,2.565454,121.62711,-0.038147,0.04277,1.013382,-0.006279,0.044108,-0.011232,61.204727,28.208755,-146.758224,,,
729707105.580705,2.612468,2.577923,-22.285494,-0.041641,0.042709,1.010025,-0.006279,0.044108,-0.011232,61.204727,28.208755,-146.758224,,,
729707105.582728,2.612478,2.577957,121.624674,-0.041641,0.042709,1.010025,-0.006279,0.044108,-0.011232,61.204727,28.208755,-146.758224,,,
729707105.583465,2.612468,2.577923,-22.285494,-0.041641,0.042709,1.010025,-0.006279,0.044108,-0.011232,61.204727,28.208755,-146.758224,,,
729707105.586016,2.61364,2.591254,121.622535,-0.041641,0.042709,1.010025,-0.002631,0.043466,-0.00877,61.204727,28.208755,-146.758224,,,
729707105.587407,2.613631,2.591221,-22.287641,-0.041641,0.042709,1.010025,-0.002631,0.043466,-0.00877,61.204727,28.208755,-146.758224,,,
729707105.589332,2.61364,2.591254,121.622535,-0.041641,0.042709,1.010025,-0.002631,0.043466,-0.00877,61.204727,28.208755,-146.758224,,,
729707105.590482,2.613243,2.602479,-22.290103,-0.043106,0.042114,1.009918,-0.002631,0.043466,-0.00877,61.204727,28.208755,-146.758224,,,
729707105.592664,2.613253,2.602512,121.620072,-0.043106,0.042114,1.009918,-0.002631,0.043466,-0.00877,61.204727,28.208755,-146.758224,,,
729707105.593477,2.613243,2.602479,-22.290103,-0.043106,0.042114,1.009918,-0.002631,0.043466,-0.00877,61.204727,28.208755,-146.758224,,,
729707105.595991,2.615777,2.613436,121.616647,-0.043106,0.042114,1.009918,0.008967,0.031285,-0.014479,61.204727,28.208755,-146.758224,,,
729707105.598815,2.615767,2.613403,-22.293528,-0.043106,0.042114,1.009918,0.008967,0.031285,-0.014479,61.204727,28.208755,-146.758224,,,
729707105.599353,2.615777,2.613436,121.616647,-0.043106,0.042114,1.009918,0.008967,0.031285,-0.014479,61.204727,28.208755,-146.758224,,,
729707105.600952,2.618244,2.621367,-22.298023,-0.046402,0.042419,1.008255,0.008967,0.031285,-0.014479,61.204727,28.208755,-146.758224,,,
729707105.6027,2.618254,2.621401,121.612153,-0.046402,0.042419,1.008255,0.008967,0.031285,-0.014479,61.207123,28.223572,-146.944794,,,
729707105.604247,2.618244,2.621367,-22.298023,-0.046402,0.042419,1.008255,0.008967,0.031285,-0.014479,61.207123,28.223572,-146.944794,,,
729707105.606114,2.621422,2.630543,121.606595,-0.046402,0.042419,1.008255,0.017192,0.023354,-0.020796,61.207123,28.223572,-146.944794,,,
729707105.607843,2.621413,2.63051,-22.303576,-0.046402,0.042419,1.008255,0.017192,0.023354,-0.020796,61.207123,28.223572,-146.944794,,,
729707105.609368,2.621422,2.630543,121.606595,-0.046402,0.042419,1.008255,0.017192,0.023354,-0.020796,61.207123,28.223572,-146.944794,,,
729707105.610998,2.626383,2.636202,-22.309267,-0.049194,0.042648,1.006851,0.017192,0.023354,-0.020796,61.207123,28.223572,-146.944794,,,
729707105.612745,2.626393,2.636235,121.600899,-0.049194,0.042648,1.006851,0.017192,0.023354,-0.020796,61.207123,28.223572,-146.944794,,,
729707105.613533,2.626383,2.636202,-22.309267,-0.049194,0.042648,1.006851,0.017192,0.023354,-0.020796,61.207123,28.223572,-146.944794,,,
729707105.615998,2.631341,2.641561,121.595142,-0.049194,0.042648,1.006851,0.022464,0.018379,-0.020876,61.207123,28.223572,-146.944794,,,
729707105.617088,2.631331,2.641528,-22.315024,-0.049194,0.042648,1.006851,0.022464,0.018379,-0.020876,61.207123,28.223572,-146.944794,,,
729707105.619389,2.631341,2.641561,121.595142,-0.049194,0.042648,1.006851,0.022464,0.018379,-0.020876,61.207123,28.223572,-146.944794,,,
729707105.621032,2.637191,2.645373,-22.320382,-0.050873,0.042847,1.003098,0.022464,0.018379,-0.020876,61.207123,28.223572,-146.944794,,,
729707105.622683,2.637201,2.645406,121.589783,-0.050873,0.042847,1.003098,0.022464,0.018379,-0.020876,61.207123,28.223572,-146.944794,,,
729707105.623481,2.637191,2.645373,-22.320382,-0.050873,0.042847,1.003098,0.022464,0.018379,-0.020876,61.207123,28.223572,-146.944794,,,
729707105.626,2.642256,2.647435,121.585647,-0.050873,0.042847,1.003098,0.019292,0.011607,-0.012846,61.207123,28.223572,-146.944794,,,
729707105.627261,2.642247,2.647402,-22.324535,-0.050873,0.042847,1.003098,0.019292,0.011607,-0.012846,61.207123,28.223572,-146.944794,,,
729707105.629331,2.642256,2.647435,121.585647,-0.050873,0.042847,1.003098,0.019292,0.011607,-0.012846,61.207123,28.223572,-146.944794,,,
729707105.630706,2.646799,2.649314,-22.327498,-0.047409,0.044449,0.995056,0.019292,0.011607,-0.012846,61.207123,28.223572,-146.944794,,,
729707105.632752,2.646808,2.649347,121.582691,-0.047409,0.044449,0.995056,0.019292,0.011607,-0.012846,61.207123,28.223572,-146.944794,,,
729707105.633471,2.646799,2.649314,-22.327498,-0.047409,0.044449,0.995056,0.019292,0.011607,-0.012846,61.207123,28.223572,-146.944794,,,
729707105.636,2.649853,2.647888,121.580532,-0.047409,0.044449,0.995056,0.013218,0.002367,-0.008187,61.207123,28.223572,-146.944794,,,
729707105.637294,2.649843,2.647854,-22.329651,-0.047409,0.044449,0.995056,0.013218,0.002367,-0.008187,61.207123,28.223572,-146.944794,,,
729707105.639369,2.649853,2.647888,121.580532,-0.047409,0.044449,0.995056,0.013218,0.002367,-0.008187,61.207123,28.223572,-146.944794,,,
729707105.640591,2.652449,2.647188,-22.33124,-0.044662,0.049545,0.997635,0.013218,0.002367,-0.008187,61.207123,28.223572,-146.944794,,,
729707105.64267,2.652459,2.647221,121.578945,-0.044662,0.049545,0.997635,0.013218,0.002367,-0.008187,61.37468,28.304886,-146.648544,,,
729707105.644176,2.652449,2.647188,-22.33124,-0.044662,0.049545,0.997635,0.013218,0.002367,-0.008187,61.37468,28.304886,-146.648544,,,
729707105.645995,2.652422,2.643067,121.57746,-0.044662,0.049545,0.997635,0.000771,-0.0044,-0.008828,61.37468,28.304886,-146.648544,,,
729707105.6486,2.652412,2.643034,-22.33271,-0.044662,0.049545,0.997635,0.000771,-0.0044,-0.008828,61.37468,28.304886,-146.648544,,,
729707105.64938,2.652422,2.643067,121.57746,-0.044662,0.049545,0.997635,0.000771,-0.0044,-0.008828,61.37468,28.304886,-146.648544,,,
729707105.650652,2.652721,2.640974,-22.335286,-0.040283,0.05336,0.994888,0.000771,-0.0044,-0.008828,61.37468,28.304886,-146.648544,,,
729707105.652687,2.652731,2.641007,121.574887,-0.040283,0.05336,0.994888,0.000771,-0.0044,-0.008828,61.37468,28.304886,-146.648544,,,
729707105.653482,2.652721,2.640974,-22.335286,-0.040283,0.05336,0.994888,0.000771,-0.0044,-0.008828,61.37468,28.304886,-146.648544,,,
729707105.655992,2.652474,2.637316,121.570849,-0.040283,0.05336,0.994888,0.001512,-0.007309,-0.01943,61.37468,28.304886,-146.648544,,,
729707105.65729,2.652465,2.637283,-22.33933,-0.040283,0.05336,0.994888,0.001512,-0.007309,-0.01943,61.37468,28.304886,-146.648544,,,
729707105.659412,2.652474,2.637316,121.570849,-0.040283,0.05336,0.994888,0.001512,-0.007309,-0.01943,61.37468,28.304886,-146.648544,,,
729707105.660791,2.652735,2.63486,-22.344943,-0.038223,0.051926,1.000198,0.001512,-0.007309,-0.01943,61.37468,28.304886,-146.648544,,,
729707105.662681,2.652745,2.634893,121.565239,-0.038223,0.051926,1.000198,0.001512,-0.007309,-0.01943,61.37468,28.304886,-146.648544,,,
729707105.663476,2.652735,2.63486,-22.344943,-0.038223,0.051926,1.000198,0.001512,-0.007309,-0.01943,61.37468,28.304886,-146.648544,,,
729707105.665998,2.652416,2.631976,121.559302,-0.038223,0.051926,1.000198,0.004341,-0.004335,-0.021872,61.37468,28.304886,-146.648544,,,
729707105.667284,2.652406,2.631943,-22.350881,-0.038223,0.051926,1.000198,0.004341,-0.004335,-0.021872,61.37468,28.304886,-146.648544,,,
729707105.669352,2.652416,2.631976,121.559302,-0.038223,0.051926,1.000198,0.004341,-0.004335,-0.021872,61.37468,28.304886,-146.648544,,,
729707105.670399,2.653118,2.629893,-22.357521,-0.041061,0.048477,1.000839,0.004341,-0.004335,-0.021872,61.37468,28.304886,-146.648544,,,
729707105.672735,2.653128,2.629926,121.552663,-0.041061,0.048477,1.000839,0.004341,-0.004335,-0.021872,61.37468,28.304886,-146.648544,,,
729707105.673468,2.653118,2.629893,-22.357521,-0.041061,0.048477,1.000839,0.004341,-0.004335,-0.021872,61.37468,28.304886,-146.648544,,,
729707105.675991,2.653117,2.62761,121.545465,-0.041061,0.048477,1.000839,0.005149,-0.003425,-0.025809,61.37468,28.304886,-146.648544,,,
729707105.677259,2.653107,2.627577,-22.364718,-0.041061,0.048477,1.000839,0.005149,-0.003425,-0.025809,61.37468,28.304886,-146.648544,,,
729707105.679331,2.653117,2.62761,121.545465,-0.041061,0.048477,1.000839,0.005149,-0.003425,-0.025809,61.37468,28.304886,-146.648544,,,
729707105.680389,2.654499,2.625794,-22.371069,-0.041031,0.046036,0.999786,0.005149,-0.003425,-0.025809,61.37468,28.304886,-146.648544,,,
729707105.682681,2.654508,2.625827,121.539115,-0.041031,0.046036,0.999786,0.005149,-0.003425,-0.025809,61.37468,28.304886,-146.648544,,,
729707105.684123,2.654499,2.625794,-22.371069,-0.041031,0.046036,0.999786,0.005149,-0.003425,-0.025809,61.134872,28.205765,-146.671997,,,
729707105.686008,2.655581,2.62434,121.533741,-0.041031,0.046036,0.999786,0.008232,-0.004019,-0.018793,61.134872,28.205765,-146.671997,,,
