Time (sec),Pitch (deg),Roll (deg),Yaw(deg),X-Acceleration (g),Y-Acceleration (g),Z-Acceleration (g),Pitch Rate (deg/sec),Roll Rate (deg/sec),Yaw Rate (deg/sec),Magnetic Field in X direction (uT),Magnetic Field in Y direction (uT),Magnetic Field in Z Direction (uT),Latitude (deg),Longitude (deg),Altitude (m)
729716234.704207,-61.993704,-7.610482,-88.702131,0.053757,-0.884064,0.490906,-0.187005,0.036969,0.010401,63.0569,65.319519,-130.289902,,,
729716234.706385,-61.993731,-7.610479,-91.779019,0.053757,-0.884064,0.490906,-0.187005,0.036969,0.010401,63.0569,65.319519,-130.289902,,,
729716234.706596,-61.993704,-7.610482,-88.702131,0.053757,-0.884064,0.490906,-0.187005,0.036969,0.010401,63.0569,65.319519,-130.289902,,,
729716234.710719,-62.047334,-7.606578,-91.786032,0.059418,-0.879257,0.480652,-0.187005,0.036969,0.010401,63.0569,65.319519,-130.289902,,,
729716234.710949,-62.047307,-7.606582,-88.709144,0.059418,-0.879257,0.480652,-0.187005,0.036969,0.010401,63.0569,65.319519,-130.289902,,,
729716234.714022,-62.103813,-7.602101,-91.792686,0.059418,-0.879257,0.480652,-0.205053,0.036482,0.015657,63.0569,65.319519,-130.289902,,,
729716234.714243,-62.103785,-7.602105,-88.715798,0.059418,-0.879257,0.480652,-0.205053,0.036482,0.015657,63.0569,65.319519,-130.289902,,,
729716234.716332,-62.103813,-7.602101,-91.792686,0.059418,-0.879257,0.480652,-0.205053,0.036482,0.015657,63.0569,65.319519,-130.289902,,,
729716234.716585,-62.103785,-7.602105,-88.715798,0.059418,-0.879257,0.480652,-0.205053,0.036482,0.015657,63.0569,65.319519,-130.289902,,,
729716234.721136,-62.162462,-7.597835,-91.799035,0.056824,-0.878098,0.468063,-0.205053,0.036482,0.015657,63.125565,65.463821,-129.774521,,,
729716234.721381,-62.162435,-7.597839,-88.722147,0.056824,-0.878098,0.468063,-0.205053,0.036482,0.015657,63.125565,65.463821,-129.774521,,,
729716234.723876,-62.223233,-7.595509,-91.805516,0.056824,-0.878098,0.468063,-0.221383,0.020673,0.017662,63.125565,65.463821,-129.774521,,,
729716234.724095,-62.223205,-7.595512,-88.728627,0.056824,-0.878098,0.468063,-0.221383,0.020673,0.017662,63.125565,65.463821,-129.774521,,,
729716234.726376,-62.223233,-7.595509,-91.805516,0.056824,-0.878098,0.468063,-0.221383,0.020673,0.017662,63.125565,65.463821,-129.774521,,,
729716234.726575,-62.223205,-7.595512,-88.728627,0.056824,-0.878098,0.468063,-0.221383,0.020673,0.017662,63.125565,65.463821,-129.774521,,,
729716234.730536,-62.286826,-7.596602,-91.812489,0.054321,-0.879623,0.461441,-0.221383,0.020673,0.017662,63.125565,65.463821,-129.774521,,,
729716234.730753,-62.286798,-7.596606,-88.735601,0.054321,-0.879623,0.461441,-0.221383,0.020673,0.017662,63.125565,65.463821,-129.774521,,,
729716234.733946,-62.352783,-7.601076,-91.820515,0.054321,-0.879623,0.461441,-0.231261,0.010507,0.016803,63.125565,65.463821,-129.774521,,,
729716234.734166,-62.352756,-7.60108,-88.743627,0.054321,-0.879623,0.461441,-0.231261,0.010507,0.016803,63.125565,65.463821,-129.774521,,,
729716234.736397,-62.352783,-7.601076,-91.820515,0.054321,-0.879623,0.461441,-0.231261,0.010507,0.016803,63.125565,65.463821,-129.774521,,,
729716234.736589,-62.352756,-7.60108,-88.743627,0.054321,-0.879623,0.461441,-0.231261,0.010507,0.016803,63.125565,65.463821,-129.774521,,,
729716234.740822,-62.420103,-7.607007,-91.829865,0.056641,-0.881317,0.456268,-0.231261,0.010507,0.016803,63.125565,65.463821,-129.774521,,,
729716234.74104,-62.420075,-7.607011,-88.752977,0.056641,-0.881317,0.456268,-0.231261,0.010507,0.016803,63.125565,65.463821,-129.774521,,,
729716234.744122,-62.48832,-7.61205,-91.839844,0.056641,-0.881317,0.456268,-0.239166,0.027613,0.010281,63.125565,65.463821,-129.774521,,,
729716234.744364,-62.488292,-7.612053,-88.762955,0.056641,-0.881317,0.456268,-0.239166,0.027613,0.010281,63.125565,65.463821,-129.774521,,,
729716234.746299,-62.48832,-7.61205,-91.839844,0.056641,-0.881317,0.456268,-0.239166,0.027613,0.010281,63.125565,65.463821,-129.774521,,,
729716234.746516,-62.488292,-7.612053,-88.762955,0.056641,-0.881317,0.456268,-0.239166,0.027613,0.010281,63.125565,65.463821,-129.774521,,,
729716234.750821,-62.556915,-7.615983,-91.851258,0.055344,-0.878479,0.466309,-0.239166,0.027613,0.010281,63.125565,65.463821,-129.774521,,,
729716234.751046,-62.556887,-7.615986,-88.77437,0.055344,-0.878479,0.466309,-0.239166,0.027613,0.010281,63.125565,65.463821,-129.774521,,,
729716234.753788,-62.625393,-7.620371,-91.865184,0.055344,-0.878479,0.466309,-0.236805,0.028775,0.004546,63.125565,65.463821,-129.774521,,,
729716234.754017,-62.625365,-7.620375,-88.788295,0.055344,-0.878479,0.466309,-0.236805,0.028775,0.004546,63.125565,65.463821,-129.774521,,,
729716234.756347,-62.625393,-7.620371,-91.865184,0.055344,-0.878479,0.466309,-0.236805,0.028775,0.004546,63.125565,65.463821,-129.774521,,,
729716234.756565,-62.625365,-7.620375,-88.788295,0.055344,-0.878479,0.466309,-0.236805,0.028775,0.004546,63.125565,65.463821,-129.774521,,,
729716234.76142,-62.69363,-7.626051,-91.880547,0.05954,-0.875717,0.464996,-0.236805,0.028775,0.004546,63.057693,66.033295,-129.391174,,,
729716234.761661,-62.693602,-7.626055,-88.803658,0.05954,-0.875717,0.464996,-0.236805,0.028775,0.004546,63.057693,66.033295,-129.391174,,,
729716234.763443,-62.761607,-7.633138,-91.896872,0.05954,-0.875717,0.464996,-0.238108,0.02601,0.004399,63.057693,66.033295,-129.391174,,,
729716234.763665,-62.761579,-7.633142,-88.819984,0.05954,-0.875717,0.464996,-0.238108,0.02601,0.004399,63.057693,66.033295,-129.391174,,,
729716234.766408,-62.761607,-7.633138,-91.896872,0.05954,-0.875717,0.464996,-0.238108,0.02601,0.004399,63.057693,66.033295,-129.391174,,,
729716234.766592,-62.761579,-7.633142,-88.819984,0.05954,-0.875717,0.464996,-0.238108,0.02601,0.004399,63.057693,66.033295,-129.391174,,,
729716234.77068,-62.829614,-7.640527,-91.913182,0.060898,-0.875214,0.458618,-0.238108,0.02601,0.004399,63.057693,66.033295,-129.391174,,,
729716234.770905,-62.829586,-7.640531,-88.836294,0.060898,-0.875214,0.458618,-0.238108,0.02601,0.004399,63.057693,66.033295,-129.391174,,,
729716234.77404,-62.897644,-7.646879,-91.928471,0.060898,-0.875214,0.458618,-0.23708,0.029469,0.006168,63.057693,66.033295,-129.391174,,,
729716234.774294,-62.897615,-7.646882,-88.851583,0.060898,-0.875214,0.458618,-0.23708,0.029469,0.006168,63.057693,66.033295,-129.391174,,,
729716234.776331,-62.897644,-7.646879,-91.928471,0.060898,-0.875214,0.458618,-0.23708,0.029469,0.006168,63.057693,66.033295,-129.391174,,,
729716234.776549,-62.897615,-7.646882,-88.851583,0.060898,-0.875214,0.458618,-0.23708,0.029469,0.006168,63.057693,66.033295,-129.391174,,,
729716234.780631,-62.954275,-7.644797,-91.936872,0.057175,-0.879395,0.457321,-0.23708,0.029469,0.006168,63.057693,66.033295,-129.391174,,,
729716234.780845,-62.954247,-7.6448,-88.859983,0.057175,-0.879395,0.457321,-0.23708,0.029469,0.006168,63.057693,66.033295,-129.391174,,,
729716234.784231,-63.021691,-7.649305,-91.952017,0.057175,-0.879395,0.457321,-0.233363,0.038365,0.006638,63.057693,66.033295,-129.391174,,,
729716234.784448,-63.021663,-7.649309,-88.875129,0.057175,-0.879395,0.457321,-0.233363,0.038365,0.006638,63.057693,66.033295,-129.391174,,,
729716234.78642,-63.021691,-7.649305,-91.952017,0.057175,-0.879395,0.457321,-0.233363,0.038365,0.006638,63.057693,66.033295,-129.391174,,,
729716234.786611,-63.021663,-7.649309,-88.875129,0.057175,-0.879395,0.457321,-0.233363,0.038365,0.006638,63.057693,66.033295,-129.391174,,,
729716234.790482,-63.079224,-7.651125,-91.965473,0.061584,-0.879669,0.457596,-0.233363,0.038365,0.006638,63.057693,66.033295,-129.391174,,,
729716234.790721,-63.079195,-7.651129,-88.888584,0.061584,-0.879669,0.457596,-0.233363,0.038365,0.006638,63.057693,66.033295,-129.391174,,,
729716234.793588,-63.145791,-7.653791,-91.980072,0.061584,-0.879669,0.457596,-0.23402,0.042505,0.010656,63.057693,66.033295,-129.391174,,,
729716234.79381,-63.145762,-7.653795,-88.903183,0.061584,-0.879669,0.457596,-0.23402,0.042505,0.010656,63.057693,66.033295,-129.391174,,,
729716234.796367,-63.145791,-7.653791,-91.980072,0.061584,-0.879669,0.457596,-0.23402,0.042505,0.010656,63.057693,66.033295,-129.391174,,,
729716234.796583,-63.145762,-7.653795,-88.903183,0.061584,-0.879669,0.457596,-0.23402,0.042505,0.010656,63.057693,66.033295,-129.391174,,,
729716234.80112,-63.205928,-7.650025,-91.988708,0.062973,-0.877594,0.453613,-0.23402,0.042505,0.010656,63.044922,66.354721,-128.866943,,,
729716234.801362,-63.2059,-7.650028,-88.911819,0.062973,-0.877594,0.453613,-0.23402,0.042505,0.010656,63.044922,66.354721,-128.866943,,,
729716234.803947,-63.274512,-7.64947,-91.999699,0.062973,-0.877594,0.453613,-0.244181,0.035577,0.017068,63.044922,66.354721,-128.866943,,,
729716234.80417,-63.274483,-7.649473,-88.92281,0.062973,-0.877594,0.453613,-0.244181,0.035577,0.017068,63.044922,66.354721,-128.866943,,,
729716234.806327,-63.274512,-7.64947,-91.999699,0.062973,-0.877594,0.453613,-0.244181,0.035577,0.017068,63.044922,66.354721,-128.866943,,,
729716234.806543,-63.274483,-7.649473,-88.92281,0.062973,-0.877594,0.453613,-0.244181,0.035577,0.017068,63.044922,66.354721,-128.866943,,,
729716234.810664,-63.340269,-7.643406,-92.004439,0.060959,-0.878387,0.442932,-0.244181,0.035577,0.017068,63.044922,66.354721,-128.866943,,,
729716234.810907,-63.340241,-7.64341,-88.92755,0.060959,-0.878387,0.442932,-0.244181,0.035577,0.017068,63.044922,66.354721,-128.866943,,,
729716234.813988,-63.41358,-7.642355,-92.012055,0.060959,-0.878387,0.442932,-0.263873,0.02716,0.022265,63.044922,66.354721,-128.866943,,,
729716234.814217,-63.413551,-7.642359,-88.935166,0.060959,-0.878387,0.442932,-0.263873,0.02716,0.022265,63.044922,66.354721,-128.866943,,,
729716234.816343,-63.41358,-7.642355,-92.012055,0.060959,-0.878387,0.442932,-0.263873,0.02716,0.022265,63.044922,66.354721,-128.866943,,,
729716234.816554,-63.413551,-7.642359,-88.935166,0.060959,-0.878387,0.442932,-0.263873,0.02716,0.022265,63.044922,66.354721,-128.866943,,,
729716234.820525,-63.483923,-7.637157,-92.015435,0.056732,-0.882355,0.432632,-0.263873,0.02716,0.022265,63.044922,66.354721,-128.866943,,,
729716234.820738,-63.483894,-7.637161,-88.938546,0.056732,-0.882355,0.432632,-0.263873,0.02716,0.022265,63.044922,66.354721,-128.866943,,,
729716234.824031,-63.562776,-7.633858,-92.021698,0.056732,-0.882355,0.432632,-0.277453,0.042086,0.024979,63.044922,66.354721,-128.866943,,,
729716234.82425,-63.562747,-7.633862,-88.944809,0.056732,-0.882355,0.432632,-0.277453,0.042086,0.024979,63.044922,66.354721,-128.866943,,,
729716234.826336,-63.562776,-7.633858,-92.021698,0.056732,-0.882355,0.432632,-0.277453,0.042086,0.024979,63.044922,66.354721,-128.866943,,,
729716234.826543,-63.562747,-7.633862,-88.944809,0.056732,-0.882355,0.432632,-0.277453,0.042086,0.024979,63.044922,66.354721,-128.866943,,,
729716234.830438,-63.632075,-7.622351,-92.022718,0.058792,-0.879242,0.433395,-0.277453,0.042086,0.024979,63.044922,66.354721,-128.866943,,,
729716234.83065,-63.632046,-7.622355,-88.945828,0.058792,-0.879242,0.433395,-0.277453,0.042086,0.024979,63.044922,66.354721,-128.866943,,,
729716234.834155,-63.71434,-7.61584,-92.029338,0.058792,-0.879242,0.433395,-0.294894,0.048951,0.02585,63.044922,66.354721,-128.866943,,,
729716234.834396,-63.714311,-7.615843,-88.952449,0.058792,-0.879242,0.433395,-0.294894,0.048951,0.02585,63.044922,66.354721,-128.866943,,,
729716234.83637,-63.71434,-7.61584,-92.029338,0.058792,-0.879242,0.433395,-0.294894,0.048951,0.02585,63.044922,66.354721,-128.866943,,,
729716234.836569,-63.714311,-7.615843,-88.952449,0.058792,-0.879242,0.433395,-0.294894,0.048951,0.02585,63.044922,66.354721,-128.866943,,,
729716234.841357,-63.787723,-7.608507,-92.035892,0.058456,-0.875549,0.437576,-0.294894,0.048951,0.02585,63.236221,66.580765,-128.360535,,,
729716234.841601,-63.787694,-7.608511,-88.959003,0.058456,-0.875549,0.437576,-0.294894,0.048951,0.02585,63.236221,66.580765,-128.360535,,,
729716234.84395,-63.87378,-7.603543,-92.044184,0.058456,-0.875549,0.437576,-0.300908,0.037596,0.026324,63.236221,66.580765,-128.360535,,,
729716234.844175,-63.87375,-7.603547,-88.967294,0.058456,-0.875549,0.437576,-0.300908,0.037596,0.026324,63.236221,66.580765,-128.360535,,,
729716234.846323,-63.87378,-7.603543,-92.044184,0.058456,-0.875549,0.437576,-0.300908,0.037596,0.026324,63.236221,66.580765,-128.360535,,,
729716234.846544,-63.87375,-7.603547,-88.967294,0.058456,-0.875549,0.437576,-0.300908,0.037596,0.026324,63.236221,66.580765,-128.360535,,,
729716234.850728,-63.949352,-7.599801,-92.051566,0.051651,-0.879303,0.42836,-0.300908,0.037596,0.026324,63.236221,66.580765,-128.360535,,,
729716234.850962,-63.949322,-7.599805,-88.974677,0.051651,-0.879303,0.42836,-0.300908,0.037596,0.026324,63.236221,66.580765,-128.360535,,,
729716234.853993,-64.036092,-7.600874,-92.061292,0.051651,-0.879303,0.42836,-0.303683,0.023393,0.02221,63.236221,66.580765,-128.360535,,,
729716234.854216,-64.036063,-7.600878,-88.984403,0.051651,-0.879303,0.42836,-0.303683,0.023393,0.02221,63.236221,66.580765,-128.360535,,,
729716234.856316,-64.036092,-7.600874,-92.061292,0.051651,-0.879303,0.42836,-0.303683,0.023393,0.02221,63.236221,66.580765,-128.360535,,,
729716234.856536,-64.036063,-7.600878,-88.984403,0.051651,-0.879303,0.42836,-0.303683,0.023393,0.02221,63.236221,66.580765,-128.360535,,,
729716234.860331,-64.113461,-7.602096,-92.06971,0.047607,-0.881805,0.429031,-0.303683,0.023393,0.02221,63.236221,66.580765,-128.360535,,,
729716234.860546,-64.113431,-7.6021,-88.99282,0.047607,-0.881805,0.429031,-0.303683,0.023393,0.02221,63.236221,66.580765,-128.360535,,,
729716234.864057,-64.201625,-7.608409,-92.081682,0.047607,-0.881805,0.429031,-0.308749,0.017517,0.019913,63.236221,66.580765,-128.360535,,,
729716234.86428,-64.201595,-7.608413,-89.004792,0.047607,-0.881805,0.429031,-0.308749,0.017517,0.019913,63.236221,66.580765,-128.360535,,,
729716234.866327,-64.201625,-7.608409,-92.081682,0.047607,-0.881805,0.429031,-0.308749,0.017517,0.019913,63.236221,66.580765,-128.360535,,,
729716234.866543,-64.201595,-7.608413,-89.004792,0.047607,-0.881805,0.429031,-0.308749,0.017517,0.019913,63.236221,66.580765,-128.360535,,,
729716234.87073,-64.280721,-7.618544,-92.096969,0.048996,-0.879028,0.4254,-0.308749,0.017517,0.019913,63.236221,66.580765,-128.360535,,,
729716234.870973,-64.28069,-7.618548,-89.020079,0.048996,-0.879028,0.4254,-0.308749,0.017517,0.019913,63.236221,66.580765,-128.360535,,,
729716234.874411,-64.370374,-7.629285,-92.113042,0.048996,-0.879028,0.4254,-0.316117,0.008366,0.013852,63.236221,66.580765,-128.360535,,,
729716234.874646,-64.370344,-7.629289,-89.036152,0.048996,-0.879028,0.4254,-0.316117,0.008366,0.013852,63.236221,66.580765,-128.360535,,,
729716234.876288,-64.370374,-7.629285,-92.113042,0.048996,-0.879028,0.4254,-0.316117,0.008366,0.013852,63.236221,66.580765,-128.360535,,,
729716234.876516,-64.370344,-7.629289,-89.036152,0.048996,-0.879028,0.4254,-0.316117,0.008366,0.013852,63.236221,66.580765,-128.360535,,,
729716234.881488,-64.452796,-7.644567,-92.131682,0.045807,-0.88002,0.423553,-0.316117,0.008366,0.013852,63.119415,66.999603,-127.46843,,,
729716234.881755,-64.452765,-7.644571,-89.054792,0.045807,-0.88002,0.423553,-0.316117,0.008366,0.013852,63.119415,66.999603,-127.46843,,,
729716234.885141,-64.545158,-7.660782,-92.148347,0.045807,-0.88002,0.423553,-0.327133,-0.004356,0.014857,63.119415,66.999603,-127.46843,,,
729716234.885431,-64.545127,-7.660786,-89.071457,0.045807,-0.88002,0.423553,-0.327133,-0.004356,0.014857,63.119415,66.999603,-127.46843,,,
729716234.886248,-64.545158,-7.660782,-92.148347,0.045807,-0.88002,0.423553,-0.327133,-0.004356,0.014857,63.119415,66.999603,-127.46843,,,
729716234.886556,-64.545127,-7.660786,-89.071457,0.045807,-0.88002,0.423553,-0.327133,-0.004356,0.014857,63.119415,66.999603,-127.46843,,,
729716234.891248,-64.639044,-7.679205,-92.166262,0.044525,-0.885223,0.413254,-0.327133,-0.004356,0.014857,63.119415,66.999603,-127.46843,,,
729716234.891476,-64.639013,-7.679209,-89.089372,0.044525,-0.885223,0.413254,-0.327133,-0.004356,0.014857,63.119415,66.999603,-127.46843,,,
729716234.893953,-64.733448,-7.697388,-92.184638,0.044525,-0.885223,0.413254,-0.331423,-0.001519,0.016629,63.119415,66.999603,-127.46843,,,
729716234.894173,-64.733417,-7.697392,-89.107748,0.044525,-0.885223,0.413254,-0.331423,-0.001519,0.016629,63.119415,66.999603,-127.46843,,,
729716234.896324,-64.733448,-7.697388,-92.184638,0.044525,-0.885223,0.413254,-0.331423,-0.001519,0.016629,63.119415,66.999603,-127.46843,,,
729716234.896535,-64.733417,-7.697392,-89.107748,0.044525,-0.885223,0.413254,-0.331423,-0.001519,0.016629,63.119415,66.999603,-127.46843,,,
729716234.90082,-64.828759,-7.716099,-92.203258,0.043503,-0.888367,0.420212,-0.331423,-0.001519,0.016629,63.119415,66.999603,-127.46843,,,
729716234.901045,-64.828729,-7.716103,-89.126368,0.043503,-0.888367,0.420212,-0.331423,-0.001519,0.016629,63.119415,66.999603,-127.46843,,,
729716234.904045,-64.925149,-7.735026,-92.220613,0.043503,-0.888367,0.420212,-0.333982,-0.016057,0.024526,63.119415,66.999603,-127.46843,,,
729716234.904267,-64.925118,-7.73503,-89.143723,0.043503,-0.888367,0.420212,-0.333982,-0.016057,0.024526,63.119415,66.999603,-127.46843,,,
729716234.906309,-64.925149,-7.735026,-92.220613,0.043503,-0.888367,0.420212,-0.333982,-0.016057,0.024526,63.119415,66.999603,-127.46843,,,
729716234.906517,-64.925118,-7.73503,-89.143723,0.043503,-0.888367,0.420212,-0.333982,-0.016057,0.024526,63.119415,66.999603,-127.46843,,,
729716234.910814,-65.020971,-7.751925,-92.233869,0.048538,-0.888962,0.418625,-0.333982,-0.016057,0.024526,63.119415,66.999603,-127.46843,,,
729716234.911033,-65.02094,-7.751929,-89.156978,0.048538,-0.888962,0.418625,-0.333982,-0.016057,0.024526,63.119415,66.999603,-127.46843,,,
729716234.914404,-65.114829,-7.765573,-92.242991,0.048538,-0.888962,0.418625,-0.315644,-0.014044,0.038488,63.119415,66.999603,-127.46843,,,
729716234.914631,-65.114798,-7.765576,-89.166101,0.048538,-0.888962,0.418625,-0.315644,-0.014044,0.038488,63.119415,66.999603,-127.46843,,,
729716234.916277,-65.114829,-7.765573,-92.242991,0.048538,-0.888962,0.418625,-0.315644,-0.014044,0.038488,63.119415,66.999603,-127.46843,,,
729716234.916518,-65.114798,-7.765576,-89.166101,0.048538,-0.888962,0.418625,-0.315644,-0.014044,0.038488,63.119415,66.999603,-127.46843,,,
729716234.92071,-65.206264,-7.773135,-92.246485,0.050201,-0.891342,0.429123,-0.315644,-0.014044,0.038488,63.119415,66.999603,-127.46843,,,
729716234.921008,-65.206233,-7.773139,-89.169595,0.050201,-0.891342,0.429123,-0.315644,-0.014044,0.038488,63.119415,66.999603,-127.46843,,,
729716234.924822,-65.293705,-7.773174,-92.243346,0.050201,-0.891342,0.429123,-0.284651,-0.000196,0.054291,63.214508,67.266068,-126.817505,,,
729716234.925076,-65.293673,-7.773178,-89.166456,0.050201,-0.891342,0.429123,-0.284651,-0.000196,0.054291,63.214508,67.266068,-126.817505,,,
729716234.926219,-65.293705,-7.773174,-92.243346,0.050201,-0.891342,0.429123,-0.284651,-0.000196,0.054291,63.214508,67.266068,-126.817505,,,
729716234.926537,-65.293673,-7.773178,-89.166456,0.050201,-0.891342,0.429123,-0.284651,-0.000196,0.054291,63.214508,67.266068,-126.817505,,,
729716234.930773,-65.376286,-7.766646,-92.23434,0.049072,-0.899078,0.438217,-0.284651,-0.000196,0.054291,63.214508,67.266068,-126.817505,,,
729716234.931003,-65.376254,-7.76665,-89.157449,0.049072,-0.899078,0.438217,-0.284651,-0.000196,0.054291,63.214508,67.266068,-126.817505,,,
729716234.934196,-65.45474,-7.753097,-92.218465,0.049072,-0.899078,0.438217,-0.251966,-0.000722,0.068963,63.214508,67.266068,-126.817505,,,
729716234.934427,-65.454709,-7.753101,-89.141574,0.049072,-0.899078,0.438217,-0.251966,-0.000722,0.068963,63.214508,67.266068,-126.817505,,,
729716234.936395,-65.45474,-7.753097,-92.218465,0.049072,-0.899078,0.438217,-0.251966,-0.000722,0.068963,63.214508,67.266068,-126.817505,,,
729716234.936588,-65.454709,-7.753101,-89.141574,0.049072,-0.899078,0.438217,-0.251966,-0.000722,0.068963,63.214508,67.266068,-126.817505,,,
729716234.940613,-65.52916,-7.733186,-92.194927,0.053436,-0.904419,0.437378,-0.251966,-0.000722,0.068963,63.214508,67.266068,-126.817505,,,
729716234.940829,-65.529129,-7.73319,-89.118036,0.053436,-0.904419,0.437378,-0.251966,-0.000722,0.068963,63.214508,67.266068,-126.817505,,,
729716234.944406,-65.600039,-7.709737,-92.165247,0.053436,-0.904419,0.437378,-0.231106,-0.018129,0.081594,63.214508,67.266068,-126.817505,,,
729716234.94463,-65.600007,-7.709741,-89.088356,0.053436,-0.904419,0.437378,-0.231106,-0.018129,0.081594,63.214508,67.266068,-126.817505,,,
729716234.946271,-65.600039,-7.709737,-92.165247,0.053436,-0.904419,0.437378,-0.231106,-0.018129,0.081594,63.214508,67.266068,-126.817505,,,
729716234.946518,-65.600007,-7.709741,-89.088356,0.053436,-0.904419,0.437378,-0.231106,-0.018129,0.081594,63.214508,67.266068,-126.817505,,,
729716234.951031,-65.669129,-7.68275,-92.129544,0.052124,-0.909775,0.428482,-0.231106,-0.018129,0.081594,63.214508,67.266068,-126.817505,,,
729716234.951261,-65.669097,-7.682754,-89.052653,0.052124,-0.909775,0.428482,-0.231106,-0.018129,0.081594,63.214508,67.266068,-126.817505,,,
729716234.954033,-65.737944,-7.650714,-92.087343,0.052124,-0.909775,0.428482,-0.229982,-0.020989,0.099052,63.214508,67.266068,-126.817505,,,
729716234.954271,-65.737912,-7.650718,-89.010452,0.052124,-0.909775,0.428482,-0.229982,-0.020989,0.099052,63.214508,67.266068,-126.817505,,,
729716234.956446,-65.737944,-7.650714,-92.087343,0.052124,-0.909775,0.428482,-0.229982,-0.020989,0.099052,63.214508,67.266068,-126.817505,,,
729716234.956665,-65.737912,-7.650718,-89.010452,0.052124,-0.909775,0.428482,-0.229982,-0.020989,0.099052,63.214508,67.266068,-126.817505,,,
729716234.961065,-65.807928,-7.613634,-92.039653,0.049683,-0.913834,0.41127,-0.229982,-0.020989,0.099052,63.214508,67.266068,-126.817505,,,
729716234.961345,-65.807896,-7.613638,-88.962762,0.049683,-0.913834,0.41127,-0.229982,-0.020989,0.099052,63.214508,67.266068,-126.817505,,,
729716234.965213,-65.881283,-7.573326,-91.98931,0.049683,-0.913834,0.41127,-0.261415,-0.013592,0.106612,63.369751,67.708633,-126.738861,,,
729716234.965476,-65.88125,-7.573331,-88.912419,0.049683,-0.913834,0.41127,-0.261415,-0.013592,0.106612,63.369751,67.708633,-126.738861,,,
729716234.966186,-65.881283,-7.573326,-91.98931,0.049683,-0.913834,0.41127,-0.261415,-0.013592,0.106612,63.369751,67.708633,-126.738861,,,
729716234.966544,-65.88125,-7.573331,-88.912419,0.049683,-0.913834,0.41127,-0.261415,-0.013592,0.106612,63.369751,67.708633,-126.738861,,,
729716234.971101,-65.959703,-7.531201,-91.937608,0.057571,-0.914551,0.397232,-0.261415,-0.013592,0.106612,63.369751,67.708633,-126.738861,,,
729716234.971365,-65.959671,-7.531205,-88.860717,0.057571,-0.914551,0.397232,-0.261415,-0.013592,0.106612,63.369751,67.708633,-126.738861,,,
729716234.973987,-66.04448,-7.488906,-91.886428,0.057571,-0.914551,0.397232,-0.307129,-0.009344,0.111626,63.369751,67.708633,-126.738861,,,
729716234.974225,-66.044448,-7.48891,-88.809537,0.057571,-0.914551,0.397232,-0.307129,-0.009344,0.111626,63.369751,67.708633,-126.738861,,,
729716234.976333,-66.04448,-7.488906,-91.886428,0.057571,-0.914551,0.397232,-0.307129,-0.009344,0.111626,63.369751,67.708633,-126.738861,,,
729716234.976548,-66.044448,-7.48891,-88.809537,0.057571,-0.914551,0.397232,-0.307129,-0.009344,0.111626,63.369751,67.708633,-126.738861,,,
729716234.981025,-66.13656,-7.446623,-91.836469,0.054901,-0.91214,0.382248,-0.307129,-0.009344,0.111626,63.369751,67.708633,-126.738861,,,
729716234.981265,-66.136527,-7.446627,-88.759578,0.054901,-0.91214,0.382248,-0.307129,-0.009344,0.111626,63.369751,67.708633,-126.738861,,,
729716234.983975,-66.235329,-7.406518,-91.789288,0.054901,-0.91214,0.382248,-0.356919,-0.00733,0.106511,63.369751,67.708633,-126.738861,,,
729716234.984195,-66.235296,-7.406522,-88.712396,0.054901,-0.91214,0.382248,-0.356919,-0.00733,0.106511,63.369751,67.708633,-126.738861,,,
729716234.986411,-66.235329,-7.406518,-91.789288,0.054901,-0.91214,0.382248,-0.356919,-0.00733,0.106511,63.369751,67.708633,-126.738861,,,
729716234.986598,-66.235296,-7.406522,-88.712396,0.054901,-0.91214,0.382248,-0.356919,-0.00733,0.106511,63.369751,67.708633,-126.738861,,,
729716234.990654,-66.340832,-7.371638,-91.747268,0.05217,-0.910248,0.376709,-0.356919,-0.00733,0.106511,63.369751,67.708633,-126.738861,,,
729716234.990877,-66.3408,-7.371642,-88.670376,0.05217,-0.910248,0.376709,-0.356919,-0.00733,0.106511,63.369751,67.708633,-126.738861,,,
729716234.994435,-66.452393,-7.342695,-91.71034,0.05217,-0.910248,0.376709,-0.395172,-0.017018,0.09102,63.369751,67.708633,-126.738861,,,
729716234.994698,-66.45236,-7.342699,-88.633448,0.05217,-0.910248,0.376709,-0.395172,-0.017018,0.09102,63.369751,67.708633,-126.738861,,,
729716234.996262,-66.452393,-7.342695,-91.71034,0.05217,-0.910248,0.376709,-0.395172,-0.017018,0.09102,63.369751,67.708633,-126.738861,,,
729716234.99651,-66.45236,-7.342699,-88.633448,0.05217,-0.910248,0.376709,-0.395172,-0.017018,0.09102,63.369751,67.708633,-126.738861,,,
729716235.001039,-66.567839,-7.320936,-91.680543,0.055481,-0.912445,0.374161,-0.395172,-0.017018,0.09102,63.369751,67.708633,-126.738861,,,
729716235.001281,-66.567806,-7.320941,-88.603651,0.055481,-0.912445,0.374161,-0.395172,-0.017018,0.09102,63.369751,67.708633,-126.738861,,,
729716235.005121,-66.685922,-7.305987,-91.658458,0.055481,-0.912445,0.374161,-0.40737,-0.014503,0.070949,63.419357,68.137909,-125.723801,,,
729716235.005377,-66.685889,-7.305991,-88.581566,0.055481,-0.912445,0.374161,-0.40737,-0.014503,0.070949,63.419357,68.137909,-125.723801,,,
729716235.006197,-66.685922,-7.305987,-91.658458,0.055481,-0.912445,0.374161,-0.40737,-0.014503,0.070949,63.419357,68.137909,-125.723801,,,
729716235.006538,-66.685889,-7.305991,-88.581566,0.055481,-0.912445,0.374161,-0.40737,-0.014503,0.070949,63.419357,68.137909,-125.723801,,,
729716235.011322,-66.804572,-7.298105,-91.644296,0.052353,-0.915085,0.386459,-0.40737,-0.014503,0.070949,63.419357,68.137909,-125.723801,,,
729716235.011574,-66.804539,-7.29811,-88.567404,0.052353,-0.915085,0.386459,-0.40737,-0.014503,0.070949,63.419357,68.137909,-125.723801,,,
729716235.01386,-66.92088,-7.297251,-91.639542,0.052353,-0.915085,0.386459,-0.387399,-0.001938,0.044487,63.419357,68.137909,-125.723801,,,
729716235.014087,-66.920846,-7.297255,-88.56265,0.052353,-0.915085,0.386459,-0.387399,-0.001938,0.044487,63.419357,68.137909,-125.723801,,,
729716235.016355,-66.92088,-7.297251,-91.639542,0.052353,-0.915085,0.386459,-0.387399,-0.001938,0.044487,63.419357,68.137909,-125.723801,,,
729716235.016568,-66.920846,-7.297255,-88.56265,0.052353,-0.915085,0.386459,-0.387399,-0.001938,0.044487,63.419357,68.137909,-125.723801,,,
729716235.020512,-67.032955,-7.300133,-91.640988,0.057159,-0.916199,0.405869,-0.387399,-0.001938,0.044487,63.419357,68.137909,-125.723801,,,
729716235.020729,-67.032921,-7.300138,-88.564096,0.057159,-0.916199,0.405869,-0.387399,-0.001938,0.044487,63.419357,68.137909,-125.723801,,,
729716235.024978,-67.139368,-7.304655,-91.64511,0.057159,-0.916199,0.405869,-0.347239,0.002097,0.03698,63.419357,68.137909,-125.723801,,,
729716235.025236,-67.139334,-7.30466,-88.568217,0.057159,-0.916199,0.405869,-0.347239,0.002097,0.03698,63.419357,68.137909,-125.723801,,,
729716235.026259,-67.139368,-7.304655,-91.64511,0.057159,-0.916199,0.405869,-0.347239,0.002097,0.03698,63.419357,68.137909,-125.723801,,,
729716235.026534,-67.139334,-7.30466,-88.568217,0.057159,-0.916199,0.405869,-0.347239,0.002097,0.03698,63.419357,68.137909,-125.723801,,,
729716235.030786,-67.239755,-7.308054,-91.648322,0.055191,-0.921341,0.420883,-0.347239,0.002097,0.03698,63.419357,68.137909,-125.723801,,,
729716235.031022,-67.23972,-7.308058,-88.571429,0.055191,-0.921341,0.420883,-0.347239,0.002097,0.03698,63.419357,68.137909,-125.723801,,,
729716235.033551,-67.334223,-7.307993,-91.647907,0.055191,-0.921341,0.420883,-0.303509,0.002916,0.044585,63.419357,68.137909,-125.723801,,,
729716235.033781,-67.334189,-7.307998,-88.571014,0.055191,-0.921341,0.420883,-0.303509,0.002916,0.044585,63.419357,68.137909,-125.723801,,,
729716235.036411,-67.334223,-7.307993,-91.647907,0.055191,-0.921341,0.420883,-0.303509,0.002916,0.044585,63.419357,68.137909,-125.723801,,,
729716235.036602,-67.334189,-7.307998,-88.571014,0.055191,-0.921341,0.420883,-0.303509,0.002916,0.044585,63.419357,68.137909,-125.723801,,,
729716235.041027,-67.422323,-7.304112,-91.643526,0.04747,-0.932434,0.418976,-0.303509,0.002916,0.044585,63.419357,68.137909,-125.723801,,,
729716235.041256,-67.422288,-7.304116,-88.566633,0.04747,-0.932434,0.418976,-0.303509,0.002916,0.044585,63.419357,68.137909,-125.723801,,,
729716235.043742,-67.504379,-7.29742,-91.636939,0.04747,-0.932434,0.418976,-0.261315,0.009493,0.039064,63.419357,68.137909,-125.723801,,,
729716235.043972,-67.504344,-7.297425,-88.560046,0.04747,-0.932434,0.418976,-0.261315,0.009493,0.039064,63.533844,68.556641,-125.362976,,,
729716235.047055,-67.504379,-7.29742,-91.636939,0.04747,-0.932434,0.418976,-0.261315,0.009493,0.039064,63.533844,68.556641,-125.362976,,,
729716235.047329,-67.504344,-7.297425,-88.560046,0.04747,-0.932434,0.418976,-0.261315,0.009493,0.039064,63.533844,68.556641,-125.362976,,,
729716235.05076,-67.58067,-7.289332,-91.630528,0.055603,-0.931656,0.420395,-0.261315,0.009493,0.039064,63.533844,68.556641,-125.362976,,,
729716235.050986,-67.580636,-7.289337,-88.553635,0.055603,-0.931656,0.420395,-0.261315,0.009493,0.039064,63.533844,68.556641,-125.362976,,,
729716235.05444,-67.650921,-7.280887,-91.624245,0.055603,-0.931656,0.420395,-0.22624,0.010739,0.034795,63.533844,68.556641,-125.362976,,,
729716235.054729,-67.650886,-7.280892,-88.547352,0.055603,-0.931656,0.420395,-0.22624,0.010739,0.034795,63.533844,68.556641,-125.362976,,,
729716235.056293,-67.650921,-7.280887,-91.624245,0.055603,-0.931656,0.420395,-0.22624,0.010739,0.034795,63.533844,68.556641,-125.362976,,,
729716235.056514,-67.650886,-7.280892,-88.547352,0.055603,-0.931656,0.420395,-0.22624,0.010739,0.034795,63.533844,68.556641,-125.362976,,,
729716235.060645,-67.716554,-7.273537,-91.617907,0.05986,-0.92952,0.420486,-0.22624,0.010739,0.034795,63.533844,68.556641,-125.362976,,,
729716235.060886,-67.716519,-7.273542,-88.541014,0.05986,-0.92952,0.420486,-0.22624,0.010739,0.034795,63.533844,68.556641,-125.362976,,,
729716235.065005,-67.778953,-7.268632,-91.610896,0.05986,-0.92952,0.420486,-0.204512,-0.020707,0.034506,63.533844,68.556641,-125.362976,,,
729716235.065264,-67.778917,-7.268637,-88.534003,0.05986,-0.92952,0.420486,-0.204512,-0.020707,0.034506,63.533844,68.556641,-125.362976,,,
729716235.066219,-67.778953,-7.268632,-91.610896,0.05986,-0.92952,0.420486,-0.204512,-0.020707,0.034506,63.533844,68.556641,-125.362976,,,
729716235.066542,-67.778917,-7.268637,-88.534003,0.05986,-0.92952,0.420486,-0.204512,-0.020707,0.034506,63.533844,68.556641,-125.362976,,,
729716235.070563,-67.838839,-7.269018,-91.604943,0.057831,-0.929108,0.403305,-0.204512,-0.020707,0.034506,63.533844,68.556641,-125.362976,,,
729716235.070789,-67.838804,-7.269023,-88.52805,0.057831,-0.929108,0.403305,-0.204512,-0.020707,0.034506,63.533844,68.556641,-125.362976,,,
729716235.074047,-67.89756,-7.276277,-91.60281,0.057831,-0.929108,0.403305,-0.199478,-0.034773,0.022057,63.533844,68.556641,-125.362976,,,
729716235.074278,-67.897525,-7.276281,-88.525917,0.057831,-0.929108,0.403305,-0.199478,-0.034773,0.022057,63.533844,68.556641,-125.362976,,,
729716235.076348,-67.89756,-7.276277,-91.60281,0.057831,-0.929108,0.403305,-0.199478,-0.034773,0.022057,63.533844,68.556641,-125.362976,,,
729716235.07657,-67.897525,-7.276281,-88.525917,0.057831,-0.929108,0.403305,-0.199478,-0.034773,0.022057,63.533844,68.556641,-125.362976,,,
729716235.081056,-67.955694,-7.289368,-91.605475,0.060104,-0.923569,0.388641,-0.199478,-0.034773,0.022057,63.533844,68.556641,-125.362976,,,
729716235.081288,-67.955659,-7.289373,-88.528581,0.060104,-0.923569,0.388641,-0.199478,-0.034773,0.022057,63.533844,68.556641,-125.362976,,,
729716235.084209,-68.013579,-7.307061,-91.613681,0.060104,-0.923569,0.388641,-0.207521,-0.021742,0.007129,63.533844,68.556641,-125.362976,,,
729716235.084443,-68.013544,-7.307065,-88.536787,0.060104,-0.923569,0.388641,-0.207521,-0.021742,0.007129,63.533844,68.556641,-125.362976,,,
729716235.086995,-68.013579,-7.307061,-91.613681,0.060104,-0.923569,0.388641,-0.207521,-0.021742,0.007129,63.52243,68.891281,-124.875229,,,
729716235.087234,-68.013544,-7.307065,-88.536787,0.060104,-0.923569,0.388641,-0.207521,-0.021742,0.007129,63.52243,68.891281,-124.875229,,,
729716235.090736,-68.072757,-7.328084,-91.628358,0.061264,-0.921173,0.384537,-0.207521,-0.021742,0.007129,63.52243,68.891281,-124.875229,,,
729716235.090957,-68.072722,-7.328089,-88.551464,0.061264,-0.921173,0.384537,-0.207521,-0.021742,0.007129,63.52243,68.891281,-124.875229,,,
729716235.095173,-68.134116,-7.352862,-91.64973,0.061264,-0.921173,0.384537,-0.226024,-0.015007,-0.006423,63.52243,68.891281,-124.875229,,,
729716235.095436,-68.13408,-7.352867,-88.572836,0.061264,-0.921173,0.384537,-0.226024,-0.015007,-0.006423,63.52243,68.891281,-124.875229,,,
729716235.096184,-68.134116,-7.352862,-91.64973,0.061264,-0.921173,0.384537,-0.226024,-0.015007,-0.006423,63.52243,68.891281,-124.875229,,,
729716235.096544,-68.13408,-7.352867,-88.572836,0.061264,-0.921173,0.384537,-0.226024,-0.015007,-0.006423,63.52243,68.891281,-124.875229,,,
729716235.100849,-68.198913,-7.382378,-91.675559,0.053131,-0.920776,0.379959,-0.226024,-0.015007,-0.006423,63.52243,68.891281,-124.875229,,,
729716235.10108,-68.198877,-7.382383,-88.598665,0.053131,-0.920776,0.379959,-0.226024,-0.015007,-0.006423,63.52243,68.891281,-124.875229,,,
729716235.104241,-68.268135,-7.418835,-91.705341,0.053131,-0.920776,0.379959,-0.254747,-0.041588,-0.011967,63.52243,68.891281,-124.875229,,,
729716235.10449,-68.268099,-7.418839,-88.628447,0.053131,-0.920776,0.379959,-0.254747,-0.041588,-0.011967,63.52243,68.891281,-124.875229,,,
729716235.106295,-68.268135,-7.418835,-91.705341,0.053131,-0.920776,0.379959,-0.254747,-0.041588,-0.011967,63.52243,68.891281,-124.875229,,,
729716235.106517,-68.268099,-7.418839,-88.628447,0.053131,-0.920776,0.379959,-0.254747,-0.041588,-0.011967,63.52243,68.891281,-124.875229,,,
729716235.111038,-68.341088,-7.464053,-91.740042,0.048569,-0.923721,0.358994,-0.254747,-0.041588,-0.011967,63.52243,68.891281,-124.875229,,,
729716235.111283,-68.341051,-7.464057,-88.663148,0.048569,-0.923721,0.358994,-0.254747,-0.041588,-0.011967,63.52243,68.891281,-124.875229,,,
729716235.114401,-68.416928,-7.517551,-91.7795,0.048569,-0.923721,0.358994,-0.276539,-0.064009,-0.024112,63.52243,68.891281,-124.875229,,,
729716235.114645,-68.416892,-7.517556,-88.702605,0.048569,-0.923721,0.358994,-0.276539,-0.064009,-0.024112,63.52243,68.891281,-124.875229,,,
729716235.116274,-68.416928,-7.517551,-91.7795,0.048569,-0.923721,0.358994,-0.276539,-0.064009,-0.024112,63.52243,68.891281,-124.875229,,,
729716235.116516,-68.416892,-7.517556,-88.702605,0.048569,-0.923721,0.358994,-0.276539,-0.064009,-0.024112,63.52243,68.891281,-124.875229,,,
729716235.121167,-68.495617,-7.578587,-91.82466,0.04599,-0.925018,0.354294,-0.276539,-0.064009,-0.024112,63.52243,68.891281,-124.875229,,,
729716235.121435,-68.49558,-7.578591,-88.747766,0.04599,-0.925018,0.354294,-0.276539,-0.064009,-0.024112,63.52243,68.891281,-124.875229,,,
729716235.124378,-68.576072,-7.646919,-91.875937,0.04599,-0.925018,0.354294,-0.295352,-0.072778,-0.034229,63.52243,68.891281,-124.875229,,,
729716235.124616,-68.576035,-7.646924,-88.799043,0.04599,-0.925018,0.354294,-0.295352,-0.072778,-0.034229,63.52243,68.891281,-124.875229,,,
729716235.126924,-68.576072,-7.646919,-91.875937,0.04599,-0.925018,0.354294,-0.295352,-0.072778,-0.034229,63.488113,69.106262,-124.029358,,,
729716235.127142,-68.576035,-7.646924,-88.799043,0.04599,-0.925018,0.354294,-0.295352,-0.072778,-0.034229,63.488113,69.106262,-124.029358,,,
729716235.130931,-68.659056,-7.722714,-91.933266,0.045593,-0.921417,0.359818,-0.295352,-0.072778,-0.034229,63.488113,69.106262,-124.029358,,,
729716235.131165,-68.659019,-7.722718,-88.856371,0.045593,-0.921417,0.359818,-0.295352,-0.072778,-0.034229,63.488113,69.106262,-124.029358,,,
729716235.134378,-68.745872,-7.805525,-91.995955,0.045593,-0.921417,0.359818,-0.322724,-0.08914,-0.040647,63.488113,69.106262,-124.029358,,,
729716235.13463,-68.745835,-7.805529,-88.91906,0.045593,-0.921417,0.359818,-0.322724,-0.08914,-0.040647,63.488113,69.106262,-124.029358,,,
729716235.136328,-68.745872,-7.805525,-91.995955,0.045593,-0.921417,0.359818,-0.322724,-0.08914,-0.040647,63.488113,69.106262,-124.029358,,,
729716235.136542,-68.745835,-7.805529,-88.91906,0.045593,-0.921417,0.359818,-0.322724,-0.08914,-0.040647,63.488113,69.106262,-124.029358,,,
729716235.141032,-68.836116,-7.891597,-92.059795,0.044266,-0.921799,0.35112,-0.322724,-0.08914,-0.040647,63.488113,69.106262,-124.029358,,,
729716235.141268,-68.836079,-7.891601,-88.982901,0.044266,-0.921799,0.35112,-0.322724,-0.08914,-0.040647,63.488113,69.106262,-124.029358,,,
729716235.144393,-68.929054,-7.978484,-92.121542,0.044266,-0.921799,0.35112,-0.336072,-0.107818,-0.027096,63.488113,69.106262,-124.029358,,,
729716235.144638,-68.929016,-7.978488,-89.044648,0.044266,-0.921799,0.35112,-0.336072,-0.107818,-0.027096,63.488113,69.106262,-124.029358,,,
729716235.146274,-68.929054,-7.978484,-92.121542,0.044266,-0.921799,0.35112,-0.336072,-0.107818,-0.027096,63.488113,69.106262,-124.029358,,,
729716235.146584,-68.929016,-7.978488,-89.044648,0.044266,-0.921799,0.35112,-0.336072,-0.107818,-0.027096,63.488113,69.106262,-124.029358,,,
729716235.150816,-69.023622,-8.064634,-92.179273,0.037018,-0.925674,0.347198,-0.336072,-0.107818,-0.027096,63.488113,69.106262,-124.029358,,,
729716235.151041,-69.023585,-8.064639,-89.102378,0.037018,-0.925674,0.347198,-0.336072,-0.107818,-0.027096,63.488113,69.106262,-124.029358,,,
729716235.154435,-69.118742,-8.149824,-92.232246,0.037018,-0.925674,0.347198,-0.330295,-0.136006,-0.012831,63.488113,69.106262,-124.029358,,,
729716235.154683,-69.118704,-8.149829,-89.155351,0.037018,-0.925674,0.347198,-0.330295,-0.136006,-0.012831,63.488113,69.106262,-124.029358,,,
729716235.156289,-69.118742,-8.149824,-92.232246,0.037018,-0.925674,0.347198,-0.330295,-0.136006,-0.012831,63.488113,69.106262,-124.029358,,,
729716235.156514,-69.118704,-8.149829,-89.155351,0.037018,-0.925674,0.347198,-0.330295,-0.136006,-0.012831,63.488113,69.106262,-124.029358,,,
729716235.160751,-69.212923,-8.233108,-92.279387,0.038849,-0.929611,0.353058,-0.330295,-0.136006,-0.012831,63.488113,69.106262,-124.029358,,,
729716235.160979,-69.212885,-8.233112,-89.202492,0.038849,-0.929611,0.353058,-0.330295,-0.136006,-0.012831,63.488113,69.106262,-124.029358,,,
729716235.165384,-69.304456,-8.31116,-92.320522,0.038849,-0.929611,0.353058,-0.303009,-0.126221,0.001149,63.488113,69.106262,-124.029358,,,
729716235.165663,-69.304418,-8.311164,-89.243626,0.038849,-0.929611,0.353058,-0.303009,-0.126221,0.001149,63.488113,69.106262,-124.029358,,,
729716235.166167,-69.304456,-8.31116,-92.320522,0.038849,-0.929611,0.353058,-0.303009,-0.126221,0.001149,63.488113,69.106262,-124.029358,,,
729716235.16655,-69.304418,-8.311164,-89.243626,0.038849,-0.929611,0.353058,-0.303009,-0.126221,0.001149,63.391342,69.318039,-123.4039,,,
729716235.171484,-69.391477,-8.378973,-92.354115,0.04126,-0.933395,0.366913,-0.303009,-0.126221,0.001149,63.391342,69.318039,-123.4039,,,
729716235.171734,-69.391439,-8.378977,-89.27722,0.04126,-0.933395,0.366913,-0.303009,-0.126221,0.001149,63.391342,69.318039,-123.4039,,,
729716235.174394,-69.471763,-8.433902,-92.380351,0.04126,-0.933395,0.366913,-0.255484,-0.079426,0.012556,63.391342,69.318039,-123.4039,,,
729716235.174628,-69.471725,-8.433906,-89.303456,0.04126,-0.933395,0.366913,-0.255484,-0.079426,0.012556,63.391342,69.318039,-123.4039,,,
729716235.176288,-69.471763,-8.433902,-92.380351,0.04126,-0.933395,0.366913,-0.255484,-0.079426,0.012556,63.391342,69.318039,-123.4039,,,
729716235.176514,-69.471725,-8.433906,-89.303456,0.04126,-0.933395,0.366913,-0.255484,-0.079426,0.012556,63.391342,69.318039,-123.4039,,,
729716235.18122,-69.544417,-8.476127,-92.400445,0.052002,-0.93602,0.3909,-0.255484,-0.079426,0.012556,63.391342,69.318039,-123.4039,,,
729716235.181473,-69.544379,-8.476131,-89.32355,0.052002,-0.93602,0.3909,-0.255484,-0.079426,0.012556,63.391342,69.318039,-123.4039,,,
729716235.18436,-69.609484,-8.506261,-92.413154,0.052002,-0.93602,0.3909,-0.198685,-0.047376,0.021663,63.391342,69.318039,-123.4039,,,
729716235.184597,-69.609445,-8.506265,-89.336259,0.052002,-0.93602,0.3909,-0.198685,-0.047376,0.021663,63.391342,69.318039,-123.4039,,,
729716235.186363,-69.609484,-8.506261,-92.413154,0.052002,-0.93602,0.3909,-0.198685,-0.047376,0.021663,63.391342,69.318039,-123.4039,,,
729716235.186571,-69.609445,-8.506265,-89.336259,0.052002,-0.93602,0.3909,-0.198685,-0.047376,0.021663,63.391342,69.318039,-123.4039,,,
729716235.190855,-69.66677,-8.526916,-92.418589,0.055176,-0.93924,0.393768,-0.198685,-0.047376,0.021663,63.391342,69.318039,-123.4039,,,
729716235.191075,-69.666731,-8.52692,-89.341693,0.055176,-0.93924,0.393768,-0.198685,-0.047376,0.021663,63.391342,69.318039,-123.4039,,,
729716235.19408,-69.717663,-8.542528,-92.419263,0.055176,-0.93924,0.393768,-0.152754,-0.051025,0.028162,63.391342,69.318039,-123.4039,,,
729716235.194307,-69.717624,-8.542532,-89.342368,0.055176,-0.93924,0.393768,-0.152754,-0.051025,0.028162,63.391342,69.318039,-123.4039,,,
729716235.196328,-69.717663,-8.542528,-92.419263,0.055176,-0.93924,0.393768,-0.152754,-0.051025,0.028162,63.391342,69.318039,-123.4039,,,
729716235.196546,-69.717624,-8.542532,-89.342368,0.055176,-0.93924,0.393768,-0.152754,-0.051025,0.028162,63.391342,69.318039,-123.4039,,,
729716235.200753,-69.763376,-8.555333,-92.417049,0.055634,-0.936569,0.378281,-0.152754,-0.051025,0.028162,63.391342,69.318039,-123.4039,,,
729716235.200988,-69.763337,-8.555337,-89.340153,0.055634,-0.936569,0.378281,-0.152754,-0.051025,0.028162,63.391342,69.318039,-123.4039,,,
729716235.204459,-69.804112,-8.566512,-92.414867,0.055634,-0.936569,0.378281,-0.127919,-0.026892,0.016318,63.391342,69.318039,-123.4039,,,
729716235.204694,-69.804073,-8.566516,-89.337971,0.055634,-0.936569,0.378281,-0.127919,-0.026892,0.016318,63.391342,69.318039,-123.4039,,,
729716235.206258,-69.804112,-8.566512,-92.414867,0.055634,-0.936569,0.378281,-0.127919,-0.026892,0.016318,63.391342,69.318039,-123.4039,,,
729716235.206515,-69.804073,-8.566516,-89.337971,0.055634,-0.936569,0.378281,-0.127919,-0.026892,0.016318,63.391342,69.318039,-123.4039,,,
729716235.211144,-69.835383,-8.570898,-92.410563,0.063034,-0.934448,0.370819,-0.127919,-0.026892,0.016318,63.417313,69.51059,-122.90152,,,
729716235.211373,-69.835344,-8.570902,-89.333667,0.063034,-0.934448,0.370819,-0.127919,-0.026892,0.016318,63.417313,69.51059,-122.90152,,,
729716235.212929,-69.835383,-8.570898,-92.410563,0.063034,-0.934448,0.370819,-0.127919,-0.026892,0.016318,63.417313,69.51059,-122.90152,,,
729716235.213183,-69.872832,-8.587305,-89.345567,0.063034,-0.934448,0.370819,-0.133778,-0.005714,-0.010093,63.417313,69.51059,-122.90152,,,
729716235.218726,-69.872872,-8.587301,-92.422463,0.063034,-0.934448,0.370819,-0.133778,-0.005714,-0.010093,63.417313,69.51059,-122.90152,,,
729716235.218993,-69.906761,-8.602562,-89.359818,0.071747,-0.926956,0.356064,-0.133778,-0.005714,-0.010093,63.417313,69.51059,-122.90152,,,
729716235.220884,-69.906801,-8.602558,-92.436714,0.071747,-0.926956,0.356064,-0.133778,-0.005714,-0.010093,63.417313,69.51059,-122.90152,,,
729716235.221124,-69.906761,-8.602562,-89.359818,0.071747,-0.926956,0.356064,-0.133778,-0.005714,-0.010093,63.417313,69.51059,-122.90152,,,
729716235.224479,-69.947298,-8.641498,-92.473673,0.071747,-0.926956,0.356064,-0.165441,-0.026714,-0.036813,63.417313,69.51059,-122.90152,,,
729716235.224718,-69.947258,-8.641502,-89.396777,0.071747,-0.926956,0.356064,-0.165441,-0.026714,-0.036813,63.417313,69.51059,-122.90152,,,
729716235.226276,-69.947298,-8.641498,-92.473673,0.071747,-0.926956,0.356064,-0.165441,-0.026714,-0.036813,63.417313,69.51059,-122.90152,,,
729716235.226516,-69.947258,-8.641502,-89.396777,0.071747,-0.926956,0.356064,-0.165441,-0.026714,-0.036813,63.417313,69.51059,-122.90152,,,
729716235.231025,-69.989003,-8.680416,-92.507817,0.076172,-0.92511,0.329803,-0.165441,-0.026714,-0.036813,63.417313,69.51059,-122.90152,,,
729716235.231255,-69.988963,-8.680421,-89.430921,0.076172,-0.92511,0.329803,-0.165441,-0.026714,-0.036813,63.417313,69.51059,-122.90152,,,
729716235.234529,-70.041009,-8.753064,-92.568804,0.076172,-0.92511,0.329803,-0.209854,-0.073448,-0.055951,63.417313,69.51059,-122.90152,,,
729716235.234771,-70.04097,-8.753068,-89.491908,0.076172,-0.92511,0.329803,-0.209854,-0.073448,-0.055951,63.417313,69.51059,-122.90152,,,
729716235.236345,-70.041009,-8.753064,-92.568804,0.076172,-0.92511,0.329803,-0.209854,-0.073448,-0.055951,63.417313,69.51059,-122.90152,,,
729716235.236581,-70.04097,-8.753068,-89.491908,0.076172,-0.92511,0.329803,-0.209854,-0.073448,-0.055951,63.417313,69.51059,-122.90152,,,
729716235.241119,-70.093321,-8.827546,-92.627128,0.068924,-0.929123,0.307816,-0.209854,-0.073448,-0.055951,63.417313,69.51059,-122.90152,,,
729716235.241358,-70.093282,-8.827551,-89.550231,0.068924,-0.929123,0.307816,-0.209854,-0.073448,-0.055951,63.417313,69.51059,-122.90152,,,
729716235.242934,-70.093321,-8.827546,-92.627128,0.068924,-0.929123,0.307816,-0.209854,-0.073448,-0.055951,63.417313,69.51059,-122.90152,,,
729716235.243182,-70.154914,-8.933061,-89.635665,0.068924,-0.929123,0.307816,-0.241863,-0.083845,-0.077488,63.417313,69.51059,-122.90152,,,
729716235.24792,-70.154954,-8.933057,-92.712561,0.068924,-0.929123,0.307816,-0.241863,-0.083845,-0.077488,63.417313,69.51059,-122.90152,,,
729716235.248155,-70.210054,-9.037443,-89.721013,0.069489,-0.926895,0.314941,-0.241863,-0.083845,-0.077488,63.417313,69.51059,-122.90152,,,
729716235.251008,-70.210094,-9.037439,-92.79791,0.069489,-0.926895,0.314941,-0.241863,-0.083845,-0.077488,63.234894,69.637161,-122.420151,,,
729716235.251243,-70.210054,-9.037443,-89.721013,0.069489,-0.926895,0.314941,-0.241863,-0.083845,-0.077488,63.234894,69.637161,-122.420151,,,
729716235.254233,-70.210094,-9.160477,-92.903956,0.069489,-0.926895,0.314941,-0.259877,-0.070224,-0.09464,63.234894,69.637161,-122.420151,,,
729716235.254517,-70.277595,-9.160481,-89.82706,0.069489,-0.926895,0.314941,-0.259877,-0.070224,-0.09464,63.234894,69.637161,-122.420151,,,
729716235.256643,-70.277636,-9.160477,-92.903956,0.069489,-0.926895,0.314941,-0.259877,-0.070224,-0.09464,63.234894,69.637161,-122.420151,,,
729716235.256849,-70.277595,-9.160481,-89.82706,0.069489,-0.926895,0.314941,-0.259877,-0.070224,-0.09464,63.234894,69.637161,-122.420151,,,
729716235.260862,-70.331315,-9.278844,-93.008476,0.073242,-0.927841,0.331696,-0.259877,-0.070224,-0.09464,63.234894,69.637161,-122.420151,,,
729716235.261082,-70.331274,-9.278848,-89.931579,0.073242,-0.927841,0.331696,-0.259877,-0.070224,-0.09464,63.234894,69.637161,-122.420151,,,
729716235.264248,-70.402314,-9.406224,-93.124448,0.073242,-0.927841,0.331696,-0.274079,-0.05037,-0.090733,63.234894,69.637161,-122.420151,,,
729716235.26448,-70.402273,-9.406228,-90.047551,0.073242,-0.927841,0.331696,-0.274079,-0.05037,-0.090733,63.234894,69.637161,-122.420151,,,
729716235.266308,-70.402314,-9.406224,-93.124448,0.073242,-0.927841,0.331696,-0.274079,-0.05037,-0.090733,63.234894,69.637161,-122.420151,,,
729716235.266524,-70.402273,-9.406228,-90.047551,0.073242,-0.927841,0.331696,-0.274079,-0.05037,-0.090733,63.234894,69.637161,-122.420151,,,
729716235.270747,-70.460784,-9.522806,-93.232238,0.06752,-0.937576,0.334183,-0.274079,-0.05037,-0.090733,63.234894,69.637161,-122.420151,,,
729716235.270975,-70.460744,-9.522809,-90.155341,0.06752,-0.937576,0.334183,-0.274079,-0.05037,-0.090733,63.234894,69.637161,-122.420151,,,
729716235.272973,-70.460784,-9.522806,-93.232238,0.06752,-0.937576,0.334183,-0.274079,-0.05037,-0.090733,63.234894,69.637161,-122.420151,,,
729716235.273228,-70.535242,-9.638769,-90.263109,0.06752,-0.937576,0.334183,-0.277425,-0.041647,-0.073397,63.234894,69.637161,-122.420151,,,
729716235.277962,-70.535283,-9.638765,-93.340006,0.06752,-0.937576,0.334183,-0.277425,-0.041647,-0.073397,63.234894,69.637161,-122.420151,,,
729716235.278195,-70.598878,-9.742032,-90.359579,0.057709,-0.941864,0.32933,-0.277425,-0.041647,-0.073397,63.234894,69.637161,-122.420151,,,
729716235.280607,-70.598919,-9.742028,-93.436477,0.057709,-0.941864,0.32933,-0.277425,-0.041647,-0.073397,63.234894,69.637161,-122.420151,,,
729716235.280826,-70.598878,-9.742032,-90.359579,0.057709,-0.941864,0.32933,-0.277425,-0.041647,-0.073397,63.234894,69.637161,-122.420151,,,
729716235.283008,-70.598919,-9.742028,-93.436477,0.057709,-0.941864,0.32933,-0.277425,-0.041647,-0.073397,63.234894,69.637161,-122.420151,,,
729716235.283207,-70.672753,-9.84149,-90.452533,0.057709,-0.941864,0.32933,-0.270667,-0.039151,-0.048667,63.234894,69.637161,-122.420151,,,
729716235.287657,-70.672794,-9.841487,-93.52943,0.057709,-0.941864,0.32933,-0.270667,-0.039151,-0.048667,63.234894,69.637161,-122.420151,,,
729716235.287927,-70.672753,-9.84149,-90.452533,0.057709,-0.941864,0.32933,-0.270667,-0.039151,-0.048667,63.234894,69.637161,-122.420151,,,
729716235.291213,-70.735564,-9.933138,-93.612654,0.056,-0.938919,0.339233,-0.270667,-0.039151,-0.048667,62.886215,69.889679,-121.937408,,,
729716235.291457,-70.735523,-9.933142,-90.535757,0.056,-0.938919,0.339233,-0.270667,-0.039151,-0.048667,62.886215,69.889679,-121.937408,,,
729716235.293008,-70.735564,-9.933138,-93.612654,0.056,-0.938919,0.339233,-0.270667,-0.039151,-0.048667,62.886215,69.889679,-121.937408,,,
729716235.293203,-70.810376,-10.016951,-90.607557,0.056,-0.938919,0.339233,-0.274297,-0.062442,-0.028554,62.886215,69.889679,-121.937408,,,
729716235.297695,-70.810417,-10.016948,-93.684454,0.056,-0.938919,0.339233,-0.274297,-0.062442,-0.028554,62.886215,69.889679,-121.937408,,,
729716235.297961,-70.810376,-10.016951,-90.607557,0.056,-0.938919,0.339233,-0.274297,-0.062442,-0.028554,62.886215,69.889679,-121.937408,,,
729716235.300898,-70.880229,-10.104136,-93.756914,0.049515,-0.939209,0.319901,-0.274297,-0.062442,-0.028554,62.886215,69.889679,-121.937408,,,
729716235.301128,-70.880188,-10.104139,-90.680017,0.049515,-0.939209,0.319901,-0.274297,-0.062442,-0.028554,62.886215,69.889679,-121.937408,,,
729716235.303009,-70.880229,-10.104136,-93.756914,0.049515,-0.939209,0.319901,-0.274297,-0.062442,-0.028554,62.886215,69.889679,-121.937408,,,
729716235.303205,-70.958654,-10.17592,-90.740491,0.049515,-0.939209,0.319901,-0.282811,-0.022858,-0.018864,62.886215,69.889679,-121.937408,,,
729716235.307872,-70.958696,-10.175917,-93.817388,0.049515,-0.939209,0.319901,-0.282811,-0.022858,-0.018864,62.886215,69.889679,-121.937408,,,
729716235.308099,-70.958654,-10.17592,-90.740491,0.048019,-0.937134,0.321747,-0.282811,-0.022858,-0.018864,62.886215,69.889679,-121.937408,,,
729716235.310395,-71.035502,-10.251763,-93.888352,0.048019,-0.937134,0.321747,-0.282811,-0.022858,-0.018864,62.886215,69.889679,-121.937408,,,
729716235.310616,-71.03546,-10.251766,-90.811454,0.048019,-0.937134,0.321747,-0.282811,-0.022858,-0.018864,62.886215,69.889679,-121.937408,,,
729716235.313131,-71.035502,-10.251763,-93.888352,0.048019,-0.937134,0.321747,-0.282811,-0.022858,-0.018864,62.886215,69.889679,-121.937408,,,
729716235.313366,-71.115603,-10.309284,-90.871106,0.048019,-0.937134,0.321747,-0.289729,0.015742,-0.019927,62.886215,69.889679,-121.937408,,,
729716235.318885,-71.115645,-10.309281,-93.948004,0.048019,-0.937134,0.321747,-0.289729,0.015742,-0.019927,62.886215,69.889679,-121.937408,,,
729716235.319164,-71.197596,-10.373809,-90.940403,0.061142,-0.936218,0.329666,-0.289729,0.015742,-0.019927,62.886215,69.889679,-121.937408,,,
729716235.32077,-71.197638,-10.373806,-94.017301,0.061142,-0.936218,0.329666,-0.289729,0.015742,-0.019927,62.886215,69.889679,-121.937408,,,
729716235.320994,-71.197596,-10.373809,-90.940403,0.061142,-0.936218,0.329666,-0.289729,0.015742,-0.019927,62.886215,69.889679,-121.937408,,,
729716235.323077,-71.197638,-10.373806,-94.017301,0.061142,-0.936218,0.329666,-0.289729,0.015742,-0.019927,62.886215,69.889679,-121.937408,,,
729716235.32328,-71.279287,-10.435024,-91.005045,0.061142,-0.936218,0.329666,-0.291724,-0.014156,-0.020541,62.886215,69.889679,-121.937408,,,
729716235.328654,-71.279329,-10.435021,-94.081943,0.061142,-0.936218,0.329666,-0.291724,-0.014156,-0.020541,62.886215,69.889679,-121.937408,,,
729716235.32893,-71.357996,-10.512026,-91.080156,0.062698,-0.937424,0.311417,-0.291724,-0.014156,-0.020541,62.886215,69.889679,-121.937408,,,
729716235.331215,-71.358039,-10.512023,-94.157054,0.062698,-0.937424,0.311417,-0.291724,-0.014156,-0.020541,62.721512,70.471191,-121.470001,,,
729716235.331468,-71.357996,-10.512026,-91.080156,0.062698,-0.937424,0.311417,-0.291724,-0.014156,-0.020541,62.721512,70.471191,-121.470001,,,
729716235.33288,-71.358039,-10.512023,-94.157054,0.062698,-0.937424,0.311417,-0.291724,-0.014156,-0.020541,62.721512,70.471191,-121.470001,,,
729716235.333262,-71.437798,-10.589645,-91.151972,0.062698,-0.937424,0.311417,-0.28239,-0.032339,-0.036519,62.721512,70.471191,-121.470001,,,
729716235.337933,-71.437841,-10.589642,-94.22887,0.062698,-0.937424,0.311417,-0.28239,-0.032339,-0.036519,62.721512,70.471191,-121.470001,,,
729716235.338172,-71.508477,-10.683693,-91.239265,0.062698,-0.937424,0.311417,-0.28239,-0.032339,-0.036519,62.721512,70.471191,-121.470001,,,
729716235.340133,-71.50852,-10.68369,-94.316163,0.059875,-0.93898,0.305771,-0.28239,-0.032339,-0.036519,62.721512,70.471191,-121.470001,,,
729716235.340295,-71.508477,-10.683693,-91.239265,0.059875,-0.93898,0.305771,-0.28239,-0.032339,-0.036519,62.721512,70.471191,-121.470001,,,
729716235.343045,-71.50852,-10.68369,-94.316163,0.059875,-0.93898,0.305771,-0.28239,-0.032339,-0.036519,62.721512,70.471191,-121.470001,,,
729716235.343216,-71.583987,-10.775667,-91.326756,0.059875,-0.93898,0.305771,-0.26724,-0.024463,-0.055482,62.721512,70.471191,-121.470001,,,
729716235.347423,-71.58403,-10.775664,-94.403655,0.059875,-0.93898,0.305771,-0.26724,-0.024463,-0.055482,62.721512,70.471191,-121.470001,,,
729716235.347605,-71.583987,-10.775667,-91.326756,0.059875,-0.93898,0.305771,-0.26724,-0.024463,-0.055482,62.721512,70.471191,-121.470001,,,
729716235.350672,-71.64729,-10.874255,-94.498476,0.058807,-0.939667,0.323853,-0.26724,-0.024463,-0.055482,62.721512,70.471191,-121.470001,,,
729716235.35089,-71.647246,-10.874258,-91.421577,0.058807,-0.939667,0.323853,-0.26724,-0.024463,-0.055482,62.721512,70.471191,-121.470001,,,
729716235.353099,-71.64729,-10.874255,-94.498476,0.058807,-0.939667,0.323853,-0.26724,-0.024463,-0.055482,62.721512,70.471191,-121.470001,,,
729716235.353383,-71.716839,-10.972892,-91.515073,0.058807,-0.939667,0.323853,-0.251342,-0.035822,-0.057353,62.721512,70.471191,-121.470001,,,
729716235.358026,-71.716883,-10.972889,-94.591972,0.058807,-0.939667,0.323853,-0.251342,-0.035822,-0.057353,62.721512,70.471191,-121.470001,,,
729716235.3583,-71.775714,-11.063604,-91.599685,0.045273,-0.93869,0.321182,-0.251342,-0.035822,-0.057353,62.721512,70.471191,-121.470001,,,
729716235.360614,-71.775758,-11.063601,-94.676584,0.045273,-0.93869,0.321182,-0.251342,-0.035822,-0.057353,62.721512,70.471191,-121.470001,,,
729716235.360837,-71.775714,-11.063604,-91.599685,0.045273,-0.93869,0.321182,-0.251342,-0.035822,-0.057353,62.721512,70.471191,-121.470001,,,
729716235.363038,-71.775758,-11.063601,-94.676584,0.045273,-0.93869,0.321182,-0.251342,-0.035822,-0.057353,62.721512,70.471191,-121.470001,,,
729716235.363261,-71.840462,-11.161824,-91.69201,0.045273,-0.93869,0.321182,-0.251342,-0.035822,-0.057353,62.721512,70.471191,-121.470001,,,
729716235.367699,-71.840506,-11.161821,-94.76891,0.045273,-0.93869,0.321182,-0.234102,-0.027307,-0.056409,62.721512,70.471191,-121.470001,,,
729716235.367926,-71.840462,-11.161824,-91.69201,0.045273,-0.93869,0.321182,-0.234102,-0.027307,-0.056409,62.721512,70.471191,-121.470001,,,
729716235.370752,-71.893879,-11.247729,-94.851635,0.047211,-0.93779,0.3125,-0.234102,-0.027307,-0.056409,62.721512,70.471191,-121.470001,,,
729716235.370978,-71.893835,-11.247731,-91.774735,0.047211,-0.93779,0.3125,-0.234102,-0.027307,-0.056409,62.589935,70.56134,-121.032272,,,
729716235.37369,-71.893879,-11.247729,-94.851635,0.047211,-0.93779,0.3125,-0.234102,-0.027307,-0.056409,62.589935,70.56134,-121.032272,,,
729716235.373908,-71.954765,-11.340699,-91.868073,0.047211,-0.93779,0.3125,-0.219681,0.001638,-0.062235,62.589935,70.56134,-121.032272,,,
729716235.378835,-71.954809,-11.340697,-94.944973,0.047211,-0.93779,0.3125,-0.219681,0.001638,-0.062235,62.589935,70.56134,-121.032272,,,
729716235.379111,-72.013703,-11.43133,-91.963233,0.057434,-0.932617,0.313705,-0.219681,0.001638,-0.062235,62.589935,70.56134,-121.032272,,,
729716235.380825,-72.013748,-11.431327,-95.040132,0.057434,-0.932617,0.313705,-0.219681,0.001638,-0.062235,62.589935,70.56134,-121.032272,,,
729716235.381059,-72.013703,-11.43133,-91.963233,0.057434,-0.932617,0.313705,-0.219681,0.001638,-0.062235,62.589935,70.56134,-121.032272,,,
729716235.383035,-72.013748,-11.431327,-95.040132,0.057434,-0.932617,0.313705,-0.219681,0.001638,-0.062235,62.589935,70.56134,-121.032272,,,
729716235.383231,-72.070972,-11.521502,-92.060665,0.057434,-0.932617,0.313705,-0.219681,0.001638,-0.062235,62.589935,70.56134,-121.032272,,,
729716235.387901,-72.071016,-11.5215,-95.137564,0.057434,-0.932617,0.313705,-0.214269,0.014293,-0.065765,62.589935,70.56134,-121.032272,,,
729716235.388186,-72.070972,-11.521502,-92.060665,0.057434,-0.932617,0.313705,-0.214269,0.014293,-0.065765,62.589935,70.56134,-121.032272,,,
729716235.390665,-72.127625,-11.613047,-95.236665,0.054016,-0.928818,0.308792,-0.214269,0.014293,-0.065765,62.589935,70.56134,-121.032272,,,
729716235.390889,-72.12758,-11.613049,-92.159765,0.054016,-0.928818,0.308792,-0.214269,0.014293,-0.065765,62.589935,70.56134,-121.032272,,,
729716235.393006,-72.127625,-11.613047,-95.236665,0.054016,-0.928818,0.308792,-0.214269,0.014293,-0.065765,62.589935,70.56134,-121.032272,,,
729716235.393236,-72.183579,-11.70816,-92.25903,0.054016,-0.928818,0.308792,-0.214269,0.014293,-0.065765,62.589935,70.56134,-121.032272,,,
729716235.398741,-72.183624,-11.708158,-95.33593,0.054016,-0.928818,0.308792,-0.212585,-0.018089,-0.064882,62.589935,70.56134,-121.032272,,,
729716235.399019,-72.240376,-11.809647,-92.358391,0.045441,-0.926956,0.296143,-0.212585,-0.018089,-0.064882,62.589935,70.56134,-121.032272,,,
729716235.400573,-72.240421,-11.809645,-95.435291,0.045441,-0.926956,0.296143,-0.212585,-0.018089,-0.064882,62.589935,70.56134,-121.032272,,,
729716235.400796,-72.240376,-11.809647,-92.358391,0.045441,-0.926956,0.296143,-0.212585,-0.018089,-0.064882,62.589935,70.56134,-121.032272,,,
729716235.403099,-72.240421,-11.809645,-95.435291,0.045441,-0.926956,0.296143,-0.212585,-0.018089,-0.064882,62.589935,70.56134,-121.032272,,,
729716235.403295,-72.298902,-11.918744,-92.457302,0.045441,-0.926956,0.296143,-0.212585,-0.018089,-0.064882,62.589935,70.56134,-121.032272,,,
729716235.407674,-72.298947,-11.918742,-95.534202,0.045441,-0.926956,0.296143,-0.227481,-0.075725,-0.056265,62.589935,70.56134,-121.032272,,,
729716235.407902,-72.298902,-11.918744,-92.457302,0.045441,-0.926956,0.296143,-0.227481,-0.075725,-0.056265,62.589935,70.56134,-121.032272,,,
729716235.410825,-72.358971,-12.032678,-95.631095,0.035538,-0.930527,0.281464,-0.227481,-0.075725,-0.056265,62.589935,70.56134,-121.032272,,,
729716235.411068,-72.358926,-12.03268,-92.554195,0.035538,-0.930527,0.281464,-0.227481,-0.075725,-0.056265,62.589935,70.56134,-121.032272,,,
729716235.41365,-72.358971,-12.032678,-95.631095,0.035538,-0.930527,0.281464,-0.227481,-0.075725,-0.056265,62.315369,70.81218,-120.504242,,,
729716235.413872,-72.419963,-12.149651,-92.651331,0.035538,-0.930527,0.281464,-0.229552,-0.081749,-0.057347,62.315369,70.81218,-120.504242,,,
