Time (sec),Pitch (deg),Roll (deg),Yaw(deg),X-Acceleration (g),Y-Acceleration (g),Z-Acceleration (g),Pitch Rate (deg/sec),Roll Rate (deg/sec),Yaw Rate (deg/sec),Magnetic Field in X direction (uT),Magnetic Field in Y direction (uT),Magnetic Field in Z Direction (uT),Latitude (deg),Longitude (deg),Altitude (m)
729705684.73427,-1.239715,-5.263742,77.470523,0.094299,-0.019623,0.97081,-0.217406,0.047728,0.020377,82.628448,35.677017,-149.946289,,,
729705684.737535,-1.239715,-5.263742,77.470523,0.094299,-0.019623,0.97081,-0.217406,0.047728,0.020377,82.628448,35.677017,-149.946289,,,
729705684.74086,-1.306643,-5.257041,77.469809,0.09024,-0.026138,0.976654,-0.236206,0.022284,0.013903,82.628448,35.677017,-149.946289,,,
729705684.744206,-1.375001,-5.251767,77.467431,0.09024,-0.026138,0.976654,-0.236206,0.022284,0.013903,82.628448,35.677017,-149.946289,,,
729705684.747701,-1.375001,-5.251767,77.467431,0.09024,-0.026138,0.976654,-0.236206,0.022284,0.013903,82.628448,35.677017,-149.946289,,,
729705684.750868,-1.445947,-5.247987,77.463756,0.08812,-0.030289,0.992569,-0.249521,0.012562,0.005985,82.628448,35.677017,-149.946289,,,
729705684.754232,-1.516853,-5.246336,77.459339,0.08812,-0.030289,0.992569,-0.249521,0.012562,0.005985,82.628448,35.677017,-149.946289,,,
729705684.757523,-1.516853,-5.246336,77.459339,0.08812,-0.030289,0.992569,-0.249521,0.012562,0.005985,82.628448,35.677017,-149.946289,,,
729705684.760967,-1.589092,-5.244772,77.455196,0.087112,-0.034973,0.997467,-0.250957,0.009162,0.007935,82.628448,35.677017,-149.946289,,,
729705684.764261,-1.658794,-5.242663,77.451366,0.087112,-0.034973,0.997467,-0.250957,0.009162,0.007935,82.836014,36.248627,-149.866745,,,
729705684.767558,-1.658794,-5.242663,77.451366,0.087112,-0.034973,0.997467,-0.250957,0.009162,0.007935,82.836014,36.248627,-149.866745,,,
729705684.770951,-1.729756,-5.235224,77.44861,0.090149,-0.041885,1.012985,-0.244118,0.038079,0.014557,82.836014,36.248627,-149.866745,,,
729705684.774303,-1.794795,-5.225973,77.4481,0.090149,-0.041885,1.012985,-0.244118,0.038079,0.014557,82.836014,36.248627,-149.866745,,,
729705684.777536,-1.794795,-5.225973,77.4481,0.090149,-0.041885,1.012985,-0.244118,0.038079,0.014557,82.836014,36.248627,-149.866745,,,
729705684.780944,-1.860649,-5.210395,77.450746,0.091537,-0.051758,1.023956,-0.222066,0.061905,0.033894,82.836014,36.248627,-149.866745,,,
729705684.784228,-1.918792,-5.196259,77.457123,0.091537,-0.051758,1.023956,-0.222066,0.061905,0.033894,82.836014,36.248627,-149.866745,,,
729705684.787518,-1.918792,-5.196259,77.457123,0.091537,-0.051758,1.023956,-0.222066,0.061905,0.033894,82.836014,36.248627,-149.866745,,,
729705684.790856,-1.978788,-5.175721,77.467266,0.086487,-0.058502,1.023575,-0.197845,0.080336,0.056998,82.836014,36.248627,-149.866745,,,
729705684.794233,-2.029923,-5.154184,77.478932,0.086487,-0.058502,1.023575,-0.197845,0.080336,0.056998,82.836014,36.248627,-149.866745,,,
729705684.79767,-2.029923,-5.154184,77.478932,0.086487,-0.058502,1.023575,-0.197845,0.080336,0.056998,82.836014,36.248627,-149.866745,,,
729705684.800876,-2.083878,-5.126188,77.491487,0.090698,-0.053375,1.023788,-0.179657,0.10373,0.060646,82.836014,36.248627,-149.866745,,,
729705684.804277,-2.132062,-5.098664,77.504775,0.090698,-0.053375,1.023788,-0.179657,0.10373,0.060646,82.858948,36.653946,-149.40332,,,
729705684.807548,-2.132062,-5.098664,77.504775,0.090698,-0.053375,1.023788,-0.179657,0.10373,0.060646,82.858948,36.653946,-149.40332,,,
729705684.810946,-2.183722,-5.068833,77.51807,0.090088,-0.047348,1.016815,-0.173119,0.103827,0.0593,82.858948,36.653946,-149.40332,,,
729705684.814285,-2.231456,-5.041533,77.530153,0.090088,-0.047348,1.016815,-0.173119,0.103827,0.0593,82.858948,36.653946,-149.40332,,,
729705684.817542,-2.231456,-5.041533,77.530153,0.090088,-0.047348,1.016815,-0.173119,0.103827,0.0593,82.858948,36.653946,-149.40332,,,
729705684.820879,-2.283202,-5.014264,77.540783,0.086533,-0.042877,1.005737,-0.175389,0.093801,0.048688,82.858948,36.653946,-149.40332,,,
729705684.824243,-2.283202,-4.989421,77.550237,0.086533,-0.042877,1.005737,-0.175389,0.093801,0.048688,82.858948,36.653946,-149.40332,,,
729705684.827527,-2.332206,-4.989421,77.550237,0.086533,-0.042877,1.005737,-0.175389,0.093801,0.048688,82.858948,36.653946,-149.40332,,,
729705684.830927,-2.384009,-4.966789,77.558693,0.084412,-0.045395,1.000443,-0.174988,0.074686,0.041379,82.858948,36.653946,-149.40332,,,
729705684.834267,-2.431598,-4.948661,77.565882,0.084412,-0.045395,1.000443,-0.174988,0.074686,0.041379,82.858948,36.653946,-149.40332,,,
729705684.837562,-2.431598,-4.948661,77.565882,0.084412,-0.045395,1.000443,-0.174988,0.074686,0.041379,82.858948,36.653946,-149.40332,,,
729705684.840859,-2.47793,-4.936806,77.571697,0.084442,-0.047424,1.000092,-0.150647,0.029064,0.029472,82.858948,36.653946,-149.40332,,,
729705684.844193,-2.47793,-4.936806,77.571697,0.084442,-0.047424,1.000092,-0.150647,0.029064,0.029472,83.199768,36.942825,-149.725647,,,
729705684.847604,-2.518449,-4.932704,77.575542,0.084442,-0.047424,1.000092,-0.150647,0.029064,0.029472,83.199768,36.942825,-149.725647,,,
729705684.850876,-2.556417,-4.935076,77.576538,0.087326,-0.044159,1.001221,-0.125671,-0.015681,0.007377,83.199768,36.942825,-149.725647,,,
729705684.854201,-2.556417,-4.935076,77.576538,0.087326,-0.044159,1.001221,-0.125671,-0.015681,0.007377,83.199768,36.942825,-149.725647,,,
729705684.857539,-2.59002,-4.943997,77.574782,0.087326,-0.044159,1.001221,-0.125671,-0.015681,0.007377,83.199768,36.942825,-149.725647,,,
729705684.860857,-2.619979,-4.956912,77.570741,0.085007,-0.042496,1.002853,-0.101058,-0.049349,-0.010956,83.199768,36.942825,-149.725647,,,
729705684.864259,-2.619979,-4.956912,77.570741,0.085007,-0.042496,1.002853,-0.101058,-0.049349,-0.010956,83.199768,36.942825,-149.725647,,,
729705684.8676,-2.650266,-4.974709,77.564683,0.085007,-0.042496,1.002853,-0.101058,-0.049349,-0.010956,83.199768,36.942825,-149.725647,,,
729705684.87099,-2.676675,-4.996554,77.557609,0.08963,-0.044312,0.996307,-0.091891,-0.075732,-0.018725,83.199768,36.942825,-149.725647,,,
729705684.874201,-2.676675,-4.996554,77.557609,0.08963,-0.044312,0.996307,-0.091891,-0.075732,-0.018725,83.199768,36.942825,-149.725647,,,
729705684.877534,-2.705137,-5.019723,77.550295,0.08963,-0.044312,0.996307,-0.091891,-0.075732,-0.018725,83.199768,36.942825,-149.725647,,,
729705684.880916,-2.731599,-5.044016,77.543497,0.094452,-0.04512,0.991409,-0.091835,-0.081476,-0.014936,83.199768,36.942825,-149.725647,,,
729705684.884187,-2.731599,-5.044016,77.543497,0.094452,-0.04512,0.991409,-0.091835,-0.081476,-0.014936,83.354904,37.071182,-149.368118,,,
729705684.88763,-2.758044,-5.067749,77.537379,0.094452,-0.04512,0.991409,-0.091835,-0.081476,-0.014936,83.354904,37.071182,-149.368118,,,
729705684.890868,-2.784998,-5.087493,77.532093,0.101562,-0.043518,0.992859,-0.096518,-0.056987,-0.008764,83.354904,37.071182,-149.368118,,,
729705684.894221,-2.784998,-5.087493,77.532093,0.101562,-0.043518,0.992859,-0.096518,-0.056987,-0.008764,83.354904,37.071182,-149.368118,,,
729705684.897587,-2.812462,-5.101316,77.527354,0.101562,-0.043518,0.992859,-0.096518,-0.056987,-0.008764,83.354904,37.071182,-149.368118,,,
729705684.900898,-2.843002,-5.110329,77.522734,0.106476,-0.041565,0.992188,-0.109571,-0.018601,-0.006476,83.354904,37.071182,-149.368118,,,
729705684.904227,-2.843002,-5.110329,77.522734,0.106476,-0.041565,0.992188,-0.109571,-0.018601,-0.006476,83.354904,37.071182,-149.368118,,,
729705684.907554,-2.873498,-5.112317,77.518639,0.106476,-0.041565,0.992188,-0.109571,-0.018601,-0.006476,83.354904,37.071182,-149.368118,,,
729705684.91089,-2.907303,-5.10896,77.514614,0.105301,-0.044189,0.990921,-0.120367,0.025085,-0.004631,83.354904,37.071182,-149.368118,,,
729705684.914242,-2.907303,-5.10896,77.514614,0.105301,-0.044189,0.990921,-0.120367,0.025085,-0.004631,83.354904,37.071182,-149.368118,,,
729705684.917562,-2.942478,-5.097855,77.511376,0.105301,-0.044189,0.990921,-0.120367,0.025085,-0.004631,83.354904,37.071182,-149.368118,,,
729705684.920894,-2.981329,-5.082646,77.508989,0.100662,-0.046707,0.98616,-0.140199,0.064005,0.003535,83.354904,37.071182,-149.368118,,,
729705684.924281,-2.981329,-5.082646,77.508989,0.100662,-0.046707,0.98616,-0.140199,0.064005,0.003535,83.354904,37.071182,-149.368118,,,
729705684.927537,-3.022275,-5.062734,77.507035,0.100662,-0.046707,0.98616,-0.140199,0.064005,0.003535,83.115723,37.305801,-149.452927,,,
729705684.930901,-3.068702,-5.040159,77.505206,0.098816,-0.040985,0.97818,-0.16723,0.085983,0.006901,83.115723,37.305801,-149.452927,,,
729705684.934209,-3.068702,-5.040159,77.505206,0.098816,-0.040985,0.97818,-0.16723,0.085983,0.006901,83.115723,37.305801,-149.452927,,,
729705684.937564,-3.11562,-5.014736,77.502903,0.098816,-0.040985,0.97818,-0.16723,0.085983,0.006901,83.115723,37.305801,-149.452927,,,
729705684.940855,-3.168474,-4.987907,77.500352,0.095093,-0.045151,0.972778,-0.188931,0.10048,0.00715,83.115723,37.305801,-149.452927,,,
729705684.944186,-3.168474,-4.987907,77.500352,0.095093,-0.045151,0.972778,-0.188931,0.10048,0.00715,83.115723,37.305801,-149.452927,,,
729705684.947612,-3.220163,-4.960092,77.498194,0.095093,-0.045151,0.972778,-0.188931,0.10048,0.00715,83.115723,37.305801,-149.452927,,,
729705684.950863,-3.274866,-4.932892,77.496015,0.092224,-0.052048,0.975037,-0.188643,0.097856,0.00687,83.115723,37.305801,-149.452927,,,
729705684.954208,-3.274866,-4.932892,77.496015,0.092224,-0.052048,0.975037,-0.188643,0.097856,0.00687,83.115723,37.305801,-149.452927,,,
729705684.957538,-3.324641,-4.908043,77.493374,0.092224,-0.052048,0.975037,-0.188643,0.097856,0.00687,83.115723,37.305801,-149.452927,,,
729705684.960861,-3.374292,-4.883012,77.491061,0.092453,-0.057114,0.979721,-0.165965,0.087353,0.006388,83.115723,37.305801,-149.452927,,,
729705684.964251,-3.374292,-4.883012,77.491061,0.092453,-0.057114,0.979721,-0.165965,0.087353,0.006388,83.115723,37.305801,-149.452927,,,
729705684.96758,-3.417214,-4.86414,77.488263,0.092453,-0.057114,0.979721,-0.165965,0.087353,0.006388,83.358795,37.757706,-149.453735,,,
729705684.970883,-3.460966,-4.84653,77.484321,0.090256,-0.060684,0.977127,-0.14847,0.057361,-0.00454,83.358795,37.757706,-149.453735,,,
729705684.974282,-3.460966,-4.84653,77.484321,0.090256,-0.060684,0.977127,-0.14847,0.057361,-0.00454,83.358795,37.757706,-149.453735,,,
729705684.977535,-3.498769,-4.838662,77.478958,0.090256,-0.060684,0.977127,-0.14847,0.057361,-0.00454,83.358795,37.757706,-149.453735,,,
729705684.980905,-3.540551,-4.829647,77.47313,0.082855,-0.061615,0.974106,-0.144581,0.03036,-0.010393,83.358795,37.757706,-149.453735,,,
729705684.984214,-3.540551,-4.829647,77.47313,0.082855,-0.061615,0.974106,-0.144581,0.03036,-0.010393,83.358795,37.757706,-149.453735,,,
729705684.987522,-3.576068,-4.831188,77.466505,0.082855,-0.061615,0.974106,-0.144581,0.03036,-0.010393,83.358795,37.757706,-149.453735,,,
729705684.990855,-3.615331,-4.832994,77.459682,0.077911,-0.063034,0.971664,-0.137112,-0.011584,-0.014902,83.358795,37.757706,-149.453735,,,
729705684.9942,-3.615331,-4.832994,77.459682,0.077911,-0.063034,0.971664,-0.137112,-0.011584,-0.014902,83.358795,37.757706,-149.453735,,,
729705684.997569,-3.650287,-4.845592,77.452273,0.077911,-0.063034,0.971664,-0.137112,-0.011584,-0.014902,83.358795,37.757706,-149.453735,,,
729705685.00088,-3.690068,-4.857418,77.444649,0.081345,-0.065079,0.969589,-0.142149,-0.039965,-0.018095,83.358795,37.757706,-149.453735,,,
729705685.004212,-3.690068,-4.857418,77.444649,0.081345,-0.065079,0.969589,-0.142149,-0.039965,-0.018095,83.358795,37.757706,-149.453735,,,
729705685.007537,-3.727219,-4.8746,77.436072,0.081345,-0.065079,0.969589,-0.142149,-0.039965,-0.018095,83.423508,38.046753,-148.948792,,,
729705685.010873,-3.771841,-4.888391,77.427138,0.084305,-0.065628,0.975235,-0.163702,-0.042055,-0.020289,83.423508,38.046753,-148.948792,,,
729705685.014284,-3.771841,-4.888391,77.427138,0.084305,-0.065628,0.975235,-0.163702,-0.042055,-0.020289,83.423508,38.046753,-148.948792,,,
729705685.017574,-3.815275,-4.904033,77.417321,0.084305,-0.065628,0.975235,-0.163702,-0.042055,-0.020289,83.423508,38.046753,-148.948792,,,
729705685.020858,-3.867339,-4.91428,77.407319,0.086639,-0.063599,0.97937,-0.19121,-0.02494,-0.020523,83.423508,38.046753,-148.948792,,,
729705685.024199,-3.867339,-4.91428,77.407319,0.086639,-0.063599,0.97937,-0.19121,-0.02494,-0.020523,83.423508,38.046753,-148.948792,,,
729705685.027603,-3.920796,-4.92353,77.396884,0.086639,-0.063599,0.97937,-0.19121,-0.02494,-0.020523,83.423508,38.046753,-148.948792,,,
729705685.030895,-3.981559,-4.927958,77.38654,0.091812,-0.063431,0.979233,-0.219481,-0.003401,-0.018262,83.423508,38.046753,-148.948792,,,
729705685.034209,-3.981559,-4.927958,77.38654,0.091812,-0.063431,0.979233,-0.219481,-0.003401,-0.018262,83.423508,38.046753,-148.948792,,,
729705685.037535,-4.043502,-4.930017,77.376177,0.091812,-0.063431,0.979233,-0.219481,-0.003401,-0.018262,83.423508,38.046753,-148.948792,,,
729705685.040853,-4.110747,-4.926348,77.366815,0.094971,-0.068329,0.985687,-0.23912,0.026692,-0.010236,83.423508,38.046753,-148.948792,,,
729705685.044201,-4.110747,-4.926348,77.366815,0.094971,-0.068329,0.985687,-0.23912,0.026692,-0.010236,83.423508,38.046753,-148.948792,,,
729705685.047575,-4.177215,-4.91956,77.358494,0.094971,-0.068329,0.985687,-0.23912,0.026692,-0.010236,83.40834,38.613174,-149.08873,,,
729705685.050854,-4.244961,-4.908072,77.350999,0.094254,-0.071869,0.99588,-0.233945,0.050231,-0.005633,83.40834,38.613174,-149.08873,,,
729705685.054201,-4.244961,-4.908072,77.350999,0.094254,-0.071869,0.99588,-0.233945,0.050231,-0.005633,83.40834,38.613174,-149.08873,,,
729705685.057549,-4.30846,-4.893615,77.344114,0.094254,-0.071869,0.99588,-0.233945,0.050231,-0.005633,83.40834,38.613174,-149.08873,,,
729705685.060852,-4.37092,-4.875522,77.337524,0.09549,-0.077347,1.001343,-0.21177,0.071392,-0.005904,83.40834,38.613174,-149.08873,,,
729705685.064297,-4.37092,-4.875522,77.337524,0.09549,-0.077347,1.001343,-0.21177,0.071392,-0.005904,83.40834,38.613174,-149.08873,,,
729705685.067536,-4.427055,-4.855526,77.330748,0.09549,-0.077347,1.001343,-0.21177,0.071392,-0.005904,83.40834,38.613174,-149.08873,,,
729705685.070872,-4.482265,-4.836455,77.323224,0.091812,-0.078339,1.002823,-0.18838,0.070215,-0.012853,83.40834,38.613174,-149.08873,,,
729705685.074208,-4.482265,-4.836455,77.323224,0.091812,-0.078339,1.002823,-0.18838,0.070215,-0.012853,83.40834,38.613174,-149.08873,,,
729705685.077626,-4.532277,-4.817446,77.315471,0.091812,-0.078339,1.002823,-0.18838,0.070215,-0.012853,83.40834,38.613174,-149.08873,,,
729705685.080909,-4.583315,-4.799991,77.306718,0.086319,-0.078903,0.997604,-0.177691,0.064578,-0.020445,83.40834,38.613174,-149.08873,,,
729705685.084206,-4.583315,-4.799991,77.306718,0.086319,-0.078903,0.997604,-0.177691,0.064578,-0.020445,83.40834,38.613174,-149.08873,,,
729705685.087547,-4.630916,-4.78417,77.296633,0.086319,-0.078903,0.997604,-0.177691,0.064578,-0.020445,83.40834,38.613174,-149.08873,,,
729705685.090858,-4.681473,-4.76981,77.286136,0.086044,-0.08255,0.991852,-0.178787,0.052826,-0.023402,83.307434,38.909073,-148.767914,,,
729705685.094196,-4.681473,-4.76981,77.286136,0.086044,-0.08255,0.991852,-0.178787,0.052826,-0.023402,83.307434,38.909073,-148.767914,,,
729705685.097597,-4.728605,-4.757812,77.27531,0.086044,-0.08255,0.991852,-0.178787,0.052826,-0.023402,83.307434,38.909073,-148.767914,,,
729705685.100867,-4.780293,-4.746275,77.264296,0.084961,-0.084213,0.988159,-0.182417,0.043474,-0.024961,83.307434,38.909073,-148.767914,,,
729705685.104281,-4.780293,-4.746275,77.264296,0.084961,-0.084213,0.988159,-0.182417,0.043474,-0.024961,83.307434,38.909073,-148.767914,,,
729705685.107603,-4.827553,-4.737955,77.252876,0.084961,-0.084213,0.988159,-0.182417,0.043474,-0.024961,83.307434,38.909073,-148.767914,,,
729705685.110857,-4.879216,-4.728809,77.242068,0.0802,-0.09053,0.987823,-0.180141,0.035157,-0.02209,83.307434,38.909073,-148.767914,,,
729705685.114279,-4.879216,-4.728809,77.242068,0.0802,-0.09053,0.987823,-0.180141,0.035157,-0.02209,83.307434,38.909073,-148.767914,,,
729705685.117539,-4.925915,-4.723582,77.231267,0.0802,-0.09053,0.987823,-0.180141,0.035157,-0.02209,83.307434,38.909073,-148.767914,,,
729705685.120877,-4.977274,-4.715897,77.220634,0.078674,-0.095367,0.990143,-0.178615,0.030706,-0.022919,83.307434,38.909073,-148.767914,,,
729705685.124201,-4.977274,-4.715897,77.220634,0.078674,-0.095367,0.990143,-0.178615,0.030706,-0.022919,83.307434,38.909073,-148.767914,,,
729705685.127601,-5.023449,-4.712059,77.209581,0.078674,-0.095367,0.990143,-0.178615,0.030706,-0.022919,83.307434,38.909073,-148.767914,,,
729705685.130893,-5.073845,-4.705166,77.198002,0.079559,-0.094009,0.991318,-0.178748,0.030476,-0.028491,83.594757,39.174942,-148.569321,,,
729705685.134206,-5.073845,-4.705166,77.198002,0.079559,-0.094009,0.991318,-0.178748,0.030476,-0.028491,83.594757,39.174942,-148.569321,,,
729705685.137563,-5.121326,-4.701713,77.185165,0.079559,-0.094009,0.991318,-0.178748,0.030476,-0.028491,83.594757,39.174942,-148.569321,,,
729705685.140851,-5.172628,-4.695383,77.172285,0.076691,-0.094025,0.991928,-0.181491,0.028529,-0.030572,83.594757,39.174942,-148.569321,,,
729705685.144223,-5.172628,-4.695383,77.172285,0.076691,-0.094025,0.991928,-0.181491,0.028529,-0.030572,83.594757,39.174942,-148.569321,,,
729705685.147592,-5.221065,-4.692166,77.15897,0.076691,-0.094025,0.991928,-0.181491,0.028529,-0.030572,83.594757,39.174942,-148.569321,,,
729705685.150847,-5.273272,-4.685184,77.145802,0.077286,-0.094452,0.98703,-0.18697,0.033123,-0.03107,83.594757,39.174942,-148.569321,,,
729705685.154205,-5.273272,-4.685184,77.145802,0.077286,-0.094452,0.98703,-0.18697,0.033123,-0.03107,83.594757,39.174942,-148.569321,,,
729705685.157541,-5.32317,-4.677998,77.132775,0.077286,-0.094452,0.98703,-0.18697,0.033123,-0.03107,83.594757,39.174942,-148.569321,,,
729705685.160854,-5.377144,-4.666325,77.121232,0.080261,-0.098511,0.99147,-0.188434,0.051252,-0.021824,83.594757,39.174942,-148.569321,,,
729705685.164333,-5.377144,-4.666325,77.121232,0.080261,-0.098511,0.99147,-0.188434,0.051252,-0.021824,83.594757,39.174942,-148.569321,,,
729705685.167577,-5.426724,-4.653823,77.111786,0.080261,-0.098511,0.99147,-0.188434,0.051252,-0.021824,83.594757,39.174942,-148.569321,,,
729705685.170887,-5.478521,-4.638511,77.10448,0.082123,-0.105026,0.992218,-0.179671,0.062367,-0.008415,83.655731,39.501053,-148.818588,,,
729705685.174213,-5.478521,-4.638511,77.10448,0.082123,-0.105026,0.992218,-0.179671,0.062367,-0.008415,83.655731,39.501053,-148.818588,,,
729705685.177616,-5.526215,-4.621521,77.099705,0.082123,-0.105026,0.992218,-0.179671,0.062367,-0.008415,83.655731,39.501053,-148.818588,,,
729705685.180901,-5.575647,-4.599445,77.097986,0.084625,-0.108948,0.998398,-0.169831,0.085996,0.010907,83.655731,39.501053,-148.818588,,,
729705685.18422,-5.575647,-4.599445,77.097986,0.084625,-0.108948,0.998398,-0.169831,0.085996,0.010907,83.655731,39.501053,-148.818588,,,
729705685.187627,-5.620779,-4.575447,77.099114,0.084625,-0.108948,0.998398,-0.169831,0.085996,0.010907,83.655731,39.501053,-148.818588,,,
729705685.190849,-5.66697,-4.549637,77.102373,0.079559,-0.111221,0.996597,-0.15761,0.092401,0.024149,83.655731,39.501053,-148.818588,,,
729705685.194202,-5.66697,-4.549637,77.102373,0.079559,-0.111221,0.996597,-0.15761,0.092401,0.024149,83.655731,39.501053,-148.818588,,,
729705685.197598,-5.711697,-4.52402,77.106586,0.079559,-0.111221,0.996597,-0.15761,0.092401,0.024149,83.655731,39.501053,-148.818588,,,
729705685.20088,-5.757205,-4.498839,77.111535,0.079025,-0.107254,0.986115,-0.156187,0.088694,0.028969,83.655731,39.501053,-148.818588,,,
729705685.204236,-5.757205,-4.498839,77.111535,0.079025,-0.107254,0.986115,-0.156187,0.088694,0.028969,83.655731,39.501053,-148.818588,,,
729705685.207558,-5.802086,-4.474359,77.116373,0.079025,-0.107254,0.986115,-0.156187,0.088694,0.028969,83.655731,39.501053,-148.818588,,,
729705685.210902,-5.849932,-4.450334,77.120052,0.073776,-0.104111,0.983276,-0.16858,0.083935,0.02148,83.82579,39.858185,-148.645859,,,
729705685.21427,-5.849932,-4.450334,77.120052,0.073776,-0.104111,0.983276,-0.16858,0.083935,0.02148,83.82579,39.858185,-148.645859,,,
729705685.217551,-5.898165,-4.428248,77.121361,0.073776,-0.104111,0.983276,-0.16858,0.083935,0.02148,83.82579,39.858185,-148.645859,,,
729705685.220854,-5.950642,-4.408766,77.120622,0.069427,-0.099762,0.974884,-0.185346,0.065916,0.008239,83.82579,39.858185,-148.645859,,,
729705685.224196,-5.950642,-4.408766,77.120622,0.069427,-0.099762,0.974884,-0.185346,0.065916,0.008239,83.82579,39.858185,-148.645859,,,
729705685.227604,-6.002775,-4.392263,77.118439,0.069427,-0.099762,0.974884,-0.185346,0.065916,0.008239,83.82579,39.858185,-148.645859,,,
729705685.230897,-6.059824,-4.377673,77.114893,0.065506,-0.100723,0.976181,-0.203029,0.053164,0.000101,83.82579,39.858185,-148.645859,,,
729705685.234197,-6.059824,-4.377673,77.114893,0.065506,-0.100723,0.976181,-0.203029,0.053164,0.000101,83.82579,39.858185,-148.645859,,,
729705685.237575,-6.115712,-4.363931,77.111295,0.065506,-0.100723,0.976181,-0.203029,0.053164,0.000101,83.82579,39.858185,-148.645859,,,
729705685.240854,-6.173072,-4.348353,77.108898,0.059647,-0.110489,0.99292,-0.19748,0.060174,0.00734,83.82579,39.858185,-148.645859,,,
729705685.244204,-6.173072,-4.348353,77.108898,0.059647,-0.110489,0.99292,-0.19748,0.060174,0.00734,83.82579,39.858185,-148.645859,,,
729705685.247604,-6.228696,-4.333221,77.107969,0.059647,-0.110489,0.99292,-0.19748,0.060174,0.00734,83.82579,39.858185,-148.645859,,,
729705685.25085,-6.284845,-4.316426,77.109766,0.057816,-0.116821,0.996933,-0.190812,0.060771,0.024674,83.82579,39.858185,-148.645859,,,
729705685.254199,-6.284845,-4.316426,77.109766,0.057816,-0.116821,0.996933,-0.190812,0.060771,0.024674,83.947998,40.12645,-148.479752,,,
729705685.257534,-6.338782,-4.302149,77.113997,0.057816,-0.116821,0.996933,-0.190812,0.060771,0.024674,83.947998,40.12645,-148.479752,,,
729705685.260855,-6.393162,-4.284407,77.121404,0.052826,-0.121033,0.998245,-0.18612,0.065274,0.044348,83.947998,40.12645,-148.479752,,,
729705685.26426,-6.393162,-4.284407,77.121404,0.052826,-0.121033,0.998245,-0.18612,0.065274,0.044348,83.947998,40.12645,-148.479752,,,
729705685.267594,-6.446768,-4.266244,77.131596,0.052826,-0.121033,0.998245,-0.18612,0.065274,0.044348,83.947998,40.12645,-148.479752,,,
729705685.270865,-6.499455,-4.244132,77.144702,0.055206,-0.121841,1.00145,-0.176002,0.077291,0.06224,83.947998,40.12645,-148.479752,,,
729705685.274209,-6.499455,-4.244132,77.144702,0.055206,-0.121841,1.00145,-0.176002,0.077291,0.06224,83.947998,40.12645,-148.479752,,,
729705685.277531,-6.549477,-4.222154,77.159744,0.055206,-0.121841,1.00145,-0.176002,0.077291,0.06224,83.947998,40.12645,-148.479752,,,
729705685.280906,-6.598106,-4.197644,77.176553,0.061523,-0.120041,0.996826,-0.159518,0.083189,0.071958,83.947998,40.12645,-148.479752,,,
729705685.284199,-6.598106,-4.197644,77.176553,0.061523,-0.120041,0.996826,-0.159518,0.083189,0.071958,83.947998,40.12645,-148.479752,,,
729705685.287536,-6.642248,-4.172904,77.193911,0.061523,-0.120041,0.996826,-0.159518,0.083189,0.071958,83.947998,40.12645,-148.479752,,,
729705685.290851,-6.686391,-4.146744,77.210158,0.068924,-0.116302,0.997177,-0.145049,0.087007,0.062276,83.947998,40.12645,-148.479752,,,
729705685.294192,-6.686391,-4.146744,77.210158,0.068924,-0.116302,0.997177,-0.145049,0.087007,0.062276,84.099091,40.442566,-148.274429,,,
729705685.297584,-6.726023,-4.120891,77.224836,0.068924,-0.116302,0.997177,-0.145049,0.087007,0.062276,84.099091,40.442566,-148.274429,,,
729705685.300881,-6.768012,-4.095431,77.237964,0.066757,-0.116592,0.990952,-0.139355,0.085978,0.051026,84.099091,40.442566,-148.274429,,,
729705685.304191,-6.768012,-4.095431,77.237964,0.066757,-0.116592,0.990952,-0.139355,0.085978,0.051026,84.099091,40.442566,-148.274429,,,
729705685.307558,-6.804019,-4.070365,77.249678,0.066757,-0.116592,0.990952,-0.139355,0.085978,0.051026,84.099091,40.442566,-148.274429,,,
729705685.310853,-6.842597,-4.046824,77.260173,0.062317,-0.11525,0.991745,-0.128443,0.079697,0.042085,84.099091,40.442566,-148.274429,,,
729705685.314275,-6.842597,-4.046824,77.260173,0.062317,-0.11525,0.991745,-0.128443,0.079697,0.042085,84.099091,40.442566,-148.274429,,,
729705685.317556,-6.876967,-4.022919,77.269568,0.062317,-0.11525,0.991745,-0.128443,0.079697,0.042085,84.099091,40.442566,-148.274429,,,
729705685.320863,-6.913131,-4.002562,77.278197,0.063095,-0.11554,0.98912,-0.12109,0.067722,0.037603,84.099091,40.442566,-148.274429,,,
729705685.324207,-6.913131,-4.002562,77.278197,0.063095,-0.11554,0.98912,-0.12109,0.067722,0.037603,84.099091,40.442566,-148.274429,,,
729705685.327594,-6.94675,-3.98039,77.286962,0.063095,-0.11554,0.98912,-0.12109,0.067722,0.037603,84.099091,40.442566,-148.274429,,,
729705685.330894,-6.981598,-3.962389,77.294716,0.064407,-0.115784,0.984024,-0.119699,0.058816,0.032709,84.099091,40.442566,-148.274429,,,
729705685.334243,-6.981598,-3.962389,77.294716,0.064407,-0.115784,0.984024,-0.119699,0.058816,0.032709,84.486984,40.776627,-148.172897,,,
729705685.337535,-7.016537,-3.943808,77.301617,0.064407,-0.115784,0.984024,-0.119699,0.058816,0.032709,84.486984,40.776627,-148.172897,,,
729705685.34085,-7.05379,-3.931868,77.306062,0.069305,-0.108459,0.977966,-0.132417,0.038242,0.019462,84.486984,40.776627,-148.172897,,,
729705685.3442,-7.05379,-3.931868,77.306062,0.069305,-0.108459,0.977966,-0.132417,0.038242,0.019462,84.486984,40.776627,-148.172897,,,
729705685.347586,-7.093433,-3.91849,77.309045,0.069305,-0.108459,0.977966,-0.132417,0.038242,0.019462,84.486984,40.776627,-148.172897,,,
729705685.350845,-7.136878,-3.910074,77.309799,0.070923,-0.109222,0.974274,-0.156576,0.031354,0.008792,84.486984,40.776627,-148.172897,,,
729705685.354263,-7.136878,-3.910074,77.309799,0.070923,-0.109222,0.974274,-0.156576,0.031354,0.008792,84.486984,40.776627,-148.172897,,,
729705685.357542,-7.18285,-3.89967,77.309195,0.070923,-0.109222,0.974274,-0.156576,0.031354,0.008792,84.486984,40.776627,-148.172897,,,
729705685.360856,-7.234236,-3.892626,77.306763,0.067902,-0.112946,0.974747,-0.186719,0.02722,0.000399,84.486984,40.776627,-148.172897,,,
729705685.364259,-7.234236,-3.892626,77.306763,0.067902,-0.112946,0.974747,-0.186719,0.02722,0.000399,84.486984,40.776627,-148.172897,,,
729705685.367592,-7.287593,-3.886472,77.302742,0.067902,-0.112946,0.974747,-0.186719,0.02722,0.000399,84.486984,40.776627,-148.172897,,,
729705685.370864,-7.345967,-3.882951,77.297869,0.072006,-0.117325,0.970764,-0.20743,0.01425,-0.003481,84.486984,40.776627,-148.172897,,,
729705685.374269,-7.345967,-3.882951,77.297869,0.072006,-0.117325,0.970764,-0.20743,0.01425,-0.003481,84.486984,40.776627,-148.172897,,,
729705685.377594,-7.403428,-3.880762,77.292826,0.072006,-0.117325,0.970764,-0.20743,0.01425,-0.003481,84.50148,41.117996,-148.096817,,,
729705685.380911,-7.464475,-3.876637,77.288279,0.073181,-0.124039,0.981155,-0.211853,0.024607,-8.3e-05,84.50148,41.117996,-148.096817,,,
729705685.384198,-7.464475,-3.876637,77.288279,0.073181,-0.124039,0.981155,-0.211853,0.024607,-8.3e-05,84.50148,41.117996,-148.096817,,,
729705685.387529,-7.521623,-3.868232,77.284724,0.073181,-0.124039,0.981155,-0.211853,0.024607,-8.3e-05,84.50148,41.117996,-148.096817,,,
729705685.390856,-7.580147,-3.857513,77.28183,0.075684,-0.13179,0.993866,-0.19766,0.045897,0.004232,84.50148,41.117996,-148.096817,,,
729705685.394214,-7.580147,-3.857513,77.28183,0.075684,-0.13179,0.993866,-0.19766,0.045897,0.004232,84.50148,41.117996,-148.096817,,,
729705685.397578,-7.632457,-3.843689,77.280064,0.075684,-0.13179,0.993866,-0.19766,0.045897,0.004232,84.50148,41.117996,-148.096817,,,
729705685.400879,-7.687258,-3.828509,77.278995,0.076721,-0.133743,0.993881,-0.185819,0.062502,0.009193,84.50148,41.117996,-148.096817,,,
729705685.404212,-7.687258,-3.828509,77.278995,0.076721,-0.133743,0.993881,-0.185819,0.062502,0.009193,84.50148,41.117996,-148.096817,,,
729705685.407529,-7.735562,-3.810021,77.279345,0.076721,-0.133743,0.993881,-0.185819,0.062502,0.009193,84.50148,41.117996,-148.096817,,,
729705685.410857,-7.786786,-3.790995,77.280653,0.075806,-0.136734,0.991653,-0.175458,0.068827,0.015495,84.50148,41.117996,-148.096817,,,
729705685.414235,-7.786786,-3.790995,77.280653,0.075806,-0.136734,0.991653,-0.175458,0.068827,0.015495,84.50148,41.117996,-148.096817,,,
729705685.417518,-7.833106,-3.772846,77.282004,0.075806,-0.136734,0.991653,-0.175458,0.068827,0.015495,84.49501,41.548004,-148.019882,,,
729705685.420861,-7.88756,-3.756319,77.283196,0.071335,-0.1362,0.978424,-0.194244,0.056787,0.015391,84.49501,41.548004,-148.019882,,,
729705685.424198,-7.88756,-3.756319,77.283196,0.071335,-0.1362,0.978424,-0.194244,0.056787,0.015391,84.49501,41.548004,-148.019882,,,
729705685.427595,-7.938361,-3.743668,77.283274,0.071335,-0.1362,0.978424,-0.194244,0.056787,0.015391,84.49501,41.548004,-148.019882,,,
729705685.430891,-7.999971,-3.731145,77.282768,0.069565,-0.134583,0.971313,-0.22177,0.043989,0.011404,84.49501,41.548004,-148.019882,,,
729705685.434213,-7.999971,-3.731145,77.282768,0.069565,-0.134583,0.971313,-0.22177,0.043989,0.011404,84.49501,41.548004,-148.019882,,,
729705685.437526,-8.059647,-3.721062,77.281035,0.069565,-0.134583,0.971313,-0.22177,0.043989,0.011404,84.49501,41.548004,-148.019882,,,
729705685.440873,-8.130065,-3.709758,77.277409,0.071259,-0.135712,0.975006,-0.252819,0.044948,-0.001082,84.49501,41.548004,-148.019882,,,
729705685.444205,-8.130065,-3.709758,77.277409,0.071259,-0.135712,0.975006,-0.252819,0.044948,-0.001082,84.49501,41.548004,-148.019882,,,
729705685.447586,-8.198899,-3.700335,77.271447,0.071259,-0.135712,0.975006,-0.252819,0.044948,-0.001082,84.49501,41.548004,-148.019882,,,
729705685.450852,-8.277732,-3.688968,77.263875,0.074463,-0.136139,0.974869,-0.281042,0.048513,-0.012154,84.49501,41.548004,-148.019882,,,
729705685.454187,-8.277732,-3.688968,77.263875,0.074463,-0.136139,0.974869,-0.281042,0.048513,-0.012154,84.49501,41.548004,-148.019882,,,
729705685.457521,-8.354231,-3.678025,77.254607,0.074463,-0.136139,0.974869,-0.281042,0.048513,-0.012154,84.706024,42.056046,-147.940964,,,
729705685.460853,-8.436741,-3.662006,77.244185,0.077744,-0.143936,0.982376,-0.288027,0.068086,-0.022245,84.706024,42.056046,-147.940964,,,
729705685.46426,-8.436741,-3.662006,77.244185,0.077744,-0.143936,0.982376,-0.288027,0.068086,-0.022245,84.706024,42.056046,-147.940964,,,
729705685.467593,-8.514305,-3.647653,77.231694,0.077744,-0.143936,0.982376,-0.288027,0.068086,-0.022245,84.706024,42.056046,-147.940964,,,
729705685.470856,-8.59637,-3.630016,77.218413,0.078384,-0.152817,0.990662,-0.287677,0.073856,-0.030516,84.706024,42.056046,-147.940964,,,
729705685.474213,-8.59637,-3.630016,77.218413,0.078384,-0.152817,0.990662,-0.287677,0.073856,-0.030516,84.706024,42.056046,-147.940964,,,
729705685.477606,-8.673794,-3.615223,77.20392,0.078384,-0.152817,0.990662,-0.287677,0.073856,-0.030516,84.706024,42.056046,-147.940964,,,
729705685.480898,-8.7556,-3.597078,77.189935,0.071945,-0.158127,0.988541,-0.287674,0.074834,-0.030499,84.706024,42.056046,-147.940964,,,
729705685.48418,-8.7556,-3.597078,77.189935,0.071945,-0.158127,0.988541,-0.287674,0.074834,-0.030499,84.706024,42.056046,-147.940964,,,
729705685.487533,-8.833512,-3.582381,77.176017,0.071945,-0.158127,0.988541,-0.287674,0.074834,-0.030499,84.706024,42.056046,-147.940964,,,
729705685.490857,-8.915382,-3.564779,77.16326,0.066895,-0.158417,0.989716,-0.284159,0.071192,-0.026282,84.706024,42.056046,-147.940964,,,
729705685.494193,-8.915382,-3.564779,77.16326,0.066895,-0.158417,0.989716,-0.284159,0.071192,-0.026282,84.706024,42.056046,-147.940964,,,
729705685.497567,-8.99169,-3.550515,77.150208,0.066895,-0.158417,0.989716,-0.284159,0.071192,-0.026282,84.919861,42.817017,-147.833694,,,
729705685.500869,-9.071459,-3.533438,77.137483,0.071991,-0.161316,0.990982,-0.277812,0.069688,-0.027889,84.919861,42.817017,-147.833694,,,
729705685.504192,-9.071459,-3.533438,77.137483,0.071991,-0.161316,0.990982,-0.277812,0.069688,-0.027889,84.919861,42.817017,-147.833694,,,
729705685.507553,-9.144371,-3.518857,77.12447,0.071991,-0.161316,0.990982,-0.277812,0.069688,-0.027889,84.919861,42.817017,-147.833694,,,
729705685.510853,-9.220737,-3.502219,77.111872,0.073715,-0.167679,0.995117,-0.265067,0.066282,-0.028696,84.919861,42.817017,-147.833694,,,
729705685.514294,-9.220737,-3.502219,77.111872,0.073715,-0.167679,0.995117,-0.265067,0.066282,-0.028696,84.919861,42.817017,-147.833694,,,
729705685.517549,-9.289299,-3.489017,77.099653,0.073715,-0.167679,0.995117,-0.265067,0.066282,-0.028696,84.919861,42.817017,-147.833694,,,
729705685.52085,-9.360992,-3.473556,77.089066,0.070053,-0.173965,0.991852,-0.24693,0.061248,-0.021784,84.919861,42.817017,-147.833694,,,
729705685.524197,-9.360992,-3.473556,77.089066,0.070053,-0.173965,0.991852,-0.24693,0.061248,-0.021784,84.919861,42.817017,-147.833694,,,
729705685.527599,-9.425514,-3.462006,77.078218,0.070053,-0.173965,0.991852,-0.24693,0.061248,-0.021784,84.919861,42.817017,-147.833694,,,
729705685.530889,-9.494369,-3.448315,77.068082,0.070404,-0.175018,0.989502,-0.236328,0.053134,-0.021306,84.919861,42.817017,-147.833694,,,
729705685.534245,-9.494369,-3.448315,77.068082,0.070404,-0.175018,0.989502,-0.236328,0.053134,-0.021306,84.919861,42.817017,-147.833694,,,
729705685.537571,-9.55675,-3.441234,77.057669,0.070404,-0.175018,0.989502,-0.236328,0.053134,-0.021306,84.919861,42.817017,-147.833694,,,
729705685.540844,-9.623811,-3.433717,77.048818,0.064026,-0.177521,0.983276,-0.230209,0.02737,-0.015666,84.912796,43.212723,-147.507263,,,
729705685.544216,-9.623811,-3.433717,77.048818,0.064026,-0.177521,0.983276,-0.230209,0.02737,-0.015666,84.912796,43.212723,-147.507263,,,
729705685.547603,-9.685922,-3.434254,77.039747,0.064026,-0.177521,0.983276,-0.230209,0.02737,-0.015666,84.912796,43.212723,-147.507263,,,
729705685.550846,-9.751975,-3.43393,77.031648,0.062241,-0.177155,0.980698,-0.22982,0.002249,-0.014072,84.912796,43.212723,-147.507263,,,
729705685.554189,-9.751975,-3.43393,77.031648,0.062241,-0.177155,0.980698,-0.22982,0.002249,-0.014072,84.912796,43.212723,-147.507263,,,
729705685.557524,-9.814189,-3.440193,77.023603,0.062241,-0.177155,0.980698,-0.22982,0.002249,-0.014072,84.912796,43.212723,-147.507263,,,
729705685.560852,-9.878965,-3.44395,77.01675,0.065308,-0.175507,0.982315,-0.224954,-0.005232,-0.010205,84.912796,43.212723,-147.507263,,,
729705685.564263,-9.878965,-3.44395,77.01675,0.065308,-0.175507,0.982315,-0.224954,-0.005232,-0.010205,84.912796,43.212723,-147.507263,,,
729705685.56758,-9.940376,-3.448182,77.01017,0.065308,-0.175507,0.982315,-0.224954,-0.005232,-0.010205,84.912796,43.212723,-147.507263,,,
729705685.570858,-10.004055,-3.447987,77.004637,0.068481,-0.177109,0.995392,-0.221206,0.011822,-0.005364,84.912796,43.212723,-147.507263,,,
729705685.574186,-10.004055,-3.447987,77.004637,0.068481,-0.177109,0.995392,-0.221206,0.011822,-0.005364,84.912796,43.212723,-147.507263,,,
729705685.577615,-10.064843,-3.447368,76.999909,0.068481,-0.177109,0.995392,-0.221206,0.011822,-0.005364,84.912796,43.212723,-147.507263,,,
729705685.580852,-10.129616,-3.442557,76.997448,0.061981,-0.184616,0.993103,-0.225733,0.025669,0.008251,84.873871,43.586548,-147.108826,,,
729705685.58421,-10.129616,-3.442557,76.997448,0.061981,-0.184616,0.993103,-0.225733,0.025669,0.008251,84.873871,43.586548,-147.108826,,,
729705685.587532,-10.192165,-3.437316,76.996117,0.061981,-0.184616,0.993103,-0.225733,0.025669,0.008251,84.873871,43.586548,-147.108826,,,
729705685.590853,-10.25748,-3.42586,76.996264,0.058167,-0.187561,0.991547,-0.227076,0.047973,0.014996,84.873871,43.586548,-147.108826,,,
729705685.594204,-10.25748,-3.42586,76.996264,0.058167,-0.187561,0.991547,-0.227076,0.047973,0.014996,84.873871,43.586548,-147.108826,,,
729705685.597572,-10.321528,-3.413746,76.99779,0.058167,-0.187561,0.991547,-0.227076,0.047973,0.014996,84.873871,43.586548,-147.108826,,,
729705685.600907,-10.388067,-3.396844,77.002154,0.05687,-0.186356,0.988556,-0.230478,0.061579,0.031684,84.873871,43.586548,-147.108826,,,
729705685.604198,-10.388067,-3.396844,77.002154,0.05687,-0.186356,0.988556,-0.230478,0.061579,0.031684,84.873871,43.586548,-147.108826,,,
729705685.607525,-10.453594,-3.380811,77.009268,0.05687,-0.186356,0.988556,-0.230478,0.061579,0.031684,84.873871,43.586548,-147.108826,,,
729705685.610918,-10.519647,-3.361343,77.020532,0.04982,-0.193649,0.989532,-0.222813,0.065484,0.056831,84.873871,43.586548,-147.108826,,,
729705685.614248,-10.519647,-3.361343,77.020532,0.04982,-0.193649,0.989532,-0.222813,0.065484,0.056831,84.873871,43.586548,-147.108826,,,
729705685.61752,-10.581456,-3.342985,77.034397,0.04982,-0.193649,0.989532,-0.222813,0.065484,0.056831,84.873871,43.586548,-147.108826,,,
729705685.620867,-10.640607,-3.322339,77.050739,0.04982,-0.193649,0.989532,-0.19339,0.064317,0.06933,85.202957,44.070969,-146.968506,,,
729705685.624192,-10.640607,-3.322339,77.050739,0.049133,-0.196503,0.994568,-0.19339,0.064317,0.06933,85.202957,44.070969,-146.968506,,,
729705685.627517,-10.694024,-3.302172,77.067955,0.049133,-0.196503,0.994568,-0.19339,0.064317,0.06933,85.202957,44.070969,-146.968506,,,
729705685.630872,-10.745506,-3.281872,77.085826,0.049271,-0.19545,0.996841,-0.169039,0.057107,0.070921,85.202957,44.070969,-146.968506,,,
729705685.634261,-10.745506,-3.281872,77.085826,0.049271,-0.19545,0.996841,-0.169039,0.057107,0.070921,85.202957,44.070969,-146.968506,,,
729705685.637533,-10.791833,-3.265963,77.103861,0.049271,-0.19545,0.996841,-0.169039,0.057107,0.070921,85.202957,44.070969,-146.968506,,,
729705685.640914,-10.838571,-3.249761,77.121397,0.049271,-0.19545,0.996841,-0.169039,0.057107,0.070921,85.202957,44.070969,-146.968506,,,
729705685.644188,-10.838571,-3.249761,77.121397,0.046722,-0.189896,0.986984,-0.156622,0.0474,0.064401,85.202957,44.070969,-146.968506,,,
729705685.647567,-10.880253,-3.236708,77.136377,0.046722,-0.189896,0.986984,-0.156622,0.0474,0.064401,85.202957,44.070969,-146.968506,,,
729705685.650875,-10.880253,-3.236708,77.136377,0.046722,-0.189896,0.986984,-0.149115,0.051616,0.049144,85.202957,44.070969,-146.968506,,,
729705685.654284,-10.924239,-3.220813,77.149704,0.044067,-0.185349,0.98735,-0.149115,0.051616,0.049144,85.202957,44.070969,-146.968506,,,
729705685.65752,-10.966098,-3.207471,77.160805,0.044067,-0.185349,0.98735,-0.149115,0.051616,0.049144,85.202957,44.070969,-146.968506,,,
729705685.660911,-10.966098,-3.207471,77.160805,0.044067,-0.185349,0.98735,-0.149115,0.051616,0.049144,85.339371,44.360092,-146.744308,,,
729705685.66423,-11.011999,-3.19215,77.170782,0.04213,-0.18335,0.977417,-0.159728,0.048415,0.038404,85.339371,44.360092,-146.744308,,,
729705685.667542,-11.058332,-3.178554,77.17903,0.04213,-0.18335,0.977417,-0.159728,0.048415,0.038404,85.339371,44.360092,-146.744308,,,
729705685.670938,-11.107826,-3.163844,77.186555,0.04213,-0.18335,0.977417,-0.159728,0.048415,0.038404,85.339371,44.360092,-146.744308,,,
729705685.674214,-11.107826,-3.163844,77.186555,0.041046,-0.185089,0.970398,-0.173315,0.051714,0.033102,85.339371,44.360092,-146.744308,,,
729705685.677523,-11.156769,-3.149248,77.19335,0.041046,-0.185089,0.970398,-0.173315,0.051714,0.033102,85.339371,44.360092,-146.744308,,,
729705685.680959,-11.156769,-3.149248,77.199571,0.046417,-0.185272,0.969162,-0.18201,0.05318,0.028439,85.339371,44.360092,-146.744308,,,
729705685.684195,-11.208946,-3.133703,77.199571,0.046417,-0.185272,0.969162,-0.18201,0.05318,0.028439,85.339371,44.360092,-146.744308,,,
729705685.687516,-11.261397,-3.1182,77.204852,0.046417,-0.185272,0.969162,-0.18201,0.05318,0.028439,85.339371,44.360092,-146.744308,,,
729705685.690909,-11.261397,-3.1182,77.204852,0.046417,-0.185272,0.969162,-0.18201,0.05318,0.028439,85.339371,44.360092,-146.744308,,,
729705685.694254,-11.317807,-3.103497,77.209012,0.047409,-0.188522,0.965317,-0.198944,0.050021,0.021747,85.339371,44.360092,-146.744308,,,
729705685.697551,-11.374673,-3.088327,77.212749,0.047409,-0.188522,0.965317,-0.198944,0.050021,0.021747,85.339371,44.360092,-146.744308,,,
729705685.70087,-11.374673,-3.088327,77.212749,0.047409,-0.188522,0.965317,-0.198944,0.050021,0.021747,85.339371,44.360092,-146.744308,,,
729705685.704218,-11.432069,-3.074735,77.215487,0.046646,-0.190155,0.965469,-0.197963,0.049294,0.016564,85.303253,44.664856,-146.654266,,,
729705685.707512,-11.487437,-3.060122,77.216982,0.046646,-0.190155,0.965469,-0.197963,0.049294,0.016564,85.303253,44.664856,-146.654266,,,
729705685.710936,-11.487437,-3.060122,77.216982,0.046646,-0.190155,0.965469,-0.197963,0.049294,0.016564,85.303253,44.664856,-146.654266,,,
729705685.714245,-11.541893,-3.046407,77.21722,0.044495,-0.193008,0.970154,-0.182892,0.050201,0.008169,85.303253,44.664856,-146.654266,,,
729705685.717518,-11.591341,-3.031825,77.21753,0.044495,-0.193008,0.970154,-0.182892,0.050201,0.008169,85.303253,44.664856,-146.654266,,,
729705685.720969,-11.591341,-3.031825,77.21753,0.044495,-0.193008,0.970154,-0.182892,0.050201,0.008169,85.303253,44.664856,-146.654266,,,
729705685.724181,-11.639537,-3.019783,77.218726,0.039276,-0.199738,0.970428,-0.158568,0.040631,0.014761,85.303253,44.664856,-146.654266,,,
729705685.72752,-11.679096,-3.007208,77.221816,0.039276,-0.199738,0.970428,-0.158568,0.040631,0.014761,85.303253,44.664856,-146.654266,,,
729705685.730958,-11.679096,-3.007208,77.221816,0.039276,-0.199738,0.970428,-0.158568,0.040631,0.014761,85.303253,44.664856,-146.654266,,,
729705685.734285,-11.718649,-2.997103,77.225272,0.037598,-0.202759,0.970032,-0.131475,0.034921,0.018281,85.303253,44.664856,-146.654266,,,
729705685.737594,-11.750652,-2.985133,77.22979,0.037598,-0.202759,0.970032,-0.131475,0.034921,0.018281,85.303253,44.664856,-146.654266,,,
729705685.740866,-11.750652,-2.985133,77.22979,0.037598,-0.202759,0.970032,-0.131475,0.034921,0.018281,85.303253,44.664856,-146.654266,,,
729705685.744192,-11.785868,-2.976056,77.234995,0.041611,-0.202499,0.967606,-0.119749,0.028569,0.025372,85.75824,44.921371,-146.496399,,,
729705685.747566,-11.816613,-2.965813,77.241495,0.041611,-0.202499,0.967606,-0.119749,0.028569,0.025372,85.75824,44.921371,-146.496399,,,
729705685.750934,-11.816613,-2.965813,77.241495,0.041611,-0.202499,0.967606,-0.119749,0.028569,0.025372,85.75824,44.921371,-146.496399,,,
729705685.754214,-11.853821,-2.958493,77.247666,0.040848,-0.203384,0.95961,-0.131811,0.02415,0.026988,85.75824,44.921371,-146.496399,,,
729705685.757513,-11.889774,-2.948474,77.254178,0.040848,-0.203384,0.95961,-0.131811,0.02415,0.026988,85.75824,44.921371,-146.496399,,,
729705685.760879,-11.889774,-2.948474,77.254178,0.040848,-0.203384,0.95961,-0.131811,0.02415,0.026988,85.75824,44.921371,-146.496399,,,
729705685.764261,-11.933703,-2.938714,77.259986,0.042877,-0.202911,0.959076,-0.156352,0.035356,0.025886,85.75824,44.921371,-146.496399,,,
729705685.767504,-11.97803,-2.926218,77.265392,0.042877,-0.202911,0.959076,-0.156352,0.035356,0.025886,85.75824,44.921371,-146.496399,,,
729705685.770878,-11.97803,-2.926218,77.265392,0.042877,-0.202911,0.959076,-0.156352,0.035356,0.025886,85.75824,44.921371,-146.496399,,,
729705685.774195,-12.032726,-2.911911,77.270406,0.04277,-0.202957,0.957275,-0.197369,0.052766,0.026125,85.75824,44.921371,-146.496399,,,
729705685.777512,-12.088483,-2.895855,77.275858,0.04277,-0.202957,0.957275,-0.197369,0.052766,0.026125,85.75824,44.921371,-146.496399,,,
729705685.781029,-12.088483,-2.895855,77.275858,0.04277,-0.202957,0.957275,-0.197369,0.052766,0.026125,85.75824,44.921371,-146.496399,,,
729705685.78419,-12.154078,-2.879432,77.281876,0.039597,-0.20842,0.9534,-0.236733,0.05737,0.032516,85.969543,45.188431,-146.557709,,,
729705685.787521,-12.219623,-2.861488,77.289384,0.039597,-0.20842,0.9534,-0.236733,0.05737,0.032516,85.969543,45.188431,-146.557709,,,
729705685.790865,-12.219623,-2.861488,77.289384,0.039597,-0.20842,0.9534,-0.236733,0.05737,0.032516,85.969543,45.188431,-146.557709,,,
729705685.794252,-12.291801,-2.843186,77.297993,0.036911,-0.216568,0.954346,-0.25358,0.063414,0.041855,85.969543,45.188431,-146.557709,,,
729705685.797563,-12.362871,-2.82196,77.307632,0.036911,-0.216568,0.954346,-0.25358,0.063414,0.041855,85.969543,45.188431,-146.557709,,,
729705685.800868,-12.362871,-2.82196,77.307632,0.036911,-0.216568,0.954346,-0.25358,0.063414,0.041855,85.969543,45.188431,-146.557709,,,
729705685.803939,-12.438071,-2.801575,77.317808,0.039352,-0.220932,0.967621,-0.26029,0.065002,0.047451,85.969543,45.188431,-146.557709,,,
729705685.807545,-12.510708,-2.780772,77.329328,0.039352,-0.220932,0.967621,-0.26029,0.065002,0.047451,85.969543,45.188431,-146.557709,,,
729705685.810858,-12.510708,-2.780772,77.329328,0.039352,-0.220932,0.967621,-0.26029,0.065002,0.047451,85.969543,45.188431,-146.557709,,,
729705685.814242,-12.583707,-2.76543,77.340849,0.03566,-0.225937,0.965424,-0.246613,0.041135,0.049828,85.969543,45.188431,-146.557709,,,
729705685.817513,-12.651314,-2.751903,77.351506,0.03566,-0.225937,0.965424,-0.246613,0.041135,0.049828,85.969543,45.188431,-146.557709,,,
729705685.820851,-12.651314,-2.751903,77.351506,0.03566,-0.225937,0.965424,-0.246613,0.041135,0.049828,85.969543,45.188431,-146.557709,,,
729705685.82418,-12.718232,-2.74215,77.358859,0.043747,-0.223541,0.972992,-0.225278,0.02943,0.028375,85.878876,45.758041,-146.05127,,,
729705685.827512,-12.778639,-2.734572,77.362544,0.043747,-0.223541,0.972992,-0.225278,0.02943,0.028375,85.878876,45.758041,-146.05127,,,
729705685.830928,-12.778639,-2.734572,77.362544,0.043747,-0.223541,0.972992,-0.225278,0.02943,0.028375,85.878876,45.758041,-146.05127,,,
729705685.834191,-12.838486,-2.731191,77.361332,0.052124,-0.219635,0.97789,-0.203958,0.012224,-0.005054,85.878876,45.758041,-146.05127,,,
729705685.837521,-12.892652,-2.729643,77.35565,0.052124,-0.219635,0.97789,-0.203958,0.012224,-0.005054,85.878876,45.758041,-146.05127,,,
729705685.840841,-12.892652,-2.729643,77.35565,0.052124,-0.219635,0.97789,-0.203958,0.012224,-0.005054,85.878876,45.758041,-146.05127,,,
729705685.844258,-12.947873,-2.731325,77.346001,0.053024,-0.222244,0.975571,-0.190173,0.002011,-0.031268,85.878876,45.758041,-146.05127,,,
729705685.847578,-12.997808,-2.735446,77.333313,0.053024,-0.222244,0.975571,-0.190173,0.002011,-0.031268,85.878876,45.758041,-146.05127,,,
729705685.850883,-12.997808,-2.735446,77.333313,0.053024,-0.222244,0.975571,-0.190173,0.002011,-0.031268,85.878876,45.758041,-146.05127,,,
729705685.854183,-13.052034,-2.743924,77.31836,0.053864,-0.224991,0.971481,-0.192164,-0.020261,-0.045468,85.878876,45.758041,-146.05127,,,
729705685.857515,-13.103638,-2.755238,77.303597,0.053864,-0.224991,0.971481,-0.192164,-0.020261,-0.045468,85.878876,45.758041,-146.05127,,,
729705685.86085,-13.103638,-2.755238,77.303597,0.053864,-0.224991,0.971481,-0.192164,-0.020261,-0.045468,85.878876,45.758041,-146.05127,,,
729705685.86425,-13.161638,-2.771396,77.28965,0.047852,-0.231567,0.960831,-0.207882,-0.04755,-0.037232,85.878876,45.758041,-146.05127,,,
729705685.867506,-13.219664,-2.787018,77.277378,0.047852,-0.231567,0.960831,-0.207882,-0.04755,-0.037232,85.570801,46.282013,-146.122375,,,
729705685.870953,-13.219664,-2.787018,77.277378,0.047852,-0.231567,0.960831,-0.207882,-0.04755,-0.037232,85.570801,46.282013,-146.122375,,,
729705685.874198,-13.282292,-2.80372,77.266503,0.048431,-0.239105,0.970047,-0.220357,-0.042404,-0.02351,85.570801,46.282013,-146.122375,,,
729705685.877518,-13.345,-2.815207,77.258248,0.048431,-0.239105,0.970047,-0.220357,-0.042404,-0.02351,85.570801,46.282013,-146.122375,,,
729705685.880915,-13.345,-2.815207,77.258248,0.048431,-0.239105,0.970047,-0.220357,-0.042404,-0.02351,85.570801,46.282013,-146.122375,,,
729705685.884244,-13.411733,-2.825918,77.250625,0.05304,-0.240448,0.978195,-0.235546,-0.022427,-0.014676,85.570801,46.282013,-146.122375,,,
729705685.887519,-13.478478,-2.829692,77.245045,0.05304,-0.240448,0.978195,-0.235546,-0.022427,-0.014676,85.570801,46.282013,-146.122375,,,
729705685.890883,-13.478478,-2.829692,77.245045,0.05304,-0.240448,0.978195,-0.235546,-0.022427,-0.014676,85.570801,46.282013,-146.122375,,,
729705685.894211,-13.548735,-2.831537,77.240677,0.054962,-0.245377,0.975449,-0.246225,0.007648,-0.001409,85.570801,46.282013,-146.122375,,,
729705685.89756,-13.618011,-2.826202,77.238432,0.054962,-0.245377,0.975449,-0.246225,0.007648,-0.001409,85.570801,46.282013,-146.122375,,,
729705685.900858,-13.618011,-2.826202,77.238432,0.054962,-0.245377,0.975449,-0.246225,0.007648,-0.001409,85.570801,46.282013,-146.122375,,,
729705685.904206,-13.690646,-2.819343,77.236027,0.051865,-0.248154,0.98056,-0.257598,0.035398,0.00221,85.570801,46.282013,-146.122375,,,
729705685.907514,-13.760767,-2.809682,77.234536,0.051865,-0.248154,0.98056,-0.257598,0.035398,0.00221,85.698822,46.902237,-145.751816,,,
729705685.910918,-13.760767,-2.809682,77.234536,0.051865,-0.248154,0.98056,-0.257598,0.035398,0.00221,85.698822,46.902237,-145.751816,,,
729705685.914251,-13.834781,-2.798161,77.234241,0.050842,-0.245956,0.970779,-0.255333,0.044937,0.00979,85.698822,46.902237,-145.751816,,,
729705685.917515,-13.903289,-2.787098,77.233758,0.050842,-0.245956,0.970779,-0.255333,0.044937,0.00979,85.698822,46.902237,-145.751816,,,
729705685.92088,-13.903289,-2.787098,77.233758,0.050842,-0.245956,0.970779,-0.255333,0.044937,0.00979,85.698822,46.902237,-145.751816,,,
729705685.924318,-13.975112,-2.774148,77.23348,0.053848,-0.246735,0.970886,-0.24544,0.048688,0.008337,85.698822,46.902237,-145.751816,,,
729705685.927505,-14.039983,-2.763414,77.232342,0.053848,-0.246735,0.970886,-0.24544,0.048688,0.008337,85.698822,46.902237,-145.751816,,,
729705685.930912,-14.039983,-2.763414,77.232342,0.053848,-0.246735,0.970886,-0.24544,0.048688,0.008337,85.698822,46.902237,-145.751816,,,
729705685.9342,-14.108106,-2.752614,77.23123,0.057022,-0.247253,0.969009,-0.235546,0.038192,0.005231,85.698822,46.902237,-145.751816,,,
729705685.937518,-14.171819,-2.746118,77.228774,0.057022,-0.247253,0.969009,-0.235546,0.038192,0.005231,85.698822,46.902237,-145.751816,,,
729705685.940843,-14.171819,-2.746118,77.228774,0.057022,-0.247253,0.969009,-0.235546,0.038192,0.005231,85.698822,46.902237,-145.751816,,,
729705685.944205,-14.239472,-2.741003,77.22516,0.054825,-0.246155,0.960983,-0.2378,0.021319,-0.004819,85.698822,46.902237,-145.751816,,,
729705685.947562,-14.306791,-2.738269,77.219961,0.054825,-0.246155,0.960983,-0.2378,0.021319,-0.004819,85.71991,47.154221,-145.254837,,,
729705685.950944,-14.306791,-2.738269,77.219961,0.054825,-0.246155,0.960983,-0.2378,0.021319,-0.004819,85.71991,47.154221,-145.254837,,,
729705685.954197,-14.378078,-2.736884,77.213969,0.055908,-0.248627,0.958984,-0.25136,0.012288,-0.009833,85.71991,47.154221,-145.254837,,,
729705685.957522,-14.448258,-2.736447,77.207148,0.055908,-0.248627,0.958984,-0.25136,0.012288,-0.009833,85.71991,47.154221,-145.254837,,,
729705685.960852,-14.448258,-2.736447,77.207148,0.055908,-0.248627,0.958984,-0.25136,0.012288,-0.009833,85.71991,47.154221,-145.254837,,,
729705685.964268,-14.522057,-2.734379,77.200185,0.054718,-0.251984,0.959824,-0.257898,0.01753,-0.012086,85.71991,47.154221,-145.254837,,,
729705685.967517,-14.594226,-2.733142,77.193504,0.054718,-0.251984,0.959824,-0.257898,0.01753,-0.012086,85.71991,47.154221,-145.254837,,,
729705685.97087,-14.594226,-2.733142,77.193504,0.054718,-0.251984,0.959824,-0.257898,0.01753,-0.012086,85.71991,47.154221,-145.254837,,,
729705685.974197,-14.669763,-2.728301,77.188902,0.050278,-0.256332,0.962006,-0.262787,0.025215,-0.001433,85.71991,47.154221,-145.254837,,,
729705685.977519,-14.743308,-2.723989,77.185873,0.050278,-0.256332,0.962006,-0.262787,0.025215,-0.001433,85.71991,47.154221,-145.254837,,,
729705685.980917,-14.743308,-2.723989,77.185873,0.050278,-0.256332,0.962006,-0.262787,0.025215,-0.001433,85.71991,47.154221,-145.254837,,,
729705685.984203,-14.819682,-2.717028,77.185595,0.04631,-0.257767,0.959091,-0.265943,0.028718,0.014477,85.71991,47.154221,-145.254837,,,
729705685.987506,-14.894044,-2.709731,77.186915,0.04631,-0.257767,0.959091,-0.265943,0.028718,0.014477,86.004684,47.608719,-145.232239,,,
729705685.990697,-14.894044,-2.709731,77.186915,0.04631,-0.257767,0.959091,-0.265943,0.028718,0.014477,86.004684,47.608719,-145.232239,,,
729705685.994216,-14.971912,-2.699199,77.190472,0.042603,-0.264008,0.960129,-0.270722,0.038149,0.027271,86.004684,47.608719,-145.232239,,,
729705685.997554,-15.047635,-2.689555,77.195092,0.042603,-0.264008,0.960129,-0.270722,0.038149,0.027271,86.004684,47.608719,-145.232239,,,
729705686.000853,-15.047635,-2.689555,77.195092,0.042603,-0.264008,0.960129,-0.270722,0.038149,0.027271,86.004684,47.608719,-145.232239,,,
729705686.004258,-15.127041,-2.678292,77.200202,0.040695,-0.265564,0.9543,-0.273877,0.037647,0.027796,86.004684,47.608719,-145.232239,,,
729705686.00751,-15.202801,-2.66917,77.204039,0.040695,-0.265564,0.9543,-0.273877,0.037647,0.027796,86.004684,47.608719,-145.232239,,,
729705686.010864,-15.202801,-2.66917,77.204039,0.040695,-0.265564,0.9543,-0.273877,0.037647,0.027796,86.004684,47.608719,-145.232239,,,
729705686.014247,-15.281938,-2.656336,77.207928,0.040588,-0.266663,0.952484,-0.272686,0.046685,0.023475,86.004684,47.608719,-145.232239,,,
729705686.017515,-15.356666,-2.646094,77.210152,0.040588,-0.266663,0.952484,-0.272686,0.046685,0.023475,86.004684,47.608719,-145.232239,,,
729705686.020859,-15.356666,-2.646094,77.210152,0.040588,-0.266663,0.952484,-0.272686,0.046685,0.023475,86.004684,47.608719,-145.232239,,,
729705686.024198,-15.434057,-2.634858,77.211698,0.035721,-0.267075,0.953873,-0.267091,0.039541,0.014379,86.004684,47.608719,-145.232239,,,
729705686.027515,-15.507538,-2.627842,77.211629,0.035721,-0.267075,0.953873,-0.267091,0.039541,0.014379,86.004684,47.608719,-145.232239,,,
729705686.030962,-15.507538,-2.627842,77.211629,0.035721,-0.267075,0.953873,-0.267091,0.039541,0.014379,86.149536,48.088181,-144.940842,,,
729705686.034178,-15.583894,-2.621607,77.210934,0.032455,-0.270538,0.950134,-0.263534,0.020138,0.005776,86.149536,48.088181,-144.940842,,,
729705686.037519,-15.655605,-2.620934,77.208364,0.032455,-0.270538,0.950134,-0.263534,0.020138,0.005776,86.149536,48.088181,-144.940842,,,
729705686.040857,-15.655605,-2.620934,77.208364,0.032455,-0.270538,0.950134,-0.263534,0.020138,0.005776,86.149536,48.088181,-144.940842,,,
729705686.044261,-15.730486,-2.620557,77.205893,0.03154,-0.278702,0.952576,-0.261682,0.00093,0.001619,86.149536,48.088181,-144.940842,,,
729705686.047549,-15.802502,-2.6257,77.20271,0.03154,-0.278702,0.952576,-0.261682,0.00093,0.001619,86.149536,48.088181,-144.940842,,,
729705686.050862,-15.802502,-2.6257,77.20271,0.03154,-0.278702,0.952576,-0.261682,0.00093,0.001619,86.149536,48.088181,-144.940842,,,
729705686.054198,-15.877239,-2.633045,77.201025,0.028946,-0.283524,0.954987,-0.25878,-0.027798,0.008635,86.149536,48.088181,-144.940842,,,
729705686.05751,-15.949416,-2.645039,77.202469,0.028946,-0.283524,0.954987,-0.25878,-0.027798,0.008635,86.149536,48.088181,-144.940842,,,
729705686.060862,-15.949416,-2.645039,77.202469,0.028946,-0.283524,0.954987,-0.25878,-0.027798,0.008635,86.149536,48.088181,-144.940842,,,
729705686.064225,-16.025282,-2.659916,77.20729,0.025864,-0.28743,0.948196,-0.262331,-0.058821,0.030321,86.149536,48.088181,-144.940842,,,
729705686.067513,-16.101206,-2.674806,77.213359,0.025864,-0.28743,0.948196,-0.262331,-0.058821,0.030321,86.149536,48.088181,-144.940842,,,
729705686.070844,-16.101206,-2.674806,77.213359,0.025864,-0.28743,0.948196,-0.262331,-0.058821,0.030321,86.118042,48.46286,-144.679108,,,
729705686.074198,-16.175692,-2.686167,77.219255,0.03096,-0.293274,0.959839,-0.253485,-0.033657,0.028959,86.118042,48.46286,-144.679108,,,
729705686.0774,-16.247838,-2.692714,77.223913,0.03096,-0.293274,0.959839,-0.253485,-0.033657,0.028959,86.118042,48.46286,-144.679108,,,
729705686.080933,-16.247838,-2.692714,77.223913,0.03096,-0.293274,0.959839,-0.253485,-0.033657,0.028959,86.118042,48.46286,-144.679108,,,
729705686.084193,-16.316022,-2.694517,77.227217,0.034836,-0.292694,0.975174,-0.227354,0.00233,0.018794,86.118042,48.46286,-144.679108,,,
729705686.087511,-16.3766,-2.691185,77.229683,0.034836,-0.292694,0.975174,-0.227354,0.00233,0.018794,86.118042,48.46286,-144.679108,,,
729705686.090875,-16.3766,-2.691185,77.229683,0.034836,-0.292694,0.975174,-0.227354,0.00233,0.018794,86.118042,48.46286,-144.679108,,,
729705686.094265,-16.434068,-2.685327,77.230633,0.042236,-0.292755,0.977005,-0.188402,0.029454,0.008677,86.118042,48.46286,-144.679108,,,
729705686.097553,-16.482222,-2.674228,77.231814,0.042236,-0.292755,0.977005,-0.188402,0.029454,0.008677,86.118042,48.46286,-144.679108,,,
729705686.10086,-16.482222,-2.674228,77.231814,0.042236,-0.292755,0.977005,-0.188402,0.029454,0.008677,86.118042,48.46286,-144.679108,,,
729705686.104193,-16.527402,-2.66191,77.233115,0.044891,-0.295486,0.981552,-0.147552,0.047254,0.010266,86.118042,48.46286,-144.679108,,,
729705686.107518,-16.565726,-2.646978,77.235778,0.044891,-0.295486,0.981552,-0.147552,0.047254,0.010266,86.118042,48.46286,-144.679108,,,
729705686.110842,-16.565726,-2.646978,77.235778,0.044891,-0.295486,0.981552,-0.147552,0.047254,0.010266,86.054031,48.991653,-144.402191,,,
729705686.114235,-16.605025,-2.635053,77.238515,0.043884,-0.297119,0.967941,-0.133177,0.041221,0.01454,86.054031,48.991653,-144.402191,,,
729705686.117511,-16.640868,-2.621599,77.242544,0.043884,-0.297119,0.967941,-0.133177,0.041221,0.01454,86.054031,48.991653,-144.402191,,,
729705686.120933,-16.640868,-2.621599,77.242544,0.043884,-0.297119,0.967941,-0.133177,0.041221,0.01454,86.054031,48.991653,-144.402191,,,
729705686.124184,-16.678732,-2.614288,77.246022,0.043243,-0.298477,0.956436,-0.133061,0.018108,0.016364,86.054031,48.991653,-144.402191,,,
729705686.127518,-16.717256,-2.606508,77.25082,0.043243,-0.298477,0.956436,-0.133061,0.018108,0.016364,86.054031,48.991653,-144.402191,,,
729705686.130899,-16.717256,-2.606508,77.25082,0.043243,-0.298477,0.956436,-0.133061,0.018108,0.016364,86.054031,48.991653,-144.402191,,,
729705686.134254,-16.759603,-2.603716,77.25494,0.042847,-0.294174,0.949829,-0.151921,0.006486,0.019254,86.054031,48.991653,-144.402191,,,
729705686.13751,-16.805821,-2.597868,77.259812,0.042847,-0.294174,0.949829,-0.151921,0.006486,0.019254,86.054031,48.991653,-144.402191,,,
729705686.140855,-16.805821,-2.597868,77.259812,0.042847,-0.294174,0.949829,-0.151921,0.006486,0.019254,86.054031,48.991653,-144.402191,,,
729705686.14428,-16.857757,-2.59852,77.261811,0.046509,-0.2892,0.944931,-0.189305,-0.004577,0.010366,86.054031,48.991653,-144.402191,,,
729705686.147556,-16.915751,-2.597413,77.263133,0.046509,-0.2892,0.944931,-0.189305,-0.004577,0.010366,86.054031,48.991653,-144.402191,,,
729705686.150877,-16.915751,-2.597413,77.263133,0.046509,-0.2892,0.944931,-0.189305,-0.004577,0.010366,86.054031,48.991653,-144.402191,,,
729705686.154203,-16.977993,-2.600509,77.261523,0.053085,-0.289276,0.938995,-0.224257,-0.002759,0.000179,86.089142,49.390564,-144.198059,,,
729705686.157512,-17.042591,-2.598263,77.259437,0.053085,-0.289276,0.938995,-0.224257,-0.002759,0.000179,86.089142,49.390564,-144.198059,,,
729705686.160846,-17.042591,-2.598263,77.259437,0.053085,-0.289276,0.938995,-0.224257,-0.002759,0.000179,86.089142,49.390564,-144.198059,,,
729705686.164287,-17.108873,-2.593853,77.255963,0.054138,-0.2948,0.951691,-0.232459,0.033258,-0.003158,86.089142,49.390564,-144.198059,,,
729705686.167498,-17.175229,-2.58048,77.252662,0.054138,-0.2948,0.951691,-0.232459,0.033258,-0.003158,86.089142,49.390564,-144.198059,,,
729705686.17092,-17.175229,-2.58048,77.252662,0.054138,-0.2948,0.951691,-0.232459,0.033258,-0.003158,86.089142,49.390564,-144.198059,,,
729705686.174188,-17.245932,-2.560382,77.24934,0.056107,-0.297531,0.962952,-0.249119,0.088414,-0.000152,86.089142,49.390564,-144.198059,,,
729705686.177515,-17.31619,-2.532527,77.24783,0.056107,-0.297531,0.962952,-0.249119,0.088414,-0.000152,86.089142,49.390564,-144.198059,,,
