Time (sec),Pitch (deg),Roll (deg),Yaw(deg),X-Acceleration (g),Y-Acceleration (g),Z-Acceleration (g),Pitch Rate (deg/sec),Roll Rate (deg/sec),Yaw Rate (deg/sec),Magnetic Field in X direction (uT),Magnetic Field in Y direction (uT),Magnetic Field in Z Direction (uT),Latitude (deg),Longitude (deg),Altitude (m)
729715965.106108,-3.019858,-1.606735,-84.419371,0.02861,-0.075714,1.003738,0.461178,-0.046998,0.026273,64.328873,14.531525,-149.841339,,,
729715965.106384,-3.019857,-1.606738,-81.342493,0.02861,-0.075714,1.003738,0.461178,-0.046998,0.026273,64.328873,14.531525,-149.841339,,,
729715965.109181,-2.887855,-1.620813,-84.40831,0.01944,-0.076981,1.01506,0.461178,-0.046998,0.026273,64.328873,14.531525,-149.841339,,,
729715965.109406,-2.887854,-1.620816,-81.331432,0.01944,-0.076981,1.01506,0.461178,-0.046998,0.026273,64.328873,14.531525,-149.841339,,,
729715965.111349,-2.887855,-1.620813,-84.40831,0.01944,-0.076981,1.01506,0.461178,-0.046998,0.026273,64.328873,14.531525,-149.841339,,,
729715965.111564,-2.74952,-1.637514,-81.31955,0.01944,-0.076981,1.01506,0.498805,-0.06774,0.029513,64.328873,14.531525,-149.841339,,,
729715965.11666,-2.749521,-1.637511,-84.396429,0.01944,-0.076981,1.01506,0.498805,-0.06774,0.029513,64.249344,13.529556,-149.868988,,,
729715965.116904,-2.606526,-1.657304,-81.30689,0.021179,-0.067093,1.012283,0.498805,-0.06774,0.029513,64.249344,13.529556,-149.868988,,,
729715965.11908,-2.606527,-1.657301,-84.383769,0.021179,-0.067093,1.012283,0.498805,-0.06774,0.029513,64.249344,13.529556,-149.868988,,,
729715965.119304,-2.606526,-1.657304,-81.30689,0.021179,-0.067093,1.012283,0.498805,-0.06774,0.029513,64.249344,13.529556,-149.868988,,,
729715965.121305,-2.606527,-1.657301,-84.383769,0.021179,-0.067093,1.012283,0.498805,-0.06774,0.029513,64.249344,13.529556,-149.868988,,,
729715965.121597,-2.460933,-1.679285,-81.293082,0.021179,-0.067093,1.012283,0.513359,-0.081239,0.035764,64.249344,13.529556,-149.868988,,,
729715965.126567,-2.460934,-1.679282,-84.369961,0.021179,-0.067093,1.012283,0.513359,-0.081239,0.035764,64.249344,13.529556,-149.868988,,,
729715965.126836,-2.314693,-1.702721,-81.278032,0.019623,-0.056976,1.00174,0.513359,-0.081239,0.035764,64.249344,13.529556,-149.868988,,,
729715965.129143,-2.314693,-1.702718,-84.354911,0.019623,-0.056976,1.00174,0.513359,-0.081239,0.035764,64.249344,13.529556,-149.868988,,,
729715965.129379,-2.314693,-1.702721,-81.278032,0.019623,-0.056976,1.00174,0.513359,-0.081239,0.035764,64.249344,13.529556,-149.868988,,,
729715965.131452,-2.314693,-1.702718,-84.354911,0.019623,-0.056976,1.00174,0.513359,-0.081239,0.035764,64.249344,13.529556,-149.868988,,,
729715965.13173,-2.169482,-1.726495,-81.262447,0.019623,-0.056976,1.00174,0.498958,-0.078957,0.034738,64.249344,13.529556,-149.868988,,,
729715965.136176,-2.169483,-1.726492,-84.339326,0.019623,-0.056976,1.00174,0.498958,-0.078957,0.034738,64.249344,13.529556,-149.868988,,,
729715965.136431,-2.169482,-1.726495,-81.262447,0.019623,-0.056976,1.00174,0.498958,-0.078957,0.034738,64.249344,13.529556,-149.868988,,,
729715965.139045,-2.027405,-1.749798,-84.324783,0.020935,-0.0448,0.999466,0.498958,-0.078957,0.034738,64.249344,13.529556,-149.868988,,,
729715965.139276,-2.027404,-1.749801,-81.247904,0.020935,-0.0448,0.999466,0.498958,-0.078957,0.034738,64.249344,13.529556,-149.868988,,,
729715965.14136,-2.027405,-1.749798,-84.324783,0.020935,-0.0448,0.999466,0.498958,-0.078957,0.034738,64.249344,13.529556,-149.868988,,,
729715965.141554,-1.888864,-1.774169,-81.235363,0.020935,-0.0448,0.999466,0.498958,-0.078957,0.034738,64.249344,13.529556,-149.868988,,,
729715965.146422,-1.888865,-1.774166,-84.312242,0.020935,-0.0448,0.999466,0.467293,-0.088836,0.020164,64.249344,13.529556,-149.868988,,,
729715965.146682,-1.754609,-1.800879,-81.225054,0.025269,-0.033188,0.991394,0.467293,-0.088836,0.020164,64.249344,13.529556,-149.868988,,,
729715965.14938,-1.754609,-1.800876,-84.301932,0.025269,-0.033188,0.991394,0.467293,-0.088836,0.020164,64.249344,13.529556,-149.868988,,,
729715965.14962,-1.754609,-1.800879,-81.225054,0.025269,-0.033188,0.991394,0.467293,-0.088836,0.020164,64.249344,13.529556,-149.868988,,,
729715965.151352,-1.754609,-1.800876,-84.301932,0.025269,-0.033188,0.991394,0.467293,-0.088836,0.020164,64.249344,13.529556,-149.868988,,,
729715965.151558,-1.62606,-1.829439,-81.21758,0.025269,-0.033188,0.991394,0.467293,-0.088836,0.020164,64.249344,13.529556,-149.868988,,,
729715965.158033,-1.626061,-1.829436,-84.294459,0.025269,-0.033188,0.991394,0.430587,-0.097234,-0.004988,63.7789,12.802521,-149.651337,,,
729715965.15836,-1.502402,-1.858163,-81.213886,0.029663,-0.019257,0.985031,0.430587,-0.097234,-0.004988,63.7789,12.802521,-149.651337,,,
729715965.162945,-1.502402,-1.85816,-84.290765,0.029663,-0.019257,0.985031,0.389622,-0.088766,-0.021676,63.7789,12.802521,-149.651337,,,
729715965.163203,-1.384051,-1.885825,-81.2138,0.029663,-0.019257,0.985031,0.389622,-0.088766,-0.021676,63.7789,12.802521,-149.651337,,,
729715965.165241,-1.384052,-1.885822,-84.290678,0.029663,-0.019257,0.985031,0.389622,-0.088766,-0.021676,63.7789,12.802521,-149.651337,,,
729715965.165459,-1.384051,-1.885825,-81.2138,0.029663,-0.019257,0.985031,0.389622,-0.088766,-0.021676,63.7789,12.802521,-149.651337,,,
729715965.168895,-1.271957,-1.911967,-84.292345,0.03244,-0.011612,0.991257,0.389622,-0.088766,-0.021676,63.7789,12.802521,-149.651337,,,
729715965.169114,-1.271957,-1.91197,-81.215466,0.03244,-0.011612,0.991257,0.389622,-0.088766,-0.021676,63.7789,12.802521,-149.651337,,,
729715965.171348,-1.271957,-1.911967,-84.292345,0.03244,-0.011612,0.991257,0.389622,-0.088766,-0.021676,63.7789,12.802521,-149.651337,,,
729715965.171549,-1.169074,-1.934371,-81.217779,0.03244,-0.011612,0.991257,0.389622,-0.088766,-0.021676,63.7789,12.802521,-149.651337,,,
729715965.176027,-1.169074,-1.934368,-84.294658,0.03244,-0.011612,0.991257,0.318111,-0.053177,-0.026047,63.7789,12.802521,-149.651337,,,
729715965.17626,-1.169074,-1.934371,-81.217779,0.03244,-0.011612,0.991257,0.318111,-0.053177,-0.026047,63.7789,12.802521,-149.651337,,,
729715965.178999,-1.077842,-1.95084,-84.297924,0.035065,-0.010712,0.993454,0.318111,-0.053177,-0.026047,63.7789,12.802521,-149.651337,,,
729715965.179218,-1.077842,-1.950844,-81.221046,0.035065,-0.010712,0.993454,0.318111,-0.053177,-0.026047,63.7789,12.802521,-149.651337,,,
729715965.181331,-1.077842,-1.95084,-84.297924,0.035065,-0.010712,0.993454,0.318111,-0.053177,-0.026047,63.7789,12.802521,-149.651337,,,
729715965.18164,-0.998351,-1.961954,-81.224554,0.035065,-0.010712,0.993454,0.318111,-0.053177,-0.026047,63.7789,12.802521,-149.651337,,,
729715965.18627,-0.998351,-1.96195,-84.301433,0.035065,-0.010712,0.993454,0.234474,-0.02619,-0.01838,63.7789,12.802521,-149.651337,,,
729715965.186561,-0.998351,-1.961954,-81.224554,0.035065,-0.010712,0.993454,0.234474,-0.02619,-0.01838,63.7789,12.802521,-149.651337,,,
729715965.189514,-0.930935,-1.970114,-84.303314,0.052963,-0.001343,0.982025,0.234474,-0.02619,-0.01838,63.7789,12.802521,-149.651337,,,
729715965.189784,-0.930935,-1.970118,-81.226435,0.052963,-0.001343,0.982025,0.234474,-0.02619,-0.01838,63.7789,12.802521,-149.651337,,,
729715965.191402,-0.930935,-1.970114,-84.303314,0.052963,-0.001343,0.982025,0.234474,-0.02619,-0.01838,63.7789,12.802521,-149.651337,,,
729715965.191646,-0.875302,-1.977977,-81.226395,0.052963,-0.001343,0.982025,0.234474,-0.02619,-0.01838,63.7789,12.802521,-149.651337,,,
729715965.196092,-0.875302,-1.977974,-84.303274,0.052963,-0.001343,0.982025,0.157068,-0.023367,-0.008215,63.7789,12.802521,-149.651337,,,
729715965.196326,-0.875302,-1.977977,-81.226395,0.052963,-0.001343,0.982025,0.157068,-0.023367,-0.008215,63.7789,12.802521,-149.651337,,,
729715965.200572,-0.830151,-1.98566,-84.303632,0.053391,0.004532,0.971375,0.157068,-0.023367,-0.008215,63.951965,12.088806,-149.647522,,,
729715965.200861,-0.83015,-1.985663,-81.226753,0.053391,0.004532,0.971375,0.157068,-0.023367,-0.008215,63.951965,12.088806,-149.647522,,,
729715965.201174,-0.830151,-1.98566,-84.303632,0.053391,0.004532,0.971375,0.157068,-0.023367,-0.008215,63.951965,12.088806,-149.647522,,,
729715965.201589,-0.83015,-1.985663,-81.229803,0.053391,0.004532,0.971375,0.157068,-0.023367,-0.008215,63.951965,12.088806,-149.647522,,,
729715965.205923,-0.794105,-1.991507,-84.306682,0.053391,0.004532,0.971375,0.100729,-0.010896,-0.024972,63.951965,12.088806,-149.647522,,,
729715965.206156,-0.794105,-1.99151,-81.229803,0.053391,0.004532,0.971375,0.100729,-0.010896,-0.024972,63.951965,12.088806,-149.647522,,,
729715965.208887,-0.764193,-1.995402,-84.312221,0.068115,0.003738,0.970047,0.100729,-0.010896,-0.024972,63.951965,12.088806,-149.647522,,,
729715965.20911,-0.764193,-1.995405,-81.235342,0.068115,0.003738,0.970047,0.100729,-0.010896,-0.024972,63.951965,12.088806,-149.647522,,,
729715965.211473,-0.764193,-1.995402,-84.312221,0.068115,0.003738,0.970047,0.100729,-0.010896,-0.024972,63.951965,12.088806,-149.647522,,,
729715965.21169,-0.7366,-1.998966,-81.243273,0.068115,0.003738,0.970047,0.100729,-0.010896,-0.024972,63.951965,12.088806,-149.647522,,,
729715965.215765,-0.736601,-1.998963,-84.320152,0.068115,0.003738,0.970047,0.10108,-0.011706,-0.041888,63.951965,12.088806,-149.647522,,,
729715965.216028,-0.7366,-1.998966,-81.243273,0.068115,0.003738,0.970047,0.10108,-0.011706,-0.041888,63.951965,12.088806,-149.647522,,,
729715965.220218,-0.70704,-2.003826,-84.330818,0.063354,-0.003036,0.986526,0.10108,-0.011706,-0.041888,63.951965,12.088806,-149.647522,,,
729715965.220511,-0.707039,-2.00383,-81.253939,0.063354,-0.003036,0.986526,0.10108,-0.011706,-0.041888,63.951965,12.088806,-149.647522,,,
729715965.221507,-0.70704,-2.003826,-84.330818,0.063354,-0.003036,0.986526,0.10108,-0.011706,-0.041888,63.951965,12.088806,-149.647522,,,
729715965.221836,-0.673012,-2.011268,-81.267395,0.063354,-0.003036,0.986526,0.13655,-0.031906,-0.062649,63.951965,12.088806,-149.647522,,,
729715965.22658,-0.673013,-2.011265,-84.344273,0.063354,-0.003036,0.986526,0.13655,-0.031906,-0.062649,63.951965,12.088806,-149.647522,,,
729715965.226897,-0.634331,-2.021931,-81.283304,0.058701,-0.016434,0.998291,0.13655,-0.031906,-0.062649,63.951965,12.088806,-149.647522,,,
729715965.229162,-0.634331,-2.021928,-84.360182,0.058701,-0.016434,0.998291,0.13655,-0.031906,-0.062649,63.951965,12.088806,-149.647522,,,
729715965.229403,-0.634331,-2.021931,-81.283304,0.058701,-0.016434,0.998291,0.13655,-0.031906,-0.062649,63.951965,12.088806,-149.647522,,,
729715965.231354,-0.634331,-2.021928,-84.360182,0.058701,-0.016434,0.998291,0.13655,-0.031906,-0.062649,63.951965,12.088806,-149.647522,,,
729715965.231678,-0.634331,-2.035099,-81.300552,0.058701,-0.016434,0.998291,0.13655,-0.031906,-0.062649,63.951965,12.088806,-149.647522,,,
729715965.236217,-0.590741,-2.035096,-84.377431,0.058701,-0.016434,0.998291,0.168749,-0.046974,-0.072055,63.951965,12.088806,-149.647522,,,
729715965.236496,-0.590741,-2.035099,-81.300552,0.058701,-0.016434,0.998291,0.168749,-0.046974,-0.072055,63.951965,12.088806,-149.647522,,,
729715965.239672,-0.542112,-2.049537,-84.395527,0.054535,-0.023376,0.999664,0.168749,-0.046974,-0.072055,63.920792,11.697098,-149.656311,,,
729715965.239917,-0.542112,-2.04954,-81.318648,0.054535,-0.023376,0.999664,0.168749,-0.046974,-0.072055,63.920792,11.697098,-149.656311,,,
729715965.241261,-0.542112,-2.049537,-84.395527,0.054535,-0.023376,0.999664,0.168749,-0.046974,-0.072055,63.920792,11.697098,-149.656311,,,
729715965.241557,-0.542112,-2.04954,-81.318648,0.054535,-0.023376,0.999664,0.168749,-0.046974,-0.072055,63.920792,11.697098,-149.656311,,,
729715965.246032,-0.488885,-2.063758,-84.414115,0.054535,-0.023376,0.999664,0.201505,-0.041327,-0.073462,63.920792,11.697098,-149.656311,,,
729715965.246263,-0.488884,-2.063761,-81.337236,0.054535,-0.023376,0.999664,0.201505,-0.041327,-0.073462,63.920792,11.697098,-149.656311,,,
729715965.248967,-0.43037,-2.07755,-84.432869,0.055176,-0.015137,1.004562,0.201505,-0.041327,-0.073462,63.920792,11.697098,-149.656311,,,
729715965.249184,-0.43037,-2.077553,-81.355991,0.055176,-0.015137,1.004562,0.201505,-0.041327,-0.073462,63.920792,11.697098,-149.656311,,,
729715965.251337,-0.43037,-2.07755,-84.432869,0.055176,-0.015137,1.004562,0.201505,-0.041327,-0.073462,63.920792,11.697098,-149.656311,,,
729715965.251563,-0.43037,-2.077553,-81.355991,0.055176,-0.015137,1.004562,0.201505,-0.041327,-0.073462,63.920792,11.697098,-149.656311,,,
729715965.256152,-0.366865,-2.091905,-84.451446,0.055176,-0.015137,1.004562,0.237776,-0.051461,-0.072666,63.920792,11.697098,-149.656311,,,
729715965.256413,-0.366865,-2.091908,-81.374567,0.055176,-0.015137,1.004562,0.237776,-0.051461,-0.072666,63.920792,11.697098,-149.656311,,,
729715965.259105,-0.298669,-2.108332,-84.469862,0.054398,-0.015503,1.0047,0.237776,-0.051461,-0.072666,63.920792,11.697098,-149.656311,,,
729715965.259347,-0.298669,-2.108336,-81.392983,0.054398,-0.015503,1.0047,0.237776,-0.051461,-0.072666,63.920792,11.697098,-149.656311,,,
729715965.261342,-0.298669,-2.108332,-84.469862,0.054398,-0.015503,1.0047,0.237776,-0.051461,-0.072666,63.920792,11.697098,-149.656311,,,
729715965.261581,-0.298669,-2.108336,-81.392983,0.054398,-0.015503,1.0047,0.237776,-0.051461,-0.072666,63.920792,11.697098,-149.656311,,,
729715965.266261,-0.226684,-2.127987,-84.488505,0.054398,-0.015503,1.0047,0.261175,-0.083687,-0.079643,63.920792,11.697098,-149.656311,,,
729715965.266515,-0.226684,-2.12799,-81.411626,0.054398,-0.015503,1.0047,0.261175,-0.083687,-0.079643,63.920792,11.697098,-149.656311,,,
729715965.26896,-0.151522,-2.151937,-84.508051,0.05159,-0.010086,0.996185,0.261175,-0.083687,-0.079643,63.920792,11.697098,-149.656311,,,
729715965.269192,-0.151522,-2.15194,-81.431173,0.05159,-0.010086,0.996185,0.261175,-0.083687,-0.079643,63.920792,11.697098,-149.656311,,,
729715965.27129,-0.151522,-2.151937,-84.508051,0.05159,-0.010086,0.996185,0.261175,-0.083687,-0.079643,63.920792,11.697098,-149.656311,,,
729715965.271551,-0.151522,-2.15194,-81.431173,0.05159,-0.010086,0.996185,0.261175,-0.083687,-0.079643,63.920792,11.697098,-149.656311,,,
729715965.276208,-0.073329,-2.180235,-84.529225,0.05159,-0.010086,0.996185,0.27529,-0.103703,-0.091154,63.920792,11.697098,-149.656311,,,
729715965.276441,-0.073329,-2.180238,-81.452346,0.05159,-0.010086,0.996185,0.27529,-0.103703,-0.091154,63.920792,11.697098,-149.656311,,,
729715965.279756,0.00598,-2.21074,-84.551679,0.046646,-0.003433,0.991943,0.27529,-0.103703,-0.091154,63.769211,11.144226,-149.416794,,,
729715965.279998,0.00598,-2.210743,-81.4748,0.046646,-0.003433,0.991943,0.27529,-0.103703,-0.091154,63.769211,11.144226,-149.416794,,,
729715965.281235,0.00598,-2.21074,-84.551679,0.046646,-0.003433,0.991943,0.27529,-0.103703,-0.091154,63.769211,11.144226,-149.416794,,,
729715965.28155,0.00598,-2.210743,-81.4748,0.046646,-0.003433,0.991943,0.27529,-0.103703,-0.091154,63.769211,11.144226,-149.416794,,,
729715965.286033,0.082746,-2.242774,-84.57494,0.046646,-0.003433,0.991943,0.252845,-0.117667,-0.089647,63.769211,11.144226,-149.416794,,,
729715965.286257,0.082746,-2.242777,-81.498062,0.046646,-0.003433,0.991943,0.252845,-0.117667,-0.089647,63.769211,11.144226,-149.416794,,,
729715965.29087,0.155085,-2.27763,-84.597888,0.032776,0.002197,0.984955,0.252845,-0.117667,-0.089647,63.769211,11.144226,-149.416794,,,
729715965.291179,0.155085,-2.277633,-81.521009,0.032776,0.002197,0.984955,0.252845,-0.117667,-0.089647,63.769211,11.144226,-149.416794,,,
729715965.291553,0.155085,-2.277633,-81.521009,0.032776,0.002197,0.984955,0.252845,-0.117667,-0.089647,63.769211,11.144226,-149.416794,,,
729715965.296378,0.221074,-2.31642,-84.619187,0.032776,0.002197,0.984955,0.20285,-0.147268,-0.077466,63.769211,11.144226,-149.416794,,,
729715965.296649,0.221074,-2.316423,-81.542308,0.032776,0.002197,0.984955,0.20285,-0.147268,-0.077466,63.769211,11.144226,-149.416794,,,
729715965.299175,0.279521,-2.359291,-84.638644,0.027817,0.012466,0.970261,0.20285,-0.147268,-0.077466,63.769211,11.144226,-149.416794,,,
729715965.29941,0.279521,-2.359294,-81.561765,0.027817,0.012466,0.970261,0.20285,-0.147268,-0.077466,63.769211,11.144226,-149.416794,,,
729715965.301316,0.279521,-2.359291,-84.638644,0.027817,0.012466,0.970261,0.20285,-0.147268,-0.077466,63.769211,11.144226,-149.416794,,,
729715965.301543,0.279521,-2.359294,-81.561765,0.027817,0.012466,0.970261,0.20285,-0.147268,-0.077466,63.769211,11.144226,-149.416794,,,
729715965.306205,0.331514,-2.406212,-84.656151,0.027817,0.012466,0.970261,0.151892,-0.170064,-0.063894,63.769211,11.144226,-149.416794,,,
729715965.306447,0.331514,-2.406215,-81.579273,0.027817,0.012466,0.970261,0.151892,-0.170064,-0.063894,63.769211,11.144226,-149.416794,,,
729715965.308782,0.372203,-2.459289,-84.672086,0.026886,0.012833,0.966476,0.151892,-0.170064,-0.063894,63.769211,11.144226,-149.416794,,,
729715965.309003,0.372203,-2.459292,-81.595207,0.026886,0.012833,0.966476,0.151892,-0.170064,-0.063894,63.769211,11.144226,-149.416794,,,
729715965.311359,0.372203,-2.459289,-84.672086,0.026886,0.012833,0.966476,0.151892,-0.170064,-0.063894,63.769211,11.144226,-149.416794,,,
729715965.311576,0.372203,-2.459292,-81.595207,0.026886,0.012833,0.966476,0.151892,-0.170064,-0.063894,63.769211,11.144226,-149.416794,,,
729715965.316094,0.408538,-2.509583,-84.687637,0.026886,0.012833,0.966476,0.095482,-0.166505,-0.060946,63.769211,11.144226,-149.416794,,,
729715965.316353,0.408538,-2.509586,-81.610758,0.026886,0.012833,0.966476,0.095482,-0.166505,-0.060946,63.769211,11.144226,-149.416794,,,
729715965.318816,0.432109,-2.559271,-84.703921,0.029938,0.013733,0.974075,0.095482,-0.166505,-0.060946,63.769211,11.144226,-149.416794,,,
729715965.319035,0.432109,-2.559274,-81.627043,0.029938,0.013733,0.974075,0.095482,-0.166505,-0.060946,63.769211,11.144226,-149.416794,,,
729715965.322122,0.432109,-2.559271,-84.703921,0.029938,0.013733,0.974075,0.095482,-0.166505,-0.060946,63.351944,10.957504,-149.337082,,,
729715965.32243,0.454437,-2.601536,-81.644778,0.029938,0.013733,0.974075,0.056695,-0.115624,-0.072692,63.351944,10.957504,-149.337082,,,
729715965.326263,0.454437,-2.601533,-84.721657,0.029938,0.013733,0.974075,0.056695,-0.115624,-0.072692,63.351944,10.957504,-149.337082,,,
729715965.326506,0.454437,-2.601536,-81.644778,0.029938,0.013733,0.974075,0.056695,-0.115624,-0.072692,63.351944,10.957504,-149.337082,,,
729715965.329335,0.468822,-2.637335,-84.741414,0.042099,0.022903,0.986267,0.056695,-0.115624,-0.072692,63.351944,10.957504,-149.337082,,,
729715965.32957,0.468822,-2.637338,-81.664536,0.042099,0.022903,0.986267,0.056695,-0.115624,-0.072692,63.351944,10.957504,-149.337082,,,
729715965.331375,0.468822,-2.637335,-84.741414,0.042099,0.022903,0.986267,0.056695,-0.115624,-0.072692,63.351944,10.957504,-149.337082,,,
729715965.331601,0.468822,-2.637338,-81.664536,0.042099,0.022903,0.986267,0.056695,-0.115624,-0.072692,63.351944,10.957504,-149.337082,,,
729715965.336272,0.485616,-2.660968,-84.762628,0.042099,0.022903,0.986267,0.066328,-0.041047,-0.080564,63.351944,10.957504,-149.337082,,,
729715965.336532,0.485615,-2.660971,-81.685749,0.042099,0.022903,0.986267,0.066328,-0.041047,-0.080564,63.351944,10.957504,-149.337082,,,
729715965.33943,0.50107,-2.674885,-84.784316,0.049088,0.014206,1.014328,0.066328,-0.041047,-0.080564,63.351944,10.957504,-149.337082,,,
729715965.339669,0.50107,-2.674888,-81.707437,0.049088,0.014206,1.014328,0.066328,-0.041047,-0.080564,63.351944,10.957504,-149.337082,,,
729715965.341384,0.50107,-2.674885,-84.784316,0.049088,0.014206,1.014328,0.066328,-0.041047,-0.080564,63.351944,10.957504,-149.337082,,,
729715965.341598,0.50107,-2.674888,-81.707437,0.049088,0.014206,1.014328,0.066328,-0.041047,-0.080564,63.351944,10.957504,-149.337082,,,
729715965.347363,0.527665,-2.678553,-84.805663,0.049088,0.014206,1.014328,0.117739,0.011733,-0.077753,63.351944,10.957504,-149.337082,,,
729715965.347674,0.55912,-2.677032,-81.749264,0.04837,-0.006638,1.036591,0.117739,0.011733,-0.077753,63.351944,10.957504,-149.337082,,,
729715965.349783,0.55912,-2.677029,-84.826143,0.04837,-0.006638,1.036591,0.117739,0.011733,-0.077753,63.351944,10.957504,-149.337082,,,
729715965.350044,0.55912,-2.677032,-81.749264,0.04837,-0.006638,1.036591,0.117739,0.011733,-0.077753,63.351944,10.957504,-149.337082,,,
729715965.35126,0.55912,-2.677029,-84.826143,0.04837,-0.006638,1.036591,0.117739,0.011733,-0.077753,63.351944,10.957504,-149.337082,,,
729715965.351539,0.55912,-2.677032,-81.749264,0.04837,-0.006638,1.036591,0.117739,0.011733,-0.077753,63.351944,10.957504,-149.337082,,,
729715965.356681,0.604555,-2.671257,-84.844882,0.04837,-0.006638,1.036591,0.196997,0.02759,-0.067428,63.351944,10.957504,-149.337082,,,
729715965.357004,0.604555,-2.67126,-81.768004,0.04837,-0.006638,1.036591,0.196997,0.02759,-0.067428,63.351944,10.957504,-149.337082,,,
729715965.359138,0.659538,-2.663472,-84.86092,0.039139,-0.019836,1.037521,0.196997,0.02759,-0.067428,63.351944,10.957504,-149.337082,,,
729715965.359384,0.659538,-2.663474,-81.784042,0.039139,-0.019836,1.037521,0.196997,0.02759,-0.067428,63.351944,10.957504,-149.337082,,,
729715965.362002,0.659538,-2.663472,-84.86092,0.039139,-0.019836,1.037521,0.196997,0.02759,-0.067428,63.29451,10.612198,-149.158493,,,
729715965.362228,0.728121,-2.655638,-81.79842,0.039139,-0.019836,1.037521,0.269788,0.027094,-0.05976,63.29451,10.612198,-149.158493,,,
729715965.365806,0.728121,-2.655635,-84.875299,0.039139,-0.019836,1.037521,0.269788,0.027094,-0.05976,63.29451,10.612198,-149.158493,,,
729715965.366068,0.728121,-2.655638,-81.79842,0.039139,-0.019836,1.037521,0.269788,0.027094,-0.05976,63.29451,10.612198,-149.158493,,,
729715965.369037,0.803915,-2.645109,-84.88898,0.031052,-0.016907,1.035553,0.269788,0.027094,-0.05976,63.29451,10.612198,-149.158493,,,
729715965.369266,0.803915,-2.645112,-81.812101,0.031052,-0.016907,1.035553,0.269788,0.027094,-0.05976,63.29451,10.612198,-149.158493,,,
729715965.371305,0.803915,-2.645109,-84.88898,0.031052,-0.016907,1.035553,0.269788,0.027094,-0.05976,63.29451,10.612198,-149.158493,,,
729715965.371537,0.803915,-2.645112,-81.812101,0.031052,-0.016907,1.035553,0.269788,0.027094,-0.05976,63.29451,10.612198,-149.158493,,,
729715965.376097,0.88728,-2.638657,-84.901995,0.031052,-0.016907,1.035553,0.305158,0.022127,-0.06189,63.29451,10.612198,-149.158493,,,
729715965.376337,0.88728,-2.63866,-81.825117,0.031052,-0.016907,1.035553,0.305158,0.022127,-0.06189,63.29451,10.612198,-149.158493,,,
729715965.379388,0.97446,-2.629879,-84.915576,0.036118,-0.000381,1.022705,0.305158,0.022127,-0.06189,63.29451,10.612198,-149.158493,,,
729715965.379633,0.97446,-2.629882,-81.838697,0.036118,-0.000381,1.022705,0.305158,0.022127,-0.06189,63.29451,10.612198,-149.158493,,,
729715965.381306,0.97446,-2.629879,-84.915576,0.036118,-0.000381,1.022705,0.305158,0.022127,-0.06189,63.29451,10.612198,-149.158493,,,
729715965.381626,0.97446,-2.629882,-81.838697,0.036118,-0.000381,1.022705,0.305158,0.022127,-0.06189,63.29451,10.612198,-149.158493,,,
729715965.386074,1.065038,-2.624504,-84.931092,0.036118,-0.000381,1.022705,0.322585,0.018166,-0.077513,63.29451,10.612198,-149.158493,,,
729715965.386314,1.065038,-2.624507,-81.854214,0.036118,-0.000381,1.022705,0.322585,0.018166,-0.077513,63.29451,10.612198,-149.158493,,,
729715965.390434,1.156646,-2.615577,-84.948526,0.0392,0.016998,1.009842,0.322585,0.018166,-0.077513,63.29451,10.612198,-149.158493,,,
729715965.390755,1.156645,-2.61558,-81.871648,0.0392,0.016998,1.009842,0.322585,0.018166,-0.077513,63.29451,10.612198,-149.158493,,,
729715965.391199,1.156646,-2.615577,-84.948526,0.0392,0.016998,1.009842,0.322585,0.018166,-0.077513,63.29451,10.612198,-149.158493,,,
729715965.391578,1.156645,-2.61558,-81.871648,0.0392,0.016998,1.009842,0.322585,0.018166,-0.077513,63.29451,10.612198,-149.158493,,,
729715965.396287,1.249239,-2.611504,-84.966634,0.0392,0.016998,1.009842,0.311577,0.000335,-0.081765,63.29451,10.612198,-149.158493,,,
729715965.396545,1.249239,-2.611507,-81.889755,0.0392,0.016998,1.009842,0.311577,0.000335,-0.081765,63.29451,10.612198,-149.158493,,,
729715965.398715,1.337533,-2.609582,-84.985385,0.039719,0.024445,0.99881,0.311577,0.000335,-0.081765,63.29451,10.612198,-149.158493,,,
729715965.398944,1.337532,-2.609585,-81.908506,0.039719,0.024445,0.99881,0.311577,0.000335,-0.081765,63.29451,10.612198,-149.158493,,,
729715965.401384,1.337533,-2.609582,-84.985385,0.039719,0.024445,0.99881,0.311577,0.000335,-0.081765,63.29451,10.612198,-149.158493,,,
729715965.401629,1.337532,-2.609585,-81.908506,0.039719,0.024445,0.99881,0.311577,0.000335,-0.081765,63.29451,10.612198,-149.158493,,,
729715965.407776,1.420057,-2.617317,-85.003695,0.039719,0.024445,0.99881,0.250688,-0.051773,-0.076567,63.504669,9.953384,-149.030792,,,
729715965.408075,1.491724,-2.632388,-81.944433,0.036484,0.031403,0.964722,0.250688,-0.051773,-0.076567,63.504669,9.953384,-149.030792,,,
729715965.413433,1.491724,-2.632385,-85.021312,0.036484,0.031403,0.964722,0.144888,-0.08547,-0.067895,63.504669,9.953384,-149.030792,,,
729715965.413679,1.549974,-2.653724,-81.962065,0.036484,0.031403,0.964722,0.144888,-0.08547,-0.067895,63.504669,9.953384,-149.030792,,,
729715965.415561,1.549974,-2.653721,-85.038944,0.036484,0.031403,0.964722,0.144888,-0.08547,-0.067895,63.504669,9.953384,-149.030792,,,
729715965.415801,1.549974,-2.653724,-81.962065,0.036484,0.031403,0.964722,0.144888,-0.08547,-0.067895,63.504669,9.953384,-149.030792,,,
729715965.419473,1.590695,-2.67919,-85.056074,0.034454,0.053497,0.940079,0.144888,-0.08547,-0.067895,63.504669,9.953384,-149.030792,,,
729715965.419712,1.590694,-2.679193,-81.979195,0.034454,0.053497,0.940079,0.144888,-0.08547,-0.067895,63.504669,9.953384,-149.030792,,,
729715965.421388,1.590695,-2.67919,-85.056074,0.034454,0.053497,0.940079,0.144888,-0.08547,-0.067895,63.504669,9.953384,-149.030792,,,
729715965.421617,1.590694,-2.679193,-81.979195,0.034454,0.053497,0.940079,0.144888,-0.08547,-0.067895,63.504669,9.953384,-149.030792,,,
729715965.426306,1.616127,-2.705835,-85.072693,0.034454,0.053497,0.940079,0.033278,-0.089472,-0.060324,63.504669,9.953384,-149.030792,,,
729715965.426561,1.616126,-2.705838,-81.995815,0.034454,0.053497,0.940079,0.033278,-0.089472,-0.060324,63.504669,9.953384,-149.030792,,,
729715965.429087,1.622493,-2.732219,-85.088899,0.039032,0.068024,0.934006,0.033278,-0.089472,-0.060324,63.504669,9.953384,-149.030792,,,
729715965.429329,1.622493,-2.732222,-82.01202,0.039032,0.068024,0.934006,0.033278,-0.089472,-0.060324,63.504669,9.953384,-149.030792,,,
729715965.431348,1.622493,-2.732219,-85.088899,0.039032,0.068024,0.934006,0.033278,-0.089472,-0.060324,63.504669,9.953384,-149.030792,,,
729715965.431586,1.622493,-2.732222,-82.01202,0.039032,0.068024,0.934006,0.033278,-0.089472,-0.060324,63.504669,9.953384,-149.030792,,,
729715965.437108,1.618548,-2.75893,-85.10523,0.039032,0.068024,0.934006,-0.051617,-0.09889,-0.057402,63.504669,9.953384,-149.030792,,,
729715965.437349,1.600897,-2.78647,-82.045827,0.049255,0.064423,0.936005,-0.051617,-0.09889,-0.057402,63.504669,9.953384,-149.030792,,,
729715965.439356,1.600898,-2.786467,-85.122705,0.049255,0.064423,0.936005,-0.051617,-0.09889,-0.057402,63.504669,9.953384,-149.030792,,,
729715965.439798,1.600897,-2.78647,-82.045827,0.049255,0.064423,0.936005,-0.051617,-0.09889,-0.057402,63.504669,9.953384,-149.030792,,,
729715965.441272,1.600898,-2.786467,-85.122705,0.049255,0.064423,0.936005,-0.051617,-0.09889,-0.057402,63.504669,9.953384,-149.030792,,,
729715965.441534,1.600897,-2.78647,-82.045827,0.049255,0.064423,0.936005,-0.051617,-0.09889,-0.057402,63.504669,9.953384,-149.030792,,,
729715965.446851,1.578542,-2.818617,-85.141431,0.049255,0.064423,0.936005,-0.095263,-0.127205,-0.068416,63.364944,9.910706,-148.963196,,,
729715965.447137,1.578542,-2.81862,-82.064553,0.049255,0.064423,0.936005,-0.095263,-0.127205,-0.068416,63.364944,9.910706,-148.963196,,,
729715965.449065,1.5505,-2.853388,-85.162207,0.05986,0.052078,0.93898,-0.095263,-0.127205,-0.068416,63.364944,9.910706,-148.963196,,,
729715965.449291,1.550499,-2.853391,-82.085329,0.05986,0.052078,0.93898,-0.095263,-0.127205,-0.068416,63.364944,9.910706,-148.963196,,,
729715965.451346,1.5505,-2.853388,-85.162207,0.05986,0.052078,0.93898,-0.095263,-0.127205,-0.068416,63.364944,9.910706,-148.963196,,,
729715965.451561,1.550499,-2.853391,-82.085329,0.05986,0.052078,0.93898,-0.095263,-0.127205,-0.068416,63.364944,9.910706,-148.963196,,,
729715965.456326,1.526748,-2.890005,-85.185795,0.05986,0.052078,0.93898,-0.062831,-0.119913,-0.087979,63.364944,9.910706,-148.963196,,,
729715965.45658,1.526748,-2.890008,-82.108916,0.05986,0.052078,0.93898,-0.062831,-0.119913,-0.087979,63.364944,9.910706,-148.963196,,,
729715965.459383,1.508287,-2.923309,-85.211318,0.061371,0.038925,0.963745,-0.062831,-0.119913,-0.087979,63.364944,9.910706,-148.963196,,,
729715965.459648,1.508287,-2.923312,-82.134439,0.061371,0.038925,0.963745,-0.062831,-0.119913,-0.087979,63.364944,9.910706,-148.963196,,,
729715965.461337,1.508287,-2.923309,-85.211318,0.061371,0.038925,0.963745,-0.062831,-0.119913,-0.087979,63.364944,9.910706,-148.963196,,,
729715965.461583,1.508287,-2.923312,-82.134439,0.061371,0.038925,0.963745,-0.062831,-0.119913,-0.087979,63.364944,9.910706,-148.963196,,,
729715965.467211,1.500685,-2.955011,-85.23718,0.061371,0.038925,0.963745,0.006526,-0.10906,-0.089102,63.364944,9.910706,-148.963196,,,
729715965.467489,1.502645,-2.985926,-82.184863,0.055695,0.021164,0.994919,0.006526,-0.10906,-0.089102,63.364944,9.910706,-148.963196,,,
729715965.468805,1.502646,-2.985923,-85.261741,0.055695,0.021164,0.994919,0.006526,-0.10906,-0.089102,63.364944,9.910706,-148.963196,,,
729715965.469034,1.502645,-2.985926,-82.184863,0.055695,0.021164,0.994919,0.006526,-0.10906,-0.089102,63.364944,9.910706,-148.963196,,,
729715965.471412,1.502646,-2.985923,-85.261741,0.055695,0.021164,0.994919,0.006526,-0.10906,-0.089102,63.364944,9.910706,-148.963196,,,
729715965.471611,1.502645,-2.985926,-82.184863,0.055695,0.021164,0.994919,0.006526,-0.10906,-0.089102,63.364944,9.910706,-148.963196,,,
729715965.476292,1.514111,-3.021027,-85.283224,0.055695,0.021164,0.994919,0.060472,-0.136895,-0.065838,63.364944,9.910706,-148.963196,,,
729715965.476534,1.51411,-3.02103,-82.206345,0.055695,0.021164,0.994919,0.060472,-0.136895,-0.065838,63.364944,9.910706,-148.963196,,,
729715965.479166,1.532596,-3.058626,-85.30079,0.044708,0.008667,0.985107,0.060472,-0.136895,-0.065838,63.364944,9.910706,-148.963196,,,
729715965.479395,1.532596,-3.058629,-82.223911,0.044708,0.008667,0.985107,0.060472,-0.136895,-0.065838,63.364944,9.910706,-148.963196,,,
729715965.481324,1.532596,-3.058626,-85.30079,0.044708,0.008667,0.985107,0.060472,-0.136895,-0.065838,63.364944,9.910706,-148.963196,,,
729715965.481534,1.532596,-3.058629,-82.223911,0.044708,0.008667,0.985107,0.060472,-0.136895,-0.065838,63.364944,9.910706,-148.963196,,,
729715965.486838,1.556363,-3.097727,-85.314354,0.044708,0.008667,0.985107,0.100529,-0.126846,-0.039062,63.22522,9.740417,-148.893539,,,
729715965.487091,1.556362,-3.097729,-82.237475,0.044708,0.008667,0.985107,0.100529,-0.126846,-0.039062,63.22522,9.740417,-148.893539,,,
729715965.489454,1.585875,-3.133971,-85.324473,0.042831,0.011337,0.981186,0.100529,-0.126846,-0.039062,63.22522,9.740417,-148.893539,,,
729715965.489729,1.585875,-3.133974,-82.247594,0.042831,0.011337,0.981186,0.100529,-0.126846,-0.039062,63.22522,9.740417,-148.893539,,,
729715965.491369,1.585875,-3.133971,-85.324473,0.042831,0.011337,0.981186,0.100529,-0.126846,-0.039062,63.22522,9.740417,-148.893539,,,
729715965.491589,1.585875,-3.133974,-82.247594,0.042831,0.011337,0.981186,0.100529,-0.126846,-0.039062,63.22522,9.740417,-148.893539,,,
729715965.496377,1.617673,-3.169766,-85.332421,0.042831,0.011337,0.981186,0.111195,-0.119584,-0.03349,63.22522,9.740417,-148.893539,,,
729715965.496626,1.617672,-3.169769,-82.255542,0.042831,0.011337,0.981186,0.111195,-0.119584,-0.03349,63.22522,9.740417,-148.893539,,,
729715965.499382,1.651335,-3.203217,-85.340287,0.047394,0.019318,0.98851,0.111195,-0.119584,-0.03349,63.22522,9.740417,-148.893539,,,
729715965.499622,1.651334,-3.20322,-82.263408,0.047394,0.019318,0.98851,0.111195,-0.119584,-0.03349,63.22522,9.740417,-148.893539,,,
729715965.501289,1.651335,-3.203217,-85.340287,0.047394,0.019318,0.98851,0.111195,-0.119584,-0.03349,63.22522,9.740417,-148.893539,,,
729715965.50153,1.651334,-3.20322,-82.263408,0.047394,0.019318,0.98851,0.111195,-0.119584,-0.03349,63.22522,9.740417,-148.893539,,,
729715965.506089,1.679808,-3.234658,-85.350095,0.047394,0.019318,0.98851,0.084303,-0.083713,-0.047338,63.22522,9.740417,-148.893539,,,
729715965.506323,1.679807,-3.23466,-82.273217,0.047394,0.019318,0.98851,0.084303,-0.083713,-0.047338,63.22522,9.740417,-148.893539,,,
729715965.509176,1.70681,-3.257929,-85.362345,0.052139,0.034088,0.979355,0.084303,-0.083713,-0.047338,63.22522,9.740417,-148.893539,,,
729715965.509406,1.706809,-3.257932,-82.285466,0.052139,0.034088,0.979355,0.084303,-0.083713,-0.047338,63.22522,9.740417,-148.893539,,,
729715965.511317,1.70681,-3.257929,-85.362345,0.052139,0.034088,0.979355,0.084303,-0.083713,-0.047338,63.22522,9.740417,-148.893539,,,
729715965.511578,1.706809,-3.257932,-82.285466,0.052139,0.034088,0.979355,0.084303,-0.083713,-0.047338,63.22522,9.740417,-148.893539,,,
729715965.516135,1.724336,-3.273499,-85.376004,0.052139,0.034088,0.979355,0.030554,-0.019122,-0.053332,63.22522,9.740417,-148.893539,,,
729715965.516388,1.724336,-3.273502,-82.299125,0.052139,0.034088,0.979355,0.030554,-0.019122,-0.053332,63.22522,9.740417,-148.893539,,,
729715965.518996,1.736526,-3.280287,-85.389568,0.05423,0.047516,0.979065,0.030554,-0.019122,-0.053332,63.22522,9.740417,-148.893539,,,
729715965.519227,1.736525,-3.28029,-82.312689,0.05423,0.047516,0.979065,0.030554,-0.019122,-0.053332,63.22522,9.740417,-148.893539,,,
729715965.521315,1.736526,-3.280287,-85.389568,0.05423,0.047516,0.979065,0.030554,-0.019122,-0.053332,63.22522,9.740417,-148.893539,,,
729715965.521592,1.736525,-3.28029,-82.312689,0.05423,0.047516,0.979065,0.030554,-0.019122,-0.053332,63.22522,9.740417,-148.893539,,,
729715965.528332,1.736531,-3.280024,-85.401392,0.05423,0.047516,0.979065,-0.038287,0.021643,-0.033439,62.954117,9.640366,-149.110489,,,
729715965.528636,1.72712,-3.275376,-82.333538,0.05455,0.047729,0.973236,-0.038287,0.021643,-0.033439,62.954117,9.640366,-149.110489,,,
729715965.532253,1.727121,-3.275374,-85.410417,0.05455,0.047729,0.973236,-0.038287,0.021643,-0.033439,62.954117,9.640366,-149.110489,,,
729715965.532481,1.704067,-3.267329,-82.339363,0.05455,0.047729,0.973236,-0.12496,0.039771,-0.004776,62.954117,9.640366,-149.110489,,,
729715965.536127,1.704068,-3.267327,-85.416242,0.05455,0.047729,0.973236,-0.12496,0.039771,-0.004776,62.954117,9.640366,-149.110489,,,
729715965.536369,1.704067,-3.267329,-82.339363,0.05455,0.047729,0.973236,-0.12496,0.039771,-0.004776,62.954117,9.640366,-149.110489,,,
729715965.539102,1.669164,-3.258115,-85.419138,0.05954,0.047165,0.958481,-0.12496,0.039771,-0.004776,62.954117,9.640366,-149.110489,,,
729715965.53933,1.669163,-3.258117,-82.342259,0.05954,0.047165,0.958481,-0.12496,0.039771,-0.004776,62.954117,9.640366,-149.110489,,,
729715965.541418,1.669164,-3.258115,-85.419138,0.05954,0.047165,0.958481,-0.12496,0.039771,-0.004776,62.954117,9.640366,-149.110489,,,
729715965.54162,1.669163,-3.258117,-82.342259,0.05954,0.047165,0.958481,-0.12496,0.039771,-0.004776,62.954117,9.640366,-149.110489,,,
729715965.546892,1.623312,-3.248081,-85.420112,0.05954,0.047165,0.958481,-0.187032,0.035886,0.012141,62.954117,9.640366,-149.110489,,,
729715965.547191,1.623311,-3.248083,-82.343234,0.05954,0.047165,0.958481,-0.187032,0.035886,0.012141,62.954117,9.640366,-149.110489,,,
729715965.548523,1.569588,-3.238477,-85.419935,0.057037,0.053085,0.955917,-0.187032,0.035886,0.012141,62.954117,9.640366,-149.110489,,,
729715965.548746,1.569587,-3.23848,-82.343056,0.057037,0.053085,0.955917,-0.187032,0.035886,0.012141,62.954117,9.640366,-149.110489,,,
729715965.551396,1.569588,-3.238477,-85.419935,0.057037,0.053085,0.955917,-0.187032,0.035886,0.012141,62.954117,9.640366,-149.110489,,,
729715965.551593,1.569587,-3.23848,-82.343056,0.057037,0.053085,0.955917,-0.187032,0.035886,0.012141,62.954117,9.640366,-149.110489,,,
729715965.555944,1.51318,-3.230433,-85.419655,0.057037,0.053085,0.955917,-0.194921,0.024718,0.00502,62.954117,9.640366,-149.110489,,,
729715965.55622,1.513179,-3.230436,-82.342776,0.057037,0.053085,0.955917,-0.194921,0.024718,0.00502,62.954117,9.640366,-149.110489,,,
729715965.559094,1.457169,-3.223689,-85.42078,0.057007,0.043472,0.970856,-0.194921,0.024718,0.00502,62.954117,9.640366,-149.110489,,,
729715965.55932,1.457168,-3.223692,-82.343901,0.057007,0.043472,0.970856,-0.194921,0.024718,0.00502,62.954117,9.640366,-149.110489,,,
729715965.561321,1.457169,-3.223689,-85.42078,0.057007,0.043472,0.970856,-0.194921,0.024718,0.00502,62.954117,9.640366,-149.110489,,,
729715965.561535,1.457168,-3.223692,-82.343901,0.057007,0.043472,0.970856,-0.194921,0.024718,0.00502,62.954117,9.640366,-149.110489,,,
729715965.567621,1.407548,-3.220187,-85.423174,0.057007,0.043472,0.970856,-0.141395,0.002984,-0.007882,63.087936,10.029449,-148.964401,,,
729715965.56791,1.365933,-3.220132,-82.350288,0.052612,0.020569,0.994995,-0.141395,0.002984,-0.007882,63.087936,10.029449,-148.964401,,,
729715965.568173,1.365933,-3.220132,-82.350288,0.052612,0.020569,0.994995,-0.141395,0.002984,-0.007882,63.087936,10.029449,-148.964401,,,
729715965.574126,1.365933,-3.220129,-85.427167,0.052612,0.020569,0.994995,-0.071751,-0.038059,-0.023252,63.087936,10.029449,-148.964401,,,
729715965.574405,1.334872,-3.226183,-82.356068,0.052612,0.020569,0.994995,-0.071751,-0.038059,-0.023252,63.087936,10.029449,-148.964401,,,
729715965.574906,1.334872,-3.226183,-82.356068,0.052612,0.020569,0.994995,-0.071751,-0.038059,-0.023252,63.087936,10.029449,-148.964401,,,
729715965.579422,1.314071,-3.236895,-85.439642,0.050049,0.005554,1.012558,-0.071751,-0.038059,-0.023252,63.087936,10.029449,-148.964401,,,
729715965.579657,1.314071,-3.236898,-82.362763,0.050049,0.005554,1.012558,-0.071751,-0.038059,-0.023252,63.087936,10.029449,-148.964401,,,
729715965.581292,1.314071,-3.236895,-85.439642,0.050049,0.005554,1.012558,-0.071751,-0.038059,-0.023252,63.087936,10.029449,-148.964401,,,
729715965.581531,1.314071,-3.236898,-82.362763,0.050049,0.005554,1.012558,-0.071751,-0.038059,-0.023252,63.087936,10.029449,-148.964401,,,
729715965.586065,1.301249,-3.250971,-85.446386,0.050049,0.005554,1.012558,-0.030073,-0.046777,-0.022443,63.087936,10.029449,-148.964401,,,
729715965.5863,1.301249,-3.250974,-82.369507,0.050049,0.005554,1.012558,-0.030073,-0.046777,-0.022443,63.087936,10.029449,-148.964401,,,
729715965.589081,1.294029,-3.265396,-85.452345,0.045258,0.006393,1.016251,-0.030073,-0.046777,-0.022443,63.087936,10.029449,-148.964401,,,
729715965.589379,1.294029,-3.265399,-82.375467,0.045258,0.006393,1.016251,-0.030073,-0.046777,-0.022443,63.087936,10.029449,-148.964401,,,
729715965.591443,1.294029,-3.265396,-85.452345,0.045258,0.006393,1.016251,-0.030073,-0.046777,-0.022443,63.087936,10.029449,-148.964401,,,
729715965.591648,1.294029,-3.265399,-82.375467,0.045258,0.006393,1.016251,-0.030073,-0.046777,-0.022443,63.087936,10.029449,-148.964401,,,
729715965.596064,1.287392,-3.279204,-85.4576,0.045258,0.006393,1.016251,-0.023398,-0.038105,-0.01213,63.087936,10.029449,-148.964401,,,
729715965.596343,1.287392,-3.279206,-82.380721,0.045258,0.006393,1.016251,-0.023398,-0.038105,-0.01213,63.087936,10.029449,-148.964401,,,
729715965.598804,1.284146,-3.289723,-85.461245,0.047546,0.014008,1.013275,-0.023398,-0.038105,-0.01213,63.087936,10.029449,-148.964401,,,
729715965.599035,1.284146,-3.289725,-82.384366,0.047546,0.014008,1.013275,-0.023398,-0.038105,-0.01213,63.087936,10.029449,-148.964401,,,
729715965.601354,1.284146,-3.289723,-85.461245,0.047546,0.014008,1.013275,-0.023398,-0.038105,-0.01213,63.087936,10.029449,-148.964401,,,
729715965.601568,1.284146,-3.289725,-82.384366,0.047546,0.014008,1.013275,-0.023398,-0.038105,-0.01213,63.087936,10.029449,-148.964401,,,
729715965.608184,1.277148,-3.295239,-85.462349,0.047546,0.014008,1.013275,-0.028237,0.009518,0.00061,62.845276,9.976776,-148.925171,,,
729715965.608498,1.274433,-3.294006,-82.384998,0.058685,0.019363,1.012802,-0.028237,0.009518,0.00061,62.845276,9.976776,-148.925171,,,
729715965.613116,1.274434,-3.294003,-85.461877,0.058685,0.019363,1.012802,-0.036058,0.06135,0.016654,62.845276,9.976776,-148.925171,,,
729715965.613387,1.265402,-3.284966,-82.382821,0.058685,0.019363,1.012802,-0.036058,0.06135,0.016654,62.845276,9.976776,-148.925171,,,
729715965.615074,1.265402,-3.284963,-85.4597,0.058685,0.019363,1.012802,-0.036058,0.06135,0.016654,62.845276,9.976776,-148.925171,,,
729715965.615305,1.265402,-3.284966,-82.382821,0.058685,0.019363,1.012802,-0.036058,0.06135,0.016654,62.845276,9.976776,-148.925171,,,
729715965.618968,1.260847,-3.269483,-85.455275,0.062683,0.021088,1.017365,-0.036058,0.06135,0.016654,62.845276,9.976776,-148.925171,,,
729715965.619186,1.260847,-3.269486,-82.378397,0.062683,0.021088,1.017365,-0.036058,0.06135,0.016654,62.845276,9.976776,-148.925171,,,
729715965.621516,1.260847,-3.269483,-85.455275,0.062683,0.021088,1.017365,-0.036058,0.06135,0.016654,62.845276,9.976776,-148.925171,,,
729715965.621719,1.260847,-3.269486,-82.378397,0.062683,0.021088,1.017365,-0.036058,0.06135,0.016654,62.845276,9.976776,-148.925171,,,
729715965.62619,1.248907,-3.248696,-85.449243,0.062683,0.021088,1.017365,-0.044147,0.088142,0.026515,62.845276,9.976776,-148.925171,,,
729715965.626432,1.248907,-3.248699,-82.372364,0.062683,0.021088,1.017365,-0.044147,0.088142,0.026515,62.845276,9.976776,-148.925171,,,
729715965.629055,1.242159,-3.226163,-85.442509,0.057068,0.023682,1.008087,-0.044147,0.088142,0.026515,62.845276,9.976776,-148.925171,,,
729715965.629298,1.242159,-3.226166,-82.365631,0.057068,0.023682,1.008087,-0.044147,0.088142,0.026515,62.845276,9.976776,-148.925171,,,
729715965.631339,1.242159,-3.226163,-85.442509,0.057068,0.023682,1.008087,-0.044147,0.088142,0.026515,62.845276,9.976776,-148.925171,,,
729715965.631556,1.242159,-3.226166,-82.365631,0.057068,0.023682,1.008087,-0.044147,0.088142,0.026515,62.845276,9.976776,-148.925171,,,
729715965.636045,1.227452,-3.202272,-85.435832,0.057068,0.023682,1.008087,-0.058876,0.082372,0.021669,62.845276,9.976776,-148.925171,,,
729715965.636299,1.227451,-3.202274,-82.358953,0.057068,0.023682,1.008087,-0.058876,0.082372,0.021669,62.845276,9.976776,-148.925171,,,
729715965.639227,1.21391,-3.180536,-85.429938,0.06192,0.029617,0.996414,-0.058876,0.082372,0.021669,62.845276,9.976776,-148.925171,,,
729715965.639462,1.213909,-3.180539,-82.353059,0.06192,0.029617,0.996414,-0.058876,0.082372,0.021669,62.845276,9.976776,-148.925171,,,
729715965.641421,1.21391,-3.180536,-85.429938,0.06192,0.029617,0.996414,-0.058876,0.082372,0.021669,62.845276,9.976776,-148.925171,,,
729715965.641633,1.213909,-3.180539,-82.353059,0.06192,0.029617,0.996414,-0.058876,0.082372,0.021669,62.845276,9.976776,-148.925171,,,
729715965.646163,1.194059,-3.161749,-85.426183,0.06192,0.029617,0.996414,-0.072655,0.053977,0.010319,62.845276,9.976776,-148.925171,,,
729715965.646413,1.194058,-3.161751,-82.349305,0.06192,0.029617,0.996414,-0.072655,0.053977,0.010319,62.845276,9.976776,-148.925171,,,
729715965.649572,1.171867,-3.146248,-85.424619,0.063065,0.034454,0.984436,-0.072655,0.053977,0.010319,63.020493,10.212997,-149.048157,,,
729715965.649822,1.171867,-3.146251,-82.34774,0.063065,0.034454,0.984436,-0.072655,0.053977,0.010319,63.020493,10.212997,-149.048157,,,
729715965.651261,1.171867,-3.146248,-85.424619,0.063065,0.034454,0.984436,-0.072655,0.053977,0.010319,63.020493,10.212997,-149.048157,,,
729715965.651533,1.171867,-3.146251,-82.34774,0.063065,0.034454,0.984436,-0.072655,0.053977,0.010319,63.020493,10.212997,-149.048157,,,
729715965.657167,1.150155,-3.134284,-85.424758,0.063065,0.034454,0.984436,-0.077395,0.038023,-0.007838,63.020493,10.212997,-149.048157,,,
729715965.657495,1.150155,-3.134287,-82.347879,0.063065,0.034454,0.984436,-0.077395,0.038023,-0.007838,63.020493,10.212997,-149.048157,,,
729715965.659227,1.124747,-3.122747,-85.427031,0.060486,0.035355,0.987473,-0.077395,0.038023,-0.007838,63.020493,10.212997,-149.048157,,,
729715965.659467,1.124747,-3.12275,-82.350152,0.060486,0.035355,0.987473,-0.077395,0.038023,-0.007838,63.020493,10.212997,-149.048157,,,
729715965.661379,1.124747,-3.122747,-85.427031,0.060486,0.035355,0.987473,-0.077395,0.038023,-0.007838,63.020493,10.212997,-149.048157,,,
729715965.661586,1.124747,-3.12275,-82.350152,0.060486,0.035355,0.987473,-0.077395,0.038023,-0.007838,63.020493,10.212997,-149.048157,,,
729715965.666009,1.102954,-3.11479,-85.430689,0.060486,0.035355,0.987473,-0.071309,0.021495,-0.013137,63.020493,10.212997,-149.048157,,,
729715965.666264,1.102954,-3.114793,-82.35381,0.060486,0.035355,0.987473,-0.071309,0.021495,-0.013137,63.020493,10.212997,-149.048157,,,
729715965.668827,1.079597,-3.106438,-85.435584,0.056488,0.027542,0.99324,-0.071309,0.021495,-0.013137,63.020493,10.212997,-149.048157,,,
729715965.669049,1.079596,-3.10644,-82.358706,0.056488,0.027542,0.99324,-0.071309,0.021495,-0.013137,63.020493,10.212997,-149.048157,,,
729715965.671424,1.079597,-3.106438,-85.435584,0.056488,0.027542,0.99324,-0.071309,0.021495,-0.013137,63.020493,10.212997,-149.048157,,,
729715965.671608,1.079596,-3.10644,-82.358706,0.056488,0.027542,0.99324,-0.071309,0.021495,-0.013137,63.020493,10.212997,-149.048157,,,
729715965.675452,1.059244,-3.101783,-85.44096,0.056488,0.027542,0.99324,-0.072833,0.016392,-0.012785,63.020493,10.212997,-149.048157,,,
729715965.675671,1.059244,-3.101786,-82.364082,0.056488,0.027542,0.99324,-0.072833,0.016392,-0.012785,63.020493,10.212997,-149.048157,,,
729715965.67897,1.037906,-3.09656,-85.445628,0.056,0.021973,0.996918,-0.072833,0.016392,-0.012785,63.020493,10.212997,-149.048157,,,
729715965.679189,1.037906,-3.096563,-82.368749,0.056,0.021973,0.996918,-0.072833,0.016392,-0.012785,63.020493,10.212997,-149.048157,,,
729715965.681348,1.037906,-3.09656,-85.445628,0.056,0.021973,0.996918,-0.072833,0.016392,-0.012785,63.020493,10.212997,-149.048157,,,
729715965.681566,1.037906,-3.096563,-82.368749,0.056,0.021973,0.996918,-0.072833,0.016392,-0.012785,63.020493,10.212997,-149.048157,,,
729715965.685832,1.01607,-3.091013,-85.449302,0.056,0.021973,0.996918,-0.075488,0.026651,-0.006032,63.020493,10.212997,-149.048157,,,
729715965.686054,1.01607,-3.091015,-82.372423,0.056,0.021973,0.996918,-0.075488,0.026651,-0.006032,63.020493,10.212997,-149.048157,,,
729715965.689357,0.994645,-3.086425,-85.451775,0.052063,0.017197,0.998138,-0.075488,0.026651,-0.006032,63.158783,10.412537,-148.810577,,,
729715965.689624,0.994644,-3.086428,-82.374896,0.052063,0.017197,0.998138,-0.075488,0.026651,-0.006032,63.158783,10.412537,-148.810577,,,
729715965.691294,0.994645,-3.086425,-85.451775,0.052063,0.017197,0.998138,-0.075488,0.026651,-0.006032,63.158783,10.412537,-148.810577,,,
729715965.69153,0.994644,-3.086428,-82.374896,0.052063,0.017197,0.998138,-0.075488,0.026651,-0.006032,63.158783,10.412537,-148.810577,,,
729715965.696066,0.974527,-3.081272,-85.453296,0.052063,0.017197,0.998138,-0.060502,0.017133,-0.001656,63.158783,10.412537,-148.810577,,,
729715965.696293,0.974527,-3.081275,-82.376418,0.052063,0.017197,0.998138,-0.060502,0.017133,-0.001656,63.158783,10.412537,-148.810577,,,
729715965.698676,0.957701,-3.078359,-85.45406,0.0569,0.012451,1.000412,-0.060502,0.017133,-0.001656,63.158783,10.412537,-148.810577,,,
729715965.69889,0.957701,-3.078362,-82.377181,0.0569,0.012451,1.000412,-0.060502,0.017133,-0.001656,63.158783,10.412537,-148.810577,,,
729715965.70137,0.957701,-3.078359,-85.45406,0.0569,0.012451,1.000412,-0.060502,0.017133,-0.001656,63.158783,10.412537,-148.810577,,,
729715965.70159,0.957701,-3.078362,-82.377181,0.0569,0.012451,1.000412,-0.060502,0.017133,-0.001656,63.158783,10.412537,-148.810577,,,
729715965.706758,0.942842,-3.07472,-85.454063,0.0569,0.012451,1.000412,-0.034368,0.017339,0.004225,63.158783,10.412537,-148.810577,,,
729715965.707031,0.942842,-3.074723,-82.377185,0.0569,0.012451,1.000412,-0.034368,0.017339,0.004225,63.158783,10.412537,-148.810577,,,
729715965.708659,0.933448,-3.071486,-85.452985,0.054001,0.007004,1.007538,-0.034368,0.017339,0.004225,63.158783,10.412537,-148.810577,,,
729715965.708883,0.933448,-3.071489,-82.376106,0.054001,0.007004,1.007538,-0.034368,0.017339,0.004225,63.158783,10.412537,-148.810577,,,
729715965.711385,0.933448,-3.071486,-85.452985,0.054001,0.007004,1.007538,-0.034368,0.017339,0.004225,63.158783,10.412537,-148.810577,,,
729715965.711582,0.933448,-3.071489,-82.376106,0.054001,0.007004,1.007538,-0.034368,0.017339,0.004225,63.158783,10.412537,-148.810577,,,
729715965.715369,0.926662,-3.066333,-85.451471,0.054001,0.007004,1.007538,-0.006629,0.02299,0.006496,63.158783,10.412537,-148.810577,,,
729715965.71561,0.926662,-3.066336,-82.374592,0.054001,0.007004,1.007538,-0.006629,0.02299,0.006496,63.158783,10.412537,-148.810577,,,
729715965.718642,0.927509,-3.062944,-85.449948,0.054733,0.00528,1.019455,-0.006629,0.02299,0.006496,63.158783,10.412537,-148.810577,,,
729715965.718871,0.927509,-3.062947,-82.373069,0.054733,0.00528,1.019455,-0.006629,0.02299,0.006496,63.158783,10.412537,-148.810577,,,
729715965.721455,0.927509,-3.062944,-85.449948,0.054733,0.00528,1.019455,-0.006629,0.02299,0.006496,63.158783,10.412537,-148.810577,,,
729715965.721681,0.927509,-3.062947,-82.373069,0.054733,0.00528,1.019455,-0.006629,0.02299,0.006496,63.158783,10.412537,-148.810577,,,
729715965.7262,0.928138,-3.058079,-85.447755,0.054733,0.00528,1.019455,0.004426,0.019328,0.009897,63.158783,10.412537,-148.810577,,,
729715965.726439,0.928138,-3.058082,-82.370876,0.054733,0.00528,1.019455,0.004426,0.019328,0.009897,63.158783,10.412537,-148.810577,,,
729715965.72868,0.93236,-3.055538,-85.444864,0.055695,0.009689,1.012772,0.004426,0.019328,0.009897,63.158783,10.412537,-148.810577,,,
729715965.728901,0.932359,-3.055541,-82.367985,0.055695,0.009689,1.012772,0.004426,0.019328,0.009897,63.09906,10.421829,-148.943771,,,
729715965.732225,0.93236,-3.055538,-85.444864,0.055695,0.009689,1.012772,0.004426,0.019328,0.009897,63.09906,10.421829,-148.943771,,,
729715965.732506,0.932359,-3.055541,-82.367985,0.055695,0.009689,1.012772,0.004426,0.019328,0.009897,63.09906,10.421829,-148.943771,,,
729715965.736265,0.93099,-3.050205,-85.441969,0.055695,0.009689,1.012772,-0.016068,0.023697,0.008742,63.09906,10.421829,-148.943771,,,
729715965.736527,0.93099,-3.050208,-82.36509,0.055695,0.009689,1.012772,-0.016068,0.023697,0.008742,63.09906,10.421829,-148.943771,,,
729715965.738936,0.929961,-3.046124,-85.439009,0.05423,0.023239,1.002121,-0.016068,0.023697,0.008742,63.09906,10.421829,-148.943771,,,
729715965.739183,0.929961,-3.046126,-82.36213,0.05423,0.023239,1.002121,-0.016068,0.023697,0.008742,63.09906,10.421829,-148.943771,,,
729715965.741446,0.929961,-3.046124,-85.439009,0.05423,0.023239,1.002121,-0.016068,0.023697,0.008742,63.09906,10.421829,-148.943771,,,
729715965.741655,0.929961,-3.046126,-82.36213,0.05423,0.023239,1.002121,-0.016068,0.023697,0.008742,63.09906,10.421829,-148.943771,,,
729715965.745759,0.921684,-3.040488,-85.436076,0.05423,0.023239,1.002121,-0.033494,0.024142,0.011449,63.09906,10.421829,-148.943771,,,
729715965.745994,0.921684,-3.040491,-82.359197,0.05423,0.023239,1.002121,-0.033494,0.024142,0.011449,63.09906,10.421829,-148.943771,,,
729715965.748767,0.91255,-3.03573,-85.432734,0.054703,0.027359,0.997803,-0.033494,0.024142,0.011449,63.09906,10.421829,-148.943771,,,
729715965.748989,0.91255,-3.035733,-82.355856,0.054703,0.027359,0.997803,-0.033494,0.024142,0.011449,63.09906,10.421829,-148.943771,,,
729715965.751361,0.91255,-3.03573,-85.432734,0.054703,0.027359,0.997803,-0.033494,0.024142,0.011449,63.09906,10.421829,-148.943771,,,
729715965.751573,0.91255,-3.035733,-82.355856,0.054703,0.027359,0.997803,-0.033494,0.024142,0.011449,63.09906,10.421829,-148.943771,,,
729715965.755897,0.900612,-3.031281,-85.428919,0.054703,0.027359,0.997803,-0.039682,0.012283,0.012501,63.09906,10.421829,-148.943771,,,
729715965.756142,0.900612,-3.031284,-82.35204,0.054703,0.027359,0.997803,-0.039682,0.012283,0.012501,63.09906,10.421829,-148.943771,,,
729715965.758736,0.889232,-3.029577,-85.425461,0.058777,0.022385,1.001648,-0.039682,0.012283,0.012501,63.09906,10.421829,-148.943771,,,
729715965.758969,0.889232,-3.02958,-82.348583,0.058777,0.022385,1.001648,-0.039682,0.012283,0.012501,63.09906,10.421829,-148.943771,,,
729715965.761385,0.889232,-3.029577,-85.425461,0.058777,0.022385,1.001648,-0.039682,0.012283,0.012501,63.09906,10.421829,-148.943771,,,
729715965.761577,0.889232,-3.02958,-82.348583,0.058777,0.022385,1.001648,-0.039682,0.012283,0.012501,63.09906,10.421829,-148.943771,,,
729715965.765336,0.87727,-3.028922,-85.422593,0.058777,0.022385,1.001648,-0.041473,0.005627,0.008349,63.09906,10.421829,-148.943771,,,
729715965.765549,0.87727,-3.028925,-82.345715,0.058777,0.022385,1.001648,-0.041473,0.005627,0.008349,63.09906,10.421829,-148.943771,,,
729715965.768382,0.865624,-3.027653,-85.419903,0.059326,0.017883,1.00351,-0.041473,0.005627,0.008349,63.09906,10.421829,-148.943771,,,
729715965.768598,0.865624,-3.027656,-82.343024,0.059326,0.017883,1.00351,-0.041473,0.005627,0.008349,63.09906,10.421829,-148.943771,,,
729715965.771948,0.865624,-3.027653,-85.419903,0.059326,0.017883,1.00351,-0.041473,0.005627,0.008349,63.20871,10.349335,-149.245316,,,
729715965.772173,0.865624,-3.027656,-82.343024,0.059326,0.017883,1.00351,-0.041473,0.005627,0.008349,63.20871,10.349335,-149.245316,,,
729715965.775555,0.853949,-3.024805,-85.417241,0.059326,0.017883,1.00351,-0.036873,0.02161,0.009173,63.20871,10.349335,-149.245316,,,
729715965.775781,0.853949,-3.024808,-82.340362,0.059326,0.017883,1.00351,-0.036873,0.02161,0.009173,63.20871,10.349335,-149.245316,,,
729715965.778746,0.842353,-3.020499,-85.414649,0.057953,0.018127,1.007675,-0.036873,0.02161,0.009173,63.20871,10.349335,-149.245316,,,
729715965.77897,0.842353,-3.020502,-82.33777,0.057953,0.018127,1.007675,-0.036873,0.02161,0.009173,63.20871,10.349335,-149.245316,,,
729715965.78139,0.842353,-3.020499,-85.414649,0.057953,0.018127,1.007675,-0.036873,0.02161,0.009173,63.20871,10.349335,-149.245316,,,
729715965.781589,0.842353,-3.020502,-82.33777,0.057953,0.018127,1.007675,-0.036873,0.02161,0.009173,63.20871,10.349335,-149.245316,,,
729715965.785803,0.833705,-3.014134,-85.412204,0.057953,0.018127,1.007675,-0.019525,0.025432,0.006825,63.20871,10.349335,-149.245316,,,
729715965.786029,0.833705,-3.014137,-82.335325,0.057953,0.018127,1.007675,-0.019525,0.025432,0.006825,63.20871,10.349335,-149.245316,,,
729715965.788118,0.826313,-3.008254,-85.410205,0.060364,0.016159,1.009354,-0.019525,0.025432,0.006825,63.20871,10.349335,-149.245316,,,
729715965.788338,0.826313,-3.008256,-82.333326,0.060364,0.016159,1.009354,-0.019525,0.025432,0.006825,63.20871,10.349335,-149.245316,,,
729715965.791559,0.826313,-3.008254,-85.410205,0.060364,0.016159,1.009354,-0.019525,0.025432,0.006825,63.20871,10.349335,-149.245316,,,
729715965.791792,0.826313,-3.008256,-82.333326,0.060364,0.016159,1.009354,-0.019525,0.025432,0.006825,63.20871,10.349335,-149.245316,,,
729715965.796037,0.822978,-3.003352,-85.408404,0.060364,0.016159,1.009354,-0.003307,0.017322,0.005367,63.20871,10.349335,-149.245316,,,
729715965.796269,0.822978,-3.003355,-82.331525,0.060364,0.016159,1.009354,-0.003307,0.017322,0.005367,63.20871,10.349335,-149.245316,,,
729715965.798501,0.822978,-3.003352,-85.408404,0.055649,0.013229,1.003006,-0.003307,0.017322,0.005367,63.20871,10.349335,-149.245316,,,
729715965.798728,0.820094,-2.999524,-82.330101,0.055649,0.013229,1.003006,-0.003307,0.017322,0.005367,63.20871,10.349335,-149.245316,,,
729715965.801405,0.820094,-2.999521,-85.406979,0.055649,0.013229,1.003006,-0.003307,0.017322,0.005367,63.20871,10.349335,-149.245316,,,
729715965.801598,0.820094,-2.999524,-82.330101,0.055649,0.013229,1.003006,-0.003307,0.017322,0.005367,63.20871,10.349335,-149.245316,,,
729715965.807127,0.820525,-2.995556,-85.406534,0.055649,0.013229,1.003006,0.007615,0.019455,-0.005086,63.20871,10.349335,-149.245316,,,
729715965.807424,0.820525,-2.995558,-82.329655,0.055649,0.013229,1.003006,0.007615,0.019455,-0.005086,63.20871,10.349335,-149.245316,,,
729715965.807808,0.820525,-2.995556,-85.406534,0.055649,0.013229,1.003006,0.007615,0.019455,-0.005086,63.20871,10.349335,-149.245316,,,
729715965.808241,0.82185,-2.991434,-82.330066,0.048737,0.016388,0.998871,0.007615,0.019455,-0.005086,63.20871,10.349335,-149.245316,,,
729715965.812988,0.82185,-2.991431,-85.406945,0.048737,0.016388,0.998871,0.007615,0.019455,-0.005086,63.297379,10.473663,-149.474838,,,
729715965.813371,0.825084,-2.986228,-82.33091,0.048737,0.016388,0.998871,0.015663,0.021966,-0.006277,63.297379,10.473663,-149.474838,,,
729715965.815128,0.825084,-2.986225,-85.407789,0.048737,0.016388,0.998871,0.015663,0.021966,-0.006277,63.297379,10.473663,-149.474838,,,
729715965.815341,0.825084,-2.986228,-82.33091,0.048737,0.016388,0.998871,0.015663,0.021966,-0.006277,63.297379,10.473663,-149.474838,,,
729715965.818533,0.83107,-2.981377,-85.408384,0.047165,0.015457,0.997437,0.015663,0.021966,-0.006277,63.297379,10.473663,-149.474838,,,
729715965.818759,0.83107,-2.98138,-82.331505,0.047165,0.015457,0.997437,0.015663,0.021966,-0.006277,63.297379,10.473663,-149.474838,,,
729715965.821438,0.83107,-2.981377,-85.408384,0.047165,0.015457,0.997437,0.015663,0.021966,-0.006277,63.297379,10.473663,-149.474838,,,
729715965.821652,0.83107,-2.98138,-82.331505,0.047165,0.015457,0.997437,0.015663,0.021966,-0.006277,63.297379,10.473663,-149.474838,,,
729715965.826417,0.834362,-2.976421,-85.408111,0.047165,0.015457,0.997437,0.011451,0.018678,0.003756,63.297379,10.473663,-149.474838,,,
729715965.826661,0.834362,-2.976424,-82.331232,0.047165,0.015457,0.997437,0.011451,0.018678,0.003756,63.297379,10.473663,-149.474838,,,
729715965.82802,0.834362,-2.976421,-85.408111,0.047165,0.015457,0.997437,0.011451,0.018678,0.003756,63.297379,10.473663,-149.474838,,,
729715965.828249,0.839161,-2.9725,-82.329332,0.042221,0.009888,0.994736,0.011451,0.018678,0.003756,63.297379,10.473663,-149.474838,,,
729715965.832897,0.839161,-2.972497,-85.406211,0.042221,0.009888,0.994736,0.011451,0.018678,0.003756,63.297379,10.473663,-149.474838,,,
729715965.833133,0.840445,-2.968206,-82.32585,0.042221,0.009888,0.994736,0.006333,0.0147,0.013281,63.297379,10.473663,-149.474838,,,
729715965.835285,0.840445,-2.968203,-85.402729,0.042221,0.009888,0.994736,0.006333,0.0147,0.013281,63.297379,10.473663,-149.474838,,,
729715965.835506,0.840445,-2.968206,-82.32585,0.042221,0.009888,0.994736,0.006333,0.0147,0.013281,63.297379,10.473663,-149.474838,,,
729715965.83805,0.840445,-2.968203,-85.402729,0.042374,0.014893,0.99147,0.006333,0.0147,0.013281,63.297379,10.473663,-149.474838,,,
729715965.838253,0.841464,-2.96699,-82.321605,0.042374,0.014893,0.99147,0.006333,0.0147,0.013281,63.297379,10.473663,-149.474838,,,
729715965.841536,0.841464,-2.966987,-85.398483,0.042374,0.014893,0.99147,0.006333,0.0147,0.013281,63.297379,10.473663,-149.474838,,,
729715965.841723,0.841464,-2.96699,-82.321605,0.042374,0.014893,0.99147,0.006333,0.0147,0.013281,63.297379,10.473663,-149.474838,,,
729715965.846412,0.840281,-2.965557,-85.394146,0.042374,0.014893,0.99147,-0.007687,0.00603,0.01616,63.297379,10.473663,-149.474838,,,
729715965.84667,0.840281,-2.965559,-82.317268,0.042374,0.014893,0.99147,-0.007687,0.00603,0.01616,63.297379,10.473663,-149.474838,,,
729715965.847929,0.840281,-2.965557,-85.394146,0.042374,0.014893,0.99147,-0.007687,0.00603,0.01616,63.297379,10.473663,-149.474838,,,
729715965.848196,0.838566,-2.966661,-82.312734,0.046677,0.019409,0.992645,-0.007687,0.00603,0.01616,63.297379,10.473663,-149.474838,,,
729715965.852497,0.838567,-2.966658,-85.389613,0.046677,0.019409,0.992645,-0.007687,0.00603,0.01616,63.296936,10.492645,-149.331879,,,
