Time (sec),Pitch (deg),Roll (deg),Yaw(deg),X-Acceleration (g),Y-Acceleration (g),Z-Acceleration (g),Pitch Rate (deg/sec),Roll Rate (deg/sec),Yaw Rate (deg/sec),Magnetic Field in X direction (uT),Magnetic Field in Y direction (uT),Magnetic Field in Z Direction (uT),Latitude (deg),Longitude (deg),Altitude (m)
729716871.798635,-1.972193,3.821036,139.461894,-0.073761,-0.038666,0.983307,-0.004467,0.015751,0.008728,91.620514,37.462875,-147.939972,,,
729716871.800581,-1.972195,3.821036,100.848692,-0.073761,-0.038666,0.983307,-0.004467,0.015751,0.008728,91.620514,37.462875,-147.939972,,,
729716871.800866,-1.972194,3.821039,103.925542,-0.073761,-0.038666,0.983307,-0.004467,0.015751,0.008728,91.620514,37.462875,-147.939972,,,
729716871.80157,-1.972462,3.824103,139.465166,-0.073761,-0.038666,0.983307,-0.004467,0.015751,0.008728,91.620514,37.462875,-147.939972,,,
729716871.803974,-1.972463,3.824102,100.851965,-0.073761,-0.038666,0.983307,-0.004467,0.015751,0.008728,91.620514,37.462875,-147.939972,,,
729716871.804257,-1.972463,3.824105,103.928816,-0.073761,-0.038666,0.983307,-0.004467,0.015751,0.008728,91.620514,37.462875,-147.939972,,,
729716871.804839,-1.972462,3.824103,139.465166,-0.073761,-0.038666,0.983307,-0.004467,0.015751,0.008728,91.620514,37.462875,-147.939972,,,
729716871.808471,-1.973245,3.827591,100.855535,-0.067947,-0.034958,0.985474,-0.00231,0.012802,0.010837,91.620514,37.462875,-147.939972,,,
729716871.809707,-1.973244,3.827593,103.932386,-0.067947,-0.034958,0.985474,-0.00231,0.012802,0.010837,91.620514,37.462875,-147.939972,,,
729716871.809896,-1.973243,3.827591,139.468741,-0.067947,-0.034958,0.985474,-0.00231,0.012802,0.010837,91.620514,37.462875,-147.939972,,,
729716871.810403,-1.973245,3.827591,100.855535,-0.067947,-0.034958,0.985474,-0.00231,0.012802,0.010837,91.620514,37.462875,-147.939972,,,
729716871.81091,-1.973244,3.827593,103.932386,-0.067947,-0.034958,0.985474,-0.00231,0.012802,0.010837,91.620514,37.462875,-147.939972,,,
729716871.81151,-1.973602,3.830407,139.471916,-0.067947,-0.034958,0.985474,-0.00231,0.012802,0.010837,91.620514,37.462875,-147.939972,,,
729716871.813979,-1.973603,3.830407,100.85871,-0.067947,-0.034958,0.985474,-0.00231,0.012802,0.010837,91.620514,37.462875,-147.939972,,,
729716871.814509,-1.973602,3.83041,103.935561,-0.067947,-0.034958,0.985474,-0.00231,0.012802,0.010837,91.620514,37.462875,-147.939972,,,
729716871.814844,-1.973602,3.830407,139.471916,-0.067947,-0.034958,0.985474,-0.00231,0.012802,0.010837,91.620514,37.462875,-147.939972,,,
729716871.818458,-1.975256,3.83224,100.860934,-0.062958,-0.031509,0.982849,-0.007865,0.007816,0.003851,91.620514,37.462875,-147.939972,,,
729716871.819892,-1.975255,3.832243,103.937784,-0.062958,-0.031509,0.982849,-0.007865,0.007816,0.003851,91.620514,37.462875,-147.939972,,,
729716871.820088,-1.975255,3.832241,139.474139,-0.062958,-0.031509,0.982849,-0.007865,0.007816,0.003851,91.620514,37.462875,-147.939972,,,
729716871.820371,-1.975256,3.83224,100.860934,-0.062958,-0.031509,0.982849,-0.007865,0.007816,0.003851,91.620514,37.462875,-147.939972,,,
729716871.82093,-1.975255,3.832243,103.937784,-0.062958,-0.031509,0.982849,-0.007865,0.007816,0.003851,91.620514,37.462875,-147.939972,,,
729716871.82151,-1.977289,3.834568,139.475523,-0.062958,-0.031509,0.982849,-0.007865,0.007816,0.003851,91.620514,37.462875,-147.939972,,,
729716871.824055,-1.97729,3.834568,100.862317,-0.062958,-0.031509,0.982849,-0.007865,0.007816,0.003851,91.620514,37.462875,-147.939972,,,
729716871.824322,-1.977289,3.83457,103.939167,-0.062958,-0.031509,0.982849,-0.007865,0.007816,0.003851,91.620514,37.462875,-147.939972,,,
729716871.824831,-1.977289,3.834568,139.475523,-0.062958,-0.031509,0.982849,-0.007865,0.007816,0.003851,91.620514,37.462875,-147.939972,,,
729716871.827793,-1.980707,3.834711,100.863398,-0.059723,-0.030075,0.98143,-0.01593,1.6e-05,0.001475,91.620514,37.462875,-147.939972,,,
729716871.828532,-1.980707,3.834714,103.940249,-0.059723,-0.030075,0.98143,-0.01593,1.6e-05,0.001475,91.620514,37.462875,-147.939972,,,
729716871.828751,-1.980706,3.834711,139.476604,-0.059723,-0.030075,0.98143,-0.01593,1.6e-05,0.001475,91.620514,37.462875,-147.939972,,,
729716871.830559,-1.980707,3.834711,100.863398,-0.059723,-0.030075,0.98143,-0.01593,1.6e-05,0.001475,91.620514,37.462875,-147.939972,,,
729716871.830869,-1.980707,3.834714,103.940249,-0.059723,-0.030075,0.98143,-0.01593,1.6e-05,0.001475,91.620514,37.462875,-147.939972,,,
729716871.831518,-1.985528,3.834464,139.477787,-0.059723,-0.030075,0.98143,-0.01593,1.6e-05,0.001475,91.620514,37.462875,-147.939972,,,
729716871.834321,-1.98553,3.834464,100.864581,-0.059723,-0.030075,0.98143,-0.01593,1.6e-05,0.001475,91.620514,37.462875,-147.939972,,,
729716871.834956,-1.985529,3.834467,103.941432,-0.059723,-0.030075,0.98143,-0.01593,1.6e-05,0.001475,91.620514,37.462875,-147.939972,,,
729716871.835157,-1.985528,3.834464,139.477787,-0.059723,-0.030075,0.98143,-0.01593,1.6e-05,0.001475,91.912384,37.39473,-147.640121,,,
729716871.840353,-1.991727,3.832976,100.865475,-0.058655,-0.032272,0.983017,-0.024248,-0.003038,-0.000922,91.912384,37.39473,-147.640121,,,
729716871.843091,-1.991726,3.832979,103.942326,-0.058655,-0.032272,0.983017,-0.024248,-0.003038,-0.000922,91.912384,37.39473,-147.640121,,,
729716871.843264,-1.999598,3.832575,139.479564,-0.058655,-0.032272,0.983017,-0.024248,-0.003038,-0.000922,91.912384,37.39473,-147.640121,,,
729716871.843946,-1.9996,3.832575,100.86636,-0.058655,-0.032272,0.983017,-0.024248,-0.003038,-0.000922,91.912384,37.39473,-147.640121,,,
729716871.84443,-1.999599,3.832577,103.943211,-0.058655,-0.032272,0.983017,-0.024248,-0.003038,-0.000922,91.912384,37.39473,-147.640121,,,
729716871.844817,-1.999598,3.832575,139.479564,-0.058655,-0.032272,0.983017,-0.024248,-0.003038,-0.000922,91.912384,37.39473,-147.640121,,,
729716871.84871,-2.009898,3.832529,100.866715,-0.055145,-0.031387,0.98558,-0.038267,0.004992,-0.005353,91.912384,37.39473,-147.640121,,,
729716871.85044,-2.009897,3.832532,103.943566,-0.055145,-0.031387,0.98558,-0.038267,0.004992,-0.005353,91.912384,37.39473,-147.640121,,,
729716871.850612,-2.009896,3.832529,139.479918,-0.055145,-0.031387,0.98558,-0.038267,0.004992,-0.005353,91.912384,37.39473,-147.640121,,,
729716871.850812,-2.009898,3.832529,100.866715,-0.055145,-0.031387,0.98558,-0.038267,0.004992,-0.005353,91.912384,37.39473,-147.640121,,,
729716871.850986,-2.009897,3.832532,103.943566,-0.055145,-0.031387,0.98558,-0.038267,0.004992,-0.005353,91.912384,37.39473,-147.640121,,,
729716871.851413,-2.022056,3.836081,139.479285,-0.055145,-0.031387,0.98558,-0.038267,0.004992,-0.005353,91.912384,37.39473,-147.640121,,,
729716871.854445,-2.022058,3.836081,100.866082,-0.055145,-0.031387,0.98558,-0.038267,0.004992,-0.005353,91.912384,37.39473,-147.640121,,,
729716871.855115,-2.022057,3.836084,103.942933,-0.055145,-0.031387,0.98558,-0.038267,0.004992,-0.005353,91.912384,37.39473,-147.640121,,,
729716871.855292,-2.022056,3.836081,139.479285,-0.055145,-0.031387,0.98558,-0.038267,0.004992,-0.005353,91.912384,37.39473,-147.640121,,,
729716871.858063,-2.036004,3.840516,100.864638,-0.053253,-0.031937,0.993408,-0.049362,0.022447,-0.01139,91.912384,37.39473,-147.640121,,,
729716871.85899,-2.036003,3.840519,103.941489,-0.053253,-0.031937,0.993408,-0.049362,0.022447,-0.01139,91.912384,37.39473,-147.640121,,,
729716871.859135,-2.036002,3.840517,139.47784,-0.053253,-0.031937,0.993408,-0.049362,0.022447,-0.01139,91.912384,37.39473,-147.640121,,,
729716871.860451,-2.036004,3.840516,100.864638,-0.053253,-0.031937,0.993408,-0.049362,0.022447,-0.01139,91.912384,37.39473,-147.640121,,,
729716871.860927,-2.036003,3.840519,103.941489,-0.053253,-0.031937,0.993408,-0.049362,0.022447,-0.01139,91.912384,37.39473,-147.640121,,,
729716871.861473,-2.051133,3.849065,139.475296,-0.053253,-0.031937,0.993408,-0.049362,0.022447,-0.01139,91.912384,37.39473,-147.640121,,,
729716871.864672,-2.051134,3.849064,100.862094,-0.053253,-0.031937,0.993408,-0.049362,0.022447,-0.01139,91.912384,37.39473,-147.640121,,,
729716871.865604,-2.051134,3.849067,103.938945,-0.053253,-0.031937,0.993408,-0.049362,0.022447,-0.01139,91.912384,37.39473,-147.640121,,,
729716871.865805,-2.051133,3.849065,139.475296,-0.053253,-0.031937,0.993408,-0.049362,0.022447,-0.01139,91.912384,37.39473,-147.640121,,,
729716871.868437,-2.06534,3.858167,100.858893,-0.052872,-0.034653,0.997925,-0.046813,0.039787,-0.015344,91.912384,37.39473,-147.640121,,,
729716871.869985,-2.065339,3.85817,103.935744,-0.052872,-0.034653,0.997925,-0.046813,0.039787,-0.015344,91.912384,37.39473,-147.640121,,,
729716871.870187,-2.065338,3.858167,139.472096,-0.052872,-0.034653,0.997925,-0.046813,0.039787,-0.015344,91.912384,37.39473,-147.640121,,,
729716871.870446,-2.06534,3.858167,100.858893,-0.052872,-0.034653,0.997925,-0.046813,0.039787,-0.015344,91.912384,37.39473,-147.640121,,,
729716871.870918,-2.065339,3.85817,103.935744,-0.052872,-0.034653,0.997925,-0.046813,0.039787,-0.015344,91.912384,37.39473,-147.640121,,,
729716871.871509,-2.079321,3.870054,139.469225,-0.052872,-0.034653,0.997925,-0.046813,0.039787,-0.015344,91.912384,37.39473,-147.640121,,,
729716871.874643,-2.079322,3.870054,100.856022,-0.052872,-0.034653,0.997925,-0.046813,0.039787,-0.015344,91.912384,37.39473,-147.640121,,,
729716871.875771,-2.079321,3.870057,103.932873,-0.052872,-0.034653,0.997925,-0.046813,0.039787,-0.015344,91.912384,37.39473,-147.640121,,,
729716871.875958,-2.079321,3.870054,139.469225,-0.052872,-0.034653,0.997925,-0.046813,0.039787,-0.015344,91.816101,37.358551,-147.750732,,,
729716871.879353,-2.091702,3.880031,100.853255,-0.059555,-0.038635,0.997894,-0.039435,0.037004,-0.013769,91.816101,37.358551,-147.750732,,,
729716871.881693,-2.091701,3.880034,103.930106,-0.059555,-0.038635,0.997894,-0.039435,0.037004,-0.013769,91.816101,37.358551,-147.750732,,,
729716871.881924,-2.102954,3.889634,139.463971,-0.059555,-0.038635,0.997894,-0.039435,0.037004,-0.013769,91.816101,37.358551,-147.750732,,,
729716871.882573,-2.102955,3.889633,100.850766,-0.059555,-0.038635,0.997894,-0.039435,0.037004,-0.013769,91.816101,37.358551,-147.750732,,,
729716871.883779,-2.102955,3.889633,100.850766,-0.059555,-0.038635,0.997894,-0.039435,0.037004,-0.013769,91.816101,37.358551,-147.750732,,,
729716871.884634,-2.102954,3.889636,103.927616,-0.059555,-0.038635,0.997894,-0.039435,0.037004,-0.013769,91.816101,37.358551,-147.750732,,,
729716871.884823,-2.102954,3.889634,139.463971,-0.059555,-0.038635,0.997894,-0.039435,0.037004,-0.013769,91.816101,37.358551,-147.750732,,,
729716871.88801,-2.114639,3.897777,100.848359,-0.065323,-0.039429,0.996094,-0.041709,0.029963,-0.013357,91.816101,37.358551,-147.750732,,,
729716871.888982,-2.114638,3.897779,103.92521,-0.065323,-0.039429,0.996094,-0.041709,0.029963,-0.013357,91.816101,37.358551,-147.750732,,,
729716871.889122,-2.114637,3.897777,139.461565,-0.065323,-0.039429,0.996094,-0.041709,0.029963,-0.013357,91.816101,37.358551,-147.750732,,,
729716871.890448,-2.114639,3.897777,100.848359,-0.065323,-0.039429,0.996094,-0.041709,0.029963,-0.013357,91.816101,37.358551,-147.750732,,,
729716871.890837,-2.114638,3.897779,103.92521,-0.065323,-0.039429,0.996094,-0.041709,0.029963,-0.013357,91.816101,37.358551,-147.750732,,,
729716871.891477,-2.125928,3.904176,139.458956,-0.065323,-0.039429,0.996094,-0.041709,0.029963,-0.013357,91.816101,37.358551,-147.750732,,,
729716871.894306,-2.12593,3.904176,100.84575,-0.065323,-0.039429,0.996094,-0.041709,0.029963,-0.013357,91.816101,37.358551,-147.750732,,,
729716871.895117,-2.125929,3.904178,103.922601,-0.065323,-0.039429,0.996094,-0.041709,0.029963,-0.013357,91.816101,37.358551,-147.750732,,,
729716871.895335,-2.125928,3.904176,139.458956,-0.065323,-0.039429,0.996094,-0.041709,0.029963,-0.013357,91.816101,37.358551,-147.750732,,,
729716871.898566,-2.137798,3.90944,100.842903,-0.069473,-0.038971,0.995743,-0.04127,0.018643,-0.015133,91.816101,37.358551,-147.750732,,,
729716871.899902,-2.137797,3.909443,103.919753,-0.069473,-0.038971,0.995743,-0.04127,0.018643,-0.015133,91.816101,37.358551,-147.750732,,,
729716871.900096,-2.137796,3.90944,139.456109,-0.069473,-0.038971,0.995743,-0.04127,0.018643,-0.015133,91.816101,37.358551,-147.750732,,,
729716871.900365,-2.137798,3.90944,100.842903,-0.069473,-0.038971,0.995743,-0.04127,0.018643,-0.015133,91.816101,37.358551,-147.750732,,,
729716871.900862,-2.137797,3.909443,103.919753,-0.069473,-0.038971,0.995743,-0.04127,0.018643,-0.015133,91.816101,37.358551,-147.750732,,,
729716871.90148,-2.14903,3.911743,139.452217,-0.069473,-0.038971,0.995743,-0.04127,0.018643,-0.015133,91.816101,37.358551,-147.750732,,,
729716871.904182,-2.149032,3.911743,100.839013,-0.069473,-0.038971,0.995743,-0.04127,0.018643,-0.015133,91.816101,37.358551,-147.750732,,,
729716871.904624,-2.149031,3.911746,103.915863,-0.069473,-0.038971,0.995743,-0.04127,0.018643,-0.015133,91.816101,37.358551,-147.750732,,,
729716871.904793,-2.14903,3.911743,139.452217,-0.069473,-0.038971,0.995743,-0.04127,0.018643,-0.015133,91.816101,37.358551,-147.750732,,,
729716871.908253,-2.161343,3.913002,100.833554,-0.069351,-0.036499,0.996445,-0.040094,0.004527,-0.026231,91.816101,37.358551,-147.750732,,,
729716871.909491,-2.161342,3.913005,103.910405,-0.069351,-0.036499,0.996445,-0.040094,0.004527,-0.026231,91.816101,37.358551,-147.750732,,,
729716871.909692,-2.161341,3.913003,139.446759,-0.069351,-0.036499,0.996445,-0.040094,0.004527,-0.026231,91.816101,37.358551,-147.750732,,,
729716871.910421,-2.161343,3.913002,100.833554,-0.069351,-0.036499,0.996445,-0.040094,0.004527,-0.026231,91.816101,37.358551,-147.750732,,,
729716871.910898,-2.161342,3.913005,103.910405,-0.069351,-0.036499,0.996445,-0.040094,0.004527,-0.026231,91.816101,37.358551,-147.750732,,,
729716871.911508,-2.172512,3.911281,139.439926,-0.069351,-0.036499,0.996445,-0.040094,0.004527,-0.026231,91.816101,37.358551,-147.750732,,,
729716871.914317,-2.172513,3.91128,100.826721,-0.069351,-0.036499,0.996445,-0.040094,0.004527,-0.026231,91.816101,37.358551,-147.750732,,,
729716871.915129,-2.172512,3.911283,103.903571,-0.069351,-0.036499,0.996445,-0.040094,0.004527,-0.026231,91.816101,37.358551,-147.750732,,,
729716871.915346,-2.172512,3.911281,139.439926,-0.069351,-0.036499,0.996445,-0.040094,0.004527,-0.026231,91.816101,37.358551,-147.750732,,,
729716871.919645,-2.183918,3.909081,100.819125,-0.067108,-0.035889,1.000443,-0.036167,-0.007731,-0.031639,91.837448,37.679703,-147.350174,,,
729716871.921969,-2.183917,3.909083,103.895976,-0.067108,-0.035889,1.000443,-0.036167,-0.007731,-0.031639,91.837448,37.679703,-147.350174,,,
729716871.922195,-2.193168,3.904088,139.423641,-0.067108,-0.035889,1.000443,-0.036167,-0.007731,-0.031639,91.837448,37.679703,-147.350174,,,
729716871.923289,-2.193169,3.904087,100.810435,-0.067108,-0.035889,1.000443,-0.036167,-0.007731,-0.031639,91.837448,37.679703,-147.350174,,,
729716871.923737,-2.193169,3.904087,100.810435,-0.067108,-0.035889,1.000443,-0.036167,-0.007731,-0.031639,91.837448,37.679703,-147.350174,,,
729716871.925087,-2.193168,3.90409,103.887286,-0.067108,-0.035889,1.000443,-0.036167,-0.007731,-0.031639,91.837448,37.679703,-147.350174,,,
729716871.925317,-2.193168,3.904088,139.423641,-0.067108,-0.035889,1.000443,-0.036167,-0.007731,-0.031639,91.837448,37.679703,-147.350174,,,
729716871.928207,-2.201966,3.901143,100.801312,-0.070999,-0.037994,1.006226,-0.026362,-0.006607,-0.034471,91.837448,37.679703,-147.350174,,,
729716871.92944,-2.201966,3.901146,103.878163,-0.070999,-0.037994,1.006226,-0.026362,-0.006607,-0.034471,91.837448,37.679703,-147.350174,,,
729716871.92963,-2.201965,3.901143,139.414518,-0.070999,-0.037994,1.006226,-0.026362,-0.006607,-0.034471,91.837448,37.679703,-147.350174,,,
729716871.930437,-2.201966,3.901143,100.801312,-0.070999,-0.037994,1.006226,-0.026362,-0.006607,-0.034471,91.837448,37.679703,-147.350174,,,
729716871.930903,-2.201966,3.901146,103.878163,-0.070999,-0.037994,1.006226,-0.026362,-0.006607,-0.034471,91.837448,37.679703,-147.350174,,,
729716871.931509,-2.208784,3.895897,139.405986,-0.070999,-0.037994,1.006226,-0.026362,-0.006607,-0.034471,91.837448,37.679703,-147.350174,,,
729716871.934527,-2.208785,3.895897,100.792782,-0.070999,-0.037994,1.006226,-0.026362,-0.006607,-0.034471,91.837448,37.679703,-147.350174,,,
729716871.935338,-2.208784,3.8959,103.869633,-0.070999,-0.037994,1.006226,-0.026362,-0.006607,-0.034471,91.837448,37.679703,-147.350174,,,
729716871.935521,-2.208784,3.895897,139.405986,-0.070999,-0.037994,1.006226,-0.026362,-0.006607,-0.034471,91.837448,37.679703,-147.350174,,,
729716871.938242,-2.215818,3.893146,100.786183,-0.073761,-0.041672,1.010941,-0.022158,-0.005631,-0.02129,91.837448,37.679703,-147.350174,,,
729716871.939761,-2.215817,3.893149,103.863034,-0.073761,-0.041672,1.010941,-0.022158,-0.005631,-0.02129,91.837448,37.679703,-147.350174,,,
729716871.939952,-2.215816,3.893147,139.399387,-0.073761,-0.041672,1.010941,-0.022158,-0.005631,-0.02129,91.837448,37.679703,-147.350174,,,
729716871.940407,-2.215818,3.893146,100.786183,-0.073761,-0.041672,1.010941,-0.022158,-0.005631,-0.02129,91.837448,37.679703,-147.350174,,,
729716871.940903,-2.215817,3.893149,103.863034,-0.073761,-0.041672,1.010941,-0.022158,-0.005631,-0.02129,91.837448,37.679703,-147.350174,,,
729716871.941507,-2.215816,3.893147,139.399387,-0.073761,-0.041672,1.010941,-0.022158,-0.005631,-0.02129,91.837448,37.679703,-147.350174,,,
729716871.944195,-2.221202,3.887868,100.782,-0.073761,-0.041672,1.010941,-0.022158,-0.005631,-0.02129,91.837448,37.679703,-147.350174,,,
729716871.944474,-2.221201,3.887871,103.858851,-0.073761,-0.041672,1.010941,-0.022158,-0.005631,-0.02129,91.837448,37.679703,-147.350174,,,
729716871.94483,-2.2212,3.887869,139.395205,-0.073761,-0.041672,1.010941,-0.022158,-0.005631,-0.02129,91.837448,37.679703,-147.350174,,,
729716871.949614,-2.225693,3.883974,100.780993,-0.07869,-0.050278,1.013062,-0.012287,-0.013265,0.000874,91.837448,37.679703,-147.350174,,,
729716871.95217,-2.225692,3.883977,103.857844,-0.07869,-0.050278,1.013062,-0.012287,-0.013265,0.000874,91.837448,37.679703,-147.350174,,,
729716871.952396,-2.228208,3.876865,139.396774,-0.07869,-0.050278,1.013062,-0.012287,-0.013265,0.000874,91.837448,37.679703,-147.350174,,,
729716871.952874,-2.228209,3.876865,100.783569,-0.07869,-0.050278,1.013062,-0.012287,-0.013265,0.000874,91.837448,37.679703,-147.350174,,,
729716871.95378,-2.228209,3.876865,100.783569,-0.07869,-0.050278,1.013062,-0.012287,-0.013265,0.000874,91.837448,37.679703,-147.350174,,,
729716871.954235,-2.228208,3.876867,103.86042,-0.07869,-0.050278,1.013062,-0.012287,-0.013265,0.000874,91.837448,37.679703,-147.350174,,,
729716871.954842,-2.228208,3.876865,139.396774,-0.07869,-0.050278,1.013062,-0.012287,-0.013265,0.000874,91.837448,37.679703,-147.350174,,,
729716871.959303,-2.230013,3.870733,100.789342,-0.085327,-0.054901,1.016357,-0.007916,-0.018148,0.023041,91.811386,37.75209,-147.542175,,,
729716871.96097,-2.230012,3.870736,103.866193,-0.085327,-0.054901,1.016357,-0.007916,-0.018148,0.023041,91.811386,37.75209,-147.542175,,,
729716871.961136,-2.230011,3.870733,139.402546,-0.085327,-0.054901,1.016357,-0.007916,-0.018148,0.023041,91.811386,37.75209,-147.542175,,,
729716871.961336,-2.230013,3.870733,100.789342,-0.085327,-0.054901,1.016357,-0.007916,-0.018148,0.023041,91.811386,37.75209,-147.542175,,,
729716871.961468,-2.230011,3.870733,139.402546,-0.085327,-0.054901,1.016357,-0.007916,-0.018148,0.023041,91.811386,37.75209,-147.542175,,,
729716871.964117,-2.231953,3.865733,100.796216,-0.085327,-0.054901,1.016357,-0.007916,-0.018148,0.023041,91.811386,37.75209,-147.542175,,,
729716871.964324,-2.231952,3.865736,103.873067,-0.085327,-0.054901,1.016357,-0.007916,-0.018148,0.023041,91.811386,37.75209,-147.542175,,,
729716871.964796,-2.231952,3.865733,139.409418,-0.085327,-0.054901,1.016357,-0.007916,-0.018148,0.023041,91.811386,37.75209,-147.542175,,,
729716871.968499,-2.233685,3.864822,100.802185,-0.07547,-0.046539,1.018509,-0.006334,0.006139,0.016762,91.811386,37.75209,-147.542175,,,
729716871.970057,-2.233685,3.864825,103.879036,-0.07547,-0.046539,1.018509,-0.006334,0.006139,0.016762,91.811386,37.75209,-147.542175,,,
729716871.970222,-2.233684,3.864822,139.415391,-0.07547,-0.046539,1.018509,-0.006334,0.006139,0.016762,91.811386,37.75209,-147.542175,,,
729716871.970424,-2.233685,3.864822,100.802185,-0.07547,-0.046539,1.018509,-0.006334,0.006139,0.016762,91.811386,37.75209,-147.542175,,,
729716871.970849,-2.233685,3.864825,103.879036,-0.07547,-0.046539,1.018509,-0.006334,0.006139,0.016762,91.811386,37.75209,-147.542175,,,
729716871.971481,-2.233684,3.864822,139.415391,-0.07547,-0.046539,1.018509,-0.006334,0.006139,0.016762,91.811386,37.75209,-147.542175,,,
729716871.974345,-2.234999,3.866579,100.806439,-0.07547,-0.046539,1.018509,-0.006334,0.006139,0.016762,91.811386,37.75209,-147.542175,,,
729716871.974797,-2.234998,3.866581,103.88329,-0.07547,-0.046539,1.018509,-0.006334,0.006139,0.016762,91.811386,37.75209,-147.542175,,,
729716871.974949,-2.234997,3.866579,139.419642,-0.07547,-0.046539,1.018509,-0.006334,0.006139,0.016762,91.811386,37.75209,-147.542175,,,
729716871.978078,-2.235347,3.86904,100.808923,-0.064545,-0.0392,1.021439,-0.000585,0.012085,0.004878,91.811386,37.75209,-147.542175,,,
729716871.979269,-2.235346,3.869043,103.885773,-0.064545,-0.0392,1.021439,-0.000585,0.012085,0.004878,91.811386,37.75209,-147.542175,,,
729716871.979417,-2.235346,3.86904,139.422124,-0.064545,-0.0392,1.021439,-0.000585,0.012085,0.004878,91.811386,37.75209,-147.542175,,,
729716871.980423,-2.235347,3.86904,100.808923,-0.064545,-0.0392,1.021439,-0.000585,0.012085,0.004878,91.811386,37.75209,-147.542175,,,
729716871.980846,-2.235346,3.869043,103.885773,-0.064545,-0.0392,1.021439,-0.000585,0.012085,0.004878,91.811386,37.75209,-147.542175,,,
729716871.981478,-2.235346,3.86904,139.422124,-0.064545,-0.0392,1.021439,-0.000585,0.012085,0.004878,91.811386,37.75209,-147.542175,,,
729716871.983952,-2.235726,3.871547,100.811064,-0.064545,-0.0392,1.021439,-0.000585,0.012085,0.004878,91.811386,37.75209,-147.542175,,,
729716871.98417,-2.235725,3.871549,103.887915,-0.064545,-0.0392,1.021439,-0.000585,0.012085,0.004878,91.811386,37.75209,-147.542175,,,
729716871.984814,-2.235724,3.871547,139.424271,-0.064545,-0.0392,1.021439,-0.000585,0.012085,0.004878,91.811386,37.75209,-147.542175,,,
729716871.987745,-2.236339,3.872679,100.81366,-0.069199,-0.036118,1.014267,-0.000832,0.005618,0.008048,91.811386,37.75209,-147.542175,,,
729716871.988439,-2.236338,3.872682,103.890511,-0.069199,-0.036118,1.014267,-0.000832,0.005618,0.008048,91.811386,37.75209,-147.542175,,,
729716871.988593,-2.236338,3.872679,139.426867,-0.069199,-0.036118,1.014267,-0.000832,0.005618,0.008048,91.811386,37.75209,-147.542175,,,
729716871.990535,-2.236339,3.872679,100.81366,-0.069199,-0.036118,1.014267,-0.000832,0.005618,0.008048,91.811386,37.75209,-147.542175,,,
729716871.990827,-2.236338,3.872682,103.890511,-0.069199,-0.036118,1.014267,-0.000832,0.005618,0.008048,91.811386,37.75209,-147.542175,,,
729716871.991515,-2.236338,3.872679,139.426867,-0.069199,-0.036118,1.014267,-0.000832,0.005618,0.008048,91.811386,37.75209,-147.542175,,,
729716871.99431,-2.236351,3.872651,100.81631,-0.069199,-0.036118,1.014267,-0.000832,0.005618,0.008048,91.811386,37.75209,-147.542175,,,
729716871.994631,-2.23635,3.872654,103.893161,-0.069199,-0.036118,1.014267,-0.000832,0.005618,0.008048,91.811386,37.75209,-147.542175,,,
729716871.994852,-2.236349,3.872651,139.429513,-0.069199,-0.036118,1.014267,-0.000832,0.005618,0.008048,91.811386,37.75209,-147.542175,,,
729716871.999272,-2.236911,3.870754,100.818964,-0.071899,-0.038879,1.011475,-0.001017,-0.007303,0.008181,91.625244,37.786102,-147.487427,,,
729716872.001575,-2.23691,3.870757,103.895815,-0.071899,-0.038879,1.011475,-0.001017,-0.007303,0.008181,91.625244,37.786102,-147.487427,,,
729716872.00181,-2.235896,3.867077,139.435603,-0.071899,-0.038879,1.011475,-0.001017,-0.007303,0.008181,91.625244,37.786102,-147.487427,,,
729716872.002184,-2.235897,3.867077,100.822401,-0.071899,-0.038879,1.011475,-0.001017,-0.007303,0.008181,91.625244,37.786102,-147.487427,,,
729716872.003813,-2.235897,3.867077,100.822401,-0.071899,-0.038879,1.011475,-0.001017,-0.007303,0.008181,91.625244,37.786102,-147.487427,,,
729716872.004173,-2.235896,3.867079,103.899252,-0.071899,-0.038879,1.011475,-0.001017,-0.007303,0.008181,91.625244,37.786102,-147.487427,,,
729716872.004812,-2.235896,3.867077,139.435603,-0.071899,-0.038879,1.011475,-0.001017,-0.007303,0.008181,91.625244,37.786102,-147.487427,,,
729716872.009071,-2.232925,3.861921,100.826689,-0.067505,-0.042938,1.008865,0.014487,-0.015972,0.015338,91.625244,37.786102,-147.487427,,,
729716872.011,-2.232924,3.861924,103.90354,-0.067505,-0.042938,1.008865,0.014487,-0.015972,0.015338,91.625244,37.786102,-147.487427,,,
729716872.01117,-2.232923,3.861921,139.439895,-0.067505,-0.042938,1.008865,0.014487,-0.015972,0.015338,91.625244,37.786102,-147.487427,,,
729716872.011381,-2.232925,3.861921,100.826689,-0.067505,-0.042938,1.008865,0.014487,-0.015972,0.015338,91.625244,37.786102,-147.487427,,,
729716872.011538,-2.232923,3.861921,139.439895,-0.067505,-0.042938,1.008865,0.014487,-0.015972,0.015338,91.625244,37.786102,-147.487427,,,
729716872.013926,-2.228325,3.856937,100.831148,-0.067505,-0.042938,1.008865,0.014487,-0.015972,0.015338,91.625244,37.786102,-147.487427,,,
729716872.014337,-2.228324,3.85694,103.907999,-0.067505,-0.042938,1.008865,0.014487,-0.015972,0.015338,91.625244,37.786102,-147.487427,,,
729716872.01482,-2.228323,3.856937,139.444355,-0.067505,-0.042938,1.008865,0.014487,-0.015972,0.015338,91.625244,37.786102,-147.487427,,,
729716872.018354,-2.222146,3.849821,100.835242,-0.064438,-0.042206,1.009018,0.024225,-0.024671,0.013618,91.625244,37.786102,-147.487427,,,
729716872.019485,-2.222145,3.849823,103.912092,-0.064438,-0.042206,1.009018,0.024225,-0.024671,0.013618,91.625244,37.786102,-147.487427,,,
729716872.019644,-2.222145,3.849821,139.448447,-0.064438,-0.042206,1.009018,0.024225,-0.024671,0.013618,91.625244,37.786102,-147.487427,,,
729716872.020373,-2.222146,3.849821,100.835242,-0.064438,-0.042206,1.009018,0.024225,-0.024671,0.013618,91.625244,37.786102,-147.487427,,,
729716872.02085,-2.222145,3.849823,103.912092,-0.064438,-0.042206,1.009018,0.024225,-0.024671,0.013618,91.625244,37.786102,-147.487427,,,
729716872.021475,-2.222145,3.849821,139.448447,-0.064438,-0.042206,1.009018,0.024225,-0.024671,0.013618,91.625244,37.786102,-147.487427,,,
729716872.024175,-2.216278,3.843112,100.83874,-0.064438,-0.042206,1.009018,0.024225,-0.024671,0.013618,91.625244,37.786102,-147.487427,,,
729716872.024781,-2.216277,3.843115,103.915591,-0.064438,-0.042206,1.009018,0.024225,-0.024671,0.013618,91.625244,37.786102,-147.487427,,,
729716872.024934,-2.216276,3.843112,139.451946,-0.064438,-0.042206,1.009018,0.024225,-0.024671,0.013618,91.625244,37.786102,-147.487427,,,
729716872.028139,-2.209218,3.834531,100.840879,-0.060501,-0.036072,1.00502,0.02515,-0.028322,0.004513,91.625244,37.786102,-147.487427,,,
729716872.029256,-2.209217,3.834534,103.91773,-0.060501,-0.036072,1.00502,0.02515,-0.028322,0.004513,91.625244,37.786102,-147.487427,,,
729716872.029399,-2.209216,3.834532,139.454084,-0.060501,-0.036072,1.00502,0.02515,-0.028322,0.004513,91.625244,37.786102,-147.487427,,,
729716872.030417,-2.209218,3.834531,100.840879,-0.060501,-0.036072,1.00502,0.02515,-0.028322,0.004513,91.625244,37.786102,-147.487427,,,
729716872.030842,-2.209217,3.834534,103.91773,-0.060501,-0.036072,1.00502,0.02515,-0.028322,0.004513,91.625244,37.786102,-147.487427,,,
729716872.031477,-2.209216,3.834532,139.454084,-0.060501,-0.036072,1.00502,0.02515,-0.028322,0.004513,91.625244,37.786102,-147.487427,,,
729716872.03418,-2.204399,3.828231,100.841563,-0.060501,-0.036072,1.00502,0.02515,-0.028322,0.004513,91.625244,37.786102,-147.487427,,,
729716872.034647,-2.204398,3.828234,103.918414,-0.060501,-0.036072,1.00502,0.02515,-0.028322,0.004513,91.625244,37.786102,-147.487427,,,
729716872.034814,-2.204397,3.828232,139.454768,-0.060501,-0.036072,1.00502,0.02515,-0.028322,0.004513,91.625244,37.786102,-147.487427,,,
729716872.038592,-2.197517,3.819465,100.840715,-0.055618,-0.033356,1.000137,0.025114,-0.028598,-0.005537,91.625244,37.786102,-147.487427,,,
729716872.040654,-2.197516,3.819468,103.917566,-0.055618,-0.033356,1.000137,0.025114,-0.028598,-0.005537,91.882248,37.649216,-147.474411,,,
729716872.040825,-2.197515,3.819466,139.45392,-0.055618,-0.033356,1.000137,0.025114,-0.028598,-0.005537,91.882248,37.649216,-147.474411,,,
729716872.041489,-2.197517,3.819465,100.840715,-0.055618,-0.033356,1.000137,0.025114,-0.028598,-0.005537,91.882248,37.649216,-147.474411,,,
729716872.04165,-2.197515,3.819466,139.45392,-0.055618,-0.033356,1.000137,0.025114,-0.028598,-0.005537,91.882248,37.649216,-147.474411,,,
729716872.044377,-2.191952,3.811662,100.838603,-0.055618,-0.033356,1.000137,0.025114,-0.028598,-0.005537,91.882248,37.649216,-147.474411,,,
729716872.045038,-2.191951,3.811665,103.915453,-0.055618,-0.033356,1.000137,0.025114,-0.028598,-0.005537,91.882248,37.649216,-147.474411,,,
729716872.045194,-2.191951,3.811663,139.451807,-0.055618,-0.033356,1.000137,0.025114,-0.028598,-0.005537,91.882248,37.649216,-147.474411,,,
729716872.047813,-2.184643,3.801711,100.835876,-0.058746,-0.037033,0.99707,0.027819,-0.033202,-0.009268,91.882248,37.649216,-147.474411,,,
729716872.048776,-2.184643,3.801714,103.912727,-0.058746,-0.037033,0.99707,0.027819,-0.033202,-0.009268,91.882248,37.649216,-147.474411,,,
729716872.048947,-2.184642,3.801711,139.44908,-0.058746,-0.037033,0.99707,0.027819,-0.033202,-0.009268,91.882248,37.649216,-147.474411,,,
729716872.050491,-2.184643,3.801711,100.835876,-0.058746,-0.037033,0.99707,0.027819,-0.033202,-0.009268,91.882248,37.649216,-147.474411,,,
729716872.050834,-2.184643,3.801714,103.912727,-0.058746,-0.037033,0.99707,0.027819,-0.033202,-0.009268,91.882248,37.649216,-147.474411,,,
729716872.051477,-2.184642,3.801711,139.44908,-0.058746,-0.037033,0.99707,0.027819,-0.033202,-0.009268,91.882248,37.649216,-147.474411,,,
729716872.054335,-2.177011,3.791049,100.83326,-0.058746,-0.037033,0.99707,0.027819,-0.033202,-0.009268,91.882248,37.649216,-147.474411,,,
729716872.05479,-2.17701,3.791052,103.910111,-0.058746,-0.037033,0.99707,0.027819,-0.033202,-0.009268,91.882248,37.649216,-147.474411,,,
729716872.054942,-2.177009,3.79105,139.446463,-0.058746,-0.037033,0.99707,0.027819,-0.033202,-0.009268,91.882248,37.649216,-147.474411,,,
729716872.057988,-2.169737,3.780489,100.830199,-0.058334,-0.036331,0.991211,0.024004,-0.034427,-0.012706,91.882248,37.649216,-147.474411,,,
729716872.05896,-2.169736,3.780492,103.90705,-0.058334,-0.036331,0.991211,0.024004,-0.034427,-0.012706,91.882248,37.649216,-147.474411,,,
729716872.059101,-2.169735,3.780489,139.443401,-0.058334,-0.036331,0.991211,0.024004,-0.034427,-0.012706,91.882248,37.649216,-147.474411,,,
729716872.060437,-2.169737,3.780489,100.830199,-0.058334,-0.036331,0.991211,0.024004,-0.034427,-0.012706,91.882248,37.649216,-147.474411,,,
729716872.060839,-2.169736,3.780492,103.90705,-0.058334,-0.036331,0.991211,0.024004,-0.034427,-0.012706,91.882248,37.649216,-147.474411,,,
729716872.061476,-2.169735,3.780489,139.443401,-0.058334,-0.036331,0.991211,0.024004,-0.034427,-0.012706,91.882248,37.649216,-147.474411,,,
729716872.064372,-2.163658,3.76967,100.826541,-0.058334,-0.036331,0.991211,0.024004,-0.034427,-0.012706,91.882248,37.649216,-147.474411,,,
729716872.065185,-2.163657,3.769673,103.903392,-0.058334,-0.036331,0.991211,0.024004,-0.034427,-0.012706,91.882248,37.649216,-147.474411,,,
729716872.065339,-2.163657,3.76967,139.439744,-0.058334,-0.036331,0.991211,0.024004,-0.034427,-0.012706,91.882248,37.649216,-147.474411,,,
729716872.067926,-2.159296,3.759502,100.82278,-0.058762,-0.036118,0.985947,0.01423,-0.030121,-0.014077,91.882248,37.649216,-147.474411,,,
729716872.06861,-2.159295,3.759505,103.899631,-0.058762,-0.036118,0.985947,0.01423,-0.030121,-0.014077,91.882248,37.649216,-147.474411,,,
729716872.068752,-2.159294,3.759503,139.435984,-0.058762,-0.036118,0.985947,0.01423,-0.030121,-0.014077,91.882248,37.649216,-147.474411,,,
729716872.070493,-2.159296,3.759502,100.82278,-0.058762,-0.036118,0.985947,0.01423,-0.030121,-0.014077,91.882248,37.649216,-147.474411,,,
729716872.070837,-2.159295,3.759505,103.899631,-0.058762,-0.036118,0.985947,0.01423,-0.030121,-0.014077,91.882248,37.649216,-147.474411,,,
729716872.071477,-2.159294,3.759503,139.435984,-0.058762,-0.036118,0.985947,0.01423,-0.030121,-0.014077,91.882248,37.649216,-147.474411,,,
729716872.074184,-2.155963,3.751708,100.819065,-0.058762,-0.036118,0.985947,0.01423,-0.030121,-0.014077,91.882248,37.649216,-147.474411,,,
729716872.074633,-2.155962,3.751711,103.895916,-0.058762,-0.036118,0.985947,0.01423,-0.030121,-0.014077,91.882248,37.649216,-147.474411,,,
729716872.074804,-2.155962,3.751709,139.43227,-0.058762,-0.036118,0.985947,0.01423,-0.030121,-0.014077,91.882248,37.649216,-147.474411,,,
729716872.078167,-2.153955,3.744667,100.815711,-0.062012,-0.036972,0.985748,0.005592,-0.017877,-0.011874,91.882248,37.649216,-147.474411,,,
729716872.079502,-2.153955,3.744669,103.892562,-0.062012,-0.036972,0.985748,0.005592,-0.017877,-0.011874,91.882248,37.649216,-147.474411,,,
729716872.079707,-2.153954,3.744667,139.428916,-0.062012,-0.036972,0.985748,0.005592,-0.017877,-0.011874,91.882248,37.649216,-147.474411,,,
729716872.081219,-2.153955,3.744667,100.815711,-0.062012,-0.036972,0.985748,0.005592,-0.017877,-0.011874,91.520477,37.812683,-147.536209,,,
729716872.082189,-2.153955,3.744669,103.892562,-0.062012,-0.036972,0.985748,0.005592,-0.017877,-0.011874,91.520477,37.812683,-147.536209,,,
729716872.082391,-2.153529,3.73974,139.426154,-0.062012,-0.036972,0.985748,0.005592,-0.017877,-0.011874,91.520477,37.812683,-147.536209,,,
729716872.084161,-2.153531,3.73974,100.812949,-0.062012,-0.036972,0.985748,0.005592,-0.017877,-0.011874,91.520477,37.812683,-147.536209,,,
729716872.084444,-2.15353,3.739742,103.8898,-0.062012,-0.036972,0.985748,0.005592,-0.017877,-0.011874,91.520477,37.812683,-147.536209,,,
729716872.084821,-2.153529,3.73974,139.426154,-0.062012,-0.036972,0.985748,0.005592,-0.017877,-0.011874,91.520477,37.812683,-147.536209,,,
729716872.087976,-2.152832,3.735823,100.810812,-0.065231,-0.03894,0.985443,0.002679,-0.008717,-0.00765,91.520477,37.812683,-147.536209,,,
729716872.088913,-2.152831,3.735826,103.887663,-0.065231,-0.03894,0.985443,0.002679,-0.008717,-0.00765,91.520477,37.812683,-147.536209,,,
729716872.089102,-2.152831,3.735823,139.424016,-0.065231,-0.03894,0.985443,0.002679,-0.008717,-0.00765,91.520477,37.812683,-147.536209,,,
729716872.090523,-2.152832,3.735823,100.810812,-0.065231,-0.03894,0.985443,0.002679,-0.008717,-0.00765,91.520477,37.812683,-147.536209,,,
729716872.090879,-2.152831,3.735826,103.887663,-0.065231,-0.03894,0.985443,0.002679,-0.008717,-0.00765,91.520477,37.812683,-147.536209,,,
729716872.091517,-2.152831,3.735823,139.424016,-0.065231,-0.03894,0.985443,0.002679,-0.008717,-0.00765,91.520477,37.812683,-147.536209,,,
729716872.094316,-2.152983,3.732798,100.808816,-0.065231,-0.03894,0.985443,0.002679,-0.008717,-0.00765,91.520477,37.812683,-147.536209,,,
729716872.094936,-2.152982,3.732801,103.885667,-0.065231,-0.03894,0.985443,0.002679,-0.008717,-0.00765,91.520477,37.812683,-147.536209,,,
729716872.095147,-2.152982,3.732798,139.42202,-0.065231,-0.03894,0.985443,0.002679,-0.008717,-0.00765,91.520477,37.812683,-147.536209,,,
729716872.097938,-2.151554,3.730434,100.807524,-0.066833,-0.039078,0.986359,0.007153,-0.004415,-0.002449,91.520477,37.812683,-147.536209,,,
729716872.099072,-2.151553,3.730437,103.884375,-0.066833,-0.039078,0.986359,0.007153,-0.004415,-0.002449,91.520477,37.812683,-147.536209,,,
729716872.099276,-2.151553,3.730434,139.420728,-0.066833,-0.039078,0.986359,0.007153,-0.004415,-0.002449,91.520477,37.812683,-147.536209,,,
729716872.100472,-2.151554,3.730434,100.807524,-0.066833,-0.039078,0.986359,0.007153,-0.004415,-0.002449,91.520477,37.812683,-147.536209,,,
729716872.100933,-2.151553,3.730437,103.884375,-0.066833,-0.039078,0.986359,0.007153,-0.004415,-0.002449,91.520477,37.812683,-147.536209,,,
729716872.101548,-2.151553,3.730434,139.420728,-0.066833,-0.039078,0.986359,0.007153,-0.004415,-0.002449,91.520477,37.812683,-147.536209,,,
729716872.104031,-2.150086,3.728485,100.807413,-0.066833,-0.039078,0.986359,0.007153,-0.004415,-0.002449,91.520477,37.812683,-147.536209,,,
729716872.104335,-2.150085,3.728488,103.884263,-0.066833,-0.039078,0.986359,0.007153,-0.004415,-0.002449,91.520477,37.812683,-147.536209,,,
729716872.104837,-2.150085,3.728485,139.420616,-0.066833,-0.039078,0.986359,0.007153,-0.004415,-0.002449,91.520477,37.812683,-147.536209,,,
729716872.109623,-2.14886,3.727765,100.807976,-0.071442,-0.03743,0.985611,0.005167,1.5e-05,0.001966,91.520477,37.812683,-147.536209,,,
729716872.111975,-2.148859,3.727768,103.884826,-0.071442,-0.03743,0.985611,0.005167,1.5e-05,0.001966,91.520477,37.812683,-147.536209,,,
729716872.112195,-2.146865,3.725397,139.422693,-0.071442,-0.03743,0.985611,0.005167,1.5e-05,0.001966,91.520477,37.812683,-147.536209,,,
729716872.112481,-2.146867,3.725397,100.809491,-0.071442,-0.03743,0.985611,0.005167,1.5e-05,0.001966,91.520477,37.812683,-147.536209,,,
729716872.113831,-2.146867,3.725397,100.809491,-0.071442,-0.03743,0.985611,0.005167,1.5e-05,0.001966,91.520477,37.812683,-147.536209,,,
729716872.114497,-2.146866,3.7254,103.886342,-0.071442,-0.03743,0.985611,0.005167,1.5e-05,0.001966,91.520477,37.812683,-147.536209,,,
729716872.114883,-2.146865,3.725397,139.422693,-0.071442,-0.03743,0.985611,0.005167,1.5e-05,0.001966,91.520477,37.812683,-147.536209,,,
729716872.119174,-2.145792,3.723375,100.811824,-0.073288,-0.041534,0.985138,0.003279,-0.00723,0.007217,91.520477,37.812683,-147.536209,,,
729716872.121929,-2.145792,3.723377,103.888675,-0.073288,-0.041534,0.985138,0.003279,-0.00723,0.007217,91.498489,37.746506,-147.434235,,,
729716872.122175,-2.144664,3.718888,139.427504,-0.073288,-0.041534,0.985138,0.003279,-0.00723,0.007217,91.498489,37.746506,-147.434235,,,
729716872.123094,-2.144666,3.718888,100.814302,-0.073288,-0.041534,0.985138,0.003279,-0.00723,0.007217,91.498489,37.746506,-147.434235,,,
729716872.123699,-2.144666,3.718888,100.814302,-0.073288,-0.041534,0.985138,0.003279,-0.00723,0.007217,91.498489,37.746506,-147.434235,,,
729716872.124443,-2.144665,3.71889,103.891153,-0.073288,-0.041534,0.985138,0.003279,-0.00723,0.007217,91.498489,37.746506,-147.434235,,,
729716872.124814,-2.144664,3.718888,139.427504,-0.073288,-0.041534,0.985138,0.003279,-0.00723,0.007217,91.498489,37.746506,-147.434235,,,
729716872.128604,-2.144547,3.714876,100.816712,-0.070892,-0.040436,0.979446,-0.001843,-0.01144,0.006173,91.498489,37.746506,-147.434235,,,
729716872.129996,-2.144546,3.714878,103.893562,-0.070892,-0.040436,0.979446,-0.001843,-0.01144,0.006173,91.498489,37.746506,-147.434235,,,
729716872.13015,-2.144546,3.714876,139.429914,-0.070892,-0.040436,0.979446,-0.001843,-0.01144,0.006173,91.498489,37.746506,-147.434235,,,
729716872.130357,-2.144547,3.714876,100.816712,-0.070892,-0.040436,0.979446,-0.001843,-0.01144,0.006173,91.498489,37.746506,-147.434235,,,
729716872.130857,-2.144546,3.714878,103.893562,-0.070892,-0.040436,0.979446,-0.001843,-0.01144,0.006173,91.498489,37.746506,-147.434235,,,
729716872.131479,-2.144546,3.714876,139.429914,-0.070892,-0.040436,0.979446,-0.001843,-0.01144,0.006173,91.498489,37.746506,-147.434235,,,
729716872.134203,-2.145722,3.710386,100.81819,-0.070892,-0.040436,0.979446,-0.001843,-0.01144,0.006173,91.498489,37.746506,-147.434235,,,
729716872.134815,-2.145721,3.710389,103.89504,-0.070892,-0.040436,0.979446,-0.001843,-0.01144,0.006173,91.498489,37.746506,-147.434235,,,
729716872.134976,-2.145721,3.710386,139.431392,-0.070892,-0.040436,0.979446,-0.001843,-0.01144,0.006173,91.498489,37.746506,-147.434235,,,
729716872.138327,-2.148179,3.707395,100.818447,-0.066315,-0.034286,0.980927,-0.009633,-0.006543,-0.003023,91.498489,37.746506,-147.434235,,,
729716872.139644,-2.148179,3.707398,103.895298,-0.066315,-0.034286,0.980927,-0.009633,-0.006543,-0.003023,91.498489,37.746506,-147.434235,,,
729716872.139796,-2.148178,3.707395,139.43165,-0.066315,-0.034286,0.980927,-0.009633,-0.006543,-0.003023,91.498489,37.746506,-147.434235,,,
729716872.14036,-2.148179,3.707395,100.818447,-0.066315,-0.034286,0.980927,-0.009633,-0.006543,-0.003023,91.498489,37.746506,-147.434235,,,
729716872.140851,-2.148179,3.707398,103.895298,-0.066315,-0.034286,0.980927,-0.009633,-0.006543,-0.003023,91.498489,37.746506,-147.434235,,,
729716872.141477,-2.148178,3.707395,139.43165,-0.066315,-0.034286,0.980927,-0.009633,-0.006543,-0.003023,91.498489,37.746506,-147.434235,,,
729716872.144193,-2.152089,3.703089,100.817762,-0.066315,-0.034286,0.980927,-0.009633,-0.006543,-0.003023,91.498489,37.746506,-147.434235,,,
729716872.144805,-2.152088,3.703092,103.894612,-0.066315,-0.034286,0.980927,-0.009633,-0.006543,-0.003023,91.498489,37.746506,-147.434235,,,
729716872.144961,-2.152087,3.703089,139.430965,-0.066315,-0.034286,0.980927,-0.009633,-0.006543,-0.003023,91.498489,37.746506,-147.434235,,,
729716872.148027,-2.157064,3.698486,100.817113,-0.064651,-0.033157,0.980011,-0.016647,-0.01565,-0.003485,91.498489,37.746506,-147.434235,,,
729716872.148929,-2.157063,3.698489,103.893964,-0.064651,-0.033157,0.980011,-0.016647,-0.01565,-0.003485,91.498489,37.746506,-147.434235,,,
729716872.149072,-2.157062,3.698486,139.430316,-0.064651,-0.033157,0.980011,-0.016647,-0.01565,-0.003485,91.498489,37.746506,-147.434235,,,
729716872.150465,-2.157064,3.698486,100.817113,-0.064651,-0.033157,0.980011,-0.016647,-0.01565,-0.003485,91.498489,37.746506,-147.434235,,,
729716872.150837,-2.157063,3.698489,103.893964,-0.064651,-0.033157,0.980011,-0.016647,-0.01565,-0.003485,91.498489,37.746506,-147.434235,,,
729716872.151477,-2.157062,3.698486,139.430316,-0.064651,-0.033157,0.980011,-0.016647,-0.01565,-0.003485,91.498489,37.746506,-147.434235,,,
729716872.154449,-2.161633,3.691943,100.817217,-0.064651,-0.033157,0.980011,-0.016647,-0.01565,-0.003485,91.498489,37.746506,-147.434235,,,
729716872.155169,-2.161633,3.691946,103.894067,-0.064651,-0.033157,0.980011,-0.016647,-0.01565,-0.003485,91.498489,37.746506,-147.434235,,,
729716872.155383,-2.161632,3.691944,139.43042,-0.064651,-0.033157,0.980011,-0.016647,-0.01565,-0.003485,91.498489,37.746506,-147.434235,,,
729716872.158298,-2.165964,3.685151,100.817686,-0.067398,-0.03862,0.98024,-0.013635,-0.020856,-0.000863,91.498489,37.746506,-147.434235,,,
729716872.159518,-2.165963,3.685154,103.894537,-0.067398,-0.03862,0.98024,-0.013635,-0.020856,-0.000863,91.498489,37.746506,-147.434235,,,
729716872.159711,-2.165962,3.685152,139.430889,-0.067398,-0.03862,0.98024,-0.013635,-0.020856,-0.000863,91.498489,37.746506,-147.434235,,,
729716872.160419,-2.165964,3.685151,100.817686,-0.067398,-0.03862,0.98024,-0.013635,-0.020856,-0.000863,91.498489,37.746506,-147.434235,,,
729716872.160923,-2.165963,3.685154,103.894537,-0.067398,-0.03862,0.98024,-0.013635,-0.020856,-0.000863,91.498489,37.746506,-147.434235,,,
729716872.161507,-2.165962,3.685152,139.430889,-0.067398,-0.03862,0.98024,-0.013635,-0.020856,-0.000863,91.498489,37.746506,-147.434235,,,
729716872.164935,-2.169903,3.678207,100.818532,-0.067398,-0.03862,0.98024,-0.013635,-0.020856,-0.000863,91.545242,37.801315,-147.589081,,,
729716872.166395,-2.169902,3.67821,103.895383,-0.067398,-0.03862,0.98024,-0.013635,-0.020856,-0.000863,91.545242,37.801315,-147.589081,,,
729716872.166595,-2.169901,3.678208,139.431735,-0.067398,-0.03862,0.98024,-0.013635,-0.020856,-0.000863,91.545242,37.801315,-147.589081,,,
729716872.16913,-2.169903,3.670168,100.820009,-0.065842,-0.040054,0.986511,-0.009083,-0.026429,0.003898,91.545242,37.801315,-147.589081,,,
729716872.17083,-2.172838,3.670171,103.896859,-0.065842,-0.040054,0.986511,-0.009083,-0.026429,0.003898,91.545242,37.801315,-147.589081,,,
729716872.170998,-2.172837,3.670168,139.433212,-0.065842,-0.040054,0.986511,-0.009083,-0.026429,0.003898,91.545242,37.801315,-147.589081,,,
729716872.171203,-2.172839,3.670168,100.820009,-0.065842,-0.040054,0.986511,-0.009083,-0.026429,0.003898,91.545242,37.801315,-147.589081,,,
729716872.171426,-2.172837,3.670168,139.433212,-0.065842,-0.040054,0.986511,-0.009083,-0.026429,0.003898,91.545242,37.801315,-147.589081,,,
729716872.174444,-2.175221,3.662329,100.821208,-0.065842,-0.040054,0.986511,-0.009083,-0.026429,0.003898,91.545242,37.801315,-147.589081,,,
729716872.175117,-2.17522,3.662332,103.898058,-0.065842,-0.040054,0.986511,-0.009083,-0.026429,0.003898,91.545242,37.801315,-147.589081,,,
729716872.175266,-2.175219,3.662329,139.434411,-0.065842,-0.040054,0.986511,-0.009083,-0.026429,0.003898,91.545242,37.801315,-147.589081,,,
729716872.178302,-2.177389,3.656173,100.821483,-0.059601,-0.037735,0.989761,-0.008877,-0.011002,-0.00238,91.545242,37.801315,-147.589081,,,
729716872.179592,-2.177388,3.656176,103.898333,-0.059601,-0.037735,0.989761,-0.008877,-0.011002,-0.00238,91.545242,37.801315,-147.589081,,,
729716872.179745,-2.177387,3.656173,139.434687,-0.059601,-0.037735,0.989761,-0.008877,-0.011002,-0.00238,91.545242,37.801315,-147.589081,,,
729716872.180361,-2.177389,3.656173,100.821483,-0.059601,-0.037735,0.989761,-0.008877,-0.011002,-0.00238,91.545242,37.801315,-147.589081,,,
729716872.180849,-2.177388,3.656176,103.898333,-0.059601,-0.037735,0.989761,-0.008877,-0.011002,-0.00238,91.545242,37.801315,-147.589081,,,
729716872.181474,-2.177387,3.656173,139.434687,-0.059601,-0.037735,0.989761,-0.008877,-0.011002,-0.00238,91.545242,37.801315,-147.589081,,,
729716872.184206,-2.179755,3.654546,100.821387,-0.059601,-0.037735,0.989761,-0.008877,-0.011002,-0.00238,91.545242,37.801315,-147.589081,,,
729716872.184655,-2.179754,3.654548,103.898237,-0.059601,-0.037735,0.989761,-0.008877,-0.011002,-0.00238,91.545242,37.801315,-147.589081,,,
729716872.184828,-2.179754,3.654546,139.434591,-0.059601,-0.037735,0.989761,-0.008877,-0.011002,-0.00238,91.545242,37.801315,-147.589081,,,
729716872.188457,-2.182397,3.655033,100.82144,-0.055984,-0.037323,0.99292,-0.010558,0.011812,-0.001128,91.545242,37.801315,-147.589081,,,
729716872.189746,-2.182396,3.655036,103.898291,-0.055984,-0.037323,0.99292,-0.010558,0.011812,-0.001128,91.545242,37.801315,-147.589081,,,
729716872.189908,-2.182396,3.655033,139.434645,-0.055984,-0.037323,0.99292,-0.010558,0.011812,-0.001128,91.545242,37.801315,-147.589081,,,
729716872.190349,-2.182397,3.655033,100.82144,-0.055984,-0.037323,0.99292,-0.010558,0.011812,-0.001128,91.545242,37.801315,-147.589081,,,
729716872.190854,-2.182396,3.655036,103.898291,-0.055984,-0.037323,0.99292,-0.010558,0.011812,-0.001128,91.545242,37.801315,-147.589081,,,
729716872.191473,-2.182396,3.655033,139.434645,-0.055984,-0.037323,0.99292,-0.010558,0.011812,-0.001128,91.545242,37.801315,-147.589081,,,
729716872.1942,-2.186401,3.660597,100.82186,-0.055984,-0.037323,0.99292,-0.010558,0.011812,-0.001128,91.545242,37.801315,-147.589081,,,
729716872.194667,-2.1864,3.660599,103.89871,-0.055984,-0.037323,0.99292,-0.010558,0.011812,-0.001128,91.545242,37.801315,-147.589081,,,
729716872.194839,-2.186399,3.660597,139.435063,-0.055984,-0.037323,0.99292,-0.010558,0.011812,-0.001128,91.545242,37.801315,-147.589081,,,
729716872.198445,-2.190031,3.667793,100.822959,-0.060852,-0.040268,0.994247,-0.011945,0.033072,0.003928,91.545242,37.801315,-147.589081,,,
729716872.199836,-2.19003,3.667796,103.89981,-0.060852,-0.040268,0.994247,-0.011945,0.033072,0.003928,91.545242,37.801315,-147.589081,,,
729716872.199992,-2.190029,3.667793,139.436163,-0.060852,-0.040268,0.994247,-0.011945,0.033072,0.003928,91.545242,37.801315,-147.589081,,,
729716872.200416,-2.190031,3.667793,100.822959,-0.060852,-0.040268,0.994247,-0.011945,0.033072,0.003928,91.545242,37.801315,-147.589081,,,
729716872.200856,-2.19003,3.667796,103.89981,-0.060852,-0.040268,0.994247,-0.011945,0.033072,0.003928,91.545242,37.801315,-147.589081,,,
729716872.201476,-2.190029,3.667793,139.436163,-0.060852,-0.040268,0.994247,-0.011945,0.033072,0.003928,91.545242,37.801315,-147.589081,,,
729716872.204813,-2.193943,3.679159,100.825179,-0.060852,-0.040268,0.994247,-0.011945,0.033072,0.003928,91.730667,37.745392,-147.362335,,,
729716872.205724,-2.193942,3.679162,103.90203,-0.060852,-0.040268,0.994247,-0.011945,0.033072,0.003928,91.730667,37.745392,-147.362335,,,
729716872.205873,-2.193941,3.679159,139.438382,-0.060852,-0.040268,0.994247,-0.011945,0.033072,0.003928,91.730667,37.745392,-147.362335,,,
729716872.207493,-2.193943,3.679159,100.825179,-0.060852,-0.040268,0.994247,-0.010871,0.043216,0.01007,91.730667,37.745392,-147.362335,,,
729716872.208601,-2.197065,3.690605,103.905065,-0.059006,-0.042191,0.993225,-0.010871,0.043216,0.01007,91.730667,37.745392,-147.362335,,,
729716872.208765,-2.197064,3.690603,139.441417,-0.059006,-0.042191,0.993225,-0.010871,0.043216,0.01007,91.730667,37.745392,-147.362335,,,
729716872.210971,-2.197065,3.690602,100.828214,-0.059006,-0.042191,0.993225,-0.010871,0.043216,0.01007,91.730667,37.745392,-147.362335,,,
729716872.211181,-2.197065,3.690605,103.905065,-0.059006,-0.042191,0.993225,-0.010871,0.043216,0.01007,91.730667,37.745392,-147.362335,,,
729716872.211434,-2.197064,3.690603,139.441417,-0.059006,-0.042191,0.993225,-0.010871,0.043216,0.01007,91.730667,37.745392,-147.362335,,,
729716872.214173,-2.199457,3.703524,100.832179,-0.059006,-0.042191,0.993225,-0.010871,0.043216,0.01007,91.730667,37.745392,-147.362335,,,
729716872.214612,-2.199457,3.703527,103.90903,-0.059006,-0.042191,0.993225,-0.010871,0.043216,0.01007,91.730667,37.745392,-147.362335,,,
729716872.214823,-2.199456,3.703525,139.445381,-0.059006,-0.042191,0.993225,-0.010871,0.043216,0.01007,91.730667,37.745392,-147.362335,,,
729716872.217694,-2.20218,3.715857,100.836318,-0.062012,-0.041275,0.992859,-0.011566,0.04373,0.011422,91.730667,37.745392,-147.362335,,,
729716872.21817,-2.202179,3.715859,103.913169,-0.062012,-0.041275,0.992859,-0.011566,0.04373,0.011422,91.730667,37.745392,-147.362335,,,
729716872.218325,-2.202178,3.715857,139.449521,-0.062012,-0.041275,0.992859,-0.011566,0.04373,0.011422,91.730667,37.745392,-147.362335,,,
729716872.220548,-2.20218,3.715857,100.836318,-0.062012,-0.041275,0.992859,-0.011566,0.04373,0.011422,91.730667,37.745392,-147.362335,,,
729716872.220813,-2.202179,3.715859,103.913169,-0.062012,-0.041275,0.992859,-0.011566,0.04373,0.011422,91.730667,37.745392,-147.362335,,,
729716872.221482,-2.202178,3.715857,139.449521,-0.062012,-0.041275,0.992859,-0.011566,0.04373,0.011422,91.730667,37.745392,-147.362335,,,
729716872.224194,-2.204415,3.727082,100.840098,-0.062012,-0.041275,0.992859,-0.011566,0.04373,0.011422,91.730667,37.745392,-147.362335,,,
729716872.224781,-2.204414,3.727085,103.916949,-0.062012,-0.041275,0.992859,-0.011566,0.04373,0.011422,91.730667,37.745392,-147.362335,,,
729716872.224934,-2.204413,3.727082,139.453301,-0.062012,-0.041275,0.992859,-0.011566,0.04373,0.011422,91.730667,37.745392,-147.362335,,,
729716872.228445,-2.207785,3.736628,100.843051,-0.06665,-0.036224,0.987808,-0.012657,0.032856,0.005599,91.730667,37.745392,-147.362335,,,
729716872.22979,-2.207785,3.736631,103.919901,-0.06665,-0.036224,0.987808,-0.012657,0.032856,0.005599,91.730667,37.745392,-147.362335,,,
729716872.229985,-2.207784,3.736628,139.456254,-0.06665,-0.036224,0.987808,-0.012657,0.032856,0.005599,91.730667,37.745392,-147.362335,,,
729716872.230364,-2.207785,3.736628,100.843051,-0.06665,-0.036224,0.987808,-0.012657,0.032856,0.005599,91.730667,37.745392,-147.362335,,,
729716872.230916,-2.207785,3.736631,103.919901,-0.06665,-0.036224,0.987808,-0.012657,0.032856,0.005599,91.730667,37.745392,-147.362335,,,
729716872.231508,-2.207784,3.736628,139.456254,-0.06665,-0.036224,0.987808,-0.012657,0.032856,0.005599,91.730667,37.745392,-147.362335,,,
729716872.234076,-2.2116,3.744695,100.84461,-0.06665,-0.036224,0.987808,-0.012657,0.032856,0.005599,91.730667,37.745392,-147.362335,,,
729716872.234353,-2.211599,3.744697,103.921461,-0.06665,-0.036224,0.987808,-0.012657,0.032856,0.005599,91.730667,37.745392,-147.362335,,,
729716872.234826,-2.211598,3.744695,139.457815,-0.06665,-0.036224,0.987808,-0.012657,0.032856,0.005599,91.730667,37.745392,-147.362335,,,
729716872.239508,-2.21516,3.7493,100.844706,-0.065903,-0.031799,0.987244,-0.009434,0.012571,-0.004293,91.730667,37.745392,-147.362335,,,
729716872.241906,-2.215159,3.749302,103.921557,-0.065903,-0.031799,0.987244,-0.009434,0.012571,-0.004293,91.730667,37.745392,-147.362335,,,
729716872.242137,-2.215159,3.7493,139.45791,-0.065903,-0.031799,0.987244,-0.009434,0.012571,-0.004293,91.730667,37.745392,-147.362335,,,
729716872.242349,-2.217505,3.750605,100.843455,-0.065903,-0.031799,0.987244,-0.009434,0.012571,-0.004293,91.730667,37.745392,-147.362335,,,
729716872.244157,-2.217505,3.750605,100.843455,-0.065903,-0.031799,0.987244,-0.009434,0.012571,-0.004293,91.733887,37.478195,-147.618484,,,
729716872.244701,-2.217504,3.750608,103.920305,-0.065903,-0.031799,0.987244,-0.009434,0.012571,-0.004293,91.733887,37.478195,-147.618484,,,
729716872.244857,-2.217503,3.750606,139.456659,-0.065903,-0.031799,0.987244,-0.009434,0.012571,-0.004293,91.733887,37.478195,-147.618484,,,
729716872.249143,-2.217204,3.747556,100.8416,-0.071854,-0.036224,0.989304,0.006892,-0.015321,-0.007329,91.733887,37.478195,-147.618484,,,
729716872.251159,-2.217203,3.747559,103.918451,-0.071854,-0.036224,0.989304,0.006892,-0.015321,-0.007329,91.733887,37.478195,-147.618484,,,
729716872.251327,-2.217203,3.747556,139.454805,-0.071854,-0.036224,0.989304,0.006892,-0.015321,-0.007329,91.733887,37.478195,-147.618484,,,
729716872.251745,-2.217204,3.747556,100.8416,-0.071854,-0.036224,0.989304,0.006892,-0.015321,-0.007329,91.733887,37.478195,-147.618484,,,
729716872.254395,-2.21402,3.740052,100.839625,-0.071854,-0.036224,0.989304,0.006892,-0.015321,-0.007329,91.733887,37.478195,-147.618484,,,
729716872.255067,-2.214019,3.740055,103.916476,-0.071854,-0.036224,0.989304,0.006892,-0.015321,-0.007329,91.733887,37.478195,-147.618484,,,
729716872.255223,-2.214018,3.740053,139.452829,-0.071854,-0.036224,0.989304,0.006892,-0.015321,-0.007329,91.733887,37.478195,-147.618484,,,
729716872.257214,-2.21402,3.740052,100.839625,-0.071854,-0.036224,0.989304,0.006892,-0.015321,-0.007329,91.733887,37.478195,-147.618484,,,
729716872.258341,-2.207789,3.730545,103.913976,-0.073212,-0.040482,0.999283,0.02854,-0.031857,-0.009692,91.733887,37.478195,-147.618484,,,
729716872.258508,-2.207788,3.730542,139.450329,-0.073212,-0.040482,0.999283,0.02854,-0.031857,-0.009692,91.733887,37.478195,-147.618484,,,
729716872.261516,-2.20779,3.730542,100.837125,-0.073212,-0.040482,0.999283,0.02854,-0.031857,-0.009692,91.733887,37.478195,-147.618484,,,
729716872.261814,-2.207789,3.730545,103.913976,-0.073212,-0.040482,0.999283,0.02854,-0.031857,-0.009692,91.733887,37.478195,-147.618484,,,
729716872.26198,-2.207788,3.730542,139.450329,-0.073212,-0.040482,0.999283,0.02854,-0.031857,-0.009692,91.733887,37.478195,-147.618484,,,
729716872.264728,-2.198714,3.718385,100.834139,-0.073212,-0.040482,0.999283,0.02854,-0.031857,-0.009692,91.733887,37.478195,-147.618484,,,
729716872.265649,-2.198714,3.718388,103.91099,-0.073212,-0.040482,0.999283,0.02854,-0.031857,-0.009692,91.733887,37.478195,-147.618484,,,
729716872.265838,-2.198713,3.718386,139.447343,-0.073212,-0.040482,0.999283,0.02854,-0.031857,-0.009692,91.733887,37.478195,-147.618484,,,
729716872.267117,-2.198714,3.718385,100.834139,-0.073212,-0.040482,0.999283,0.02854,-0.031857,-0.009692,91.733887,37.478195,-147.618484,,,
729716872.268129,-2.188557,3.707495,103.907917,-0.067795,-0.039078,1.003815,0.037681,-0.033475,-0.010167,91.733887,37.478195,-147.618484,,,
729716872.268292,-2.188556,3.707493,139.44427,-0.067795,-0.039078,1.003815,0.037681,-0.033475,-0.010167,91.733887,37.478195,-147.618484,,,
729716872.27119,-2.188558,3.707493,100.831066,-0.067795,-0.039078,1.003815,0.037681,-0.033475,-0.010167,91.733887,37.478195,-147.618484,,,
729716872.271407,-2.188557,3.707495,103.907917,-0.067795,-0.039078,1.003815,0.037681,-0.033475,-0.010167,91.733887,37.478195,-147.618484,,,
729716872.271543,-2.188556,3.707493,139.44427,-0.067795,-0.039078,1.003815,0.037681,-0.033475,-0.010167,91.733887,37.478195,-147.618484,,,
729716872.274568,-2.178413,3.696592,100.828069,-0.067795,-0.039078,1.003815,0.037681,-0.033475,-0.010167,91.733887,37.478195,-147.618484,,,
729716872.275653,-2.178412,3.696595,103.90492,-0.067795,-0.039078,1.003815,0.037681,-0.033475,-0.010167,91.733887,37.478195,-147.618484,,,
729716872.275844,-2.178411,3.696593,139.441273,-0.067795,-0.039078,1.003815,0.037681,-0.033475,-0.010167,91.733887,37.478195,-147.618484,,,
729716872.2772,-2.178413,3.696592,100.828069,-0.067795,-0.039078,1.003815,0.037681,-0.033475,-0.010167,91.733887,37.478195,-147.618484,,,
729716872.278576,-2.168997,3.68923,103.902495,-0.066803,-0.03891,1.004501,0.03094,-0.01435,-0.006822,91.733887,37.478195,-147.618484,,,
729716872.278814,-2.168996,3.689228,139.438848,-0.066803,-0.03891,1.004501,0.03094,-0.01435,-0.006822,91.733887,37.478195,-147.618484,,,
729716872.281604,-2.168998,3.689228,100.825644,-0.066803,-0.03891,1.004501,0.03094,-0.01435,-0.006822,91.733887,37.478195,-147.618484,,,
729716872.281903,-2.168997,3.68923,103.902495,-0.066803,-0.03891,1.004501,0.03094,-0.01435,-0.006822,91.733887,37.478195,-147.618484,,,
729716872.282082,-2.168996,3.689228,139.438848,-0.066803,-0.03891,1.004501,0.03094,-0.01435,-0.006822,91.733887,37.478195,-147.618484,,,
729716872.284489,-2.162104,3.686098,100.823694,-0.066803,-0.03891,1.004501,0.03094,-0.01435,-0.006822,91.733887,37.478195,-147.618484,,,
729716872.285707,-2.162103,3.686101,103.900544,-0.066803,-0.03891,1.004501,0.03094,-0.01435,-0.006822,91.669388,37.494492,-147.572723,,,
729716872.285955,-2.162102,3.686098,139.436896,-0.066803,-0.03891,1.004501,0.03094,-0.01435,-0.006822,91.669388,37.494492,-147.572723,,,
729716872.287856,-2.162104,3.686098,100.823694,-0.066803,-0.03891,1.004501,0.03094,-0.01435,-0.006822,91.669388,37.494492,-147.572723,,,
729716872.289868,-2.156993,3.688514,103.899505,-0.065201,-0.038055,1.007172,0.012858,0.01882,-0.001818,91.669388,37.494492,-147.572723,,,
729716872.290098,-2.156992,3.688511,139.435858,-0.065201,-0.038055,1.007172,0.012858,0.01882,-0.001818,91.669388,37.494492,-147.572723,,,
729716872.291599,-2.156993,3.688511,100.822654,-0.065201,-0.038055,1.007172,0.012858,0.01882,-0.001818,91.669388,37.494492,-147.572723,,,
729716872.291843,-2.156993,3.688514,103.899505,-0.065201,-0.038055,1.007172,0.012858,0.01882,-0.001818,91.669388,37.494492,-147.572723,,,
729716872.291977,-2.156992,3.688511,139.435858,-0.065201,-0.038055,1.007172,0.012858,0.01882,-0.001818,91.669388,37.494492,-147.572723,,,
729716872.294117,-2.154815,3.694648,100.822914,-0.065201,-0.038055,1.007172,0.012858,0.01882,-0.001818,91.669388,37.494492,-147.572723,,,
729716872.294572,-2.154814,3.694651,103.899765,-0.065201,-0.038055,1.007172,0.012858,0.01882,-0.001818,91.669388,37.494492,-147.572723,,,
729716872.294786,-2.154813,3.694649,139.436118,-0.065201,-0.038055,1.007172,0.012858,0.01882,-0.001818,91.669388,37.494492,-147.572723,,,
729716872.298892,-2.154815,3.694648,100.824762,-0.065201,-0.038055,1.007172,0.00317,0.044753,0.008471,91.669388,37.494492,-147.572723,,,
729716872.301353,-2.153328,3.705096,103.901612,-0.061996,-0.037704,1.001038,0.00317,0.044753,0.008471,91.669388,37.494492,-147.572723,,,
729716872.301589,-2.153328,3.705094,139.437965,-0.061996,-0.037704,1.001038,0.00317,0.044753,0.008471,91.669388,37.494492,-147.572723,,,
729716872.302361,-2.153329,3.705093,100.824762,-0.061996,-0.037704,1.001038,0.00317,0.044753,0.008471,91.669388,37.494492,-147.572723,,,
729716872.304232,-2.152631,3.718807,100.828175,-0.061996,-0.037704,1.001038,0.00317,0.044753,0.008471,91.669388,37.494492,-147.572723,,,
