Time (sec),Pitch (deg),Roll (deg),Yaw(deg),X-Acceleration (g),Y-Acceleration (g),Z-Acceleration (g),Pitch Rate (deg/sec),Roll Rate (deg/sec),Yaw Rate (deg/sec),Magnetic Field in X direction (uT),Magnetic Field in Y direction (uT),Magnetic Field in Z Direction (uT),Latitude (deg),Longitude (deg),Altitude (m)
729706366.65189,-4.826798,-0.970457,166.994782,0.016586,-0.084122,0.99234,-0.020605,0.003425,-0.012316,85.572189,15.90715,-147.4216,,,
729706366.655128,-4.826798,-0.970457,166.994782,0.016586,-0.084122,0.99234,-0.020605,0.003425,-0.012316,85.572189,15.90715,-147.4216,,,
729706366.658587,-4.83353,-0.969274,166.991487,0.016586,-0.084122,0.99234,-0.020605,0.003425,-0.012316,85.572189,15.90715,-147.4216,,,
729706366.661881,-4.841042,-0.968061,166.988113,0.015244,-0.086624,0.991623,-0.027786,0.007755,-0.012355,85.572189,15.90715,-147.4216,,,
729706366.665227,-4.841042,-0.968061,166.988113,0.015244,-0.086624,0.991623,-0.027786,0.007755,-0.012355,85.572189,15.90715,-147.4216,,,
729706366.668553,-4.849626,-0.96633,166.985725,0.015244,-0.086624,0.991623,-0.027786,0.007755,-0.012355,85.572189,15.90715,-147.4216,,,
729706366.671883,-4.858159,-0.964909,166.9846,0.011734,-0.091415,0.995453,-0.02822,0.009151,-0.003241,85.572189,15.90715,-147.4216,,,
729706366.67523,-4.858159,-0.964909,166.9846,0.011734,-0.091415,0.995453,-0.02822,0.009151,-0.003241,85.808212,15.821701,-147.347427,,,
729706366.678641,-4.86576,-0.962853,166.984531,0.011734,-0.091415,0.995453,-0.02822,0.009151,-0.003241,85.808212,15.821701,-147.347427,,,
729706366.681884,-4.872483,-0.962521,166.984817,0.013046,-0.093384,0.997208,-0.023048,0.001647,-0.00044,85.808212,15.821701,-147.347427,,,
729706366.685234,-4.872483,-0.962521,166.984817,0.013046,-0.093384,0.997208,-0.023048,0.001647,-0.00044,85.808212,15.821701,-147.347427,,,
729706366.688571,-4.878746,-0.962427,166.985378,0.013046,-0.093384,0.997208,-0.023048,0.001647,-0.00044,85.808212,15.821701,-147.347427,,,
729706366.691892,-4.883718,-0.963146,166.985854,0.011246,-0.093628,0.997696,-0.0158,0.001075,-0.000751,85.808212,15.821701,-147.347427,,,
729706366.695231,-4.883718,-0.963146,166.985854,0.011246,-0.093628,0.997696,-0.0158,0.001075,-0.000751,85.808212,15.821701,-147.347427,,,
729706366.698573,-4.888392,-0.96328,166.986228,0.011246,-0.093628,0.997696,-0.0158,0.001075,-0.000751,85.808212,15.821701,-147.347427,,,
729706366.701891,-4.892428,-0.964197,166.985975,0.012482,-0.089859,0.999802,-0.013459,-0.000896,-0.004904,85.808212,15.821701,-147.347427,,,
729706366.705269,-4.892428,-0.964197,166.985975,0.012482,-0.089859,0.999802,-0.013459,-0.000896,-0.004904,85.808212,15.821701,-147.347427,,,
729706366.708571,-4.896682,-0.964692,166.984876,0.012482,-0.089859,0.999802,-0.013459,-0.000896,-0.004904,85.808212,15.821701,-147.347427,,,
729706366.711891,-4.901944,-0.964864,166.98339,0.01503,-0.086807,1.000641,-0.020835,0.003674,-0.007271,85.808212,15.821701,-147.347427,,,
729706366.715217,-4.901944,-0.964864,166.98339,0.01503,-0.086807,1.000641,-0.020835,0.003674,-0.007271,85.581909,15.893585,-147.206558,,,
729706366.718624,-4.907745,-0.963531,166.981113,0.01503,-0.086807,1.000641,-0.020835,0.003674,-0.007271,85.581909,15.893585,-147.206558,,,
729706366.721884,-4.914711,-0.962024,166.978353,0.012512,-0.08667,0.998657,-0.027777,0.010002,-0.010072,85.581909,15.893585,-147.206558,,,
729706366.725216,-4.914711,-0.962024,166.978353,0.012512,-0.08667,0.998657,-0.027777,0.010002,-0.010072,85.581909,15.893585,-147.206558,,,
729706366.728581,-4.922465,-0.960206,166.976489,0.012512,-0.08667,0.998657,-0.027777,0.010002,-0.010072,85.581909,15.893585,-147.206558,,,
729706366.731891,-4.931087,-0.958686,166.975926,0.008575,-0.087448,0.996643,-0.031454,0.008431,-0.000871,85.581909,15.893585,-147.206558,,,
729706366.735282,-4.931087,-0.958686,166.975926,0.008575,-0.087448,0.996643,-0.031454,0.008431,-0.000871,85.581909,15.893585,-147.206558,,,
729706366.738559,-4.940885,-0.957284,166.976206,0.008575,-0.087448,0.996643,-0.031454,0.008431,-0.000871,85.581909,15.893585,-147.206558,,,
729706366.741895,-4.952268,-0.955859,166.977272,0.006271,-0.088486,0.995682,-0.042412,0.0082,0.004779,85.581909,15.893585,-147.206558,,,
729706366.745281,-4.952268,-0.955859,166.977272,0.006271,-0.088486,0.995682,-0.042412,0.0082,0.004779,85.581909,15.893585,-147.206558,,,
729706366.748562,-4.965296,-0.954062,166.979368,0.006271,-0.088486,0.995682,-0.042412,0.0082,0.004779,85.581909,15.893585,-147.206558,,,
729706366.751885,-4.979476,-0.952467,166.981714,0.007599,-0.086563,0.994781,-0.052427,0.009708,0.006981,85.581909,15.893585,-147.206558,,,
729706366.755216,-4.979476,-0.952467,166.981714,0.007599,-0.086563,0.994781,-0.052427,0.009708,0.006981,85.775406,16.014221,-147.203857,,,
729706366.758603,-4.995857,-0.949415,166.9842,0.007599,-0.086563,0.994781,-0.052427,0.009708,0.006981,85.775406,16.014221,-147.203857,,,
729706366.761931,-5.01171,-0.946691,166.986531,0.00769,-0.089706,0.99855,-0.053169,0.012963,0.006385,85.775406,16.014221,-147.203857,,,
729706366.765235,-5.01171,-0.946691,166.986531,0.00769,-0.089706,0.99855,-0.053169,0.012963,0.006385,85.775406,16.014221,-147.203857,,,
729706366.768576,-5.027275,-0.942212,166.989262,0.00769,-0.089706,0.99855,-0.053169,0.012963,0.006385,85.775406,16.014221,-147.203857,,,
729706366.771889,-5.040649,-0.936651,166.99247,0.006302,-0.094391,1.004883,-0.042119,0.024184,0.009897,85.775406,16.014221,-147.203857,,,
729706366.775311,-5.040649,-0.936651,166.99247,0.006302,-0.094391,1.004883,-0.042119,0.024184,0.009897,85.775406,16.014221,-147.203857,,,
729706366.778562,-5.052049,-0.929081,166.996341,0.006302,-0.094391,1.004883,-0.042119,0.024184,0.009897,85.775406,16.014221,-147.203857,,,
729706366.781893,-5.060596,-0.92217,167.001626,0.008636,-0.096176,1.007889,-0.025284,0.025173,0.020019,85.775406,16.014221,-147.203857,,,
729706366.7853,-5.060596,-0.92217,167.001626,0.008636,-0.096176,1.007889,-0.025284,0.025173,0.020019,85.775406,16.014221,-147.203857,,,
729706366.788561,-5.067595,-0.915769,167.00838,0.008636,-0.096176,1.007889,-0.025284,0.025173,0.020019,85.775406,16.014221,-147.203857,,,
729706366.791891,-5.073768,-0.910567,167.015627,0.01181,-0.093597,0.999954,-0.019062,0.018493,0.023517,85.775406,16.014221,-147.203857,,,
729706366.795214,-5.073768,-0.910567,167.015627,0.01181,-0.093597,0.999954,-0.019062,0.018493,0.023517,85.721497,15.993744,-147.149139,,,
729706366.798639,-5.07923,-0.905818,167.022982,0.01181,-0.093597,0.999954,-0.019062,0.018493,0.023517,85.721497,15.993744,-147.149139,,,
729706366.801882,-5.085788,-0.90324,167.030127,0.01265,-0.08667,0.990631,-0.025035,0.00593,0.022376,85.721497,15.993744,-147.149139,,,
729706366.805247,-5.085788,-0.90324,167.030127,0.01265,-0.08667,0.990631,-0.025035,0.00593,0.022376,85.721497,15.993744,-147.149139,,,
729706366.808572,-5.094029,-0.902277,167.036663,0.01265,-0.08667,0.990631,-0.025035,0.00593,0.022376,85.721497,15.993744,-147.149139,,,
729706366.81189,-5.104845,-0.904394,167.042465,0.01268,-0.08371,0.980255,-0.041927,-0.009069,0.018091,85.721497,15.993744,-147.149139,,,
729706366.815235,-5.104845,-0.904394,167.042465,0.01268,-0.08371,0.980255,-0.041927,-0.009069,0.018091,85.721497,15.993744,-147.149139,,,
729706366.818575,-5.119078,-0.907158,167.047611,0.01268,-0.08371,0.980255,-0.041927,-0.009069,0.018091,85.721497,15.993744,-147.149139,,,
729706366.82189,-5.1376,-0.913501,167.051573,0.01889,-0.08226,0.973541,-0.071942,-0.022997,0.011241,85.721497,15.993744,-147.149139,,,
729706366.825289,-5.1376,-0.913501,167.051573,0.01889,-0.08226,0.973541,-0.071942,-0.022997,0.011241,85.721497,15.993744,-147.149139,,,
729706366.828559,-5.160801,-0.919526,167.054777,0.01889,-0.08226,0.973541,-0.071942,-0.022997,0.011241,85.721497,15.993744,-147.149139,,,
729706366.831889,-5.18838,-0.927638,167.056758,0.021851,-0.083862,0.973801,-0.100741,-0.026101,0.004238,85.721497,15.993744,-147.149139,,,
729706366.835236,-5.18838,-0.927638,167.056758,0.021851,-0.083862,0.973801,-0.100741,-0.026101,0.004238,85.721497,15.993744,-147.149139,,,
729706366.838637,-5.21889,-0.93447,167.057556,0.021851,-0.083862,0.973801,-0.100741,-0.026101,0.004238,85.728058,16.355301,-147.406067,,,
729706366.841904,-5.253379,-0.942411,167.057546,0.025192,-0.083588,0.975418,-0.126442,-0.024302,-8.5e-05,85.728058,16.355301,-147.406067,,,
729706366.845218,-5.253379,-0.942411,167.057546,0.025192,-0.083588,0.975418,-0.126442,-0.024302,-8.5e-05,85.728058,16.355301,-147.406067,,,
729706366.848574,-5.292181,-0.949921,167.056947,0.025192,-0.083588,0.975418,-0.126442,-0.024302,-8.5e-05,85.728058,16.355301,-147.406067,,,
729706366.85189,-5.334844,-0.961843,167.055272,0.022552,-0.082077,0.975159,-0.153379,-0.043533,-0.006084,85.728058,16.355301,-147.406067,,,
729706366.855242,-5.334844,-0.961843,167.055272,0.022552,-0.082077,0.975159,-0.153379,-0.043533,-0.006084,85.728058,16.355301,-147.406067,,,
729706366.858569,-5.381897,-0.974495,167.052865,0.022552,-0.082077,0.975159,-0.153379,-0.043533,-0.006084,85.728058,16.355301,-147.406067,,,
729706366.861897,-5.435171,-0.989263,167.049135,0.018875,-0.081497,0.971161,-0.198207,-0.045567,-0.013289,85.728058,16.355301,-147.406067,,,
729706366.8653,-5.435171,-0.989263,167.049135,0.018875,-0.081497,0.971161,-0.198207,-0.045567,-0.013289,85.728058,16.355301,-147.406067,,,
729706366.868562,-5.494875,-1.002258,167.044517,0.018875,-0.081497,0.971161,-0.198207,-0.045567,-0.013289,85.728058,16.355301,-147.406067,,,
729706366.871885,-5.55878,-1.015717,167.039906,0.018646,-0.094025,0.974182,-0.227854,-0.04025,-0.011832,85.728058,16.355301,-147.406067,,,
729706366.87524,-5.55878,-1.015717,167.039906,0.018646,-0.094025,0.974182,-0.227854,-0.04025,-0.011832,85.728058,16.355301,-147.406067,,,
729706366.878571,-5.623966,-1.026911,167.03666,0.018646,-0.094025,0.974182,-0.227854,-0.04025,-0.011832,85.668045,16.431152,-147.498383,,,
729706366.881886,-5.690875,-1.037144,167.034304,0.016266,-0.103745,0.985825,-0.234523,-0.028442,-0.004891,85.668045,16.431152,-147.498383,,,
729706366.88524,-5.690875,-1.037144,167.034304,0.016266,-0.103745,0.985825,-0.234523,-0.028442,-0.004891,85.668045,16.431152,-147.498383,,,
729706366.888639,-5.757487,-1.044806,167.033102,0.016266,-0.103745,0.985825,-0.234523,-0.028442,-0.004891,85.668045,16.431152,-147.498383,,,
729706366.891881,-5.827309,-1.052192,167.03303,0.022781,-0.09877,0.98494,-0.246432,-0.020348,0.003894,85.668045,16.431152,-147.498383,,,
729706366.895231,-5.827309,-1.052192,167.03303,0.022781,-0.09877,0.98494,-0.246432,-0.020348,0.003894,85.668045,16.431152,-147.498383,,,
729706366.898573,-5.897341,-1.05889,167.032739,0.022781,-0.09877,0.98494,-0.246432,-0.020348,0.003894,85.668045,16.431152,-147.498383,,,
729706366.901889,-5.97241,-1.06806,167.03178,0.026611,-0.097214,0.972549,-0.268322,-0.034845,-2.4e-05,85.668045,16.431152,-147.498383,,,
729706366.90522,-5.97241,-1.06806,167.03178,0.026611,-0.097214,0.972549,-0.268322,-0.034845,-2.4e-05,85.668045,16.431152,-147.498383,,,
729706366.908571,-6.050425,-1.081282,167.029996,0.026611,-0.097214,0.972549,-0.268322,-0.034845,-2.4e-05,85.668045,16.431152,-147.498383,,,
729706366.911889,-6.136205,-1.098226,167.025857,0.02533,-0.094788,0.957352,-0.310599,-0.061657,-0.015663,85.668045,16.431152,-147.498383,,,
729706366.915294,-6.136205,-1.098226,167.025857,0.02533,-0.094788,0.957352,-0.310599,-0.061657,-0.015663,85.668045,16.431152,-147.498383,,,
729706366.918542,-6.227816,-1.120538,167.018166,0.02533,-0.094788,0.957352,-0.310599,-0.061657,-0.015663,85.569504,17.352966,-147.391205,,,
729706366.92189,-6.329398,-1.14703,167.006491,0.02475,-0.088547,0.950699,-0.369686,-0.091696,-0.042212,85.569504,17.352966,-147.391205,,,
729706366.925247,-6.329398,-1.14703,167.006491,0.02475,-0.088547,0.950699,-0.369686,-0.091696,-0.042212,85.569504,17.352966,-147.391205,,,
729706366.928628,-6.438843,-1.178683,166.990154,0.02475,-0.088547,0.950699,-0.369686,-0.091696,-0.042212,85.569504,17.352966,-147.391205,,,
729706366.931881,-6.560109,-1.214736,166.968581,0.030014,-0.084274,0.943985,-0.44257,-0.121006,-0.076793,85.569504,17.352966,-147.391205,,,
729706366.935249,-6.560109,-1.214736,166.968581,0.030014,-0.084274,0.943985,-0.44257,-0.121006,-0.076793,85.569504,17.352966,-147.391205,,,
729706366.938562,-6.691243,-1.255054,166.94139,0.030014,-0.084274,0.943985,-0.44257,-0.121006,-0.076793,85.569504,17.352966,-147.391205,,,
729706366.941893,-6.836037,-1.299458,166.909569,0.031403,-0.088348,0.942825,-0.528844,-0.144956,-0.1061,85.569504,17.352966,-147.391205,,,
729706366.945238,-6.836037,-1.299458,166.909569,0.031403,-0.088348,0.942825,-0.528844,-0.144956,-0.1061,85.569504,17.352966,-147.391205,,,
729706366.948569,-6.992457,-1.34779,166.873753,0.031403,-0.088348,0.942825,-0.528844,-0.144956,-0.1061,85.569504,17.352966,-147.391205,,,
729706366.95189,-7.162243,-1.401101,166.833704,0.031326,-0.096863,0.942764,-0.615213,-0.174463,-0.132124,85.569504,17.352966,-147.391205,,,
729706366.955293,-7.162243,-1.401101,166.833704,0.031326,-0.096863,0.942764,-0.615213,-0.174463,-0.132124,85.569504,17.352966,-147.391205,,,
729706366.958556,-7.344277,-1.45926,166.789393,0.031326,-0.096863,0.942764,-0.615213,-0.174463,-0.132124,85.569504,17.352966,-147.391205,,,
729706366.961888,-7.540359,-1.522522,166.740659,0.03511,-0.103638,0.942734,-0.709294,-0.202697,-0.158371,85.221985,18.432083,-147.579468,,,
729706366.965242,-7.540359,-1.522522,166.740659,0.03511,-0.103638,0.942734,-0.709294,-0.202697,-0.158371,85.221985,18.432083,-147.579468,,,
729706366.96855,-7.748738,-1.59013,166.687718,0.03511,-0.103638,0.942734,-0.709294,-0.202697,-0.158371,85.221985,18.432083,-147.579468,,,
729706366.971882,-7.970034,-1.662911,166.631047,0.038132,-0.110153,0.943893,-0.800594,-0.233993,-0.179626,85.221985,18.432083,-147.579468,,,
729706366.975248,-7.970034,-1.662911,166.631047,0.038132,-0.110153,0.943893,-0.800594,-0.233993,-0.179626,85.221985,18.432083,-147.579468,,,
729706366.978612,-8.207003,-1.742538,166.571018,0.038132,-0.110153,0.943893,-0.800594,-0.233993,-0.179626,85.221985,18.432083,-147.579468,,,
729706366.981877,-8.462093,-1.830661,166.508676,0.029129,-0.125778,0.923386,-0.928063,-0.289254,-0.189005,85.221985,18.432083,-147.579468,,,
729706366.98524,-8.462093,-1.830661,166.508676,0.029129,-0.125778,0.923386,-0.928063,-0.289254,-0.189005,85.221985,18.432083,-147.579468,,,
729706366.988554,-8.737466,-1.931917,166.443735,0.029129,-0.125778,0.923386,-0.928063,-0.289254,-0.189005,85.221985,18.432083,-147.579468,,,
729706366.991886,-9.03518,-2.052636,166.373781,0.023331,-0.139404,0.880264,-1.085883,-0.417438,-0.2141,85.221985,18.432083,-147.579468,,,
729706366.995224,-9.03518,-2.052636,166.373781,0.023331,-0.139404,0.880264,-1.085883,-0.417438,-0.2141,85.221985,18.432083,-147.579468,,,
729706366.998587,-9.356669,-2.198627,166.297414,0.023331,-0.139404,0.880264,-1.085883,-0.417438,-0.2141,85.221985,18.432083,-147.579468,,,
729706367.001977,-9.702532,-2.37356,166.212817,0.025406,-0.148087,0.844849,-1.259407,-0.606796,-0.257123,84.446228,20.513626,-147.894684,,,
729706367.005096,-9.702532,-2.37356,166.212817,0.025406,-0.148087,0.844849,-1.259407,-0.606796,-0.257123,84.446228,20.513626,-147.894684,,,
729706367.008599,-10.074255,-2.578958,166.117133,0.025406,-0.148087,0.844849,-1.259407,-0.606796,-0.257123,84.446228,20.513626,-147.894684,,,
729706367.011882,-10.472646,-2.812074,166.008985,0.030426,-0.150894,0.827927,-1.451514,-0.78036,-0.323062,84.446228,20.513626,-147.894684,,,
729706367.015124,-10.472646,-2.812074,166.008985,0.030426,-0.150894,0.827927,-1.451514,-0.78036,-0.323062,84.446228,20.513626,-147.894684,,,
729706367.018585,-10.89761,-3.067843,165.888905,0.030426,-0.150894,0.827927,-1.451514,-0.78036,-0.323062,84.446228,20.513626,-147.894684,,,
729706367.021888,-11.347146,-3.342689,165.758665,0.02475,-0.1586,0.840927,-1.629218,-0.89339,-0.367767,84.446228,20.513626,-147.894684,,,
729706367.025242,-11.347146,-3.342689,165.758665,0.02475,-0.1586,0.840927,-1.629218,-0.89339,-0.367767,84.446228,20.513626,-147.894684,,,
729706367.028656,-11.818195,-3.634259,165.62091,0.02475,-0.1586,0.840927,-1.629218,-0.89339,-0.367767,84.446228,20.513626,-147.894684,,,
729706367.031881,-12.308615,-3.939424,165.478462,0.027802,-0.187134,0.863098,-1.768921,-0.973072,-0.371624,84.446228,20.513626,-147.894684,,,
729706367.035239,-12.308615,-3.939424,165.478462,0.027802,-0.187134,0.863098,-1.768921,-0.973072,-0.371624,84.446228,20.513626,-147.894684,,,
729706367.03857,-12.815411,-4.253514,165.335181,0.027802,-0.187134,0.863098,-1.768921,-0.973072,-0.371624,84.446228,20.513626,-147.894684,,,
729706367.041886,-13.337076,-4.570504,165.196264,0.036926,-0.229004,0.890442,-1.872893,-0.991087,-0.312216,82.569977,24.096176,-147.830368,,,
729706367.04523,-13.337076,-4.570504,165.196264,0.036926,-0.229004,0.890442,-1.872893,-0.991087,-0.312216,82.569977,24.096176,-147.830368,,,
729706367.048567,-13.872234,-4.884108,165.06466,0.036926,-0.229004,0.890442,-1.872893,-0.991087,-0.312216,82.569977,24.096176,-147.830368,,,
729706367.051886,-14.418854,-5.189769,164.942012,0.046005,-0.26059,0.918564,-1.949196,-0.942253,-0.2223,82.569977,24.096176,-147.830368,,,
729706367.055271,-14.418854,-5.189769,164.942012,0.046005,-0.26059,0.918564,-1.949196,-0.942253,-0.2223,82.569977,24.096176,-147.830368,,,
729706367.058561,-14.97397,-5.482181,164.830421,0.046005,-0.26059,0.918564,-1.949196,-0.942253,-0.2223,82.569977,24.096176,-147.830368,,,
729706367.061883,-15.535703,-5.756515,164.73071,0.076035,-0.289703,0.941925,-1.988093,-0.830455,-0.116955,82.569977,24.096176,-147.830368,,,
729706367.065232,-15.535703,-5.756515,164.73071,0.076035,-0.289703,0.941925,-1.988093,-0.830455,-0.116955,82.569977,24.096176,-147.830368,,,
729706367.068605,-16.101226,-6.009183,164.643626,0.076035,-0.289703,0.941925,-1.988093,-0.830455,-0.116955,82.569977,24.096176,-147.830368,,,
729706367.07187,-16.66717,-6.237055,164.569217,0.098251,-0.320663,0.967255,-1.981659,-0.676611,-0.014063,82.569977,24.096176,-147.830368,,,
729706367.07522,-16.66717,-6.237055,164.569217,0.098251,-0.320663,0.967255,-1.981659,-0.676611,-0.014063,82.569977,24.096176,-147.830368,,,
729706367.078565,-17.230025,-6.436959,164.50664,0.098251,-0.320663,0.967255,-1.981659,-0.676611,-0.014063,82.569977,24.096176,-147.830368,,,
729706367.081893,-17.785129,-6.605594,164.455198,0.120331,-0.342148,0.99115,-1.92014,-0.478347,0.067249,80.734863,28.023544,-147.872223,,,
729706367.085242,-17.785129,-6.605594,164.455198,0.120331,-0.342148,0.99115,-1.92014,-0.478347,0.067249,80.734863,28.023544,-147.872223,,,
729706367.088564,-18.329978,-6.742156,164.411822,0.120331,-0.342148,0.99115,-1.92014,-0.478347,0.067249,80.734863,28.023544,-147.872223,,,
729706367.091897,-18.863234,-6.847282,164.371119,0.151855,-0.357574,1.009491,-1.838111,-0.262794,0.084143,80.734863,28.023544,-147.872223,,,
729706367.095295,-18.863234,-6.847282,164.371119,0.151855,-0.357574,1.009491,-1.838111,-0.262794,0.084143,80.734863,28.023544,-147.872223,,,
729706367.098556,-19.384711,-6.923038,164.329707,0.151855,-0.357574,1.009491,-1.838111,-0.262794,0.084143,80.734863,28.023544,-147.872223,,,
729706367.10191,-19.895409,-6.97172,164.284633,0.183533,-0.356934,0.990158,-1.766846,-0.06328,0.05602,80.734863,28.023544,-147.872223,,,
729706367.105242,-19.895409,-6.97172,164.284633,0.183533,-0.356934,0.990158,-1.766846,-0.06328,0.05602,80.734863,28.023544,-147.872223,,,
729706367.108606,-20.396602,-6.995175,164.234051,0.183533,-0.356934,0.990158,-1.766846,-0.06328,0.05602,80.734863,28.023544,-147.872223,,,
729706367.111926,-20.888948,-6.99791,164.178628,0.184799,-0.356613,0.959396,-1.710011,0.09577,0.019043,80.734863,28.023544,-147.872223,,,
729706367.115237,-20.888948,-6.99791,164.178628,0.184799,-0.356613,0.959396,-1.710011,0.09577,0.019043,80.734863,28.023544,-147.872223,,,
729706367.118575,-21.373254,-6.985957,164.119179,0.184799,-0.356613,0.959396,-1.710011,0.09577,0.019043,80.734863,28.023544,-147.872223,,,
729706367.122026,-21.849896,-6.965153,164.057938,0.166214,-0.36824,0.930389,-1.658233,0.16519,0.001304,80.734863,28.023544,-147.872223,,,
729706367.12523,-21.849896,-6.965153,164.057938,0.166214,-0.36824,0.930389,-1.658233,0.16519,0.001304,80.624451,31.706497,-147.088791,,,
729706367.128579,-22.318761,-6.94048,163.996874,0.166214,-0.36824,0.930389,-1.658233,0.16519,0.001304,80.624451,31.706497,-147.088791,,,
729706367.131885,-22.781749,-6.915193,163.938451,0.13855,-0.393112,0.908218,-1.614649,0.165492,0.013048,80.624451,31.706497,-147.088791,,,
729706367.135283,-22.781749,-6.915193,163.938451,0.13855,-0.393112,0.908218,-1.614649,0.165492,0.013048,80.624451,31.706497,-147.088791,,,
729706367.138559,-23.240221,-6.891194,163.885569,0.13855,-0.393112,0.908218,-1.614649,0.165492,0.013048,80.624451,31.706497,-147.088791,,,
729706367.141911,-23.695024,-6.870298,163.839695,0.13855,-0.393112,0.908218,-1.583069,0.127019,0.054274,80.624451,31.706497,-147.088791,,,
729706367.145229,-23.695024,-6.870298,163.839695,0.105927,-0.420181,0.894791,-1.583069,0.127019,0.054274,80.624451,31.706497,-147.088791,,,
729706367.148611,-24.14809,-6.855012,163.802382,0.105927,-0.420181,0.894791,-1.583069,0.127019,0.054274,80.624451,31.706497,-147.088791,,,
729706367.15188,-24.14809,-6.848008,163.774133,0.105927,-0.420181,0.894791,-1.58443,0.045005,0.112676,80.624451,31.706497,-147.088791,,,
729706367.155222,-24.602456,-6.848008,163.774133,0.084534,-0.442963,0.878723,-1.58443,0.045005,0.112676,80.624451,31.706497,-147.088791,,,
729706367.15857,-25.061387,-6.851436,163.755015,0.084534,-0.442963,0.878723,-1.58443,0.045005,0.112676,80.624451,31.706497,-147.088791,,,
729706367.161971,-25.528508,-6.866269,163.745433,0.073456,-0.461578,0.853409,-1.633109,-0.061945,0.180025,80.624451,31.706497,-147.088791,,,
729706367.165219,-25.528508,-6.866269,163.745433,0.073456,-0.461578,0.853409,-1.633109,-0.061945,0.180025,80.75444,34.871475,-146.417465,,,
729706367.168552,-26.006732,-6.892207,163.74567,0.073456,-0.461578,0.853409,-1.633109,-0.061945,0.180025,80.75444,34.871475,-146.417465,,,
729706367.171885,-26.006732,-6.892207,163.74567,0.073456,-0.461578,0.853409,-1.633109,-0.061945,0.180025,80.75444,34.871475,-146.417465,,,
729706367.175301,-26.498521,-6.926442,163.757063,0.062057,-0.475891,0.833893,-1.717601,-0.154163,0.262212,80.75444,34.871475,-146.417465,,,
729706367.178568,-27.006014,-6.967341,163.779848,0.062057,-0.475891,0.833893,-1.717601,-0.154163,0.262212,80.75444,34.871475,-146.417465,,,
729706367.181899,-27.006014,-6.967341,163.779848,0.062057,-0.475891,0.833893,-1.840506,-0.230886,0.350575,80.75444,34.871475,-146.417465,,,
729706367.185225,-27.532482,-7.013819,163.814052,0.053543,-0.491547,0.819962,-1.840506,-0.230886,0.350575,80.75444,34.871475,-146.417465,,,
729706367.188554,-28.080016,-7.064116,163.861204,0.053543,-0.491547,0.819962,-1.840506,-0.230886,0.350575,80.75444,34.871475,-146.417465,,,
729706367.191887,-28.080016,-7.064116,163.861204,0.053543,-0.491547,0.819962,-1.840506,-0.230886,0.350575,80.75444,34.871475,-146.417465,,,
729706367.195222,-28.650119,-7.11654,163.922129,0.050781,-0.505615,0.797668,-1.986358,-0.294297,0.455792,80.75444,34.871475,-146.417465,,,
729706367.19855,-29.246115,-7.16938,163.997506,0.050781,-0.505615,0.797668,-1.986358,-0.294297,0.455792,80.75444,34.871475,-146.417465,,,
729706367.201955,-29.246115,-7.16938,163.997506,0.050781,-0.505615,0.797668,-1.986358,-0.294297,0.455792,80.75444,34.871475,-146.417465,,,
729706367.205208,-29.869825,-7.221927,164.087333,0.050537,-0.523941,0.771362,-2.167152,-0.346948,0.568033,80.477692,38.528824,-145.106415,,,
729706367.208554,-30.522402,-7.273435,164.191848,0.050537,-0.523941,0.771362,-2.167152,-0.346948,0.568033,80.477692,38.528824,-145.106415,,,
729706367.211979,-30.522402,-7.273435,164.191848,0.050537,-0.523941,0.771362,-2.167152,-0.346948,0.568033,80.477692,38.528824,-145.106415,,,
729706367.215278,-31.203713,-7.322594,164.311626,0.053986,-0.543488,0.74675,-2.35452,-0.392654,0.683862,80.477692,38.528824,-145.106415,,,
729706367.218539,-31.913621,-7.368301,164.446527,0.053986,-0.543488,0.74675,-2.35452,-0.392654,0.683862,80.477692,38.528824,-145.106415,,,
729706367.221967,-31.913621,-7.368301,164.446527,0.053986,-0.543488,0.74675,-2.35452,-0.392654,0.683862,80.477692,38.528824,-145.106415,,,
729706367.225236,-32.651208,-7.411066,164.595476,0.060013,-0.56105,0.726318,-2.534695,-0.434511,0.788141,80.477692,38.528824,-145.106415,,,
729706367.228558,-33.416121,-7.453077,164.756827,0.060013,-0.56105,0.726318,-2.534695,-0.434511,0.788141,80.477692,38.528824,-145.106415,,,
729706367.23192,-33.416121,-7.453077,164.756827,0.060013,-0.56105,0.726318,-2.534695,-0.434511,0.788141,80.477692,38.528824,-145.106415,,,
729706367.235229,-34.208724,-7.49593,164.929148,0.066483,-0.577271,0.703552,-2.716553,-0.495533,0.871317,80.477692,38.528824,-145.106415,,,
729706367.238548,-35.028624,-7.540434,165.111245,0.066483,-0.577271,0.703552,-2.716553,-0.495533,0.871317,80.477692,38.528824,-145.106415,,,
729706367.241935,-35.028624,-7.540434,165.111245,0.066483,-0.577271,0.703552,-2.716553,-0.495533,0.871317,80.477692,38.528824,-145.106415,,,
729706367.245213,-35.877277,-7.588575,165.302405,0.069458,-0.596191,0.671463,-2.907119,-0.572438,0.942212,80.094116,43.396805,-143.641495,,,
729706367.248548,-36.756118,-7.642368,165.501749,0.069458,-0.596191,0.671463,-2.907119,-0.572438,0.942212,80.094116,43.396805,-143.641495,,,
729706367.251991,-36.756118,-7.642368,165.501749,0.069458,-0.596191,0.671463,-2.907119,-0.572438,0.942212,80.094116,43.396805,-143.641495,,,
729706367.25528,-37.668065,-7.700885,165.709781,0.06041,-0.623642,0.630844,-3.127794,-0.659092,1.013252,80.094116,43.396805,-143.641495,,,
729706367.258552,-38.614056,-7.762818,165.926116,0.06041,-0.623642,0.630844,-3.127794,-0.659092,1.013252,80.094116,43.396805,-143.641495,,,
729706367.261957,-38.614056,-7.762818,165.926116,0.06041,-0.623642,0.630844,-3.127794,-0.659092,1.013252,80.094116,43.396805,-143.641495,,,
729706367.265229,-39.594577,-7.827366,166.150178,0.046249,-0.654877,0.601486,-3.359026,-0.730823,1.078163,80.094116,43.396805,-143.641495,,,
729706367.268557,-40.608013,-7.892678,166.381793,0.046249,-0.654877,0.601486,-3.359026,-0.730823,1.078163,80.094116,43.396805,-143.641495,,,
729706367.271933,-40.608013,-7.892678,166.381793,0.046249,-0.654877,0.601486,-3.359026,-0.730823,1.078163,80.094116,43.396805,-143.641495,,,
729706367.275223,-41.652617,-7.958096,166.620004,0.048843,-0.686661,0.585968,-3.567996,-0.783502,1.130998,80.094116,43.396805,-143.641495,,,
729706367.278565,-42.724894,-8.023357,166.862897,0.048843,-0.686661,0.585968,-3.567996,-0.783502,1.130998,80.094116,43.396805,-143.641495,,,
729706367.282003,-42.724894,-8.023357,166.862897,0.048843,-0.686661,0.585968,-3.567996,-0.783502,1.130998,80.094116,43.396805,-143.641495,,,
729706367.285211,-43.819488,-8.087158,167.109181,0.060211,-0.718567,0.586319,-3.721449,-0.813379,1.15688,80.094116,43.396805,-143.641495,,,
729706367.288568,-44.93294,-8.14866,167.357893,0.060211,-0.718567,0.586319,-3.721449,-0.813379,1.15688,79.531158,49.390869,-139.863235,,,
729706367.291929,-44.93294,-8.14866,167.357893,0.060211,-0.718567,0.586319,-3.721449,-0.813379,1.15688,79.531158,49.390869,-139.863235,,,
729706367.295288,-46.061942,-8.20744,167.606877,0.073044,-0.751892,0.590164,-3.830962,-0.82014,1.158252,79.531158,49.390869,-139.863235,,,
729706367.298663,-47.202292,-8.263133,167.854758,0.073044,-0.751892,0.590164,-3.830962,-0.82014,1.158252,79.531158,49.390869,-139.863235,,,
729706367.301893,-47.202292,-8.263133,167.854758,0.073044,-0.751892,0.590164,-3.830962,-0.82014,1.158252,79.531158,49.390869,-139.863235,,,
729706367.305213,-48.347494,-8.31574,168.100247,0.086395,-0.78595,0.601318,-3.869057,-0.810057,1.134764,79.531158,49.390869,-139.863235,,,
729706367.308565,-49.491363,-8.366189,168.341735,0.086395,-0.78595,0.601318,-3.869057,-0.810057,1.134764,79.531158,49.390869,-139.863235,,,
729706367.312086,-49.491363,-8.366189,168.341735,0.086395,-0.78595,0.601318,-3.869057,-0.810057,1.134764,79.531158,49.390869,-139.863235,,,
729706367.315227,-50.627273,-8.414745,168.578131,0.095444,-0.815125,0.612183,-3.820869,-0.791782,1.086086,79.531158,49.390869,-139.863235,,,
729706367.318565,-51.750819,-8.463283,168.806841,0.095444,-0.815125,0.612183,-3.820869,-0.791782,1.086086,79.531158,49.390869,-139.863235,,,
729706367.321984,-51.750819,-8.463283,168.806841,0.095444,-0.815125,0.612183,-3.820869,-0.791782,1.086086,79.531158,49.390869,-139.863235,,,
729706367.325232,-52.856432,-8.513489,169.026238,0.105865,-0.837189,0.624878,-3.704937,-0.771294,1.010886,79.531158,49.390869,-139.863235,,,
729706367.32864,-53.937981,-8.565175,169.235377,0.105865,-0.837189,0.624878,-3.704937,-0.771294,1.010886,79.791077,55.264786,-135.2677,,,
729706367.331913,-53.937981,-8.565175,169.235377,0.105865,-0.837189,0.624878,-3.704937,-0.771294,1.010886,79.791077,55.264786,-135.2677,,,
729706367.335351,-54.990587,-8.621648,169.429704,0.116333,-0.851608,0.640457,-3.514505,-0.736383,0.906264,79.791077,55.264786,-135.2677,,,
729706367.338556,-56.008724,-8.684967,169.607016,0.116333,-0.851608,0.640457,-3.514505,-0.736383,0.906264,79.791077,55.264786,-135.2677,,,
729706367.341895,-56.008724,-8.684967,169.607016,0.116333,-0.851608,0.640457,-3.514505,-0.736383,0.906264,79.791077,55.264786,-135.2677,,,
729706367.345334,-56.987586,-8.754699,169.767483,0.128998,-0.860764,0.655624,-3.253005,-0.69488,0.790708,79.791077,55.264786,-135.2677,,,
729706367.348555,-57.922549,-8.831881,169.908226,0.128998,-0.860764,0.655624,-3.253005,-0.69488,0.790708,79.791077,55.264786,-135.2677,,,
729706367.351893,-57.922549,-8.831881,169.908226,0.128998,-0.860764,0.655624,-3.253005,-0.69488,0.790708,79.791077,55.264786,-135.2677,,,
729706367.355239,-58.808833,-8.916228,170.02783,0.140945,-0.86702,0.677673,-2.928453,-0.627395,0.657627,79.791077,55.264786,-135.2677,,,
729706367.358561,-59.641295,-9.006839,170.12651,0.140945,-0.86702,0.677673,-2.928453,-0.627395,0.657627,79.791077,55.264786,-135.2677,,,
729706367.361884,-59.641295,-9.006839,170.12651,0.140945,-0.86702,0.677673,-2.928453,-0.627395,0.657627,79.791077,55.264786,-135.2677,,,
729706367.365246,-60.41738,-9.104291,170.20368,0.151276,-0.87352,0.700439,-2.550504,-0.549903,0.522696,79.791077,55.264786,-135.2677,,,
729706367.368556,-61.134132,-9.209224,170.258434,0.151276,-0.87352,0.700439,-2.550504,-0.549903,0.522696,79.365601,59.443542,-131.515823,,,
729706367.371954,-61.134132,-9.209224,170.258434,0.151276,-0.87352,0.700439,-2.550504,-0.549903,0.522696,79.365601,59.443542,-131.515823,,,
729706367.375221,-61.788921,-9.321776,170.289235,0.161819,-0.880966,0.715378,-2.137025,-0.458837,0.380045,79.365601,59.443542,-131.515823,,,
729706367.378554,-62.379382,-9.442711,170.295678,0.161819,-0.880966,0.715378,-2.137025,-0.458837,0.380045,79.365601,59.443542,-131.515823,,,
729706367.381913,-62.379382,-9.442711,170.295678,0.161819,-0.880966,0.715378,-2.137025,-0.458837,0.380045,79.365601,59.443542,-131.515823,,,
729706367.385288,-62.90409,-9.571951,170.27889,0.167648,-0.887497,0.721771,-1.696771,-0.373323,0.239534,79.365601,59.443542,-131.515823,,,
729706367.388585,-63.362959,-9.709953,170.239368,0.167648,-0.887497,0.721771,-1.696771,-0.373323,0.239534,79.365601,59.443542,-131.515823,,,
729706367.3919,-63.362959,-9.709953,170.239368,0.167648,-0.887497,0.721771,-1.696771,-0.373323,0.239534,79.365601,59.443542,-131.515823,,,
729706367.395238,-63.756093,-9.858215,170.176459,0.162689,-0.901566,0.712555,-1.256945,-0.298136,0.099943,79.365601,59.443542,-131.515823,,,
729706367.398556,-64.085292,-10.016987,170.091321,0.162689,-0.901566,0.712555,-1.256945,-0.298136,0.099943,79.365601,59.443542,-131.515823,,,
729706367.4019,-64.085292,-10.016987,170.091321,0.162689,-0.901566,0.712555,-1.256945,-0.298136,0.099943,79.365601,59.443542,-131.515823,,,
729706367.405245,-64.35277,-10.188106,169.984459,0.159561,-0.916901,0.691299,-0.844768,-0.246742,-0.030927,79.365601,59.443542,-131.515823,,,
729706367.408557,-64.561531,-10.375668,169.853655,0.159561,-0.916901,0.691299,-0.844768,-0.246742,-0.030927,79.192978,60.903366,-129.524612,,,
729706367.411988,-64.561531,-10.375668,169.853655,0.159561,-0.916901,0.691299,-0.844768,-0.246742,-0.030927,79.192978,60.903366,-129.524612,,,
729706367.415245,-64.714682,-10.581508,169.698761,0.158524,-0.926132,0.661301,-0.477065,-0.22132,-0.164458,79.192978,60.903366,-129.524612,,,
729706367.418554,-64.817079,-10.806625,169.520523,0.158524,-0.926132,0.661301,-0.477065,-0.22132,-0.164458,79.192978,60.903366,-129.524612,,,
729706367.421911,-64.817079,-10.806625,169.520523,0.158524,-0.926132,0.661301,-0.477065,-0.22132,-0.164458,79.192978,60.903366,-129.524612,,,
729706367.42528,-64.873889,-11.051135,169.320374,0.153198,-0.939972,0.627197,-0.178967,-0.217646,-0.283569,79.192978,60.903366,-129.524612,,,
729706367.428551,-64.890167,-11.314416,169.099818,0.153198,-0.939972,0.627197,-0.178967,-0.217646,-0.283569,79.192978,60.903366,-129.524612,,,
729706367.431898,-64.890167,-11.314416,169.099818,0.153198,-0.939972,0.627197,-0.178967,-0.217646,-0.283569,79.192978,60.903366,-129.524612,,,
729706367.435224,-64.869809,-11.595434,168.862102,0.140244,-0.955826,0.593063,0.058154,-0.232974,-0.382808,79.192978,60.903366,-129.524612,,,
729706367.438552,-64.816911,-11.893143,168.61061,0.140244,-0.955826,0.593063,0.058154,-0.232974,-0.382808,79.192978,60.903366,-129.524612,,,
729706367.441896,-64.816911,-11.893143,168.61061,0.140244,-0.955826,0.593063,0.058154,-0.232974,-0.382808,79.192978,60.903366,-129.524612,,,
729706367.445218,-64.737899,-12.205339,168.348175,0.12619,-0.969681,0.556808,0.224845,-0.265652,-0.455377,79.192978,60.903366,-129.524612,,,
729706367.44856,-64.638375,-12.528445,168.078596,0.12619,-0.969681,0.556808,0.224845,-0.265652,-0.455377,79.192978,60.903366,-129.524612,,,
729706367.45197,-64.638375,-12.528445,168.078596,0.12619,-0.969681,0.556808,0.224845,-0.265652,-0.455377,78.173309,60.815887,-129.913177,,,
729706367.455229,-64.522827,-12.858669,167.805202,0.112732,-0.976105,0.517273,0.325361,-0.292592,-0.496957,78.173309,60.815887,-129.913177,,,
729706367.458552,-64.396281,-13.192039,167.531993,0.112732,-0.976105,0.517273,0.325361,-0.292592,-0.496957,78.173309,60.815887,-129.913177,,,
729706367.461908,-64.396281,-13.192039,167.531993,0.112732,-0.976105,0.517273,0.325361,-0.292592,-0.496957,78.173309,60.815887,-129.913177,,,
729706367.465282,-64.263875,-13.526935,167.261222,0.105515,-0.973175,0.486862,0.359888,-0.320372,-0.506769,78.173309,60.815887,-129.913177,,,
729706367.468549,-64.129339,-13.859639,166.996624,0.105515,-0.973175,0.486862,0.359888,-0.320372,-0.506769,78.173309,60.815887,-129.913177,,,
729706367.471902,-64.129339,-13.859639,166.996624,0.105515,-0.973175,0.486862,0.359888,-0.320372,-0.506769,78.173309,60.815887,-129.913177,,,
729706367.475221,-63.996258,-14.184695,166.743205,0.105728,-0.973236,0.462784,0.351898,-0.33917,-0.479403,78.173309,60.815887,-129.913177,,,
729706367.478554,-63.86742,-14.4996,166.502413,0.105728,-0.973236,0.462784,0.351898,-0.33917,-0.479403,78.173309,60.815887,-129.913177,,,
729706367.481897,-63.86742,-14.4996,166.502413,0.105728,-0.973236,0.462784,0.351898,-0.33917,-0.479403,78.173309,60.815887,-129.913177,,,
729706367.485242,-63.745714,-14.802798,166.274341,0.105606,-0.970856,0.449951,0.307837,-0.339054,-0.43603,78.173309,60.815887,-129.913177,,,
729706367.488561,-63.633129,-15.091397,166.06137,0.105606,-0.970856,0.449951,0.307837,-0.339054,-0.43603,78.173309,60.815887,-129.913177,,,
729706367.491899,-63.633129,-15.091397,166.06137,0.105606,-0.970856,0.449951,0.307837,-0.339054,-0.43603,77.044907,60.396164,-130.457687,,,
729706367.495219,-63.53091,-15.36159,165.866403,0.108826,-0.96991,0.441406,0.248355,-0.324537,-0.368767,77.044907,60.396164,-130.457687,,,
729706367.498558,-63.440535,-15.61278,165.68868,0.108826,-0.96991,0.441406,0.248355,-0.324537,-0.368767,77.044907,60.396164,-130.457687,,,
729706367.501882,-63.440535,-15.61278,165.68868,0.108826,-0.96991,0.441406,0.248355,-0.324537,-0.368767,77.044907,60.396164,-130.457687,,,
729706367.505222,-63.361916,-15.845003,165.526853,0.119263,-0.965469,0.438431,0.179782,-0.292397,-0.30256,77.044907,60.396164,-130.457687,,,
729706367.508559,-63.294912,-16.055502,165.383484,0.119263,-0.965469,0.438431,0.179782,-0.292397,-0.30256,77.044907,60.396164,-130.457687,,,
729706367.511885,-63.294912,-16.055502,165.383484,0.119263,-0.965469,0.438431,0.179782,-0.292397,-0.30256,77.044907,60.396164,-130.457687,,,
729706367.515304,-63.239023,-16.242831,165.259475,0.129379,-0.94751,0.441101,0.12038,-0.251949,-0.2251,77.044907,60.396164,-130.457687,,,
729706367.518548,-63.193217,-16.407192,165.152941,0.129379,-0.94751,0.441101,0.12038,-0.251949,-0.2251,77.044907,60.396164,-130.457687,,,
729706367.521897,-63.193217,-16.407192,165.152941,0.129379,-0.94751,0.441101,0.12038,-0.251949,-0.2251,77.044907,60.396164,-130.457687,,,
729706367.525223,-63.156781,-16.54751,165.064546,0.137039,-0.923737,0.447556,0.072941,-0.197471,-0.153073,77.044907,60.396164,-130.457687,,,
729706367.528549,-63.128344,-16.662567,164.994992,0.137039,-0.923737,0.447556,0.072941,-0.197471,-0.153073,77.044907,60.396164,-130.457687,,,
729706367.531892,-63.128344,-16.662567,164.994992,0.137039,-0.923737,0.447556,0.072941,-0.197471,-0.153073,76.274261,60.332596,-130.492905,,,
729706367.535243,-63.106806,-16.751103,164.94532,0.141922,-0.908508,0.455353,0.044551,-0.136312,-0.07975,76.274261,60.332596,-130.492905,,,
729706367.538553,-63.090613,-16.812427,164.917239,0.141922,-0.908508,0.455353,0.044551,-0.136312,-0.07975,76.274261,60.332596,-130.492905,,,
729706367.541949,-63.090613,-16.812427,164.917239,0.141922,-0.908508,0.455353,0.044551,-0.136312,-0.07975,76.274261,60.332596,-130.492905,,,
729706367.545235,-63.078015,-16.844345,164.912828,0.145187,-0.905624,0.465179,0.042159,-0.078545,-0.001226,76.274261,60.332596,-130.492905,,,
729706367.548557,-63.067545,-16.844766,164.93362,0.145187,-0.905624,0.465179,0.042159,-0.078545,-0.001226,76.274261,60.332596,-130.492905,,,
729706367.551887,-63.067545,-16.844766,164.93362,0.145187,-0.905624,0.465179,0.042159,-0.078545,-0.001226,76.274261,60.332596,-130.492905,,,
729706367.555283,-63.058439,-16.81412,164.978868,0.146774,-0.910889,0.477676,0.055613,-0.013942,0.07526,76.274261,60.332596,-130.492905,,,
729706367.55855,-63.049794,-16.753178,165.047279,0.146774,-0.910889,0.477676,0.055613,-0.013942,0.07526,76.274261,60.332596,-130.492905,,,
729706367.561899,-63.049794,-16.753178,165.047279,0.146774,-0.910889,0.477676,0.055613,-0.013942,0.07526,76.274261,60.332596,-130.492905,,,
729706367.565231,-63.040973,-16.663292,165.137731,0.148132,-0.910461,0.484573,0.076737,0.050865,0.141581,76.274261,60.332596,-130.492905,,,
729706367.568552,-63.030459,-16.54854,165.247003,0.148132,-0.910461,0.484573,0.076737,0.050865,0.141581,76.274261,60.332596,-130.492905,,,
729706367.571932,-63.030459,-16.54854,165.247003,0.148132,-0.910461,0.484573,0.076737,0.050865,0.141581,76.274261,60.332596,-130.492905,,,
729706367.575232,-63.017274,-16.412225,165.370996,0.154663,-0.904739,0.48645,0.107236,0.109667,0.181251,76.695297,60.161606,-130.67337,,,
729706367.578553,-63.000226,-16.256776,165.506695,0.154663,-0.904739,0.48645,0.107236,0.109667,0.181251,76.695297,60.161606,-130.67337,,,
729706367.581967,-63.000226,-16.256776,165.506695,0.154663,-0.904739,0.48645,0.107236,0.109667,0.181251,76.695297,60.161606,-130.67337,,,
729706367.58521,-62.978163,-16.085701,165.650658,0.163193,-0.894714,0.494156,0.147327,0.167391,0.19757,76.695297,60.161606,-130.67337,,,
729706367.588553,-62.95096,-15.902147,165.799564,0.163193,-0.894714,0.494156,0.147327,0.167391,0.19757,76.695297,60.161606,-130.67337,,,
729706367.591907,-62.95096,-15.902147,165.799564,0.163193,-0.894714,0.494156,0.147327,0.167391,0.19757,76.695297,60.161606,-130.67337,,,
729706367.595298,-62.918924,-15.706838,165.953622,0.159637,-0.892029,0.493851,0.183292,0.217649,0.205527,76.695297,60.161606,-130.67337,,,
729706367.598549,-62.881985,-15.501149,166.112544,0.159637,-0.892029,0.493851,0.183292,0.217649,0.205527,76.695297,60.161606,-130.67337,,,
729706367.601894,-62.881985,-15.501149,166.112544,0.159637,-0.892029,0.493851,0.183292,0.217649,0.205527,76.695297,60.161606,-130.67337,,,
729706367.605241,-62.839779,-15.286566,166.276609,0.144913,-0.894516,0.491211,0.222041,0.248213,0.213508,76.695297,60.161606,-130.67337,,,
729706367.608557,-62.791663,-15.064582,166.445821,0.144913,-0.894516,0.491211,0.222041,0.248213,0.213508,76.695297,60.161606,-130.67337,,,
729706367.611883,-62.791663,-15.064582,166.445821,0.144913,-0.894516,0.491211,0.222041,0.248213,0.213508,76.695297,60.161606,-130.67337,,,
729706367.615239,-62.73631,-14.837308,166.617672,0.141068,-0.895477,0.496323,0.271668,0.269227,0.211332,77.278656,59.958313,-130.929703,,,
729706367.618555,-62.671324,-14.6056,166.790163,0.141068,-0.895477,0.496323,0.271668,0.269227,0.211332,77.278656,59.958313,-130.929703,,,
729706367.621963,-62.671324,-14.6056,166.790163,0.141068,-0.895477,0.496323,0.271668,0.269227,0.211332,77.278656,59.958313,-130.929703,,,
729706367.625224,-62.594088,-14.371221,166.96127,0.149689,-0.89592,0.515488,0.352134,0.297083,0.18917,77.278656,59.958313,-130.929703,,,
729706367.628558,-62.501396,-14.134023,167.129645,0.149689,-0.89592,0.515488,0.352134,0.297083,0.18917,77.278656,59.958313,-130.929703,,,
729706367.631893,-62.501396,-14.134023,167.129645,0.149689,-0.89592,0.515488,0.352134,0.297083,0.18917,77.278656,59.958313,-130.929703,,,
729706367.635267,-62.390441,-13.895612,167.292123,0.157761,-0.894424,0.536163,0.469777,0.342647,0.14468,77.278656,59.958313,-130.929703,,,
729706367.638552,-62.258898,-13.660618,167.444704,0.157761,-0.894424,0.536163,0.469777,0.342647,0.14468,77.278656,59.958313,-130.929703,,,
729706367.641905,-62.258898,-13.660618,167.444704,0.157761,-0.894424,0.536163,0.469777,0.342647,0.14468,77.278656,59.958313,-130.929703,,,
729706367.645227,-62.104312,-13.43206,167.585461,0.163452,-0.887146,0.54863,0.616412,0.371767,0.075791,77.278656,59.958313,-130.929703,,,
729706367.648547,-61.922679,-13.211358,167.715151,0.163452,-0.887146,0.54863,0.616412,0.371767,0.075791,77.278656,59.958313,-130.929703,,,
729706367.651938,-61.922679,-13.211358,167.715151,0.163452,-0.887146,0.54863,0.616412,0.371767,0.075791,77.278656,59.958313,-130.929703,,,
729706367.655235,-61.709448,-12.998189,167.837107,0.160645,-0.876678,0.565994,0.824942,0.367918,0.008735,77.635895,59.258636,-131.912491,,,
729706367.658562,-61.462097,-12.791942,167.952881,0.160645,-0.876678,0.565994,0.824942,0.367918,0.008735,77.635895,59.258636,-131.912491,,,
729706367.661978,-61.462097,-12.791942,167.952881,0.160645,-0.876678,0.565994,0.824942,0.367918,0.008735,77.635895,59.258636,-131.912491,,,
729706367.665231,-61.179759,-12.590671,168.064893,0.156769,-0.882446,0.595367,1.060423,0.357732,-0.047741,77.635895,59.258636,-131.912491,,,
729706367.668561,-60.862193,-12.395532,168.173423,0.156769,-0.882446,0.595367,1.060423,0.357732,-0.047741,77.635895,59.258636,-131.912491,,,
729706367.671905,-60.862193,-12.395532,168.173423,0.156769,-0.882446,0.595367,1.060423,0.357732,-0.047741,77.635895,59.258636,-131.912491,,,
729706367.675303,-60.509148,-12.207433,168.27739,0.150925,-0.89003,0.61055,1.299693,0.33839,-0.104531,77.635895,59.258636,-131.912491,,,
729706367.67855,-60.120952,-12.024897,168.377467,0.150925,-0.89003,0.61055,1.299693,0.33839,-0.104531,77.635895,59.258636,-131.912491,,,
729706367.681893,-60.120952,-12.024897,168.377467,0.150925,-0.89003,0.61055,1.299693,0.33839,-0.104531,77.635895,59.258636,-131.912491,,,
729706367.68524,-59.699413,-11.845074,168.47524,0.146286,-0.893982,0.622482,1.527777,0.335935,-0.147958,77.635895,59.258636,-131.912491,,,
729706367.688558,-59.247009,-11.664459,168.571557,0.146286,-0.893982,0.622482,1.527777,0.335935,-0.147958,77.635895,59.258636,-131.912491,,,
729706367.691901,-59.247009,-11.664459,168.571557,0.146286,-0.893982,0.622482,1.527777,0.335935,-0.147958,77.635895,59.258636,-131.912491,,,
729706367.695223,-58.76713,-11.480277,168.66637,0.13269,-0.899506,0.633224,1.717044,0.372584,-0.177274,78.130676,57.150162,-133.989395,,,
729706367.698548,-58.262819,-11.291814,168.758096,0.13269,-0.899506,0.633224,1.717044,0.372584,-0.177274,78.130676,57.150162,-133.989395,,,
729706367.701892,-58.262819,-11.291814,168.758096,0.13269,-0.899506,0.633224,1.717044,0.372584,-0.177274,78.130676,57.150162,-133.989395,,,
729706367.705224,-57.738883,-11.099559,168.845627,0.123184,-0.90007,0.628128,1.851488,0.426943,-0.202942,78.130676,57.150162,-133.989395,,,
729706367.708551,-57.199508,-10.903868,168.928108,0.123184,-0.90007,0.628128,1.851488,0.426943,-0.202942,78.130676,57.150162,-133.989395,,,
729706367.711904,-57.199508,-10.903868,168.928108,0.123184,-0.90007,0.628128,1.851488,0.426943,-0.202942,78.130676,57.150162,-133.989395,,,
729706367.715297,-56.64869,-10.706717,169.002681,0.127304,-0.894943,0.611008,1.927518,0.486329,-0.230396,78.130676,57.150162,-133.989395,,,
729706367.718541,-56.089656,-10.509051,169.067894,0.127304,-0.894943,0.611008,1.927518,0.486329,-0.230396,78.130676,57.150162,-133.989395,,,
729706367.721954,-56.089656,-10.509051,169.067894,0.127304,-0.894943,0.611008,1.927518,0.486329,-0.230396,78.130676,57.150162,-133.989395,,,
729706367.725215,-55.525636,-10.311275,169.123336,0.129822,-0.885056,0.600235,1.957438,0.545756,-0.257535,78.130676,57.150162,-133.989395,,,
729706367.728544,-54.957603,-10.116839,169.167172,0.129822,-0.885056,0.600235,1.957438,0.545756,-0.257535,78.130676,57.150162,-133.989395,,,
729706367.731902,-54.957603,-10.116839,169.167172,0.129822,-0.885056,0.600235,1.957438,0.545756,-0.257535,78.130676,57.150162,-133.989395,,,
729706367.735291,-54.38383,-9.928653,169.199748,0.127441,-0.87352,0.592804,1.990758,0.567642,-0.293809,78.130676,57.150162,-133.989395,,,
729706367.738547,-53.802031,-9.750462,169.221254,0.127441,-0.87352,0.592804,1.990758,0.567642,-0.293809,78.57724,54.433838,-136.205948,,,
729706367.741963,-53.802031,-9.750462,169.221254,0.127441,-0.87352,0.592804,1.990758,0.567642,-0.293809,78.57724,54.433838,-136.205948,,,
729706367.74528,-53.208884,-9.584298,169.232392,0.123917,-0.858719,0.599518,2.062979,0.542408,-0.33628,78.57724,54.433838,-136.205948,,,
729706367.748544,-52.600973,-9.430458,169.235466,0.123917,-0.858719,0.599518,2.062979,0.542408,-0.33628,78.57724,54.433838,-136.205948,,,
729706367.75191,-52.600973,-9.430458,169.235466,0.123917,-0.858719,0.599518,2.062979,0.542408,-0.33628,78.57724,54.433838,-136.205948,,,
729706367.755292,-51.976022,-9.289602,169.231068,0.116837,-0.847351,0.626709,2.176303,0.492901,-0.376202,78.57724,54.433838,-136.205948,,,
729706367.758533,-51.332711,-9.161976,169.21849,0.116837,-0.847351,0.626709,2.176303,0.492901,-0.376202,78.57724,54.433838,-136.205948,,,
729706367.761907,-51.332711,-9.161976,169.21849,0.116837,-0.847351,0.626709,2.176303,0.492901,-0.376202,78.57724,54.433838,-136.205948,,,
729706367.765239,-50.670408,-9.046157,169.19758,0.118317,-0.834106,0.662933,2.302206,0.454769,-0.424762,78.57724,54.433838,-136.205948,,,
729706367.768588,-49.989634,-8.941835,169.16698,0.118317,-0.834106,0.662933,2.302206,0.454769,-0.424762,78.57724,54.433838,-136.205948,,,
729706367.771891,-49.989634,-8.941835,169.16698,0.118317,-0.834106,0.662933,2.302206,0.454769,-0.424762,78.57724,54.433838,-136.205948,,,
729706367.775235,-49.291046,-8.847492,169.127232,0.117599,-0.818314,0.69136,2.419186,0.431784,-0.478704,78.57724,54.433838,-136.205948,,,
729706367.778549,-48.576505,-8.761005,169.079338,0.117599,-0.818314,0.69136,2.419186,0.431784,-0.478704,79.050003,50.86911,-139.323807,,,
729706367.781945,-48.576505,-8.761005,169.079338,0.117599,-0.818314,0.69136,2.419186,0.431784,-0.478704,79.050003,50.86911,-139.323807,,,
729706367.785219,-47.84878,-8.679952,169.023803,0.110352,-0.794754,0.70575,2.507061,0.430802,-0.524244,79.050003,50.86911,-139.323807,,,
729706367.788553,-47.110173,-8.603129,168.96026,0.110352,-0.794754,0.70575,2.507061,0.430802,-0.524244,79.050003,50.86911,-139.323807,,,
729706367.791897,-47.110173,-8.603129,168.96026,0.110352,-0.794754,0.70575,2.507061,0.430802,-0.524244,79.050003,50.86911,-139.323807,,,
729706367.795279,-46.365788,-8.529168,168.887716,0.113373,-0.765793,0.710449,2.542769,0.452536,-0.570805,79.050003,50.86911,-139.323807,,,
729706367.798553,-45.619504,-8.455751,168.805728,0.113373,-0.765793,0.710449,2.542769,0.452536,-0.570805,79.050003,50.86911,-139.323807,,,
729706367.801882,-45.619504,-8.455751,168.805728,0.113373,-0.765793,0.710449,2.542769,0.452536,-0.570805,79.050003,50.86911,-139.323807,,,
729706367.805225,-44.873326,-8.381624,168.714091,0.121078,-0.745193,0.707657,2.537308,0.499894,-0.616803,79.050003,50.86911,-139.323807,,,
729706367.808649,-44.126597,-8.307787,168.613029,0.121078,-0.745193,0.707657,2.537308,0.499894,-0.616803,79.050003,50.86911,-139.323807,,,
729706367.811889,-44.126597,-8.307787,168.613029,0.121078,-0.745193,0.707657,2.537308,0.499894,-0.616803,79.050003,50.86911,-139.323807,,,
729706367.815241,-43.377236,-8.236297,168.504227,0.125214,-0.740097,0.706299,2.552191,0.51415,-0.658558,79.050003,50.86911,-139.323807,,,
729706367.818561,-42.620661,-8.169728,168.387736,0.125214,-0.740097,0.706299,2.552191,0.51415,-0.658558,79.174606,46.658051,-141.642197,,,
729706367.821964,-42.620661,-8.169728,168.387736,0.125214,-0.740097,0.706299,2.552191,0.51415,-0.658558,79.174606,46.658051,-141.642197,,,
729706367.825238,-41.855016,-8.109557,168.263434,0.126877,-0.737366,0.724091,2.610135,0.497909,-0.709333,79.174606,46.658051,-141.642197,,,
729706367.828606,-41.079631,-8.055758,168.132945,0.126877,-0.737366,0.724091,2.610135,0.497909,-0.709333,79.174606,46.658051,-141.642197,,,
729706367.831883,-41.079631,-8.055758,168.132945,0.126877,-0.737366,0.724091,2.610135,0.497909,-0.709333,79.174606,46.658051,-141.642197,,,
729706367.835298,-40.295923,-8.008015,167.998054,0.128769,-0.721817,0.744568,2.664006,0.465839,-0.743979,79.174606,46.658051,-141.642197,,,
729706367.838572,-39.506789,-7.96708,167.860455,0.128769,-0.721817,0.744568,2.664006,0.465839,-0.743979,79.174606,46.658051,-141.642197,,,
729706367.841895,-39.506789,-7.96708,167.860455,0.128769,-0.721817,0.744568,2.664006,0.465839,-0.743979,79.174606,46.658051,-141.642197,,,
729706367.845217,-38.716275,-7.932438,167.72204,0.118652,-0.694778,0.748428,2.672301,0.414817,-0.754616,79.174606,46.658051,-141.642197,,,
729706367.848603,-37.9296,-7.903793,167.583943,0.118652,-0.694778,0.748428,2.672301,0.414817,-0.754616,79.174606,46.658051,-141.642197,,,
729706367.851894,-37.9296,-7.903793,167.583943,0.118652,-0.694778,0.748428,2.672301,0.414817,-0.754616,79.174606,46.658051,-141.642197,,,
729706367.855223,-37.151438,-7.880275,167.448272,0.106354,-0.661285,0.740112,2.614651,0.357871,-0.738905,79.174606,46.658051,-141.642197,,,
729706367.858555,-36.387584,-7.863215,167.316149,0.106354,-0.661285,0.740112,2.614651,0.357871,-0.738905,79.49472,41.840103,-143.790359,,,
729706367.86188,-36.387584,-7.863215,167.316149,0.106354,-0.661285,0.740112,2.614651,0.357871,-0.738905,79.49472,41.840103,-143.790359,,,
729706367.865217,-35.64196,-7.853876,167.188532,0.091766,-0.636765,0.719406,2.491344,0.275317,-0.702466,79.49472,41.840103,-143.790359,,,
729706367.868614,-34.913574,-7.853421,167.066251,0.091766,-0.636765,0.719406,2.491344,0.275317,-0.702466,79.49472,41.840103,-143.790359,,,
729706367.871889,-34.913574,-7.853421,167.066251,0.091766,-0.636765,0.719406,2.491344,0.275317,-0.702466,79.49472,41.840103,-143.790359,,,
729706367.875222,-34.199466,-7.862056,166.949364,0.081894,-0.626038,0.717773,2.397727,0.181549,-0.6653,79.49472,41.840103,-143.790359,,,
729706367.878592,-33.497185,-7.8778,166.83762,0.081894,-0.626038,0.717773,2.397727,0.181549,-0.6653,79.49472,41.840103,-143.790359,,,
729706367.881902,-33.497185,-7.8778,166.83762,0.081894,-0.626038,0.717773,2.397727,0.181549,-0.6653,79.49472,41.840103,-143.790359,,,
729706367.885239,-32.806058,-7.89666,166.731725,0.086029,-0.621552,0.751282,2.325879,0.129339,-0.628041,79.49472,41.840103,-143.790359,,,
729706367.888591,-32.1242,-7.91479,166.631817,0.086029,-0.621552,0.751282,2.325879,0.129339,-0.628041,79.49472,41.840103,-143.790359,,,
729706367.891889,-32.1242,-7.91479,166.631817,0.086029,-0.621552,0.751282,2.325879,0.129339,-0.628041,79.49472,41.840103,-143.790359,,,
729706367.895242,-31.450921,-7.929287,166.536839,0.095276,-0.602219,0.791992,2.271206,0.12928,-0.59712,79.49472,41.840103,-143.790359,,,
729706367.89856,-30.784883,-7.937118,166.446915,0.095276,-0.602219,0.791992,2.271206,0.12928,-0.59712,79.49472,41.840103,-143.790359,,,
729706367.901974,-30.784883,-7.937118,166.446915,0.095276,-0.602219,0.791992,2.271206,0.12928,-0.59712,79.613266,37.502686,-145.639938,,,
729706367.90522,-30.125445,-7.935443,166.362409,0.109726,-0.572754,0.82959,2.23096,0.169824,-0.562972,79.613266,37.502686,-145.639938,,,
729706367.9086,-29.472314,-7.922486,166.282819,0.109726,-0.572754,0.82959,2.23096,0.169824,-0.562972,79.613266,37.502686,-145.639938,,,
729706367.911891,-29.472314,-7.922486,166.282819,0.109726,-0.572754,0.82959,2.23096,0.169824,-0.562972,79.613266,37.502686,-145.639938,,,
729706367.915279,-28.825966,-7.896465,166.208649,0.122787,-0.540131,0.849854,2.190042,0.236684,-0.525854,79.613266,37.502686,-145.639938,,,
729706367.918558,-28.184667,-7.857933,166.140628,0.122787,-0.540131,0.849854,2.190042,0.236684,-0.525854,79.613266,37.502686,-145.639938,,,
729706367.921882,-28.184667,-7.857933,166.140628,0.122787,-0.540131,0.849854,2.190042,0.236684,-0.525854,79.613266,37.502686,-145.639938,,,
729706367.925222,-27.54687,-7.806834,166.079708,0.125427,-0.516068,0.859009,2.172767,0.296054,-0.478521,79.613266,37.502686,-145.639938,,,
729706367.928632,-26.91244,-7.743899,166.02503,0.125427,-0.516068,0.859009,2.172767,0.296054,-0.478521,79.613266,37.502686,-145.639938,,,
729706367.931873,-26.91244,-7.743899,166.02503,0.125427,-0.516068,0.859009,2.172767,0.296054,-0.478521,79.613266,37.502686,-145.639938,,,
729706367.935227,-26.282831,-7.669933,165.975442,0.130356,-0.493958,0.863693,2.144178,0.352745,-0.439361,79.613266,37.502686,-145.639938,,,
729706367.938605,-25.659049,-7.58558,165.929926,0.130356,-0.493958,0.863693,2.144178,0.352745,-0.439361,79.613266,37.502686,-145.639938,,,
729706367.941956,-25.659049,-7.58558,165.929926,0.130356,-0.493958,0.863693,2.144178,0.352745,-0.439361,79.703522,33.473328,-146.705658,,,
729706367.945241,-25.041674,-7.491558,165.88668,0.137085,-0.469879,0.86377,2.102615,0.409714,-0.414255,79.703522,33.473328,-146.705658,,,
729706367.948555,-25.041674,-7.491558,165.88668,0.137085,-0.469879,0.86377,2.102615,0.409714,-0.414255,79.703522,33.473328,-146.705658,,,
729706367.951893,-24.432192,-7.389449,165.843733,0.137085,-0.469879,0.86377,2.102615,0.409714,-0.414255,79.703522,33.473328,-146.705658,,,
729706367.95527,-23.831087,-7.280613,165.800979,0.136963,-0.44664,0.856552,2.045844,0.452566,-0.399247,79.703522,33.473328,-146.705658,,,
729706367.958631,-23.239051,-7.167461,165.7591,0.136963,-0.44664,0.856552,2.045844,0.452566,-0.399247,79.703522,33.473328,-146.705658,,,
729706367.961903,-23.239051,-7.167461,165.7591,0.136963,-0.44664,0.856552,2.045844,0.452566,-0.399247,79.703522,33.473328,-146.705658,,,
729706367.965239,-22.656437,-7.052747,165.718191,0.121292,-0.428864,0.852295,1.982514,0.457479,-0.378153,79.703522,33.473328,-146.705658,,,
729706367.968552,-22.656437,-7.052747,165.718191,0.121292,-0.428864,0.852295,1.982514,0.457479,-0.378153,79.703522,33.473328,-146.705658,,,
729706367.971887,-22.082747,-6.937896,165.678543,0.121292,-0.428864,0.852295,1.982514,0.457479,-0.378153,79.703522,33.473328,-146.705658,,,
729706367.975243,-21.5181,-6.823555,165.640154,0.102753,-0.410858,0.85495,1.923477,0.447904,-0.356029,79.703522,33.473328,-146.705658,,,
729706367.978599,-21.5181,-6.710147,165.602725,0.102753,-0.410858,0.85495,1.923477,0.447904,-0.356029,79.703522,33.473328,-146.705658,,,
729706367.981894,-20.961819,-6.710147,165.602725,0.102753,-0.410858,0.85495,1.923477,0.447904,-0.356029,80.583344,29.556625,-147.464783,,,
729706367.985239,-20.412445,-6.598437,165.565741,0.101578,-0.39006,0.865463,1.878412,0.432434,-0.341312,80.583344,29.556625,-147.464783,,,
729706367.988571,-20.412445,-6.598437,165.565741,0.101578,-0.39006,0.865463,1.878412,0.432434,-0.341312,80.583344,29.556625,-147.464783,,,
729706367.991951,-19.867207,-6.489439,165.527486,0.101578,-0.39006,0.865463,1.878412,0.432434,-0.341312,80.583344,29.556625,-147.464783,,,
729706367.995221,-19.323389,-6.381089,165.487238,0.108841,-0.371445,0.891571,1.869365,0.429975,-0.347239,80.583344,29.556625,-147.464783,,,
729706367.998557,-19.323389,-6.381089,165.487238,0.108841,-0.371445,0.891571,1.869365,0.429975,-0.347239,80.583344,29.556625,-147.464783,,,
729706368.001918,-18.778026,-6.270966,165.444627,0.108841,-0.371445,0.891571,1.869365,0.429975,-0.347239,80.583344,29.556625,-147.464783,,,
729706368.005221,-18.227949,-6.158245,165.399134,0.112625,-0.359421,0.925064,1.902287,0.451583,-0.363654,80.583344,29.556625,-147.464783,,,
729706368.008625,-18.227949,-6.158245,165.399134,0.112625,-0.359421,0.925064,1.902287,0.451583,-0.363654,80.583344,29.556625,-147.464783,,,
729706368.0119,-17.66869,-6.043122,165.349252,0.112625,-0.359421,0.925064,1.902287,0.451583,-0.363654,80.583344,29.556625,-147.464783,,,
729706368.01524,-17.098896,-5.926123,165.294172,0.117996,-0.340637,0.95224,1.974152,0.47204,-0.399184,80.583344,29.556625,-147.464783,,,
729706368.018559,-17.098896,-5.926123,165.294172,0.117996,-0.340637,0.95224,1.974152,0.47204,-0.399184,80.583344,29.556625,-147.464783,,,
729706368.021907,-16.518512,-5.807291,165.234236,0.117996,-0.340637,0.95224,1.974152,0.47204,-0.399184,81.7173,25.58783,-147.523834,,,
729706368.025219,-15.93,-5.685899,165.169729,0.116241,-0.316025,0.960281,2.029321,0.494329,-0.428271,81.7173,25.58783,-147.523834,,,
729706368.02855,-15.93,-5.685899,165.169729,0.116241,-0.316025,0.960281,2.029321,0.494329,-0.428271,81.7173,25.58783,-147.523834,,,
729706368.031921,-15.337169,-5.561999,165.101947,0.116241,-0.316025,0.960281,2.029321,0.494329,-0.428271,81.7173,25.58783,-147.523834,,,
729706368.0353,-14.74512,-5.436261,165.03288,0.101364,-0.290436,0.94606,2.024309,0.504189,-0.428793,81.7173,25.58783,-147.523834,,,
729706368.038552,-14.74512,-5.436261,165.03288,0.101364,-0.290436,0.94606,2.024309,0.504189,-0.428793,81.7173,25.58783,-147.523834,,,
729706368.041899,-14.159075,-5.311181,164.964179,0.101364,-0.290436,0.94606,2.024309,0.504189,-0.428793,81.7173,25.58783,-147.523834,,,
729706368.045222,-13.585342,-5.187916,164.8969,0.085342,-0.264587,0.915131,1.941003,0.483904,-0.40381,81.7173,25.58783,-147.523834,,,
729706368.048626,-13.585342,-5.187916,164.8969,0.085342,-0.264587,0.915131,1.941003,0.483904,-0.40381,81.7173,25.58783,-147.523834,,,
729706368.051985,-13.03049,-5.066773,164.831776,0.085342,-0.264587,0.915131,1.941003,0.483904,-0.40381,81.7173,25.58783,-147.523834,,,
729706368.055217,-12.498268,-4.947537,164.769354,0.071655,-0.238754,0.884628,1.786638,0.461702,-0.364704,81.7173,25.58783,-147.523834,,,
729706368.058877,-11.990724,-4.829762,164.709557,0.071655,-0.238754,0.884628,1.786638,0.461702,-0.364704,81.7173,25.58783,-147.523834,,,
729706368.061879,-11.990724,-4.829762,164.709557,0.071655,-0.238754,0.884628,1.786638,0.461702,-0.364704,81.7173,25.58783,-147.523834,,,
729706368.065227,-11.507344,-4.712777,164.652383,0.062744,-0.221893,0.879684,1.621335,0.448421,-0.326457,82.869049,21.822327,-147.539871,,,
729706368.068553,-11.507344,-4.712777,164.652383,0.062744,-0.221893,0.879684,1.621335,0.448421,-0.326457,82.869049,21.822327,-147.539871,,,
729706368.07196,-11.046335,-4.594875,164.597483,0.062744,-0.221893,0.879684,1.621335,0.448421,-0.326457,82.869049,21.822327,-147.539871,,,
729706368.075211,-10.605029,-4.473734,164.54551,0.056793,-0.209381,0.903717,1.488217,0.464057,-0.289796,82.869049,21.822327,-147.539871,,,
729706368.07857,-10.605029,-4.473734,164.54551,0.056793,-0.209381,0.903717,1.488217,0.464057,-0.289796,82.869049,21.822327,-147.539871,,,
