Time (sec),Pitch (deg),Roll (deg),Yaw(deg),X-Acceleration (g),Y-Acceleration (g),Z-Acceleration (g),Pitch Rate (deg/sec),Roll Rate (deg/sec),Yaw Rate (deg/sec),Magnetic Field in X direction (uT),Magnetic Field in Y direction (uT),Magnetic Field in Z Direction (uT),Latitude (deg),Longitude (deg),Altitude (m)
729717183.336099,-0.793636,3.283734,143.265821,-0.057098,-0.007477,0.990295,-0.005365,0.014668,-0.01444,92.348206,35.92749,-148.876434,,,
729717183.340539,-0.793637,3.283734,104.652616,-0.057098,-0.007477,0.990295,-0.005365,0.014668,-0.01444,92.348206,35.92749,-148.876434,,,
729717183.342533,-0.793636,3.283737,107.725617,-0.057098,-0.007477,0.990295,-0.005365,0.014668,-0.01444,92.348206,35.92749,-148.876434,,,
729717183.342761,-0.797979,3.287898,143.261969,-0.057098,-0.007477,0.990295,-0.005365,0.014668,-0.01444,92.348206,35.92749,-148.876434,,,
729717183.343752,-0.797981,3.287898,104.648767,-0.057098,-0.007477,0.990295,-0.005365,0.014668,-0.01444,92.348206,35.92749,-148.876434,,,
729717183.345114,-0.797981,3.287898,104.648767,-0.057098,-0.007477,0.990295,-0.005365,0.014668,-0.01444,92.348206,35.92749,-148.876434,,,
729717183.346608,-0.79798,3.287901,107.725617,-0.060364,-0.008469,0.987244,-0.019918,0.014434,-0.015325,92.348206,35.92749,-148.876434,,,
729717183.34683,-0.80348,3.291486,143.258106,-0.060364,-0.008469,0.987244,-0.019918,0.014434,-0.015325,92.348206,35.92749,-148.876434,,,
729717183.349134,-0.803481,3.291486,104.644903,-0.060364,-0.008469,0.987244,-0.019918,0.014434,-0.015325,92.348206,35.92749,-148.876434,,,
729717183.349697,-0.80348,3.291489,107.721754,-0.060364,-0.008469,0.987244,-0.019918,0.014434,-0.015325,92.348206,35.92749,-148.876434,,,
729717183.349875,-0.80348,3.291486,143.258106,-0.060364,-0.008469,0.987244,-0.019918,0.014434,-0.015325,92.348206,35.92749,-148.876434,,,
729717183.352807,-0.810332,3.294089,104.641552,-0.060364,-0.008469,0.987244,-0.019918,0.014434,-0.015325,92.521454,36.093246,-149.026947,,,
729717183.354051,-0.810331,3.294092,107.718402,-0.060364,-0.008469,0.987244,-0.019918,0.014434,-0.015325,92.521454,36.093246,-149.026947,,,
729717183.354246,-0.810331,3.29409,143.254753,-0.060364,-0.008469,0.987244,-0.019918,0.014434,-0.015325,92.521454,36.093246,-149.026947,,,
729717183.355066,-0.810332,3.294089,104.641552,-0.060364,-0.008469,0.987244,-0.019918,0.014434,-0.015325,92.521454,36.093246,-149.026947,,,
729717183.355581,-0.810331,3.294092,107.718402,-0.060364,-0.008469,0.987244,-0.019918,0.014434,-0.015325,92.521454,36.093246,-149.026947,,,
729717183.356124,-0.817229,3.295245,143.251917,-0.066528,-0.010834,0.984131,-0.021687,0.00524,-0.01175,92.521454,36.093246,-149.026947,,,
729717183.359845,-0.81723,3.295245,104.638711,-0.066528,-0.010834,0.984131,-0.021687,0.00524,-0.01175,92.521454,36.093246,-149.026947,,,
729717183.36137,-0.81723,3.295248,107.715562,-0.066528,-0.010834,0.984131,-0.021687,0.00524,-0.01175,92.521454,36.093246,-149.026947,,,
729717183.361566,-0.82254,3.294473,143.248955,-0.066528,-0.010834,0.984131,-0.021687,0.00524,-0.01175,92.521454,36.093246,-149.026947,,,
729717183.362157,-0.822541,3.294473,104.635749,-0.066528,-0.010834,0.984131,-0.021687,0.00524,-0.01175,92.521454,36.093246,-149.026947,,,
729717183.362967,-0.82254,3.294476,107.7126,-0.066528,-0.010834,0.984131,-0.021687,0.00524,-0.01175,92.521454,36.093246,-149.026947,,,
729717183.36318,-0.82254,3.294473,143.248955,-0.066528,-0.010834,0.984131,-0.021687,0.00524,-0.01175,92.521454,36.093246,-149.026947,,,
729717183.365211,-0.822541,3.294473,104.635749,-0.066528,-0.010834,0.984131,-0.021687,0.00524,-0.01175,92.521454,36.093246,-149.026947,,,
729717183.365557,-0.82254,3.294476,107.7126,-0.066528,-0.010834,0.984131,-0.021687,0.00524,-0.01175,92.521454,36.093246,-149.026947,,,
729717183.366126,-0.827482,3.290913,143.245775,-0.068466,-0.012466,0.98674,-0.016996,-0.014611,-0.012995,92.521454,36.093246,-149.026947,,,
729717183.370553,-0.827483,3.290913,104.632568,-0.068466,-0.012466,0.98674,-0.016996,-0.014611,-0.012995,92.521454,36.093246,-149.026947,,,
729717183.372787,-0.83225,3.283848,107.706177,-0.068466,-0.012466,0.98674,-0.016996,-0.014611,-0.012995,92.521454,36.093246,-149.026947,,,
729717183.373014,-0.83225,3.283845,143.242533,-0.068466,-0.012466,0.98674,-0.016996,-0.014611,-0.012995,92.521454,36.093246,-149.026947,,,
729717183.373492,-0.832251,3.283845,104.629326,-0.068466,-0.012466,0.98674,-0.016996,-0.014611,-0.012995,92.521454,36.093246,-149.026947,,,
729717183.375093,-0.832251,3.283845,104.629326,-0.068466,-0.012466,0.98674,-0.016996,-0.014611,-0.012995,92.521454,36.093246,-149.026947,,,
729717183.375507,-0.83225,3.283848,107.706177,-0.068466,-0.012466,0.98674,-0.016996,-0.014611,-0.012995,92.521454,36.093246,-149.026947,,,
729717183.376098,-0.8356,3.274871,143.238298,-0.067093,-0.011673,0.988174,-0.00695,-0.030627,-0.019461,92.521454,36.093246,-149.026947,,,
729717183.379478,-0.835601,3.274871,104.625096,-0.067093,-0.011673,0.988174,-0.00695,-0.030627,-0.019461,92.521454,36.093246,-149.026947,,,
729717183.381066,-0.8356,3.274873,107.701947,-0.067093,-0.011673,0.988174,-0.00695,-0.030627,-0.019461,92.521454,36.093246,-149.026947,,,
729717183.381227,-0.837482,3.26464,143.233623,-0.067093,-0.011673,0.988174,-0.00695,-0.030627,-0.019461,92.521454,36.093246,-149.026947,,,
729717183.382001,-0.837484,3.26464,104.62042,-0.067093,-0.011673,0.988174,-0.00695,-0.030627,-0.019461,92.521454,36.093246,-149.026947,,,
729717183.382446,-0.837483,3.264643,107.697271,-0.067093,-0.011673,0.988174,-0.00695,-0.030627,-0.019461,92.521454,36.093246,-149.026947,,,
729717183.38275,-0.837482,3.26464,143.233623,-0.067093,-0.011673,0.988174,-0.00695,-0.030627,-0.019461,92.521454,36.093246,-149.026947,,,
729717183.385211,-0.837484,3.26464,104.62042,-0.067093,-0.011673,0.988174,-0.00695,-0.030627,-0.019461,92.521454,36.093246,-149.026947,,,
729717183.385514,-0.837483,3.264643,107.697271,-0.067093,-0.011673,0.988174,-0.00695,-0.030627,-0.019461,92.521454,36.093246,-149.026947,,,
729717183.386084,-0.837553,3.253787,143.228926,-0.063049,-0.013916,0.992905,0.005423,-0.035665,-0.018906,92.521454,36.093246,-149.026947,,,
729717183.389905,-0.837554,3.253787,104.615724,-0.063049,-0.013916,0.992905,0.005423,-0.035665,-0.018906,92.521454,36.093246,-149.026947,,,
729717183.392103,-0.837553,3.25379,107.692575,-0.063049,-0.013916,0.992905,0.005423,-0.035665,-0.018906,92.391525,36.225937,-149.351028,,,
729717183.392291,-0.835915,3.242013,143.22477,-0.063049,-0.013916,0.992905,0.005423,-0.035665,-0.018906,92.391525,36.225937,-149.351028,,,
729717183.393332,-0.835917,3.242013,104.611565,-0.063049,-0.013916,0.992905,0.005423,-0.035665,-0.018906,92.391525,36.225937,-149.351028,,,
729717183.393498,-0.835915,3.242013,143.22477,-0.063049,-0.013916,0.992905,0.005423,-0.035665,-0.018906,92.391525,36.225937,-149.351028,,,
729717183.395117,-0.835917,3.242013,104.611565,-0.063049,-0.013916,0.992905,0.005423,-0.035665,-0.018906,92.391525,36.225937,-149.351028,,,
729717183.395769,-0.835916,3.242016,107.688416,-0.063049,-0.013916,0.992905,0.005423,-0.035665,-0.018906,92.391525,36.225937,-149.351028,,,
729717183.396094,-0.834101,3.230961,143.222589,-0.060471,-0.018478,0.994232,0.006627,-0.034023,-0.005163,92.391525,36.225937,-149.351028,,,
729717183.399439,-0.834102,3.230961,104.609384,-0.060471,-0.018478,0.994232,0.006627,-0.034023,-0.005163,92.391525,36.225937,-149.351028,,,
729717183.400558,-0.834101,3.230964,107.686235,-0.060471,-0.018478,0.994232,0.006627,-0.034023,-0.005163,92.391525,36.225937,-149.351028,,,
729717183.4007,-0.834101,3.230961,143.222589,-0.060471,-0.018478,0.994232,0.006627,-0.034023,-0.005163,92.391525,36.225937,-149.351028,,,
729717183.401927,-0.831623,3.221174,104.609163,-0.060471,-0.018478,0.994232,0.006627,-0.034023,-0.005163,92.391525,36.225937,-149.351028,,,
729717183.402448,-0.831623,3.221176,107.686014,-0.060471,-0.018478,0.994232,0.006627,-0.034023,-0.005163,92.391525,36.225937,-149.351028,,,
729717183.402748,-0.831622,3.221174,143.222367,-0.060471,-0.018478,0.994232,0.006627,-0.034023,-0.005163,92.391525,36.225937,-149.351028,,,
729717183.405201,-0.831623,3.221174,104.609163,-0.060471,-0.018478,0.994232,0.006627,-0.034023,-0.005163,92.391525,36.225937,-149.351028,,,
729717183.405423,-0.831623,3.221176,107.686014,-0.060471,-0.018478,0.994232,0.006627,-0.034023,-0.005163,92.391525,36.225937,-149.351028,,,
729717183.406097,-0.830281,3.21404,143.224076,-0.057999,-0.01976,0.996506,0.004183,-0.017614,0.008144,92.391525,36.225937,-149.351028,,,
729717183.410014,-0.830282,3.21404,104.610872,-0.057999,-0.01976,0.996506,0.004183,-0.017614,0.008144,92.391525,36.225937,-149.351028,,,
729717183.411667,-0.830281,3.214043,107.687723,-0.057999,-0.01976,0.996506,0.004183,-0.017614,0.008144,92.391525,36.225937,-149.351028,,,
729717183.411829,-0.828296,3.210643,143.22708,-0.057999,-0.01976,0.996506,0.004183,-0.017614,0.008144,92.391525,36.225937,-149.351028,,,
729717183.412027,-0.828298,3.210642,104.613876,-0.057999,-0.01976,0.996506,0.004183,-0.017614,0.008144,92.391525,36.225937,-149.351028,,,
729717183.412219,-0.828297,3.210645,107.690727,-0.057999,-0.01976,0.996506,0.004183,-0.017614,0.008144,92.391525,36.225937,-149.351028,,,
729717183.412749,-0.828296,3.210643,143.22708,-0.057999,-0.01976,0.996506,0.004183,-0.017614,0.008144,92.391525,36.225937,-149.351028,,,
729717183.415205,-0.828298,3.210642,104.613876,-0.057999,-0.01976,0.996506,0.004183,-0.017614,0.008144,92.391525,36.225937,-149.351028,,,
729717183.415425,-0.828297,3.210645,107.690727,-0.057999,-0.01976,0.996506,0.004183,-0.017614,0.008144,92.391525,36.225937,-149.351028,,,
729717183.4161,-0.829069,3.210262,143.230251,-0.050812,-0.017242,1.000565,-0.004734,0.005074,0.00886,92.391525,36.225937,-149.351028,,,
729717183.420339,-0.829071,3.210262,104.617047,-0.050812,-0.017242,1.000565,-0.004734,0.005074,0.00886,92.391525,36.225937,-149.351028,,,
729717183.422217,-0.82907,3.210265,107.693898,-0.050812,-0.017242,1.000565,-0.004734,0.005074,0.00886,92.391525,36.225937,-149.351028,,,
729717183.422377,-0.830559,3.212391,143.232688,-0.050812,-0.017242,1.000565,-0.004734,0.005074,0.00886,92.391525,36.225937,-149.351028,,,
729717183.42254,-0.83056,3.212391,104.619485,-0.050812,-0.017242,1.000565,-0.004734,0.005074,0.00886,92.391525,36.225937,-149.351028,,,
729717183.422664,-0.830559,3.212391,143.232688,-0.050812,-0.017242,1.000565,-0.004734,0.005074,0.00886,92.391525,36.225937,-149.351028,,,
729717183.425179,-0.83056,3.212391,104.619485,-0.050812,-0.017242,1.000565,-0.004734,0.005074,0.00886,92.391525,36.225937,-149.351028,,,
729717183.425501,-0.830559,3.212393,107.696336,-0.050812,-0.017242,1.000565,-0.004734,0.005074,0.00886,92.391525,36.225937,-149.351028,,,
729717183.426067,-0.836062,3.216008,143.234237,-0.048355,-0.014923,0.990845,-0.0227,0.021448,0.001749,92.391525,36.225937,-149.351028,,,
729717183.429769,-0.836063,3.216007,104.621033,-0.048355,-0.014923,0.990845,-0.0227,0.021448,0.001749,92.391525,36.225937,-149.351028,,,
729717183.430897,-0.836062,3.21601,107.697884,-0.048355,-0.014923,0.990845,-0.0227,0.021448,0.001749,92.391525,36.225937,-149.351028,,,
729717183.431002,-0.841803,3.227307,143.234427,-0.048355,-0.014923,0.990845,-0.0227,0.021448,0.001749,92.391525,36.225937,-149.351028,,,
729717183.432068,-0.841805,3.227307,104.621224,-0.048355,-0.014923,0.990845,-0.0227,0.021448,0.001749,92.315781,35.968079,-149.126999,,,
729717183.432686,-0.841804,3.22731,107.698075,-0.048355,-0.014923,0.990845,-0.0227,0.021448,0.001749,92.315781,35.968079,-149.126999,,,
729717183.432797,-0.841803,3.227307,143.234427,-0.048355,-0.014923,0.990845,-0.0227,0.021448,0.001749,92.315781,35.968079,-149.126999,,,
729717183.435165,-0.841805,3.227307,104.621224,-0.048355,-0.014923,0.990845,-0.0227,0.021448,0.001749,92.315781,35.968079,-149.126999,,,
729717183.435414,-0.841804,3.22731,107.698075,-0.048355,-0.014923,0.990845,-0.0227,0.021448,0.001749,92.315781,35.968079,-149.126999,,,
729717183.436059,-0.848049,3.238918,143.233189,-0.050522,-0.015366,1.002747,-0.019176,0.041586,-0.007777,92.315781,35.968079,-149.126999,,,
729717183.440317,-0.84805,3.238918,104.619987,-0.050522,-0.015366,1.002747,-0.019176,0.041586,-0.007777,92.315781,35.968079,-149.126999,,,
729717183.442224,-0.848049,3.23892,107.696838,-0.050522,-0.015366,1.002747,-0.019176,0.041586,-0.007777,92.315781,35.968079,-149.126999,,,
729717183.442337,-0.853094,3.250646,143.231864,-0.050522,-0.015366,1.002747,-0.019176,0.041586,-0.007777,92.315781,35.968079,-149.126999,,,
729717183.442643,-0.853095,3.250646,104.61866,-0.050522,-0.015366,1.002747,-0.019176,0.041586,-0.007777,92.315781,35.968079,-149.126999,,,
729717183.442745,-0.853094,3.250646,143.231864,-0.050522,-0.015366,1.002747,-0.019176,0.041586,-0.007777,92.315781,35.968079,-149.126999,,,
729717183.44517,-0.853095,3.250646,104.61866,-0.050522,-0.015366,1.002747,-0.019176,0.041586,-0.007777,92.315781,35.968079,-149.126999,,,
729717183.445545,-0.853094,3.250648,107.695511,-0.050522,-0.015366,1.002747,-0.019176,0.041586,-0.007777,92.315781,35.968079,-149.126999,,,
729717183.446068,-0.858446,3.254892,143.230666,-0.054535,-0.015945,0.990677,-0.017779,0.011165,-0.00646,92.315781,35.968079,-149.126999,,,
729717183.449099,-0.858447,3.254891,104.617461,-0.054535,-0.015945,0.990677,-0.017779,0.011165,-0.00646,92.315781,35.968079,-149.126999,,,
729717183.450008,-0.858447,3.254894,107.694312,-0.054535,-0.015945,0.990677,-0.017779,0.011165,-0.00646,92.315781,35.968079,-149.126999,,,
729717183.450171,-0.858446,3.254892,143.230666,-0.054535,-0.015945,0.990677,-0.017779,0.011165,-0.00646,92.315781,35.968079,-149.126999,,,
729717183.452035,-0.86191,3.259738,104.616915,-0.054535,-0.015945,0.990677,-0.017779,0.011165,-0.00646,92.315781,35.968079,-149.126999,,,
729717183.45248,-0.861909,3.25974,107.693766,-0.054535,-0.015945,0.990677,-0.017779,0.011165,-0.00646,92.315781,35.968079,-149.126999,,,
729717183.452744,-0.861909,3.259738,143.23012,-0.054535,-0.015945,0.990677,-0.017779,0.011165,-0.00646,92.315781,35.968079,-149.126999,,,
729717183.455204,-0.86191,3.259738,104.616915,-0.054535,-0.015945,0.990677,-0.017779,0.011165,-0.00646,92.315781,35.968079,-149.126999,,,
729717183.455429,-0.861909,3.25974,107.693766,-0.054535,-0.015945,0.990677,-0.017779,0.011165,-0.00646,92.315781,35.968079,-149.126999,,,
729717183.456091,-0.863492,3.260669,143.229292,-0.060776,-0.021606,0.98764,-0.000605,0.003614,-0.007142,92.315781,35.968079,-149.126999,,,
729717183.459018,-0.863493,3.260669,104.616089,-0.060776,-0.021606,0.98764,-0.000605,0.003614,-0.007142,92.315781,35.968079,-149.126999,,,
729717183.459705,-0.863492,3.260672,107.69294,-0.060776,-0.021606,0.98764,-0.000605,0.003614,-0.007142,92.315781,35.968079,-149.126999,,,
729717183.459884,-0.863492,3.260669,143.229292,-0.060776,-0.021606,0.98764,-0.000605,0.003614,-0.007142,92.315781,35.968079,-149.126999,,,
729717183.461995,-0.863274,3.260546,104.613917,-0.060776,-0.021606,0.98764,-0.000605,0.003614,-0.007142,92.315781,35.968079,-149.126999,,,
729717183.462196,-0.863273,3.260549,107.690768,-0.060776,-0.021606,0.98764,-0.000605,0.003614,-0.007142,92.315781,35.968079,-149.126999,,,
729717183.462743,-0.863273,3.260547,143.22712,-0.060776,-0.021606,0.98764,-0.000605,0.003614,-0.007142,92.315781,35.968079,-149.126999,,,
729717183.465199,-0.863274,3.260546,104.613917,-0.060776,-0.021606,0.98764,-0.000605,0.003614,-0.007142,92.315781,35.968079,-149.126999,,,
729717183.465419,-0.863273,3.260549,107.690768,-0.060776,-0.021606,0.98764,-0.000605,0.003614,-0.007142,92.315781,35.968079,-149.126999,,,
729717183.466096,-0.863283,3.254092,143.223636,-0.051819,-0.015656,0.990662,0.000983,-0.027908,-0.015981,92.315781,35.968079,-149.126999,,,
729717183.470552,-0.863284,3.254092,104.610433,-0.051819,-0.015656,0.990662,0.000983,-0.027908,-0.015981,92.315781,35.968079,-149.126999,,,
729717183.473305,-0.863283,3.254095,107.687284,-0.051819,-0.015656,0.990662,0.000983,-0.027908,-0.015981,92.302124,36.043335,-149.039246,,,
729717183.473495,-0.864228,3.246483,143.218799,-0.051819,-0.015656,0.990662,0.000983,-0.027908,-0.015981,92.302124,36.043335,-149.039246,,,
729717183.474173,-0.864229,3.246483,104.605595,-0.051819,-0.015656,0.990662,0.000983,-0.027908,-0.015981,92.302124,36.043335,-149.039246,,,
729717183.475012,-0.864229,3.246483,104.605595,-0.051819,-0.015656,0.990662,0.000983,-0.027908,-0.015981,92.302124,36.043335,-149.039246,,,
729717183.475668,-0.864228,3.246486,107.682446,-0.051819,-0.015656,0.990662,0.000983,-0.027908,-0.015981,92.302124,36.043335,-149.039246,,,
729717183.476099,-0.864867,3.240168,143.213021,-0.047714,-0.010956,0.986816,-0.000534,-0.010433,-0.022484,92.302124,36.043335,-149.039246,,,
729717183.480027,-0.864868,3.240168,104.599817,-0.047714,-0.010956,0.986816,-0.000534,-0.010433,-0.022484,92.302124,36.043335,-149.039246,,,
729717183.481602,-0.864867,3.240171,107.676668,-0.047714,-0.010956,0.986816,-0.000534,-0.010433,-0.022484,92.302124,36.043335,-149.039246,,,
729717183.481782,-0.867266,3.237478,143.206997,-0.047714,-0.010956,0.986816,-0.000534,-0.010433,-0.022484,92.302124,36.043335,-149.039246,,,
729717183.482406,-0.867267,3.237478,104.593795,-0.047714,-0.010956,0.986816,-0.000534,-0.010433,-0.022484,92.302124,36.043335,-149.039246,,,
729717183.483011,-0.867267,3.237481,107.670646,-0.047714,-0.010956,0.986816,-0.000534,-0.010433,-0.022484,92.302124,36.043335,-149.039246,,,
729717183.483161,-0.867266,3.237478,143.206997,-0.047714,-0.010956,0.986816,-0.000534,-0.010433,-0.022484,92.302124,36.043335,-149.039246,,,
729717183.485122,-0.867267,3.237478,104.593795,-0.047714,-0.010956,0.986816,-0.000534,-0.010433,-0.022484,92.302124,36.043335,-149.039246,,,
729717183.485438,-0.867267,3.237481,107.670646,-0.047714,-0.010956,0.986816,-0.000534,-0.010433,-0.022484,92.302124,36.043335,-149.039246,,,
729717183.486093,-0.869996,3.235213,143.201375,-0.048401,-0.014709,1.003357,-0.010681,-0.002642,-0.020224,92.302124,36.043335,-149.039246,,,
729717183.489056,-0.869998,3.235213,104.588173,-0.048401,-0.014709,1.003357,-0.010681,-0.002642,-0.020224,92.302124,36.043335,-149.039246,,,
729717183.489752,-0.869997,3.235216,107.665024,-0.048401,-0.014709,1.003357,-0.010681,-0.002642,-0.020224,92.302124,36.043335,-149.039246,,,
729717183.489911,-0.869996,3.235213,143.201375,-0.048401,-0.014709,1.003357,-0.010681,-0.002642,-0.020224,92.302124,36.043335,-149.039246,,,
729717183.492463,-0.875142,3.233745,104.583635,-0.048401,-0.014709,1.003357,-0.010681,-0.002642,-0.020224,92.302124,36.043335,-149.039246,,,
729717183.493289,-0.875141,3.233748,107.660486,-0.048401,-0.014709,1.003357,-0.010681,-0.002642,-0.020224,92.302124,36.043335,-149.039246,,,
729717183.493446,-0.87514,3.233746,143.196837,-0.048401,-0.014709,1.003357,-0.010681,-0.002642,-0.020224,92.302124,36.043335,-149.039246,,,
729717183.495113,-0.875142,3.233745,104.583635,-0.048401,-0.014709,1.003357,-0.010681,-0.002642,-0.020224,92.302124,36.043335,-149.039246,,,
729717183.495445,-0.875141,3.233748,107.660486,-0.048401,-0.014709,1.003357,-0.010681,-0.002642,-0.020224,92.302124,36.043335,-149.039246,,,
729717183.496179,-0.881411,3.235331,143.193568,-0.051437,-0.017456,0.99411,-0.023752,0.012056,-0.012218,92.302124,36.043335,-149.039246,,,
729717183.500397,-0.881412,3.235331,104.580366,-0.051437,-0.017456,0.99411,-0.023752,0.012056,-0.012218,92.302124,36.043335,-149.039246,,,
729717183.502269,-0.881411,3.235334,107.657217,-0.051437,-0.017456,0.99411,-0.023752,0.012056,-0.012218,92.302124,36.043335,-149.039246,,,
729717183.502439,-0.889407,3.236839,143.191331,-0.051437,-0.017456,0.99411,-0.023752,0.012056,-0.012218,92.302124,36.043335,-149.039246,,,
729717183.503084,-0.889409,3.236839,104.578129,-0.051437,-0.017456,0.99411,-0.023752,0.012056,-0.012218,92.302124,36.043335,-149.039246,,,
729717183.50322,-0.889407,3.236839,143.191331,-0.051437,-0.017456,0.99411,-0.023752,0.012056,-0.012218,92.302124,36.043335,-149.039246,,,
729717183.505097,-0.889409,3.236839,104.578129,-0.051437,-0.017456,0.99411,-0.023752,0.012056,-0.012218,92.302124,36.043335,-149.039246,,,
729717183.505735,-0.889408,3.236842,107.65498,-0.051437,-0.017456,0.99411,-0.023752,0.012056,-0.012218,92.302124,36.043335,-149.039246,,,
729717183.506097,-0.898552,3.241674,143.189667,-0.052811,-0.017792,0.994247,-0.032388,0.021043,-0.008849,92.302124,36.043335,-149.039246,,,
729717183.509101,-0.898553,3.241674,104.576461,-0.052811,-0.017792,0.994247,-0.032388,0.021043,-0.008849,92.302124,36.043335,-149.039246,,,
729717183.509869,-0.898553,3.241677,107.653312,-0.052811,-0.017792,0.994247,-0.032388,0.021043,-0.008849,92.302124,36.043335,-149.039246,,,
729717183.510024,-0.898552,3.241674,143.189667,-0.052811,-0.017792,0.994247,-0.032388,0.021043,-0.008849,92.302124,36.043335,-149.039246,,,
729717183.512281,-0.908845,3.245317,104.575083,-0.052811,-0.017792,0.994247,-0.032388,0.021043,-0.008849,92.302124,36.043335,-149.039246,,,
729717183.512947,-0.908844,3.245319,107.651934,-0.052811,-0.017792,0.994247,-0.032388,0.021043,-0.008849,92.302124,36.043335,-149.039246,,,
729717183.513099,-0.908843,3.245317,143.188289,-0.052811,-0.017792,0.994247,-0.032388,0.021043,-0.008849,92.302124,36.043335,-149.039246,,,
729717183.515637,-0.908845,3.245317,104.575083,-0.052811,-0.017792,0.994247,-0.032388,0.021043,-0.008849,92.177017,36.162537,-149.134476,,,
729717183.516417,-0.908844,3.245319,107.651934,-0.052811,-0.017792,0.994247,-0.032388,0.021043,-0.008849,92.177017,36.162537,-149.134476,,,
729717183.516584,-0.92035,3.251049,143.186781,-0.051498,-0.014328,0.993912,-0.039415,0.023892,-0.010357,92.177017,36.162537,-149.134476,,,
729717183.519185,-0.920351,3.251049,104.573575,-0.051498,-0.014328,0.993912,-0.039415,0.023892,-0.010357,92.177017,36.162537,-149.134476,,,
729717183.519954,-0.92035,3.251051,107.650426,-0.051498,-0.014328,0.993912,-0.039415,0.023892,-0.010357,92.177017,36.162537,-149.134476,,,
729717183.520095,-0.92035,3.251049,143.186781,-0.051498,-0.014328,0.993912,-0.039415,0.023892,-0.010357,92.177017,36.162537,-149.134476,,,
729717183.52224,-0.932371,3.255416,104.571531,-0.051498,-0.014328,0.993912,-0.039415,0.023892,-0.010357,92.177017,36.162537,-149.134476,,,
729717183.522905,-0.93237,3.255419,107.648382,-0.051498,-0.014328,0.993912,-0.039415,0.023892,-0.010357,92.177017,36.162537,-149.134476,,,
729717183.523064,-0.932369,3.255416,143.184737,-0.051498,-0.014328,0.993912,-0.039415,0.023892,-0.010357,92.177017,36.162537,-149.134476,,,
729717183.525143,-0.932371,3.255416,104.571531,-0.051498,-0.014328,0.993912,-0.039415,0.023892,-0.010357,92.177017,36.162537,-149.134476,,,
729717183.525439,-0.93237,3.255419,107.648382,-0.051498,-0.014328,0.993912,-0.039415,0.023892,-0.010357,92.177017,36.162537,-149.134476,,,
729717183.526138,-0.945609,3.260094,143.181923,-0.055862,-0.010986,0.996765,-0.044933,0.019182,-0.016181,92.177017,36.162537,-149.134476,,,
729717183.52924,-0.945611,3.260094,104.568716,-0.055862,-0.010986,0.996765,-0.044933,0.019182,-0.016181,92.177017,36.162537,-149.134476,,,
729717183.530133,-0.94561,3.260097,107.645567,-0.055862,-0.010986,0.996765,-0.044933,0.019182,-0.016181,92.177017,36.162537,-149.134476,,,
729717183.530275,-0.945609,3.260094,143.181923,-0.055862,-0.010986,0.996765,-0.044933,0.019182,-0.016181,92.177017,36.162537,-149.134476,,,
729717183.532156,-0.960033,3.264197,104.564998,-0.055862,-0.010986,0.996765,-0.044933,0.019182,-0.016181,92.177017,36.162537,-149.134476,,,
729717183.532778,-0.960032,3.264199,107.641849,-0.055862,-0.010986,0.996765,-0.044933,0.019182,-0.016181,92.177017,36.162537,-149.134476,,,
729717183.532934,-0.960032,3.264197,143.178204,-0.055862,-0.010986,0.996765,-0.044933,0.019182,-0.016181,92.177017,36.162537,-149.134476,,,
729717183.535231,-0.960033,3.264197,104.564998,-0.055862,-0.010986,0.996765,-0.044933,0.019182,-0.016181,92.177017,36.162537,-149.134476,,,
729717183.535612,-0.960032,3.264199,107.641849,-0.055862,-0.010986,0.996765,-0.044933,0.019182,-0.016181,92.177017,36.162537,-149.134476,,,
729717183.536261,-0.974218,3.264497,143.173729,-0.057892,-0.011917,0.993317,-0.049259,0.000152,-0.021564,92.177017,36.162537,-149.134476,,,
729717183.539629,-0.97422,3.264497,104.560523,-0.057892,-0.011917,0.993317,-0.049259,0.000152,-0.021564,92.177017,36.162537,-149.134476,,,
729717183.540897,-0.974219,3.264499,107.637374,-0.057892,-0.011917,0.993317,-0.049259,0.000152,-0.021564,92.177017,36.162537,-149.134476,,,
729717183.541095,-0.989838,3.261945,143.167931,-0.057892,-0.011917,0.993317,-0.049259,0.000152,-0.021564,92.177017,36.162537,-149.134476,,,
729717183.542253,-0.98984,3.261945,104.554725,-0.057892,-0.011917,0.993317,-0.049259,0.000152,-0.021564,92.177017,36.162537,-149.134476,,,
729717183.543077,-0.989839,3.261948,107.631576,-0.057892,-0.011917,0.993317,-0.049259,0.000152,-0.021564,92.177017,36.162537,-149.134476,,,
729717183.543287,-0.989838,3.261945,143.167931,-0.057892,-0.011917,0.993317,-0.049259,0.000152,-0.021564,92.177017,36.162537,-149.134476,,,
729717183.545268,-0.98984,3.261945,104.554725,-0.057892,-0.011917,0.993317,-0.049259,0.000152,-0.021564,92.177017,36.162537,-149.134476,,,
729717183.545551,-0.989839,3.261948,107.631576,-0.057892,-0.011917,0.993317,-0.049259,0.000152,-0.021564,92.177017,36.162537,-149.134476,,,
729717183.546166,-1.005833,3.25885,143.16088,-0.057892,-0.011917,0.993317,-0.054184,-0.008062,-0.030644,92.177017,36.162537,-149.134476,,,
729717183.550328,-1.005835,3.258849,104.547674,-0.05896,-0.011337,0.992584,-0.054184,-0.008062,-0.030644,92.177017,36.162537,-149.134476,,,
729717183.552473,-1.005834,3.258852,107.624525,-0.05896,-0.011337,0.992584,-0.054184,-0.008062,-0.030644,92.177017,36.162537,-149.134476,,,
729717183.552698,-1.020594,3.252612,143.153618,-0.05896,-0.011337,0.992584,-0.054184,-0.008062,-0.030644,92.177017,36.162537,-149.134476,,,
729717183.553708,-1.020596,3.252612,104.540411,-0.05896,-0.011337,0.992584,-0.054184,-0.008062,-0.030644,92.177017,36.162537,-149.134476,,,
729717183.555547,-1.020596,3.252612,104.540411,-0.05896,-0.011337,0.992584,-0.054184,-0.008062,-0.030644,92.446213,36.429306,-148.941528,,,
729717183.556789,-1.020595,3.252615,107.617263,-0.056778,-0.011948,0.993271,-0.054722,-0.005524,-0.025149,92.446213,36.429306,-148.941528,,,
729717183.556958,-1.036941,3.248849,143.147183,-0.056778,-0.011948,0.993271,-0.054722,-0.005524,-0.025149,92.446213,36.429306,-148.941528,,,
729717183.55883,-1.036943,3.248849,104.533978,-0.056778,-0.011948,0.993271,-0.054722,-0.005524,-0.025149,92.446213,36.429306,-148.941528,,,
729717183.559448,-1.036942,3.248852,107.610829,-0.056778,-0.011948,0.993271,-0.054722,-0.005524,-0.025149,92.446213,36.429306,-148.941528,,,
729717183.559655,-1.036941,3.248849,143.147183,-0.056778,-0.011948,0.993271,-0.054722,-0.005524,-0.025149,92.446213,36.429306,-148.941528,,,
729717183.562209,-1.052826,3.24661,104.528584,-0.056778,-0.011948,0.993271,-0.054722,-0.005524,-0.025149,92.446213,36.429306,-148.941528,,,
729717183.56281,-1.052825,3.246612,107.605435,-0.056778,-0.011948,0.993271,-0.054722,-0.005524,-0.025149,92.446213,36.429306,-148.941528,,,
729717183.563023,-1.052825,3.24661,143.14179,-0.056778,-0.011948,0.993271,-0.054722,-0.005524,-0.025149,92.446213,36.429306,-148.941528,,,
729717183.565237,-1.052826,3.24661,104.528584,-0.056778,-0.011948,0.993271,-0.054722,-0.005524,-0.025149,92.446213,36.429306,-148.941528,,,
729717183.565537,-1.052825,3.246612,107.605435,-0.056778,-0.011948,0.993271,-0.054722,-0.005524,-0.025149,92.446213,36.429306,-148.941528,,,
729717183.566152,-1.052825,3.251041,143.137933,-0.056778,-0.011948,0.993271,-0.054722,-0.005524,-0.025149,92.446213,36.429306,-148.941528,,,
729717183.571065,-1.071737,3.251041,104.524727,-0.0569,-0.013885,1.000046,-0.069682,0.026502,-0.015533,92.446213,36.429306,-148.941528,,,
729717183.573273,-1.092717,3.258634,107.599584,-0.0569,-0.013885,1.000046,-0.069682,0.026502,-0.015533,92.446213,36.429306,-148.941528,,,
729717183.573453,-1.092717,3.258631,143.135939,-0.0569,-0.013885,1.000046,-0.069682,0.026502,-0.015533,92.446213,36.429306,-148.941528,,,
729717183.574142,-1.092718,3.258631,104.522733,-0.0569,-0.013885,1.000046,-0.069682,0.026502,-0.015533,92.446213,36.429306,-148.941528,,,
729717183.575014,-1.092718,3.258631,104.522733,-0.0569,-0.013885,1.000046,-0.069682,0.026502,-0.015533,92.446213,36.429306,-148.941528,,,
729717183.575459,-1.092717,3.258634,107.599584,-0.0569,-0.013885,1.000046,-0.069682,0.026502,-0.015533,92.446213,36.429306,-148.941528,,,
729717183.576166,-1.11706,3.272581,143.135955,-0.054245,-0.014557,1.002075,-0.090329,0.060092,-0.002946,92.446213,36.429306,-148.941528,,,
729717183.579604,-1.117061,3.272581,104.522752,-0.054245,-0.014557,1.002075,-0.090329,0.060092,-0.002946,92.446213,36.429306,-148.941528,,,
729717183.580848,-1.11706,3.272584,107.599603,-0.054245,-0.014557,1.002075,-0.090329,0.060092,-0.002946,92.446213,36.429306,-148.941528,,,
729717183.580993,-1.11706,3.272581,143.135955,-0.054245,-0.014557,1.002075,-0.090329,0.060092,-0.002946,92.446213,36.429306,-148.941528,,,
729717183.582098,-1.143729,3.290202,104.524762,-0.054245,-0.014557,1.002075,-0.090329,0.060092,-0.002946,92.446213,36.429306,-148.941528,,,
729717183.582756,-1.143728,3.290205,107.601613,-0.054245,-0.014557,1.002075,-0.090329,0.060092,-0.002946,92.446213,36.429306,-148.941528,,,
729717183.582917,-1.143727,3.290202,143.137965,-0.054245,-0.014557,1.002075,-0.090329,0.060092,-0.002946,92.446213,36.429306,-148.941528,,,
729717183.585183,-1.143729,3.290202,104.524762,-0.054245,-0.014557,1.002075,-0.090329,0.060092,-0.002946,92.446213,36.429306,-148.941528,,,
729717183.585466,-1.143728,3.290205,107.601613,-0.054245,-0.014557,1.002075,-0.090329,0.060092,-0.002946,92.446213,36.429306,-148.941528,,,
729717183.586213,-1.172661,3.311705,143.141917,-0.054245,-0.014557,1.002075,-0.104889,0.08042,0.009582,92.446213,36.429306,-148.941528,,,
729717183.591294,-1.172662,3.311705,104.528713,-0.059067,-0.018326,1.002563,-0.104889,0.08042,0.009582,92.446213,36.429306,-148.941528,,,
729717183.594281,-1.202897,3.333279,107.611059,-0.059067,-0.018326,1.002563,-0.104889,0.08042,0.009582,92.446213,36.429306,-148.941528,,,
729717183.594522,-1.202897,3.333276,143.14741,-0.059067,-0.018326,1.002563,-0.104889,0.08042,0.009582,92.446213,36.429306,-148.941528,,,
729717183.595229,-1.202898,3.333276,104.534208,-0.059067,-0.018326,1.002563,-0.104889,0.08042,0.009582,92.446213,36.429306,-148.941528,,,
729717183.595935,-1.202897,3.333279,107.611059,-0.059067,-0.018326,1.002563,-0.104889,0.08042,0.009582,92.29097,36.500839,-148.792023,,,
729717183.596125,-1.202897,3.333276,143.14741,-0.059067,-0.018326,1.002563,-0.104889,0.08042,0.009582,92.29097,36.500839,-148.792023,,,
729717183.599982,-1.236579,3.357277,104.540453,-0.06636,-0.01889,1.000519,-0.121138,0.086219,0.013591,92.29097,36.500839,-148.792023,,,
729717183.60125,-1.236578,3.357279,107.617304,-0.06636,-0.01889,1.000519,-0.121138,0.086219,0.013591,92.29097,36.500839,-148.792023,,,
729717183.601397,-1.26956,3.38041,143.15982,-0.06636,-0.01889,1.000519,-0.121138,0.086219,0.013591,92.29097,36.500839,-148.792023,,,
729717183.60236,-1.269561,3.38041,104.546616,-0.06636,-0.01889,1.000519,-0.121138,0.086219,0.013591,92.29097,36.500839,-148.792023,,,
729717183.603035,-1.26956,3.380412,107.623467,-0.06636,-0.01889,1.000519,-0.121138,0.086219,0.013591,92.29097,36.500839,-148.792023,,,
729717183.603187,-1.26956,3.38041,143.15982,-0.06636,-0.01889,1.000519,-0.121138,0.086219,0.013591,92.29097,36.500839,-148.792023,,,
729717183.605152,-1.269561,3.38041,104.546616,-0.06636,-0.01889,1.000519,-0.121138,0.086219,0.013591,92.29097,36.500839,-148.792023,,,
729717183.605424,-1.26956,3.380412,107.623467,-0.06636,-0.01889,1.000519,-0.121138,0.086219,0.013591,92.29097,36.500839,-148.792023,,,
729717183.606111,-1.26956,3.38041,143.15982,-0.06636,-0.01889,1.000519,-0.121138,0.086219,0.013591,92.29097,36.500839,-148.792023,,,
729717183.609282,-1.306009,3.404267,104.551626,-0.066238,-0.016006,1.002686,-0.128037,0.086335,0.004896,92.29097,36.500839,-148.792023,,,
729717183.610384,-1.306008,3.40427,107.628477,-0.066238,-0.016006,1.002686,-0.128037,0.086335,0.004896,92.29097,36.500839,-148.792023,,,
729717183.61054,-1.306007,3.404267,143.164828,-0.066238,-0.016006,1.002686,-0.128037,0.086335,0.004896,92.29097,36.500839,-148.792023,,,
729717183.612154,-1.340692,3.428684,104.554668,-0.066238,-0.016006,1.002686,-0.128037,0.086335,0.004896,92.29097,36.500839,-148.792023,,,
729717183.612803,-1.340691,3.428687,107.631519,-0.066238,-0.016006,1.002686,-0.128037,0.086335,0.004896,92.29097,36.500839,-148.792023,,,
729717183.612975,-1.34069,3.428684,143.167869,-0.066238,-0.016006,1.002686,-0.128037,0.086335,0.004896,92.29097,36.500839,-148.792023,,,
729717183.615171,-1.340692,3.428684,104.554668,-0.066238,-0.016006,1.002686,-0.128037,0.086335,0.004896,92.29097,36.500839,-148.792023,,,
729717183.615419,-1.340691,3.428687,107.631519,-0.066238,-0.016006,1.002686,-0.128037,0.086335,0.004896,92.29097,36.500839,-148.792023,,,
729717183.616095,-1.34069,3.428684,143.167869,-0.066238,-0.016006,1.002686,-0.128037,0.086335,0.004896,92.29097,36.500839,-148.792023,,,
729717183.620429,-1.380167,3.455591,104.556063,-0.067719,-0.016571,1.008499,-0.142347,0.099522,-0.007552,92.29097,36.500839,-148.792023,,,
729717183.622495,-1.380166,3.455594,107.632914,-0.067719,-0.016571,1.008499,-0.142347,0.099522,-0.007552,92.29097,36.500839,-148.792023,,,
729717183.622684,-1.419545,3.4859,143.168801,-0.067719,-0.016571,1.008499,-0.142347,0.099522,-0.007552,92.29097,36.500839,-148.792023,,,
729717183.623399,-1.419546,3.4859,104.555593,-0.067719,-0.016571,1.008499,-0.142347,0.099522,-0.007552,92.29097,36.500839,-148.792023,,,
729717183.625142,-1.419546,3.4859,104.555593,-0.067719,-0.016571,1.008499,-0.142347,0.099522,-0.007552,92.29097,36.500839,-148.792023,,,
729717183.626083,-1.419546,3.485903,107.632444,-0.067719,-0.016571,1.008499,-0.142347,0.099522,-0.007552,92.29097,36.500839,-148.792023,,,
729717183.626319,-1.465901,3.523168,143.166206,-0.067291,-0.019958,1.01152,-0.169883,0.146849,-0.024302,92.29097,36.500839,-148.792023,,,
729717183.629684,-1.465903,3.523168,104.553,-0.067291,-0.019958,1.01152,-0.169883,0.146849,-0.024302,92.29097,36.500839,-148.792023,,,
729717183.630822,-1.465902,3.523171,107.629851,-0.067291,-0.019958,1.01152,-0.169883,0.146849,-0.024302,92.29097,36.500839,-148.792023,,,
729717183.630965,-1.465901,3.523168,143.166206,-0.067291,-0.019958,1.01152,-0.169883,0.146849,-0.024302,92.29097,36.500839,-148.792023,,,
729717183.632112,-1.514021,3.567517,104.547875,-0.067291,-0.019958,1.01152,-0.169883,0.146849,-0.024302,92.29097,36.500839,-148.792023,,,
729717183.632923,-1.51402,3.56752,107.624726,-0.067291,-0.019958,1.01152,-0.169883,0.146849,-0.024302,92.29097,36.500839,-148.792023,,,
729717183.633079,-1.51402,3.567517,143.161082,-0.067291,-0.019958,1.01152,-0.169883,0.146849,-0.024302,92.29097,36.500839,-148.792023,,,
729717183.635181,-1.514021,3.567517,104.547875,-0.067291,-0.019958,1.01152,-0.169883,0.146849,-0.024302,92.29097,36.500839,-148.792023,,,
729717183.635466,-1.51402,3.56752,107.624726,-0.067291,-0.019958,1.01152,-0.169883,0.146849,-0.024302,92.29097,36.500839,-148.792023,,,
729717183.63609,-1.51402,3.567517,143.161082,-0.067291,-0.019958,1.01152,-0.169883,0.146849,-0.024302,92.29097,36.500839,-148.792023,,,
729717183.64033,-1.570775,3.621572,104.540305,-0.064392,-0.021713,1.020584,-0.206057,0.208107,-0.044104,92.702881,36.878296,-148.860687,,,
729717183.642178,-1.570774,3.621575,107.617156,-0.064392,-0.021713,1.020584,-0.206057,0.208107,-0.044104,92.702881,36.878296,-148.860687,,,
729717183.642343,-1.630313,3.684156,143.14419,-0.064392,-0.021713,1.020584,-0.206057,0.208107,-0.044104,92.702881,36.878296,-148.860687,,,
729717183.643138,-1.630315,3.684156,104.530986,-0.064392,-0.021713,1.020584,-0.206057,0.208107,-0.044104,92.702881,36.878296,-148.860687,,,
729717183.643293,-1.630313,3.684156,143.14419,-0.064392,-0.021713,1.020584,-0.206057,0.208107,-0.044104,92.702881,36.878296,-148.860687,,,
729717183.645136,-1.630315,3.684156,104.530986,-0.064392,-0.021713,1.020584,-0.206057,0.208107,-0.044104,92.702881,36.878296,-148.860687,,,
729717183.646119,-1.630314,3.684158,107.607837,-0.064392,-0.021713,1.020584,-0.206057,0.208107,-0.044104,92.702881,36.878296,-148.860687,,,
729717183.646279,-1.630313,3.684156,143.14419,-0.064392,-0.021713,1.020584,-0.206057,0.208107,-0.044104,92.702881,36.878296,-148.860687,,,
729717183.649874,-1.698791,3.75969,104.520986,-0.071915,-0.026855,1.024323,-0.244487,0.288764,-0.052124,92.702881,36.878296,-148.860687,,,
729717183.651413,-1.69879,3.759692,107.597837,-0.071915,-0.026855,1.024323,-0.244487,0.288764,-0.052124,92.702881,36.878296,-148.860687,,,
729717183.651571,-1.768595,3.844971,143.124283,-0.071915,-0.026855,1.024323,-0.244487,0.288764,-0.052124,92.702881,36.878296,-148.860687,,,
729717183.652449,-1.768597,3.844971,104.51108,-0.071915,-0.026855,1.024323,-0.244487,0.288764,-0.052124,92.702881,36.878296,-148.860687,,,
729717183.653257,-1.768596,3.844973,107.587931,-0.071915,-0.026855,1.024323,-0.244487,0.288764,-0.052124,92.702881,36.878296,-148.860687,,,
729717183.653409,-1.768595,3.844971,143.124283,-0.071915,-0.026855,1.024323,-0.244487,0.288764,-0.052124,92.702881,36.878296,-148.860687,,,
729717183.655121,-1.768597,3.844971,104.51108,-0.071915,-0.026855,1.024323,-0.244487,0.288764,-0.052124,92.702881,36.878296,-148.860687,,,
729717183.655443,-1.768596,3.844973,107.587931,-0.071915,-0.026855,1.024323,-0.244487,0.288764,-0.052124,92.702881,36.878296,-148.860687,,,
729717183.656133,-1.768595,3.844971,143.124283,-0.071915,-0.026855,1.024323,-0.244487,0.288764,-0.052124,92.702881,36.878296,-148.860687,,,
729717183.659849,-1.845258,3.944368,104.501855,-0.089386,-0.035568,1.030258,-0.267978,0.367173,-0.05035,92.702881,36.878296,-148.860687,,,
729717183.66138,-1.845257,3.944371,107.578706,-0.089386,-0.035568,1.030258,-0.267978,0.367173,-0.05035,92.702881,36.878296,-148.860687,,,
729717183.661535,-1.920865,4.049005,143.107124,-0.089386,-0.035568,1.030258,-0.267978,0.367173,-0.05035,92.702881,36.878296,-148.860687,,,
729717183.662333,-1.920867,4.049005,104.493923,-0.089386,-0.035568,1.030258,-0.267978,0.367173,-0.05035,92.702881,36.878296,-148.860687,,,
729717183.663137,-1.920866,4.049008,107.570774,-0.089386,-0.035568,1.030258,-0.267978,0.367173,-0.05035,92.702881,36.878296,-148.860687,,,
729717183.663288,-1.920865,4.049005,143.107124,-0.089386,-0.035568,1.030258,-0.267978,0.367173,-0.05035,92.702881,36.878296,-148.860687,,,
729717183.665134,-1.920867,4.049005,104.493923,-0.089386,-0.035568,1.030258,-0.267978,0.367173,-0.05035,92.702881,36.878296,-148.860687,,,
729717183.665436,-1.920866,4.049008,107.570774,-0.089386,-0.035568,1.030258,-0.267978,0.367173,-0.05035,92.702881,36.878296,-148.860687,,,
729717183.666111,-1.920865,4.049005,143.107124,-0.089386,-0.035568,1.030258,-0.267978,0.367173,-0.05035,92.702881,36.878296,-148.860687,,,
729717183.669734,-2.003209,4.161283,104.487734,-0.095001,-0.039886,1.021439,-0.289685,0.400191,-0.041471,92.702881,36.878296,-148.860687,,,
729717183.671274,-2.003208,4.161285,107.564585,-0.095001,-0.039886,1.021439,-0.289685,0.400191,-0.041471,92.702881,36.878296,-148.860687,,,
729717183.671427,-2.085191,4.273083,143.097299,-0.095001,-0.039886,1.021439,-0.289685,0.400191,-0.041471,92.702881,36.878296,-148.860687,,,
729717183.672221,-2.085193,4.273083,104.484097,-0.095001,-0.039886,1.021439,-0.289685,0.400191,-0.041471,92.702881,36.878296,-148.860687,,,
729717183.672872,-2.085192,4.273086,107.560948,-0.095001,-0.039886,1.021439,-0.289685,0.400191,-0.041471,92.702881,36.878296,-148.860687,,,
729717183.67304,-2.085191,4.273083,143.097299,-0.095001,-0.039886,1.021439,-0.289685,0.400191,-0.041471,92.702881,36.878296,-148.860687,,,
729717183.675167,-2.085193,4.273083,104.484097,-0.095001,-0.039886,1.021439,-0.289685,0.400191,-0.041471,92.702881,36.878296,-148.860687,,,
729717183.675419,-2.085192,4.273086,107.560948,-0.095001,-0.039886,1.021439,-0.289685,0.400191,-0.041471,92.702881,36.878296,-148.860687,,,
729717183.676167,-2.085191,4.273083,143.097299,-0.095001,-0.039886,1.021439,-0.289685,0.400191,-0.041471,92.702881,36.878296,-148.860687,,,
729717183.680307,-2.173935,4.38508,104.484993,-0.110153,-0.045227,0.999146,-0.313244,0.388567,-0.013197,93.549316,37.51973,-148.455154,,,
729717183.682302,-2.173934,4.385083,107.561844,-0.110153,-0.045227,0.999146,-0.313244,0.388567,-0.013197,93.549316,37.51973,-148.455154,,,
729717183.682472,-2.258117,4.491523,143.103549,-0.110153,-0.045227,0.999146,-0.313244,0.388567,-0.013197,93.549316,37.51973,-148.455154,,,
729717183.683267,-2.258119,4.491523,104.490343,-0.110153,-0.045227,0.999146,-0.313244,0.388567,-0.013197,93.549316,37.51973,-148.455154,,,
729717183.683428,-2.258117,4.491523,143.103549,-0.110153,-0.045227,0.999146,-0.313244,0.388567,-0.013197,93.549316,37.51973,-148.455154,,,
729717183.685081,-2.258119,4.491523,104.490343,-0.110153,-0.045227,0.999146,-0.313244,0.388567,-0.013197,93.549316,37.51973,-148.455154,,,
729717183.685842,-2.258118,4.491526,107.567194,-0.110153,-0.045227,0.999146,-0.313244,0.388567,-0.013197,93.549316,37.51973,-148.455154,,,
729717183.686058,-2.258117,4.491523,143.103549,-0.110153,-0.045227,0.999146,-0.313244,0.388567,-0.013197,93.549316,37.51973,-148.455154,,,
729717183.690796,-2.34553,4.596062,104.499299,-0.119247,-0.055496,0.992477,-0.302846,0.355054,0.010821,93.549316,37.51973,-148.455154,,,
729717183.692608,-2.345529,4.596065,107.57615,-0.119247,-0.055496,0.992477,-0.302846,0.355054,0.010821,93.549316,37.51973,-148.455154,,,
729717183.692729,-2.42477,4.690817,143.124258,-0.119247,-0.055496,0.992477,-0.302846,0.355054,0.010821,93.549316,37.51973,-148.455154,,,
729717183.693292,-2.424771,4.690817,104.511053,-0.119247,-0.055496,0.992477,-0.302846,0.355054,0.010821,93.549316,37.51973,-148.455154,,,
729717183.695095,-2.424771,4.690817,104.511053,-0.119247,-0.055496,0.992477,-0.302846,0.355054,0.010821,93.549316,37.51973,-148.455154,,,
729717183.695806,-2.42477,4.69082,107.587904,-0.119247,-0.055496,0.992477,-0.302846,0.355054,0.010821,93.549316,37.51973,-148.455154,,,
729717183.69606,-2.42477,4.690817,143.124258,-0.119247,-0.055496,0.992477,-0.302846,0.355054,0.010821,93.549316,37.51973,-148.455154,,,
729717183.699423,-2.506792,4.780617,104.525432,-0.116455,-0.054169,0.995163,-0.285825,0.298067,0.028721,93.549316,37.51973,-148.455154,,,
729717183.700466,-2.506791,4.78062,107.602283,-0.116455,-0.054169,0.995163,-0.285825,0.298067,0.028721,93.549316,37.51973,-148.455154,,,
729717183.70057,-2.50679,4.780617,143.138639,-0.116455,-0.054169,0.995163,-0.285825,0.298067,0.028721,93.549316,37.51973,-148.455154,,,
729717183.702092,-2.582094,4.856793,104.54174,-0.116455,-0.054169,0.995163,-0.285825,0.298067,0.028721,93.549316,37.51973,-148.455154,,,
729717183.702648,-2.582093,4.856796,107.618591,-0.116455,-0.054169,0.995163,-0.285825,0.298067,0.028721,93.549316,37.51973,-148.455154,,,
729717183.702765,-2.582093,4.856793,143.154947,-0.116455,-0.054169,0.995163,-0.285825,0.298067,0.028721,93.549316,37.51973,-148.455154,,,
729717183.705129,-2.582094,4.856793,104.54174,-0.116455,-0.054169,0.995163,-0.285825,0.298067,0.028721,93.549316,37.51973,-148.455154,,,
729717183.705382,-2.582093,4.856796,107.618591,-0.116455,-0.054169,0.995163,-0.285825,0.298067,0.028721,93.549316,37.51973,-148.455154,,,
729717183.706057,-2.582093,4.856793,143.154947,-0.116455,-0.054169,0.995163,-0.285825,0.298067,0.028721,93.549316,37.51973,-148.455154,,,
729717183.709715,-2.660088,4.923359,104.56008,-0.115143,-0.049728,0.98082,-0.272018,0.207191,0.042284,93.549316,37.51973,-148.455154,,,
729717183.71107,-2.660087,4.923362,107.636931,-0.115143,-0.049728,0.98082,-0.272018,0.207191,0.042284,93.549316,37.51973,-148.455154,,,
729717183.711172,-2.660087,4.923359,143.173282,-0.115143,-0.049728,0.98082,-0.272018,0.207191,0.042284,93.549316,37.51973,-148.455154,,,
729717183.711983,-2.736885,4.975842,104.579927,-0.115143,-0.049728,0.98082,-0.272018,0.207191,0.042284,93.549316,37.51973,-148.455154,,,
729717183.712541,-2.736884,4.975844,107.656778,-0.115143,-0.049728,0.98082,-0.272018,0.207191,0.042284,93.549316,37.51973,-148.455154,,,
729717183.712708,-2.736884,4.975842,143.19313,-0.115143,-0.049728,0.98082,-0.272018,0.207191,0.042284,93.549316,37.51973,-148.455154,,,
729717183.71517,-2.736885,4.975842,104.579927,-0.115143,-0.049728,0.98082,-0.272018,0.207191,0.042284,93.549316,37.51973,-148.455154,,,
729717183.715377,-2.736884,4.975844,107.656778,-0.115143,-0.049728,0.98082,-0.272018,0.207191,0.042284,93.549316,37.51973,-148.455154,,,
729717183.716058,-2.736884,4.975842,143.19313,-0.115143,-0.049728,0.98082,-0.272018,0.207191,0.042284,93.549316,37.51973,-148.455154,,,
729717183.720028,-2.813889,5.0142,104.599889,-0.112198,-0.047531,0.963867,-0.27364,0.10867,0.042483,93.768143,38.11853,-147.799667,,,
729717183.721437,-2.813887,5.014203,107.67674,-0.112198,-0.047531,0.963867,-0.27364,0.10867,0.042483,93.768143,38.11853,-147.799667,,,
729717183.721562,-2.892817,5.039244,143.232308,-0.112198,-0.047531,0.963867,-0.27364,0.10867,0.042483,93.768143,38.11853,-147.799667,,,
729717183.722098,-2.892818,5.039244,104.619106,-0.112198,-0.047531,0.963867,-0.27364,0.10867,0.042483,93.768143,38.11853,-147.799667,,,
729717183.722648,-2.892817,5.039246,107.695957,-0.112198,-0.047531,0.963867,-0.27364,0.10867,0.042483,93.768143,38.11853,-147.799667,,,
729717183.722752,-2.892817,5.039244,143.232308,-0.112198,-0.047531,0.963867,-0.27364,0.10867,0.042483,93.768143,38.11853,-147.799667,,,
729717183.725166,-2.892818,5.039244,104.619106,-0.112198,-0.047531,0.963867,-0.27364,0.10867,0.042483,93.768143,38.11853,-147.799667,,,
729717183.725379,-2.892817,5.039246,107.695957,-0.112198,-0.047531,0.963867,-0.27364,0.10867,0.042483,93.768143,38.11853,-147.799667,,,
729717183.726072,-2.892817,5.039244,143.232308,-0.112198,-0.047531,0.963867,-0.27364,0.10867,0.042483,93.768143,38.11853,-147.799667,,,
729717183.729397,-2.975086,5.051177,104.636483,-0.10527,-0.04425,0.953064,-0.295978,0.017997,0.027538,93.768143,38.11853,-147.799667,,,
729717183.730448,-2.975085,5.051179,107.713334,-0.10527,-0.04425,0.953064,-0.295978,0.017997,0.027538,93.768143,38.11853,-147.799667,,,
729717183.730555,-2.975085,5.051177,143.249686,-0.10527,-0.04425,0.953064,-0.295978,0.017997,0.027538,93.768143,38.11853,-147.799667,,,
729717183.731938,-3.062642,5.050059,104.649832,-0.10527,-0.04425,0.953064,-0.295978,0.017997,0.027538,93.768143,38.11853,-147.799667,,,
729717183.732355,-3.062641,5.050062,107.726683,-0.10527,-0.04425,0.953064,-0.295978,0.017997,0.027538,93.768143,38.11853,-147.799667,,,
729717183.732722,-3.062641,5.050059,143.263035,-0.10527,-0.04425,0.953064,-0.295978,0.017997,0.027538,93.768143,38.11853,-147.799667,,,
729717183.735169,-3.062642,5.050059,104.649832,-0.10527,-0.04425,0.953064,-0.295978,0.017997,0.027538,93.768143,38.11853,-147.799667,,,
729717183.735405,-3.062641,5.050062,107.726683,-0.10527,-0.04425,0.953064,-0.295978,0.017997,0.027538,93.768143,38.11853,-147.799667,,,
729717183.736057,-3.062641,5.050059,143.263035,-0.10527,-0.04425,0.953064,-0.295978,0.017997,0.027538,93.768143,38.11853,-147.799667,,,
729717183.740254,-3.158311,5.036997,104.657958,-0.088104,-0.037766,0.944565,-0.349236,-0.063215,-0.013531,93.768143,38.11853,-147.799667,,,
729717183.742049,-3.15831,5.037,107.734809,-0.088104,-0.037766,0.944565,-0.349236,-0.063215,-0.013531,93.768143,38.11853,-147.799667,,,
729717183.742173,-3.26445,5.014334,143.273359,-0.088104,-0.037766,0.944565,-0.349236,-0.063215,-0.013531,93.768143,38.11853,-147.799667,,,
729717183.742657,-3.264452,5.014334,104.660154,-0.088104,-0.037766,0.944565,-0.349236,-0.063215,-0.013531,93.768143,38.11853,-147.799667,,,
729717183.742762,-3.26445,5.014334,143.273359,-0.088104,-0.037766,0.944565,-0.349236,-0.063215,-0.013531,93.768143,38.11853,-147.799667,,,
729717183.74517,-3.264452,5.014334,104.660154,-0.088104,-0.037766,0.944565,-0.349236,-0.063215,-0.013531,93.768143,38.11853,-147.799667,,,
729717183.745802,-3.26445,5.014336,107.737005,-0.088104,-0.037766,0.944565,-0.349236,-0.063215,-0.013531,93.768143,38.11853,-147.799667,,,
729717183.746064,-3.26445,5.014334,143.273359,-0.088104,-0.037766,0.944565,-0.349236,-0.063215,-0.013531,93.768143,38.11853,-147.799667,,,
729717183.7493,-3.383228,4.984971,104.656291,-0.070114,-0.026276,0.939941,-0.43327,-0.107267,-0.062826,93.768143,38.11853,-147.799667,,,
729717183.750342,-3.383227,4.984973,107.733142,-0.070114,-0.026276,0.939941,-0.43327,-0.107267,-0.062826,93.768143,38.11853,-147.799667,,,
729717183.750448,-3.383226,4.984971,143.269497,-0.070114,-0.026276,0.939941,-0.43327,-0.107267,-0.062826,93.768143,38.11853,-147.799667,,,
729717183.752118,-3.517709,4.951978,104.646261,-0.070114,-0.026276,0.939941,-0.43327,-0.107267,-0.062826,93.768143,38.11853,-147.799667,,,
729717183.752673,-3.517707,4.95198,107.723112,-0.070114,-0.026276,0.939941,-0.43327,-0.107267,-0.062826,93.768143,38.11853,-147.799667,,,
729717183.752781,-3.517707,4.951978,143.259465,-0.070114,-0.026276,0.939941,-0.43327,-0.107267,-0.062826,93.768143,38.11853,-147.799667,,,
729717183.755164,-3.517709,4.951978,104.646261,-0.070114,-0.026276,0.939941,-0.43327,-0.107267,-0.062826,93.768143,38.11853,-147.799667,,,
729717183.75538,-3.517707,4.95198,107.723112,-0.070114,-0.026276,0.939941,-0.43327,-0.107267,-0.062826,93.768143,38.11853,-147.799667,,,
729717183.756056,-3.517707,4.951978,143.259465,-0.070114,-0.026276,0.939941,-0.43327,-0.107267,-0.062826,93.768143,38.11853,-147.799667,,,
729717183.75962,-3.670707,4.917923,104.630213,-0.057327,-0.021362,0.937485,-0.55863,-0.111739,-0.115064,93.552246,38.742722,-147.887939,,,
729717183.760886,-3.670706,4.917926,107.707064,-0.057327,-0.021362,0.937485,-0.55863,-0.111739,-0.115064,93.552246,38.742722,-147.887939,,,
729717183.760998,-3.670706,4.917923,143.243418,-0.057327,-0.021362,0.937485,-0.55863,-0.111739,-0.115064,93.552246,38.742722,-147.887939,,,
729717183.76201,-3.843697,4.884191,104.608082,-0.057327,-0.021362,0.937485,-0.55863,-0.111739,-0.115064,93.552246,38.742722,-147.887939,,,
729717183.76256,-3.843695,4.884193,107.684933,-0.057327,-0.021362,0.937485,-0.55863,-0.111739,-0.115064,93.552246,38.742722,-147.887939,,,
729717183.762709,-3.843695,4.884191,143.221286,-0.057327,-0.021362,0.937485,-0.55863,-0.111739,-0.115064,93.552246,38.742722,-147.887939,,,
729717183.765168,-3.843697,4.884191,104.608082,-0.057327,-0.021362,0.937485,-0.55863,-0.111739,-0.115064,93.552246,38.742722,-147.887939,,,
729717183.765375,-3.843695,4.884193,107.684933,-0.057327,-0.021362,0.937485,-0.55863,-0.111739,-0.115064,93.552246,38.742722,-147.887939,,,
729717183.766058,-3.843695,4.884191,143.221286,-0.057327,-0.021362,0.937485,-0.55863,-0.111739,-0.115064,93.552246,38.742722,-147.887939,,,
729717183.769408,-4.036195,4.851919,104.580065,-0.041275,-0.022049,0.929718,-0.690846,-0.098102,-0.166596,93.552246,38.742722,-147.887939,,,
729717183.770468,-4.036193,4.851922,107.656916,-0.041275,-0.022049,0.929718,-0.690846,-0.098102,-0.166596,93.552246,38.742722,-147.887939,,,
729717183.770575,-4.036193,4.851919,143.19327,-0.041275,-0.022049,0.929718,-0.690846,-0.098102,-0.166596,93.552246,38.742722,-147.887939,,,
729717183.772085,-4.247681,4.823928,104.547508,-0.041275,-0.022049,0.929718,-0.690846,-0.098102,-0.166596,93.552246,38.742722,-147.887939,,,
729717183.772643,-4.247679,4.823931,107.624359,-0.041275,-0.022049,0.929718,-0.690846,-0.098102,-0.166596,93.552246,38.742722,-147.887939,,,
729717183.772762,-4.247679,4.823928,143.160714,-0.041275,-0.022049,0.929718,-0.690846,-0.098102,-0.166596,93.552246,38.742722,-147.887939,,,
729717183.775162,-4.247681,4.823928,104.547508,-0.041275,-0.022049,0.929718,-0.690846,-0.098102,-0.166596,93.552246,38.742722,-147.887939,,,
729717183.775377,-4.247679,4.823931,107.624359,-0.041275,-0.022049,0.929718,-0.690846,-0.098102,-0.166596,93.552246,38.742722,-147.887939,,,
729717183.776059,-4.247679,4.823928,143.160714,-0.041275,-0.022049,0.929718,-0.690846,-0.098102,-0.166596,93.552246,38.742722,-147.887939,,,
729717183.77989,-4.479052,4.803835,104.511078,-0.030914,-0.032471,0.934341,-0.826593,-0.039992,-0.204281,93.552246,38.742722,-147.887939,,,
729717183.781434,-4.479051,4.803838,107.587929,-0.030914,-0.032471,0.934341,-0.826593,-0.039992,-0.204281,93.552246,38.742722,-147.887939,,,
729717183.781589,-4.731641,4.792669,143.085047,-0.030914,-0.032471,0.934341,-0.826593,-0.039992,-0.204281,93.552246,38.742722,-147.887939,,,
729717183.782251,-4.731642,4.792669,104.471844,-0.030914,-0.032471,0.934341,-0.826593,-0.039992,-0.204281,93.552246,38.742722,-147.887939,,,
729717183.782808,-4.731641,4.792672,107.548695,-0.030914,-0.032471,0.934341,-0.826593,-0.039992,-0.204281,93.552246,38.742722,-147.887939,,,
729717183.782919,-4.731641,4.792669,143.085047,-0.030914,-0.032471,0.934341,-0.826593,-0.039992,-0.204281,93.552246,38.742722,-147.887939,,,
729717183.785147,-4.731642,4.792669,104.471844,-0.030914,-0.032471,0.934341,-0.826593,-0.039992,-0.204281,93.552246,38.742722,-147.887939,,,
729717183.785409,-4.731641,4.792672,107.548695,-0.030914,-0.032471,0.934341,-0.826593,-0.039992,-0.204281,93.552246,38.742722,-147.887939,,,
729717183.786054,-4.731641,4.792669,143.085047,-0.030914,-0.032471,0.934341,-0.826593,-0.039992,-0.204281,93.552246,38.742722,-147.887939,,,
729717183.790266,-5.007262,4.789231,104.432003,-0.031204,-0.049042,0.934799,-0.986644,0.015576,-0.221602,93.552246,38.742722,-147.887939,,,
729717183.792043,-5.00726,4.789234,107.508855,-0.031204,-0.049042,0.934799,-0.986644,0.015576,-0.221602,93.552246,38.742722,-147.887939,,,
729717183.792159,-5.30792,4.79352,143.007178,-0.031204,-0.049042,0.934799,-0.986644,0.015576,-0.221602,93.552246,38.742722,-147.887939,,,
729717183.792572,-5.307921,4.79352,104.393973,-0.031204,-0.049042,0.934799,-0.986644,0.015576,-0.221602,93.552246,38.742722,-147.887939,,,
729717183.792724,-5.30792,4.79352,143.007178,-0.031204,-0.049042,0.934799,-0.986644,0.015576,-0.221602,93.552246,38.742722,-147.887939,,,
729717183.795181,-5.307921,4.79352,104.393973,-0.031204,-0.049042,0.934799,-0.986644,0.015576,-0.221602,93.552246,38.742722,-147.887939,,,
729717183.795717,-5.30792,4.793523,107.470824,-0.031204,-0.049042,0.934799,-0.986644,0.015576,-0.221602,93.552246,38.742722,-147.887939,,,
729717183.796068,-5.30792,4.79352,143.007178,-0.031204,-0.049042,0.934799,-0.986644,0.015576,-0.221602,93.552246,38.742722,-147.887939,,,
729717183.799373,-5.631816,4.81061,104.358016,-0.034973,-0.079803,0.907425,-1.149144,0.104913,-0.221092,93.552246,38.742722,-147.887939,,,
729717183.800689,-5.631814,4.810612,107.434867,-0.034973,-0.079803,0.907425,-1.149144,0.104913,-0.221092,93.492615,40.915375,-147.136719,,,
729717183.800805,-5.631814,4.81061,142.97122,-0.034973,-0.079803,0.907425,-1.149144,0.104913,-0.221092,93.492615,40.915375,-147.136719,,,
729717183.802735,-5.973141,4.848774,104.324433,-0.034973,-0.079803,0.907425,-1.149144,0.104913,-0.221092,93.492615,40.915375,-147.136719,,,
729717183.803557,-5.973139,4.848777,107.401285,-0.034973,-0.079803,0.907425,-1.149144,0.104913,-0.221092,93.492615,40.915375,-147.136719,,,
729717183.803687,-5.97314,4.848774,142.937637,-0.034973,-0.079803,0.907425,-1.149144,0.104913,-0.221092,93.492615,40.915375,-147.136719,,,
729717183.80503,-5.973141,4.848774,104.324433,-0.034973,-0.079803,0.907425,-1.149144,0.104913,-0.221092,93.492615,40.915375,-147.136719,,,
729717183.805395,-5.973139,4.848777,107.401285,-0.034973,-0.079803,0.907425,-1.149144,0.104913,-0.221092,93.492615,40.915375,-147.136719,,,
729717183.806056,-5.97314,4.848774,142.937637,-0.034973,-0.079803,0.907425,-1.149144,0.104913,-0.221092,93.492615,40.915375,-147.136719,,,
729717183.809488,-6.328336,4.908459,104.293958,-0.043198,-0.102493,0.949585,-1.246499,0.253954,-0.209602,93.492615,40.915375,-147.136719,,,
729717183.810647,-6.328334,4.908461,107.370809,-0.043198,-0.102493,0.949585,-1.246499,0.253954,-0.209602,93.492615,40.915375,-147.136719,,,
729717183.810755,-6.328335,4.908459,142.907163,-0.043198,-0.102493,0.949585,-1.246499,0.253954,-0.209602,93.492615,40.915375,-147.136719,,,
729717183.812026,-6.694357,4.983654,104.267522,-0.043198,-0.102493,0.949585,-1.246499,0.253954,-0.209602,93.492615,40.915375,-147.136719,,,
729717183.812571,-6.694355,4.983656,107.344373,-0.043198,-0.102493,0.949585,-1.246499,0.253954,-0.209602,93.492615,40.915375,-147.136719,,,
729717183.812759,-6.694356,4.983654,142.880726,-0.043198,-0.102493,0.949585,-1.246499,0.253954,-0.209602,93.492615,40.915375,-147.136719,,,
729717183.815206,-6.694357,4.983654,104.267522,-0.043198,-0.102493,0.949585,-1.246499,0.253954,-0.209602,93.492615,40.915375,-147.136719,,,
729717183.815425,-6.694355,4.983656,107.344373,-0.043198,-0.102493,0.949585,-1.246499,0.253954,-0.209602,93.492615,40.915375,-147.136719,,,
729717183.816089,-6.694356,4.983654,142.880726,-0.043198,-0.102493,0.949585,-1.246499,0.253954,-0.209602,93.492615,40.915375,-147.136719,,,
729717183.81995,-7.06863,5.069911,104.246951,-0.061249,-0.124924,0.949844,-1.307354,0.327499,-0.177674,93.492615,40.915375,-147.136719,,,
729717183.821501,-7.068628,5.069913,107.323803,-0.061249,-0.124924,0.949844,-1.307354,0.327499,-0.177674,93.492615,40.915375,-147.136719,,,
729717183.821657,-7.451143,5.163544,142.846145,-0.061249,-0.124924,0.949844,-1.307354,0.327499,-0.177674,93.492615,40.915375,-147.136719,,,
729717183.82245,-7.451145,5.163544,104.23294,-0.061249,-0.124924,0.949844,-1.307354,0.327499,-0.177674,93.492615,40.915375,-147.136719,,,
729717183.823272,-7.451143,5.163546,107.309791,-0.061249,-0.124924,0.949844,-1.307354,0.327499,-0.177674,93.492615,40.915375,-147.136719,,,
729717183.823431,-7.451143,5.163544,142.846145,-0.061249,-0.124924,0.949844,-1.307354,0.327499,-0.177674,93.492615,40.915375,-147.136719,,,
729717183.825074,-7.451145,5.163544,104.23294,-0.061249,-0.124924,0.949844,-1.307354,0.327499,-0.177674,93.492615,40.915375,-147.136719,,,
729717183.825389,-7.451143,5.163546,107.309791,-0.061249,-0.124924,0.949844,-1.307354,0.327499,-0.177674,93.492615,40.915375,-147.136719,,,
729717183.826053,-7.451143,5.163544,142.846145,-0.061249,-0.124924,0.949844,-1.307354,0.327499,-0.177674,93.492615,40.915375,-147.136719,,,
729717183.829477,-7.842455,5.262685,104.22441,-0.065063,-0.148773,0.936279,-1.371859,0.361652,-0.149975,93.492615,40.915375,-147.136719,,,
729717183.83061,-7.842452,5.262687,107.301261,-0.065063,-0.148773,0.936279,-1.371859,0.361652,-0.149975,93.492615,40.915375,-147.136719,,,
729717183.830715,-7.842453,5.262685,142.837614,-0.065063,-0.148773,0.936279,-1.371859,0.361652,-0.149975,93.492615,40.915375,-147.136719,,,
729717183.83215,-8.244229,5.36677,104.22038,-0.065063,-0.148773,0.936279,-1.371859,0.361652,-0.149975,93.492615,40.915375,-147.136719,,,
729717183.832805,-8.244226,5.366773,107.297231,-0.065063,-0.148773,0.936279,-1.371859,0.361652,-0.149975,93.492615,40.915375,-147.136719,,,
729717183.832956,-8.244227,5.366771,142.833584,-0.065063,-0.148773,0.936279,-1.371859,0.361652,-0.149975,93.492615,40.915375,-147.136719,,,
729717183.835171,-8.244229,5.36677,104.22038,-0.065063,-0.148773,0.936279,-1.371859,0.361652,-0.149975,93.492615,40.915375,-147.136719,,,
729717183.83547,-8.244226,5.366773,107.297231,-0.065063,-0.148773,0.936279,-1.371859,0.361652,-0.149975,93.492615,40.915375,-147.136719,,,
729717183.836081,-8.244227,5.366771,142.833584,-0.065063,-0.148773,0.936279,-1.371859,0.361652,-0.149975,93.492615,40.915375,-147.136719,,,
729717183.839743,-8.658166,5.473758,104.219704,-0.064621,-0.154037,0.927399,-1.457942,0.3787,-0.14006,93.492615,40.915375,-147.136719,,,
729717183.841517,-8.658163,5.473761,107.296556,-0.064621,-0.154037,0.927399,-1.457942,0.3787,-0.14006,94.285294,43.459503,-145.463516,,,
729717183.841631,-9.086979,5.582009,142.833528,-0.064621,-0.154037,0.927399,-1.457942,0.3787,-0.14006,94.285294,43.459503,-145.463516,,,
729717183.842401,-9.08698,5.582009,104.220324,-0.064621,-0.154037,0.927399,-1.457942,0.3787,-0.14006,94.285294,43.459503,-145.463516,,,
