Time (sec),Pitch (deg),Roll (deg),Yaw(deg),X-Acceleration (g),Y-Acceleration (g),Z-Acceleration (g),Pitch Rate (deg/sec),Roll Rate (deg/sec),Yaw Rate (deg/sec),Magnetic Field in X direction (uT),Magnetic Field in Y direction (uT),Magnetic Field in Z Direction (uT),Latitude (deg),Longitude (deg),Altitude (m)
729706104.587551,-8.125388,2.496898,171.480549,-0.048248,-0.137436,0.969513,-0.006541,0.005176,-0.009693,87.661179,17.784195,-147.036545,,,
729706104.590884,-8.125388,2.496898,171.480549,-0.048248,-0.137436,0.969513,-0.006541,0.005176,-0.009693,87.661179,17.784195,-147.036545,,,
729706104.594253,-8.128114,2.497052,171.477834,-0.048248,-0.137436,0.969513,-0.006541,0.005176,-0.009693,87.661179,17.784195,-147.036545,,,
729706104.597572,-8.131638,2.495768,171.474473,-0.048981,-0.134491,0.972931,-0.013375,-0.000695,-0.013905,87.661179,17.784195,-147.036545,,,
729706104.600988,-8.131638,2.495768,171.474473,-0.048981,-0.134491,0.972931,-0.013375,-0.000695,-0.013905,87.661179,17.784195,-147.036545,,,
729706104.604284,-8.13637,2.494768,171.471184,-0.048981,-0.134491,0.972931,-0.013375,-0.000695,-0.013905,87.661179,17.784195,-147.036545,,,
729706104.607595,-8.141266,2.492821,171.467951,-0.04921,-0.138794,0.975433,-0.017131,-0.002844,-0.013051,87.661179,17.784195,-147.036545,,,
729706104.610914,-8.141266,2.492821,171.467951,-0.04921,-0.138794,0.975433,-0.017131,-0.002844,-0.013051,87.661179,17.784195,-147.036545,,,
729706104.614309,-8.146827,2.491109,171.465305,-0.04921,-0.138794,0.975433,-0.017131,-0.002844,-0.013051,87.661179,17.784195,-147.036545,,,
729706104.617555,-8.151658,2.488854,171.463604,-0.050842,-0.142349,0.978989,-0.014866,-0.004562,-0.005986,87.661179,17.784195,-147.036545,,,
729706104.62091,-8.151658,2.488854,171.463604,-0.050842,-0.142349,0.978989,-0.014866,-0.004562,-0.005986,87.661179,17.784195,-147.036545,,,
729706104.624239,-8.155689,2.486488,171.462627,-0.050842,-0.142349,0.978989,-0.014866,-0.004562,-0.005986,87.661179,17.784195,-147.036545,,,
729706104.627555,-8.158588,2.483396,171.461929,-0.049973,-0.144089,0.981308,-0.006764,-0.007821,-0.003436,87.739838,17.949692,-147.255173,,,
729706104.630902,-8.158588,2.483396,171.461929,-0.049973,-0.144089,0.981308,-0.006764,-0.007821,-0.003436,87.739838,17.949692,-147.255173,,,
729706104.634239,-8.15984,2.480389,171.461798,-0.049973,-0.144089,0.981308,-0.006764,-0.007821,-0.003436,87.739838,17.949692,-147.255173,,,
729706104.637561,-8.160649,2.477934,171.461997,-0.047195,-0.144882,0.983444,-0.003672,-0.004033,-0.000981,87.739838,17.949692,-147.255173,,,
729706104.64094,-8.160649,2.477934,171.461997,-0.047195,-0.144882,0.983444,-0.003672,-0.004033,-0.000981,87.739838,17.949692,-147.255173,,,
729706104.644233,-8.161879,2.476809,171.462465,-0.047195,-0.144882,0.983444,-0.003672,-0.004033,-0.000981,87.739838,17.949692,-147.255173,,,
729706104.647559,-8.163679,2.475844,171.46273,-0.043045,-0.144913,0.982056,-0.009162,1.8e-05,-0.002241,87.739838,17.949692,-147.255173,,,
729706104.6509,-8.163679,2.475844,171.46273,-0.043045,-0.144913,0.982056,-0.009162,1.8e-05,-0.002241,87.739838,17.949692,-147.255173,,,
729706104.654321,-8.165918,2.475705,171.462863,-0.043045,-0.144913,0.982056,-0.009162,1.8e-05,-0.002241,87.739838,17.949692,-147.255173,,,
729706104.65755,-8.167979,2.475305,171.462483,-0.044067,-0.14595,0.983826,-0.00781,0.003241,-0.005079,87.739838,17.949692,-147.255173,,,
729706104.660905,-8.167979,2.475305,171.462483,-0.044067,-0.14595,0.983826,-0.00781,0.003241,-0.005079,87.739838,17.949692,-147.255173,,,
729706104.664237,-8.170883,2.47632,171.461742,-0.044067,-0.14595,0.983826,-0.00781,0.003241,-0.005079,87.739838,17.949692,-147.255173,,,
729706104.667555,-8.174024,2.476405,171.46076,-0.04567,-0.146591,0.985428,-0.009439,0.002195,-0.006041,87.594345,17.848572,-147.043259,,,
729706104.670883,-8.174024,2.476405,171.46076,-0.04567,-0.146591,0.985428,-0.009439,0.002195,-0.006041,87.594345,17.848572,-147.043259,,,
729706104.674237,-8.176314,2.476299,171.4596,-0.04567,-0.146591,0.985428,-0.009439,0.002195,-0.006041,87.594345,17.848572,-147.043259,,,
729706104.677558,-8.178556,2.474574,171.458274,-0.045776,-0.147903,0.986389,-0.005772,-0.004083,-0.006313,87.594345,17.848572,-147.043259,,,
729706104.680932,-8.178556,2.474574,171.458274,-0.045776,-0.147903,0.986389,-0.005772,-0.004083,-0.006313,87.594345,17.848572,-147.043259,,,
729706104.684227,-8.179759,2.472909,171.457702,-0.045776,-0.147903,0.986389,-0.005772,-0.004083,-0.006313,87.594345,17.848572,-147.043259,,,
729706104.687557,-8.180702,2.469428,171.457991,-0.047623,-0.148636,0.986084,-0.001263,-0.012432,0.000541,87.594345,17.848572,-147.043259,,,
729706104.690889,-8.180702,2.469428,171.457991,-0.047623,-0.148636,0.986084,-0.001263,-0.012432,0.000541,87.594345,17.848572,-147.043259,,,
729706104.694291,-8.180395,2.465237,171.459001,-0.047623,-0.148636,0.986084,-0.001263,-0.012432,0.000541,87.594345,17.848572,-147.043259,,,
729706104.697549,-8.178971,2.459176,171.460193,-0.047119,-0.149139,0.987625,0.006571,-0.019313,0.003065,87.594345,17.848572,-147.043259,,,
729706104.700904,-8.178971,2.459176,171.460193,-0.047119,-0.149139,0.987625,0.006571,-0.019313,0.003065,87.594345,17.848572,-147.043259,,,
729706104.704238,-8.177165,2.453764,171.461242,-0.047119,-0.149139,0.987625,0.006571,-0.019313,0.003065,87.594345,17.848572,-147.043259,,,
729706104.707553,-8.174457,2.446802,171.461822,-0.044861,-0.144409,0.98851,0.011063,-0.022645,0.001058,87.635849,17.885544,-147.038254,,,
729706104.710906,-8.174457,2.446802,171.461822,-0.044861,-0.144409,0.98851,0.011063,-0.022645,0.001058,87.635849,17.885544,-147.038254,,,
729706104.714226,-8.17226,2.440966,171.462318,-0.044861,-0.144409,0.98851,0.011063,-0.022645,0.001058,87.635849,17.885544,-147.038254,,,
729706104.717558,-8.170995,2.434483,171.463071,-0.043716,-0.142807,0.982208,0.001197,-0.02236,0.003119,87.635849,17.885544,-147.038254,,,
729706104.720936,-8.170995,2.434483,171.463071,-0.043716,-0.142807,0.982208,0.001197,-0.02236,0.003119,87.635849,17.885544,-147.038254,,,
729706104.724224,-8.1712,2.427502,171.464411,-0.043716,-0.142807,0.982208,0.001197,-0.02236,0.003119,87.635849,17.885544,-147.038254,,,
729706104.72756,-8.171351,2.419845,171.466166,-0.041672,-0.145584,0.975967,-0.000993,-0.025275,0.006216,87.635849,17.885544,-147.038254,,,
729706104.730905,-8.171351,2.419845,171.466166,-0.041672,-0.145584,0.975967,-0.000993,-0.025275,0.006216,87.635849,17.885544,-147.038254,,,
729706104.734304,-8.172351,2.412222,171.468596,-0.041672,-0.145584,0.975967,-0.000993,-0.025275,0.006216,87.635849,17.885544,-147.038254,,,
729706104.737548,-8.173582,2.403946,171.471547,-0.039429,-0.145355,0.975525,-0.006117,-0.028807,0.009831,87.635849,17.885544,-147.038254,,,
729706104.740901,-8.173582,2.403946,171.471547,-0.039429,-0.145355,0.975525,-0.006117,-0.028807,0.009831,87.635849,17.885544,-147.038254,,,
729706104.744246,-8.176072,2.396208,171.474603,-0.039429,-0.145355,0.975525,-0.006117,-0.028807,0.009831,87.635849,17.885544,-147.038254,,,
729706104.747554,-8.17879,2.38909,171.477104,-0.036575,-0.142471,0.977081,-0.011435,-0.02124,0.00616,87.292831,17.748749,-147.469543,,,
729706104.750915,-8.17879,2.38909,171.477104,-0.036575,-0.142471,0.977081,-0.011435,-0.02124,0.00616,87.292831,17.748749,-147.469543,,,
729706104.754233,-8.183087,2.384045,171.479332,-0.036575,-0.142471,0.977081,-0.011435,-0.02124,0.00616,87.292831,17.748749,-147.469543,,,
729706104.757558,-8.186727,2.379809,171.481584,-0.03595,-0.143936,0.980576,-0.010625,-0.012464,0.006803,87.292831,17.748749,-147.469543,,,
729706104.760954,-8.186727,2.379809,171.481584,-0.03595,-0.143936,0.980576,-0.010625,-0.012464,0.006803,87.292831,17.748749,-147.469543,,,
729706104.764229,-8.190528,2.377081,171.484106,-0.03595,-0.143936,0.980576,-0.010625,-0.012464,0.006803,87.292831,17.748749,-147.469543,,,
729706104.767555,-8.193073,2.375182,171.486829,-0.039093,-0.146667,0.983566,-0.006408,-0.001961,0.009061,87.292831,17.748749,-147.469543,,,
729706104.770914,-8.193073,2.375182,171.486829,-0.039093,-0.146667,0.983566,-0.006408,-0.001961,0.009061,87.292831,17.748749,-147.469543,,,
729706104.774284,-8.195818,2.374775,171.489548,-0.039093,-0.146667,0.983566,-0.006408,-0.001961,0.009061,87.292831,17.748749,-147.469543,,,
729706104.77755,-8.197641,2.374108,171.491702,-0.037674,-0.140747,0.982101,-0.005137,0.001749,0.005918,87.292831,17.748749,-147.469543,,,
729706104.780739,-8.197641,2.374108,171.491702,-0.037674,-0.140747,0.982101,-0.005137,0.001749,0.005918,87.292831,17.748749,-147.469543,,,
729706104.784245,-8.200531,2.374818,171.493917,-0.037674,-0.140747,0.982101,-0.005137,0.001749,0.005918,87.292831,17.748749,-147.469543,,,
729706104.78755,-8.203915,2.375148,171.496473,-0.038071,-0.139267,0.977493,-0.012631,0.002279,0.008489,87.292831,17.748749,-147.469543,,,
729706104.790897,-8.203915,2.375148,171.496473,-0.038071,-0.139267,0.977493,-0.012631,0.002279,0.008489,87.407288,18.056656,-146.946198,,,
729706104.794232,-8.208361,2.375147,171.49951,-0.038071,-0.139267,0.977493,-0.012631,0.002279,0.008489,87.407288,18.056656,-146.946198,,,
729706104.797554,-8.214555,2.374028,171.502896,-0.042358,-0.139816,0.97113,-0.024774,-0.003792,0.010687,87.407288,18.056656,-146.946198,,,
729706104.800965,-8.214555,2.374028,171.502896,-0.042358,-0.139816,0.97113,-0.024774,-0.003792,0.010687,87.407288,18.056656,-146.946198,,,
729706104.804235,-8.222834,2.372738,171.506642,-0.042358,-0.139816,0.97113,-0.024774,-0.003792,0.010687,87.407288,18.056656,-146.946198,,,
729706104.807591,-8.232812,2.371091,171.510368,-0.044281,-0.141037,0.97142,-0.039192,-0.004866,0.010121,87.407288,18.056656,-146.946198,,,
729706104.810903,-8.232812,2.371091,171.510368,-0.044281,-0.141037,0.97142,-0.039192,-0.004866,0.010121,87.407288,18.056656,-146.946198,,,
729706104.814292,-8.245829,2.369304,171.514147,-0.044281,-0.141037,0.97142,-0.039192,-0.004866,0.010121,87.407288,18.056656,-146.946198,,,
729706104.817543,-8.260006,2.367589,171.517643,-0.041199,-0.141357,0.974396,-0.051373,-0.003608,0.007706,87.407288,18.056656,-146.946198,,,
729706104.820897,-8.260006,2.367589,171.517643,-0.041199,-0.141357,0.974396,-0.051373,-0.003608,0.007706,87.407288,18.056656,-146.946198,,,
729706104.824245,-8.275533,2.366404,171.520726,-0.041199,-0.141357,0.974396,-0.051373,-0.003608,0.007706,87.407288,18.056656,-146.946198,,,
729706104.827551,-8.291527,2.366876,171.523897,-0.038315,-0.143082,0.984283,-0.056614,0.005521,0.007797,87.407288,18.056656,-146.946198,,,
729706104.830884,-8.291527,2.366876,171.523897,-0.038315,-0.143082,0.984283,-0.056614,0.005521,0.007797,87.5672,17.817078,-146.885895,,,
729706104.834309,-8.30849,2.368618,171.526705,-0.038315,-0.143082,0.984283,-0.056614,0.005521,0.007797,87.5672,17.817078,-146.885895,,,
729706104.837541,-8.325993,2.373095,171.529683,-0.039658,-0.14682,0.99556,-0.059896,0.020286,0.00823,87.5672,17.817078,-146.885895,,,
729706104.840959,-8.325993,2.373095,171.529683,-0.039658,-0.14682,0.99556,-0.059896,0.020286,0.00823,87.5672,17.817078,-146.885895,,,
729706104.844228,-8.342585,2.378738,171.533699,-0.039658,-0.14682,0.99556,-0.059896,0.020286,0.00823,87.5672,17.817078,-146.885895,,,
729706104.847553,-8.357193,2.385486,171.538581,-0.042953,-0.152252,1.003403,-0.048334,0.025159,0.014409,87.5672,17.817078,-146.885895,,,
729706104.850903,-8.357193,2.385486,171.538581,-0.042953,-0.152252,1.003403,-0.048334,0.025159,0.014409,87.5672,17.817078,-146.885895,,,
729706104.854317,-8.370606,2.391933,171.544207,-0.042953,-0.152252,1.003403,-0.048334,0.025159,0.014409,87.5672,17.817078,-146.885895,,,
729706104.857546,-8.382199,2.398146,171.550655,-0.04158,-0.1539,1.006317,-0.035686,0.020664,0.020294,87.5672,17.817078,-146.885895,,,
729706104.860901,-8.382199,2.398146,171.550655,-0.04158,-0.1539,1.006317,-0.035686,0.020664,0.020294,87.5672,17.817078,-146.885895,,,
729706104.864232,-8.390943,2.403248,171.557026,-0.04158,-0.1539,1.006317,-0.035686,0.020664,0.020294,87.5672,17.817078,-146.885895,,,
729706104.867553,-8.398513,2.407703,171.562783,-0.040833,-0.152557,1.009674,-0.023108,0.014418,0.016283,87.5672,17.817078,-146.885895,,,
729706104.870879,-8.398513,2.407703,171.562783,-0.040833,-0.152557,1.009674,-0.023108,0.014418,0.016283,87.639709,17.864578,-146.809387,,,
729706104.874239,-8.403517,2.410499,171.56781,-0.040833,-0.152557,1.009674,-0.023108,0.014418,0.016283,87.639709,17.864578,-146.809387,,,
729706104.877556,-8.406783,2.411612,171.571676,-0.041595,-0.153793,1.008575,-0.007469,0.002623,0.008766,87.639709,17.864578,-146.809387,,,
729706104.88095,-8.406783,2.411612,171.571676,-0.041595,-0.153793,1.008575,-0.007469,0.002623,0.008766,87.639709,17.864578,-146.809387,,,
729706104.884232,-8.408031,2.411352,171.574394,-0.041595,-0.153793,1.008575,-0.007469,0.002623,0.008766,87.639709,17.864578,-146.809387,,,
729706104.887576,-8.407814,2.408405,171.576393,-0.042908,-0.15332,1.005463,0.005699,-0.01299,0.004735,87.639709,17.864578,-146.809387,,,
729706104.890907,-8.407814,2.408405,171.576393,-0.042908,-0.15332,1.005463,0.005699,-0.01299,0.004735,87.639709,17.864578,-146.809387,,,
729706104.89422,-8.405654,2.403873,171.577516,-0.042908,-0.15332,1.005463,0.005699,-0.01299,0.004735,87.639709,17.864578,-146.809387,,,
729706104.89755,-8.402941,2.398479,171.578435,-0.040482,-0.15271,1.001617,0.011206,-0.017507,0.00373,87.639709,17.864578,-146.809387,,,
729706104.900914,-8.402941,2.398479,171.578435,-0.040482,-0.15271,1.001617,0.011206,-0.017507,0.00373,87.639709,17.864578,-146.809387,,,
729706104.904278,-8.399385,2.39234,171.579753,-0.040482,-0.15271,1.001617,0.011206,-0.017507,0.00373,87.639709,17.864578,-146.809387,,,
729706104.907548,-8.395605,2.386108,171.58066,-0.037491,-0.148392,0.999268,0.014605,-0.018507,0.000927,87.639709,17.864578,-146.809387,,,
729706104.910884,-8.395605,2.386108,171.58066,-0.037491,-0.148392,0.999268,0.014605,-0.018507,0.000927,87.44873,18.071686,-146.741745,,,
729706104.914235,-8.391332,2.380545,171.581663,-0.037491,-0.148392,0.999268,0.014605,-0.018507,0.000927,87.44873,18.071686,-146.741745,,,
729706104.917555,-8.387836,2.377197,171.582974,-0.035202,-0.147049,1.000565,0.01118,-0.00593,0.002559,87.44873,18.071686,-146.741745,,,
729706104.920957,-8.387836,2.377197,171.582974,-0.035202,-0.147049,1.000565,0.01118,-0.00593,0.002559,87.44873,18.071686,-146.741745,,,
729706104.92421,-8.385018,2.376183,171.584187,-0.035202,-0.147049,1.000565,0.01118,-0.00593,0.002559,87.44873,18.071686,-146.741745,,,
729706104.927559,-8.38238,2.37777,171.585909,-0.03653,-0.149704,1.002045,0.008232,0.01144,0.005893,87.44873,18.071686,-146.741745,,,
729706104.930684,-8.38238,2.37777,171.585909,-0.03653,-0.149704,1.002045,0.008232,0.01144,0.005893,87.44873,18.071686,-146.741745,,,
729706104.934257,-8.380379,2.381836,171.588348,-0.03653,-0.149704,1.002045,0.008232,0.01144,0.005893,87.44873,18.071686,-146.741745,,,
729706104.937555,-8.376999,2.387435,171.591862,-0.039612,-0.149612,1.00148,0.013228,0.021951,0.013676,87.44873,18.071686,-146.741745,,,
729706104.940904,-8.376999,2.387435,171.591862,-0.039612,-0.149612,1.00148,0.013228,0.021951,0.013676,87.44873,18.071686,-146.741745,,,
729706104.944299,-8.373624,2.394085,171.596041,-0.039612,-0.149612,1.00148,0.013228,0.021951,0.013676,87.44873,18.071686,-146.741745,,,
729706104.947545,-8.369412,2.401237,171.600386,-0.038818,-0.145203,0.99939,0.015337,0.024501,0.014798,87.44873,18.071686,-146.741745,,,
729706104.950884,-8.369412,2.401237,171.600386,-0.038818,-0.145203,0.99939,0.015337,0.024501,0.014798,87.44873,18.071686,-146.741745,,,
729706104.954237,-8.365021,2.407692,171.604964,-0.038818,-0.145203,0.99939,0.015337,0.024501,0.014798,87.555267,17.954681,-146.848907,,,
729706104.957551,-8.359163,2.413557,171.609323,-0.041702,-0.142197,0.992966,0.022672,0.019911,0.013465,87.555267,17.954681,-146.848907,,,
729706104.9609,-8.359163,2.413557,171.609323,-0.041702,-0.142197,0.992966,0.022672,0.019911,0.013465,87.555267,17.954681,-146.848907,,,
729706104.964215,-8.353911,2.418071,171.612637,-0.041702,-0.142197,0.992966,0.022672,0.019911,0.013465,87.555267,17.954681,-146.848907,,,
729706104.967547,-8.348358,2.420814,171.614169,-0.040817,-0.138809,0.988281,0.02123,0.009326,0.001112,87.555267,17.954681,-146.848907,,,
729706104.970967,-8.348358,2.420814,171.614169,-0.040817,-0.138809,0.988281,0.02123,0.009326,0.001112,87.555267,17.954681,-146.848907,,,
729706104.974227,-8.343165,2.422159,171.614244,-0.040817,-0.138809,0.988281,0.02123,0.009326,0.001112,87.555267,17.954681,-146.848907,,,
729706104.977557,-8.337621,2.42239,171.613151,-0.039032,-0.137573,0.986496,0.019604,0.002425,-0.007041,87.555267,17.954681,-146.848907,,,
729706104.980939,-8.337621,2.42239,171.613151,-0.039032,-0.137573,0.986496,0.019604,0.002425,-0.007041,87.555267,17.954681,-146.848907,,,
729706104.984219,-8.332817,2.421601,171.610691,-0.039032,-0.137573,0.986496,0.019604,0.002425,-0.007041,87.555267,17.954681,-146.848907,,,
729706104.987559,-8.327807,2.42073,171.607928,-0.038925,-0.140015,0.98436,0.018605,-0.000649,-0.009561,87.555267,17.954681,-146.848907,,,
729706104.990902,-8.327807,2.42073,171.607928,-0.038925,-0.140015,0.98436,0.018605,-0.000649,-0.009561,87.555267,17.954681,-146.848907,,,
729706104.994275,-8.322973,2.418223,171.605352,-0.038925,-0.140015,0.98436,0.018605,-0.000649,-0.009561,87.523193,18.134033,-146.41423,,,
729706104.99755,-8.31795,2.416704,171.603122,-0.037384,-0.140976,0.986572,0.01934,0.001307,-0.007846,87.523193,18.134033,-146.41423,,,
729706105.000922,-8.31795,2.416704,171.603122,-0.037384,-0.140976,0.986572,0.01934,0.001307,-0.007846,87.523193,18.134033,-146.41423,,,
729706105.004224,-8.313107,2.4157,171.60072,-0.037384,-0.140976,0.986572,0.01934,0.001307,-0.007846,87.523193,18.134033,-146.41423,,,
729706105.007593,-8.308019,2.418123,171.598558,-0.036743,-0.143234,0.993393,0.019662,0.018654,-0.00708,87.523193,18.134033,-146.41423,,,
729706105.010947,-8.308019,2.418123,171.598558,-0.036743,-0.143234,0.993393,0.019662,0.018654,-0.00708,87.523193,18.134033,-146.41423,,,
729706105.014233,-8.303174,2.423065,171.596656,-0.036743,-0.143234,0.993393,0.019662,0.018654,-0.00708,87.523193,18.134033,-146.41423,,,
729706105.017556,-8.29794,2.430571,171.595104,-0.040085,-0.145325,0.996216,0.01956,0.033532,-0.005041,87.523193,18.134033,-146.41423,,,
729706105.020923,-8.29794,2.430571,171.595104,-0.040085,-0.145325,0.996216,0.01956,0.033532,-0.005041,87.523193,18.134033,-146.41423,,,
729706105.024268,-8.292769,2.4395,171.594176,-0.040085,-0.145325,0.996216,0.01956,0.033532,-0.005041,87.523193,18.134033,-146.41423,,,
729706105.027553,-8.287515,2.450602,171.594354,-0.043701,-0.143829,0.996643,0.018372,0.045172,0.002212,87.523193,18.134033,-146.41423,,,
729706105.030993,-8.287515,2.450602,171.594354,-0.043701,-0.143829,0.996643,0.018372,0.045172,0.002212,87.523193,18.134033,-146.41423,,,
729706105.034219,-8.282539,2.462799,171.595038,-0.043701,-0.143829,0.996643,0.018372,0.045172,0.002212,87.464645,18.018188,-146.900131,,,
729706105.037568,-8.277756,2.475791,171.596302,-0.045471,-0.141891,0.98996,0.018557,0.047917,0.005884,87.464645,18.018188,-146.900131,,,
729706105.040895,-8.277756,2.475791,171.596302,-0.045471,-0.141891,0.98996,0.018557,0.047917,0.005884,87.464645,18.018188,-146.900131,,,
729706105.044303,-8.272598,2.488231,171.598299,-0.045471,-0.141891,0.98996,0.018557,0.047917,0.005884,87.464645,18.018188,-146.900131,,,
729706105.047592,-8.267947,2.499659,171.600501,-0.049362,-0.139572,0.985229,0.017606,0.040563,0.007237,87.464645,18.018188,-146.900131,,,
729706105.050909,-8.267947,2.499659,171.600501,-0.049362,-0.139572,0.985229,0.017606,0.040563,0.007237,87.464645,18.018188,-146.900131,,,
729706105.054238,-8.262047,2.509349,171.602575,-0.049362,-0.139572,0.985229,0.017606,0.040563,0.007237,87.464645,18.018188,-146.900131,,,
729706105.057563,-8.256863,2.517103,171.604472,-0.049088,-0.138397,0.98201,0.016835,0.024057,0.005514,87.464645,18.018188,-146.900131,,,
729706105.060902,-8.256863,2.517103,171.604472,-0.049088,-0.138397,0.98201,0.016835,0.024057,0.005514,87.464645,18.018188,-146.900131,,,
729706105.064247,-8.251729,2.521697,171.605872,-0.049088,-0.138397,0.98201,0.016835,0.024057,0.005514,87.464645,18.018188,-146.900131,,,
729706105.067561,-8.247142,2.525025,171.606401,-0.046143,-0.135834,0.978775,0.016543,0.013234,-0.000876,87.464645,18.018188,-146.900131,,,
729706105.070957,-8.247142,2.525025,171.606401,-0.046143,-0.135834,0.978775,0.016543,0.013234,-0.000876,87.464645,18.018188,-146.900131,,,
729706105.074237,-8.242513,2.526545,171.605851,-0.046143,-0.135834,0.978775,0.016543,0.013234,-0.000876,87.464645,18.018188,-146.900131,,,
729706105.077565,-8.238615,2.527423,171.604905,-0.045807,-0.138672,0.97908,0.013147,0.004498,-0.004438,87.40213,18.158051,-146.786636,,,
729706105.080909,-8.238615,2.527423,171.604905,-0.045807,-0.138672,0.97908,0.013147,0.004498,-0.004438,87.40213,18.158051,-146.786636,,,
729706105.084333,-8.235139,2.526383,171.60337,-0.045807,-0.138672,0.97908,0.013147,0.004498,-0.004438,87.40213,18.158051,-146.786636,,,
729706105.087553,-8.232494,2.525811,171.601347,-0.043823,-0.137299,0.978119,0.008308,0.003671,-0.008695,87.40213,18.158051,-146.786636,,,
729706105.090969,-8.232494,2.525811,171.601347,-0.043823,-0.137299,0.978119,0.008308,0.003671,-0.008695,87.40213,18.158051,-146.786636,,,
729706105.094237,-8.231114,2.525643,171.599135,-0.043823,-0.137299,0.978119,0.008308,0.003671,-0.008695,87.40213,18.158051,-146.786636,,,
729706105.097564,-8.230811,2.52789,171.597411,-0.041733,-0.137039,0.978516,8.8e-05,0.015366,-0.006378,87.40213,18.158051,-146.786636,,,
729706105.10092,-8.230811,2.52789,171.597411,-0.041733,-0.137039,0.978516,8.8e-05,0.015366,-0.006378,87.40213,18.158051,-146.786636,,,
729706105.104231,-8.231761,2.531722,171.596189,-0.041733,-0.137039,0.978516,8.8e-05,0.015366,-0.006378,87.40213,18.158051,-146.786636,,,
729706105.107566,-8.233663,2.537185,171.595544,-0.041306,-0.140076,0.978378,-0.007172,0.024141,-0.003017,87.40213,18.158051,-146.786636,,,
729706105.110995,-8.233663,2.537185,171.595544,-0.041306,-0.140076,0.978378,-0.007172,0.024141,-0.003017,87.40213,18.158051,-146.786636,,,
729706105.114253,-8.236058,2.543518,171.595525,-0.041306,-0.140076,0.978378,-0.007172,0.024141,-0.003017,87.40213,18.158051,-146.786636,,,
729706105.117576,-8.238656,2.550798,171.595695,-0.042603,-0.142014,0.98201,-0.008249,0.030998,-0.001697,87.665939,17.952133,-146.720718,,,
729706105.1209,-8.238656,2.550798,171.595695,-0.042603,-0.142014,0.98201,-0.008249,0.030998,-0.001697,87.665939,17.952133,-146.720718,,,
729706105.124244,-8.240659,2.55936,171.595531,-0.042603,-0.142014,0.98201,-0.008249,0.030998,-0.001697,87.665939,17.952133,-146.720718,,,
729706105.127575,-8.242834,2.567679,171.594883,-0.042328,-0.140442,0.981491,-0.006786,0.032653,-0.004578,87.665939,17.952133,-146.720718,,,
729706105.130924,-8.242834,2.567679,171.594883,-0.042328,-0.140442,0.981491,-0.006786,0.032653,-0.004578,87.665939,17.952133,-146.720718,,,
729706105.134313,-8.244073,2.576096,171.593913,-0.042328,-0.140442,0.981491,-0.006786,0.032653,-0.004578,87.665939,17.952133,-146.720718,,,
729706105.137561,-8.244744,2.583217,171.591926,-0.041672,-0.140533,0.979721,-0.000351,0.028911,-0.010685,87.665939,17.952133,-146.720718,,,
729706105.140918,-8.244744,2.583217,171.591926,-0.041672,-0.140533,0.979721,-0.000351,0.028911,-0.010685,87.665939,17.952133,-146.720718,,,
729706105.14424,-8.244374,2.589979,171.588982,-0.041672,-0.140533,0.979721,-0.000351,0.028911,-0.010685,87.665939,17.952133,-146.720718,,,
729706105.147569,-8.244749,2.59489,171.585692,-0.043411,-0.142136,0.979279,-0.001073,0.019033,-0.01271,87.665939,17.952133,-146.720718,,,
729706105.150924,-8.244749,2.59489,171.585692,-0.043411,-0.142136,0.979279,-0.001073,0.019033,-0.01271,87.665939,17.952133,-146.720718,,,
729706105.154241,-8.244917,2.598905,171.582186,-0.043411,-0.142136,0.979279,-0.001073,0.019033,-0.01271,87.665939,17.952133,-146.720718,,,
729706105.157582,-8.245348,2.601816,171.578687,-0.045273,-0.142548,0.978683,0.00078,0.012594,-0.012429,87.599396,17.91832,-146.83136,,,
729706105.160974,-8.245348,2.601816,171.578687,-0.045273,-0.142548,0.978683,0.00078,0.012594,-0.012429,87.599396,17.91832,-146.83136,,,
729706105.16424,-8.245099,2.605122,171.575903,-0.045273,-0.142548,0.978683,0.00078,0.012594,-0.012429,87.599396,17.91832,-146.83136,,,
729706105.167582,-8.24591,2.609006,171.573797,-0.044006,-0.144485,0.981995,-0.004086,0.016918,-0.007871,87.599396,17.91832,-146.83136,,,
729706105.170926,-8.24591,2.609006,171.573797,-0.044006,-0.144485,0.981995,-0.004086,0.016918,-0.007871,87.599396,17.91832,-146.83136,,,
729706105.174329,-8.24716,2.613114,171.572186,-0.044006,-0.144485,0.981995,-0.004086,0.016918,-0.007871,87.599396,17.91832,-146.83136,,,
729706105.177625,-8.249459,2.618903,171.570985,-0.04512,-0.145981,0.984833,-0.007669,0.025785,-0.005537,87.599396,17.91832,-146.83136,,,
729706105.180929,-8.249459,2.618903,171.570985,-0.04512,-0.145981,0.984833,-0.007669,0.025785,-0.005537,87.599396,17.91832,-146.83136,,,
729706105.184271,-8.25108,2.625344,171.570533,-0.04512,-0.145981,0.984833,-0.007669,0.025785,-0.005537,87.599396,17.91832,-146.83136,,,
729706105.187658,-8.252408,2.632117,171.570321,-0.048828,-0.147476,0.986542,-0.002625,0.026074,-0.003911,87.599396,17.91832,-146.83136,,,
729706105.190928,-8.252408,2.632117,171.570321,-0.048828,-0.147476,0.986542,-0.002625,0.026074,-0.003911,87.599396,17.91832,-146.83136,,,
729706105.194291,-8.252494,2.638085,171.569997,-0.048828,-0.147476,0.986542,-0.002625,0.026074,-0.003911,87.599396,17.91832,-146.83136,,,
729706105.197602,-8.250929,2.643699,171.570024,-0.048828,-0.147476,0.986542,0.010066,0.020265,-0.00135,87.818802,17.940948,-146.823074,,,
729706105.200921,-8.250929,2.643699,171.570024,-0.050247,-0.147034,0.989746,0.010066,0.020265,-0.00135,87.818802,17.940948,-146.823074,,,
729706105.204253,-8.247494,2.648026,171.569877,-0.050247,-0.147034,0.989746,0.010066,0.020265,-0.00135,87.818802,17.940948,-146.823074,,,
729706105.207605,-8.243329,2.651635,171.569704,-0.049438,-0.145233,0.989426,0.016198,0.013244,-0.001533,87.818802,17.940948,-146.823074,,,
729706105.210939,-8.243329,2.651635,171.569704,-0.049438,-0.145233,0.989426,0.016198,0.013244,-0.001533,87.818802,17.940948,-146.823074,,,
729706105.214063,-8.237768,2.653401,171.568975,-0.049438,-0.145233,0.989426,0.016198,0.013244,-0.001533,87.818802,17.940948,-146.823074,,,
729706105.217611,-8.232158,2.654691,171.567414,-0.050583,-0.142075,0.984833,0.019003,0.007629,-0.00764,87.818802,17.940948,-146.823074,,,
729706105.220935,-8.232158,2.654691,171.567414,-0.050583,-0.142075,0.984833,0.019003,0.007629,-0.00764,87.818802,17.940948,-146.823074,,,
729706105.224335,-8.22742,2.654498,171.565368,-0.050583,-0.142075,0.984833,0.019003,0.007629,-0.00764,87.818802,17.940948,-146.823074,,,
729706105.227594,-8.22742,2.654498,171.565368,-0.050583,-0.142075,0.984833,0.019003,0.007629,-0.00764,87.818802,17.940948,-146.823074,,,
729706105.230935,-8.223743,2.653649,171.56333,-0.050247,-0.139236,0.979721,0.011856,0.000279,-0.00831,87.818802,17.940948,-146.823074,,,
729706105.23426,-8.221927,2.652008,171.560724,-0.050247,-0.139236,0.979721,0.011856,0.000279,-0.00831,87.818802,17.940948,-146.823074,,,
729706105.23763,-8.221927,2.652008,171.560724,-0.050247,-0.139236,0.979721,-0.000677,-0.005736,-0.010027,87.818802,17.940948,-146.823074,,,
729706105.240943,-8.221722,2.649456,171.557949,-0.050415,-0.140442,0.977646,-0.000677,-0.005736,-0.010027,87.535919,17.827316,-146.586929,,,
729706105.244299,-8.223369,2.646898,171.555232,-0.050415,-0.140442,0.977646,-0.000677,-0.005736,-0.010027,87.535919,17.827316,-146.586929,,,
729706105.247612,-8.223369,2.646898,171.555232,-0.050415,-0.140442,0.977646,-0.009342,-0.001268,-0.010838,87.535919,17.827316,-146.586929,,,
729706105.251016,-8.22601,2.645139,171.552478,-0.049622,-0.142242,0.98024,-0.009342,-0.001268,-0.010838,87.535919,17.827316,-146.586929,,,
729706105.254266,-8.22971,2.644451,171.550583,-0.049622,-0.142242,0.98024,-0.009342,-0.001268,-0.010838,87.535919,17.827316,-146.586929,,,
729706105.257675,-8.22971,2.644451,171.549724,-0.049622,-0.142242,0.98024,-0.009342,-0.001268,-0.010838,87.535919,17.827316,-146.586929,,,
729706105.260962,-8.233735,2.645424,171.549724,-0.050003,-0.144547,0.983444,-0.014076,0.008547,-0.004022,87.535919,17.827316,-146.586929,,,
729706105.264268,-8.238518,2.647377,171.549455,-0.050003,-0.144547,0.983444,-0.014076,0.008547,-0.004022,87.535919,17.827316,-146.586929,,,
729706105.267603,-8.238518,2.647377,171.549455,-0.050003,-0.144547,0.983444,-0.014076,0.008547,-0.004022,87.535919,17.827316,-146.586929,,,
729706105.270955,-8.242468,2.650164,171.54939,-0.050583,-0.145554,0.986023,-0.011249,0.015924,-0.002229,87.535919,17.827316,-146.586929,,,
729706105.27427,-8.246259,2.654799,171.55006,-0.050583,-0.145554,0.986023,-0.011249,0.015924,-0.002229,87.535919,17.827316,-146.586929,,,
729706105.277709,-8.246259,2.654799,171.55006,-0.050583,-0.145554,0.986023,-0.011249,0.015924,-0.002229,87.535919,17.827316,-146.586929,,,
729706105.280941,-8.248433,2.66038,171.551901,-0.0495,-0.144485,0.991714,-0.003561,0.024905,0.006696,87.681473,18.148331,-146.849365,,,
729706105.284282,-8.249369,2.668627,171.554158,-0.0495,-0.144485,0.991714,-0.003561,0.024905,0.006696,87.681473,18.148331,-146.849365,,,
729706105.287656,-8.249369,2.668627,171.554158,-0.0495,-0.144485,0.991714,-0.003561,0.024905,0.006696,87.681473,18.148331,-146.849365,,,
729706105.291007,-8.249577,2.677938,171.555793,-0.048431,-0.142288,0.991165,-0.000257,0.0358,0.002981,87.681473,18.148331,-146.849365,,,
729706105.294275,-8.249752,2.688064,171.557487,-0.048431,-0.142288,0.991165,-0.000257,0.0358,0.002981,87.681473,18.148331,-146.849365,,,
729706105.297649,-8.249752,2.688064,171.557487,-0.048431,-0.142288,0.991165,-0.000257,0.0358,0.002981,87.681473,18.148331,-146.849365,,,
729706105.300958,-8.249844,2.697967,171.559382,-0.051224,-0.142426,0.989609,-0.000465,0.036888,0.004771,87.681473,18.148331,-146.849365,,,
729706105.304282,-8.250291,2.708541,171.561157,-0.051224,-0.142426,0.989609,-0.000465,0.036888,0.004771,87.681473,18.148331,-146.849365,,,
729706105.307681,-8.250291,2.708541,171.561157,-0.051224,-0.142426,0.989609,-0.000465,0.036888,0.004771,87.681473,18.148331,-146.849365,,,
729706105.310953,-8.251973,2.718851,171.56279,-0.051956,-0.142883,0.991379,-0.006807,0.03826,0.003942,87.681473,18.148331,-146.849365,,,
729706105.31428,-8.254297,2.728922,171.564613,-0.051956,-0.142883,0.991379,-0.006807,0.03826,0.003942,87.681473,18.148331,-146.849365,,,
729706105.317733,-8.254297,2.728922,171.564613,-0.051956,-0.142883,0.991379,-0.006807,0.03826,0.003942,87.681473,18.148331,-146.849365,,,
729706105.320941,-8.257302,2.737602,171.566735,-0.052338,-0.145691,0.993332,-0.01042,0.031219,0.00625,87.637451,18.07309,-146.899765,,,
729706105.324296,-8.259714,2.745089,171.569179,-0.052338,-0.145691,0.993332,-0.01042,0.031219,0.00625,87.637451,18.07309,-146.899765,,,
729706105.327657,-8.259714,2.745089,171.569179,-0.052338,-0.145691,0.993332,-0.01042,0.031219,0.00625,87.637451,18.07309,-146.899765,,,
729706105.331012,-8.261816,2.750167,171.571828,-0.05452,-0.145004,0.991623,-0.007932,0.016839,0.008151,87.637451,18.07309,-146.899765,,,
729706105.334283,-8.263221,2.753938,171.574991,-0.05452,-0.145004,0.991623,-0.007932,0.016839,0.008151,87.637451,18.07309,-146.899765,,,
729706105.33767,-8.263221,2.753938,171.574991,-0.05452,-0.145004,0.991623,-0.007932,0.016839,0.008151,87.637451,18.07309,-146.899765,,,
729706105.341093,-8.262774,2.756102,171.578136,-0.05368,-0.147629,0.994659,0.003908,0.007807,0.008859,87.637451,18.07309,-146.899765,,,
729706105.344402,-8.261302,2.757902,171.580835,-0.05368,-0.147629,0.994659,0.003908,0.007807,0.008859,87.637451,18.07309,-146.899765,,,
729706105.347647,-8.261302,2.757902,171.580835,-0.05368,-0.147629,0.994659,0.003908,0.007807,0.008859,87.637451,18.07309,-146.899765,,,
729706105.350971,-8.258418,2.759808,171.582882,-0.049911,-0.147812,0.999725,0.012374,0.011225,0.005104,87.637451,18.07309,-146.899765,,,
729706105.354298,-8.254751,2.763514,171.584297,-0.049911,-0.147812,0.999725,0.012374,0.011225,0.005104,87.637451,18.07309,-146.899765,,,
729706105.357663,-8.254751,2.763514,171.584297,-0.049911,-0.147812,0.999725,0.012374,0.011225,0.005104,87.637451,18.07309,-146.899765,,,
729706105.360965,-8.250683,2.768248,171.58548,-0.047714,-0.146729,1.001526,0.013985,0.020655,0.003914,87.732834,17.812775,-146.794281,,,
729706105.364292,-8.245899,2.774171,171.586912,-0.047714,-0.146729,1.001526,0.013985,0.020655,0.003914,87.732834,17.812775,-146.794281,,,
729706105.367671,-8.245899,2.774171,171.586912,-0.047714,-0.146729,1.001526,0.013985,0.020655,0.003914,87.732834,17.812775,-146.794281,,,
729706105.371063,-8.240753,2.780649,171.588546,-0.044128,-0.144791,0.997971,0.016639,0.024866,0.005524,87.732834,17.812775,-146.794281,,,
729706105.374299,-8.236208,2.787529,171.59079,-0.044128,-0.144791,0.997971,0.016639,0.024866,0.005524,87.732834,17.812775,-146.794281,,,
729706105.377653,-8.236208,2.787529,171.59079,-0.044128,-0.144791,0.997971,0.016639,0.024866,0.005524,87.732834,17.812775,-146.794281,,,
729706105.380979,-8.231995,2.79457,171.593565,-0.045883,-0.146683,0.990356,0.015648,0.026043,0.009229,87.732834,17.812775,-146.794281,,,
729706105.384308,-8.228425,2.802222,171.596699,-0.045883,-0.146683,0.990356,0.015648,0.026043,0.009229,87.732834,17.812775,-146.794281,,,
729706105.387654,-8.228425,2.802222,171.596699,-0.045883,-0.146683,0.990356,0.015648,0.026043,0.009229,87.732834,17.812775,-146.794281,,,
729706105.390977,-8.226307,2.809545,171.600198,-0.043854,-0.142044,0.984756,0.005905,0.026642,0.011762,87.732834,17.812775,-146.794281,,,
729706105.394308,-8.225565,2.816948,171.603048,-0.043854,-0.142044,0.984756,0.005905,0.026642,0.011762,87.732834,17.812775,-146.794281,,,
729706105.397777,-8.225565,2.816948,171.603048,-0.043854,-0.142044,0.984756,0.005905,0.026642,0.011762,87.732834,17.812775,-146.794281,,,
729706105.400971,-8.226701,2.823578,171.604837,-0.043732,-0.137543,0.97464,-0.007565,0.024939,0.004144,87.732834,17.812775,-146.794281,,,
729706105.404316,-8.230017,2.829677,171.605929,-0.043732,-0.137543,0.97464,-0.007565,0.024939,0.004144,87.557373,17.987335,-146.535507,,,
729706105.407664,-8.230017,2.829677,171.605929,-0.043732,-0.137543,0.97464,-0.007565,0.024939,0.004144,87.557373,17.987335,-146.535507,,,
729706105.411035,-8.235003,2.834313,171.606217,-0.044434,-0.136215,0.966629,-0.019941,0.018926,-0.001531,87.557373,17.987335,-146.535507,,,
729706105.414301,-8.242683,2.839428,171.606671,-0.044434,-0.136215,0.966629,-0.019941,0.018926,-0.001531,87.557373,17.987335,-146.535507,,,
729706105.417659,-8.242683,2.839428,171.606671,-0.044434,-0.136215,0.966629,-0.019941,0.018926,-0.001531,87.557373,17.987335,-146.535507,,,
729706105.420986,-8.252325,2.843795,171.607118,-0.046875,-0.136017,0.958786,-0.035658,0.017944,-0.001757,87.557373,17.987335,-146.535507,,,
729706105.424309,-8.264776,2.848207,171.608258,-0.046875,-0.136017,0.958786,-0.035658,0.017944,-0.001757,87.557373,17.987335,-146.535507,,,
729706105.42766,-8.264776,2.848207,171.608258,-0.046875,-0.136017,0.958786,-0.035658,0.017944,-0.001757,87.557373,17.987335,-146.535507,,,
729706105.430989,-8.280916,2.852795,171.609944,-0.047745,-0.134247,0.947113,-0.063578,0.019614,0.000729,87.557373,17.987335,-146.535507,,,
729706105.434315,-8.301492,2.857431,171.611972,-0.047745,-0.134247,0.947113,-0.063578,0.019614,0.000729,87.557373,17.987335,-146.535507,,,
729706105.437726,-8.301492,2.857431,171.611972,-0.047745,-0.134247,0.947113,-0.063578,0.019614,0.000729,87.557373,17.987335,-146.535507,,,
729706105.441003,-8.327028,2.862211,171.614781,-0.045486,-0.134232,0.936172,-0.099395,0.019342,0.004258,87.557373,17.987335,-146.535507,,,
729706105.444318,-8.358716,2.867468,171.617663,-0.045486,-0.134232,0.936172,-0.099395,0.019342,0.004258,87.80336,17.919922,-146.620331,,,
729706105.447664,-8.358716,2.867468,171.617663,-0.045486,-0.134232,0.936172,-0.099395,0.019342,0.004258,87.80336,17.919922,-146.620331,,,
729706105.45105,-8.397809,2.874416,171.619921,-0.043839,-0.130219,0.92836,-0.149239,0.029068,-0.003002,87.80336,17.919922,-146.620331,,,
729706105.454313,-8.444348,2.882075,171.621662,-0.043839,-0.130219,0.92836,-0.149239,0.029068,-0.003002,87.80336,17.919922,-146.620331,,,
729706105.457665,-8.444348,2.882075,171.621662,-0.043839,-0.130219,0.92836,-0.149239,0.029068,-0.003002,87.80336,17.919922,-146.620331,,,
729706105.46101,-8.499678,2.89188,171.623651,-0.041656,-0.125275,0.916367,-0.209825,0.04111,-0.004792,87.80336,17.919922,-146.620331,,,
729706105.464339,-8.564564,2.903531,171.625972,-0.041656,-0.125275,0.916367,-0.209825,0.04111,-0.004792,87.80336,17.919922,-146.620331,,,
729706105.467651,-8.564564,2.903531,171.625972,-0.041656,-0.125275,0.916367,-0.209825,0.04111,-0.004792,87.80336,17.919922,-146.620331,,,
729706105.471016,-8.639427,2.915937,171.629409,-0.045258,-0.122269,0.89624,-0.278717,0.043563,-0.000947,87.80336,17.919922,-146.620331,,,
729706105.474327,-8.725577,2.927981,171.634178,-0.045258,-0.122269,0.89624,-0.278717,0.043563,-0.000947,87.80336,17.919922,-146.620331,,,
729706105.477661,-8.725577,2.927981,171.634178,-0.045258,-0.122269,0.89624,-0.278717,0.043563,-0.000947,87.80336,17.919922,-146.620331,,,
729706105.481047,-8.82551,2.939243,171.639454,-0.043335,-0.11824,0.877014,-0.372346,0.036009,-0.002623,87.80336,17.919922,-146.620331,,,
729706105.484323,-8.941142,2.947729,171.645447,-0.043335,-0.11824,0.877014,-0.372346,0.036009,-0.002623,87.884354,18.78244,-146.319946,,,
729706105.487739,-8.941142,2.947729,171.645447,-0.043335,-0.11824,0.877014,-0.372346,0.036009,-0.002623,87.884354,18.78244,-146.319946,,,
729706105.491021,-9.076735,2.952749,171.653326,-0.047287,-0.11322,0.842407,-0.509381,0.008762,0.003046,87.884354,18.78244,-146.319946,,,
729706105.494423,-9.235043,2.953666,171.662941,-0.047287,-0.11322,0.842407,-0.509381,0.008762,0.003046,87.884354,18.78244,-146.319946,,,
729706105.4977,-9.235043,2.953666,171.662941,-0.047287,-0.11322,0.842407,-0.509381,0.008762,0.003046,87.884354,18.78244,-146.319946,,,
729706105.50104,-9.42018,2.951728,171.673972,-0.051559,-0.114563,0.811905,-0.694384,-0.013292,0.00314,87.884354,18.78244,-146.319946,,,
729706105.504335,-9.635194,2.948534,171.687017,-0.051559,-0.114563,0.811905,-0.694384,-0.013292,0.00314,87.884354,18.78244,-146.319946,,,
729706105.507688,-9.635194,2.948534,171.687017,-0.051559,-0.114563,0.811905,-0.694384,-0.013292,0.00314,87.884354,18.78244,-146.319946,,,
729706105.51109,-9.886266,2.945874,171.702693,-0.045837,-0.114197,0.797714,-0.944202,-0.013173,0.008341,87.884354,18.78244,-146.319946,,,
729706105.514356,-10.1789,2.945166,171.721406,-0.045837,-0.114197,0.797714,-0.944202,-0.013173,0.008341,87.884354,18.78244,-146.319946,,,
729706105.517667,-10.1789,2.945166,171.721406,-0.045837,-0.114197,0.797714,-0.944202,-0.013173,0.008341,87.884354,18.78244,-146.319946,,,
729706105.521028,-10.518067,2.945693,171.744181,-0.049469,-0.117645,0.772949,-1.267429,-0.010453,0.019416,87.884354,18.78244,-146.319946,,,
729706105.524307,-10.905903,2.94452,171.772841,-0.049469,-0.117645,0.772949,-1.267429,-0.010453,0.019416,87.881607,20.725159,-146.787521,,,
729706105.527639,-10.905903,2.94452,171.772841,-0.049469,-0.117645,0.772949,-1.267429,-0.010453,0.019416,87.881607,20.725159,-146.787521,,,
729706105.530806,-11.343763,2.938588,171.809688,-0.076324,-0.131607,0.74379,-1.617733,-0.056015,0.057325,87.881607,20.725159,-146.787521,,,
729706105.534308,-11.832173,2.928414,171.856643,-0.076324,-0.131607,0.74379,-1.617733,-0.056015,0.057325,87.881607,20.725159,-146.787521,,,
729706105.537602,-11.832173,2.928414,171.856643,-0.076324,-0.131607,0.74379,-1.617733,-0.056015,0.057325,87.881607,20.725159,-146.787521,,,
729706105.540685,-12.370967,2.917765,171.913821,-0.103348,-0.151825,0.739471,-1.971065,-0.07708,0.108955,87.881607,20.725159,-146.787521,,,
729706105.54435,-12.958596,2.909245,171.980221,-0.103348,-0.151825,0.739471,-1.971065,-0.07708,0.108955,87.881607,20.725159,-146.787521,,,
729706105.547725,-12.958596,2.909245,171.980221,-0.103348,-0.151825,0.739471,-1.971065,-0.07708,0.108955,87.881607,20.725159,-146.787521,,,
729706105.55101,-13.594474,2.902529,172.055023,-0.101578,-0.180191,0.746521,-2.308696,-0.082728,0.148181,87.881607,20.725159,-146.787521,,,
729706105.554379,-14.27698,2.89648,172.137208,-0.101578,-0.180191,0.746521,-2.308696,-0.082728,0.148181,87.881607,20.725159,-146.787521,,,
729706105.557685,-14.27698,2.89648,172.137208,-0.101578,-0.180191,0.746521,-2.308696,-0.082728,0.148181,87.881607,20.725159,-146.787521,,,
729706105.561096,-15.002292,2.889884,172.225692,-0.084763,-0.220566,0.747482,-2.607538,-0.104398,0.174261,87.881607,20.725159,-146.787521,,,
729706105.564339,-15.764698,2.881835,172.318664,-0.084763,-0.220566,0.747482,-2.607538,-0.104398,0.174261,87.881607,20.725159,-146.787521,,,
729706105.567663,-15.764698,2.881835,172.318664,-0.084763,-0.220566,0.747482,-2.607538,-0.104398,0.174261,87.630661,25.22139,-146.761276,,,
729706105.570962,-16.559756,2.873127,172.413441,-0.065536,-0.256912,0.770523,-2.834048,-0.120912,0.173261,87.630661,25.22139,-146.761276,,,
729706105.574307,-17.384336,2.86592,172.507572,-0.065536,-0.256912,0.770523,-2.834048,-0.120912,0.173261,87.630661,25.22139,-146.761276,,,
729706105.577643,-17.384336,2.86592,172.507572,-0.065536,-0.256912,0.770523,-2.834048,-0.120912,0.173261,87.630661,25.22139,-146.761276,,,
729706105.581025,-18.236295,2.86176,172.599276,-0.042999,-0.293381,0.797211,-3.022378,-0.103605,0.145288,87.630661,25.22139,-146.761276,,,
729706105.584347,-19.111273,2.86005,172.687061,-0.042999,-0.293381,0.797211,-3.022378,-0.103605,0.145288,87.630661,25.22139,-146.761276,,,
729706105.587738,-19.111273,2.86005,172.687061,-0.042999,-0.293381,0.797211,-3.022378,-0.103605,0.145288,87.630661,25.22139,-146.761276,,,
729706105.591014,-20.006137,2.859939,172.771587,-0.035034,-0.345139,0.818939,-3.158243,-0.093721,0.113954,87.630661,25.22139,-146.761276,,,
729706105.594353,-20.914706,2.859731,172.854013,-0.035034,-0.345139,0.818939,-3.158243,-0.093721,0.113954,87.630661,25.22139,-146.761276,,,
729706105.597686,-20.914706,2.859731,172.854013,-0.035034,-0.345139,0.818939,-3.158243,-0.093721,0.113954,87.630661,25.22139,-146.761276,,,
729706105.601056,-21.823131,2.853586,172.936307,-0.055527,-0.429962,0.828873,-3.155743,-0.143189,0.11021,87.630661,25.22139,-146.761276,,,
729706105.6044,-22.711395,2.835572,173.019824,-0.055527,-0.429962,0.828873,-3.155743,-0.143189,0.11021,87.630661,25.22139,-146.761276,,,
729706105.6077,-22.711395,2.835572,173.019824,-0.055527,-0.429962,0.828873,-3.155743,-0.143189,0.11021,87.135895,31.148605,-145.959534,,,
729706105.61105,-23.559865,2.803341,173.104578,-0.073883,-0.511002,0.91333,-2.877733,-0.253654,0.131019,87.135895,31.148605,-145.959534,,,
729706105.614373,-24.353882,2.758047,173.189742,-0.073883,-0.511002,0.91333,-2.877733,-0.253654,0.131019,87.135895,31.148605,-145.959534,,,
729706105.617712,-24.353882,2.758047,173.189742,-0.073883,-0.511002,0.91333,-2.877733,-0.253654,0.131019,87.135895,31.148605,-145.959534,,,
729706105.621037,-25.086385,2.703821,173.273596,-0.066208,-0.556686,1.025009,-2.44786,-0.319133,0.14466,87.135895,31.148605,-145.959534,,,
729706105.624357,-25.754701,2.641792,173.354351,-0.066208,-0.556686,1.025009,-2.44786,-0.319133,0.14466,87.135895,31.148605,-145.959534,,,
729706105.627758,-25.754701,2.641792,173.354351,-0.066208,-0.556686,1.025009,-2.44786,-0.319133,0.14466,87.135895,31.148605,-145.959534,,,
729706105.631029,-26.360767,2.568304,173.429906,-0.036896,-0.564148,1.05925,-2.011819,-0.38853,0.134618,87.135895,31.148605,-145.959534,,,
729706105.634385,-26.907711,2.478478,173.497996,-0.036896,-0.564148,1.05925,-2.011819,-0.38853,0.134618,87.135895,31.148605,-145.959534,,,
729706105.637708,-26.907711,2.478478,173.497996,-0.036896,-0.564148,1.05925,-2.011819,-0.38853,0.134618,87.135895,31.148605,-145.959534,,,
729706105.641083,-27.399961,2.369944,173.556514,-0.018295,-0.541824,1.032669,-1.627334,-0.492083,0.096079,87.135895,31.148605,-145.959534,,,
729706105.644357,-27.843252,2.245608,173.604495,-0.018295,-0.541824,1.032669,-1.627334,-0.492083,0.096079,87.135895,31.148605,-145.959534,,,
729706105.647701,-27.843252,2.245608,173.604495,-0.018295,-0.541824,1.032669,-1.627334,-0.492083,0.096079,86.046906,35.011581,-145.147705,,,
729706105.651029,-28.245417,2.108789,173.640372,-0.026764,-0.52269,1.014343,-1.33714,-0.541366,0.038458,86.046906,35.011581,-145.147705,,,
729706105.654366,-28.614538,1.961207,173.661868,-0.026764,-0.52269,1.014343,-1.33714,-0.541366,0.038458,86.046906,35.011581,-145.147705,,,
729706105.6577,-28.614538,1.961207,173.661868,-0.026764,-0.52269,1.014343,-1.33714,-0.541366,0.038458,86.046906,35.011581,-145.147705,,,
729706105.661049,-28.958234,1.803272,173.66675,-0.0168,-0.505585,0.980652,-1.156159,-0.558333,-0.050688,86.046906,35.011581,-145.147705,,,
729706105.664367,-29.283204,1.635929,173.653694,-0.0168,-0.505585,0.980652,-1.156159,-0.558333,-0.050688,86.046906,35.011581,-145.147705,,,
729706105.667775,-29.283204,1.635929,173.653694,-0.0168,-0.505585,0.980652,-1.156159,-0.558333,-0.050688,86.046906,35.011581,-145.147705,,,
729706105.671027,-29.597569,1.462899,173.625079,3.1e-05,-0.498642,0.934448,-1.07978,-0.544022,-0.136011,86.046906,35.011581,-145.147705,,,
729706105.67437,-29.908471,1.288138,173.584716,3.1e-05,-0.498642,0.934448,-1.07978,-0.544022,-0.136011,86.046906,35.011581,-145.147705,,,
729706105.677722,-29.908471,1.288138,173.584716,3.1e-05,-0.498642,0.934448,-1.07978,-0.544022,-0.136011,86.046906,35.011581,-145.147705,,,
729706105.681101,-30.222635,1.11472,173.537538,-0.001663,-0.500687,0.892136,-1.102553,-0.509546,-0.170227,86.046906,35.011581,-145.147705,,,
729706105.684365,-30.546169,0.945453,173.488863,-0.001663,-0.500687,0.892136,-1.102553,-0.509546,-0.170227,86.046906,35.011581,-145.147705,,,
729706105.687784,-30.546169,0.945453,173.488863,-0.001663,-0.500687,0.892136,-1.102553,-0.509546,-0.170227,86.046906,35.011581,-145.147705,,,
729706105.691051,-30.884201,0.781857,173.443285,-0.011948,-0.506775,0.844574,-1.205287,-0.479563,-0.145767,85.186218,37.041901,-144.745209,,,
729706105.694374,-31.241886,0.62578,173.40551,-0.011948,-0.506775,0.844574,-1.205287,-0.479563,-0.145767,85.186218,37.041901,-144.745209,,,
729706105.69773,-31.241886,0.62578,173.40551,-0.011948,-0.506775,0.844574,-1.205287,-0.479563,-0.145767,85.186218,37.041901,-144.745209,,,
729706105.701066,-31.622713,0.479602,173.379102,-0.019226,-0.51738,0.798065,-1.368343,-0.45063,-0.072337,85.186218,37.041901,-144.745209,,,
729706105.704373,-32.030289,0.344547,173.366548,-0.019226,-0.51738,0.798065,-1.368343,-0.45063,-0.072337,85.186218,37.041901,-144.745209,,,
729706105.707818,-32.030289,0.344547,173.366548,-0.019226,-0.51738,0.798065,-1.368343,-0.45063,-0.072337,85.186218,37.041901,-144.745209,,,
729706105.711063,-32.468658,0.219438,173.368606,-0.019531,-0.526749,0.752426,-1.584165,-0.43529,0.019498,85.186218,37.041901,-144.745209,,,
729706105.714391,-32.942456,0.100537,173.384394,-0.019531,-0.526749,0.752426,-1.584165,-0.43529,0.019498,85.186218,37.041901,-144.745209,,,
729706105.717738,-32.942456,0.100537,173.384394,-0.019531,-0.526749,0.752426,-1.584165,-0.43529,0.019498,85.186218,37.041901,-144.745209,,,
729706105.721117,-33.455475,-0.015257,173.41163,-0.007751,-0.529404,0.690781,-1.858029,-0.458282,0.092307,85.186218,37.041901,-144.745209,,,
729706105.724385,-34.009302,-0.128872,173.448319,-0.007751,-0.529404,0.690781,-1.858029,-0.458282,0.092307,85.186218,37.041901,-144.745209,,,
729706105.727715,-34.009302,-0.128872,173.448319,-0.007751,-0.529404,0.690781,-1.858029,-0.458282,0.092307,85.186218,37.041901,-144.745209,,,
729706105.73107,-34.603935,-0.240618,173.491271,0.001862,-0.53511,0.655319,-2.142538,-0.472131,0.135451,84.066986,40.3022,-143.738937,,,
729706105.734388,-35.239235,-0.351019,173.534601,0.001862,-0.53511,0.655319,-2.142538,-0.472131,0.135451,84.066986,40.3022,-143.738937,,,
729706105.737728,-35.239235,-0.351019,173.534601,0.001862,-0.53511,0.655319,-2.142538,-0.472131,0.135451,84.066986,40.3022,-143.738937,,,
729706105.741075,-35.912992,-0.45992,173.571301,0.034378,-0.546646,0.672607,-2.41113,-0.437806,0.106333,84.066986,40.3022,-143.738937,,,
729706105.744389,-36.623564,-0.566118,173.592836,0.034378,-0.546646,0.672607,-2.41113,-0.437806,0.106333,84.066986,40.3022,-143.738937,,,
729706105.74783,-36.623564,-0.566118,173.592836,0.034378,-0.546646,0.672607,-2.41113,-0.437806,0.106333,84.066986,40.3022,-143.738937,,,
729706105.751074,-37.36844,-0.669825,173.591895,0.082489,-0.56102,0.709442,-2.652161,-0.327893,-0.008176,84.066986,40.3022,-143.738937,,,
729706105.754391,-38.144127,-0.773422,173.564236,0.082489,-0.56102,0.709442,-2.652161,-0.327893,-0.008176,84.066986,40.3022,-143.738937,,,
729706105.75774,-38.144127,-0.773422,173.564236,0.082489,-0.56102,0.709442,-2.652161,-0.327893,-0.008176,84.066986,40.3022,-143.738937,,,
729706105.76114,-38.944933,-0.881037,173.507179,0.096283,-0.600784,0.716782,-2.830722,-0.226293,-0.154236,84.066986,40.3022,-143.738937,,,
729706105.764384,-39.765642,-0.997821,173.420635,0.096283,-0.600784,0.716782,-2.830722,-0.226293,-0.154236,84.066986,40.3022,-143.738937,,,
729706105.767758,-39.765642,-0.997821,173.420635,0.096283,-0.600784,0.716782,-2.830722,-0.226293,-0.154236,84.066986,40.3022,-143.738937,,,
729706105.771077,-40.598034,-1.129429,173.305679,0.086166,-0.660065,0.707565,-2.91677,-0.195266,-0.286035,83.668991,45.094193,-141.716217,,,
729706105.774403,-41.430767,-1.281237,173.164392,0.086166,-0.660065,0.707565,-2.91677,-0.195266,-0.286035,83.668991,45.094193,-141.716217,,,
729706105.777758,-41.430767,-1.281237,173.164392,0.086166,-0.660065,0.707565,-2.91677,-0.195266,-0.286035,83.668991,45.094193,-141.716217,,,
729706105.781079,-42.251081,-1.455988,173.000912,0.070969,-0.71994,0.727798,-2.835695,-0.241396,-0.377417,83.668991,45.094193,-141.716217,,,
729706105.78439,-43.049018,-1.654836,172.819239,0.070969,-0.71994,0.727798,-2.835695,-0.241396,-0.377417,83.668991,45.094193,-141.716217,,,
729706105.787819,-43.049018,-1.654836,172.819239,0.070969,-0.71994,0.727798,-2.835695,-0.241396,-0.377417,83.668991,45.094193,-141.716217,,,
729706105.79106,-43.816467,-1.877488,172.623891,0.058182,-0.754944,0.766541,-2.629056,-0.329185,-0.420956,83.668991,45.094193,-141.716217,,,
729706105.794402,-44.548849,-2.124838,172.419018,0.058182,-0.754944,0.766541,-2.629056,-0.329185,-0.420956,83.668991,45.094193,-141.716217,,,
729706105.797829,-44.548849,-2.124838,172.419018,0.058182,-0.754944,0.766541,-2.629056,-0.329185,-0.420956,83.668991,45.094193,-141.716217,,,
729706105.801072,-45.243811,-2.398321,172.208839,0.049744,-0.778015,0.771469,-2.373929,-0.472628,-0.421751,83.668991,45.094193,-141.716217,,,
729706105.804424,-45.900952,-2.69973,171.995765,0.049744,-0.778015,0.771469,-2.373929,-0.472628,-0.421751,83.668991,45.094193,-141.716217,,,
729706105.807764,-45.900952,-2.69973,171.995765,0.049744,-0.778015,0.771469,-2.373929,-0.472628,-0.421751,83.668991,45.094193,-141.716217,,,
729706105.811079,-46.521152,-3.02868,171.780821,0.047867,-0.794495,0.750519,-2.122175,-0.643801,-0.406494,82.509979,49.350082,-139.26474,,,
729706105.814418,-47.106325,-3.382673,171.564191,0.047867,-0.794495,0.750519,-2.122175,-0.643801,-0.406494,82.509979,49.350082,-139.26474,,,
729706105.817761,-47.106325,-3.382673,171.564191,0.047867,-0.794495,0.750519,-2.122175,-0.643801,-0.406494,82.509979,49.350082,-139.26474,,,
729706105.821097,-47.657677,-3.758232,171.344862,0.051254,-0.805145,0.749298,-1.893026,-0.770336,-0.396792,82.509979,49.350082,-139.26474,,,
729706105.824414,-48.17785,-4.151844,171.120184,0.051254,-0.805145,0.749298,-1.893026,-0.770336,-0.396792,82.509979,49.350082,-139.26474,,,
729706105.827748,-48.17785,-4.151844,171.120184,0.051254,-0.805145,0.749298,-1.893026,-0.770336,-0.396792,82.509979,49.350082,-139.26474,,,
729706105.831099,-48.669885,-4.558309,170.889139,0.057449,-0.812073,0.753754,-1.705238,-0.817802,-0.405174,82.509979,49.350082,-139.26474,,,
729706105.83443,-49.135994,-4.973053,170.652106,0.057449,-0.812073,0.753754,-1.705238,-0.817802,-0.405174,82.509979,49.350082,-139.26474,,,
729706105.837814,-49.135994,-4.973053,170.652106,0.057449,-0.812073,0.753754,-1.705238,-0.817802,-0.405174,82.509979,49.350082,-139.26474,,,
729706105.84108,-49.575094,-5.392119,170.41052,0.063919,-0.822021,0.746902,-1.525326,-0.815656,-0.408842,82.509979,49.350082,-139.26474,,,
729706105.844414,-49.985181,-5.809376,170.168439,0.063919,-0.822021,0.746902,-1.525326,-0.815656,-0.408842,82.509979,49.350082,-139.26474,,,
729706105.847762,-49.985181,-5.809376,170.168439,0.063919,-0.822021,0.746902,-1.525326,-0.815656,-0.408842,82.509979,49.350082,-139.26474,,,
729706105.851171,-50.366615,-6.217169,169.930775,0.061584,-0.835236,0.767395,-1.330085,-0.766173,-0.380186,82.509979,49.350082,-139.26474,,,
729706105.85447,-50.722716,-6.608226,169.701823,0.061584,-0.835236,0.767395,-1.330085,-0.766173,-0.380186,80.318848,52.421402,-137.554794,,,
729706105.857774,-50.722716,-6.608226,169.701823,0.061584,-0.835236,0.767395,-1.330085,-0.766173,-0.380186,80.318848,52.421402,-137.554794,,,
729706105.861092,-51.056898,-6.975459,169.486964,0.060242,-0.84639,0.77449,-1.175561,-0.670601,-0.312384,80.318848,52.421402,-137.554794,,,
729706105.864432,-51.372227,-7.314938,169.2913,0.060242,-0.84639,0.77449,-1.175561,-0.670601,-0.312384,80.318848,52.421402,-137.554794,,,
729706105.867775,-51.372227,-7.314938,169.2913,0.060242,-0.84639,0.77449,-1.175561,-0.670601,-0.312384,80.318848,52.421402,-137.554794,,,
729706105.871104,-51.672154,-7.624231,169.119203,0.060211,-0.864151,0.751663,-1.058769,-0.584498,-0.206543,80.318848,52.421402,-137.554794,,,
729706105.87446,-51.960031,-7.901927,168.973442,0.060211,-0.864151,0.751663,-1.058769,-0.584498,-0.206543,80.318848,52.421402,-137.554794,,,
729706105.877823,-51.960031,-7.901927,168.973442,0.060211,-0.864151,0.751663,-1.058769,-0.584498,-0.206543,80.318848,52.421402,-137.554794,,,
729706105.881093,-52.237417,-8.148818,168.854242,0.057556,-0.877899,0.723206,-0.971976,-0.51304,-0.090837,80.318848,52.421402,-137.554794,,,
729706105.884442,-52.507706,-8.36692,168.760433,0.057556,-0.877899,0.723206,-0.971976,-0.51304,-0.090837,80.318848,52.421402,-137.554794,,,
729706105.887774,-52.507706,-8.36692,168.760433,0.057556,-0.877899,0.723206,-0.971976,-0.51304,-0.090837,80.318848,52.421402,-137.554794,,,
729706105.891166,-52.775405,-8.55661,168.689204,0.064774,-0.888916,0.710403,-0.940503,-0.438457,0.01014,80.318848,52.421402,-137.554794,,,
729706105.894431,-53.044476,-8.720011,168.635092,0.064774,-0.888916,0.710403,-0.940503,-0.438457,0.01014,79.047424,53.952118,-136.438187,,,
729706105.89777,-53.044476,-8.720011,168.635092,0.064774,-0.888916,0.710403,-0.940503,-0.438457,0.01014,79.047424,53.952118,-136.438187,,,
729706105.9011,-53.317015,-8.86051,168.592819,0.075928,-0.891098,0.694733,-0.956756,-0.343971,0.069054,79.047424,53.952118,-136.438187,,,
729706105.904499,-53.593906,-8.981229,168.558552,0.075928,-0.891098,0.694733,-0.956756,-0.343971,0.069054,79.047424,53.952118,-136.438187,,,
729706105.907765,-53.593906,-8.981229,168.558552,0.075928,-0.891098,0.694733,-0.956756,-0.343971,0.069054,79.047424,53.952118,-136.438187,,,
729706105.911115,-53.875556,-9.085831,168.529309,0.080292,-0.891754,0.680603,-0.986148,-0.259312,0.099418,79.047424,53.952118,-136.438187,,,
729706105.914446,-54.161608,-9.176873,168.504236,0.080292,-0.891754,0.680603,-0.986148,-0.259312,0.099418,79.047424,53.952118,-136.438187,,,
729706105.917824,-54.161608,-9.176873,168.504236,0.080292,-0.891754,0.680603,-0.986148,-0.259312,0.099418,79.047424,53.952118,-136.438187,,,
729706105.921122,-54.450365,-9.254856,168.484532,0.075058,-0.898834,0.671997,-1.001306,-0.198321,0.127681,79.047424,53.952118,-136.438187,,,
729706105.924464,-54.740269,-9.320037,168.47063,0.075058,-0.898834,0.671997,-1.001306,-0.198321,0.127681,79.047424,53.952118,-136.438187,,,
729706105.927766,-54.740269,-9.320037,168.47063,0.075058,-0.898834,0.671997,-1.001306,-0.198321,0.127681,79.047424,53.952118,-136.438187,,,
729706105.931114,-55.028572,-9.373347,168.462919,0.069687,-0.902069,0.668015,-0.986158,-0.150661,0.152871,79.047424,53.952118,-136.438187,,,
729706105.934434,-55.31489,-9.416436,168.462306,0.069687,-0.902069,0.668015,-0.986158,-0.150661,0.152871,79.123154,55.292557,-135.491974,,,
729706105.937776,-55.31489,-9.416436,168.462306,0.069687,-0.902069,0.668015,-0.986158,-0.150661,0.152871,79.123154,55.292557,-135.491974,,,
729706105.941167,-55.598986,-9.45116,168.469251,0.065933,-0.897156,0.657974,-0.966118,-0.135804,0.181219,79.123154,55.292557,-135.491974,,,
729706105.944491,-55.878817,-9.479002,168.484123,0.065933,-0.897156,0.657974,-0.966118,-0.135804,0.181219,79.123154,55.292557,-135.491974,,,
729706105.947787,-55.878817,-9.479002,168.484123,0.065933,-0.897156,0.657974,-0.966118,-0.135804,0.181219,79.123154,55.292557,-135.491974,,,
729706105.95112,-56.153754,-9.502368,168.506717,0.066101,-0.885773,0.635864,-0.927838,-0.14957,0.205808,79.123154,55.292557,-135.491974,,,
729706105.954519,-56.423733,-9.52389,168.535961,0.066101,-0.885773,0.635864,-0.927838,-0.14957,0.205808,79.123154,55.292557,-135.491974,,,
729706105.957785,-56.423733,-9.52389,168.535961,0.066101,-0.885773,0.635864,-0.927838,-0.14957,0.205808,79.123154,55.292557,-135.491974,,,
729706105.961105,-56.687527,-9.546385,168.569962,0.066391,-0.878433,0.613831,-0.882646,-0.184563,0.216671,79.123154,55.292557,-135.491974,,,
729706105.964439,-56.944015,-9.57157,168.608096,0.066391,-0.878433,0.613831,-0.882646,-0.184563,0.216671,79.123154,55.292557,-135.491974,,,
729706105.967777,-56.944015,-9.57157,168.608096,0.066391,-0.878433,0.613831,-0.882646,-0.184563,0.216671,79.123154,55.292557,-135.491974,,,
729706105.97111,-57.19381,-9.601684,168.647531,0.070007,-0.875717,0.602448,-0.8361,-0.227193,0.213711,79.123154,55.292557,-135.491974,,,
729706105.974446,-57.437668,-9.641159,168.683678,0.070007,-0.875717,0.602448,-0.8361,-0.227193,0.213711,79.256073,56.454483,-134.099213,,,
729706105.977863,-57.437668,-9.641159,168.683678,0.070007,-0.875717,0.602448,-0.8361,-0.227193,0.213711,79.256073,56.454483,-134.099213,,,
729706105.981184,-57.676147,-9.692873,168.713037,0.079224,-0.869644,0.584213,-0.803533,-0.273203,0.182933,79.256073,56.454483,-134.099213,,,
729706105.984541,-57.676147,-9.692873,168.713037,0.079224,-0.869644,0.584213,-0.803533,-0.273203,0.182933,79.256073,56.454483,-134.099213,,,
729706105.987822,-57.911115,-9.758413,168.733543,0.079224,-0.869644,0.584213,-0.803533,-0.273203,0.182933,79.256073,56.454483,-134.099213,,,
729706105.991221,-58.143458,-9.839734,168.743108,0.08168,-0.865891,0.565079,-0.792516,-0.318997,0.141736,79.256073,56.454483,-134.099213,,,
729706105.994468,-58.143458,-9.839734,168.743108,0.08168,-0.865891,0.565079,-0.792516,-0.318997,0.141736,79.256073,56.454483,-134.099213,,,
729706105.997801,-58.372855,-9.937788,168.740175,0.08168,-0.865891,0.565079,-0.792516,-0.318997,0.141736,79.256073,56.454483,-134.099213,,,
729706106.001131,-58.599281,-10.054133,168.722972,0.081879,-0.863937,0.554214,-0.780905,-0.361729,0.09001,79.256073,56.454483,-134.099213,,,
729706106.004558,-58.823411,-10.188995,168.691237,0.081879,-0.863937,0.554214,-0.780905,-0.361729,0.09001,79.256073,56.454483,-134.099213,,,
729706106.007789,-58.823411,-10.188995,168.691237,0.081879,-0.863937,0.554214,-0.780905,-0.361729,0.09001,79.256073,56.454483,-134.099213,,,
729706106.011132,-59.045142,-10.34158,168.646321,0.08371,-0.860489,0.541855,-0.77198,-0.405894,0.045011,79.256073,56.454483,-134.099213,,,
729706106.014225,-59.045142,-10.34158,168.646321,0.08371,-0.860489,0.541855,-0.77198,-0.405894,0.045011,79.256073,56.454483,-134.099213,,,
729706106.017852,-59.266456,-10.511955,168.58792,0.08371,-0.860489,0.541855,-0.77198,-0.405894,0.045011,78.833725,57.702179,-133.160828,,,
