Time (sec),Pitch (deg),Roll (deg),Yaw(deg),X-Acceleration (g),Y-Acceleration (g),Z-Acceleration (g),Pitch Rate (deg/sec),Roll Rate (deg/sec),Yaw Rate (deg/sec),Magnetic Field in X direction (uT),Magnetic Field in Y direction (uT),Magnetic Field in Z Direction (uT),Latitude (deg),Longitude (deg),Altitude (m)
729707083.770974,-0.060352,0.505747,-23.927695,-0.011627,0.007355,0.987839,-0.008473,0.029246,-0.014847,59.331314,30.146545,-146.453018,,,
729707083.772513,-0.060343,0.505781,119.982483,-0.011627,0.007355,0.987839,-0.008473,0.029246,-0.014847,59.331314,30.146545,-146.453018,,,
729707083.773768,-0.063104,0.51224,-23.931331,-0.018066,0.00708,0.984634,-0.008473,0.029246,-0.014847,59.331314,30.146545,-146.453018,,,
729707083.775942,-0.063095,0.512273,119.978849,-0.018066,0.00708,0.984634,-0.008473,0.029246,-0.014847,59.331314,30.146545,-146.453018,,,
729707083.776665,-0.063104,0.51224,-23.931331,-0.018066,0.00708,0.984634,-0.008473,0.029246,-0.014847,59.331314,30.146545,-146.453018,,,
729707083.779193,-0.068011,0.516119,119.97509,-0.018066,0.00708,0.984634,-0.011011,0.01896,-0.015697,59.331314,30.146545,-146.453018,,,
729707083.781372,-0.06802,0.516086,-23.935089,-0.018066,0.00708,0.984634,-0.011011,0.01896,-0.015697,59.331314,30.146545,-146.453018,,,
729707083.782517,-0.068011,0.516119,119.97509,-0.018066,0.00708,0.984634,-0.011011,0.01896,-0.015697,59.331314,30.146545,-146.453018,,,
729707083.78333,-0.071222,0.519515,-23.938646,-0.02272,0.006683,0.981552,-0.011011,0.01896,-0.015697,59.331314,30.146545,-146.453018,,,
729707083.785861,-0.071213,0.519549,119.971531,-0.02272,0.006683,0.981552,-0.011011,0.01896,-0.015697,59.331314,30.146545,-146.453018,,,
729707083.786651,-0.071222,0.519515,-23.938646,-0.02272,0.006683,0.981552,-0.011011,0.01896,-0.015697,59.331314,30.146545,-146.453018,,,
729707083.789178,-0.076537,0.520235,119.968454,-0.02272,0.006683,0.981552,-0.012953,0.007302,-0.012353,59.331314,30.146545,-146.453018,,,
729707083.790744,-0.076546,0.520202,-23.941718,-0.02272,0.006683,0.981552,-0.012953,0.007302,-0.012353,59.331314,30.146545,-146.453018,,,
729707083.792508,-0.076537,0.520235,119.968454,-0.02272,0.006683,0.981552,-0.012953,0.007302,-0.012353,59.331314,30.146545,-146.453018,,,
729707083.793347,-0.080086,0.521539,-23.944416,-0.023926,0.006058,0.979218,-0.012953,0.007302,-0.012353,59.331314,30.146545,-146.453018,,,
729707083.795842,-0.080077,0.521573,119.965755,-0.023926,0.006058,0.979218,-0.012953,0.007302,-0.012353,59.331314,30.146545,-146.453018,,,
729707083.796649,-0.080086,0.521539,-23.944416,-0.023926,0.006058,0.979218,-0.012953,0.007302,-0.012353,59.331314,30.146545,-146.453018,,,
729707083.799176,-0.082915,0.521167,119.964216,-0.023926,0.006058,0.979218,-0.006926,0.010174,-0.004217,59.331314,30.146545,-146.453018,,,
729707083.800447,-0.082924,0.521133,-23.945958,-0.023926,0.006058,0.979218,-0.006926,0.010174,-0.004217,59.331314,30.146545,-146.453018,,,
729707083.802542,-0.082915,0.521167,119.964216,-0.023926,0.006058,0.979218,-0.006926,0.010174,-0.004217,59.331314,30.146545,-146.453018,,,
729707083.804538,-0.084641,0.523355,-23.946075,-0.025391,0.003662,0.988861,-0.006926,0.010174,-0.004217,59.542633,30.148682,-146.415573,,,
729707083.805839,-0.084632,0.523389,119.964099,-0.025391,0.003662,0.988861,-0.006926,0.010174,-0.004217,59.542633,30.148682,-146.415573,,,
729707083.806663,-0.084641,0.523355,-23.946075,-0.025391,0.003662,0.988861,-0.006926,0.010174,-0.004217,59.542633,30.148682,-146.415573,,,
729707083.809257,-0.084369,0.522908,119.965525,-0.025391,0.003662,0.988861,-0.000857,0.010048,0.006619,59.542633,30.148682,-146.415573,,,
729707083.81183,-0.084378,0.522874,-23.944648,-0.025391,0.003662,0.988861,-0.000857,0.010048,0.006619,59.542633,30.148682,-146.415573,,,
729707083.812541,-0.084369,0.522908,119.965525,-0.025391,0.003662,0.988861,-0.000857,0.010048,0.006619,59.542633,30.148682,-146.415573,,,
729707083.814958,-0.084043,0.52387,-23.941184,-0.024734,-0.003082,0.999176,-0.000857,0.010048,0.006619,59.542633,30.148682,-146.415573,,,
729707083.815849,-0.084034,0.523903,119.96899,-0.024734,-0.003082,0.999176,-0.000857,0.010048,0.006619,59.542633,30.148682,-146.415573,,,
729707083.816755,-0.084043,0.52387,-23.941184,-0.024734,-0.003082,0.999176,-0.000857,0.010048,0.006619,59.542633,30.148682,-146.415573,,,
729707083.819174,-0.081031,0.520093,119.974534,-0.024734,-0.003082,0.999176,0.005705,-0.007305,0.021182,59.542633,30.148682,-146.415573,,,
729707083.822202,-0.081041,0.520059,-23.935642,-0.024734,-0.003082,0.999176,0.005705,-0.007305,0.021182,59.542633,30.148682,-146.415573,,,
729707083.82252,-0.081031,0.520093,119.974534,-0.024734,-0.003082,0.999176,0.005705,-0.007305,0.021182,59.542633,30.148682,-146.415573,,,
729707083.824049,-0.078764,0.516232,-23.928726,-0.025604,-0.005447,0.998184,0.005705,-0.007305,0.021182,59.542633,30.148682,-146.415573,,,
729707083.82585,-0.078755,0.516266,119.981449,-0.025604,-0.005447,0.998184,0.005705,-0.007305,0.021182,59.542633,30.148682,-146.415573,,,
729707083.826657,-0.078764,0.516232,-23.928726,-0.025604,-0.005447,0.998184,0.005705,-0.007305,0.021182,59.542633,30.148682,-146.415573,,,
729707083.829194,-0.073885,0.510142,119.988669,-0.025604,-0.005447,0.998184,0.012494,-0.015093,0.023385,59.542633,30.148682,-146.415573,,,
729707083.831154,-0.073894,0.510108,-23.921498,-0.025604,-0.005447,0.998184,0.012494,-0.015093,0.023385,59.542633,30.148682,-146.415573,,,
729707083.832514,-0.073885,0.510142,119.988669,-0.025604,-0.005447,0.998184,0.012494,-0.015093,0.023385,59.542633,30.148682,-146.415573,,,
729707083.834103,-0.069542,0.505495,-23.914573,-0.017624,-0.001755,1.00325,0.012494,-0.015093,0.023385,59.542633,30.148682,-146.415573,,,
729707083.835862,-0.069532,0.505528,119.995595,-0.017624,-0.001755,1.00325,0.012494,-0.015093,0.023385,59.542633,30.148682,-146.415573,,,
729707083.836656,-0.069542,0.505495,-23.914573,-0.017624,-0.001755,1.00325,0.012494,-0.015093,0.023385,59.542633,30.148682,-146.415573,,,
729707083.839172,-0.062393,0.501654,120.002259,-0.017624,-0.001755,1.00325,0.021762,-0.011061,0.021554,59.542633,30.148682,-146.415573,,,
729707083.841058,-0.062402,0.50162,-23.907916,-0.017624,-0.001755,1.00325,0.021762,-0.011061,0.021554,59.542633,30.148682,-146.415573,,,
729707083.842512,-0.062393,0.501654,120.002259,-0.017624,-0.001755,1.00325,0.021762,-0.011061,0.021554,59.542633,30.148682,-146.415573,,,
729707083.845572,-0.056037,0.498656,-23.902071,-0.00856,0.000992,1.009598,0.021762,-0.011061,0.021554,59.388565,30.214722,-146.420792,,,
729707083.84607,-0.056028,0.49869,120.008104,-0.00856,0.000992,1.009598,0.021762,-0.011061,0.021554,59.388565,30.214722,-146.420792,,,
729707083.846654,-0.056037,0.498656,-23.902071,-0.00856,0.000992,1.009598,0.021762,-0.011061,0.021554,59.388565,30.214722,-146.420792,,,
729707083.849182,-0.047557,0.499396,120.012375,-0.00856,0.000992,1.009598,0.024006,0.003285,0.01056,59.388565,30.214722,-146.420792,,,
729707083.851597,-0.047566,0.499362,-23.897803,-0.00856,0.000992,1.009598,0.024006,0.003285,0.01056,59.388565,30.214722,-146.420792,,,
729707083.852599,-0.047557,0.499396,120.012375,-0.00856,0.000992,1.009598,0.024006,0.003285,0.01056,59.388565,30.214722,-146.420792,,,
729707083.854013,-0.040253,0.499843,-23.894487,-0.005585,0.002823,1.01123,0.024006,0.003285,0.01056,59.388565,30.214722,-146.420792,,,
729707083.855841,-0.040244,0.499877,120.015695,-0.005585,0.002823,1.01123,0.024006,0.003285,0.01056,59.388565,30.214722,-146.420792,,,
729707083.856656,-0.040253,0.499843,-23.894487,-0.005585,0.002823,1.01123,0.024006,0.003285,0.01056,59.388565,30.214722,-146.420792,,,
729707083.859178,-0.030458,0.504162,120.019221,-0.005585,0.002823,1.01123,0.030795,0.008412,0.012072,59.388565,30.214722,-146.420792,,,
729707083.860774,-0.030467,0.504128,-23.890961,-0.005585,0.002823,1.01123,0.030795,0.008412,0.012072,59.388565,30.214722,-146.420792,,,
729707083.862593,-0.030458,0.504162,120.019221,-0.005585,0.002823,1.01123,0.030795,0.008412,0.012072,59.388565,30.214722,-146.420792,,,
729707083.864299,-0.021754,0.50599,-23.887353,-0.00351,0.000916,1.008804,0.030795,0.008412,0.012072,59.388565,30.214722,-146.420792,,,
729707083.865917,-0.021745,0.506023,120.022828,-0.00351,0.000916,1.008804,0.030795,0.008412,0.012072,59.388565,30.214722,-146.420792,,,
729707083.866652,-0.021754,0.50599,-23.887353,-0.00351,0.000916,1.008804,0.030795,0.008412,0.012072,59.388565,30.214722,-146.420792,,,
729707083.869172,-0.011371,0.51184,120.026378,-0.00351,0.000916,1.008804,0.03227,0.012193,0.011671,59.388565,30.214722,-146.420792,,,
729707083.870538,-0.01138,0.511807,-23.883804,-0.00351,0.000916,1.008804,0.03227,0.012193,0.011671,59.388565,30.214722,-146.420792,,,
729707083.872512,-0.011371,0.51184,120.026378,-0.00351,0.000916,1.008804,0.03227,0.012193,0.011671,59.388565,30.214722,-146.420792,,,
729707083.873344,-0.01138,0.511807,-23.879733,-0.00351,0.000916,1.008804,0.03227,0.012193,0.011671,59.388565,30.214722,-146.420792,,,
729707083.875859,-0.002574,0.515204,120.030449,-0.004807,-0.000107,1.000717,0.03227,0.012193,0.011671,59.388565,30.214722,-146.420792,,,
729707083.879191,-0.002584,0.51517,-23.879733,-0.004807,-0.000107,1.000717,0.031535,0.022663,0.013832,59.388565,30.214722,-146.420792,,,
729707083.879662,0.007286,0.524081,120.034835,-0.004807,-0.000107,1.000717,0.031535,0.022663,0.013832,59.388565,30.214722,-146.420792,,,
729707083.880306,0.007277,0.524047,-23.875348,-0.004807,-0.000107,1.000717,0.031535,0.022663,0.013832,59.388565,30.214722,-146.420792,,,
729707083.882612,0.007286,0.524081,120.034835,-0.004807,-0.000107,1.000717,0.031535,0.022663,0.013832,59.388565,30.214722,-146.420792,,,
729707083.883335,0.007277,0.524047,-23.875348,-0.004807,-0.000107,1.000717,0.031535,0.022663,0.013832,59.388565,30.214722,-146.420792,,,
729707083.885846,0.016171,0.529607,120.039364,-0.002762,0.000534,0.997849,0.031535,0.022663,0.013832,59.459045,29.884903,-146.499283,,,
729707083.889508,0.016161,0.529574,-23.870816,-0.002762,0.000534,0.997849,0.028456,0.022023,0.014895,59.459045,29.884903,-146.499283,,,
729707083.889796,0.024541,0.538786,120.044051,-0.002762,0.000534,0.997849,0.028456,0.022023,0.014895,59.459045,29.884903,-146.499283,,,
729707083.8904,0.024532,0.538753,-23.866135,-0.002762,0.000534,0.997849,0.028456,0.022023,0.014895,59.459045,29.884903,-146.499283,,,
729707083.892534,0.024541,0.538786,120.044051,-0.002762,0.000534,0.997849,0.028456,0.022023,0.014895,59.459045,29.884903,-146.499283,,,
729707083.893333,0.024532,0.538753,-23.866135,-0.002762,0.000534,0.997849,0.028456,0.022023,0.014895,59.459045,29.884903,-146.499283,,,
729707083.895864,0.032435,0.543838,120.048645,0.000793,0.003738,0.993835,0.028456,0.022023,0.014895,59.459045,29.884903,-146.499283,,,
729707083.899142,0.032426,0.543804,-23.861544,0.000793,0.003738,0.993835,0.022799,0.012032,0.013171,59.459045,29.884903,-146.499283,,,
729707083.899414,0.038612,0.551442,120.052992,0.000793,0.003738,0.993835,0.022799,0.012032,0.013171,59.459045,29.884903,-146.499283,,,
729707083.900606,0.038603,0.551409,-23.857193,0.000793,0.003738,0.993835,0.022799,0.012032,0.013171,59.459045,29.884903,-146.499283,,,
729707083.902603,0.038612,0.551442,120.052992,0.000793,0.003738,0.993835,0.022799,0.012032,0.013171,59.459045,29.884903,-146.499283,,,
729707083.903319,0.038603,0.551409,-23.857193,0.000793,0.003738,0.993835,0.022799,0.012032,0.013171,59.459045,29.884903,-146.499283,,,
729707083.90584,0.044652,0.553482,120.056792,-0.000549,0.003998,0.990128,0.022799,0.012032,0.013171,59.459045,29.884903,-146.499283,,,
729707083.908018,0.044643,0.553448,-23.853391,-0.000549,0.003998,0.990128,0.022799,0.012032,0.013171,59.459045,29.884903,-146.499283,,,
729707083.909203,0.048726,0.556779,120.059559,-0.000549,0.003998,0.990128,0.016225,-0.000554,0.0059,59.459045,29.884903,-146.499283,,,
729707083.911742,0.048717,0.556746,-23.850626,-0.000549,0.003998,0.990128,0.016225,-0.000554,0.0059,59.459045,29.884903,-146.499283,,,
729707083.912541,0.048726,0.556779,120.059559,-0.000549,0.003998,0.990128,0.016225,-0.000554,0.0059,59.459045,29.884903,-146.499283,,,
729707083.913369,0.048717,0.556746,-23.850626,-0.000549,0.003998,0.990128,0.016225,-0.000554,0.0059,59.459045,29.884903,-146.499283,,,
729707083.915918,0.052687,0.555346,120.060583,0.004166,0.004227,0.994415,0.016225,-0.000554,0.0059,59.459045,29.884903,-146.499283,,,
729707083.917863,0.052678,0.555312,-23.849599,0.004166,0.004227,0.994415,0.016225,-0.000554,0.0059,59.459045,29.884903,-146.499283,,,
729707083.919198,0.055882,0.553412,120.060727,0.004166,0.004227,0.994415,0.012274,-0.008155,-0.000308,59.459045,29.884903,-146.499283,,,
729707083.922128,0.055873,0.553379,-23.849457,0.004166,0.004227,0.994415,0.012274,-0.008155,-0.000308,59.459045,29.884903,-146.499283,,,
729707083.922531,0.055882,0.553412,120.060727,0.004166,0.004227,0.994415,0.012274,-0.008155,-0.000308,59.459045,29.884903,-146.499283,,,
729707083.923376,0.055873,0.553379,-23.849457,0.004166,0.004227,0.994415,0.012274,-0.008155,-0.000308,59.459045,29.884903,-146.499283,,,
729707083.925895,0.058842,0.550283,120.060347,0.00647,0.005524,0.998306,0.012274,-0.008155,-0.000308,59.459045,29.884903,-146.499283,,,
729707083.927925,0.058833,0.55025,-23.849836,0.00647,0.005524,0.998306,0.012274,-0.008155,-0.000308,59.313919,30.234558,-146.361786,,,
729707083.9292,0.061932,0.546969,120.05882,0.00647,0.005524,0.998306,0.010761,-0.004329,-0.008338,59.313919,30.234558,-146.361786,,,
729707083.93045,0.061923,0.546935,-23.851369,0.00647,0.005524,0.998306,0.010761,-0.004329,-0.008338,59.313919,30.234558,-146.361786,,,
729707083.932578,0.061932,0.546969,120.05882,0.00647,0.005524,0.998306,0.010761,-0.004329,-0.008338,59.313919,30.234558,-146.361786,,,
729707083.933339,0.061923,0.546935,-23.851369,0.00647,0.005524,0.998306,0.010761,-0.004329,-0.008338,59.313919,30.234558,-146.361786,,,
729707083.93586,0.06482,0.545202,120.056435,0.005249,0.005783,1.001984,0.010761,-0.004329,-0.008338,59.313919,30.234558,-146.361786,,,
729707083.936657,0.064811,0.545169,-23.853752,0.005249,0.005783,1.001984,0.010761,-0.004329,-0.008338,59.313919,30.234558,-146.361786,,,
729707083.939179,0.067955,0.5435,120.054057,0.005249,0.005783,1.001984,0.012044,0.004137,-0.00819,59.313919,30.234558,-146.361786,,,
729707083.941982,0.067945,0.543466,-23.856114,0.005249,0.005783,1.001984,0.012044,0.004137,-0.00819,59.313919,30.234558,-146.361786,,,
729707083.942612,0.067955,0.5435,120.054057,0.005249,0.005783,1.001984,0.012044,0.004137,-0.00819,59.313919,30.234558,-146.361786,,,
729707083.943374,0.067945,0.543466,-23.856114,0.005249,0.005783,1.001984,0.012044,0.004137,-0.00819,59.313919,30.234558,-146.361786,,,
729707083.945852,0.071691,0.544915,120.05193,0.003815,0.000992,1.003677,0.012044,0.004137,-0.00819,59.313919,30.234558,-146.361786,,,
729707083.947253,0.071682,0.544881,-23.858242,0.003815,0.000992,1.003677,0.012044,0.004137,-0.00819,59.313919,30.234558,-146.361786,,,
729707083.949183,0.076253,0.547598,120.049998,0.003815,0.000992,1.003677,0.019747,0.022864,-0.006786,59.313919,30.234558,-146.361786,,,
729707083.951083,0.076244,0.547564,-23.860171,0.003815,0.000992,1.003677,0.019747,0.022864,-0.006786,59.313919,30.234558,-146.361786,,,
729707083.952536,0.076253,0.547598,120.049998,0.003815,0.000992,1.003677,0.019747,0.022864,-0.006786,59.313919,30.234558,-146.361786,,,
729707083.953348,0.076244,0.547564,-23.860171,0.003815,0.000992,1.003677,0.019747,0.022864,-0.006786,59.313919,30.234558,-146.361786,,,
729707083.955837,0.082213,0.555197,120.048545,0.000427,-0.001602,1.008087,0.019747,0.022864,-0.006786,59.313919,30.234558,-146.361786,,,
729707083.958401,0.082204,0.555163,-23.861624,0.000427,-0.001602,1.008087,0.019747,0.022864,-0.006786,59.313919,30.234558,-146.361786,,,
729707083.959239,0.088625,0.564557,120.047831,0.000427,-0.001602,1.008087,0.026455,0.042455,-0.001679,59.313919,30.234558,-146.361786,,,
729707083.961009,0.088615,0.564524,-23.862344,0.000427,-0.001602,1.008087,0.026455,0.042455,-0.001679,59.313919,30.234558,-146.361786,,,
729707083.962528,0.088625,0.564557,120.047831,0.000427,-0.001602,1.008087,0.026455,0.042455,-0.001679,59.313919,30.234558,-146.361786,,,
729707083.963364,0.088615,0.564524,-23.862344,0.000427,-0.001602,1.008087,0.026455,0.042455,-0.001679,59.313919,30.234558,-146.361786,,,
729707083.965948,0.095101,0.576789,120.047922,-0.006302,-0.005081,1.002594,0.026455,0.042455,-0.001679,59.313919,30.234558,-146.361786,,,
729707083.971052,0.095091,0.576755,-23.862258,-0.006302,-0.005081,1.002594,0.015434,0.051603,0.000414,59.509293,30.029861,-146.335159,,,
729707083.971379,0.100082,0.587811,120.048334,-0.006302,-0.005081,1.002594,0.015434,0.051603,0.000414,59.509293,30.029861,-146.335159,,,
729707083.972338,0.100082,0.587811,120.048334,-0.006302,-0.005081,1.002594,0.015434,0.051603,0.000414,59.509293,30.029861,-146.335159,,,
729707083.974216,0.100073,0.587778,-23.861843,-0.016754,-0.007553,0.992111,0.015434,0.051603,0.000414,59.509293,30.029861,-146.335159,,,
729707083.975943,0.103012,0.601485,120.049451,-0.016754,-0.007553,0.992111,0.015434,0.051603,0.000414,59.509293,30.029861,-146.335159,,,
729707083.977056,0.103003,0.601452,-23.860728,-0.016754,-0.007553,0.992111,0.015434,0.051603,0.000414,59.509293,30.029861,-146.335159,,,
729707083.979211,0.103567,0.611004,120.052239,-0.016754,-0.007553,0.992111,-0.004657,0.040782,0.011835,59.509293,30.029861,-146.335159,,,
729707083.982108,0.103558,0.61097,-23.857948,-0.016754,-0.007553,0.992111,-0.004657,0.040782,0.011835,59.509293,30.029861,-146.335159,,,
729707083.982519,0.103567,0.611004,120.052239,-0.016754,-0.007553,0.992111,-0.004657,0.040782,0.011835,59.509293,30.029861,-146.335159,,,
729707083.983369,0.103558,0.61097,-23.857948,-0.016754,-0.007553,0.992111,-0.004657,0.040782,0.011835,59.509293,30.029861,-146.335159,,,
729707083.985857,0.100666,0.620039,120.056783,-0.023407,-0.005341,0.983063,-0.004657,0.040782,0.011835,59.509293,30.029861,-146.335159,,,
729707083.987449,0.100657,0.620005,-23.853404,-0.023407,-0.005341,0.983063,-0.004657,0.040782,0.011835,59.509293,30.029861,-146.335159,,,
729707083.989182,0.095005,0.622791,120.06269,-0.023407,-0.005341,0.983063,-0.026726,0.016613,0.021137,59.509293,30.029861,-146.335159,,,
729707083.990928,0.094995,0.622758,-23.847481,-0.023407,-0.005341,0.983063,-0.026726,0.016613,0.021137,59.509293,30.029861,-146.335159,,,
729707083.992508,0.095005,0.622791,120.06269,-0.023407,-0.005341,0.983063,-0.026726,0.016613,0.021137,59.509293,30.029861,-146.335159,,,
729707083.993359,0.094995,0.622758,-23.847481,-0.023407,-0.005341,0.983063,-0.026726,0.016613,0.021137,59.509293,30.029861,-146.335159,,,
729707083.995859,0.085466,0.624483,120.069396,-0.026199,-0.002274,0.982407,-0.026726,0.016613,0.021137,59.509293,30.029861,-146.335159,,,
729707083.99734,0.085456,0.62445,-23.840772,-0.026199,-0.002274,0.982407,-0.026726,0.016613,0.021137,59.509293,30.029861,-146.335159,,,
729707083.999184,0.07324,0.617929,120.076205,-0.026199,-0.002274,0.982407,-0.049823,-0.014861,0.021518,59.509293,30.029861,-146.335159,,,
729707084.001916,0.073231,0.617895,-23.83396,-0.026199,-0.002274,0.982407,-0.049823,-0.014861,0.021518,59.509293,30.029861,-146.335159,,,
729707084.002614,0.07324,0.617929,120.076205,-0.026199,-0.002274,0.982407,-0.049823,-0.014861,0.021518,59.509293,30.029861,-146.335159,,,
729707084.003322,0.073231,0.617895,-23.83396,-0.026199,-0.002274,0.982407,-0.049823,-0.014861,0.021518,59.509293,30.029861,-146.335159,,,
729707084.005845,0.057756,0.610976,120.082702,-0.024185,0.000275,0.985703,-0.049823,-0.014861,0.021518,59.509293,30.029861,-146.335159,,,
729707084.009952,0.057747,0.610942,-23.827472,-0.024185,0.000275,0.985703,-0.060735,-0.040157,0.015777,59.363998,30.100494,-146.094315,,,
729707084.01026,0.041709,0.596522,120.088391,-0.024185,0.000275,0.985703,-0.060735,-0.040157,0.015777,59.363998,30.100494,-146.094315,,,
729707084.012473,0.041709,0.596522,120.088391,-0.024185,0.000275,0.985703,-0.060735,-0.040157,0.015777,59.363998,30.100494,-146.094315,,,
729707084.015372,0.0417,0.596489,-23.82178,-0.017105,-0.001678,0.989029,-0.060735,-0.040157,0.015777,59.363998,30.100494,-146.094315,,,
729707084.015943,0.024195,0.5828,120.092808,-0.017105,-0.001678,0.989029,-0.060735,-0.040157,0.015777,59.363998,30.100494,-146.094315,,,
729707084.017354,0.024186,0.582766,-23.817364,-0.017105,-0.001678,0.989029,-0.060735,-0.040157,0.015777,59.363998,30.100494,-146.094315,,,
729707084.019186,0.007729,0.562921,120.096382,-0.017105,-0.001678,0.989029,-0.058188,-0.058712,0.009901,59.363998,30.100494,-146.094315,,,
729707084.021241,0.00772,0.562887,-23.813799,-0.017105,-0.001678,0.989029,-0.058188,-0.058712,0.009901,59.363998,30.100494,-146.094315,,,
729707084.022516,0.007729,0.562921,120.096382,-0.017105,-0.001678,0.989029,-0.058188,-0.058712,0.009901,59.363998,30.100494,-146.094315,,,
729707084.023325,0.00772,0.562887,-23.813799,-0.017105,-0.001678,0.989029,-0.058188,-0.058712,0.009901,59.363998,30.100494,-146.094315,,,
729707084.025853,-0.009273,0.545205,120.099572,-0.010605,-0.00708,0.995514,-0.058188,-0.058712,0.009901,59.363998,30.100494,-146.094315,,,
729707084.027901,-0.009282,0.545171,-23.810615,-0.010605,-0.00708,0.995514,-0.058188,-0.058712,0.009901,59.363998,30.100494,-146.094315,,,
729707084.029193,-0.025777,0.524492,120.101568,-0.010605,-0.00708,0.995514,-0.053751,-0.06088,0.001749,59.363998,30.100494,-146.094315,,,
729707084.031061,-0.025786,0.524458,-23.808607,-0.010605,-0.00708,0.995514,-0.053751,-0.06088,0.001749,59.363998,30.100494,-146.094315,,,
729707084.032544,-0.025777,0.524492,120.101568,-0.010605,-0.00708,0.995514,-0.053751,-0.06088,0.001749,59.363998,30.100494,-146.094315,,,
729707084.033321,-0.025786,0.524458,-23.808607,-0.010605,-0.00708,0.995514,-0.053751,-0.06088,0.001749,59.363998,30.100494,-146.094315,,,
729707084.035854,-0.041071,0.507248,120.102741,-0.004318,-0.007126,1.001389,-0.053751,-0.06088,0.001749,59.363998,30.100494,-146.094315,,,
729707084.037479,-0.04108,0.507214,-23.807439,-0.004318,-0.007126,1.001389,-0.053751,-0.06088,0.001749,59.363998,30.100494,-146.094315,,,
729707084.039186,-0.056314,0.491223,120.103782,-0.004318,-0.007126,1.001389,-0.05062,-0.041155,0.000923,59.363998,30.100494,-146.094315,,,
729707084.040819,-0.056323,0.491189,-23.806401,-0.004318,-0.007126,1.001389,-0.05062,-0.041155,0.000923,59.363998,30.100494,-146.094315,,,
729707084.042605,-0.056314,0.491223,120.103782,-0.004318,-0.007126,1.001389,-0.05062,-0.041155,0.000923,59.363998,30.100494,-146.094315,,,
729707084.043327,-0.056323,0.491189,-23.806401,-0.004318,-0.007126,1.001389,-0.05062,-0.041155,0.000923,59.363998,30.100494,-146.094315,,,
729707084.045853,-0.070892,0.479918,120.104378,0.000961,-0.004532,1.005981,-0.05062,-0.041155,0.000923,59.363998,30.100494,-146.094315,,,
729707084.051065,-0.070901,0.479885,-23.805811,0.000961,-0.004532,1.005981,-0.052054,-0.01892,-0.002515,59.347412,30.127548,-146.211273,,,
729707084.051381,-0.086848,0.47249,120.104471,0.000961,-0.004532,1.005981,-0.052054,-0.01892,-0.002515,59.347412,30.127548,-146.211273,,,
729707084.052356,-0.086848,0.47249,120.104471,0.000961,-0.004532,1.005981,-0.052054,-0.01892,-0.002515,59.347412,30.127548,-146.211273,,,
729707084.054474,-0.086857,0.472456,-23.805701,0.003006,-0.002701,1.003189,-0.052054,-0.01892,-0.002515,59.347412,30.127548,-146.211273,,,
729707084.055969,-0.101736,0.468661,120.104537,0.003006,-0.002701,1.003189,-0.052054,-0.01892,-0.002515,59.347412,30.127548,-146.211273,,,
729707084.057104,-0.101745,0.468627,-23.805633,0.003006,-0.002701,1.003189,-0.052054,-0.01892,-0.002515,59.347412,30.127548,-146.211273,,,
729707084.0592,-0.117023,0.473181,120.105302,0.003006,-0.002701,1.003189,-0.048356,0.01729,0.002278,59.347412,30.127548,-146.211273,,,
729707084.062777,-0.117033,0.473148,-23.804883,0.003006,-0.002701,1.003189,-0.048356,0.01729,0.002278,59.347412,30.127548,-146.211273,,,
729707084.063332,-0.117023,0.473181,120.105302,0.003006,-0.002701,1.003189,-0.048356,0.01729,0.002278,59.347412,30.127548,-146.211273,,,
729707084.063631,-0.117033,0.473148,-23.804883,0.003006,-0.002701,1.003189,-0.048356,0.01729,0.002278,59.347412,30.127548,-146.211273,,,
729707084.065782,-0.131078,0.479892,120.106531,0.001694,-0.004837,1.002838,-0.048356,0.01729,0.002278,59.347412,30.127548,-146.211273,,,
729707084.067382,-0.131087,0.479859,-23.803649,0.001694,-0.004837,1.002838,-0.048356,0.01729,0.002278,59.347412,30.127548,-146.211273,,,
729707084.069197,-0.14494,0.494778,120.108002,0.001694,-0.004837,1.002838,-0.04488,0.046675,0.003931,59.347412,30.127548,-146.211273,,,
729707084.071065,-0.144949,0.494744,-23.802178,0.001694,-0.004837,1.002838,-0.04488,0.046675,0.003931,59.347412,30.127548,-146.211273,,,
729707084.07254,-0.14494,0.494778,120.108002,0.001694,-0.004837,1.002838,-0.04488,0.046675,0.003931,59.347412,30.127548,-146.211273,,,
729707084.073331,-0.144949,0.494744,-23.802178,0.001694,-0.004837,1.002838,-0.04488,0.046675,0.003931,59.347412,30.127548,-146.211273,,,
729707084.075865,-0.158194,0.509087,120.109671,-0.002487,-0.004608,0.997833,-0.04488,0.046675,0.003931,59.347412,30.127548,-146.211273,,,
729707084.078452,-0.158204,0.509053,-23.800516,-0.002487,-0.004608,0.997833,-0.04488,0.046675,0.003931,59.347412,30.127548,-146.211273,,,
729707084.079193,-0.171044,0.530311,120.111451,-0.002487,-0.004608,0.997833,-0.045762,0.06614,0.004634,59.347412,30.127548,-146.211273,,,
729707084.081124,-0.171054,0.530277,-23.798736,-0.002487,-0.004608,0.997833,-0.045762,0.06614,0.004634,59.347412,30.127548,-146.211273,,,
729707084.08262,-0.171044,0.530311,120.111451,-0.002487,-0.004608,0.997833,-0.045762,0.06614,0.004634,59.347412,30.127548,-146.211273,,,
729707084.083339,-0.171054,0.530277,-23.798736,-0.002487,-0.004608,0.997833,-0.045762,0.06614,0.004634,59.347412,30.127548,-146.211273,,,
729707084.08588,-0.184559,0.548914,120.113714,-0.011658,-0.002396,0.987488,-0.045762,0.06614,0.004634,59.347412,30.127548,-146.211273,,,
729707084.087815,-0.184568,0.54888,-23.796457,-0.011658,-0.002396,0.987488,-0.045762,0.06614,0.004634,59.347412,30.127548,-146.211273,,,
729707084.089312,-0.1971,0.570831,120.116707,-0.011658,-0.002396,0.987488,-0.042602,0.06982,0.009554,59.347412,30.127548,-146.211273,,,
729707084.091835,-0.197109,0.570797,-23.793465,-0.011658,-0.002396,0.987488,-0.042602,0.06982,0.009554,59.218994,30.558426,-146.485596,,,
729707084.092547,-0.1971,0.570831,120.116707,-0.011658,-0.002396,0.987488,-0.042602,0.06982,0.009554,59.218994,30.558426,-146.485596,,,
729707084.093329,-0.197109,0.570797,-23.793465,-0.011658,-0.002396,0.987488,-0.042602,0.06982,0.009554,59.218994,30.558426,-146.485596,,,
729707084.095861,-0.210384,0.590051,120.120131,-0.019974,0.001404,0.981552,-0.042602,0.06982,0.009554,59.218994,30.558426,-146.485596,,,
729707084.099447,-0.210393,0.590017,-23.790043,-0.019974,0.001404,0.981552,-0.046095,0.061651,0.009591,59.218994,30.558426,-146.485596,,,
729707084.099722,-0.224334,0.608796,120.123576,-0.019974,0.001404,0.981552,-0.046095,0.061651,0.009591,59.218994,30.558426,-146.485596,,,
729707084.100621,-0.224343,0.608762,-23.786608,-0.019974,0.001404,0.981552,-0.046095,0.061651,0.009591,59.218994,30.558426,-146.485596,,,
729707084.102554,-0.224334,0.608796,120.123576,-0.019974,0.001404,0.981552,-0.046095,0.061651,0.009591,59.218994,30.558426,-146.485596,,,
729707084.103326,-0.224343,0.608762,-23.786608,-0.019974,0.001404,0.981552,-0.046095,0.061651,0.009591,59.218994,30.558426,-146.485596,,,
729707084.10584,-0.237867,0.624436,120.127026,-0.02478,0.00061,0.975922,-0.046095,0.061651,0.009591,59.218994,30.558426,-146.485596,,,
729707084.107502,-0.237877,0.624402,-23.783161,-0.02478,0.00061,0.975922,-0.046095,0.061651,0.009591,59.218994,30.558426,-146.485596,,,
729707084.109184,-0.253101,0.63612,120.13108,-0.02478,0.00061,0.975922,-0.052986,0.039511,0.013768,59.218994,30.558426,-146.485596,,,
729707084.110832,-0.25311,0.636086,-23.779091,-0.02478,0.00061,0.975922,-0.052986,0.039511,0.013768,59.218994,30.558426,-146.485596,,,
729707084.112538,-0.253101,0.63612,120.13108,-0.02478,0.00061,0.975922,-0.052986,0.039511,0.013768,59.218994,30.558426,-146.485596,,,
729707084.113323,-0.25311,0.636086,-23.779091,-0.02478,0.00061,0.975922,-0.052986,0.039511,0.013768,59.218994,30.558426,-146.485596,,,
729707084.115871,-0.26941,0.644771,120.135479,-0.027664,-0.002182,0.972519,-0.052986,0.039511,0.013768,59.218994,30.558426,-146.485596,,,
729707084.11872,-0.269419,0.644737,-23.774692,-0.027664,-0.002182,0.972519,-0.052986,0.039511,0.013768,59.218994,30.558426,-146.485596,,,
729707084.119261,-0.28777,0.646662,120.139274,-0.027664,-0.002182,0.972519,-0.064824,0.009872,0.009472,59.218994,30.558426,-146.485596,,,
729707084.121077,-0.287779,0.646629,-23.770905,-0.027664,-0.002182,0.972519,-0.064824,0.009872,0.009472,59.218994,30.558426,-146.485596,,,
729707084.122521,-0.28777,0.646662,120.139274,-0.027664,-0.002182,0.972519,-0.064824,0.009872,0.009472,59.218994,30.558426,-146.485596,,,
729707084.12333,-0.287779,0.646629,-23.770905,-0.027664,-0.002182,0.972519,-0.064824,0.009872,0.009472,59.218994,30.558426,-146.485596,,,
729707084.125872,-0.307146,0.646144,120.142659,-0.026901,-0.002808,0.97287,-0.064824,0.009872,0.009472,59.218994,30.558426,-146.485596,,,
729707084.127006,-0.307155,0.646111,-23.767528,-0.026901,-0.002808,0.97287,-0.064824,0.009872,0.009472,59.218994,30.558426,-146.485596,,,
729707084.129273,-0.327442,0.638492,120.145749,-0.026901,-0.002808,0.97287,-0.074354,-0.019754,0.007454,59.218994,30.558426,-146.485596,,,
729707084.132907,-0.327451,0.638458,-23.764441,-0.026901,-0.002808,0.97287,-0.074354,-0.019754,0.007454,59.370041,30.510025,-146.533051,,,
729707084.133207,-0.327442,0.638492,120.145749,-0.026901,-0.002808,0.97287,-0.074354,-0.019754,0.007454,59.370041,30.510025,-146.533051,,,
729707084.135864,-0.349533,0.630073,120.148267,-0.023911,0.0009,0.980225,-0.074354,-0.019754,0.007454,59.370041,30.510025,-146.533051,,,
729707084.138741,-0.349542,0.63004,-23.761905,-0.023911,0.0009,0.980225,-0.074354,-0.019754,0.007454,59.370041,30.510025,-146.533051,,,
729707084.139263,-0.372235,0.615498,120.149935,-0.023911,0.0009,0.980225,-0.082327,-0.042588,0.001438,59.370041,30.510025,-146.533051,,,
729707084.14146,-0.372244,0.615465,-23.760245,-0.023911,0.0009,0.980225,-0.082327,-0.042588,0.001438,59.370041,30.510025,-146.533051,,,
729707084.142574,-0.372235,0.615498,120.149935,-0.023911,0.0009,0.980225,-0.082327,-0.042588,0.001438,59.370041,30.510025,-146.533051,,,
729707084.143341,-0.372244,0.615465,-23.760245,-0.023911,0.0009,0.980225,-0.082327,-0.042588,0.001438,59.370041,30.510025,-146.533051,,,
729707084.145862,-0.395731,0.601069,120.150636,-0.014099,0.001205,0.990463,-0.082327,-0.042588,0.001438,59.370041,30.510025,-146.533051,,,
729707084.147768,-0.39574,0.601035,-23.759548,-0.014099,0.001205,0.990463,-0.082327,-0.042588,0.001438,59.370041,30.510025,-146.533051,,,
729707084.14919,-0.418275,0.581989,120.150538,-0.014099,0.001205,0.990463,-0.077329,-0.057393,-0.00387,59.370041,30.510025,-146.533051,,,
729707084.152049,-0.418285,0.581956,-23.75964,-0.014099,0.001205,0.990463,-0.077329,-0.057393,-0.00387,59.370041,30.510025,-146.533051,,,
729707084.152546,-0.418275,0.581989,120.150538,-0.014099,0.001205,0.990463,-0.077329,-0.057393,-0.00387,59.370041,30.510025,-146.533051,,,
729707084.153333,-0.418285,0.581956,-23.75964,-0.014099,0.001205,0.990463,-0.077329,-0.057393,-0.00387,59.370041,30.510025,-146.533051,,,
729707084.155842,-0.43952,0.564698,120.149612,-0.006592,-0.003464,1.003326,-0.077329,-0.057393,-0.00387,59.370041,30.510025,-146.533051,,,
729707084.158544,-0.439529,0.564664,-23.760566,-0.006592,-0.003464,1.003326,-0.077329,-0.057393,-0.00387,59.370041,30.510025,-146.533051,,,
729707084.15924,-0.457086,0.546812,120.14756,-0.006592,-0.003464,1.003326,-0.057506,-0.056419,-0.011448,59.370041,30.510025,-146.533051,,,
729707084.161102,-0.457095,0.546779,-23.762625,-0.006592,-0.003464,1.003326,-0.057506,-0.056419,-0.011448,59.370041,30.510025,-146.533051,,,
729707084.162533,-0.457086,0.546812,120.14756,-0.006592,-0.003464,1.003326,-0.057506,-0.056419,-0.011448,59.370041,30.510025,-146.533051,,,
729707084.163332,-0.457095,0.546779,-23.762625,-0.006592,-0.003464,1.003326,-0.057506,-0.056419,-0.011448,59.370041,30.510025,-146.533051,,,
729707084.165907,-0.472223,0.531334,120.144572,0.004059,-0.006439,1.019638,-0.057506,-0.056419,-0.011448,59.370041,30.510025,-146.533051,,,
729707084.169796,-0.472232,0.5313,-23.765612,0.004059,-0.006439,1.019638,-0.030226,-0.033044,-0.0189,59.370041,30.510025,-146.533051,,,
729707084.170091,-0.481822,0.520717,120.140489,0.004059,-0.006439,1.019638,-0.030226,-0.033044,-0.0189,59.370041,30.510025,-146.533051,,,
729707084.172484,-0.481822,0.520717,120.140489,0.004059,-0.006439,1.019638,-0.030226,-0.033044,-0.0189,59.289551,30.610046,-146.453537,,,
729707084.174991,-0.481831,0.520684,-23.769699,0.011749,-0.011322,1.033066,-0.030226,-0.033044,-0.0189,59.289551,30.610046,-146.453537,,,
729707084.175848,-0.488549,0.512731,120.135052,0.011749,-0.011322,1.033066,-0.030226,-0.033044,-0.0189,59.289551,30.610046,-146.453537,,,
729707084.177468,-0.488558,0.512697,-23.775137,0.011749,-0.011322,1.033066,-0.030226,-0.033044,-0.0189,59.289551,30.610046,-146.453537,,,
729707084.179286,-0.489675,0.51224,120.129015,0.011749,-0.011322,1.033066,-0.005908,-0.00316,-0.023053,59.289551,30.610046,-146.453537,,,
729707084.180515,-0.489684,0.512206,-23.781172,0.011749,-0.011322,1.033066,-0.005908,-0.00316,-0.023053,59.289551,30.610046,-146.453537,,,
729707084.182546,-0.489675,0.51224,120.129015,0.011749,-0.011322,1.033066,-0.005908,-0.00316,-0.023053,59.289551,30.610046,-146.453537,,,
729707084.183329,-0.489684,0.512206,-23.781172,0.011749,-0.011322,1.033066,-0.005908,-0.00316,-0.023053,59.289551,30.610046,-146.453537,,,
729707084.185844,-0.48993,0.512864,120.122969,0.009995,-0.015106,1.035599,-0.005908,-0.00316,-0.023053,59.289551,30.610046,-146.453537,,,
729707084.187333,-0.489939,0.512831,-23.787215,0.009995,-0.015106,1.035599,-0.005908,-0.00316,-0.023053,59.289551,30.610046,-146.453537,,,
729707084.189232,-0.486606,0.522186,120.116917,0.009995,-0.015106,1.035599,0.009231,0.027642,-0.023234,59.289551,30.610046,-146.453537,,,
729707084.192516,-0.486615,0.522153,-23.793268,0.009995,-0.015106,1.035599,0.009231,0.027642,-0.023234,59.289551,30.610046,-146.453537,,,
729707084.19277,-0.486606,0.522186,120.116917,0.009995,-0.015106,1.035599,0.009231,0.027642,-0.023234,59.289551,30.610046,-146.453537,,,
729707084.193304,-0.486615,0.522153,-23.793268,0.009995,-0.015106,1.035599,0.009231,0.027642,-0.023234,59.289551,30.610046,-146.453537,,,
729707084.195867,-0.484498,0.531279,120.110702,0.008469,-0.015106,1.02916,0.009231,0.027642,-0.023234,59.289551,30.610046,-146.453537,,,
729707084.197816,-0.484507,0.531245,-23.799486,0.008469,-0.015106,1.02916,0.009231,0.027642,-0.023234,59.289551,30.610046,-146.453537,,,
729707084.19919,-0.481106,0.54821,120.104861,0.008469,-0.015106,1.02916,0.011024,0.052967,-0.020756,59.289551,30.610046,-146.453537,,,
729707084.200747,-0.481115,0.548176,-23.80531,0.008469,-0.015106,1.02916,0.011024,0.052967,-0.020756,59.289551,30.610046,-146.453537,,,
729707084.202544,-0.481106,0.54821,120.104861,0.008469,-0.015106,1.02916,0.011024,0.052967,-0.020756,59.289551,30.610046,-146.453537,,,
729707084.203325,-0.481115,0.548176,-23.80531,0.008469,-0.015106,1.02916,0.011024,0.052967,-0.020756,59.289551,30.610046,-146.453537,,,
729707084.205841,-0.478899,0.563573,120.099858,0.005646,-0.008148,1.021347,0.011024,0.052967,-0.020756,59.289551,30.610046,-146.453537,,,
729707084.207405,-0.478908,0.56354,-23.810313,0.005646,-0.008148,1.021347,0.011024,0.052967,-0.020756,59.289551,30.610046,-146.453537,,,
729707084.209234,-0.476986,0.584523,120.095646,0.005646,-0.008148,1.021347,-0.000228,0.06623,-0.015592,59.289551,30.610046,-146.453537,,,
729707084.211755,-0.476995,0.584489,-23.81453,0.005646,-0.008148,1.021347,-0.000228,0.06623,-0.015592,59.289551,30.610046,-146.453537,,,
729707084.212545,-0.476986,0.584523,120.095646,0.005646,-0.008148,1.021347,-0.000228,0.06623,-0.015592,59.435776,30.522903,-146.306198,,,
729707084.214127,-0.476995,0.584489,-23.81453,0.005646,-0.008148,1.021347,-0.000228,0.06623,-0.015592,59.435776,30.522903,-146.306198,,,
729707084.215923,-0.47765,0.60337,120.091404,-0.005707,-0.002808,1.012985,-0.000228,0.06623,-0.015592,59.435776,30.522903,-146.306198,,,
729707084.218639,-0.477659,0.603336,-23.818777,-0.005707,-0.002808,1.012985,-0.000228,0.06623,-0.015592,59.435776,30.522903,-146.306198,,,
729707084.219203,-0.477455,0.624377,120.086935,-0.005707,-0.002808,1.012985,-0.007122,0.06895,-0.017335,59.435776,30.522903,-146.306198,,,
729707084.220572,-0.477464,0.624343,-23.823249,-0.005707,-0.002808,1.012985,-0.007122,0.06895,-0.017335,59.435776,30.522903,-146.306198,,,
729707084.222517,-0.477455,0.624377,120.086935,-0.005707,-0.002808,1.012985,-0.007122,0.06895,-0.017335,59.435776,30.522903,-146.306198,,,
729707084.223326,-0.477464,0.624343,-23.823249,-0.005707,-0.002808,1.012985,-0.007122,0.06895,-0.017335,59.435776,30.522903,-146.306198,,,
729707084.225841,-0.48012,0.642403,120.082178,-0.012268,-0.004303,1.003143,-0.007122,0.06895,-0.017335,59.435776,30.522903,-146.306198,,,
729707084.227398,-0.480129,0.64237,-23.828005,-0.012268,-0.004303,1.003143,-0.007122,0.06895,-0.017335,59.435776,30.522903,-146.306198,,,
729707084.229251,-0.48141,0.657503,120.077465,-0.012268,-0.004303,1.003143,-0.006104,0.04836,-0.017012,59.435776,30.522903,-146.306198,,,
729707084.230639,-0.481419,0.65747,-23.832713,-0.012268,-0.004303,1.003143,-0.006104,0.04836,-0.017012,59.435776,30.522903,-146.306198,,,
729707084.232546,-0.48141,0.657503,120.077465,-0.012268,-0.004303,1.003143,-0.006104,0.04836,-0.017012,59.435776,30.522903,-146.306198,,,
729707084.233324,-0.481419,0.65747,-23.832713,-0.012268,-0.004303,1.003143,-0.006104,0.04836,-0.017012,59.435776,30.522903,-146.306198,,,
729707084.235863,-0.483859,0.669201,120.07305,-0.01944,-0.008499,0.995453,-0.006104,0.04836,-0.017012,59.435776,30.522903,-146.306198,,,
729707084.237632,-0.483868,0.669168,-23.837133,-0.01944,-0.008499,0.995453,-0.006104,0.04836,-0.017012,59.435776,30.522903,-146.306198,,,
729707084.239226,-0.485682,0.675626,120.069221,-0.01944,-0.008499,0.995453,-0.006422,0.028824,-0.01277,59.435776,30.522903,-146.306198,,,
729707084.241048,-0.485691,0.675592,-23.840962,-0.01944,-0.008499,0.995453,-0.006422,0.028824,-0.01277,59.435776,30.522903,-146.306198,,,
729707084.242512,-0.485682,0.675626,120.069221,-0.01944,-0.008499,0.995453,-0.006422,0.028824,-0.01277,59.435776,30.522903,-146.306198,,,
729707084.243329,-0.485691,0.675592,-23.840962,-0.01944,-0.008499,0.995453,-0.006422,0.028824,-0.01277,59.435776,30.522903,-146.306198,,,
729707084.245856,-0.48736,0.680911,120.065892,-0.027298,-0.009796,0.998032,-0.006422,0.028824,-0.01277,59.435776,30.522903,-146.306198,,,
729707084.246927,-0.487369,0.680878,-23.84429,-0.027298,-0.009796,0.998032,-0.006422,0.028824,-0.01277,59.435776,30.522903,-146.306198,,,
729707084.249214,-0.48736,0.67784,120.062428,-0.027298,-0.009796,0.998032,0.004099,0.00187,-0.013373,59.435776,30.522903,-146.306198,,,
729707084.251628,-0.487701,0.677806,-23.847756,-0.027298,-0.009796,0.998032,0.004099,0.00187,-0.013373,59.435776,30.522903,-146.306198,,,
729707084.252614,-0.487692,0.67784,120.062428,-0.027298,-0.009796,0.998032,0.004099,0.00187,-0.013373,59.435776,30.522903,-146.306198,,,
729707084.254126,-0.487701,0.677806,-23.847756,-0.027298,-0.009796,0.998032,0.004099,0.00187,-0.013373,59.306961,30.816803,-146.20517,,,
729707084.255866,-0.485955,0.675169,120.05913,-0.029205,-0.010681,1.002548,0.004099,0.00187,-0.013373,59.306961,30.816803,-146.20517,,,
729707084.256674,-0.485964,0.675135,-23.851054,-0.029205,-0.010681,1.002548,0.004099,0.00187,-0.013373,59.306961,30.816803,-146.20517,,,
729707084.259212,-0.483551,0.662979,120.055709,-0.029205,-0.010681,1.002548,0.01322,-0.027415,-0.013723,59.306961,30.816803,-146.20517,,,
729707084.262036,-0.48356,0.662945,-23.854466,-0.029205,-0.010681,1.002548,0.01322,-0.027415,-0.013723,59.306961,30.816803,-146.20517,,,
729707084.262544,-0.483551,0.662979,120.055709,-0.029205,-0.010681,1.002548,0.01322,-0.027415,-0.013723,59.306961,30.816803,-146.20517,,,
729707084.263337,-0.48356,0.662945,-23.854466,-0.029205,-0.010681,1.002548,0.01322,-0.027415,-0.013723,59.306961,30.816803,-146.20517,,,
729707084.265939,-0.479216,0.653256,120.052121,-0.025406,-0.010223,1.001724,0.01322,-0.027415,-0.013723,59.306961,30.816803,-146.20517,,,
729707084.267269,-0.479225,0.653223,-23.858056,-0.025406,-0.010223,1.001724,0.01322,-0.027415,-0.013723,59.306961,30.816803,-146.20517,,,
729707084.269203,-0.479216,0.653256,120.052121,-0.025406,-0.010223,1.001724,0.020206,-0.040339,-0.013361,59.306961,30.816803,-146.20517,,,
729707084.270812,-0.475499,0.63687,-23.861642,-0.025406,-0.010223,1.001724,0.020206,-0.040339,-0.013361,59.306961,30.816803,-146.20517,,,
729707084.272517,-0.47549,0.636903,120.048536,-0.025406,-0.010223,1.001724,0.020206,-0.040339,-0.013361,59.306961,30.816803,-146.20517,,,
729707084.27333,-0.475499,0.63687,-23.861642,-0.025406,-0.010223,1.001724,0.020206,-0.040339,-0.013361,59.306961,30.816803,-146.20517,,,
729707084.275848,-0.469599,0.625018,120.044285,-0.020996,-0.00589,1.002426,0.020206,-0.040339,-0.013361,59.306961,30.816803,-146.20517,,,
729707084.277708,-0.469608,0.624984,-23.865892,-0.020996,-0.00589,1.002426,0.020206,-0.040339,-0.013361,59.306961,30.816803,-146.20517,,,
729707084.279224,-0.469599,0.625018,120.044285,-0.020996,-0.00589,1.002426,0.018225,-0.028128,-0.018998,59.306961,30.816803,-146.20517,,,
729707084.281173,-0.46465,0.610505,-23.870986,-0.020996,-0.00589,1.002426,0.018225,-0.028128,-0.018998,59.306961,30.816803,-146.20517,,,
729707084.282545,-0.464641,0.610539,120.039192,-0.020996,-0.00589,1.002426,0.018225,-0.028128,-0.018998,59.306961,30.816803,-146.20517,,,
729707084.283331,-0.46465,0.610505,-23.870986,-0.020996,-0.00589,1.002426,0.018225,-0.028128,-0.018998,59.306961,30.816803,-146.20517,,,
729707084.285855,-0.459295,0.603266,120.03435,-0.018051,-0.004333,1.005798,0.018225,-0.028128,-0.018998,59.306961,30.816803,-146.20517,,,
729707084.287605,-0.459304,0.603233,-23.875827,-0.018051,-0.004333,1.005798,0.018225,-0.028128,-0.018998,59.306961,30.816803,-146.20517,,,
729707084.289205,-0.459295,0.603266,120.03435,-0.018051,-0.004333,1.005798,0.019775,-0.008724,-0.013511,59.306961,30.816803,-146.20517,,,
729707084.290798,-0.453174,0.596342,-23.879907,-0.018051,-0.004333,1.005798,0.019775,-0.008724,-0.013511,59.306961,30.816803,-146.20517,,,
729707084.292606,-0.453165,0.596376,120.030266,-0.018051,-0.004333,1.005798,0.019775,-0.008724,-0.013511,59.306961,30.816803,-146.20517,,,
729707084.293327,-0.453174,0.596342,-23.879907,-0.018051,-0.004333,1.005798,0.019775,-0.008724,-0.013511,59.306961,30.816803,-146.20517,,,
729707084.29585,-0.447458,0.59439,120.027909,-0.017105,-0.008347,1.006348,0.019775,-0.008724,-0.013511,59.249023,30.65596,-146.189972,,,
729707084.297892,-0.447467,0.594356,-23.88226,-0.017105,-0.008347,1.006348,0.019775,-0.008724,-0.013511,59.249023,30.65596,-146.189972,,,
729707084.29919,-0.447458,0.59439,120.027909,-0.017105,-0.008347,1.006348,0.018498,0.004907,-0.000995,59.249023,30.65596,-146.189972,,,
729707084.301782,-0.441027,0.593923,-23.88282,-0.017105,-0.008347,1.006348,0.018498,0.004907,-0.000995,59.249023,30.65596,-146.189972,,,
729707084.302545,-0.441018,0.593957,120.02735,-0.017105,-0.008347,1.006348,0.018498,0.004907,-0.000995,59.249023,30.65596,-146.189972,,,
729707084.303334,-0.441027,0.593923,-23.88282,-0.017105,-0.008347,1.006348,0.018498,0.004907,-0.000995,59.249023,30.65596,-146.189972,,,
729707084.305855,-0.436254,0.594812,120.028738,-0.015976,-0.009247,0.998474,0.018498,0.004907,-0.000995,59.249023,30.65596,-146.189972,,,
729707084.306969,-0.436264,0.594778,-23.881431,-0.015976,-0.009247,0.998474,0.018498,0.004907,-0.000995,59.249023,30.65596,-146.189972,,,
729707084.309283,-0.436254,0.594812,120.028738,-0.015976,-0.009247,0.998474,0.012993,0.0079,0.013647,59.249023,30.65596,-146.189972,,,
729707084.312152,-0.43217,0.597297,-23.877927,-0.015976,-0.009247,0.998474,0.012993,0.0079,0.013647,59.249023,30.65596,-146.189972,,,
729707084.312667,-0.432161,0.59733,120.032248,-0.015976,-0.009247,0.998474,0.012993,0.0079,0.013647,59.249023,30.65596,-146.189972,,,
729707084.313339,-0.43217,0.597297,-23.877927,-0.015976,-0.009247,0.998474,0.012993,0.0079,0.013647,59.249023,30.65596,-146.189972,,,
729707084.315932,-0.428669,0.598924,120.037123,-0.01445,-0.004669,0.991089,0.012993,0.0079,0.013647,59.249023,30.65596,-146.189972,,,
729707084.317528,-0.428678,0.59889,-23.873052,-0.01445,-0.004669,0.991089,0.012993,0.0079,0.013647,59.249023,30.65596,-146.189972,,,
729707084.319185,-0.428669,0.598924,120.037123,-0.01445,-0.004669,0.991089,0.012875,0.008674,0.016614,59.249023,30.65596,-146.189972,,,
729707084.320261,-0.425754,0.60385,-23.867735,-0.01445,-0.004669,0.991089,0.012875,0.008674,0.016614,59.249023,30.65596,-146.189972,,,
729707084.322517,-0.425745,0.603883,120.042443,-0.01445,-0.004669,0.991089,0.012875,0.008674,0.016614,59.249023,30.65596,-146.189972,,,
729707084.323326,-0.425754,0.60385,-23.867735,-0.01445,-0.004669,0.991089,0.012875,0.008674,0.016614,59.249023,30.65596,-146.189972,,,
729707084.32584,-0.42262,0.606012,120.047622,-0.012146,-0.002792,0.991547,0.012875,0.008674,0.016614,59.249023,30.65596,-146.189972,,,
729707084.327519,-0.42263,0.605978,-23.862557,-0.012146,-0.002792,0.991547,0.012875,0.008674,0.016614,59.249023,30.65596,-146.189972,,,
729707084.329269,-0.42262,0.606012,120.047622,-0.012146,-0.002792,0.991547,0.006937,0.010302,0.013435,59.249023,30.65596,-146.189972,,,
729707084.330258,-0.420701,0.612859,-23.857788,-0.012146,-0.002792,0.991547,0.006937,0.010302,0.013435,59.249023,30.65596,-146.189972,,,
729707084.332538,-0.420692,0.612892,120.052386,-0.012146,-0.002792,0.991547,0.006937,0.010302,0.013435,59.249023,30.65596,-146.189972,,,
729707084.333326,-0.420701,0.612859,-23.857788,-0.012146,-0.002792,0.991547,0.006937,0.010302,0.013435,59.249023,30.65596,-146.189972,,,
729707084.33584,-0.419449,0.614389,120.056507,-0.012451,-0.002045,0.988205,0.006937,0.010302,0.013435,59.307922,30.332764,-146.307068,,,
729707084.337504,-0.419459,0.614355,-23.853665,-0.012451,-0.002045,0.988205,0.006937,0.010302,0.013435,59.307922,30.332764,-146.307068,,,
729707084.339184,-0.419449,0.614389,120.056507,-0.012451,-0.002045,0.988205,0.006937,0.010302,0.013435,59.307922,30.332764,-146.307068,,,
729707084.342522,-0.420025,0.618005,-23.849862,-0.012451,-0.002045,0.988205,-0.001222,-0.002531,0.010951,59.307922,30.332764,-146.307068,,,
729707084.342792,-0.420016,0.618039,120.060313,-0.012451,-0.002045,0.988205,-0.001222,-0.002531,0.010951,59.307922,30.332764,-146.307068,,,
729707084.34331,-0.420025,0.618005,-23.849862,-0.012451,-0.002045,0.988205,-0.001222,-0.002531,0.010951,59.307922,30.332764,-146.307068,,,
729707084.34595,-0.420892,0.614833,120.064052,-0.013443,0.000259,0.984497,-0.001222,-0.002531,0.010951,59.307922,30.332764,-146.307068,,,
729707084.348346,-0.420901,0.6148,-23.846124,-0.013443,0.000259,0.984497,-0.001222,-0.002531,0.010951,59.307922,30.332764,-146.307068,,,
729707084.34922,-0.420892,0.614833,120.064052,-0.013443,0.000259,0.984497,-0.001222,-0.002531,0.010951,59.307922,30.332764,-146.307068,,,
729707084.350468,-0.42193,0.612338,-23.842345,-0.013443,0.000259,0.984497,-0.001946,-0.01873,0.011116,59.307922,30.332764,-146.307068,,,
729707084.352547,-0.421921,0.612372,120.067838,-0.013443,0.000259,0.984497,-0.001946,-0.01873,0.011116,59.307922,30.332764,-146.307068,,,
729707084.353326,-0.42193,0.612338,-23.842345,-0.013443,0.000259,0.984497,-0.001946,-0.01873,0.011116,59.307922,30.332764,-146.307068,,,
729707084.355859,-0.422323,0.606011,120.071199,-0.010681,0.000763,0.98909,-0.001946,-0.01873,0.011116,59.307922,30.332764,-146.307068,,,
729707084.356904,-0.422332,0.605977,-23.838985,-0.010681,0.000763,0.98909,-0.001946,-0.01873,0.011116,59.307922,30.332764,-146.307068,,,
729707084.359253,-0.422323,0.606011,120.071199,-0.010681,0.000763,0.98909,-0.001946,-0.01873,0.011116,59.307922,30.332764,-146.307068,,,
729707084.361519,-0.421097,0.601869,-23.836162,-0.010681,0.000763,0.98909,0.005876,-0.01512,0.007401,59.307922,30.332764,-146.307068,,,
729707084.362542,-0.421087,0.601903,120.074025,-0.010681,0.000763,0.98909,0.005876,-0.01512,0.007401,59.307922,30.332764,-146.307068,,,
729707084.36334,-0.421097,0.601869,-23.836162,-0.010681,0.000763,0.98909,0.005876,-0.01512,0.007401,59.307922,30.332764,-146.307068,,,
729707084.36585,-0.419444,0.597339,120.076765,-0.00798,-0.002441,0.996033,0.005876,-0.01512,0.007401,59.307922,30.332764,-146.307068,,,
729707084.36829,-0.419454,0.597305,-23.833422,-0.00798,-0.002441,0.996033,0.005876,-0.01512,0.007401,59.307922,30.332764,-146.307068,,,
729707084.369243,-0.419444,0.597339,120.076765,-0.00798,-0.002441,0.996033,0.005876,-0.01512,0.007401,59.307922,30.332764,-146.307068,,,
729707084.370263,-0.416474,0.595957,-23.830493,-0.00798,-0.002441,0.996033,0.012414,-0.003635,0.008679,59.307922,30.332764,-146.307068,,,
729707084.372536,-0.416465,0.595991,120.079691,-0.00798,-0.002441,0.996033,0.012414,-0.003635,0.008679,59.307922,30.332764,-146.307068,,,
729707084.373326,-0.416474,0.595957,-23.830493,-0.00798,-0.002441,0.996033,0.012414,-0.003635,0.008679,59.307922,30.332764,-146.307068,,,
729707084.375889,-0.412839,0.595208,120.082764,-0.009506,-0.005005,0.99321,0.012414,-0.003635,0.008679,59.569199,30.393387,-146.370529,,,
729707084.378121,-0.412848,0.595174,-23.827414,-0.009506,-0.005005,0.99321,0.012414,-0.003635,0.008679,59.569199,30.393387,-146.370529,,,
729707084.379207,-0.412839,0.595208,120.082764,-0.009506,-0.005005,0.99321,0.012414,-0.003635,0.008679,59.569199,30.393387,-146.370529,,,
729707084.381681,-0.409439,0.598342,-23.824054,-0.009506,-0.005005,0.99321,0.015362,0.015335,0.010669,59.569199,30.393387,-146.370529,,,
729707084.382524,-0.40943,0.598376,120.086124,-0.009506,-0.005005,0.99321,0.015362,0.015335,0.010669,59.569199,30.393387,-146.370529,,,
729707084.383334,-0.409439,0.598342,-23.824054,-0.009506,-0.005005,0.99321,0.015362,0.015335,0.010669,59.569199,30.393387,-146.370529,,,
729707084.385848,-0.405105,0.603887,120.090166,-0.008514,-0.003555,0.990433,0.015362,0.015335,0.010669,59.569199,30.393387,-146.370529,,,
729707084.386911,-0.405114,0.603854,-23.820011,-0.008514,-0.003555,0.990433,0.015362,0.015335,0.010669,59.569199,30.393387,-146.370529,,,
729707084.389217,-0.405105,0.603887,120.090166,-0.008514,-0.003555,0.990433,0.015362,0.015335,0.010669,59.569199,30.393387,-146.370529,,,
729707084.391317,-0.400812,0.614296,-23.814288,-0.008514,-0.003555,0.990433,0.015835,0.040826,0.022352,59.569199,30.393387,-146.370529,,,
729707084.392595,-0.400803,0.61433,120.095882,-0.008514,-0.003555,0.990433,0.015835,0.040826,0.022352,59.569199,30.393387,-146.370529,,,
729707084.393318,-0.400812,0.614296,-23.814288,-0.008514,-0.003555,0.990433,0.015835,0.040826,0.022352,59.569199,30.393387,-146.370529,,,
729707084.395864,-0.397541,0.626219,120.103699,-0.014969,-0.005478,0.986313,0.015835,0.040826,0.022352,59.569199,30.393387,-146.370529,,,
729707084.39728,-0.397551,0.626185,-23.806467,-0.014969,-0.005478,0.986313,0.015835,0.040826,0.022352,59.569199,30.393387,-146.370529,,,
729707084.399223,-0.397541,0.626219,120.103699,-0.014969,-0.005478,0.986313,0.015835,0.040826,0.022352,59.569199,30.393387,-146.370529,,,
729707084.40212,-0.395924,0.640831,-23.796579,-0.014969,-0.005478,0.986313,-0.000297,0.055443,0.03663,59.569199,30.393387,-146.370529,,,
729707084.402538,-0.395915,0.640864,120.113588,-0.014969,-0.005478,0.986313,-0.000297,0.055443,0.03663,59.569199,30.393387,-146.370529,,,
729707084.403338,-0.395924,0.640831,-23.796579,-0.014969,-0.005478,0.986313,-0.000297,0.055443,0.03663,59.569199,30.393387,-146.370529,,,
729707084.405927,-0.396901,0.655863,120.126398,-0.022858,-0.00383,0.976898,-0.000297,0.055443,0.03663,59.569199,30.393387,-146.370529,,,
729707084.407819,-0.39691,0.655829,-23.783769,-0.022858,-0.00383,0.976898,-0.000297,0.055443,0.03663,59.569199,30.393387,-146.370529,,,
729707084.409254,-0.396901,0.655863,120.126398,-0.022858,-0.00383,0.976898,-0.000297,0.055443,0.03663,59.569199,30.393387,-146.370529,,,
729707084.411144,-0.399719,0.670621,-23.768212,-0.022858,-0.00383,0.976898,-0.019213,0.052294,0.055561,59.569199,30.393387,-146.370529,,,
729707084.412541,-0.399709,0.670655,120.141965,-0.022858,-0.00383,0.976898,-0.019213,0.052294,0.055561,59.569199,30.393387,-146.370529,,,
729707084.413334,-0.399719,0.670621,-23.768212,-0.022858,-0.00383,0.976898,-0.019213,0.052294,0.055561,59.569199,30.393387,-146.370529,,,
729707084.415851,-0.407036,0.68416,120.158831,-0.029144,-0.002533,0.967651,-0.019213,0.052294,0.055561,59.569199,30.393387,-146.370529,,,
729707084.418647,-0.407045,0.684127,-23.751344,-0.029144,-0.002533,0.967651,-0.019213,0.052294,0.055561,59.350296,30.582825,-146.282516,,,
729707084.41928,-0.407036,0.68416,120.158831,-0.029144,-0.002533,0.967651,-0.019213,0.052294,0.055561,59.350296,30.582825,-146.282516,,,
729707084.421209,-0.416598,0.695277,-23.734348,-0.029144,-0.002533,0.967651,-0.043851,0.032215,0.05617,59.350296,30.582825,-146.282516,,,
729707084.422519,-0.416589,0.69531,120.175831,-0.029144,-0.002533,0.967651,-0.043851,0.032215,0.05617,59.350296,30.582825,-146.282516,,,
729707084.423326,-0.416598,0.695277,-23.734348,-0.029144,-0.002533,0.967651,-0.043851,0.032215,0.05617,59.350296,30.582825,-146.282516,,,
729707084.425848,-0.430241,0.701865,120.191988,-0.022964,-0.000732,0.971008,-0.043851,0.032215,0.05617,59.350296,30.582825,-146.282516,,,
729707084.427424,-0.43025,0.701831,-23.718196,-0.022964,-0.000732,0.971008,-0.043851,0.032215,0.05617,59.350296,30.582825,-146.282516,,,
729707084.429259,-0.430241,0.701865,120.191988,-0.022964,-0.000732,0.971008,-0.043851,0.032215,0.05617,59.350296,30.582825,-146.282516,,,
729707084.43122,-0.444123,0.704161,-23.703542,-0.022964,-0.000732,0.971008,-0.05552,0.003004,0.04561,59.350296,30.582825,-146.282516,,,
729707084.432602,-0.444114,0.704194,120.206647,-0.022964,-0.000732,0.971008,-0.05552,0.003004,0.04561,59.350296,30.582825,-146.282516,,,
729707084.433331,-0.444123,0.704161,-23.703542,-0.022964,-0.000732,0.971008,-0.05552,0.003004,0.04561,59.350296,30.582825,-146.282516,,,
729707084.435846,-0.460633,0.702511,120.219108,-0.018799,-0.002411,0.986328,-0.05552,0.003004,0.04561,59.350296,30.582825,-146.282516,,,
729707084.437454,-0.460642,0.702477,-23.691065,-0.018799,-0.002411,0.986328,-0.05552,0.003004,0.04561,59.350296,30.582825,-146.282516,,,
729707084.439179,-0.460633,0.702511,120.219108,-0.018799,-0.002411,0.986328,-0.05552,0.003004,0.04561,59.350296,30.582825,-146.282516,,,
729707084.441969,-0.476009,0.695074,-23.680265,-0.018799,-0.002411,0.986328,-0.056299,-0.032865,0.034007,59.350296,30.582825,-146.282516,,,
729707084.442556,-0.476,0.695108,120.229917,-0.018799,-0.002411,0.986328,-0.056299,-0.032865,0.034007,59.350296,30.582825,-146.282516,,,
729707084.44333,-0.476009,0.695074,-23.680265,-0.018799,-0.002411,0.986328,-0.056299,-0.032865,0.034007,59.350296,30.582825,-146.282516,,,
729707084.445871,-0.49114,0.682692,120.239371,-0.017426,-0.006409,1.001404,-0.056299,-0.032865,0.034007,59.350296,30.582825,-146.282516,,,
729707084.447992,-0.491149,0.682659,-23.670812,-0.017426,-0.006409,1.001404,-0.056299,-0.032865,0.034007,59.350296,30.582825,-146.282516,,,
729707084.449182,-0.49114,0.682692,120.239371,-0.017426,-0.006409,1.001404,-0.056299,-0.032865,0.034007,59.350296,30.582825,-146.282516,,,
729707084.451484,-0.502535,0.665266,-23.662981,-0.017426,-0.006409,1.001404,-0.035208,-0.062536,0.023035,59.350296,30.582825,-146.282516,,,
729707084.452592,-0.502526,0.665299,120.247204,-0.017426,-0.006409,1.001404,-0.035208,-0.062536,0.023035,59.350296,30.582825,-146.282516,,,
729707084.453332,-0.502535,0.665266,-23.662981,-0.017426,-0.006409,1.001404,-0.035208,-0.062536,0.023035,59.350296,30.582825,-146.282516,,,
729707084.455852,-0.511159,0.645676,120.25368,-0.008911,-0.013184,1.013504,-0.035208,-0.062536,0.023035,59.350296,30.582825,-146.282516,,,
729707084.458415,-0.511168,0.645642,-23.656491,-0.008911,-0.013184,1.013504,-0.035208,-0.062536,0.023035,59.339767,30.848862,-146.052841,,,
729707084.459174,-0.511159,0.645676,120.25368,-0.008911,-0.013184,1.013504,-0.035208,-0.062536,0.023035,59.339767,30.848862,-146.052841,,,
729707084.461232,-0.515075,0.624062,-23.651133,-0.008911,-0.013184,1.013504,-0.009184,-0.071775,0.015492,59.339767,30.848862,-146.052841,,,
729707084.462532,-0.515065,0.624096,120.259038,-0.008911,-0.013184,1.013504,-0.009184,-0.071775,0.015492,59.339767,30.848862,-146.052841,,,
729707084.463341,-0.515075,0.624062,-23.651133,-0.008911,-0.013184,1.013504,-0.009184,-0.071775,0.015492,59.339767,30.848862,-146.052841,,,
729707084.465842,-0.515512,0.604016,120.26371,0.0009,-0.017181,1.026978,-0.009184,-0.071775,0.015492,59.339767,30.848862,-146.052841,,,
729707084.468589,-0.515521,0.603982,-23.646462,0.0009,-0.017181,1.026978,-0.009184,-0.071775,0.015492,59.339767,30.848862,-146.052841,,,
729707084.469245,-0.515512,0.604016,120.26371,0.0009,-0.017181,1.026978,-0.009184,-0.071775,0.015492,59.339767,30.848862,-146.052841,,,
729707084.472432,-0.511085,0.58737,-23.642278,0.0009,-0.017181,1.026978,0.017235,-0.049298,0.012299,59.339767,30.848862,-146.052841,,,
729707084.47271,-0.511075,0.587404,120.267894,0.0009,-0.017181,1.026978,0.017235,-0.049298,0.012299,59.339767,30.848862,-146.052841,,,
729707084.473331,-0.511085,0.58737,-23.642278,0.0009,-0.017181,1.026978,0.017235,-0.049298,0.012299,59.339767,30.848862,-146.052841,,,
729707084.475858,-0.505152,0.575168,120.271936,0.010971,-0.018082,1.035004,0.017235,-0.049298,0.012299,59.339767,30.848862,-146.052841,,,
729707084.477449,-0.505162,0.575134,-23.638236,0.010971,-0.018082,1.035004,0.017235,-0.049298,0.012299,59.339767,30.848862,-146.052841,,,
729707084.479189,-0.505152,0.575168,120.271936,0.010971,-0.018082,1.035004,0.017235,-0.049298,0.012299,59.339767,30.848862,-146.052841,,,
729707084.481353,-0.497246,0.571335,-23.634138,0.010971,-0.018082,1.035004,0.027481,-0.005598,0.012636,59.339767,30.848862,-146.052841,,,
729707084.482595,-0.497237,0.571368,120.276036,0.010971,-0.018082,1.035004,0.027481,-0.005598,0.012636,59.339767,30.848862,-146.052841,,,
729707084.483324,-0.497246,0.571335,-23.634138,0.010971,-0.018082,1.035004,0.027481,-0.005598,0.012636,59.339767,30.848862,-146.052841,,,
729707084.485844,-0.489195,0.573326,120.279849,0.013458,-0.014816,1.034775,0.027481,-0.005598,0.012636,59.339767,30.848862,-146.052841,,,
729707084.487461,-0.489204,0.573292,-23.630327,0.013458,-0.014816,1.034775,0.027481,-0.005598,0.012636,59.339767,30.848862,-146.052841,,,
729707084.489186,-0.489195,0.573326,120.279849,0.013458,-0.014816,1.034775,0.027481,-0.005598,0.012636,59.339767,30.848862,-146.052841,,,
729707084.491939,-0.479825,0.587799,-23.6261,0.013458,-0.014816,1.034775,0.028529,0.05342,0.015317,59.339767,30.848862,-146.052841,,,
729707084.492556,-0.479816,0.587833,120.284075,0.013458,-0.014816,1.034775,0.028529,0.05342,0.015317,59.339767,30.848862,-146.052841,,,
729707084.493332,-0.479825,0.587799,-23.6261,0.013458,-0.014816,1.034775,0.028529,0.05342,0.015317,59.339767,30.848862,-146.052841,,,
729707084.495868,-0.472377,0.605279,120.289451,0.009674,-0.01532,1.027344,0.028529,0.05342,0.015317,59.339767,30.848862,-146.052841,,,
729707084.497812,-0.472387,0.605245,-23.62073,0.009674,-0.01532,1.027344,0.028529,0.05342,0.015317,59.339767,30.848862,-146.052841,,,
729707084.499187,-0.472377,0.605279,120.289451,0.009674,-0.01532,1.027344,0.028529,0.05342,0.015317,59.406906,30.856064,-146.072372,,,
729707084.501822,-0.464767,0.630713,-23.614333,0.009674,-0.01532,1.027344,0.0223,0.084371,0.022168,59.406906,30.856064,-146.072372,,,
