Time (sec),Pitch (deg),Roll (deg),Yaw(deg),X-Acceleration (g),Y-Acceleration (g),Z-Acceleration (g),Pitch Rate (deg/sec),Roll Rate (deg/sec),Yaw Rate (deg/sec),Magnetic Field in X direction (uT),Magnetic Field in Y direction (uT),Magnetic Field in Z Direction (uT),Latitude (deg),Longitude (deg),Altitude (m)
729716452.292446,-41.696489,-6.644806,-88.999685,0.089035,-0.661148,0.720261,-0.322066,0.071984,0.031063,61.481979,51.210129,-142.179031,,,
729716452.292667,-41.696476,-6.644809,-85.922804,0.089035,-0.661148,0.720261,-0.322066,0.071984,0.031063,61.481979,51.210129,-142.179031,,,
729716452.295721,-41.796474,-6.62815,-89.003536,0.089035,-0.661148,0.720261,-0.373925,0.070461,0.028782,61.481979,51.210129,-142.179031,,,
729716452.295937,-41.796461,-6.628152,-85.926656,0.089035,-0.661148,0.720261,-0.373925,0.070461,0.028782,61.481979,51.210129,-142.179031,,,
729716452.298259,-41.796474,-6.62815,-89.003536,0.089035,-0.661148,0.720261,-0.373925,0.070461,0.028782,61.481979,51.210129,-142.179031,,,
729716452.298455,-41.796461,-6.628152,-85.926656,0.089035,-0.661148,0.720261,-0.373925,0.070461,0.028782,61.481979,51.210129,-142.179031,,,
729716452.302717,-41.901022,-6.611348,-89.007504,0.090073,-0.659393,0.710175,-0.373925,0.070461,0.028782,61.481979,51.210129,-142.179031,,,
729716452.302945,-41.901009,-6.61135,-85.930624,0.090073,-0.659393,0.710175,-0.373925,0.070461,0.028782,61.481979,51.210129,-142.179031,,,
729716452.305787,-42.01782,-6.596544,-89.013646,0.090073,-0.659393,0.710175,-0.435231,0.070348,0.028773,61.481979,51.210129,-142.179031,,,
729716452.306108,-42.017806,-6.596547,-85.936765,0.090073,-0.659393,0.710175,-0.435231,0.070348,0.028773,61.481979,51.210129,-142.179031,,,
729716452.308302,-42.01782,-6.596544,-89.013646,0.090073,-0.659393,0.710175,-0.435231,0.070348,0.028773,61.481979,51.210129,-142.179031,,,
729716452.308494,-42.017806,-6.596547,-85.936765,0.090073,-0.659393,0.710175,-0.435231,0.070348,0.028773,61.481979,51.210129,-142.179031,,,
729716452.312892,-42.140912,-6.580321,-89.019725,0.081787,-0.65863,0.703476,-0.435231,0.070348,0.028773,61.481979,51.210129,-142.179031,,,
729716452.313117,-42.140898,-6.580323,-85.942845,0.081787,-0.65863,0.703476,-0.435231,0.070348,0.028773,61.481979,51.210129,-142.179031,,,
729716452.315737,-42.140912,-6.580321,-89.030237,0.081787,-0.65863,0.703476,-0.496072,0.056143,0.019408,61.481979,51.210129,-142.179031,,,
729716452.315966,-42.274995,-6.57022,-85.953357,0.081787,-0.65863,0.703476,-0.496072,0.056143,0.019408,61.481979,51.210129,-142.179031,,,
729716452.318915,-42.275008,-6.570217,-89.030237,0.081787,-0.65863,0.703476,-0.496072,0.056143,0.019408,61.481979,51.210129,-142.179031,,,
729716452.319125,-42.274995,-6.57022,-85.953357,0.081787,-0.65863,0.703476,-0.496072,0.056143,0.019408,61.481979,51.210129,-142.179031,,,
729716452.322474,-42.414994,-6.563324,-89.042895,0.082428,-0.660843,0.696686,-0.496072,0.056143,0.019408,61.481979,51.210129,-142.179031,,,
729716452.32278,-42.414981,-6.563327,-85.966014,0.082428,-0.660843,0.696686,-0.496072,0.056143,0.019408,61.481979,51.210129,-142.179031,,,
729716452.325916,-42.414994,-6.563324,-89.060485,0.082428,-0.660843,0.696686,-0.556544,0.027323,0.002803,61.481979,51.210129,-142.179031,,,
729716452.326161,-42.566092,-6.564336,-85.983604,0.082428,-0.660843,0.696686,-0.556544,0.027323,0.002803,61.481979,51.210129,-142.179031,,,
729716452.329215,-42.566105,-6.564333,-89.060485,0.082428,-0.660843,0.696686,-0.556544,0.027323,0.002803,61.505402,52.172607,-141.88089,,,
729716452.32948,-42.566092,-6.564336,-85.983604,0.082428,-0.660843,0.696686,-0.556544,0.027323,0.002803,61.505402,52.172607,-141.88089,,,
729716452.333039,-42.725727,-6.572665,-89.082878,0.086075,-0.665527,0.689835,-0.556544,0.027323,0.002803,61.505402,52.172607,-141.88089,,,
729716452.333283,-42.725713,-6.572668,-86.005997,0.086075,-0.665527,0.689835,-0.556544,0.027323,0.002803,61.505402,52.172607,-141.88089,,,
729716452.334924,-42.725727,-6.572665,-89.082878,0.086075,-0.665527,0.689835,-0.556544,0.027323,0.002803,61.505402,52.172607,-141.88089,,,
729716452.33512,-42.892999,-6.588201,-86.033296,0.086075,-0.665527,0.689835,-0.615318,0.005632,-0.010286,61.505402,52.172607,-141.88089,,,
729716452.340901,-42.893013,-6.588198,-89.110177,0.086075,-0.665527,0.689835,-0.615318,0.005632,-0.010286,61.505402,52.172607,-141.88089,,,
729716452.341192,-43.068389,-6.608755,-86.064661,0.083496,-0.666336,0.685196,-0.615318,0.005632,-0.010286,61.505402,52.172607,-141.88089,,,
729716452.342517,-43.068403,-6.608752,-89.141542,0.083496,-0.666336,0.685196,-0.615318,0.005632,-0.010286,61.505402,52.172607,-141.88089,,,
729716452.342736,-43.068389,-6.608755,-86.064661,0.083496,-0.666336,0.685196,-0.615318,0.005632,-0.010286,61.505402,52.172607,-141.88089,,,
729716452.345616,-43.068403,-6.608752,-89.176359,0.083496,-0.666336,0.685196,-0.670435,0.013566,-0.01841,61.505402,52.172607,-141.88089,,,
729716452.345837,-43.251456,-6.630848,-86.099478,0.083496,-0.666336,0.685196,-0.670435,0.013566,-0.01841,61.505402,52.172607,-141.88089,,,
729716452.348943,-43.25147,-6.630845,-89.176359,0.083496,-0.666336,0.685196,-0.670435,0.013566,-0.01841,61.505402,52.172607,-141.88089,,,
729716452.349159,-43.251456,-6.630848,-86.099478,0.083496,-0.666336,0.685196,-0.670435,0.013566,-0.01841,61.505402,52.172607,-141.88089,,,
729716452.352419,-43.442199,-6.653641,-89.214319,0.078842,-0.668625,0.688385,-0.670435,0.013566,-0.01841,61.505402,52.172607,-141.88089,,,
729716452.352633,-43.442185,-6.653643,-86.137439,0.078842,-0.668625,0.688385,-0.670435,0.013566,-0.01841,61.505402,52.172607,-141.88089,,,
729716452.354927,-43.442199,-6.653641,-89.214319,0.078842,-0.668625,0.688385,-0.670435,0.013566,-0.01841,61.505402,52.172607,-141.88089,,,
729716452.355295,-43.640062,-6.677762,-86.177747,0.078842,-0.668625,0.688385,-0.722558,0.014446,-0.025195,61.505402,52.172607,-141.88089,,,
729716452.359766,-43.640076,-6.677759,-89.254627,0.078842,-0.668625,0.688385,-0.722558,0.014446,-0.025195,61.505402,52.172607,-141.88089,,,
729716452.360003,-43.640062,-6.677762,-86.177747,0.087845,-0.676041,0.6884,-0.722558,0.014446,-0.025195,61.505402,52.172607,-141.88089,,,
729716452.362723,-43.845181,-6.704117,-89.297938,0.087845,-0.676041,0.6884,-0.722558,0.014446,-0.025195,61.505402,52.172607,-141.88089,,,
729716452.362955,-43.845167,-6.704119,-86.221057,0.087845,-0.676041,0.6884,-0.722558,0.014446,-0.025195,61.505402,52.172607,-141.88089,,,
729716452.364937,-43.845181,-6.704117,-89.297938,0.087845,-0.676041,0.6884,-0.722558,0.014446,-0.025195,61.505402,52.172607,-141.88089,,,
729716452.365135,-44.057204,-6.732162,-86.266704,0.087845,-0.676041,0.6884,-0.766326,0.018982,-0.029341,61.505402,52.172607,-141.88089,,,
729716452.370217,-44.057218,-6.732159,-89.343585,0.087845,-0.676041,0.6884,-0.766326,0.018982,-0.029341,61.630249,53.186478,-140.86499,,,
729716452.37047,-44.275506,-6.760131,-86.313621,0.090012,-0.684631,0.68219,-0.766326,0.018982,-0.029341,61.630249,53.186478,-140.86499,,,
729716452.372478,-44.27552,-6.760128,-89.390502,0.090012,-0.684631,0.68219,-0.766326,0.018982,-0.029341,61.630249,53.186478,-140.86499,,,
729716452.372807,-44.275506,-6.760131,-86.313621,0.090012,-0.684631,0.68219,-0.766326,0.018982,-0.029341,61.630249,53.186478,-140.86499,,,
729716452.374923,-44.27552,-6.760128,-89.390502,0.090012,-0.684631,0.68219,-0.766326,0.018982,-0.029341,61.630249,53.186478,-140.86499,,,
729716452.375187,-44.499816,-6.787022,-86.362058,0.090012,-0.684631,0.68219,-0.811267,0.037199,-0.026329,61.630249,53.186478,-140.86499,,,
729716452.379748,-44.499831,-6.787019,-89.438939,0.090012,-0.684631,0.68219,-0.811267,0.037199,-0.026329,61.630249,53.186478,-140.86499,,,
729716452.380001,-44.499816,-6.787022,-86.362058,0.085785,-0.691376,0.68364,-0.811267,0.037199,-0.026329,61.630249,53.186478,-140.86499,,,
729716452.382651,-44.730762,-6.811649,-89.487921,0.085785,-0.691376,0.68364,-0.811267,0.037199,-0.026329,61.630249,53.186478,-140.86499,,,
729716452.382884,-44.730748,-6.811652,-86.41104,0.085785,-0.691376,0.68364,-0.811267,0.037199,-0.026329,61.630249,53.186478,-140.86499,,,
729716452.385049,-44.730762,-6.811649,-89.487921,0.085785,-0.691376,0.68364,-0.811267,0.037199,-0.026329,61.630249,53.186478,-140.86499,,,
729716452.385258,-44.967157,-6.83473,-86.46026,0.085785,-0.691376,0.68364,-0.847092,0.043953,-0.026921,61.630249,53.186478,-140.86499,,,
729716452.38964,-44.967172,-6.834728,-89.537141,0.085785,-0.691376,0.68364,-0.847092,0.043953,-0.026921,61.630249,53.186478,-140.86499,,,
729716452.389851,-44.967157,-6.83473,-86.46026,0.085785,-0.691376,0.68364,-0.847092,0.043953,-0.026921,61.630249,53.186478,-140.86499,,,
729716452.39276,-45.208797,-6.858952,-89.587596,0.08461,-0.695267,0.681427,-0.847092,0.043953,-0.026921,61.630249,53.186478,-140.86499,,,
729716452.392997,-45.208783,-6.858954,-86.510715,0.08461,-0.695267,0.681427,-0.847092,0.043953,-0.026921,61.630249,53.186478,-140.86499,,,
729716452.394904,-45.208797,-6.858952,-89.587596,0.08461,-0.695267,0.681427,-0.847092,0.043953,-0.026921,61.630249,53.186478,-140.86499,,,
729716452.395222,-45.454497,-6.885091,-86.56326,0.08461,-0.695267,0.681427,-0.876258,0.042375,-0.03165,61.630249,53.186478,-140.86499,,,
729716452.39936,-45.454511,-6.885088,-89.640141,0.08461,-0.695267,0.681427,-0.876258,0.042375,-0.03165,61.630249,53.186478,-140.86499,,,
729716452.399581,-45.454497,-6.885091,-86.56326,0.08461,-0.695267,0.681427,-0.876258,0.042375,-0.03165,61.630249,53.186478,-140.86499,,,
729716452.402552,-45.703086,-6.912829,-89.694981,0.087601,-0.702438,0.675049,-0.876258,0.042375,-0.03165,61.630249,53.186478,-140.86499,,,
729716452.40277,-45.703071,-6.912831,-86.6181,0.087601,-0.702438,0.675049,-0.876258,0.042375,-0.03165,61.630249,53.186478,-140.86499,,,
729716452.40495,-45.703086,-6.912829,-89.694981,0.087601,-0.702438,0.675049,-0.876258,0.042375,-0.03165,61.630249,53.186478,-140.86499,,,
729716452.40527,-45.954394,-6.941972,-86.675059,0.087601,-0.702438,0.675049,-0.893356,0.047547,-0.036223,61.630249,53.186478,-140.86499,,,
729716452.410604,-45.954409,-6.94197,-89.75194,0.087601,-0.702438,0.675049,-0.893356,0.047547,-0.036223,61.666519,55.147461,-139.522446,,,
729716452.410879,-46.208472,-6.971645,-86.733723,0.090134,-0.711761,0.679504,-0.893356,0.047547,-0.036223,61.666519,55.147461,-139.522446,,,
729716452.412586,-46.208487,-6.971642,-89.810605,0.090134,-0.711761,0.679504,-0.893356,0.047547,-0.036223,61.666519,55.147461,-139.522446,,,
729716452.412835,-46.208472,-6.971645,-86.733723,0.090134,-0.711761,0.679504,-0.893356,0.047547,-0.036223,61.666519,55.147461,-139.522446,,,
729716452.41495,-46.208487,-6.971642,-89.810605,0.090134,-0.711761,0.679504,-0.893356,0.047547,-0.036223,61.666519,55.147461,-139.522446,,,
729716452.415175,-46.463271,-7.001413,-86.792779,0.090134,-0.711761,0.679504,-0.893356,0.047547,-0.036223,61.666519,55.147461,-139.522446,,,
729716452.419657,-46.463287,-7.001411,-89.86966,0.090134,-0.711761,0.679504,-0.900577,0.045694,-0.030235,61.666519,55.147461,-139.522446,,,
729716452.419928,-46.463271,-7.001413,-86.792779,0.090134,-0.711761,0.679504,-0.900577,0.045694,-0.030235,61.666519,55.147461,-139.522446,,,
729716452.423104,-46.718579,-7.032112,-89.928212,0.083755,-0.719452,0.674759,-0.900577,0.045694,-0.030235,61.666519,55.147461,-139.522446,,,
729716452.423464,-46.718564,-7.032115,-86.851331,0.083755,-0.719452,0.674759,-0.900577,0.045694,-0.030235,61.666519,55.147461,-139.522446,,,
729716452.424809,-46.718579,-7.032112,-89.928212,0.083755,-0.719452,0.674759,-0.900577,0.045694,-0.030235,61.666519,55.147461,-139.522446,,,
729716452.42523,-46.97311,-7.06336,-86.909035,0.083755,-0.719452,0.674759,-0.894687,0.039144,-0.023985,61.666519,55.147461,-139.522446,,,
729716452.429974,-46.973126,-7.063357,-89.985916,0.083755,-0.719452,0.674759,-0.894687,0.039144,-0.023985,61.666519,55.147461,-139.522446,,,
729716452.430229,-47.22689,-7.094329,-86.965832,0.090393,-0.724396,0.673645,-0.894687,0.039144,-0.023985,61.666519,55.147461,-139.522446,,,
729716452.432574,-47.226906,-7.094327,-90.042714,0.090393,-0.724396,0.673645,-0.894687,0.039144,-0.023985,61.666519,55.147461,-139.522446,,,
729716452.432814,-47.22689,-7.094329,-86.965832,0.090393,-0.724396,0.673645,-0.894687,0.039144,-0.023985,61.666519,55.147461,-139.522446,,,
729716452.434914,-47.226906,-7.094327,-90.042714,0.090393,-0.724396,0.673645,-0.894687,0.039144,-0.023985,61.666519,55.147461,-139.522446,,,
729716452.435115,-47.479094,-7.12368,-87.022072,0.090393,-0.724396,0.673645,-0.894687,0.039144,-0.023985,61.666519,55.147461,-139.522446,,,
729716452.439678,-47.47911,-7.123677,-90.098954,0.090393,-0.724396,0.673645,-0.880559,0.054041,-0.020662,61.666519,55.147461,-139.522446,,,
729716452.439928,-47.479094,-7.12368,-87.022072,0.090393,-0.724396,0.673645,-0.880559,0.054041,-0.020662,61.666519,55.147461,-139.522446,,,
729716452.442716,-47.728427,-7.149705,-90.153659,0.089951,-0.73082,0.676224,-0.880559,0.054041,-0.020662,61.666519,55.147461,-139.522446,,,
729716452.442943,-47.728411,-7.149707,-87.076777,0.089951,-0.73082,0.676224,-0.880559,0.054041,-0.020662,61.666519,55.147461,-139.522446,,,
729716452.444982,-47.728427,-7.149705,-90.153659,0.089951,-0.73082,0.676224,-0.880559,0.054041,-0.020662,61.666519,55.147461,-139.522446,,,
729716452.445204,-47.973424,-7.172274,-87.128812,0.089951,-0.73082,0.676224,-0.8436,0.055236,-0.015042,61.666519,55.147461,-139.522446,,,
729716452.44968,-47.97344,-7.172272,-90.205694,0.089951,-0.73082,0.676224,-0.8436,0.055236,-0.015042,61.666519,55.147461,-139.522446,,,
729716452.449942,-47.973424,-7.172274,-87.128812,0.089951,-0.73082,0.676224,-0.8436,0.055236,-0.015042,61.666519,55.147461,-139.522446,,,
729716452.452934,-48.213855,-7.19432,-90.255771,0.087769,-0.735474,0.678253,-0.8436,0.055236,-0.015042,61.666748,56.60495,-138.243286,,,
729716452.453164,-48.213839,-7.194322,-87.178889,0.087769,-0.735474,0.678253,-0.8436,0.055236,-0.015042,61.666748,56.60495,-138.243286,,,
729716452.454852,-48.213855,-7.19432,-90.255771,0.087769,-0.735474,0.678253,-0.8436,0.055236,-0.015042,61.666748,56.60495,-138.243286,,,
729716452.455204,-48.448486,-7.217227,-87.227097,0.087769,-0.735474,0.678253,-0.804282,0.04217,-0.005296,61.666748,56.60495,-138.243286,,,
729716452.459984,-48.448502,-7.217224,-90.303979,0.087769,-0.735474,0.678253,-0.804282,0.04217,-0.005296,61.666748,56.60495,-138.243286,,,
729716452.460227,-48.448486,-7.217227,-87.227097,0.086365,-0.743515,0.671127,-0.804282,0.04217,-0.005296,61.666748,56.60495,-138.243286,,,
729716452.462497,-48.677429,-7.240653,-90.350119,0.086365,-0.743515,0.671127,-0.804282,0.04217,-0.005296,61.666748,56.60495,-138.243286,,,
729716452.462712,-48.677412,-7.240656,-87.273237,0.086365,-0.743515,0.671127,-0.804282,0.04217,-0.005296,61.666748,56.60495,-138.243286,,,
729716452.464923,-48.677429,-7.240653,-90.350119,0.086365,-0.743515,0.671127,-0.804282,0.04217,-0.005296,61.666748,56.60495,-138.243286,,,
729716452.465226,-48.899457,-7.263702,-87.317895,0.086365,-0.743515,0.671127,-0.747416,0.041217,-0.005571,61.666748,56.60495,-138.243286,,,
729716452.469536,-48.899473,-7.263699,-90.394777,0.086365,-0.743515,0.671127,-0.747416,0.041217,-0.005571,61.666748,56.60495,-138.243286,,,
729716452.469777,-48.899457,-7.263702,-87.317895,0.086365,-0.743515,0.671127,-0.747416,0.041217,-0.005571,61.666748,56.60495,-138.243286,,,
729716452.472757,-49.113855,-7.285414,-90.438276,0.084671,-0.746216,0.672455,-0.747416,0.041217,-0.005571,61.666748,56.60495,-138.243286,,,
729716452.473089,-49.113838,-7.285416,-87.361394,0.084671,-0.746216,0.672455,-0.747416,0.041217,-0.005571,61.666748,56.60495,-138.243286,,,
729716452.474842,-49.113855,-7.285414,-90.438276,0.084671,-0.746216,0.672455,-0.747416,0.041217,-0.005571,61.666748,56.60495,-138.243286,,,
729716452.475082,-49.113838,-7.285416,-87.361394,0.084671,-0.746216,0.672455,-0.747416,0.041217,-0.005571,61.666748,56.60495,-138.243286,,,
729716452.479617,-49.319073,-7.305395,-90.480688,0.084671,-0.746216,0.672455,-0.689025,0.050453,-0.006871,61.666748,56.60495,-138.243286,,,
729716452.479847,-49.319056,-7.305398,-87.403805,0.084671,-0.746216,0.672455,-0.689025,0.050453,-0.006871,61.666748,56.60495,-138.243286,,,
729716452.482775,-49.514747,-7.324011,-90.522069,0.08699,-0.746216,0.675293,-0.689025,0.050453,-0.006871,61.666748,56.60495,-138.243286,,,
729716452.483014,-49.51473,-7.324014,-87.445187,0.08699,-0.746216,0.675293,-0.689025,0.050453,-0.006871,61.666748,56.60495,-138.243286,,,
729716452.484948,-49.514747,-7.324011,-90.522069,0.08699,-0.746216,0.675293,-0.689025,0.050453,-0.006871,61.666748,56.60495,-138.243286,,,
729716452.485224,-49.700579,-7.340815,-87.48444,0.08699,-0.746216,0.675293,-0.689025,0.050453,-0.006871,61.666748,56.60495,-138.243286,,,
729716452.489588,-49.700596,-7.340812,-90.561323,0.08699,-0.746216,0.675293,-0.618361,0.046301,-0.005797,61.666748,56.60495,-138.243286,,,
729716452.489789,-49.700579,-7.340815,-87.48444,0.08699,-0.746216,0.675293,-0.618361,0.046301,-0.005797,61.666748,56.60495,-138.243286,,,
729716452.493187,-49.876471,-7.355894,-90.598324,0.082047,-0.750183,0.675064,-0.618361,0.046301,-0.005797,61.522552,57.701035,-137.503616,,,
729716452.493433,-49.876453,-7.355896,-87.521441,0.082047,-0.750183,0.675064,-0.618361,0.046301,-0.005797,61.522552,57.701035,-137.503616,,,
729716452.494815,-49.876471,-7.355894,-90.598324,0.082047,-0.750183,0.675064,-0.618361,0.046301,-0.005797,61.522552,57.701035,-137.503616,,,
729716452.495123,-49.876453,-7.355896,-87.521441,0.082047,-0.750183,0.675064,-0.618361,0.046301,-0.005797,61.522552,57.701035,-137.503616,,,
729716452.499757,-50.041215,-7.369188,-90.632486,0.082047,-0.750183,0.675064,-0.539693,0.044804,-0.002475,61.522552,57.701035,-137.503616,,,
729716452.499983,-50.041198,-7.36919,-87.555604,0.082047,-0.750183,0.675064,-0.539693,0.044804,-0.002475,61.522552,57.701035,-137.503616,,,
729716452.502696,-50.195143,-7.381536,-90.664293,0.080994,-0.757217,0.673096,-0.539693,0.044804,-0.002475,61.522552,57.701035,-137.503616,,,
729716452.502916,-50.195126,-7.381539,-87.587411,0.080994,-0.757217,0.673096,-0.539693,0.044804,-0.002475,61.522552,57.701035,-137.503616,,,
729716452.504887,-50.195143,-7.381536,-90.664293,0.080994,-0.757217,0.673096,-0.539693,0.044804,-0.002475,61.522552,57.701035,-137.503616,,,
729716452.505259,-50.195126,-7.393337,-87.616431,0.080994,-0.757217,0.673096,-0.539693,0.044804,-0.002475,61.522552,57.701035,-137.503616,,,
729716452.509656,-50.337623,-7.393334,-90.693313,0.080994,-0.757217,0.673096,-0.458679,0.033406,-0.000357,61.522552,57.701035,-137.503616,,,
729716452.509888,-50.337606,-7.393337,-87.616431,0.080994,-0.757217,0.673096,-0.458679,0.033406,-0.000357,61.522552,57.701035,-137.503616,,,
729716452.512332,-50.468871,-7.404621,-90.719525,0.07724,-0.762955,0.66951,-0.458679,0.033406,-0.000357,61.522552,57.701035,-137.503616,,,
729716452.512544,-50.468854,-7.404624,-87.642643,0.07724,-0.762955,0.66951,-0.458679,0.033406,-0.000357,61.522552,57.701035,-137.503616,,,
729716452.514918,-50.468871,-7.404621,-90.719525,0.07724,-0.762955,0.66951,-0.458679,0.033406,-0.000357,61.522552,57.701035,-137.503616,,,
729716452.515286,-50.588297,-7.415828,-87.667404,0.07724,-0.762955,0.66951,-0.458679,0.033406,-0.000357,61.522552,57.701035,-137.503616,,,
729716452.519712,-50.588315,-7.415825,-90.744286,0.07724,-0.762955,0.66951,-0.37627,0.026819,-0.005699,61.522552,57.701035,-137.503616,,,
729716452.519954,-50.588297,-7.415828,-87.667404,0.07724,-0.762955,0.66951,-0.37627,0.026819,-0.005699,61.522552,57.701035,-137.503616,,,
729716452.522556,-50.695906,-7.427353,-90.768196,0.081787,-0.76709,0.669357,-0.37627,0.026819,-0.005699,61.522552,57.701035,-137.503616,,,
729716452.522886,-50.695889,-7.427356,-87.691314,0.081787,-0.76709,0.669357,-0.37627,0.026819,-0.005699,61.522552,57.701035,-137.503616,,,
729716452.524865,-50.695906,-7.427353,-90.768196,0.081787,-0.76709,0.669357,-0.37627,0.026819,-0.005699,61.522552,57.701035,-137.503616,,,
729716452.525082,-50.695889,-7.427356,-87.691314,0.081787,-0.76709,0.669357,-0.37627,0.026819,-0.005699,61.522552,57.701035,-137.503616,,,
729716452.529809,-50.792156,-7.440031,-90.792664,0.081787,-0.76709,0.669357,-0.307936,0.021756,-0.019409,61.522552,57.701035,-137.503616,,,
729716452.530078,-50.792138,-7.440034,-87.715781,0.081787,-0.76709,0.669357,-0.307936,0.021756,-0.019409,61.522552,57.701035,-137.503616,,,
729716452.53311,-50.879197,-7.454362,-90.817928,0.084717,-0.76973,0.667892,-0.307936,0.021756,-0.019409,61.596893,58.444611,-136.744736,,,
729716452.533367,-50.879179,-7.454365,-87.741046,0.084717,-0.76973,0.667892,-0.307936,0.021756,-0.019409,61.596893,58.444611,-136.744736,,,
729716452.534916,-50.879197,-7.454362,-90.817928,0.084717,-0.76973,0.667892,-0.307936,0.021756,-0.019409,61.596893,58.444611,-136.744736,,,
729716452.535186,-50.879179,-7.454365,-87.741046,0.084717,-0.76973,0.667892,-0.307936,0.021756,-0.019409,61.596893,58.444611,-136.744736,,,
729716452.539798,-50.958255,-7.469837,-90.843163,0.084717,-0.76973,0.667892,-0.253993,0.012809,-0.023562,61.596893,58.444611,-136.744736,,,
729716452.540062,-50.958237,-7.46984,-87.766281,0.084717,-0.76973,0.667892,-0.253993,0.012809,-0.023562,61.596893,58.444611,-136.744736,,,
729716452.54253,-51.030399,-7.4866,-90.868423,0.082489,-0.773056,0.659912,-0.253993,0.012809,-0.023562,61.596893,58.444611,-136.744736,,,
729716452.542755,-51.030381,-7.486603,-87.79154,0.082489,-0.773056,0.659912,-0.253993,0.012809,-0.023562,61.596893,58.444611,-136.744736,,,
729716452.544915,-51.030399,-7.4866,-90.868423,0.082489,-0.773056,0.659912,-0.253993,0.012809,-0.023562,61.596893,58.444611,-136.744736,,,
729716452.545167,-51.030381,-7.486603,-87.79154,0.082489,-0.773056,0.659912,-0.253993,0.012809,-0.023562,61.596893,58.444611,-136.744736,,,
729716452.549843,-51.096038,-7.503601,-90.892306,0.082489,-0.773056,0.659912,-0.213832,0.000656,-0.026114,61.596893,58.444611,-136.744736,,,
729716452.550132,-51.09602,-7.503604,-87.815424,0.082489,-0.773056,0.659912,-0.213832,0.000656,-0.026114,61.596893,58.444611,-136.744736,,,
729716452.552694,-51.156797,-7.522057,-90.915522,0.077332,-0.777954,0.651077,-0.213832,0.000656,-0.026114,61.596893,58.444611,-136.744736,,,
729716452.552955,-51.156779,-7.52206,-87.838639,0.077332,-0.777954,0.651077,-0.213832,0.000656,-0.026114,61.596893,58.444611,-136.744736,,,
729716452.55489,-51.156797,-7.522057,-90.915522,0.077332,-0.777954,0.651077,-0.213832,0.000656,-0.026114,61.596893,58.444611,-136.744736,,,
729716452.555217,-51.156779,-7.52206,-87.838639,0.077332,-0.777954,0.651077,-0.213832,0.000656,-0.026114,61.596893,58.444611,-136.744736,,,
729716452.560846,-51.213996,-7.542881,-90.938676,0.077332,-0.777954,0.651077,-0.191894,-0.013288,-0.027417,61.596893,58.444611,-136.744736,,,
729716452.561119,-51.268605,-7.565439,-87.884595,0.076859,-0.779663,0.637558,-0.191894,-0.013288,-0.027417,61.596893,58.444611,-136.744736,,,
729716452.562494,-51.268623,-7.565436,-90.961478,0.076859,-0.779663,0.637558,-0.191894,-0.013288,-0.027417,61.596893,58.444611,-136.744736,,,
729716452.562713,-51.268605,-7.565439,-87.884595,0.076859,-0.779663,0.637558,-0.191894,-0.013288,-0.027417,61.596893,58.444611,-136.744736,,,
729716452.564907,-51.268623,-7.565436,-90.961478,0.076859,-0.779663,0.637558,-0.191894,-0.013288,-0.027417,61.596893,58.444611,-136.744736,,,
729716452.565162,-51.268605,-7.565439,-87.884595,0.076859,-0.779663,0.637558,-0.191894,-0.013288,-0.027417,61.596893,58.444611,-136.744736,,,
729716452.569206,-51.321448,-7.588932,-90.984482,0.076859,-0.779663,0.637558,-0.186454,-0.013484,-0.029325,61.596893,58.444611,-136.744736,,,
729716452.569444,-51.32143,-7.588935,-87.907599,0.076859,-0.779663,0.637558,-0.186454,-0.013484,-0.029325,61.596893,58.444611,-136.744736,,,
729716452.572626,-51.374315,-7.612582,-91.008355,0.080002,-0.78125,0.629684,-0.186454,-0.013484,-0.029325,61.596893,58.444611,-136.744736,,,
729716452.573046,-51.374297,-7.612585,-87.931472,0.080002,-0.78125,0.629684,-0.186454,-0.013484,-0.029325,61.558823,58.452667,-136.487564,,,
729716452.575679,-51.374315,-7.612582,-91.008355,0.080002,-0.78125,0.629684,-0.186454,-0.013484,-0.029325,61.558823,58.452667,-136.487564,,,
729716452.57604,-51.427007,-7.636171,-87.956181,0.080002,-0.78125,0.629684,-0.19044,-0.006755,-0.031836,61.558823,58.452667,-136.487564,,,
729716452.579149,-51.427025,-7.636168,-91.033064,0.080002,-0.78125,0.629684,-0.19044,-0.006755,-0.031836,61.558823,58.452667,-136.487564,,,
729716452.57937,-51.427007,-7.636171,-87.956181,0.080002,-0.78125,0.629684,-0.19044,-0.006755,-0.031836,61.558823,58.452667,-136.487564,,,
729716452.582498,-51.480501,-7.659243,-91.058237,0.083084,-0.783798,0.626343,-0.19044,-0.006755,-0.031836,61.558823,58.452667,-136.487564,,,
729716452.582736,-51.480482,-7.659246,-87.981354,0.083084,-0.783798,0.626343,-0.19044,-0.006755,-0.031836,61.558823,58.452667,-136.487564,,,
729716452.584917,-51.480501,-7.659243,-91.058237,0.083084,-0.783798,0.626343,-0.19044,-0.006755,-0.031836,61.558823,58.452667,-136.487564,,,
729716452.585132,-51.480482,-7.659246,-87.981354,0.083084,-0.783798,0.626343,-0.19044,-0.006755,-0.031836,61.558823,58.452667,-136.487564,,,
729716452.591314,-51.534752,-7.680153,-91.082789,0.083084,-0.783798,0.626343,-0.196695,0.003763,-0.024753,61.558823,58.452667,-136.487564,,,
729716452.591582,-51.590473,-7.698213,-88.029324,0.083359,-0.789322,0.620163,-0.196695,0.003763,-0.024753,61.558823,58.452667,-136.487564,,,
729716452.596986,-51.590492,-7.698211,-91.106206,0.083359,-0.789322,0.620163,-0.213022,0.015749,-0.014465,61.558823,58.452667,-136.487564,,,
729716452.59725,-51.648363,-7.713421,-88.051211,0.083359,-0.789322,0.620163,-0.213022,0.015749,-0.014465,61.558823,58.452667,-136.487564,,,
729716452.598922,-51.648382,-7.713418,-91.128093,0.083359,-0.789322,0.620163,-0.213022,0.015749,-0.014465,61.558823,58.452667,-136.487564,,,
729716452.599141,-51.648363,-7.713421,-88.051211,0.083359,-0.789322,0.620163,-0.213022,0.015749,-0.014465,61.558823,58.452667,-136.487564,,,
729716452.60259,-51.708972,-7.726589,-91.148045,0.078644,-0.796066,0.617279,-0.213022,0.015749,-0.014465,61.558823,58.452667,-136.487564,,,
729716452.602822,-51.708953,-7.726592,-88.071162,0.078644,-0.796066,0.617279,-0.213022,0.015749,-0.014465,61.558823,58.452667,-136.487564,,,
729716452.604896,-51.708972,-7.726589,-91.148045,0.078644,-0.796066,0.617279,-0.213022,0.015749,-0.014465,61.558823,58.452667,-136.487564,,,
729716452.60529,-51.708953,-7.726592,-88.071162,0.078644,-0.796066,0.617279,-0.213022,0.015749,-0.014465,61.558823,58.452667,-136.487564,,,
729716452.609394,-51.771661,-7.73729,-91.165661,0.078644,-0.796066,0.617279,-0.229096,0.017773,-0.005136,61.558823,58.452667,-136.487564,,,
729716452.60962,-51.771643,-7.737292,-88.088778,0.078644,-0.796066,0.617279,-0.229096,0.017773,-0.005136,61.558823,58.452667,-136.487564,,,
729716452.612556,-51.836873,-7.74587,-91.18168,0.079544,-0.795303,0.6129,-0.229096,0.017773,-0.005136,61.558823,58.452667,-136.487564,,,
729716452.612793,-51.836855,-7.745872,-88.104797,0.079544,-0.795303,0.6129,-0.229096,0.017773,-0.005136,61.558823,58.452667,-136.487564,,,
729716452.615536,-51.836873,-7.74587,-91.18168,0.079544,-0.795303,0.6129,-0.229096,0.017773,-0.005136,61.789078,58.683517,-136.139481,,,
729716452.61576,-51.903562,-7.752018,-88.119651,0.079544,-0.795303,0.6129,-0.234764,0.026863,0.002165,61.789078,58.683517,-136.139481,,,
729716452.620324,-51.90358,-7.752015,-91.196534,0.079544,-0.795303,0.6129,-0.234764,0.026863,0.002165,61.789078,58.683517,-136.139481,,,
729716452.620584,-51.971158,-7.755833,-88.13341,0.083023,-0.794144,0.614471,-0.234764,0.026863,0.002165,61.789078,58.683517,-136.139481,,,
729716452.622529,-51.971176,-7.755831,-91.210293,0.083023,-0.794144,0.614471,-0.234764,0.026863,0.002165,61.789078,58.683517,-136.139481,,,
729716452.622935,-51.971158,-7.755833,-88.13341,0.083023,-0.794144,0.614471,-0.234764,0.026863,0.002165,61.789078,58.683517,-136.139481,,,
729716452.624864,-51.971176,-7.755831,-91.210293,0.083023,-0.794144,0.614471,-0.234764,0.026863,0.002165,61.789078,58.683517,-136.139481,,,
729716452.625087,-51.971158,-7.755833,-88.13341,0.083023,-0.794144,0.614471,-0.234764,0.026863,0.002165,61.789078,58.683517,-136.139481,,,
729716452.629119,-52.03905,-7.757429,-91.223619,0.083023,-0.794144,0.614471,-0.234987,0.039513,0.002039,61.789078,58.683517,-136.139481,,,
729716452.629358,-52.039031,-7.757432,-88.146736,0.083023,-0.794144,0.614471,-0.234987,0.039513,0.002039,61.789078,58.683517,-136.139481,,,
729716452.632516,-52.107189,-7.757372,-91.237797,0.084076,-0.799118,0.617386,-0.234987,0.039513,0.002039,61.789078,58.683517,-136.139481,,,
729716452.632745,-52.10717,-7.757375,-88.160914,0.084076,-0.799118,0.617386,-0.234987,0.039513,0.002039,61.789078,58.683517,-136.139481,,,
729716452.634958,-52.107189,-7.757372,-91.237797,0.084076,-0.799118,0.617386,-0.234987,0.039513,0.002039,61.789078,58.683517,-136.139481,,,
729716452.635144,-52.10717,-7.757375,-88.160914,0.084076,-0.799118,0.617386,-0.234987,0.039513,0.002039,61.789078,58.683517,-136.139481,,,
729716452.640355,-52.174686,-7.757697,-91.253368,0.084076,-0.799118,0.617386,-0.232762,0.04528,-0.004915,61.789078,58.683517,-136.139481,,,
729716452.640611,-52.174668,-7.7577,-88.176484,0.088043,-0.80336,0.616653,-0.232762,0.04528,-0.004915,61.789078,58.683517,-136.139481,,,
729716452.642224,-52.241418,-7.758779,-91.270063,0.088043,-0.80336,0.616653,-0.232762,0.04528,-0.004915,61.789078,58.683517,-136.139481,,,
729716452.642441,-52.2414,-7.758782,-88.19318,0.088043,-0.80336,0.616653,-0.232762,0.04528,-0.004915,61.789078,58.683517,-136.139481,,,
729716452.644937,-52.241418,-7.758779,-91.270063,0.088043,-0.80336,0.616653,-0.232762,0.04528,-0.004915,61.789078,58.683517,-136.139481,,,
729716452.645131,-52.2414,-7.758782,-88.19318,0.088043,-0.80336,0.616653,-0.232762,0.04528,-0.004915,61.789078,58.683517,-136.139481,,,
729716452.649312,-52.307298,-7.760497,-91.287272,0.088043,-0.80336,0.616653,-0.230198,0.038508,-0.007133,61.789078,58.683517,-136.139481,,,
729716452.649543,-52.307279,-7.760499,-88.210388,0.088043,-0.80336,0.616653,-0.230198,0.038508,-0.007133,61.789078,58.683517,-136.139481,,,
729716452.652287,-52.372461,-7.764406,-91.305486,0.089691,-0.804794,0.612167,-0.230198,0.038508,-0.007133,61.789078,58.683517,-136.139481,,,
729716452.652503,-52.372442,-7.764409,-88.228603,0.089691,-0.804794,0.612167,-0.230198,0.038508,-0.007133,61.789078,58.683517,-136.139481,,,
729716452.655619,-52.372461,-7.764406,-91.305486,0.089691,-0.804794,0.612167,-0.230198,0.038508,-0.007133,61.800262,59.246689,-136.096451,,,
729716452.656017,-52.436833,-7.76924,-88.246406,0.089691,-0.804794,0.612167,-0.225821,0.033294,-0.010417,61.800262,59.246689,-136.096451,,,
729716452.659511,-52.436852,-7.769238,-91.323289,0.089691,-0.804794,0.612167,-0.225821,0.033294,-0.010417,61.800262,59.246689,-136.096451,,,
729716452.65976,-52.436833,-7.76924,-88.246406,0.089691,-0.804794,0.612167,-0.225821,0.033294,-0.010417,61.800262,59.246689,-136.096451,,,
729716452.662297,-52.495233,-7.773504,-91.34032,0.086807,-0.805695,0.609253,-0.225821,0.033294,-0.010417,61.800262,59.246689,-136.096451,,,
729716452.662521,-52.495214,-7.773507,-88.263437,0.086807,-0.805695,0.609253,-0.225821,0.033294,-0.010417,61.800262,59.246689,-136.096451,,,
729716452.664916,-52.495233,-7.773504,-91.34032,0.086807,-0.805695,0.609253,-0.225821,0.033294,-0.010417,61.800262,59.246689,-136.096451,,,
729716452.665109,-52.495214,-7.773507,-88.263437,0.086807,-0.805695,0.609253,-0.225821,0.033294,-0.010417,61.800262,59.246689,-136.096451,,,
729716452.669407,-52.559919,-7.778549,-91.359016,0.086807,-0.805695,0.609253,-0.227513,0.043643,-0.014107,61.800262,59.246689,-136.096451,,,
729716452.66963,-52.5599,-7.778552,-88.282133,0.086807,-0.805695,0.609253,-0.227513,0.043643,-0.014107,61.800262,59.246689,-136.096451,,,
729716452.672288,-52.620024,-7.782225,-91.378257,0.089676,-0.803329,0.607208,-0.227513,0.043643,-0.014107,61.800262,59.246689,-136.096451,,,
729716452.672619,-52.620005,-7.782227,-88.301374,0.089676,-0.803329,0.607208,-0.227513,0.043643,-0.014107,61.800262,59.246689,-136.096451,,,
729716452.674898,-52.620024,-7.782225,-91.378257,0.089676,-0.803329,0.607208,-0.227513,0.043643,-0.014107,61.800262,59.246689,-136.096451,,,
729716452.675108,-52.620005,-7.782227,-88.301374,0.089676,-0.803329,0.607208,-0.227513,0.043643,-0.014107,61.800262,59.246689,-136.096451,,,
729716452.679823,-52.685492,-7.788446,-91.401817,0.089676,-0.803329,0.607208,-0.236209,0.049567,-0.02781,61.800262,59.246689,-136.096451,,,
729716452.680082,-52.685473,-7.788448,-88.324934,0.089676,-0.803329,0.607208,-0.236209,0.049567,-0.02781,61.800262,59.246689,-136.096451,,,
729716452.682277,-52.748882,-7.79347,-91.425683,0.093964,-0.796921,0.600739,-0.236209,0.049567,-0.02781,61.800262,59.246689,-136.096451,,,
729716452.682496,-52.748863,-7.793473,-88.3488,0.093964,-0.796921,0.600739,-0.236209,0.049567,-0.02781,61.800262,59.246689,-136.096451,,,
729716452.685039,-52.748882,-7.79347,-91.425683,0.093964,-0.796921,0.600739,-0.236209,0.049567,-0.02781,61.800262,59.246689,-136.096451,,,
729716452.685251,-52.748863,-7.793473,-88.3488,0.093964,-0.796921,0.600739,-0.236209,0.049567,-0.02781,61.800262,59.246689,-136.096451,,,
729716452.68978,-52.817655,-7.805292,-91.455296,0.093964,-0.796921,0.600739,-0.252249,0.040747,-0.036008,61.800262,59.246689,-136.096451,,,
729716452.690122,-52.817636,-7.805294,-88.378413,0.093964,-0.796921,0.600739,-0.252249,0.040747,-0.036008,61.800262,59.246689,-136.096451,,,
729716452.692682,-52.883749,-7.818194,-91.486451,0.092499,-0.793549,0.585892,-0.252249,0.040747,-0.036008,61.800262,59.246689,-136.096451,,,
729716452.692906,-52.88373,-7.818197,-88.409568,0.092499,-0.793549,0.585892,-0.252249,0.040747,-0.036008,61.800262,59.246689,-136.096451,,,
729716452.69488,-52.883749,-7.818194,-91.486451,0.092499,-0.793549,0.585892,-0.252249,0.040747,-0.036008,61.800262,59.246689,-136.096451,,,
729716452.695092,-52.88373,-7.818197,-88.409568,0.092499,-0.793549,0.585892,-0.252249,0.040747,-0.036008,61.800262,59.246689,-136.096451,,,
729716452.700155,-52.957705,-7.836631,-91.522274,0.092499,-0.793549,0.585892,-0.277362,0.035262,-0.047768,61.758606,59.7491,-135.570084,,,
729716452.700437,-52.957686,-7.836634,-88.445391,0.092499,-0.793549,0.585892,-0.277362,0.035262,-0.047768,61.758606,59.7491,-135.570084,,,
729716452.702549,-53.028514,-7.858322,-91.56092,0.088425,-0.794647,0.580688,-0.277362,0.035262,-0.047768,61.758606,59.7491,-135.570084,,,
729716452.702816,-53.028494,-7.858325,-88.484037,0.088425,-0.794647,0.580688,-0.277362,0.035262,-0.047768,61.758606,59.7491,-135.570084,,,
729716452.704926,-53.028514,-7.858322,-91.56092,0.088425,-0.794647,0.580688,-0.277362,0.035262,-0.047768,61.758606,59.7491,-135.570084,,,
729716452.705253,-53.028494,-7.858325,-88.484037,0.088425,-0.794647,0.580688,-0.277362,0.035262,-0.047768,61.758606,59.7491,-135.570084,,,
729716452.710014,-53.110298,-7.885225,-91.604213,0.088425,-0.794647,0.580688,-0.3112,0.020479,-0.058392,61.758606,59.7491,-135.570084,,,
729716452.71028,-53.110279,-7.885228,-88.52733,0.088425,-0.794647,0.580688,-0.3112,0.020479,-0.058392,61.758606,59.7491,-135.570084,,,
729716452.712681,-53.190097,-7.917491,-91.65098,0.086502,-0.797195,0.570099,-0.3112,0.020479,-0.058392,61.758606,59.7491,-135.570084,,,
729716452.712912,-53.190078,-7.917493,-88.574097,0.086502,-0.797195,0.570099,-0.3112,0.020479,-0.058392,61.758606,59.7491,-135.570084,,,
729716452.714915,-53.190097,-7.917491,-91.65098,0.086502,-0.797195,0.570099,-0.3112,0.020479,-0.058392,61.758606,59.7491,-135.570084,,,
729716452.715141,-53.190078,-7.917493,-88.574097,0.086502,-0.797195,0.570099,-0.3112,0.020479,-0.058392,61.758606,59.7491,-135.570084,,,
729716452.71979,-53.281185,-7.95579,-91.701194,0.086502,-0.797195,0.570099,-0.343239,0.003063,-0.066509,61.758606,59.7491,-135.570084,,,
729716452.720023,-53.281165,-7.955792,-88.624311,0.086502,-0.797195,0.570099,-0.343239,0.003063,-0.066509,61.758606,59.7491,-135.570084,,,
729716452.722726,-53.369225,-8.000896,-91.75612,0.084702,-0.797943,0.562744,-0.343239,0.003063,-0.066509,61.758606,59.7491,-135.570084,,,
729716452.723062,-53.369205,-8.000899,-88.679237,0.084702,-0.797943,0.562744,-0.343239,0.003063,-0.066509,61.758606,59.7491,-135.570084,,,
729716452.724839,-53.369225,-8.000896,-91.75612,0.084702,-0.797943,0.562744,-0.343239,0.003063,-0.066509,61.758606,59.7491,-135.570084,,,
729716452.725069,-53.369205,-8.000899,-88.679237,0.084702,-0.797943,0.562744,-0.343239,0.003063,-0.066509,61.758606,59.7491,-135.570084,,,
729716452.730844,-53.467422,-8.04544,-91.810148,0.084702,-0.797943,0.562744,-0.36991,-0.003807,-0.062614,61.758606,59.7491,-135.570084,,,
729716452.731115,-53.563652,-8.092227,-88.788201,0.083038,-0.799591,0.569275,-0.36991,-0.003807,-0.062614,61.758606,59.7491,-135.570084,,,
729716452.73251,-53.563672,-8.092224,-91.865085,0.083038,-0.799591,0.569275,-0.36991,-0.003807,-0.062614,61.758606,59.7491,-135.570084,,,
729716452.732742,-53.563652,-8.092227,-88.788201,0.083038,-0.799591,0.569275,-0.36991,-0.003807,-0.062614,61.758606,59.7491,-135.570084,,,
729716452.734993,-53.563672,-8.092224,-91.865085,0.083038,-0.799591,0.569275,-0.36991,-0.003807,-0.062614,61.758606,59.7491,-135.570084,,,
729716452.73519,-53.563652,-8.092227,-88.788201,0.083038,-0.799591,0.569275,-0.36991,-0.003807,-0.062614,61.758606,59.7491,-135.570084,,,
729716452.740178,-53.670529,-8.137363,-91.9178,0.083038,-0.799591,0.569275,-0.397681,-0.0024,-0.050899,61.642746,60.263046,-135.024857,,,
729716452.740603,-53.67051,-8.137366,-88.840916,0.083038,-0.799591,0.569275,-0.397681,-0.0024,-0.050899,61.642746,60.263046,-135.024857,,,
729716452.742622,-53.776455,-8.180114,-91.969089,0.079742,-0.807526,0.563995,-0.397681,-0.0024,-0.050899,61.642746,60.263046,-135.024857,,,
729716452.74286,-53.776435,-8.180117,-88.892205,0.079742,-0.807526,0.563995,-0.397681,-0.0024,-0.050899,61.642746,60.263046,-135.024857,,,
729716452.744887,-53.776455,-8.180114,-91.969089,0.079742,-0.807526,0.563995,-0.397681,-0.0024,-0.050899,61.642746,60.263046,-135.024857,,,
729716452.7451,-53.776435,-8.180117,-88.892205,0.079742,-0.807526,0.563995,-0.397681,-0.0024,-0.050899,61.642746,60.263046,-135.024857,,,
729716452.75082,-53.891203,-8.216812,-92.016364,0.079742,-0.807526,0.563995,-0.422863,0.0209,-0.026211,61.642746,60.263046,-135.024857,,,
729716452.751108,-54.009569,-8.245671,-88.980693,0.078033,-0.814194,0.566269,-0.422863,0.0209,-0.026211,61.642746,60.263046,-135.024857,,,
729716452.752421,-54.009589,-8.245669,-92.057577,0.078033,-0.814194,0.566269,-0.422863,0.0209,-0.026211,61.642746,60.263046,-135.024857,,,
729716452.752682,-54.009569,-8.245671,-88.980693,0.078033,-0.814194,0.566269,-0.422863,0.0209,-0.026211,61.642746,60.263046,-135.024857,,,
729716452.754931,-54.009589,-8.245669,-92.057577,0.078033,-0.814194,0.566269,-0.422863,0.0209,-0.026211,61.642746,60.263046,-135.024857,,,
729716452.755309,-54.009569,-8.245671,-88.980693,0.078033,-0.814194,0.566269,-0.422863,0.0209,-0.026211,61.642746,60.263046,-135.024857,,,
729716452.759913,-54.13207,-8.267731,-92.093778,0.078033,-0.814194,0.566269,-0.440542,0.037274,-0.000645,61.642746,60.263046,-135.024857,,,
729716452.760164,-54.132049,-8.267734,-89.016894,0.078033,-0.814194,0.566269,-0.440542,0.037274,-0.000645,61.642746,60.263046,-135.024857,,,
729716452.762677,-54.257965,-8.283247,-92.125352,0.081558,-0.822083,0.562241,-0.440542,0.037274,-0.000645,61.642746,60.263046,-135.024857,,,
729716452.762903,-54.257945,-8.28325,-89.048468,0.081558,-0.822083,0.562241,-0.440542,0.037274,-0.000645,61.642746,60.263046,-135.024857,,,
729716452.764897,-54.257965,-8.283247,-92.125352,0.081558,-0.822083,0.562241,-0.440542,0.037274,-0.000645,61.642746,60.263046,-135.024857,,,
729716452.765117,-54.257945,-8.28325,-89.048468,0.081558,-0.822083,0.562241,-0.440542,0.037274,-0.000645,61.642746,60.263046,-135.024857,,,
729716452.770786,-54.387011,-8.291526,-92.151735,0.081558,-0.822083,0.562241,-0.45892,0.058682,0.02112,61.642746,60.263046,-135.024857,,,
729716452.771069,-54.519281,-8.294632,-89.097498,0.082703,-0.823624,0.561432,-0.45892,0.058682,0.02112,61.642746,60.263046,-135.024857,,,
729716452.772008,-54.519302,-8.29463,-92.174382,0.082703,-0.823624,0.561432,-0.45892,0.058682,0.02112,61.642746,60.263046,-135.024857,,,
729716452.772394,-54.519281,-8.294632,-89.097498,0.082703,-0.823624,0.561432,-0.45892,0.058682,0.02112,61.642746,60.263046,-135.024857,,,
729716452.774929,-54.519302,-8.29463,-92.174382,0.082703,-0.823624,0.561432,-0.45892,0.058682,0.02112,61.642746,60.263046,-135.024857,,,
729716452.775138,-54.519281,-8.294632,-89.097498,0.082703,-0.823624,0.561432,-0.45892,0.058682,0.02112,61.642746,60.263046,-135.024857,,,
729716452.779932,-54.653511,-8.292752,-92.192731,0.082703,-0.823624,0.561432,-0.474682,0.064732,0.037918,61.596786,60.802734,-134.365463,,,
729716452.780193,-54.65349,-8.292755,-89.115847,0.082703,-0.823624,0.561432,-0.474682,0.064732,0.037918,61.596786,60.802734,-134.365463,,,
729716452.782085,-54.790241,-8.286114,-92.206767,0.081573,-0.822327,0.560593,-0.474682,0.064732,0.037918,61.596786,60.802734,-134.365463,,,
729716452.782311,-54.790221,-8.286116,-89.129883,0.081573,-0.822327,0.560593,-0.474682,0.064732,0.037918,61.596786,60.802734,-134.365463,,,
729716452.784943,-54.790241,-8.286114,-92.206767,0.081573,-0.822327,0.560593,-0.474682,0.064732,0.037918,61.596786,60.802734,-134.365463,,,
729716452.785132,-54.790221,-8.286116,-89.129883,0.081573,-0.822327,0.560593,-0.474682,0.064732,0.037918,61.596786,60.802734,-134.365463,,,
729716452.789782,-54.928735,-8.275127,-92.217301,0.081573,-0.822327,0.560593,-0.477277,0.07814,0.054736,61.596786,60.802734,-134.365463,,,
729716452.790137,-54.928715,-8.275129,-89.140417,0.081573,-0.822327,0.560593,-0.477277,0.07814,0.054736,61.596786,60.802734,-134.365463,,,
729716452.792092,-55.067274,-8.259406,-92.224799,0.075623,-0.821381,0.557526,-0.477277,0.07814,0.054736,61.596786,60.802734,-134.365463,,,
729716452.792306,-55.067253,-8.259408,-89.147915,0.075623,-0.821381,0.557526,-0.477277,0.07814,0.054736,61.596786,60.802734,-134.365463,,,
729716452.795038,-55.067274,-8.259406,-92.224799,0.075623,-0.821381,0.557526,-0.477277,0.07814,0.054736,61.596786,60.802734,-134.365463,,,
729716452.795237,-55.067253,-8.259408,-89.147915,0.075623,-0.821381,0.557526,-0.477277,0.07814,0.054736,61.596786,60.802734,-134.365463,,,
729716452.799749,-55.204987,-8.239011,-92.229374,0.075623,-0.821381,0.557526,-0.473352,0.090799,0.060444,61.596786,60.802734,-134.365463,,,
729716452.800014,-55.204966,-8.239013,-89.15249,0.075623,-0.821381,0.557526,-0.473352,0.090799,0.060444,61.596786,60.802734,-134.365463,,,
729716452.802122,-55.342763,-8.215835,-92.231567,0.082077,-0.822525,0.56163,-0.473352,0.090799,0.060444,61.596786,60.802734,-134.365463,,,
729716452.802349,-55.342742,-8.215838,-89.154683,0.082077,-0.822525,0.56163,-0.473352,0.090799,0.060444,61.596786,60.802734,-134.365463,,,
729716452.804961,-55.342763,-8.215835,-92.231567,0.082077,-0.822525,0.56163,-0.473352,0.090799,0.060444,61.596786,60.802734,-134.365463,,,
729716452.805247,-55.342742,-8.215838,-89.154683,0.082077,-0.822525,0.56163,-0.473352,0.090799,0.060444,61.596786,60.802734,-134.365463,,,
729716452.809432,-55.479984,-8.189432,-92.231147,0.082077,-0.822525,0.56163,-0.471263,0.09876,0.069423,61.596786,60.802734,-134.365463,,,
729716452.809655,-55.479963,-8.189434,-89.154263,0.082077,-0.822525,0.56163,-0.471263,0.09876,0.069423,61.596786,60.802734,-134.365463,,,
729716452.81223,-55.616862,-8.159399,-92.228286,0.082001,-0.82399,0.557495,-0.471263,0.09876,0.069423,61.596786,60.802734,-134.365463,,,
729716452.812437,-55.616841,-8.159402,-89.151401,0.082001,-0.82399,0.557495,-0.471263,0.09876,0.069423,61.596786,60.802734,-134.365463,,,
729716452.814926,-55.616862,-8.159399,-92.228286,0.082001,-0.82399,0.557495,-0.471263,0.09876,0.069423,61.596786,60.802734,-134.365463,,,
729716452.815169,-55.616841,-8.159402,-89.151401,0.082001,-0.82399,0.557495,-0.471263,0.09876,0.069423,61.596786,60.802734,-134.365463,,,
729716452.820194,-55.752796,-8.12657,-92.222932,0.082001,-0.82399,0.557495,-0.458652,0.098532,0.078876,61.783173,61.787415,-133.33783,,,
729716452.820449,-55.752774,-8.126573,-89.146047,0.082001,-0.82399,0.557495,-0.458652,0.098532,0.078876,61.783173,61.787415,-133.33783,,,
729716452.822276,-55.887588,-8.093891,-92.216009,0.080505,-0.823578,0.554764,-0.458652,0.098532,0.078876,61.783173,61.787415,-133.33783,,,
729716452.822598,-55.887567,-8.093894,-89.139125,0.080505,-0.823578,0.554764,-0.458652,0.098532,0.078876,61.783173,61.787415,-133.33783,,,
729716452.824902,-55.887588,-8.093891,-92.216009,0.080505,-0.823578,0.554764,-0.458652,0.098532,0.078876,61.783173,61.787415,-133.33783,,,
729716452.825121,-55.887567,-8.093894,-89.139125,0.080505,-0.823578,0.554764,-0.458652,0.098532,0.078876,61.783173,61.787415,-133.33783,,,
729716452.829577,-56.020733,-8.062813,-92.207555,0.080505,-0.823578,0.554764,-0.450978,0.080512,0.08201,61.783173,61.787415,-133.33783,,,
729716452.829807,-56.020711,-8.062816,-89.130671,0.080505,-0.823578,0.554764,-0.450978,0.080512,0.08201,61.783173,61.787415,-133.33783,,,
729716452.832537,-56.152666,-8.032647,-92.197896,0.082397,-0.82579,0.545532,-0.450978,0.080512,0.08201,61.783173,61.787415,-133.33783,,,
729716452.832763,-56.152645,-8.03265,-89.121011,0.082397,-0.82579,0.545532,-0.450978,0.080512,0.08201,61.783173,61.787415,-133.33783,,,
729716452.834999,-56.152666,-8.032647,-92.197896,0.082397,-0.82579,0.545532,-0.450978,0.080512,0.08201,61.783173,61.787415,-133.33783,,,
729716452.835208,-56.152645,-8.03265,-89.121011,0.082397,-0.82579,0.545532,-0.450978,0.080512,0.08201,61.783173,61.787415,-133.33783,,,
729716452.839365,-56.281754,-8.002415,-92.188209,0.082397,-0.82579,0.545532,-0.42769,0.082955,0.075974,61.783173,61.787415,-133.33783,,,
729716452.8397,-56.281732,-8.002417,-89.111324,0.082397,-0.82579,0.545532,-0.42769,0.082955,0.075974,61.783173,61.787415,-133.33783,,,
729716452.84234,-56.407525,-7.972722,-92.179544,0.076141,-0.82811,0.550369,-0.42769,0.082955,0.075974,61.783173,61.787415,-133.33783,,,
729716452.842569,-56.407504,-7.972725,-89.102659,0.076141,-0.82811,0.550369,-0.42769,0.082955,0.075974,61.783173,61.787415,-133.33783,,,
729716452.844925,-56.407525,-7.972722,-92.179544,0.076141,-0.82811,0.550369,-0.42769,0.082955,0.075974,61.783173,61.787415,-133.33783,,,
729716452.845137,-56.407504,-7.972725,-89.102659,0.076141,-0.82811,0.550369,-0.42769,0.082955,0.075974,61.783173,61.787415,-133.33783,,,
729716452.849798,-56.530171,-7.947057,-92.173245,0.076141,-0.82811,0.550369,-0.414769,0.054221,0.063809,61.783173,61.787415,-133.33783,,,
729716452.850032,-56.530149,-7.947059,-89.09636,0.076141,-0.82811,0.550369,-0.414769,0.054221,0.063809,61.783173,61.787415,-133.33783,,,
729716452.852294,-56.650983,-7.92886,-92.169835,0.084534,-0.823471,0.546753,-0.414769,0.054221,0.063809,61.783173,61.787415,-133.33783,,,
729716452.852524,-56.650961,-7.928863,-89.09295,0.084534,-0.823471,0.546753,-0.414769,0.054221,0.063809,61.783173,61.787415,-133.33783,,,
729716452.854939,-56.650983,-7.92886,-92.169835,0.084534,-0.823471,0.546753,-0.414769,0.054221,0.063809,61.783173,61.787415,-133.33783,,,
729716452.855237,-56.650961,-7.928863,-89.09295,0.084534,-0.823471,0.546753,-0.414769,0.054221,0.063809,61.783173,61.787415,-133.33783,,,
729716452.859614,-56.77019,-7.917414,-92.169063,0.084534,-0.823471,0.546753,-0.408709,0.033925,0.05066,61.783173,61.787415,-133.33783,,,
729716452.859855,-56.770168,-7.917417,-89.092178,0.084534,-0.823471,0.546753,-0.408709,0.033925,0.05066,61.947098,62.110825,-132.792328,,,
729716452.863183,-56.889002,-7.910005,-92.171173,0.080292,-0.82869,0.535309,-0.408709,0.033925,0.05066,61.947098,62.110825,-132.792328,,,
729716452.863425,-56.888979,-7.910007,-89.094288,0.080292,-0.82869,0.535309,-0.408709,0.033925,0.05066,61.947098,62.110825,-132.792328,,,
729716452.86483,-56.889002,-7.910005,-92.171173,0.080292,-0.82869,0.535309,-0.408709,0.033925,0.05066,61.947098,62.110825,-132.792328,,,
729716452.865088,-56.888979,-7.910007,-89.094288,0.080292,-0.82869,0.535309,-0.408709,0.033925,0.05066,61.947098,62.110825,-132.792328,,,
729716452.869333,-57.006997,-7.905852,-92.17664,0.080292,-0.82869,0.535309,-0.404754,0.028319,0.035653,61.947098,62.110825,-132.792328,,,
729716452.869566,-57.006974,-7.905855,-89.099755,0.080292,-0.82869,0.535309,-0.404754,0.028319,0.035653,61.947098,62.110825,-132.792328,,,
729716452.872078,-57.124347,-7.906982,-92.186376,0.079468,-0.832733,0.53949,-0.404754,0.028319,0.035653,61.947098,62.110825,-132.792328,,,
729716452.872395,-57.124325,-7.906985,-89.109491,0.079468,-0.832733,0.53949,-0.404754,0.028319,0.035653,61.947098,62.110825,-132.792328,,,
729716452.874952,-57.124347,-7.906982,-92.186376,0.079468,-0.832733,0.53949,-0.404754,0.028319,0.035653,61.947098,62.110825,-132.792328,,,
729716452.87514,-57.124325,-7.906985,-89.109491,0.079468,-0.832733,0.53949,-0.404754,0.028319,0.035653,61.947098,62.110825,-132.792328,,,
729716452.879305,-57.240329,-7.914388,-92.199999,0.079468,-0.832733,0.53949,-0.404524,0.00717,0.018388,61.947098,62.110825,-132.792328,,,
729716452.879534,-57.240307,-7.914391,-89.123114,0.079468,-0.832733,0.53949,-0.404524,0.00717,0.018388,61.947098,62.110825,-132.792328,,,
729716452.882796,-57.355835,-7.929208,-92.21865,0.086121,-0.838272,0.53801,-0.404524,0.00717,0.018388,61.947098,62.110825,-132.792328,,,
729716452.883027,-57.355812,-7.929211,-89.141765,0.086121,-0.838272,0.53801,-0.404524,0.00717,0.018388,61.947098,62.110825,-132.792328,,,
729716452.884934,-57.355835,-7.929208,-92.21865,0.086121,-0.838272,0.53801,-0.404524,0.00717,0.018388,61.947098,62.110825,-132.792328,,,
729716452.885129,-57.355812,-7.929211,-89.141765,0.086121,-0.838272,0.53801,-0.404524,0.00717,0.018388,61.947098,62.110825,-132.792328,,,
729716452.891412,-57.470069,-7.951715,-92.242991,0.086121,-0.838272,0.53801,-0.398138,-0.011919,-0.003543,61.947098,62.110825,-132.792328,,,
729716452.891885,-57.583494,-7.981349,-89.196042,0.086105,-0.841995,0.536179,-0.398138,-0.011919,-0.003543,61.947098,62.110825,-132.792328,,,
729716452.895936,-57.583517,-7.981346,-92.272927,0.086105,-0.841995,0.536179,-0.398138,-0.011919,-0.003543,61.947098,62.110825,-132.792328,,,
729716452.896185,-57.695857,-8.016585,-89.230825,0.086105,-0.841995,0.536179,-0.394462,-0.019073,-0.019867,61.947098,62.110825,-132.792328,,,
729716452.899662,-57.69588,-8.016582,-92.307711,0.086105,-0.841995,0.536179,-0.394462,-0.019073,-0.019867,61.947098,62.110825,-132.792328,,,
729716452.899912,-57.695857,-8.016585,-89.230825,0.086105,-0.841995,0.536179,-0.394462,-0.019073,-0.019867,61.947098,62.110825,-132.792328,,,
729716452.903296,-57.806933,-8.056595,-92.347932,0.083038,-0.843124,0.534317,-0.394462,-0.019073,-0.019867,61.938065,62.715668,-131.906403,,,
729716452.903562,-57.80691,-8.056598,-89.271047,0.083038,-0.843124,0.534317,-0.394462,-0.019073,-0.019867,61.938065,62.715668,-131.906403,,,
729716452.904787,-57.806933,-8.056595,-92.347932,0.083038,-0.843124,0.534317,-0.394462,-0.019073,-0.019867,61.938065,62.715668,-131.906403,,,
729716452.905117,-57.80691,-8.056598,-89.271047,0.083038,-0.843124,0.534317,-0.394462,-0.019073,-0.019867,61.938065,62.715668,-131.906403,,,
729716452.909773,-57.917493,-8.100828,-92.393668,0.083038,-0.843124,0.534317,-0.391239,-0.013001,-0.037936,61.938065,62.715668,-131.906403,,,
729716452.910014,-57.917469,-8.100831,-89.316782,0.083038,-0.843124,0.534317,-0.391239,-0.013001,-0.037936,61.938065,62.715668,-131.906403,,,
729716452.912513,-58.028084,-8.148826,-92.444765,0.082733,-0.847565,0.53334,-0.391239,-0.013001,-0.037936,61.938065,62.715668,-131.906403,,,
729716452.912742,-58.028061,-8.148829,-89.367879,0.082733,-0.847565,0.53334,-0.391239,-0.013001,-0.037936,61.938065,62.715668,-131.906403,,,
729716452.914945,-58.028084,-8.148826,-92.444765,0.082733,-0.847565,0.53334,-0.391239,-0.013001,-0.037936,61.938065,62.715668,-131.906403,,,
729716452.91515,-58.028061,-8.148829,-89.367879,0.082733,-0.847565,0.53334,-0.391239,-0.013001,-0.037936,61.938065,62.715668,-131.906403,,,
729716452.919656,-58.13731,-8.199103,-92.500068,0.082733,-0.847565,0.53334,-0.386945,-0.003311,-0.053609,61.938065,62.715668,-131.906403,,,
729716452.919913,-58.137287,-8.199106,-89.423182,0.082733,-0.847565,0.53334,-0.386945,-0.003311,-0.053609,61.938065,62.715668,-131.906403,,,
729716452.922338,-58.24549,-8.25053,-92.558314,0.083633,-0.850555,0.531006,-0.386945,-0.003311,-0.053609,61.938065,62.715668,-131.906403,,,
729716452.922666,-58.245466,-8.250533,-89.481428,0.083633,-0.850555,0.531006,-0.386945,-0.003311,-0.053609,61.938065,62.715668,-131.906403,,,
729716452.924911,-58.24549,-8.25053,-92.558314,0.083633,-0.850555,0.531006,-0.386945,-0.003311,-0.053609,61.938065,62.715668,-131.906403,,,
729716452.925128,-58.245466,-8.250533,-89.481428,0.083633,-0.850555,0.531006,-0.386945,-0.003311,-0.053609,61.938065,62.715668,-131.906403,,,
729716452.930551,-58.35231,-8.301751,-92.618423,0.083633,-0.850555,0.531006,-0.380856,0.006765,-0.054186,61.938065,62.715668,-131.906403,,,
729716452.930821,-58.352286,-8.301754,-89.541537,0.083633,-0.850555,0.531006,-0.380856,0.006765,-0.054186,61.938065,62.715668,-131.906403,,,
729716452.932271,-58.458074,-8.350619,-92.677892,0.082886,-0.851288,0.527542,-0.380856,0.006765,-0.054186,61.938065,62.715668,-131.906403,,,
729716452.932491,-58.45805,-8.350622,-89.601007,0.082886,-0.851288,0.527542,-0.380856,0.006765,-0.054186,61.938065,62.715668,-131.906403,,,
729716452.935006,-58.458074,-8.350619,-92.677892,0.082886,-0.851288,0.527542,-0.380856,0.006765,-0.054186,61.938065,62.715668,-131.906403,,,
729716452.935194,-58.45805,-8.350622,-89.601007,0.082886,-0.851288,0.527542,-0.380856,0.006765,-0.054186,61.938065,62.715668,-131.906403,,,
729716452.939571,-58.562584,-8.39492,-92.735318,0.082886,-0.851288,0.527542,-0.369858,0.031101,-0.046435,61.938065,62.715668,-131.906403,,,
729716452.939958,-58.56256,-8.394923,-89.658432,0.082886,-0.851288,0.527542,-0.369858,0.031101,-0.046435,61.938065,62.715668,-131.906403,,,
729716452.942945,-58.666018,-8.433876,-92.790129,0.076385,-0.852539,0.53006,-0.369858,0.031101,-0.046435,61.929153,63.162476,-131.23526,,,
729716452.943182,-58.665994,-8.433879,-89.713243,0.076385,-0.852539,0.53006,-0.369858,0.031101,-0.046435,61.929153,63.162476,-131.23526,,,
729716452.944849,-58.666018,-8.433876,-92.790129,0.076385,-0.852539,0.53006,-0.369858,0.031101,-0.046435,61.929153,63.162476,-131.23526,,,
729716452.945076,-58.665994,-8.433879,-89.713243,0.076385,-0.852539,0.53006,-0.369858,0.031101,-0.046435,61.929153,63.162476,-131.23526,,,
729716452.949807,-58.768258,-8.467168,-92.84065,0.076385,-0.852539,0.53006,-0.359739,0.040141,-0.03172,61.929153,63.162476,-131.23526,,,
729716452.950045,-58.768234,-8.467171,-89.763764,0.076385,-0.852539,0.53006,-0.359739,0.040141,-0.03172,61.929153,63.162476,-131.23526,,,
729716452.952489,-58.869996,-8.496239,-92.887529,0.078659,-0.856079,0.528824,-0.359739,0.040141,-0.03172,61.929153,63.162476,-131.23526,,,
729716452.952732,-58.869972,-8.496242,-89.810642,0.078659,-0.856079,0.528824,-0.359739,0.040141,-0.03172,61.929153,63.162476,-131.23526,,,
729716452.954912,-58.869996,-8.496239,-92.887529,0.078659,-0.856079,0.528824,-0.359739,0.040141,-0.03172,61.929153,63.162476,-131.23526,,,
729716452.955199,-58.869972,-8.496242,-89.810642,0.078659,-0.856079,0.528824,-0.359739,0.040141,-0.03172,61.929153,63.162476,-131.23526,,,
729716452.959859,-58.970741,-8.52278,-92.931683,0.078659,-0.856079,0.528824,-0.354531,0.04695,-0.024475,61.929153,63.162476,-131.23526,,,
729716452.960101,-58.970717,-8.522782,-89.854797,0.078659,-0.856079,0.528824,-0.354531,0.04695,-0.024475,61.929153,63.162476,-131.23526,,,
729716452.962482,-59.070723,-8.546614,-92.973476,0.082489,-0.861969,0.516571,-0.354531,0.04695,-0.024475,61.929153,63.162476,-131.23526,,,
729716452.962702,-59.070699,-8.546617,-89.896589,0.082489,-0.861969,0.516571,-0.354531,0.04695,-0.024475,61.929153,63.162476,-131.23526,,,
729716452.96492,-59.070723,-8.546614,-92.973476,0.082489,-0.861969,0.516571,-0.354531,0.04695,-0.024475,61.929153,63.162476,-131.23526,,,
729716452.965134,-59.070699,-8.546617,-89.896589,0.082489,-0.861969,0.516571,-0.354531,0.04695,-0.024475,61.929153,63.162476,-131.23526,,,
729716452.969384,-59.169471,-8.566697,-93.012886,0.082489,-0.861969,0.516571,-0.348872,0.057736,-0.017617,61.929153,63.162476,-131.23526,,,
729716452.969618,-59.169446,-8.566699,-89.936,0.082489,-0.861969,0.516571,-0.348872,0.057736,-0.017617,61.929153,63.162476,-131.23526,,,
729716452.972357,-59.268207,-8.583585,-93.050443,0.078644,-0.862762,0.516891,-0.348872,0.057736,-0.017617,61.929153,63.162476,-131.23526,,,
729716452.972668,-59.268182,-8.583588,-89.973556,0.078644,-0.862762,0.516891,-0.348872,0.057736,-0.017617,61.929153,63.162476,-131.23526,,,
729716452.974921,-59.268207,-8.583585,-93.050443,0.078644,-0.862762,0.516891,-0.348872,0.057736,-0.017617,61.929153,63.162476,-131.23526,,,
729716452.975137,-59.268182,-8.583588,-89.973556,0.078644,-0.862762,0.516891,-0.348872,0.057736,-0.017617,61.929153,63.162476,-131.23526,,,
729716452.979754,-59.367104,-8.59551,-93.085453,0.078644,-0.862762,0.516891,-0.343132,0.079443,-0.007492,61.929153,63.162476,-131.23526,,,
729716452.979993,-59.36708,-8.595513,-90.008567,0.078644,-0.862762,0.516891,-0.343132,0.079443,-0.007492,61.929153,63.162476,-131.23526,,,
729716452.982891,-59.465513,-8.601779,-93.118282,0.072922,-0.86058,0.516357,-0.343132,0.079443,-0.007492,61.836334,63.720612,-130.598679,,,
729716452.983152,-59.465489,-8.601782,-90.041395,0.072922,-0.86058,0.516357,-0.343132,0.079443,-0.007492,61.836334,63.720612,-130.598679,,,
729716452.984932,-59.465513,-8.601779,-93.118282,0.072922,-0.86058,0.516357,-0.343132,0.079443,-0.007492,61.836334,63.720612,-130.598679,,,
729716452.985148,-59.465489,-8.601782,-90.041395,0.072922,-0.86058,0.516357,-0.343132,0.079443,-0.007492,61.836334,63.720612,-130.598679,,,
729716452.989487,-59.562122,-8.603087,-93.149339,0.072922,-0.86058,0.516357,-0.334486,0.100343,-7.6e-05,61.836334,63.720612,-130.598679,,,
729716452.989826,-59.562097,-8.60309,-90.072453,0.072922,-0.86058,0.516357,-0.334486,0.100343,-7.6e-05,61.836334,63.720612,-130.598679,,,
729716452.99204,-59.657692,-8.600918,-93.179133,0.073868,-0.860336,0.515594,-0.334486,0.100343,-7.6e-05,61.836334,63.720612,-130.598679,,,
729716452.992265,-59.657667,-8.600921,-90.102247,0.073868,-0.860336,0.515594,-0.334486,0.100343,-7.6e-05,61.836334,63.720612,-130.598679,,,
729716452.994934,-59.657692,-8.600918,-93.179133,0.073868,-0.860336,0.515594,-0.334486,0.100343,-7.6e-05,61.836334,63.720612,-130.598679,,,
729716452.995121,-59.657667,-8.600921,-90.102247,0.073868,-0.860336,0.515594,-0.334486,0.100343,-7.6e-05,61.836334,63.720612,-130.598679,,,
729716453.000466,-59.751315,-8.595341,-93.206896,0.073868,-0.860336,0.515594,-0.322249,0.112153,0.000527,61.836334,63.720612,-130.598679,,,
729716453.000734,-59.75129,-8.595343,-90.13001,0.073868,-0.860336,0.515594,-0.322249,0.112153,0.000527,61.836334,63.720612,-130.598679,,,
729716453.001674,-59.751315,-8.595341,-93.206896,0.071671,-0.863922,0.506973,-0.322249,0.112153,0.000527,61.836334,63.720612,-130.598679,,,
729716453.001873,-59.84331,-8.586854,-90.155471,0.071671,-0.863922,0.506973,-0.322249,0.112153,0.000527,61.836334,63.720612,-130.598679,,,
729716453.005951,-59.843335,-8.586851,-93.232358,0.071671,-0.863922,0.506973,-0.322249,0.112153,0.000527,61.836334,63.720612,-130.598679,,,
729716453.006413,-59.934884,-8.575581,-90.178778,0.071671,-0.863922,0.506973,-0.317233,0.115835,0.012149,61.836334,63.720612,-130.598679,,,
729716453.009544,-59.934909,-8.575578,-93.255665,0.071671,-0.863922,0.506973,-0.317233,0.115835,0.012149,61.836334,63.720612,-130.598679,,,
729716453.009783,-59.934884,-8.575581,-90.178778,0.071671,-0.863922,0.506973,-0.317233,0.115835,0.012149,61.836334,63.720612,-130.598679,,,
