Time (sec),Pitch (deg),Roll (deg),Yaw(deg),X-Acceleration (g),Y-Acceleration (g),Z-Acceleration (g),Pitch Rate (deg/sec),Roll Rate (deg/sec),Yaw Rate (deg/sec),Magnetic Field in X direction (uT),Magnetic Field in Y direction (uT),Magnetic Field in Z Direction (uT),Latitude (deg),Longitude (deg),Altitude (m)
729705657.051081,-0.637845,-1.09134,71.97977,0.021225,-0.010147,1.00293,-0.015876,-0.006812,0.00997,85.933716,36.165909,-149.680069,,,
729705657.054548,-0.644737,-1.094389,71.983517,0.015854,-0.00943,0.997604,-0.027743,-0.007156,0.01006,85.933716,36.165909,-149.680069,,,
729705657.057768,-0.644737,-1.094389,71.983517,0.015854,-0.00943,0.997604,-0.027743,-0.007156,0.01006,85.933716,36.165909,-149.680069,,,
729705657.061145,-0.651741,-1.098197,71.987262,0.015854,-0.00943,0.997604,-0.027743,-0.007156,0.01006,85.933716,36.165909,-149.680069,,,
729705657.064422,-0.662319,-1.100966,71.991217,0.012314,-0.010056,0.998688,-0.039553,-0.008427,0.010786,85.933716,36.165909,-149.680069,,,
729705657.067833,-0.672043,-1.104662,71.995191,0.012314,-0.010056,0.998688,-0.039553,-0.008427,0.010786,85.933716,36.165909,-149.680069,,,
729705657.071086,-0.672043,-1.104662,71.995191,0.012314,-0.010056,0.998688,-0.039553,-0.008427,0.010786,85.933716,36.165909,-149.680069,,,
729705657.074457,-0.684171,-1.109204,71.999399,0.012802,-0.012024,1.001434,-0.042813,-0.017318,0.012883,85.933716,36.165909,-149.680069,,,
729705657.077797,-0.694842,-1.116712,72.003197,0.012802,-0.012024,1.001434,-0.042813,-0.017318,0.012883,85.933716,36.165909,-149.680069,,,
729705657.081158,-0.694842,-1.116712,72.003197,0.012802,-0.012024,1.001434,-0.042813,-0.017318,0.012883,85.933716,36.165909,-149.680069,,,
729705657.084404,-0.706761,-1.125273,72.005894,0.010208,-0.01268,1.000336,-0.03943,-0.031378,0.010227,85.933716,36.165909,-149.680069,,,
729705657.087749,-0.706761,-1.125273,72.005894,0.010208,-0.01268,1.000336,-0.03943,-0.031378,0.010227,85.861755,36.420319,-149.648422,,,
729705657.091082,-0.715702,-1.135417,72.008031,0.010208,-0.01268,1.000336,-0.03943,-0.031378,0.010227,85.861755,36.420319,-149.648422,,,
729705657.094474,-0.724623,-1.146766,72.010058,0.011826,-0.009857,1.003174,-0.022862,-0.036892,0.006077,85.861755,36.420319,-149.648422,,,
729705657.097743,-0.724623,-1.146766,72.010058,0.011826,-0.009857,1.003174,-0.022862,-0.036892,0.006077,85.861755,36.420319,-149.648422,,,
729705657.101095,-0.730979,-1.158912,72.01238,0.011826,-0.009857,1.003174,-0.022862,-0.036892,0.006077,85.861755,36.420319,-149.648422,,,
729705657.104485,-0.735398,-1.170491,72.014283,0.01384,-0.008759,1.005585,-0.009001,-0.037752,0.00605,85.861755,36.420319,-149.648422,,,
729705657.107766,-0.735398,-1.170491,72.014283,0.01384,-0.008759,1.005585,-0.009001,-0.037752,0.00605,85.861755,36.420319,-149.648422,,,
729705657.111094,-0.738976,-1.181781,72.015532,0.01384,-0.008759,1.005585,-0.009001,-0.037752,0.00605,85.861755,36.420319,-149.648422,,,
729705657.114448,-0.740284,-1.192201,72.016349,0.016632,-0.009338,1.002884,0.000861,-0.031504,0.002419,85.861755,36.420319,-149.648422,,,
729705657.117864,-0.740284,-1.202152,72.017022,0.016632,-0.009338,1.002884,0.000861,-0.031504,0.002419,85.861755,36.420319,-149.648422,,,
729705657.121074,-0.739902,-1.202152,72.017022,0.016632,-0.009338,1.002884,0.000861,-0.031504,0.002419,85.861755,36.420319,-149.648422,,,
729705657.124419,-0.738775,-1.210385,72.018455,0.016479,-0.012146,1.001984,0.006459,-0.020891,0.004902,85.861755,36.420319,-149.648422,,,
729705657.127742,-0.738775,-1.210385,72.018455,0.016479,-0.012146,1.001984,0.006459,-0.020891,0.004902,85.889145,36.256668,-149.577591,,,
729705657.131072,-0.736214,-1.215889,72.020547,0.016479,-0.012146,1.001984,0.006459,-0.020891,0.004902,85.889145,36.256668,-149.577591,,,
729705657.134404,-0.733889,-1.220175,72.022911,0.015747,-0.013977,0.999405,0.010718,-0.008693,0.007737,85.889145,36.256668,-149.577591,,,
729705657.137752,-0.733889,-1.220175,72.022911,0.015747,-0.013977,0.999405,0.010718,-0.008693,0.007737,85.889145,36.256668,-149.577591,,,
729705657.141098,-0.730572,-1.220672,72.025735,0.015747,-0.013977,0.999405,0.010718,-0.008693,0.007737,85.889145,36.256668,-149.577591,,,
729705657.14441,-0.729134,-1.221283,72.02941,0.015244,-0.015472,0.994904,0.002416,0.007908,0.014004,85.889145,36.256668,-149.577591,,,
729705657.147735,-0.729134,-1.221283,72.02941,0.015244,-0.015472,0.994904,0.002416,0.007908,0.014004,85.889145,36.256668,-149.577591,,,
729705657.15109,-0.729062,-1.217341,72.034127,0.015244,-0.015472,0.994904,0.002416,0.007908,0.014004,85.889145,36.256668,-149.577591,,,
729705657.154507,-0.730609,-1.211975,72.039562,0.013412,-0.01329,0.996964,-0.004904,0.027096,0.020325,85.889145,36.256668,-149.577591,,,
729705657.157722,-0.730609,-1.211975,72.039562,0.013412,-0.01329,0.996964,-0.004904,0.027096,0.020325,85.889145,36.256668,-149.577591,,,
729705657.161078,-0.73252,-1.202319,72.044963,0.013412,-0.01329,0.996964,-0.004904,0.027096,0.020325,85.889145,36.256668,-149.577591,,,
729705657.164432,-0.734965,-1.194595,72.050413,0.014984,-0.010452,0.99382,-0.010175,0.028356,0.019178,85.889145,36.256668,-149.577591,,,
729705657.167742,-0.734965,-1.194595,72.050413,0.014984,-0.010452,0.99382,-0.010175,0.028356,0.019178,85.772644,36.171371,-149.807022,,,
729705657.171098,-0.737428,-1.184909,72.055801,0.014984,-0.010452,0.99382,-0.010175,0.028356,0.019178,85.772644,36.171371,-149.807022,,,
729705657.174418,-0.740638,-1.178613,72.060736,0.013016,-0.009781,0.989975,-0.011691,0.022877,0.014817,85.772644,36.171371,-149.807022,,,
729705657.177768,-0.740638,-1.178613,72.060736,0.013016,-0.009781,0.989975,-0.011691,0.022877,0.014817,85.772644,36.171371,-149.807022,,,
729705657.18223,-0.742644,-1.171462,72.065113,0.013016,-0.009781,0.989975,-0.011691,0.022877,0.014817,85.772644,36.171371,-149.807022,,,
729705657.184276,-0.745895,-1.168614,72.068712,0.011581,-0.011429,0.989716,-0.009786,0.002445,0.010018,85.772644,36.171371,-149.807022,,,
729705657.187781,-0.745895,-1.168614,72.068712,0.011581,-0.011429,0.989716,-0.009786,0.002445,0.010018,85.772644,36.171371,-149.807022,,,
729705657.191157,-0.747638,-1.169164,72.07175,0.011581,-0.011429,0.989716,-0.009786,0.002445,0.010018,85.772644,36.171371,-149.807022,,,
729705657.194399,-0.748421,-1.17605,72.074231,0.012466,-0.015167,0.985687,0.003483,-0.03232,0.003598,85.772644,36.171371,-149.807022,,,
729705657.197756,-0.748421,-1.17605,72.074231,0.012466,-0.015167,0.985687,0.003483,-0.03232,0.003598,85.772644,36.171371,-149.807022,,,
729705657.201095,-0.746774,-1.187308,72.07626,0.012466,-0.015167,0.985687,0.003483,-0.03232,0.003598,85.772644,36.171371,-149.807022,,,
729705657.20441,-0.744447,-1.2039,72.07738,0.015091,-0.01445,0.987259,0.009346,-0.064153,0.000163,85.772644,36.171371,-149.807022,,,
729705657.207757,-0.744447,-1.2039,72.07738,0.015091,-0.01445,0.987259,0.009346,-0.064153,0.000163,85.772644,36.171371,-149.807022,,,
729705657.211091,-0.741444,-1.222375,72.077359,0.015091,-0.01445,0.987259,0.009346,-0.064153,0.000163,85.686325,36.457291,-149.468201,,,
729705657.214402,-0.738279,-1.244227,72.076237,0.019592,-0.015167,0.991379,0.010093,-0.070706,-0.006358,85.686325,36.457291,-149.468201,,,
729705657.217843,-0.738279,-1.244227,72.076237,0.019592,-0.015167,0.991379,0.010093,-0.070706,-0.006358,85.686325,36.457291,-149.468201,,,
729705657.221084,-0.735923,-1.265073,72.074612,0.019592,-0.015167,0.991379,0.010093,-0.070706,-0.006358,85.686325,36.457291,-149.468201,,,
729705657.224406,-0.733893,-1.285419,72.073299,0.022049,-0.018463,0.994141,0.00679,-0.058827,-0.002401,85.686325,36.457291,-149.468201,,,
729705657.227779,-0.733893,-1.285419,72.073299,0.022049,-0.018463,0.994141,0.00679,-0.058827,-0.002401,85.686325,36.457291,-149.468201,,,
729705657.231159,-0.734008,-1.299984,72.072923,0.022049,-0.018463,0.994141,0.00679,-0.058827,-0.002401,85.686325,36.457291,-149.468201,,,
729705657.234461,-0.735603,-1.312632,72.074324,0.024704,-0.021271,0.996338,-0.008878,-0.023677,0.009842,85.686325,36.457291,-149.468201,,,
729705657.23776,-0.735603,-1.312632,72.074324,0.024704,-0.021271,0.996338,-0.008878,-0.023677,0.009842,85.686325,36.457291,-149.468201,,,
729705657.2411,-0.738263,-1.317332,72.077547,0.024704,-0.021271,0.996338,-0.008878,-0.023677,0.009842,85.686325,36.457291,-149.468201,,,
729705657.24441,-0.743021,-1.317954,72.082612,0.030151,-0.022827,1.002686,-0.021411,0.013545,0.020145,85.686325,36.457291,-149.468201,,,
729705657.247786,-0.743021,-1.317954,72.082612,0.030151,-0.022827,1.002686,-0.021411,0.013545,0.020145,85.686325,36.457291,-149.468201,,,
729705657.251085,-0.748985,-1.31216,72.088947,0.030151,-0.022827,1.002686,-0.021411,0.013545,0.020145,85.855057,36.39772,-149.806259,,,
729705657.254411,-0.757523,-1.30509,72.09542,0.028763,-0.019562,1.000793,-0.033828,0.033215,0.025782,85.855057,36.39772,-149.806259,,,
729705657.257742,-0.757523,-1.30509,72.09542,0.028763,-0.019562,1.000793,-0.033828,0.033215,0.025782,85.855057,36.39772,-149.806259,,,
729705657.261081,-0.76689,-1.29305,72.102251,0.028763,-0.019562,1.000793,-0.033828,0.033215,0.025782,85.855057,36.39772,-149.806259,,,
729705657.264415,-0.778634,-1.283027,72.108779,0.026169,-0.014114,0.99913,-0.041677,0.036021,0.018136,85.855057,36.39772,-149.806259,,,
729705657.267747,-0.778634,-1.283027,72.108779,0.026169,-0.014114,0.99913,-0.041677,0.036021,0.018136,85.855057,36.39772,-149.806259,,,
729705657.271074,-0.791185,-1.271988,72.114064,0.026169,-0.014114,0.99913,-0.041677,0.036021,0.018136,85.855057,36.39772,-149.806259,,,
729705657.274439,-0.803414,-1.266026,72.117349,0.026581,-0.011932,0.99585,-0.041469,0.013368,0.007464,85.855057,36.39772,-149.806259,,,
729705657.277744,-0.803414,-1.266026,72.117349,0.026581,-0.011932,0.99585,-0.041469,0.013368,0.007464,85.855057,36.39772,-149.806259,,,
729705657.281138,-0.815544,-1.261447,72.11863,0.026581,-0.011932,0.99585,-0.041469,0.013368,0.007464,85.855057,36.39772,-149.806259,,,
729705657.284426,-0.825094,-1.262857,72.118591,0.025208,-0.01532,0.997391,-0.0271,-0.011004,-0.005596,85.855057,36.39772,-149.806259,,,
729705657.287772,-0.825094,-1.262857,72.118591,0.025208,-0.01532,0.997391,-0.0271,-0.011004,-0.005596,85.855057,36.39772,-149.806259,,,
729705657.291171,-0.831793,-1.266275,72.117634,0.025208,-0.01532,0.997391,-0.0271,-0.011004,-0.005596,85.641022,36.3862,-149.657364,,,
729705657.294409,-0.836081,-1.273169,72.115998,0.025696,-0.018692,1.00383,-0.007989,-0.025528,-0.008737,85.641022,36.3862,-149.657364,,,
729705657.297835,-0.836081,-1.273169,72.115998,0.025696,-0.018692,1.00383,-0.007989,-0.025528,-0.008737,85.641022,36.3862,-149.657364,,,
729705657.301103,-0.839245,-1.281317,72.114181,0.025696,-0.018692,1.00383,-0.007989,-0.025528,-0.008737,85.641022,36.3862,-149.657364,,,
729705657.304422,-0.840772,-1.290131,72.112534,0.027115,-0.018127,1.005264,-0.003473,-0.027215,-0.006989,85.641022,36.3862,-149.657364,,,
729705657.307776,-0.840772,-1.290131,72.112534,0.027115,-0.018127,1.005264,-0.003473,-0.027215,-0.006989,85.641022,36.3862,-149.657364,,,
729705657.311258,-0.843019,-1.298842,72.1108,0.027115,-0.018127,1.005264,-0.003473,-0.027215,-0.006989,85.641022,36.3862,-149.657364,,,
729705657.314489,-0.843422,-1.306781,72.108907,0.027405,-0.014603,1.005554,0.001127,-0.021398,-0.00712,85.641022,36.3862,-149.657364,,,
729705657.317741,-0.843422,-1.306781,72.108907,0.027405,-0.014603,1.005554,0.001127,-0.021398,-0.00712,85.641022,36.3862,-149.657364,,,
729705657.321113,-0.845706,-1.313966,72.107215,0.027405,-0.014603,1.005554,0.001127,-0.021398,-0.00712,85.641022,36.3862,-149.657364,,,
729705657.324407,-0.846131,-1.316877,72.105473,0.028717,-0.012222,1.01268,0.002495,9e-06,-0.008735,85.641022,36.3862,-149.657364,,,
729705657.327738,-0.846131,-1.316877,72.105473,0.028717,-0.012222,1.01268,0.002495,9e-06,-0.008735,85.641022,36.3862,-149.657364,,,
729705657.331095,-0.847584,-1.319065,72.103505,0.028717,-0.012222,1.01268,0.002495,9e-06,-0.008735,85.45488,36.637192,-149.467926,,,
729705657.334404,-0.847423,-1.317624,72.101839,0.025681,-0.014755,1.013565,0.002274,0.012946,-0.004681,85.45488,36.637192,-149.467926,,,
729705657.337744,-0.847423,-1.317624,72.101839,0.025681,-0.014755,1.013565,0.002274,0.012946,-0.004681,85.45488,36.637192,-149.467926,,,
729705657.341098,-0.847518,-1.316159,72.100961,0.025681,-0.014755,1.013565,0.002274,0.012946,-0.004681,85.45488,36.637192,-149.467926,,,
729705657.344404,-0.846702,-1.314781,72.100968,0.024139,-0.014893,1.010773,0.003002,0.001057,0.000324,85.45488,36.637192,-149.467926,,,
729705657.347802,-0.846702,-1.314781,72.100968,0.024139,-0.014893,1.010773,0.003002,0.001057,0.000324,85.45488,36.637192,-149.467926,,,
729705657.351094,-0.845155,-1.316455,72.10139,0.024139,-0.014893,1.010773,0.003002,0.001057,0.000324,85.45488,36.637192,-149.467926,,,
729705657.354402,-0.842959,-1.319954,72.102083,0.021973,-0.014618,1.008957,0.010663,-0.016886,0.002425,85.45488,36.637192,-149.467926,,,
729705657.357784,-0.842959,-1.319954,72.102083,0.021973,-0.014618,1.008957,0.010663,-0.016886,0.002425,85.45488,36.637192,-149.467926,,,
729705657.361095,-0.839264,-1.327238,72.103235,0.021973,-0.014618,1.008957,0.010663,-0.016886,0.002425,85.45488,36.637192,-149.467926,,,
729705657.364414,-0.834117,-1.336589,72.104395,0.018143,-0.01445,1.016846,0.023499,-0.037223,0.001074,85.45488,36.637192,-149.467926,,,
729705657.367739,-0.834117,-1.336589,72.104395,0.018143,-0.01445,1.016846,0.023499,-0.037223,0.001074,85.45488,36.637192,-149.467926,,,
729705657.37108,-0.827141,-1.349178,72.105093,0.018143,-0.01445,1.016846,0.023499,-0.037223,0.001074,85.45488,36.637192,-149.467926,,,
729705657.374409,-0.816991,-1.36433,72.105029,0.019455,-0.013229,1.019089,0.043671,-0.055003,-0.002832,85.61496,36.521072,-149.523407,,,
729705657.377747,-0.816991,-1.36433,72.105029,0.019455,-0.013229,1.019089,0.043671,-0.055003,-0.002832,85.61496,36.521072,-149.523407,,,
729705657.381092,-0.805303,-1.382125,72.104531,0.019455,-0.013229,1.019089,0.043671,-0.055003,-0.002832,85.61496,36.521072,-149.523407,,,
729705657.384496,-0.790074,-1.40002,72.103824,0.022064,-0.01413,1.020065,0.060402,-0.060127,-0.006261,85.61496,36.521072,-149.523407,,,
729705657.387755,-0.790074,-1.40002,72.103824,0.022064,-0.01413,1.020065,0.060402,-0.060127,-0.006261,85.61496,36.521072,-149.523407,,,
729705657.391083,-0.773791,-1.419686,72.103378,0.022064,-0.01413,1.020065,0.060402,-0.060127,-0.006261,85.61496,36.521072,-149.523407,,,
729705657.39441,-0.755467,-1.439868,72.103368,0.020691,-0.01593,1.011673,0.069019,-0.067399,0.000236,85.61496,36.521072,-149.523407,,,
729705657.397781,-0.755467,-1.439868,72.103368,0.020691,-0.01593,1.011673,0.069019,-0.067399,0.000236,85.61496,36.521072,-149.523407,,,
729705657.401083,-0.736152,-1.46099,72.104309,0.020691,-0.01593,1.011673,0.069019,-0.067399,0.000236,85.61496,36.521072,-149.523407,,,
729705657.404405,-0.71635,-1.480552,72.106106,0.022125,-0.015182,1.00502,0.07127,-0.058955,0.004411,85.61496,36.521072,-149.523407,,,
729705657.407744,-0.71635,-1.480552,72.106106,0.022125,-0.015182,1.00502,0.07127,-0.058955,0.004411,85.61496,36.521072,-149.523407,,,
729705657.411117,-0.696799,-1.497755,72.108503,0.022125,-0.015182,1.00502,0.07127,-0.058955,0.004411,85.61496,36.521072,-149.523407,,,
729705657.414413,-0.677541,-1.511245,72.111761,0.030197,-0.010666,1.004944,0.066851,-0.03504,0.010135,85.710068,36.383423,-149.622849,,,
729705657.417838,-0.677541,-1.511245,72.111761,0.030197,-0.010666,1.004944,0.066851,-0.03504,0.010135,85.710068,36.383423,-149.622849,,,
729705657.421074,-0.659697,-1.520765,72.115302,0.030197,-0.010666,1.004944,0.066851,-0.03504,0.010135,85.710068,36.383423,-149.622849,,,
729705657.424414,-0.642201,-1.527121,72.119344,0.029449,-0.01004,0.996841,0.059713,-0.011115,0.011739,85.710068,36.383423,-149.622849,,,
729705657.427613,-0.642201,-1.527121,72.119344,0.029449,-0.01004,0.996841,0.059713,-0.011115,0.011739,85.710068,36.383423,-149.622849,,,
729705657.431124,-0.626455,-1.529155,72.124023,0.029449,-0.01004,0.996841,0.059713,-0.011115,0.011739,85.710068,36.383423,-149.622849,,,
729705657.434406,-0.611766,-1.528707,72.129623,0.029861,-0.009384,0.989197,0.046569,0.012565,0.018733,85.710068,36.383423,-149.622849,,,
729705657.437816,-0.611766,-1.528707,72.129623,0.029861,-0.009384,0.989197,0.046569,0.012565,0.018733,85.710068,36.383423,-149.622849,,,
729705657.44109,-0.600595,-1.523544,72.136214,0.029861,-0.009384,0.989197,0.046569,0.012565,0.018733,85.710068,36.383423,-149.622849,,,
729705657.444475,-0.591417,-1.518559,72.143685,0.029053,-0.008102,0.980225,0.024155,0.020404,0.026288,85.710068,36.383423,-149.622849,,,
729705657.447744,-0.591417,-1.518559,72.143685,0.029053,-0.008102,0.980225,0.024155,0.020404,0.026288,85.710068,36.383423,-149.622849,,,
729705657.451134,-0.586433,-1.51149,72.151984,0.029053,-0.008102,0.980225,0.024155,0.020404,0.026288,85.710068,36.383423,-149.622849,,,
729705657.454399,-0.584114,-1.507449,72.160621,0.028702,-0.006973,0.969177,0.000264,0.014133,0.02884,85.412827,36.204147,-149.600693,,,
729705657.45775,-0.584114,-1.507449,72.160621,0.028702,-0.006973,0.969177,0.000264,0.014133,0.02884,85.412827,36.204147,-149.600693,,,
729705657.461091,-0.58602,-1.503162,72.169137,0.028702,-0.006973,0.969177,0.000264,0.014133,0.02884,85.412827,36.204147,-149.600693,,,
729705657.464401,-0.590372,-1.502176,72.177017,0.02536,-0.005737,0.966141,-0.021551,-0.000473,0.025206,85.412827,36.204147,-149.600693,,,
729705657.467753,-0.590372,-1.502176,72.177017,0.02536,-0.005737,0.966141,-0.021551,-0.000473,0.025206,85.412827,36.204147,-149.600693,,,
729705657.471087,-0.598254,-1.502571,72.183749,0.02536,-0.005737,0.966141,-0.021551,-0.000473,0.025206,85.412827,36.204147,-149.600693,,,
729705657.474405,-0.607261,-1.506481,72.189033,0.026169,-0.005219,0.968811,-0.032878,-0.02084,0.014565,85.412827,36.204147,-149.600693,,,
729705657.477801,-0.607261,-1.506481,72.189033,0.026169,-0.005219,0.968811,-0.032878,-0.02084,0.014565,85.412827,36.204147,-149.600693,,,
729705657.48108,-0.618607,-1.511801,72.193229,0.026169,-0.005219,0.968811,-0.032878,-0.02084,0.014565,85.412827,36.204147,-149.600693,,,
729705657.484411,-0.629891,-1.522004,72.1963,0.022751,-0.010391,0.971603,-0.042031,-0.039172,0.006665,85.412827,36.204147,-149.600693,,,
729705657.487756,-0.629891,-1.522004,72.1963,0.022751,-0.010391,0.971603,-0.042031,-0.039172,0.006665,85.412827,36.204147,-149.600693,,,
729705657.491153,-0.643234,-1.534146,72.197989,0.022751,-0.010391,0.971603,-0.042031,-0.039172,0.006665,85.412827,36.204147,-149.600693,,,
729705657.494424,-0.657178,-1.547062,72.198724,0.02478,-0.013046,0.973495,-0.052885,-0.045358,0.000845,85.412827,36.204147,-149.600693,,,
729705657.497745,-0.657178,-1.547062,72.198724,0.02478,-0.013046,0.973495,-0.052885,-0.045358,0.000845,85.435501,36.356689,-149.857162,,,
729705657.500833,-0.672378,-1.561271,72.199087,0.02478,-0.013046,0.973495,-0.052885,-0.045358,0.000845,85.435501,36.356689,-149.857162,,,
729705657.504439,-0.690187,-1.574292,72.199138,0.02858,-0.013992,0.976196,-0.068325,-0.041324,0.000161,85.435501,36.356689,-149.857162,,,
729705657.50775,-0.690187,-1.574292,72.199138,0.02858,-0.013992,0.976196,-0.068325,-0.041324,0.000161,85.435501,36.356689,-149.857162,,,
729705657.511092,-0.710646,-1.586898,72.199199,0.02858,-0.013992,0.976196,-0.068325,-0.041324,0.000161,85.435501,36.356689,-149.857162,,,
729705657.514407,-0.734989,-1.59765,72.199486,0.03154,-0.015778,0.974014,-0.091557,-0.02637,0.001272,85.435501,36.356689,-149.857162,,,
729705657.517813,-0.734989,-1.59765,72.199486,0.03154,-0.015778,0.974014,-0.091557,-0.02637,0.001272,85.435501,36.356689,-149.857162,,,
729705657.521085,-0.761667,-1.605458,72.19959,0.03154,-0.015778,0.974014,-0.091557,-0.02637,0.001272,85.435501,36.356689,-149.857162,,,
729705657.524402,-0.79264,-1.60804,72.19917,0.035233,-0.015518,0.978653,-0.114267,0.005152,0.000432,85.435501,36.356689,-149.857162,,,
729705657.527748,-0.79264,-1.60804,72.19917,0.035233,-0.015518,0.978653,-0.114267,0.005152,0.000432,85.435501,36.356689,-149.857162,,,
729705657.53116,-0.824835,-1.606057,72.198425,0.035233,-0.015518,0.978653,-0.114267,0.005152,0.000432,85.435501,36.356689,-149.857162,,,
729705657.534401,-0.858145,-1.599707,72.198318,0.033234,-0.024506,0.991989,-0.109049,0.034599,0.004496,85.435501,36.356689,-149.857162,,,
729705657.537757,-0.858145,-1.599707,72.198318,0.033234,-0.024506,0.991989,-0.109049,0.034599,0.004496,85.496552,36.463165,-149.827759,,,
729705657.541094,-0.887771,-1.590606,72.199099,0.033234,-0.024506,0.991989,-0.109049,0.034599,0.004496,85.496552,36.463165,-149.827759,,,
729705657.544407,-0.916854,-1.579945,72.200319,0.030533,-0.031372,0.998886,-0.094525,0.044631,0.004883,85.496552,36.463165,-149.827759,,,
729705657.547758,-0.916854,-1.579945,72.200319,0.030533,-0.031372,0.998886,-0.094525,0.044631,0.004883,85.496552,36.463165,-149.827759,,,
729705657.55109,-0.943194,-1.567861,72.201839,0.030533,-0.031372,0.998886,-0.094525,0.044631,0.004883,85.496552,36.463165,-149.827759,,,
729705657.554405,-0.970343,-1.555919,72.203639,0.025055,-0.026443,0.99913,-0.09055,0.04193,0.007038,85.496552,36.463165,-149.827759,,,
729705657.557797,-0.970343,-1.555919,72.203639,0.025055,-0.026443,0.99913,-0.09055,0.04193,0.007038,85.496552,36.463165,-149.827759,,,
729705657.561151,-0.995324,-1.54554,72.205448,0.025055,-0.026443,0.99913,-0.09055,0.04193,0.007038,85.496552,36.463165,-149.827759,,,
729705657.56441,-1.021353,-1.538551,72.206473,0.020325,-0.021561,0.994919,-0.088538,0.015216,0.004965,85.496552,36.463165,-149.827759,,,
729705657.567759,-1.021353,-1.538551,72.206473,0.020325,-0.021561,0.994919,-0.088538,0.015216,0.004965,85.496552,36.463165,-149.827759,,,
729705657.571168,-1.046373,-1.535674,72.206591,0.020325,-0.021561,0.994919,-0.088538,0.015216,0.004965,85.496552,36.463165,-149.827759,,,
729705657.574403,-1.072187,-1.537997,72.205472,0.022812,-0.022415,0.990967,-0.088958,-0.015893,-0.011681,85.496552,36.463165,-149.827759,,,
729705657.577736,-1.072187,-1.537997,72.205472,0.022812,-0.022415,0.990967,-0.088958,-0.015893,-0.011681,85.501755,36.582016,-149.536163,,,
729705657.581089,-1.097878,-1.543735,72.202035,0.022812,-0.022415,0.990967,-0.088958,-0.015893,-0.011681,85.501755,36.582016,-149.536163,,,
729705657.584407,-1.124473,-1.551574,72.195991,0.026596,-0.019547,0.991959,-0.090677,-0.028961,-0.024956,85.501755,36.582016,-149.536163,,,
729705657.587752,-1.124473,-1.551574,72.195991,0.026596,-0.019547,0.991959,-0.090677,-0.028961,-0.024956,85.501755,36.582016,-149.536163,,,
729705657.591083,-1.150188,-1.561438,72.187964,0.026596,-0.019547,0.991959,-0.090677,-0.028961,-0.024956,85.501755,36.582016,-149.536163,,,
729705657.594406,-1.175284,-1.572671,72.178359,0.032959,-0.02092,0.998199,-0.085933,-0.04252,-0.032424,85.501755,36.582016,-149.536163,,,
729705657.597734,-1.175284,-1.572671,72.178359,0.032959,-0.02092,0.998199,-0.085933,-0.04252,-0.032424,85.501755,36.582016,-149.536163,,,
729705657.60108,-1.19784,-1.586945,72.168141,0.032959,-0.02092,0.998199,-0.085933,-0.04252,-0.032424,85.501755,36.582016,-149.536163,,,
729705657.604403,-1.219241,-1.601174,72.158937,0.029968,-0.024643,1.002304,-0.072379,-0.046318,-0.027352,85.501755,36.582016,-149.536163,,,
729705657.607808,-1.219241,-1.601174,72.158937,0.029968,-0.024643,1.002304,-0.072379,-0.046318,-0.027352,85.501755,36.582016,-149.536163,,,
729705657.611061,-1.238879,-1.616633,72.151123,0.029968,-0.024643,1.002304,-0.072379,-0.046318,-0.027352,85.501755,36.582016,-149.536163,,,
729705657.6144,-1.257706,-1.62995,72.144813,0.029022,-0.025604,1.008667,-0.063655,-0.040802,-0.016702,85.501755,36.582016,-149.536163,,,
729705657.617731,-1.257706,-1.62995,72.144813,0.029022,-0.025604,1.008667,-0.063655,-0.040802,-0.016702,85.463272,36.628296,-149.565979,,,
729705657.621068,-1.276914,-1.643526,72.140245,0.029022,-0.025604,1.008667,-0.063655,-0.040802,-0.016702,85.463272,36.628296,-149.565979,,,
729705657.6244,-1.293119,-1.656008,72.137229,0.033386,-0.023422,1.011337,-0.054257,-0.036245,-0.009293,85.463272,36.628296,-149.565979,,,
729705657.627745,-1.293119,-1.656008,72.137229,0.033386,-0.023422,1.011337,-0.054257,-0.036245,-0.009293,85.463272,36.628296,-149.565979,,,
729705657.631073,-1.309865,-1.666591,72.134464,0.033386,-0.023422,1.011337,-0.054257,-0.036245,-0.009293,85.463272,36.628296,-149.565979,,,
729705657.634399,-1.323488,-1.675066,72.131055,0.035645,-0.023117,1.016678,-0.042433,-0.019136,-0.013193,85.463272,36.628296,-149.565979,,,
729705657.637735,-1.323488,-1.675066,72.131055,0.035645,-0.023117,1.016678,-0.042433,-0.019136,-0.013193,85.463272,36.628296,-149.565979,,,
729705657.64107,-1.335428,-1.679836,72.126755,0.035645,-0.023117,1.016678,-0.042433,-0.019136,-0.013193,85.463272,36.628296,-149.565979,,,
729705657.644398,-1.345452,-1.683961,72.121688,0.039642,-0.019806,1.022018,-0.027789,-0.001783,-0.01874,85.463272,36.628296,-149.565979,,,
729705657.647832,-1.345452,-1.683961,72.121688,0.039642,-0.019806,1.022018,-0.027789,-0.001783,-0.01874,85.463272,36.628296,-149.565979,,,
729705657.651086,-1.352845,-1.683867,72.116352,0.039642,-0.019806,1.022018,-0.027789,-0.001783,-0.01874,85.463272,36.628296,-149.565979,,,
729705657.654404,-1.357598,-1.685269,72.110978,0.040619,-0.020309,1.022232,-0.009424,-0.004914,-0.021302,85.463272,36.628296,-149.565979,,,
729705657.657762,-1.357598,-1.685269,72.110978,0.040619,-0.020309,1.022232,-0.009424,-0.004914,-0.021302,85.463272,36.628296,-149.565979,,,
729705657.660808,-1.358801,-1.68599,72.105906,0.040619,-0.020309,1.022232,-0.009424,-0.004914,-0.021302,85.312744,36.877716,-149.521149,,,
729705657.664441,-1.358982,-1.687338,72.10145,0.036804,-0.019699,1.016815,0.004126,0.00121,-0.019353,85.312744,36.877716,-149.521149,,,
729705657.667748,-1.358982,-1.687338,72.10145,0.036804,-0.019699,1.016815,0.004126,0.00121,-0.019353,85.312744,36.877716,-149.521149,,,
729705657.671074,-1.356329,-1.688504,72.097291,0.036804,-0.019699,1.016815,0.004126,0.00121,-0.019353,85.312744,36.877716,-149.521149,,,
729705657.674404,-1.352499,-1.689005,72.092364,0.033798,-0.01947,1.019455,0.019871,0.002608,-0.019232,85.312744,36.877716,-149.521149,,,
729705657.677748,-1.352499,-1.689005,72.092364,0.033798,-0.01947,1.019455,0.019871,0.002608,-0.019232,85.312744,36.877716,-149.521149,,,
729705657.681084,-1.347037,-1.690093,72.08692,0.033798,-0.01947,1.019455,0.019871,0.002608,-0.019232,85.312744,36.877716,-149.521149,,,
729705657.684401,-1.340703,-1.690482,72.081226,0.032059,-0.017059,1.012421,0.025607,0.004945,-0.025511,85.312744,36.877716,-149.521149,,,
729705657.687811,-1.340703,-1.690482,72.081226,0.032059,-0.017059,1.012421,0.025607,0.004945,-0.025511,85.312744,36.877716,-149.521149,,,
729705657.691114,-1.334069,-1.690315,72.074791,0.032059,-0.017059,1.012421,0.025607,0.004945,-0.025511,85.312744,36.877716,-149.521149,,,
729705657.694396,-1.326317,-1.689915,72.06795,0.028305,-0.014221,1.006851,0.028605,0.005856,-0.025305,85.312744,36.877716,-149.521149,,,
729705657.697734,-1.326317,-1.689915,72.06795,0.028305,-0.014221,1.006851,0.028605,0.005856,-0.025305,85.312744,36.877716,-149.521149,,,
729705657.701072,-1.31935,-1.689783,72.061623,0.028305,-0.014221,1.006851,0.028605,0.005856,-0.025305,85.375275,36.811798,-149.400467,,,
729705657.704399,-1.312953,-1.689108,72.05536,0.029495,-0.012589,0.998016,0.019296,0.005104,-0.024012,85.375275,36.811798,-149.400467,,,
729705657.70775,-1.312953,-1.689108,72.05536,0.029495,-0.012589,0.998016,0.019296,0.005104,-0.024012,85.375275,36.811798,-149.400467,,,
729705657.711137,-1.307787,-1.689492,72.049088,0.029495,-0.012589,0.998016,0.019296,0.005104,-0.024012,85.375275,36.811798,-149.400467,,,
729705657.714398,-1.304122,-1.688569,72.0434,0.030365,-0.012497,0.991898,0.009854,0.00829,-0.020976,85.375275,36.811798,-149.400467,,,
729705657.717748,-1.304122,-1.688569,72.0434,0.030365,-0.012497,0.991898,0.009854,0.00829,-0.020976,85.375275,36.811798,-149.400467,,,
729705657.721085,-1.301033,-1.6885,72.037701,0.030365,-0.012497,0.991898,0.009854,0.00829,-0.020976,85.375275,36.811798,-149.400467,,,
729705657.724399,-1.298667,-1.685721,72.032481,0.028046,-0.016663,0.991669,0.009259,0.012063,-0.020592,85.375275,36.811798,-149.400467,,,
729705657.727748,-1.298667,-1.685721,72.032481,0.028046,-0.016663,0.991669,0.009259,0.012063,-0.020592,85.375275,36.811798,-149.400467,,,
729705657.731074,-1.294853,-1.685337,72.027576,0.028046,-0.016663,0.991669,0.009259,0.012063,-0.020592,85.375275,36.811798,-149.400467,,,
729705657.734404,-1.290581,-1.683136,72.022787,0.025757,-0.020737,0.99437,0.020062,0.007037,-0.016938,85.375275,36.811798,-149.400467,,,
729705657.737808,-1.290581,-1.683136,72.022787,0.025757,-0.020737,0.99437,0.020062,0.007037,-0.016938,85.375275,36.811798,-149.400467,,,
729705657.741064,-1.284198,-1.684402,72.018299,0.025757,-0.020737,0.99437,0.020062,0.007037,-0.016938,85.382538,36.533905,-149.139816,,,
729705657.744429,-1.27689,-1.68588,72.01371,0.023911,-0.019852,0.992188,0.029915,-0.012242,-0.018254,85.382538,36.533905,-149.139816,,,
729705657.747772,-1.27689,-1.68588,72.01371,0.023911,-0.019852,0.992188,0.029915,-0.012242,-0.018254,85.382538,36.533905,-149.139816,,,
729705657.751099,-1.266994,-1.691673,72.008711,0.023911,-0.019852,0.992188,0.029915,-0.012242,-0.018254,85.382538,36.533905,-149.139816,,,
729705657.754391,-1.255763,-1.699967,72.00434,0.022232,-0.019562,0.991959,0.042738,-0.03188,-0.015504,85.382538,36.533905,-149.139816,,,
729705657.757759,-1.255763,-1.699967,72.00434,0.022232,-0.019562,0.991959,0.042738,-0.03188,-0.015504,85.382538,36.533905,-149.139816,,,
729705657.761088,-1.242653,-1.711263,72.000766,0.022232,-0.019562,0.991959,0.042738,-0.03188,-0.015504,85.382538,36.533905,-149.139816,,,
729705657.764404,-1.230842,-1.722391,71.997544,0.02095,-0.019272,0.994644,0.038381,-0.037224,-0.010351,85.382538,36.533905,-149.139816,,,
729705657.767762,-1.230842,-1.722391,71.997544,0.02095,-0.019272,0.994644,0.038381,-0.037224,-0.010351,85.382538,36.533905,-149.139816,,,
729705657.771093,-1.218751,-1.734144,71.995249,0.02095,-0.019272,0.994644,0.038381,-0.037224,-0.010351,85.382538,36.533905,-149.139816,,,
729705657.774407,-1.209485,-1.746573,71.993877,0.024002,-0.019257,0.992111,0.02567,-0.04166,-0.006919,85.382538,36.533905,-149.139816,,,
729705657.777835,-1.209485,-1.746573,71.993877,0.024002,-0.019257,0.992111,0.02567,-0.04166,-0.006919,85.382538,36.533905,-149.139816,,,
729705657.781064,-1.200345,-1.758373,71.992747,0.024002,-0.019257,0.992111,0.02567,-0.04166,-0.006919,85.297104,36.964035,-149.348648,,,
729705657.784398,-1.196864,-1.769454,71.991515,0.030777,-0.016754,0.988937,0.001873,-0.02814,-0.005336,85.297104,36.964035,-149.348648,,,
729705657.787749,-1.196864,-1.769454,71.991515,0.030777,-0.016754,0.988937,0.001873,-0.02814,-0.005336,85.297104,36.964035,-149.348648,,,
729705657.791139,-1.195228,-1.777513,71.990231,0.030777,-0.016754,0.988937,0.001873,-0.02814,-0.005336,85.297104,36.964035,-149.348648,,,
729705657.794387,-1.198656,-1.782129,71.988841,0.033966,-0.011871,0.991943,-0.021261,-0.003058,-0.004418,85.297104,36.964035,-149.348648,,,
729705657.797754,-1.198656,-1.782129,71.988841,0.033966,-0.011871,0.991943,-0.021261,-0.003058,-0.004418,85.297104,36.964035,-149.348648,,,
729705657.801086,-1.203488,-1.782561,71.987678,0.033966,-0.011871,0.991943,-0.021261,-0.003058,-0.004418,85.297104,36.964035,-149.348648,,,
729705657.804401,-1.212137,-1.779562,71.987028,0.032425,-0.017151,0.992798,-0.030118,0.02169,-0.002258,85.297104,36.964035,-149.348648,,,
729705657.807749,-1.212137,-1.779562,71.987028,0.032425,-0.017151,0.992798,-0.030118,0.02169,-0.002258,85.297104,36.964035,-149.348648,,,
729705657.811084,-1.220855,-1.772418,71.986749,0.032425,-0.017151,0.992798,-0.030118,0.02169,-0.002258,85.297104,36.964035,-149.348648,,,
729705657.814403,-1.228479,-1.764297,71.987026,0.034561,-0.026306,0.999237,-0.024737,0.03622,0.003149,85.297104,36.964035,-149.348648,,,
729705657.817803,-1.228479,-1.764297,71.987026,0.034561,-0.026306,0.999237,-0.024737,0.03622,0.003149,85.297104,36.964035,-149.348648,,,
729705657.821072,-1.235187,-1.753009,71.98785,0.034561,-0.026306,0.999237,-0.024737,0.03622,0.003149,85.297104,36.964035,-149.348648,,,
729705657.824412,-1.240831,-1.742797,71.989466,0.028793,-0.032242,1.000366,-0.014328,0.03584,0.006991,85.533844,36.609146,-149.381622,,,
729705657.827753,-1.240831,-1.742797,71.989466,0.028793,-0.032242,1.000366,-0.014328,0.03584,0.006991,85.533844,36.609146,-149.381622,,,
729705657.831129,-1.245037,-1.73225,71.991944,0.028793,-0.032242,1.000366,-0.014328,0.03584,0.006991,85.533844,36.609146,-149.381622,,,
729705657.834483,-1.248727,-1.726078,71.994699,0.019592,-0.030167,0.993744,-0.007009,0.016232,0.008217,85.533844,36.609146,-149.381622,,,
729705657.837738,-1.248727,-1.726078,71.994699,0.019592,-0.030167,0.993744,-0.007009,0.016232,0.008217,85.533844,36.609146,-149.381622,,,
729705657.841075,-1.25047,-1.72111,71.997594,0.019592,-0.030167,0.993744,-0.007009,0.016232,0.008217,85.533844,36.609146,-149.381622,,,
729705657.844435,-1.251957,-1.72184,72.000071,0.022278,-0.026642,0.988907,-0.003633,-0.009327,0.006665,85.533844,36.609146,-149.381622,,,
729705657.847746,-1.251957,-1.72184,72.000071,0.022278,-0.026642,0.988907,-0.003633,-0.009327,0.006665,85.533844,36.609146,-149.381622,,,
729705657.851083,-1.252598,-1.723325,72.001881,0.022278,-0.026642,0.988907,-0.003633,-0.009327,0.006665,85.533844,36.609146,-149.381622,,,
729705657.854499,-1.253249,-1.728644,72.002637,0.024887,-0.025421,0.990952,0.002282,-0.019245,-0.001291,85.533844,36.609146,-149.381622,,,
729705657.8578,-1.253249,-1.728644,72.002637,0.024887,-0.025421,0.990952,0.002282,-0.019245,-0.001291,85.533844,36.609146,-149.381622,,,
729705657.861055,-1.252107,-1.734435,72.003029,0.024887,-0.025421,0.990952,0.002282,-0.019245,-0.001291,85.533844,36.609146,-149.381622,,,
729705657.864438,-1.251866,-1.74068,72.002883,0.024887,-0.025421,0.990952,0.002256,-0.01868,-0.004585,85.404175,36.757889,-149.568527,,,
729705657.867741,-1.251866,-1.74068,72.002883,0.029785,-0.023514,0.993393,0.002256,-0.01868,-0.004585,85.404175,36.757889,-149.568527,,,
729705657.871073,-1.249766,-1.747116,72.001854,0.029785,-0.023514,0.993393,0.002256,-0.01868,-0.004585,85.404175,36.757889,-149.568527,,,
729705657.874407,-1.249766,-1.751441,72.000953,0.029785,-0.023514,0.993393,0.002919,-0.010067,-0.000503,85.404175,36.757889,-149.568527,,,
729705657.877745,-1.249469,-1.751441,72.000953,0.031494,-0.024231,0.995728,0.002919,-0.010067,-0.000503,85.404175,36.757889,-149.568527,,,
729705657.881123,-1.247266,-1.755244,72.000472,0.031494,-0.024231,0.995728,0.002919,-0.010067,-0.000503,85.404175,36.757889,-149.568527,,,
729705657.884399,-1.247266,-1.755244,72.000472,0.031494,-0.024231,0.995728,-0.00811,0.006629,0.001115,85.404175,36.757889,-149.568527,,,
729705657.887741,-1.248147,-1.756418,72.000585,0.029892,-0.023819,0.992874,-0.00811,0.006629,0.001115,85.404175,36.757889,-149.568527,,,
729705657.891062,-1.251523,-1.75536,72.001243,0.029892,-0.023819,0.992874,-0.00811,0.006629,0.001115,85.404175,36.757889,-149.568527,,,
729705657.894431,-1.251523,-1.75536,72.002027,0.029892,-0.023819,0.992874,-0.02322,0.020137,0.002176,85.404175,36.757889,-149.568527,,,
729705657.897734,-1.256438,-1.75159,72.002027,0.029816,-0.021454,0.990387,-0.02322,0.020137,0.002176,85.404175,36.757889,-149.568527,,,
729705657.901065,-1.265671,-1.747129,72.002658,0.029816,-0.021454,0.990387,-0.02322,0.020137,0.002176,85.404175,36.757889,-149.568527,,,
729705657.904513,-1.265671,-1.74094,72.00369,0.027344,-0.021561,0.987534,-0.042517,0.025186,0.001919,85.470657,36.761505,-149.225861,,,
729705657.907791,-1.275775,-1.74094,72.00369,0.027344,-0.021561,0.987534,-0.042517,0.025186,0.001919,85.470657,36.761505,-149.225861,,,
729705657.911067,-1.290584,-1.733008,72.005039,0.027344,-0.021561,0.987534,-0.042517,0.025186,0.001919,85.470657,36.761505,-149.225861,,,
729705657.914492,-1.290584,-1.727343,72.005873,0.027344,-0.021561,0.987534,-0.042517,0.025186,0.001919,85.470657,36.761505,-149.225861,,,
729705657.917721,-1.30615,-1.727343,72.005873,0.028732,-0.021606,0.983429,-0.064651,0.021106,0.001333,85.470657,36.761505,-149.225861,,,
729705657.921066,-1.326084,-1.72055,72.005927,0.028732,-0.021606,0.983429,-0.064651,0.021106,0.001333,85.470657,36.761505,-149.225861,,,
729705657.924423,-1.326084,-1.72055,72.005927,0.028732,-0.021606,0.983429,-0.064651,0.021106,0.001333,85.470657,36.761505,-149.225861,,,
729705657.927739,-1.348388,-1.717483,72.004749,0.030823,-0.02243,0.979279,-0.084284,0.011102,-0.007153,85.470657,36.761505,-149.225861,,,
729705657.931061,-1.374583,-1.71438,72.002626,0.030823,-0.02243,0.979279,-0.084284,0.011102,-0.007153,85.470657,36.761505,-149.225861,,,
729705657.934483,-1.374583,-1.71438,72.002626,0.030823,-0.02243,0.979279,-0.084284,0.011102,-0.007153,85.470657,36.761505,-149.225861,,,
729705657.937741,-1.403156,-1.713923,71.999354,0.028244,-0.021347,0.977081,-0.106916,0.002578,-0.011226,85.470657,36.761505,-149.225861,,,
729705657.941074,-1.434798,-1.713343,71.995139,0.028244,-0.021347,0.977081,-0.106916,0.002578,-0.011226,85.470657,36.761505,-149.225861,,,
729705657.944482,-1.434798,-1.713343,71.995139,0.028244,-0.021347,0.977081,-0.106916,0.002578,-0.011226,85.341385,37.151443,-149.252365,,,
729705657.947775,-1.469309,-1.712278,71.990558,0.029999,-0.023544,0.980988,-0.124443,0.011888,-0.012667,85.341385,37.151443,-149.252365,,,
729705657.950828,-1.505671,-1.709145,71.986305,0.029999,-0.023544,0.980988,-0.124443,0.011888,-0.012667,85.341385,37.151443,-149.252365,,,
729705657.954497,-1.505671,-1.709145,71.986305,0.029999,-0.023544,0.980988,-0.124443,0.011888,-0.012667,85.341385,37.151443,-149.252365,,,
729705657.95776,-1.543502,-1.703834,71.982996,0.030609,-0.028625,0.987076,-0.132661,0.02321,-0.00647,85.341385,37.151443,-149.252365,,,
729705657.961071,-1.581284,-1.697797,71.981354,0.030609,-0.028625,0.987076,-0.132661,0.02321,-0.00647,85.341385,37.151443,-149.252365,,,
729705657.964519,-1.581284,-1.697797,71.981354,0.030609,-0.028625,0.987076,-0.132661,0.02321,-0.00647,85.341385,37.151443,-149.252365,,,
729705657.96777,-1.619562,-1.690926,71.980861,0.027832,-0.039124,0.992493,-0.134385,0.027929,0.003994,85.341385,37.151443,-149.252365,,,
729705657.971071,-1.656247,-1.683197,71.981428,0.027832,-0.039124,0.992493,-0.134385,0.027929,0.003994,85.341385,37.151443,-149.252365,,,
729705657.974553,-1.656247,-1.683197,71.981428,0.027832,-0.039124,0.992493,-0.134385,0.027929,0.003994,85.341385,37.151443,-149.252365,,,
729705657.977728,-1.694151,-1.673544,71.983293,0.026382,-0.04039,0.998276,-0.128618,0.039393,0.009572,85.341385,37.151443,-149.252365,,,
729705657.98108,-1.72904,-1.663008,71.984964,0.026382,-0.04039,0.998276,-0.128618,0.039393,0.009572,85.341385,37.151443,-149.252365,,,
729705657.984467,-1.72904,-1.663008,71.984964,0.026382,-0.04039,0.998276,-0.128618,0.039393,0.009572,85.341385,37.151443,-149.252365,,,
729705657.987807,-1.764785,-1.654527,71.986089,0.027298,-0.040146,1.002441,-0.12072,0.024036,0.005848,85.3125,37.433426,-149.448822,,,
729705657.991058,-1.797854,-1.648877,71.986878,0.027298,-0.040146,1.002441,-0.12072,0.024036,0.005848,85.3125,37.433426,-149.448822,,,
729705657.994478,-1.797854,-1.648877,71.986878,0.027298,-0.040146,1.002441,-0.12072,0.024036,0.005848,85.3125,37.433426,-149.448822,,,
729705657.997739,-1.832325,-1.646131,71.986974,0.02858,-0.036346,0.996933,-0.118505,0.006039,0.000703,85.3125,37.433426,-149.448822,,,
729705658.00107,-1.863686,-1.646245,71.985474,0.02858,-0.036346,0.996933,-0.118505,0.006039,0.000703,85.3125,37.433426,-149.448822,,,
729705658.004413,-1.863686,-1.646245,71.985474,0.02858,-0.036346,0.996933,-0.118505,0.006039,0.000703,85.3125,37.433426,-149.448822,,,
729705658.007735,-1.896237,-1.648819,71.982434,0.031006,-0.037048,1.000946,-0.109949,-0.017886,-0.010615,85.3125,37.433426,-149.448822,,,
729705658.011072,-1.925487,-1.656312,71.978159,0.031006,-0.037048,1.000946,-0.109949,-0.017886,-0.010615,85.3125,37.433426,-149.448822,,,
729705658.014442,-1.925487,-1.656312,71.978159,0.031006,-0.037048,1.000946,-0.109949,-0.017886,-0.010615,85.3125,37.433426,-149.448822,,,
729705658.017751,-1.957201,-1.670708,71.972644,0.03064,-0.036148,0.99501,-0.10985,-0.065939,-0.022867,85.3125,37.433426,-149.448822,,,
729705658.02107,-1.986422,-1.692366,71.965336,0.03064,-0.036148,0.99501,-0.10985,-0.065939,-0.022867,85.3125,37.433426,-149.448822,,,
729705658.024506,-1.986422,-1.692366,71.965336,0.03064,-0.036148,0.99501,-0.10985,-0.065939,-0.022867,85.3125,37.433426,-149.448822,,,
729705658.02773,-2.018523,-1.718281,71.955471,0.03067,-0.031601,0.989807,-0.113365,-0.091981,-0.039188,85.240479,37.900131,-149.132629,,,
729705658.031079,-2.049826,-1.746037,71.942746,0.03067,-0.031601,0.989807,-0.113365,-0.091981,-0.039188,85.240479,37.900131,-149.132629,,,
729705658.034394,-2.049826,-1.746037,71.942746,0.03067,-0.031601,0.989807,-0.113365,-0.091981,-0.039188,85.240479,37.900131,-149.132629,,,
729705658.037814,-2.08573,-1.774891,71.927671,0.0354,-0.028305,0.996338,-0.133932,-0.100146,-0.056267,85.240479,37.900131,-149.132629,,,
729705658.041056,-2.123463,-1.804822,71.910983,0.0354,-0.028305,0.996338,-0.133932,-0.100146,-0.056267,85.240479,37.900131,-149.132629,,,
729705658.04441,-2.123463,-1.804822,71.910983,0.0354,-0.028305,0.996338,-0.133932,-0.100146,-0.056267,85.240479,37.900131,-149.132629,,,
729705658.047741,-2.164644,-1.835432,71.892708,0.039764,-0.028046,0.991013,-0.152463,-0.102186,-0.062627,85.240479,37.900131,-149.132629,,,
729705658.051065,-2.209433,-1.863743,71.873883,0.039764,-0.028046,0.991013,-0.152463,-0.102186,-0.062627,85.240479,37.900131,-149.132629,,,
729705658.054399,-2.209433,-1.863743,71.873883,0.039764,-0.028046,0.991013,-0.152463,-0.102186,-0.062627,85.240479,37.900131,-149.132629,,,
729705658.057749,-2.255779,-1.890181,71.854879,0.041992,-0.029861,0.995178,-0.167894,-0.075696,-0.062606,85.240479,37.900131,-149.132629,,,
729705658.061069,-2.304646,-1.910679,71.836074,0.041992,-0.029861,0.995178,-0.167894,-0.075696,-0.062606,85.240479,37.900131,-149.132629,,,
729705658.064262,-2.304646,-1.910679,71.836074,0.041992,-0.029861,0.995178,-0.167894,-0.075696,-0.062606,85.240479,37.900131,-149.132629,,,
729705658.06776,-2.354887,-1.928462,71.818745,0.044281,-0.037582,1.000504,-0.179008,-0.043566,-0.053896,84.977829,38.003586,-149.375824,,,
729705658.071068,-2.404712,-1.940162,71.80302,0.044281,-0.037582,1.000504,-0.179008,-0.043566,-0.053896,84.977829,38.003586,-149.375824,,,
729705658.074411,-2.404712,-1.940162,71.80302,0.044281,-0.037582,1.000504,-0.179008,-0.043566,-0.053896,84.977829,38.003586,-149.375824,,,
729705658.077804,-2.45504,-1.947698,71.788,0.043182,-0.043289,0.998123,-0.173432,-0.004171,-0.042808,84.977829,38.003586,-149.375824,,,
729705658.081063,-2.50209,-1.947829,71.774399,0.043182,-0.043289,0.998123,-0.173432,-0.004171,-0.042808,84.977829,38.003586,-149.375824,,,
729705658.084443,-2.50209,-1.947829,71.774399,0.043182,-0.043289,0.998123,-0.173432,-0.004171,-0.042808,84.977829,38.003586,-149.375824,,,
729705658.087762,-2.54772,-1.94316,71.763118,0.044113,-0.046463,1.005234,-0.15053,0.032082,-0.028398,84.977829,38.003586,-149.375824,,,
729705658.091062,-2.588724,-1.933546,71.754503,0.044113,-0.046463,1.005234,-0.15053,0.032082,-0.028398,84.977829,38.003586,-149.375824,,,
729705658.094487,-2.588724,-1.933546,71.754503,0.044113,-0.046463,1.005234,-0.15053,0.032082,-0.028398,84.977829,38.003586,-149.375824,,,
729705658.097737,-2.628658,-1.921185,71.748353,0.033905,-0.051788,1.006256,-0.128899,0.054937,-0.010641,84.977829,38.003586,-149.375824,,,
729705658.101071,-2.662966,-1.905238,71.745154,0.033905,-0.051788,1.006256,-0.128899,0.054937,-0.010641,84.977829,38.003586,-149.375824,,,
729705658.104464,-2.662966,-1.905238,71.745154,0.033905,-0.051788,1.006256,-0.128899,0.054937,-0.010641,84.977829,38.003586,-149.375824,,,
729705658.107734,-2.697312,-1.888599,71.744048,0.028976,-0.053726,1.003647,-0.114587,0.065335,0.000918,84.977829,38.003586,-149.375824,,,
729705658.111069,-2.726259,-1.872151,71.743286,0.028976,-0.053726,1.003647,-0.114587,0.065335,0.000918,85.003479,38.373672,-149.491989,,,
729705658.11441,-2.726259,-1.872151,71.743286,0.028976,-0.053726,1.003647,-0.114587,0.065335,0.000918,85.003479,38.373672,-149.491989,,,
729705658.11783,-2.758806,-1.857485,71.741936,0.027939,-0.050507,0.993149,-0.111394,0.050895,-0.005899,85.003479,38.373672,-149.491989,,,
729705658.121063,-2.786735,-1.846214,71.738934,0.027939,-0.050507,0.993149,-0.111394,0.050895,-0.005899,85.003479,38.373672,-149.491989,,,
729705658.124421,-2.786735,-1.846214,71.738934,0.027939,-0.050507,0.993149,-0.111394,0.050895,-0.005899,85.003479,38.373672,-149.491989,,,
729705658.127753,-2.819939,-1.835607,71.733984,0.027176,-0.045792,0.984085,-0.123617,0.036219,-0.018072,85.003479,38.373672,-149.491989,,,
729705658.13107,-2.850076,-1.829002,71.726599,0.027176,-0.045792,0.984085,-0.123617,0.036219,-0.018072,85.003479,38.373672,-149.491989,,,
729705658.134142,-2.850076,-1.829002,71.726599,0.027176,-0.045792,0.984085,-0.123617,0.036219,-0.018072,85.003479,38.373672,-149.491989,,,
729705658.137785,-2.887665,-1.822444,71.717226,0.02562,-0.041611,0.980728,-0.135827,0.020605,-0.033305,85.003479,38.373672,-149.491989,,,
729705658.141067,-2.923222,-1.821244,71.706528,0.02562,-0.041611,0.980728,-0.135827,0.020605,-0.033305,85.003479,38.373672,-149.491989,,,
729705658.144472,-2.923222,-1.821244,71.706528,0.02562,-0.041611,0.980728,-0.135827,0.020605,-0.033305,85.003479,38.373672,-149.491989,,,
729705658.147745,-2.965406,-1.819078,71.694945,0.024963,-0.045425,0.97908,-0.152214,0.007876,-0.039329,85.003479,38.373672,-149.491989,,,
729705658.151067,-3.007813,-1.821054,71.683112,0.024963,-0.045425,0.97908,-0.152214,0.007876,-0.039329,84.913162,38.527191,-149.032913,,,
729705658.154411,-3.007813,-1.821054,71.683112,0.024963,-0.045425,0.97908,-0.152214,0.007876,-0.039329,84.913162,38.527191,-149.032913,,,
729705658.15781,-3.055895,-1.820736,71.67204,0.023026,-0.050079,0.982101,-0.174884,0.007137,-0.032233,84.913162,38.527191,-149.032913,,,
729705658.161063,-3.104331,-1.822983,71.661836,0.023026,-0.050079,0.982101,-0.174884,0.007137,-0.032233,84.913162,38.527191,-149.032913,,,
729705658.164415,-3.104331,-1.822983,71.661836,0.023026,-0.050079,0.982101,-0.174884,0.007137,-0.032233,84.913162,38.527191,-149.032913,,,
729705658.167752,-3.155737,-1.820864,71.654248,0.019363,-0.05571,0.988174,-0.180505,0.020225,-0.014092,84.913162,38.527191,-149.032913,,,
729705658.171066,-3.205868,-1.817509,71.649512,0.019363,-0.05571,0.988174,-0.180505,0.020225,-0.014092,84.913162,38.527191,-149.032913,,,
729705658.174411,-3.205868,-1.817509,71.649512,0.019363,-0.05571,0.988174,-0.180505,0.020225,-0.014092,84.913162,38.527191,-149.032913,,,
729705658.177747,-3.256626,-1.808948,71.647571,0.024048,-0.060623,0.998413,-0.174301,0.040572,0.000375,84.913162,38.527191,-149.032913,,,
729705658.181065,-3.305351,-1.797938,71.648042,0.024048,-0.060623,0.998413,-0.174301,0.040572,0.000375,84.913162,38.527191,-149.032913,,,
729705658.184479,-3.305351,-1.797938,71.648042,0.024048,-0.060623,0.998413,-0.174301,0.040572,0.000375,84.913162,38.527191,-149.032913,,,
729705658.187739,-3.353674,-1.785238,71.650282,0.029282,-0.059341,0.997543,-0.160949,0.051146,0.015863,84.913162,38.527191,-149.032913,,,
729705658.191069,-3.398932,-1.770086,71.653469,0.029282,-0.059341,0.997543,-0.160949,0.051146,0.015863,85.081543,38.888824,-148.849823,,,
729705658.194474,-3.398932,-1.770086,71.653469,0.029282,-0.059341,0.997543,-0.160949,0.051146,0.015863,85.081543,38.888824,-148.849823,,,
729705658.197786,-3.444345,-1.753879,71.656894,0.029129,-0.060272,0.998489,-0.154116,0.062155,0.015531,85.081543,38.888824,-148.849823,,,
729705658.201062,-3.48709,-1.735351,71.660487,0.029129,-0.060272,0.998489,-0.154116,0.062155,0.015531,85.081543,38.888824,-148.849823,,,
729705658.204414,-3.48709,-1.735351,71.660487,0.029129,-0.060272,0.998489,-0.154116,0.062155,0.015531,85.081543,38.888824,-148.849823,,,
729705658.207751,-3.533984,-1.716414,71.6634,0.030289,-0.056259,0.993332,-0.1689,0.071297,0.009812,85.081543,38.888824,-148.849823,,,
729705658.211061,-3.579747,-1.695744,71.665572,0.030289,-0.056259,0.993332,-0.1689,0.071297,0.009812,85.081543,38.888824,-148.849823,,,
729705658.214409,-3.579747,-1.695744,71.665572,0.030289,-0.056259,0.993332,-0.1689,0.071297,0.009812,85.081543,38.888824,-148.849823,,,
729705658.217746,-3.633589,-1.676849,71.667613,0.027908,-0.055481,0.987076,-0.200589,0.062966,0.011394,85.081543,38.888824,-148.849823,,,
729705658.221067,-3.687287,-1.659114,71.670167,0.027908,-0.055481,0.987076,-0.200589,0.062966,0.011394,85.081543,38.888824,-148.849823,,,
729705658.224486,-3.687287,-1.659114,71.670167,0.027908,-0.055481,0.987076,-0.200589,0.062966,0.011394,85.081543,38.888824,-148.849823,,,
729705658.227744,-3.751387,-1.644345,71.672723,0.021957,-0.057785,0.978775,-0.23765,0.047934,0.014814,85.081543,38.888824,-148.849823,,,
729705658.231071,-3.818,-1.631205,71.674867,0.021957,-0.057785,0.978775,-0.23765,0.047934,0.014814,85.291824,39.302185,-148.62149,,,
729705658.23446,-3.818,-1.631205,71.674867,0.021957,-0.057785,0.978775,-0.23765,0.047934,0.014814,85.291824,39.302185,-148.62149,,,
729705658.237796,-3.895342,-1.620873,71.677465,0.021927,-0.058685,0.977188,-0.28484,0.034288,0.017585,85.291824,39.302185,-148.62149,,,
729705658.241056,-3.975778,-1.60963,71.680705,0.021927,-0.058685,0.977188,-0.28484,0.034288,0.017585,85.291824,39.302185,-148.62149,,,
729705658.244408,-3.975778,-1.60963,71.680705,0.021927,-0.058685,0.977188,-0.28484,0.034288,0.017585,85.291824,39.302185,-148.62149,,,
729705658.247747,-4.065494,-1.600628,71.684033,0.022446,-0.06015,0.979279,-0.324757,0.035045,0.020017,85.291824,39.302185,-148.62149,,,
729705658.251066,-4.157961,-1.58958,71.687575,0.022446,-0.06015,0.979279,-0.324757,0.035045,0.020017,85.291824,39.302185,-148.62149,,,
729705658.254417,-4.157961,-1.58958,71.687575,0.022446,-0.06015,0.979279,-0.324757,0.035045,0.020017,85.291824,39.302185,-148.62149,,,
729705658.257737,-4.259201,-1.578054,71.69141,0.026352,-0.061462,0.984741,-0.365543,0.049278,0.022289,85.291824,39.302185,-148.62149,,,
729705658.261126,-4.363593,-1.562832,71.696218,0.026352,-0.061462,0.984741,-0.365543,0.049278,0.022289,85.291824,39.302185,-148.62149,,,
729705658.26441,-4.363593,-1.562832,71.696218,0.026352,-0.061462,0.984741,-0.365543,0.049278,0.022289,85.291824,39.302185,-148.62149,,,
729705658.26774,-4.478303,-1.542846,71.70272,0.025909,-0.065186,0.986496,-0.418032,0.085827,0.041388,85.291824,39.302185,-148.62149,,,
729705658.27107,-4.597403,-1.517236,71.711999,0.025909,-0.065186,0.986496,-0.418032,0.085827,0.041388,85.291824,39.302185,-148.62149,,,
729705658.274492,-4.597403,-1.517236,71.711999,0.025909,-0.065186,0.986496,-0.418032,0.085827,0.041388,85.477936,39.955597,-148.599533,,,
729705658.277762,-4.729121,-1.484252,71.725196,0.025101,-0.069412,0.984467,-0.480722,0.133299,0.071557,85.477936,39.955597,-148.599533,,,
729705658.281077,-4.865808,-1.445674,71.744509,0.025101,-0.069412,0.984467,-0.480722,0.133299,0.071557,85.477936,39.955597,-148.599533,,,
729705658.284479,-4.865808,-1.445674,71.744509,0.025101,-0.069412,0.984467,-0.480722,0.133299,0.071557,85.477936,39.955597,-148.599533,,,
729705658.287692,-5.015998,-1.400842,71.772782,0.013748,-0.082123,0.972641,-0.541369,0.163079,0.132869,85.477936,39.955597,-148.599533,,,
729705658.291085,-5.167194,-1.352377,71.810161,0.013748,-0.082123,0.972641,-0.541369,0.163079,0.132869,85.477936,39.955597,-148.599533,,,
729705658.294418,-5.167194,-1.352377,71.810161,0.013748,-0.082123,0.972641,-0.541369,0.163079,0.132869,85.477936,39.955597,-148.599533,,,
729705658.297748,-5.329304,-1.298054,71.855985,0.007721,-0.101395,0.967545,-0.570433,0.188477,0.191189,85.477936,39.955597,-148.599533,,,
729705658.301062,-5.494136,-1.239395,71.909007,0.007721,-0.101395,0.967545,-0.570433,0.188477,0.191189,85.477936,39.955597,-148.599533,,,
729705658.304395,-5.494136,-1.239395,71.909007,0.007721,-0.101395,0.967545,-0.570433,0.188477,0.191189,85.477936,39.955597,-148.599533,,,
729705658.307749,-5.658088,-1.178485,71.967187,0.010452,-0.11647,0.975876,-0.560301,0.19676,0.22293,85.477936,39.955597,-148.599533,,,
729705658.311073,-5.819255,-1.117345,72.0291,0.010452,-0.11647,0.975876,-0.560301,0.19676,0.22293,85.477936,39.955597,-148.599533,,,
729705658.314503,-5.819255,-1.117345,72.0291,0.010452,-0.11647,0.975876,-0.560301,0.19676,0.22293,86.158157,41.133652,-148.114914,,,
729705658.317749,-5.975947,-1.05841,72.092443,0.0056,-0.119064,0.976852,-0.526715,0.175554,0.225577,86.158157,41.133652,-148.114914,,,
729705658.321075,-6.127547,-1.002992,72.155002,0.0056,-0.119064,0.976852,-0.526715,0.175554,0.225577,86.158157,41.133652,-148.114914,,,
729705658.324414,-6.127547,-1.002992,72.155002,0.0056,-0.119064,0.976852,-0.526715,0.175554,0.225577,86.158157,41.133652,-148.114914,,,
729705658.327808,-6.274804,-0.952375,72.215119,-0.001556,-0.112228,0.977905,-0.498955,0.142847,0.205209,86.158157,41.133652,-148.114914,,,
729705658.331061,-6.418466,-0.906825,72.271972,-0.001556,-0.112228,0.977905,-0.498955,0.142847,0.205209,86.158157,41.133652,-148.114914,,,
729705658.334515,-6.418466,-0.906825,72.271972,-0.001556,-0.112228,0.977905,-0.498955,0.142847,0.205209,86.158157,41.133652,-148.114914,,,
729705658.337747,-6.560369,-0.865596,72.325384,-0.006699,-0.106812,0.973358,-0.494056,0.117138,0.180273,86.158157,41.133652,-148.114914,,,
729705658.34107,-6.702458,-0.828251,72.375564,-0.006699,-0.106812,0.973358,-0.494056,0.117138,0.180273,86.158157,41.133652,-148.114914,,,
729705658.34441,-6.702458,-0.828251,72.375564,-0.006699,-0.106812,0.973358,-0.494056,0.117138,0.180273,86.158157,41.133652,-148.114914,,,
729705658.347759,-6.845849,-0.794728,72.423246,-0.007812,-0.109711,0.966812,-0.506122,0.089626,0.161536,86.158157,41.133652,-148.114914,,,
729705658.35107,-6.992284,-0.766213,72.468465,-0.007812,-0.109711,0.966812,-0.506122,0.089626,0.161536,86.158157,41.133652,-148.114914,,,
729705658.354398,-6.992284,-0.766213,72.468465,-0.007812,-0.109711,0.966812,-0.506122,0.089626,0.161536,86.495773,42.098557,-147.885605,,,
729705658.357748,-7.143444,-0.744032,72.511472,-0.002426,-0.11441,0.954239,-0.542536,0.044784,0.150526,86.495773,42.098557,-147.885605,,,
729705658.361061,-7.300359,-0.727697,72.553478,-0.002426,-0.11441,0.954239,-0.542536,0.044784,0.150526,86.495773,42.098557,-147.885605,,,
729705658.364494,-7.300359,-0.727697,72.553478,-0.002426,-0.11441,0.954239,-0.542536,0.044784,0.150526,86.495773,42.098557,-147.885605,,,
729705658.367747,-7.464892,-0.716219,72.595416,-4.6e-05,-0.11731,0.948364,-0.594377,0.014724,0.150672,86.495773,42.098557,-147.885605,,,
729705658.371072,-7.638544,-0.708216,72.637789,-4.6e-05,-0.11731,0.948364,-0.594377,0.014724,0.150672,86.495773,42.098557,-147.885605,,,
729705658.374416,-7.638544,-0.708216,72.637789,-4.6e-05,-0.11731,0.948364,-0.594377,0.014724,0.150672,86.495773,42.098557,-147.885605,,,
729705658.3778,-7.822464,-0.701629,72.680644,-0.007187,-0.124405,0.948135,-0.665889,0.005306,0.155767,86.495773,42.098557,-147.885605,,,
729705658.381063,-8.017726,-0.695394,72.723495,-0.007187,-0.124405,0.948135,-0.665889,0.005306,0.155767,86.495773,42.098557,-147.885605,,,
729705658.384415,-8.017726,-0.695394,72.723495,-0.007187,-0.124405,0.948135,-0.665889,0.005306,0.155767,86.495773,42.098557,-147.885605,,,
729705658.38773,-8.224327,-0.690536,72.766547,-0.000793,-0.124527,0.943787,-0.746063,-0.006822,0.15474,86.495773,42.098557,-147.885605,,,
729705658.391064,-8.441467,-0.687208,72.809757,-0.000793,-0.124527,0.943787,-0.746063,-0.006822,0.15474,86.495773,42.098557,-147.885605,,,
729705658.394396,-8.441467,-0.687208,72.809757,-0.000793,-0.124527,0.943787,-0.746063,-0.006822,0.15474,86.676697,43.178482,-147.132416,,,
729705658.397747,-8.666419,-0.682609,72.852548,0.011292,-0.1315,0.935974,-0.796176,0.005565,0.154826,86.676697,43.178482,-147.132416,,,
729705658.401107,-8.89697,-0.67341,72.893922,0.011292,-0.1315,0.935974,-0.796176,0.005565,0.154826,86.676697,43.178482,-147.132416,,,
729705658.404478,-8.89697,-0.67341,72.893922,0.011292,-0.1315,0.935974,-0.796176,0.005565,0.154826,86.676697,43.178482,-147.132416,,,
729705658.40775,-9.131172,-0.656853,72.933101,0.026871,-0.143478,0.960083,-0.819762,0.060627,0.136072,86.676697,43.178482,-147.132416,,,
729705658.41107,-9.366321,-0.633676,72.969792,0.026871,-0.143478,0.960083,-0.819762,0.060627,0.136072,86.676697,43.178482,-147.132416,,,
729705658.41441,-9.366321,-0.633676,72.969792,0.026871,-0.143478,0.960083,-0.819762,0.060627,0.136072,86.676697,43.178482,-147.132416,,,
729705658.417806,-9.602003,-0.606394,73.003713,0.03595,-0.154907,0.970963,-0.820596,0.088674,0.118243,86.676697,43.178482,-147.132416,,,
729705658.42106,-9.83841,-0.575734,73.035558,0.03595,-0.154907,0.970963,-0.820596,0.088674,0.118243,86.676697,43.178482,-147.132416,,,
729705658.424412,-9.83841,-0.575734,73.035558,0.03595,-0.154907,0.970963,-0.820596,0.088674,0.118243,86.676697,43.178482,-147.132416,,,
729705658.427756,-10.074827,-0.540969,73.065321,0.030273,-0.166656,0.966003,-0.822349,0.122478,0.10187,86.676697,43.178482,-147.132416,,,
729705658.431061,-10.311487,-0.501013,73.092488,0.030273,-0.166656,0.966003,-0.822349,0.122478,0.10187,86.676697,43.178482,-147.132416,,,
729705658.434439,-10.311487,-0.501013,73.092488,0.030273,-0.166656,0.966003,-0.822349,0.122478,0.10187,86.676697,43.178482,-147.132416,,,
729705658.437782,-10.549444,-0.457256,73.117822,0.031189,-0.178497,0.972794,-0.833111,0.145556,0.089786,86.859573,44.88063,-146.324051,,,
729705658.441059,-10.789606,-0.412629,73.142283,0.031189,-0.178497,0.972794,-0.833111,0.145556,0.089786,86.859573,44.88063,-146.324051,,,
729705658.44449,-10.789606,-0.412629,73.142283,0.031189,-0.178497,0.972794,-0.833111,0.145556,0.089786,86.859573,44.88063,-146.324051,,,
729705658.447738,-11.032848,-0.370194,73.166804,0.025848,-0.18454,0.964157,-0.858701,0.123903,0.089472,86.859573,44.88063,-146.324051,,,
729705658.45107,-11.281149,-0.33304,73.192529,0.025848,-0.18454,0.964157,-0.858701,0.123903,0.089472,86.859573,44.88063,-146.324051,,,
729705658.45441,-11.281149,-0.33304,73.192529,0.025848,-0.18454,0.964157,-0.858701,0.123903,0.089472,86.859573,44.88063,-146.324051,,,
729705658.457814,-11.535501,-0.304693,73.21923,0.018829,-0.1922,0.946976,-0.90467,0.056338,0.097112,86.859573,44.88063,-146.324051,,,
729705658.461052,-11.797478,-0.286576,73.246153,0.018829,-0.1922,0.946976,-0.90467,0.056338,0.097112,86.859573,44.88063,-146.324051,,,
729705658.464418,-11.797478,-0.286576,73.246153,0.018829,-0.1922,0.946976,-0.90467,0.056338,0.097112,86.859573,44.88063,-146.324051,,,
729705658.467741,-12.068819,-0.27869,73.272201,0.017334,-0.199783,0.93486,-0.969648,-0.01156,0.088634,86.859573,44.88063,-146.324051,,,
729705658.471061,-12.350216,-0.280732,73.295852,0.017334,-0.199783,0.93486,-0.969648,-0.01156,0.088634,86.859573,44.88063,-146.324051,,,
729705658.474401,-12.350216,-0.280732,73.295852,0.017334,-0.199783,0.93486,-0.969648,-0.01156,0.088634,86.859573,44.88063,-146.324051,,,
729705658.477736,-12.640587,-0.292494,73.314613,0.023712,-0.205887,0.928665,-1.03031,-0.071035,0.051506,87.066132,46.509842,-145.325027,,,
729705658.481058,-12.938115,-0.312143,73.325995,0.023712,-0.205887,0.928665,-1.03031,-0.071035,0.051506,87.066132,46.509842,-145.325027,,,
729705658.484479,-12.938115,-0.312143,73.325995,0.023712,-0.205887,0.928665,-1.03031,-0.071035,0.051506,87.066132,46.509842,-145.325027,,,
729705658.48774,-13.241104,-0.336406,73.328181,0.031052,-0.215149,0.941238,-1.066726,-0.086696,-0.013191,87.066132,46.509842,-145.325027,,,
729705658.491061,-13.55026,-0.364975,73.320028,0.031052,-0.215149,0.941238,-1.066726,-0.086696,-0.013191,87.066132,46.509842,-145.325027,,,
729705658.494416,-13.55026,-0.364975,73.320028,0.031052,-0.215149,0.941238,-1.066726,-0.086696,-0.013191,87.066132,46.509842,-145.325027,,,
