Time (sec),Pitch (deg),Roll (deg),Yaw(deg),X-Acceleration (g),Y-Acceleration (g),Z-Acceleration (g),Pitch Rate (deg/sec),Roll Rate (deg/sec),Yaw Rate (deg/sec),Magnetic Field in X direction (uT),Magnetic Field in Y direction (uT),Magnetic Field in Z Direction (uT),Latitude (deg),Longitude (deg),Altitude (m)
729716482.938247,0.347953,-2.811759,-78.135456,0.056381,-0.005432,1.002411,-0.040009,0.029889,-0.0159,62.603577,12.168304,-150.27861,,,
729716482.942593,0.341934,-2.803945,-81.217597,0.056381,-0.005432,1.002411,-0.003753,0.028015,-0.01759,62.603577,12.168304,-150.27861,,,
729716482.942814,0.341933,-2.803948,-78.140719,0.056381,-0.005432,1.002411,-0.003753,0.028015,-0.01759,62.603577,12.168304,-150.27861,,,
729716482.945048,0.340581,-2.795805,-81.221967,0.055679,-0.024872,1.002853,-0.003753,0.028015,-0.01759,62.603577,12.168304,-150.27861,,,
729716482.945257,0.340581,-2.795808,-78.145089,0.055679,-0.024872,1.002853,-0.003753,0.028015,-0.01759,62.603577,12.168304,-150.27861,,,
729716482.948132,0.340581,-2.795805,-81.221967,0.055679,-0.024872,1.002853,-0.003753,0.028015,-0.01759,62.603577,12.168304,-150.27861,,,
729716482.948328,0.340581,-2.795808,-78.145089,0.055679,-0.024872,1.002853,-0.003753,0.028015,-0.01759,62.603577,12.168304,-150.27861,,,
729716482.953536,0.341234,-2.790474,-81.225725,0.055679,-0.024872,1.002853,0.006587,0.017594,-0.017229,62.603577,12.168304,-150.27861,,,
729716482.953844,0.341234,-2.790477,-78.148847,0.055679,-0.024872,1.002853,0.006587,0.017594,-0.017229,62.603577,12.168304,-150.27861,,,
729716482.955219,0.344461,-2.788538,-81.229721,0.048553,-0.022354,0.995773,0.006587,0.017594,-0.017229,62.597,12.251785,-150.358337,,,
729716482.955463,0.34446,-2.788541,-78.152843,0.048553,-0.022354,0.995773,0.006587,0.017594,-0.017229,62.597,12.251785,-150.358337,,,
729716482.958185,0.344461,-2.788538,-81.229721,0.048553,-0.022354,0.995773,0.006587,0.017594,-0.017229,62.597,12.251785,-150.358337,,,
729716482.95839,0.34446,-2.788541,-78.152843,0.048553,-0.022354,0.995773,0.006587,0.017594,-0.017229,62.597,12.251785,-150.358337,,,
729716482.962417,0.348189,-2.784666,-81.234628,0.048553,-0.022354,0.995773,0.014717,0.012965,-0.022738,62.597,12.251785,-150.358337,,,
729716482.962663,0.348189,-2.784669,-78.157749,0.048553,-0.022354,0.995773,0.014717,0.012965,-0.022738,62.597,12.251785,-150.358337,,,
729716482.965929,0.35974,-2.786396,-81.240125,0.050995,-0.00795,0.989761,0.014717,0.012965,-0.022738,62.597,12.251785,-150.358337,,,
729716482.966169,0.35974,-2.786398,-78.163247,0.050995,-0.00795,0.989761,0.014717,0.012965,-0.022738,62.597,12.251785,-150.358337,,,
729716482.968004,0.35974,-2.786396,-81.240125,0.050995,-0.00795,0.989761,0.014717,0.012965,-0.022738,62.597,12.251785,-150.358337,,,
729716482.968226,0.35974,-2.786398,-78.163247,0.050995,-0.00795,0.989761,0.014717,0.012965,-0.022738,62.597,12.251785,-150.358337,,,
729716482.97352,0.366054,-2.785812,-81.247204,0.050995,-0.00795,0.989761,0.019846,-0.008733,-0.029654,62.597,12.251785,-150.358337,,,
729716482.973781,0.366054,-2.785814,-78.170326,0.050995,-0.00795,0.989761,0.019846,-0.008733,-0.029654,62.597,12.251785,-150.358337,,,
729716482.975655,0.378366,-2.796934,-81.255693,0.052658,-0.006393,0.984802,0.019846,-0.008733,-0.029654,62.597,12.251785,-150.358337,,,
729716482.975892,0.378366,-2.796937,-78.178814,0.052658,-0.006393,0.984802,0.019846,-0.008733,-0.029654,62.597,12.251785,-150.358337,,,
729716482.978141,0.378366,-2.796934,-81.255693,0.052658,-0.006393,0.984802,0.019846,-0.008733,-0.029654,62.597,12.251785,-150.358337,,,
729716482.97833,0.378366,-2.796937,-78.178814,0.052658,-0.006393,0.984802,0.019846,-0.008733,-0.029654,62.597,12.251785,-150.358337,,,
729716482.982531,0.382064,-2.802646,-81.265689,0.052658,-0.006393,0.984802,0.001019,-0.019949,-0.042564,62.597,12.251785,-150.358337,,,
729716482.982785,0.382064,-2.802649,-78.188811,0.052658,-0.006393,0.984802,0.001019,-0.019949,-0.042564,62.597,12.251785,-150.358337,,,
729716482.985919,0.385484,-2.818734,-81.276939,0.047958,-0.001434,0.970184,0.001019,-0.019949,-0.042564,62.597,12.251785,-150.358337,,,
729716482.986146,0.385484,-2.818737,-78.200061,0.047958,-0.001434,0.970184,0.001019,-0.019949,-0.042564,62.597,12.251785,-150.358337,,,
729716482.987985,0.385484,-2.818734,-81.276939,0.047958,-0.001434,0.970184,0.001019,-0.019949,-0.042564,62.597,12.251785,-150.358337,,,
729716482.98821,0.385484,-2.818737,-78.200061,0.047958,-0.001434,0.970184,0.001019,-0.019949,-0.042564,62.597,12.251785,-150.358337,,,
729716482.993396,0.383305,-2.822517,-81.288103,0.047958,-0.001434,0.970184,-0.018733,-0.000468,-0.03599,62.597,12.251785,-150.358337,,,
729716482.993667,0.383305,-2.82252,-78.211224,0.047958,-0.001434,0.970184,-0.018733,-0.000468,-0.03599,62.597,12.251785,-150.358337,,,
729716482.996929,0.378672,-2.831923,-81.297669,0.046326,0.006577,0.967194,-0.018733,-0.000468,-0.03599,62.481201,12.105637,-150.195557,,,
729716482.997396,0.378672,-2.831925,-78.220791,0.046326,0.006577,0.967194,-0.018733,-0.000468,-0.03599,62.481201,12.105637,-150.195557,,,
729716482.99784,0.378672,-2.831923,-81.297669,0.046326,0.006577,0.967194,-0.018733,-0.000468,-0.03599,62.481201,12.105637,-150.195557,,,
729716482.998249,0.378672,-2.831925,-78.220791,0.046326,0.006577,0.967194,-0.018733,-0.000468,-0.03599,62.481201,12.105637,-150.195557,,,
729716483.003501,0.372005,-2.828073,-81.305745,0.046326,0.006577,0.967194,-0.031219,0.031462,-0.026168,62.481201,12.105637,-150.195557,,,
729716483.003753,0.372005,-2.828076,-78.228867,0.046326,0.006577,0.967194,-0.031219,0.031462,-0.026168,62.481201,12.105637,-150.195557,,,
729716483.00533,0.363991,-2.825683,-81.312935,0.046539,0.004089,0.97522,-0.031219,0.031462,-0.026168,62.481201,12.105637,-150.195557,,,
729716483.005553,0.363991,-2.825686,-78.236056,0.046539,0.004089,0.97522,-0.031219,0.031462,-0.026168,62.481201,12.105637,-150.195557,,,
729716483.008169,0.363991,-2.825683,-81.312935,0.046539,0.004089,0.97522,-0.031219,0.031462,-0.026168,62.481201,12.105637,-150.195557,,,
729716483.008417,0.363991,-2.825686,-78.236056,0.046539,0.004089,0.97522,-0.031219,0.031462,-0.026168,62.481201,12.105637,-150.195557,,,
729716483.012962,0.353187,-2.813303,-81.318822,0.046539,0.004089,0.97522,-0.048888,0.05767,-0.013827,62.481201,12.105637,-150.195557,,,
729716483.013233,0.353187,-2.813306,-78.241944,0.046539,0.004089,0.97522,-0.048888,0.05767,-0.013827,62.481201,12.105637,-150.195557,,,
729716483.015453,0.331682,-2.800223,-81.322868,0.051727,0.003143,0.968491,-0.048888,0.05767,-0.013827,62.481201,12.105637,-150.195557,,,
729716483.015672,0.331682,-2.800226,-78.24599,0.051727,0.003143,0.968491,-0.048888,0.05767,-0.013827,62.481201,12.105637,-150.195557,,,
729716483.018059,0.331682,-2.800223,-81.322868,0.051727,0.003143,0.968491,-0.048888,0.05767,-0.013827,62.481201,12.105637,-150.195557,,,
729716483.018261,0.331682,-2.800226,-78.24599,0.051727,0.003143,0.968491,-0.048888,0.05767,-0.013827,62.481201,12.105637,-150.195557,,,
729716483.022708,0.313941,-2.780605,-81.326146,0.051727,0.003143,0.968491,-0.077972,0.07861,-0.006423,62.481201,12.105637,-150.195557,,,
729716483.022949,0.313941,-2.780608,-78.249267,0.051727,0.003143,0.968491,-0.077972,0.07861,-0.006423,62.481201,12.105637,-150.195557,,,
729716483.025672,0.281377,-2.761805,-81.328906,0.044098,0.008011,0.968079,-0.077972,0.07861,-0.006423,62.481201,12.105637,-150.195557,,,
729716483.025897,0.281377,-2.761808,-78.252028,0.044098,0.008011,0.968079,-0.077972,0.07861,-0.006423,62.481201,12.105637,-150.195557,,,
729716483.02805,0.281377,-2.761805,-81.328906,0.044098,0.008011,0.968079,-0.077972,0.07861,-0.006423,62.481201,12.105637,-150.195557,,,
729716483.028259,0.281377,-2.761808,-78.252028,0.044098,0.008011,0.968079,-0.077972,0.07861,-0.006423,62.481201,12.105637,-150.195557,,,
729716483.032646,0.254451,-2.742025,-81.331593,0.044098,0.008011,0.968079,-0.109308,0.057235,-0.007755,62.481201,12.105637,-150.195557,,,
729716483.032884,0.254451,-2.742028,-78.254715,0.044098,0.008011,0.968079,-0.109308,0.057235,-0.007755,62.481201,12.105637,-150.195557,,,
729716483.036491,0.217792,-2.726842,-81.335098,0.043045,0.016937,0.955597,-0.109308,0.057235,-0.007755,62.704285,12.222,-149.957962,,,
729716483.036741,0.217791,-2.726844,-78.25822,0.043045,0.016937,0.955597,-0.109308,0.057235,-0.007755,62.704285,12.222,-149.957962,,,
729716483.037908,0.217792,-2.726842,-81.335098,0.043045,0.016937,0.955597,-0.109308,0.057235,-0.007755,62.704285,12.222,-149.957962,,,
729716483.038234,0.217791,-2.726844,-78.25822,0.043045,0.016937,0.955597,-0.109308,0.057235,-0.007755,62.704285,12.222,-149.957962,,,
729716483.042708,0.185069,-2.716524,-81.340009,0.043045,0.016937,0.955597,-0.115735,0.022377,-0.019275,62.704285,12.222,-149.957962,,,
729716483.042937,0.185068,-2.716527,-78.263131,0.043045,0.016937,0.955597,-0.115735,0.022377,-0.019275,62.704285,12.222,-149.957962,,,
729716483.045735,0.150472,-2.712337,-81.346549,0.038895,0.014236,0.957932,-0.115735,0.022377,-0.019275,62.704285,12.222,-149.957962,,,
729716483.045955,0.150472,-2.71234,-78.26967,0.038895,0.014236,0.957932,-0.115735,0.022377,-0.019275,62.704285,12.222,-149.957962,,,
729716483.048023,0.150472,-2.712337,-81.346549,0.038895,0.014236,0.957932,-0.115735,0.022377,-0.019275,62.704285,12.222,-149.957962,,,
729716483.048234,0.150472,-2.71234,-78.26967,0.038895,0.014236,0.957932,-0.115735,0.022377,-0.019275,62.704285,12.222,-149.957962,,,
729716483.053362,0.119942,-2.712542,-81.354848,0.038895,0.014236,0.957932,-0.096519,-0.016669,-0.033978,62.704285,12.222,-149.957962,,,
729716483.053615,0.119942,-2.712545,-78.27797,0.038895,0.014236,0.957932,-0.096519,-0.016669,-0.033978,62.704285,12.222,-149.957962,,,
729716483.055834,0.091722,-2.719366,-81.365228,0.038071,0.003311,0.977921,-0.096519,-0.016669,-0.033978,62.704285,12.222,-149.957962,,,
729716483.056079,0.091722,-2.719369,-78.28835,0.038071,0.003311,0.977921,-0.096519,-0.016669,-0.033978,62.704285,12.222,-149.957962,,,
729716483.058074,0.091722,-2.719366,-81.365228,0.038071,0.003311,0.977921,-0.096519,-0.016669,-0.033978,62.704285,12.222,-149.957962,,,
729716483.058267,0.091722,-2.719369,-78.28835,0.038071,0.003311,0.977921,-0.096519,-0.016669,-0.033978,62.704285,12.222,-149.957962,,,
729716483.062982,0.069741,-2.728166,-81.377424,0.038071,0.003311,0.977921,-0.060616,-0.029428,-0.044432,62.704285,12.222,-149.957962,,,
729716483.063227,0.069741,-2.728169,-78.300546,0.038071,0.003311,0.977921,-0.060616,-0.029428,-0.044432,62.704285,12.222,-149.957962,,,
729716483.066767,0.052772,-2.737085,-81.390553,0.041016,-0.005966,0.995514,-0.060616,-0.029428,-0.044432,62.704285,12.222,-149.957962,,,
729716483.067036,0.052772,-2.737088,-78.313674,0.041016,-0.005966,0.995514,-0.060616,-0.029428,-0.044432,62.704285,12.222,-149.957962,,,
729716483.067896,0.052772,-2.737085,-81.390553,0.041016,-0.005966,0.995514,-0.060616,-0.029428,-0.044432,62.704285,12.222,-149.957962,,,
729716483.068234,0.052772,-2.737088,-78.313674,0.041016,-0.005966,0.995514,-0.060616,-0.029428,-0.044432,62.704285,12.222,-149.957962,,,
729716483.072696,0.040624,-2.743291,-81.403241,0.041016,-0.005966,0.995514,-0.035161,-0.007893,-0.034736,62.704285,12.222,-149.957962,,,
729716483.072938,0.040624,-2.743294,-78.326363,0.041016,-0.005966,0.995514,-0.035161,-0.007893,-0.034736,62.704285,12.222,-149.957962,,,
729716483.075675,0.032832,-2.746013,-81.413532,0.042862,-0.009567,1.014481,-0.035161,-0.007893,-0.034736,62.704285,12.222,-149.957962,,,
729716483.07589,0.032832,-2.746016,-78.336653,0.042862,-0.009567,1.014481,-0.035161,-0.007893,-0.034736,62.704285,12.222,-149.957962,,,
729716483.078741,0.032832,-2.746013,-81.413532,0.042862,-0.009567,1.014481,-0.035161,-0.007893,-0.034736,62.58989,12.371658,-149.729736,,,
729716483.078985,0.032832,-2.746016,-78.336653,0.042862,-0.009567,1.014481,-0.035161,-0.007893,-0.034736,62.58989,12.371658,-149.729736,,,
729716483.083203,0.023971,-2.746108,-81.421477,0.042862,-0.009567,1.014481,-0.035391,0.008691,-0.022275,62.58989,12.371658,-149.729736,,,
729716483.083477,0.023971,-2.746111,-78.344599,0.042862,-0.009567,1.014481,-0.035391,0.008691,-0.022275,62.58989,12.371658,-149.729736,,,
729716483.085866,0.014636,-2.744967,-81.427678,0.046112,-0.005676,1.004318,-0.035391,0.008691,-0.022275,62.58989,12.371658,-149.729736,,,
729716483.08611,0.014636,-2.74497,-78.350799,0.046112,-0.005676,1.004318,-0.035391,0.008691,-0.022275,62.58989,12.371658,-149.729736,,,
729716483.088017,0.014636,-2.744967,-81.427678,0.046112,-0.005676,1.004318,-0.035391,0.008691,-0.022275,62.58989,12.371658,-149.729736,,,
729716483.088237,0.014636,-2.74497,-78.350799,0.046112,-0.005676,1.004318,-0.035391,0.008691,-0.022275,62.58989,12.371658,-149.729736,,,
729716483.092457,0.001979,-2.741936,-81.431974,0.046112,-0.005676,1.004318,-0.052761,0.023941,-0.011308,62.58989,12.371658,-149.729736,,,
729716483.092678,0.001979,-2.741939,-78.355095,0.046112,-0.005676,1.004318,-0.052761,0.023941,-0.011308,62.58989,12.371658,-149.729736,,,
729716483.096371,-0.012112,-2.737389,-81.434988,0.046997,0.002075,0.991974,-0.052761,0.023941,-0.011308,62.58989,12.371658,-149.729736,,,
729716483.096631,-0.012112,-2.737392,-78.35811,0.046997,0.002075,0.991974,-0.052761,0.023941,-0.011308,62.58989,12.371658,-149.729736,,,
729716483.097962,-0.012112,-2.737389,-81.434988,0.046997,0.002075,0.991974,-0.052761,0.023941,-0.011308,62.58989,12.371658,-149.729736,,,
729716483.098216,-0.012112,-2.737392,-78.35811,0.046997,0.002075,0.991974,-0.052761,0.023941,-0.011308,62.58989,12.371658,-149.729736,,,
729716483.102763,-0.028311,-2.727874,-81.438039,0.046997,0.002075,0.991974,-0.056386,0.040406,-0.012142,62.58989,12.371658,-149.729736,,,
729716483.102994,-0.028311,-2.727877,-78.36116,0.046997,0.002075,0.991974,-0.056386,0.040406,-0.012142,62.58989,12.371658,-149.729736,,,
729716483.105389,-0.028311,-2.715532,-81.441705,0.045425,0.006058,1.000549,-0.056386,0.040406,-0.012142,62.58989,12.371658,-149.729736,,,
729716483.105618,-0.041471,-2.715535,-78.364826,0.045425,0.006058,1.000549,-0.056386,0.040406,-0.012142,62.58989,12.371658,-149.729736,,,
729716483.108497,-0.04147,-2.715532,-81.441705,0.045425,0.006058,1.000549,-0.056386,0.040406,-0.012142,62.58989,12.371658,-149.729736,,,
729716483.108718,-0.041471,-2.715535,-78.364826,0.045425,0.006058,1.000549,-0.056386,0.040406,-0.012142,62.58989,12.371658,-149.729736,,,
729716483.112488,-0.056689,-2.704074,-81.445404,0.045425,0.006058,1.000549,-0.048953,0.040359,-0.010367,62.58989,12.371658,-149.729736,,,
729716483.11273,-0.056689,-2.704077,-78.368526,0.045425,0.006058,1.000549,-0.048953,0.040359,-0.010367,62.58989,12.371658,-149.729736,,,
729716483.116583,-0.066201,-2.692583,-81.448766,0.04483,-0.002258,1.004547,-0.048953,0.040359,-0.010367,62.58989,12.371658,-149.729736,,,
729716483.116844,-0.066201,-2.692586,-78.371888,0.04483,-0.002258,1.004547,-0.048953,0.040359,-0.010367,62.58989,12.371658,-149.729736,,,
729716483.11857,-0.066201,-2.692583,-81.448766,0.04483,-0.002258,1.004547,-0.048953,0.040359,-0.010367,62.563919,12.830994,-149.957596,,,
729716483.118796,-0.066201,-2.692586,-78.371888,0.04483,-0.002258,1.004547,-0.048953,0.040359,-0.010367,62.563919,12.830994,-149.957596,,,
729716483.122256,-0.079857,-2.684963,-81.451844,0.04483,-0.002258,1.004547,-0.048757,0.018218,-0.011973,62.563919,12.830994,-149.957596,,,
729716483.122471,-0.079857,-2.684966,-78.374966,0.04483,-0.002258,1.004547,-0.048757,0.018218,-0.011973,62.563919,12.830994,-149.957596,,,
729716483.125448,-0.090426,-2.678542,-81.45537,0.037933,-0.009521,1.00264,-0.048757,0.018218,-0.011973,62.563919,12.830994,-149.957596,,,
729716483.125666,-0.090426,-2.678545,-78.378491,0.037933,-0.009521,1.00264,-0.048757,0.018218,-0.011973,62.563919,12.830994,-149.957596,,,
729716483.128129,-0.090426,-2.678542,-81.45537,0.037933,-0.009521,1.00264,-0.048757,0.018218,-0.011973,62.563919,12.830994,-149.957596,,,
729716483.128322,-0.090426,-2.678545,-78.378491,0.037933,-0.009521,1.00264,-0.048757,0.018218,-0.011973,62.563919,12.830994,-149.957596,,,
729716483.132306,-0.106568,-2.676524,-81.458987,0.037933,-0.009521,1.00264,-0.064413,0.008585,-0.010337,62.563919,12.830994,-149.957596,,,
729716483.132533,-0.106569,-2.676527,-78.382108,0.037933,-0.009521,1.00264,-0.064413,0.008585,-0.010337,62.563919,12.830994,-149.957596,,,
729716483.135316,-0.124949,-2.67283,-81.462526,0.038116,-0.007172,0.995132,-0.064413,0.008585,-0.010337,62.563919,12.830994,-149.957596,,,
729716483.135556,-0.124949,-2.672833,-78.385647,0.038116,-0.007172,0.995132,-0.064413,0.008585,-0.010337,62.563919,12.830994,-149.957596,,,
729716483.138055,-0.124949,-2.67283,-81.462526,0.038116,-0.007172,0.995132,-0.064413,0.008585,-0.010337,62.563919,12.830994,-149.957596,,,
729716483.138265,-0.124949,-2.672833,-78.385647,0.038116,-0.007172,0.995132,-0.064413,0.008585,-0.010337,62.563919,12.830994,-149.957596,,,
729716483.142597,-0.14747,-2.669614,-81.466833,0.038116,-0.007172,0.995132,-0.088271,0.021682,-0.015617,62.563919,12.830994,-149.957596,,,
729716483.14282,-0.14747,-2.669617,-78.389954,0.038116,-0.007172,0.995132,-0.088271,0.021682,-0.015617,62.563919,12.830994,-149.957596,,,
729716483.1458,-0.174501,-2.663389,-81.471689,0.040268,-0.00032,0.994827,-0.088271,0.021682,-0.015617,62.563919,12.830994,-149.957596,,,
729716483.146067,-0.174501,-2.663392,-78.39481,0.040268,-0.00032,0.994827,-0.088271,0.021682,-0.015617,62.563919,12.830994,-149.957596,,,
729716483.148019,-0.174501,-2.663389,-81.471689,0.040268,-0.00032,0.994827,-0.088271,0.021682,-0.015617,62.563919,12.830994,-149.957596,,,
729716483.148229,-0.174501,-2.663392,-78.39481,0.040268,-0.00032,0.994827,-0.088271,0.021682,-0.015617,62.563919,12.830994,-149.957596,,,
729716483.152233,-0.201017,-2.658905,-81.476634,0.040268,-0.00032,0.994827,-0.097947,0.02248,-0.016144,62.563919,12.830994,-149.957596,,,
729716483.152443,-0.201017,-2.658908,-78.399756,0.040268,-0.00032,0.994827,-0.097947,0.02248,-0.016144,62.563919,12.830994,-149.957596,,,
729716483.156447,-0.230573,-2.651993,-81.481927,0.044327,0.001022,0.992981,-0.097947,0.02248,-0.016144,62.563919,12.830994,-149.957596,,,
729716483.156697,-0.230573,-2.651995,-78.405049,0.044327,0.001022,0.992981,-0.097947,0.02248,-0.016144,62.563919,12.830994,-149.957596,,,
729716483.157997,-0.230573,-2.651993,-81.481927,0.044327,0.001022,0.992981,-0.097947,0.02248,-0.016144,62.563919,12.830994,-149.957596,,,
729716483.158221,-0.230573,-2.651995,-78.405049,0.044327,0.001022,0.992981,-0.097947,0.02248,-0.016144,62.563919,12.830994,-149.957596,,,
729716483.163053,-0.259981,-2.645443,-81.487435,0.044327,0.001022,0.992981,-0.105199,0.02877,-0.015105,62.576096,13.176849,-150.038162,,,
729716483.163323,-0.259981,-2.645446,-78.410556,0.044327,0.001022,0.992981,-0.105199,0.02877,-0.015105,62.576096,13.176849,-150.038162,,,
729716483.166307,-0.259981,-2.645443,-81.487435,0.047287,-0.003708,0.999786,-0.105199,0.02877,-0.015105,62.576096,13.176849,-150.038162,,,
729716483.166569,-0.289419,-2.63796,-78.415701,0.047287,-0.003708,0.999786,-0.105199,0.02877,-0.015105,62.576096,13.176849,-150.038162,,,
729716483.168659,-0.289419,-2.637957,-81.49258,0.047287,-0.003708,0.999786,-0.105199,0.02877,-0.015105,62.576096,13.176849,-150.038162,,,
729716483.168898,-0.289419,-2.63796,-78.415701,0.047287,-0.003708,0.999786,-0.105199,0.02877,-0.015105,62.576096,13.176849,-150.038162,,,
729716483.172693,-0.317003,-2.629958,-81.497471,0.047287,-0.003708,0.999786,-0.081764,0.028669,-0.011496,62.576096,13.176849,-150.038162,,,
729716483.172928,-0.317003,-2.629961,-78.420593,0.047287,-0.003708,0.999786,-0.081764,0.028669,-0.011496,62.576096,13.176849,-150.038162,,,
729716483.175279,-0.317003,-2.629958,-81.497471,0.044785,-0.010162,1.005447,-0.081764,0.028669,-0.011496,62.576096,13.176849,-150.038162,,,
729716483.175498,-0.336884,-2.62266,-78.424932,0.044785,-0.010162,1.005447,-0.081764,0.028669,-0.011496,62.576096,13.176849,-150.038162,,,
729716483.178775,-0.336884,-2.622657,-81.501811,0.044785,-0.010162,1.005447,-0.081764,0.028669,-0.011496,62.576096,13.176849,-150.038162,,,
729716483.178998,-0.336884,-2.62266,-78.424932,0.044785,-0.010162,1.005447,-0.081764,0.028669,-0.011496,62.576096,13.176849,-150.038162,,,
729716483.182323,-0.355084,-2.616913,-81.505182,0.044785,-0.010162,1.005447,-0.045088,0.01531,-0.009357,62.576096,13.176849,-150.038162,,,
729716483.182565,-0.355084,-2.616916,-78.428303,0.044785,-0.010162,1.005447,-0.045088,0.01531,-0.009357,62.576096,13.176849,-150.038162,,,
729716483.184955,-0.355084,-2.616913,-81.505182,0.04187,-0.015488,1.012375,-0.045088,0.01531,-0.009357,62.576096,13.176849,-150.038162,,,
729716483.185171,-0.363427,-2.613471,-78.430961,0.04187,-0.015488,1.012375,-0.045088,0.01531,-0.009357,62.576096,13.176849,-150.038162,,,
729716483.188442,-0.363427,-2.613468,-81.507839,0.04187,-0.015488,1.012375,-0.045088,0.01531,-0.009357,62.576096,13.176849,-150.038162,,,
729716483.188661,-0.363427,-2.613471,-78.430961,0.04187,-0.015488,1.012375,-0.045088,0.01531,-0.009357,62.576096,13.176849,-150.038162,,,
729716483.192148,-0.372257,-2.611743,-81.510502,0.04187,-0.015488,1.012375,-0.020646,0.002902,-0.011123,62.576096,13.176849,-150.038162,,,
729716483.192369,-0.372257,-2.611746,-78.433624,0.04187,-0.015488,1.012375,-0.020646,0.002902,-0.011123,62.576096,13.176849,-150.038162,,,
729716483.194737,-0.372257,-2.609846,-81.513675,0.043716,-0.015671,1.013168,-0.020646,0.002902,-0.011123,62.576096,13.176849,-150.038162,,,
729716483.194951,-0.378119,-2.609849,-78.436796,0.043716,-0.015671,1.013168,-0.020646,0.002902,-0.011123,62.576096,13.176849,-150.038162,,,
729716483.19856,-0.378119,-2.609846,-81.513675,0.043716,-0.015671,1.013168,-0.020646,0.002902,-0.011123,62.576096,13.176849,-150.038162,,,
729716483.19878,-0.378119,-2.609849,-78.436796,0.043716,-0.015671,1.013168,-0.020646,0.002902,-0.011123,62.576096,13.176849,-150.038162,,,
729716483.203457,-0.383964,-2.611519,-81.517418,0.043716,-0.015671,1.013168,-0.019948,-0.011709,-0.011881,62.466522,13.154297,-150.2155,,,
729716483.203717,-0.383964,-2.611522,-78.44054,0.043716,-0.015671,1.013168,-0.019948,-0.011709,-0.011881,62.466522,13.154297,-150.2155,,,
729716483.20462,-0.383964,-2.611519,-81.517418,0.043716,-0.015671,1.013168,-0.019948,-0.011709,-0.011881,62.466522,13.154297,-150.2155,,,
729716483.204884,-0.391886,-2.612622,-78.444217,0.039322,-0.006287,0.996857,-0.019948,-0.011709,-0.011881,62.466522,13.154297,-150.2155,,,
729716483.208934,-0.391885,-2.612619,-81.521095,0.039322,-0.006287,0.996857,-0.019948,-0.011709,-0.011881,62.466522,13.154297,-150.2155,,,
729716483.209153,-0.391886,-2.612622,-78.444217,0.039322,-0.006287,0.996857,-0.019948,-0.011709,-0.011881,62.466522,13.154297,-150.2155,,,
729716483.212674,-0.400855,-2.618471,-81.524128,0.039322,-0.006287,0.996857,-0.039232,-0.022363,-0.007424,62.466522,13.154297,-150.2155,,,
729716483.212919,-0.400855,-2.618474,-78.44725,0.039322,-0.006287,0.996857,-0.039232,-0.022363,-0.007424,62.466522,13.154297,-150.2155,,,
729716483.214711,-0.400855,-2.618471,-81.524128,0.039322,-0.006287,0.996857,-0.039232,-0.022363,-0.007424,62.466522,13.154297,-150.2155,,,
729716483.214935,-0.411464,-2.621827,-78.44976,0.038635,0.002274,0.985367,-0.039232,-0.022363,-0.007424,62.466522,13.154297,-150.2155,,,
729716483.220582,-0.411464,-2.621824,-81.526638,0.038635,0.002274,0.985367,-0.063353,-0.012314,-0.005628,62.466522,13.154297,-150.2155,,,
729716483.220852,-0.425855,-2.628184,-78.451963,0.038635,0.002274,0.985367,-0.063353,-0.012314,-0.005628,62.466522,13.154297,-150.2155,,,
729716483.221804,-0.425855,-2.628181,-81.528841,0.038635,0.002274,0.985367,-0.063353,-0.012314,-0.005628,62.466522,13.154297,-150.2155,,,
729716483.222018,-0.425855,-2.628184,-78.451963,0.038635,0.002274,0.985367,-0.063353,-0.012314,-0.005628,62.466522,13.154297,-150.2155,,,
729716483.224784,-0.425855,-2.628181,-81.528841,0.042297,0.001373,0.987015,-0.063353,-0.012314,-0.005628,62.466522,13.154297,-150.2155,,,
729716483.224974,-0.440787,-2.630063,-78.453872,0.042297,0.001373,0.987015,-0.063353,-0.012314,-0.005628,62.466522,13.154297,-150.2155,,,
729716483.228496,-0.440787,-2.63006,-81.530751,0.042297,0.001373,0.987015,-0.063353,-0.012314,-0.005628,62.466522,13.154297,-150.2155,,,
729716483.228711,-0.440787,-2.630063,-78.453872,0.042297,0.001373,0.987015,-0.063353,-0.012314,-0.005628,62.466522,13.154297,-150.2155,,,
729716483.233276,-0.462125,-2.6316,-81.5319,0.042297,0.001373,0.987015,-0.084244,-0.000728,0.002386,62.466522,13.154297,-150.2155,,,
729716483.233532,-0.462125,-2.631603,-78.455021,0.042297,0.001373,0.987015,-0.084244,-0.000728,0.002386,62.466522,13.154297,-150.2155,,,
729716483.234624,-0.462125,-2.6316,-81.5319,0.042297,0.001373,0.987015,-0.084244,-0.000728,0.002386,62.466522,13.154297,-150.2155,,,
729716483.234887,-0.483102,-2.632202,-78.455185,0.043854,-0.004578,0.994873,-0.084244,-0.000728,0.002386,62.466522,13.154297,-150.2155,,,
729716483.239548,-0.483102,-2.632199,-81.532064,0.043854,-0.004578,0.994873,-0.084244,-0.000728,0.002386,62.466522,13.154297,-150.2155,,,
729716483.239784,-0.509843,-2.634138,-78.454222,0.043854,-0.004578,0.994873,-0.084244,-0.000728,0.002386,62.466522,13.154297,-150.2155,,,
729716483.242668,-0.509843,-2.634135,-81.5311,0.043854,-0.004578,0.994873,-0.098113,-0.002984,0.010433,62.747437,13.138855,-150.29248,,,
729716483.242913,-0.509843,-2.634138,-78.454222,0.043854,-0.004578,0.994873,-0.098113,-0.002984,0.010433,62.747437,13.138855,-150.29248,,,
729716483.245081,-0.509843,-2.634135,-81.5311,0.043747,-0.005997,0.991882,-0.098113,-0.002984,0.010433,62.747437,13.138855,-150.29248,,,
729716483.245308,-0.536704,-2.636504,-78.452011,0.043747,-0.005997,0.991882,-0.098113,-0.002984,0.010433,62.747437,13.138855,-150.29248,,,
729716483.248898,-0.536704,-2.636501,-81.52889,0.043747,-0.005997,0.991882,-0.098113,-0.002984,0.010433,62.747437,13.138855,-150.29248,,,
729716483.249121,-0.536704,-2.636504,-78.452011,0.043747,-0.005997,0.991882,-0.098113,-0.002984,0.010433,62.747437,13.138855,-150.29248,,,
729716483.251742,-0.566203,-2.637027,-81.526115,0.043747,-0.005997,0.991882,-0.100427,-0.002244,0.012113,62.747437,13.138855,-150.29248,,,
729716483.251963,-0.566203,-2.63703,-78.449237,0.043747,-0.005997,0.991882,-0.100427,-0.002244,0.012113,62.747437,13.138855,-150.29248,,,
729716483.255731,-0.596444,-2.636649,-81.523444,0.041534,-0.009567,1.003571,-0.100427,-0.002244,0.012113,62.747437,13.138855,-150.29248,,,
729716483.255959,-0.596444,-2.636652,-78.446565,0.041534,-0.009567,1.003571,-0.100427,-0.002244,0.012113,62.747437,13.138855,-150.29248,,,
729716483.258046,-0.596444,-2.636649,-81.523444,0.041534,-0.009567,1.003571,-0.100427,-0.002244,0.012113,62.747437,13.138855,-150.29248,,,
729716483.258261,-0.596444,-2.636652,-78.446565,0.041534,-0.009567,1.003571,-0.100427,-0.002244,0.012113,62.747437,13.138855,-150.29248,,,
729716483.262006,-0.625271,-2.639003,-81.521746,0.041534,-0.009567,1.003571,-0.095438,-0.004715,0.004977,62.747437,13.138855,-150.29248,,,
729716483.262222,-0.625271,-2.639006,-78.444867,0.041534,-0.009567,1.003571,-0.095438,-0.004715,0.004977,62.747437,13.138855,-150.29248,,,
729716483.264805,-0.625271,-2.639003,-81.521746,0.041534,-0.009567,1.003571,-0.095438,-0.004715,0.004977,62.747437,13.138855,-150.29248,,,
729716483.265012,-0.653535,-2.6395,-78.444232,0.044159,-0.008972,1.006897,-0.095438,-0.004715,0.004977,62.747437,13.138855,-150.29248,,,
729716483.268778,-0.653535,-2.639497,-81.521111,0.044159,-0.008972,1.006897,-0.095438,-0.004715,0.004977,62.747437,13.138855,-150.29248,,,
729716483.268997,-0.653535,-2.6395,-78.444232,0.044159,-0.008972,1.006897,-0.095438,-0.004715,0.004977,62.747437,13.138855,-150.29248,,,
729716483.273209,-0.678314,-2.641107,-81.520327,0.044159,-0.008972,1.006897,-0.081506,0.005997,0.003588,62.747437,13.138855,-150.29248,,,
729716483.273448,-0.678314,-2.64111,-78.443448,0.044159,-0.008972,1.006897,-0.081506,0.005997,0.003588,62.747437,13.138855,-150.29248,,,
729716483.274682,-0.678314,-2.641107,-81.520327,0.044159,-0.008972,1.006897,-0.081506,0.005997,0.003588,62.747437,13.138855,-150.29248,,,
729716483.274892,-0.702269,-2.639434,-78.442491,0.040115,-0.009766,1.010712,-0.081506,0.005997,0.003588,62.747437,13.138855,-150.29248,,,
729716483.278473,-0.702269,-2.639432,-81.519369,0.040115,-0.009766,1.010712,-0.081506,0.005997,0.003588,62.747437,13.138855,-150.29248,,,
729716483.278681,-0.702269,-2.639434,-78.442491,0.040115,-0.009766,1.010712,-0.081506,0.005997,0.003588,62.747437,13.138855,-150.29248,,,
729716483.283738,-0.72322,-2.638683,-81.5191,0.040115,-0.009766,1.010712,-0.067311,-0.003084,0.00201,62.620789,13.326385,-150.284912,,,
729716483.284009,-0.72322,-2.638685,-78.442222,0.040115,-0.009766,1.010712,-0.067311,-0.003084,0.00201,62.620789,13.326385,-150.284912,,,
729716483.284577,-0.72322,-2.638683,-81.5191,0.040115,-0.009766,1.010712,-0.067311,-0.003084,0.00201,62.620789,13.326385,-150.284912,,,
729716483.284935,-0.72322,-2.636499,-78.442571,0.044266,-0.009293,1.018494,-0.067311,-0.003084,0.00201,62.620789,13.326385,-150.284912,,,
729716483.288791,-0.738296,-2.636496,-81.51945,0.044266,-0.009293,1.018494,-0.067311,-0.003084,0.00201,62.620789,13.326385,-150.284912,,,
729716483.289015,-0.738296,-2.636499,-78.442571,0.044266,-0.009293,1.018494,-0.067311,-0.003084,0.00201,62.620789,13.326385,-150.284912,,,
729716483.293108,-0.753831,-2.638809,-81.519802,0.044266,-0.009293,1.018494,-0.043186,-0.001131,-5e-05,62.620789,13.326385,-150.284912,,,
729716483.293365,-0.753831,-2.638812,-78.442923,0.044266,-0.009293,1.018494,-0.043186,-0.001131,-5e-05,62.620789,13.326385,-150.284912,,,
729716483.294694,-0.753831,-2.638809,-81.519802,0.044266,-0.009293,1.018494,-0.043186,-0.001131,-5e-05,62.620789,13.326385,-150.284912,,,
729716483.295124,-0.760043,-2.637776,-78.442939,0.046951,-0.011765,1.014191,-0.043186,-0.001131,-5e-05,62.620789,13.326385,-150.284912,,,
729716483.299143,-0.760043,-2.637773,-81.519817,0.046951,-0.011765,1.014191,-0.043186,-0.001131,-5e-05,62.620789,13.326385,-150.284912,,,
729716483.299386,-0.760043,-2.637776,-78.442939,0.046951,-0.011765,1.014191,-0.043186,-0.001131,-5e-05,62.620789,13.326385,-150.284912,,,
729716483.301943,-0.769701,-2.638172,-81.520191,0.046951,-0.011765,1.014191,-0.023321,-0.00095,-0.004568,62.620789,13.326385,-150.284912,,,
729716483.302175,-0.769701,-2.638175,-78.443312,0.046951,-0.011765,1.014191,-0.023321,-0.00095,-0.004568,62.620789,13.326385,-150.284912,,,
729716483.304788,-0.769701,-2.638172,-81.520191,0.046951,-0.011765,1.014191,-0.023321,-0.00095,-0.004568,62.620789,13.326385,-150.284912,,,
729716483.304976,-0.771484,-2.638648,-78.444041,0.042389,-0.011932,1.017776,-0.023321,-0.00095,-0.004568,62.620789,13.326385,-150.284912,,,
729716483.308595,-0.771484,-2.638645,-81.520919,0.042389,-0.011932,1.017776,-0.023321,-0.00095,-0.004568,62.620789,13.326385,-150.284912,,,
729716483.308802,-0.771484,-2.638648,-78.444041,0.042389,-0.011932,1.017776,-0.023321,-0.00095,-0.004568,62.620789,13.326385,-150.284912,,,
729716483.312202,-0.775627,-2.642584,-81.521985,0.042389,-0.011932,1.017776,-0.011036,-0.012446,-0.004303,62.620789,13.326385,-150.284912,,,
729716483.312422,-0.775627,-2.642587,-78.445106,0.042389,-0.011932,1.017776,-0.011036,-0.012446,-0.004303,62.620789,13.326385,-150.284912,,,
729716483.314718,-0.775627,-2.642584,-81.521985,0.042389,-0.011932,1.017776,-0.011036,-0.012446,-0.004303,62.620789,13.326385,-150.284912,,,
729716483.314914,-0.774988,-2.646046,-78.446098,0.045334,-0.002792,1.007919,-0.011036,-0.012446,-0.004303,62.620789,13.326385,-150.284912,,,
729716483.319381,-0.774988,-2.646043,-81.522977,0.045334,-0.002792,1.007919,-0.011036,-0.012446,-0.004303,62.620789,13.326385,-150.284912,,,
729716483.31963,-0.774988,-2.646046,-78.446098,0.045334,-0.002792,1.007919,-0.011036,-0.012446,-0.004303,62.620789,13.326385,-150.284912,,,
729716483.322663,-0.777413,-2.649316,-81.523543,0.045334,-0.002792,1.007919,-0.015476,-0.000934,-0.001658,62.59108,13.299194,-150.476593,,,
729716483.322896,-0.777413,-2.649319,-78.446664,0.045334,-0.002792,1.007919,-0.015476,-0.000934,-0.001658,62.59108,13.299194,-150.476593,,,
729716483.324731,-0.777413,-2.649316,-81.523543,0.045334,-0.002792,1.007919,-0.015476,-0.000934,-0.001658,62.59108,13.299194,-150.476593,,,
729716483.324927,-0.777413,-2.649319,-78.446664,0.03862,-0.001038,1.008652,-0.015476,-0.000934,-0.001658,62.59108,13.299194,-150.476593,,,
729716483.32832,-0.77912,-2.649845,-81.523586,0.03862,-0.001038,1.008652,-0.015476,-0.000934,-0.001658,62.59108,13.299194,-150.476593,,,
729716483.328527,-0.77912,-2.649848,-78.446708,0.03862,-0.001038,1.008652,-0.015476,-0.000934,-0.001658,62.59108,13.299194,-150.476593,,,
729716483.333426,-0.785847,-2.652347,-81.522935,0.03862,-0.001038,1.008652,-0.032637,-0.01281,0.007089,62.59108,13.299194,-150.476593,,,
729716483.333681,-0.785847,-2.65235,-78.446057,0.03862,-0.001038,1.008652,-0.032637,-0.01281,0.007089,62.59108,13.299194,-150.476593,,,
729716483.334571,-0.785847,-2.652347,-81.522935,0.03862,-0.001038,1.008652,-0.032637,-0.01281,0.007089,62.59108,13.299194,-150.476593,,,
729716483.335048,-0.794551,-2.654854,-78.444069,0.035156,0.006104,0.99823,-0.032637,-0.01281,0.007089,62.59108,13.299194,-150.476593,,,
729716483.339757,-0.794552,-2.654851,-81.520948,0.035156,0.006104,0.99823,-0.032637,-0.01281,0.007089,62.59108,13.299194,-150.476593,,,
729716483.340047,-0.808448,-2.661535,-78.439971,0.035156,0.006104,0.99823,-0.062609,-0.021303,0.020539,62.59108,13.299194,-150.476593,,,
729716483.342566,-0.808448,-2.661532,-81.516849,0.035156,0.006104,0.99823,-0.062609,-0.021303,0.020539,62.59108,13.299194,-150.476593,,,
729716483.342825,-0.808448,-2.661535,-78.439971,0.035156,0.006104,0.99823,-0.062609,-0.021303,0.020539,62.59108,13.299194,-150.476593,,,
729716483.344888,-0.808448,-2.661532,-81.516849,0.035156,0.006104,0.99823,-0.062609,-0.021303,0.020539,62.59108,13.299194,-150.476593,,,
729716483.345091,-0.808448,-2.666997,-78.434273,0.03476,0.006271,0.985184,-0.062609,-0.021303,0.020539,62.59108,13.299194,-150.476593,,,
729716483.34942,-0.824016,-2.666994,-81.511152,0.03476,0.006271,0.985184,-0.062609,-0.021303,0.020539,62.59108,13.299194,-150.476593,,,
729716483.349656,-0.824016,-2.666997,-78.434273,0.03476,0.006271,0.985184,-0.062609,-0.021303,0.020539,62.59108,13.299194,-150.476593,,,
729716483.352081,-0.845574,-2.671568,-81.505003,0.03476,0.006271,0.985184,-0.082215,-0.007298,0.024911,62.59108,13.299194,-150.476593,,,
729716483.352309,-0.845574,-2.67157,-78.428124,0.03476,0.006271,0.985184,-0.082215,-0.007298,0.024911,62.59108,13.299194,-150.476593,,,
729716483.354771,-0.845574,-2.671568,-81.505003,0.03476,0.006271,0.985184,-0.082215,-0.007298,0.024911,62.59108,13.299194,-150.476593,,,
729716483.354968,-0.845574,-2.67157,-78.428124,0.03476,0.006271,0.985184,-0.082215,-0.007298,0.024911,62.59108,13.299194,-150.476593,,,
729716483.359219,-0.868116,-2.672129,-81.499086,0.037262,0.007355,0.995544,-0.082215,-0.007298,0.024911,62.59108,13.299194,-150.476593,,,
729716483.359459,-0.868116,-2.672132,-78.422207,0.037262,0.007355,0.995544,-0.082215,-0.007298,0.024911,62.59108,13.299194,-150.476593,,,
729716483.36251,-0.893778,-2.675771,-81.494173,0.037262,0.007355,0.995544,-0.08756,-0.010304,0.015919,62.59108,13.299194,-150.476593,,,
729716483.362753,-0.893778,-2.675774,-78.417295,0.037262,0.007355,0.995544,-0.08756,-0.010304,0.015919,62.59108,13.299194,-150.147858,,,
729716483.365343,-0.893778,-2.675771,-81.494173,0.037262,0.007355,0.995544,-0.08756,-0.010304,0.015919,62.68895,13.552155,-150.147858,,,
729716483.365594,-0.916743,-2.678715,-78.413498,0.044968,0.008636,0.994629,-0.08756,-0.010304,0.015919,62.68895,13.552155,-150.147858,,,
729716483.368622,-0.916743,-2.678712,-81.490376,0.044968,0.008636,0.994629,-0.08756,-0.010304,0.015919,62.68895,13.552155,-150.147858,,,
729716483.368845,-0.916743,-2.678715,-78.413498,0.044968,0.008636,0.994629,-0.08756,-0.010304,0.015919,62.68895,13.552155,-150.147858,,,
729716483.372496,-0.941275,-2.68178,-81.487785,0.044968,0.008636,0.994629,-0.081047,-0.004936,0.006348,62.68895,13.552155,-150.147858,,,
729716483.372744,-0.941275,-2.681783,-78.410907,0.044968,0.008636,0.994629,-0.081047,-0.004936,0.006348,62.68895,13.552155,-150.147858,,,
729716483.374738,-0.941275,-2.68178,-81.487785,0.044968,0.008636,0.994629,-0.081047,-0.004936,0.006348,62.68895,13.552155,-150.147858,,,
729716483.374979,-0.941275,-2.681783,-78.410907,0.044968,0.008636,0.994629,-0.081047,-0.004936,0.006348,62.68895,13.552155,-150.147858,,,
729716483.38009,-0.962816,-2.683255,-81.486377,0.047668,-0.002365,1.004425,-0.081047,-0.004936,0.006348,62.68895,13.552155,-150.147858,,,
729716483.380352,-0.98298,-2.686378,-78.408957,0.047668,-0.002365,1.004425,-0.056498,-0.01838,0.004237,62.68895,13.552155,-150.147858,,,
729716483.382513,-0.98298,-2.686375,-81.485835,0.047668,-0.002365,1.004425,-0.056498,-0.01838,0.004237,62.68895,13.552155,-150.147858,,,
729716483.382744,-0.98298,-2.686378,-78.408957,0.047668,-0.002365,1.004425,-0.056498,-0.01838,0.004237,62.68895,13.552155,-150.147858,,,
729716483.384658,-0.98298,-2.686375,-81.485835,0.047668,-0.002365,1.004425,-0.056498,-0.01838,0.004237,62.68895,13.552155,-150.147858,,,
729716483.384984,-0.98298,-2.686378,-78.408957,0.047668,-0.002365,1.004425,-0.056498,-0.01838,0.004237,62.68895,13.552155,-150.147858,,,
729716483.388981,-0.996463,-2.690356,-81.485506,0.047058,-0.013535,1.012863,-0.056498,-0.01838,0.004237,62.68895,13.552155,-150.147858,,,
729716483.389211,-0.996463,-2.690359,-78.408627,0.047058,-0.013535,1.012863,-0.056498,-0.01838,0.004237,62.68895,13.552155,-150.147858,,,
729716483.392589,-1.008135,-2.69992,-81.484912,0.047058,-0.013535,1.012863,-0.020112,-0.046843,0.004434,62.68895,13.552155,-150.147858,,,
729716483.392827,-1.008135,-2.699923,-78.408034,0.047058,-0.013535,1.012863,-0.020112,-0.046843,0.004434,62.68895,13.552155,-150.147858,,,
729716483.394871,-1.008135,-2.69992,-81.484912,0.047058,-0.013535,1.012863,-0.020112,-0.046843,0.004434,62.68895,13.552155,-150.147858,,,
729716483.395066,-1.008135,-2.699923,-78.408034,0.042068,-0.022339,1.018082,-0.020112,-0.046843,0.004434,62.68895,13.552155,-150.147858,,,
729716483.399111,-1.008915,-2.711618,-81.483725,0.042068,-0.022339,1.018082,-0.020112,-0.046843,0.004434,62.68895,13.552155,-150.147858,,,
729716483.399343,-1.008915,-2.711621,-78.406847,0.042068,-0.022339,1.018082,-0.020112,-0.046843,0.004434,62.68895,13.552155,-150.147858,,,
729716483.403052,-1.009618,-2.728824,-81.481795,0.042068,-0.022339,1.018082,0.012727,-0.063094,0.004289,62.68895,13.552155,-150.147858,,,
729716483.403307,-1.009618,-2.728827,-78.404916,0.042068,-0.022339,1.018082,0.012727,-0.063094,0.004289,62.68895,13.552155,-150.147858,,,
729716483.405393,-1.009618,-2.728824,-81.481795,0.042068,-0.022339,1.018082,0.012727,-0.063094,0.004289,62.564667,13.726227,-149.867111,,,
729716483.405642,-0.999358,-2.743653,-78.403204,0.03862,-0.031372,1.02655,0.012727,-0.063094,0.004289,62.564667,13.726227,-149.867111,,,
729716483.409119,-0.999358,-2.74365,-81.480082,0.03862,-0.031372,1.02655,0.012727,-0.063094,0.004289,62.564667,13.726227,-149.867111,,,
729716483.409351,-0.999358,-2.743653,-78.403204,0.03862,-0.031372,1.02655,0.012727,-0.063094,0.004289,62.564667,13.726227,-149.867111,,,
729716483.412349,-0.992055,-2.761866,-81.478766,0.03862,-0.031372,1.02655,0.039103,-0.057053,0.004319,62.564667,13.726227,-149.867111,,,
729716483.412594,-0.992055,-2.761869,-78.401887,0.03862,-0.031372,1.02655,0.039103,-0.057053,0.004319,62.564667,13.726227,-149.867111,,,
729716483.414804,-0.992055,-2.761866,-81.478766,0.03862,-0.031372,1.02655,0.039103,-0.057053,0.004319,62.564667,13.726227,-149.867111,,,
729716483.415056,-0.992055,-2.761869,-78.401887,0.041504,-0.034317,1.03183,0.039103,-0.057053,0.004319,62.564667,13.726227,-149.867111,,,
729716483.418885,-0.973671,-2.773786,-81.476759,0.041504,-0.034317,1.03183,0.039103,-0.057053,0.004319,62.564667,13.726227,-149.867111,,,
729716483.419114,-0.973671,-2.773789,-78.399881,0.041504,-0.034317,1.03183,0.039103,-0.057053,0.004319,62.564667,13.726227,-149.867111,,,
729716483.422796,-0.960507,-2.7893,-81.473704,0.041504,-0.034317,1.03183,0.054779,-0.042444,0.01253,62.564667,13.726227,-149.867111,,,
729716483.423029,-0.960507,-2.789303,-78.396826,0.041504,-0.034317,1.03183,0.054779,-0.042444,0.01253,62.564667,13.726227,-149.867111,,,
729716483.424654,-0.960507,-2.7893,-81.473704,0.041504,-0.034317,1.03183,0.054779,-0.042444,0.01253,62.564667,13.726227,-149.867111,,,
729716483.424912,-0.960507,-2.789303,-78.396826,0.041504,-0.034317,1.03183,0.054779,-0.042444,0.01253,62.564667,13.726227,-149.867111,,,
729716483.429188,-0.938816,-2.797995,-81.46918,0.048996,-0.037537,1.031998,0.054779,-0.042444,0.01253,62.564667,13.726227,-149.867111,,,
729716483.429411,-0.938815,-2.797997,-78.392301,0.048996,-0.037537,1.031998,0.054779,-0.042444,0.01253,62.564667,13.726227,-149.867111,,,
729716483.432562,-0.923506,-2.808122,-81.462463,0.048996,-0.037537,1.031998,0.052656,-0.021965,0.029247,62.564667,13.726227,-149.867111,,,
729716483.432788,-0.923506,-2.808125,-78.385584,0.048996,-0.037537,1.031998,0.052656,-0.021965,0.029247,62.564667,13.726227,-149.867111,,,
729716483.434664,-0.923506,-2.808122,-81.462463,0.048996,-0.037537,1.031998,0.052656,-0.021965,0.029247,62.564667,13.726227,-149.867111,,,
729716483.434969,-0.923506,-2.808125,-78.385584,0.048996,-0.037537,1.031998,0.052656,-0.021965,0.029247,62.564667,13.726227,-149.867111,,,
729716483.438691,-0.902247,-2.812877,-81.452868,0.049744,-0.042084,1.026291,0.052656,-0.021965,0.029247,62.564667,13.726227,-149.867111,,,
729716483.438902,-0.902247,-2.81288,-78.375989,0.049744,-0.042084,1.026291,0.052656,-0.021965,0.029247,62.564667,13.726227,-149.867111,,,
729716483.44278,-0.889103,-2.818464,-81.441472,0.049744,-0.042084,1.026291,0.044,-0.010009,0.037026,62.564667,13.726227,-149.867111,,,
729716483.443056,-0.889103,-2.818466,-78.364593,0.049744,-0.042084,1.026291,0.044,-0.010009,0.037026,62.564667,13.726227,-149.867111,,,
729716483.445323,-0.889103,-2.818464,-81.441472,0.049744,-0.042084,1.026291,0.044,-0.010009,0.037026,62.614746,13.628296,-149.883987,,,
729716483.445664,-0.871016,-2.821411,-78.353114,0.055084,-0.039291,1.017456,0.044,-0.010009,0.037026,62.614746,13.628296,-149.883987,,,
729716483.448985,-0.871016,-2.821408,-81.429992,0.055084,-0.039291,1.017456,0.044,-0.010009,0.037026,62.614746,13.628296,-149.883987,,,
729716483.449219,-0.871016,-2.821411,-78.353114,0.055084,-0.039291,1.017456,0.044,-0.010009,0.037026,62.614746,13.628296,-149.883987,,,
729716483.453471,-0.860469,-2.823659,-81.419219,0.055084,-0.039291,1.017456,0.031046,0.004626,0.027089,62.614746,13.628296,-149.883987,,,
729716483.453743,-0.860469,-2.823662,-78.34234,0.055084,-0.039291,1.017456,0.031046,0.004626,0.027089,62.614746,13.628296,-149.883987,,,
729716483.454543,-0.860469,-2.823659,-81.419219,0.055084,-0.039291,1.017456,0.031046,0.004626,0.027089,62.614746,13.628296,-149.883987,,,
729716483.454949,-0.860469,-2.823662,-78.34234,0.055084,-0.039291,1.017456,0.031046,0.004626,0.027089,62.614746,13.628296,-149.883987,,,
729716483.459182,-0.849256,-2.823395,-81.409774,0.061752,-0.03363,1.008789,0.031046,0.004626,0.027089,62.614746,13.628296,-149.883987,,,
729716483.459413,-0.849256,-2.823398,-78.332895,0.061752,-0.03363,1.008789,0.031046,0.004626,0.027089,62.614746,13.628296,-149.883987,,,
729716483.462648,-0.843697,-2.822158,-81.40367,0.061752,-0.03363,1.008789,0.008394,0.011909,0.006748,62.614746,13.628296,-149.883987,,,
729716483.462906,-0.843697,-2.822161,-78.326791,0.061752,-0.03363,1.008789,0.008394,0.011909,0.006748,62.614746,13.628296,-149.883987,,,
729716483.464723,-0.843697,-2.822158,-81.40367,0.061752,-0.03363,1.008789,0.008394,0.011909,0.006748,62.614746,13.628296,-149.883987,,,
729716483.464959,-0.843697,-2.822161,-78.326791,0.061752,-0.03363,1.008789,0.008394,0.011909,0.006748,62.614746,13.628296,-149.883987,,,
729716483.468618,-0.840785,-2.818062,-81.401257,0.069092,-0.026398,0.998505,0.008394,0.011909,0.006748,62.614746,13.628296,-149.883987,,,
729716483.468823,-0.840785,-2.818064,-78.324379,0.069092,-0.026398,0.998505,0.008394,0.011909,0.006748,62.614746,13.628296,-149.883987,,,
729716483.473604,-0.840019,-2.815492,-81.402919,0.069092,-0.026398,0.998505,-0.006335,0.011604,-0.022798,62.614746,13.628296,-149.883987,,,
729716483.473877,-0.840019,-2.815495,-78.32604,0.069092,-0.026398,0.998505,-0.006335,0.011604,-0.022798,62.614746,13.628296,-149.883987,,,
729716483.47456,-0.840019,-2.815492,-81.402919,0.069092,-0.026398,0.998505,-0.006335,0.011604,-0.022798,62.614746,13.628296,-149.883987,,,
729716483.474904,-0.840019,-2.815495,-78.32604,0.069092,-0.026398,0.998505,-0.006335,0.011604,-0.022798,62.614746,13.628296,-149.883987,,,
729716483.479185,-0.844457,-2.809547,-81.409204,0.074326,-0.017029,0.987534,-0.006335,0.011604,-0.022798,62.614746,13.628296,-149.883987,,,
729716483.479424,-0.844457,-2.80955,-78.332325,0.074326,-0.017029,0.987534,-0.006335,0.011604,-0.022798,62.614746,13.628296,-149.883987,,,
729716483.482105,-0.846174,-2.808003,-81.419066,0.074326,-0.017029,0.987534,-0.007788,0.00741,-0.046082,62.614746,13.628296,-149.883987,,,
729716483.482326,-0.846174,-2.808006,-78.342187,0.074326,-0.017029,0.987534,-0.007788,0.00741,-0.046082,62.614746,13.628296,-149.883987,,,
729716483.484735,-0.846174,-2.808003,-81.419066,0.074326,-0.017029,0.987534,-0.007788,0.00741,-0.046082,62.614746,13.628296,-149.883987,,,
729716483.48493,-0.846174,-2.808006,-78.342187,0.074326,-0.017029,0.987534,-0.007788,0.00741,-0.046082,62.614746,13.628296,-149.883987,,,
729716483.489754,-0.853488,-2.802599,-81.431174,0.078369,-0.019684,0.98439,-0.007788,0.00741,-0.046082,62.694611,13.568115,-150.442902,,,
729716483.490038,-0.853488,-2.802602,-78.354296,0.078369,-0.019684,0.98439,-0.007788,0.00741,-0.046082,62.694611,13.568115,-150.442902,,,
729716483.492847,-0.854474,-2.802981,-81.444805,0.078369,-0.019684,0.98439,-0.004408,-0.001358,-0.048677,62.694611,13.568115,-150.442902,,,
729716483.493098,-0.854474,-2.802984,-78.367926,0.078369,-0.019684,0.98439,-0.004408,-0.001358,-0.048677,62.694611,13.568115,-150.442902,,,
729716483.494657,-0.854474,-2.802981,-81.444805,0.078369,-0.019684,0.98439,-0.004408,-0.001358,-0.048677,62.694611,13.568115,-150.442902,,,
729716483.49506,-0.854474,-2.802984,-78.367926,0.078369,-0.019684,0.98439,-0.004408,-0.001358,-0.048677,62.694611,13.568115,-150.442902,,,
729716483.49916,-0.861434,-2.801527,-81.458679,0.073624,-0.027771,0.979828,-0.004408,-0.001358,-0.048677,62.694611,13.568115,-150.442902,,,
729716483.499386,-0.861434,-2.80153,-78.381801,0.073624,-0.027771,0.979828,-0.004408,-0.001358,-0.048677,62.694611,13.568115,-150.442902,,,
729716483.503566,-0.860913,-2.802244,-81.471933,0.073624,-0.027771,0.979828,0.003837,0.003533,-0.046065,62.694611,13.568115,-150.442902,,,
729716483.503841,-0.860913,-2.802247,-78.395055,0.073624,-0.027771,0.979828,0.003837,0.003533,-0.046065,62.694611,13.568115,-150.442902,,,
729716483.504533,-0.860913,-2.802244,-81.471933,0.073624,-0.027771,0.979828,0.003837,0.003533,-0.046065,62.694611,13.568115,-150.442902,,,
729716483.504903,-0.860913,-2.802247,-78.395055,0.073624,-0.027771,0.979828,0.003837,0.003533,-0.046065,62.694611,13.568115,-150.442902,,,
729716483.508794,-0.867288,-2.80139,-81.484452,0.071686,-0.029755,0.976746,0.003837,0.003533,-0.046065,62.694611,13.568115,-150.442902,,,
729716483.50901,-0.867288,-2.801393,-78.407574,0.071686,-0.029755,0.976746,0.003837,0.003533,-0.046065,62.694611,13.568115,-150.442902,,,
729716483.512678,-0.864883,-2.798247,-81.496351,0.071686,-0.029755,0.976746,0.01018,0.024636,-0.037506,62.694611,13.568115,-150.442902,,,
729716483.512922,-0.864883,-2.79825,-78.419473,0.071686,-0.029755,0.976746,0.01018,0.024636,-0.037506,62.694611,13.568115,-150.442902,,,
729716483.514731,-0.864883,-2.798247,-81.496351,0.071686,-0.029755,0.976746,0.01018,0.024636,-0.037506,62.694611,13.568115,-150.442902,,,
729716483.514947,-0.864883,-2.79825,-78.419473,0.071686,-0.029755,0.976746,0.01018,0.024636,-0.037506,62.694611,13.568115,-150.442902,,,
729716483.519057,-0.870517,-2.792829,-81.506737,0.068054,-0.031448,0.97876,0.01018,0.024636,-0.037506,62.694611,13.568115,-150.442902,,,
729716483.51928,-0.870517,-2.792832,-78.429859,0.068054,-0.031448,0.97876,0.01018,0.024636,-0.037506,62.694611,13.568115,-150.442902,,,
729716483.522255,-0.866388,-2.78596,-81.515477,0.068054,-0.031448,0.97876,0.018704,0.031985,-0.02522,62.694611,13.568115,-150.442902,,,
729716483.522481,-0.866388,-2.785963,-78.438598,0.068054,-0.031448,0.97876,0.018704,0.031985,-0.02522,62.694611,13.568115,-150.442902,,,
729716483.524713,-0.866388,-2.78596,-81.515477,0.068054,-0.031448,0.97876,0.018704,0.031985,-0.02522,62.694611,13.568115,-150.442902,,,
729716483.524933,-0.866388,-2.785963,-78.438598,0.068054,-0.031448,0.97876,0.018704,0.031985,-0.02522,62.694611,13.568115,-150.442902,,,
729716483.529258,-0.869485,-2.781579,-81.522568,0.06012,-0.033508,0.975555,0.018704,0.031985,-0.02522,62.581451,13.455399,-150.076538,,,
729716483.529494,-0.869485,-2.781582,-78.445689,0.06012,-0.033508,0.975555,0.018704,0.031985,-0.02522,62.581451,13.455399,-150.076538,,,
729716483.532549,-0.864831,-2.773209,-81.527974,0.06012,-0.033508,0.975555,0.007164,0.031433,-0.017974,62.581451,13.455399,-150.076538,,,
729716483.532794,-0.864831,-2.773212,-78.451095,0.06012,-0.033508,0.975555,0.007164,0.031433,-0.017974,62.581451,13.455399,-150.076538,,,
729716483.534667,-0.864831,-2.773209,-81.527974,0.06012,-0.033508,0.975555,0.007164,0.031433,-0.017974,62.581451,13.455399,-150.076538,,,
729716483.534935,-0.864831,-2.773212,-78.451095,0.06012,-0.033508,0.975555,0.007164,0.031433,-0.017974,62.581451,13.455399,-150.076538,,,
729716483.538988,-0.867023,-2.770668,-81.53313,0.05278,-0.030823,0.972168,0.007164,0.031433,-0.017974,62.581451,13.455399,-150.076538,,,
729716483.539233,-0.867023,-2.770671,-78.456251,0.05278,-0.030823,0.972168,0.007164,0.031433,-0.017974,62.581451,13.455399,-150.076538,,,
729716483.543034,-0.866694,-2.765648,-81.537979,0.05278,-0.030823,0.972168,-0.011921,0.004098,-0.015601,62.581451,13.455399,-150.076538,,,
729716483.543289,-0.866694,-2.765651,-78.461101,0.05278,-0.030823,0.972168,-0.011921,0.004098,-0.015601,62.581451,13.455399,-150.076538,,,
729716483.544633,-0.866694,-2.765648,-81.537979,0.05278,-0.030823,0.972168,-0.011921,0.004098,-0.015601,62.581451,13.455399,-150.076538,,,
729716483.54501,-0.866694,-2.765651,-78.461101,0.05278,-0.030823,0.972168,-0.011921,0.004098,-0.015601,62.581451,13.455399,-150.076538,,,
729716483.548628,-0.871935,-2.771006,-81.542734,0.048065,-0.022812,0.959305,-0.011921,0.004098,-0.015601,62.581451,13.455399,-150.076538,,,
729716483.548848,-0.871935,-2.771009,-78.465856,0.048065,-0.022812,0.959305,-0.011921,0.004098,-0.015601,62.581451,13.455399,-150.076538,,,
729716483.553284,-0.879828,-2.773458,-81.547696,0.048065,-0.022812,0.959305,-0.041502,-0.010225,-0.022627,62.581451,13.455399,-150.076538,,,
729716483.553551,-0.879828,-2.773461,-78.470818,0.048065,-0.022812,0.959305,-0.041502,-0.010225,-0.022627,62.581451,13.455399,-150.076538,,,
729716483.55457,-0.879828,-2.773458,-81.547696,0.048065,-0.022812,0.959305,-0.041502,-0.010225,-0.022627,62.581451,13.455399,-150.076538,,,
729716483.554901,-0.879828,-2.773461,-78.470818,0.048065,-0.022812,0.959305,-0.041502,-0.010225,-0.022627,62.581451,13.455399,-150.076538,,,
729716483.558995,-0.892792,-2.784612,-81.55382,0.046692,-0.018661,0.953949,-0.041502,-0.010225,-0.022627,62.581451,13.455399,-150.076538,,,
729716483.55921,-0.892792,-2.784615,-78.476941,0.046692,-0.018661,0.953949,-0.041502,-0.010225,-0.022627,62.581451,13.455399,-150.076538,,,
729716483.562933,-0.91037,-2.790226,-81.561678,0.046692,-0.018661,0.953949,-0.083295,-0.021094,-0.030125,62.581451,13.455399,-150.076538,,,
729716483.563192,-0.91037,-2.790229,-78.484799,0.046692,-0.018661,0.953949,-0.083295,-0.021094,-0.030125,62.581451,13.455399,-150.076538,,,
729716483.564596,-0.91037,-2.790226,-81.561678,0.046692,-0.018661,0.953949,-0.083295,-0.021094,-0.030125,62.581451,13.455399,-150.076538,,,
729716483.564872,-0.91037,-2.790229,-78.484799,0.046692,-0.018661,0.953949,-0.083295,-0.021094,-0.030125,62.581451,13.455399,-150.076538,,,
729716483.569774,-0.934553,-2.803886,-81.571094,0.053497,-0.014847,0.954559,-0.083295,-0.021094,-0.030125,62.435211,13.561401,-150.403366,,,
729716483.570028,-0.934553,-2.803889,-78.494215,0.053497,-0.014847,0.954559,-0.083295,-0.021094,-0.030125,62.435211,13.561401,-150.403366,,,
729716483.572683,-0.961887,-2.808801,-81.581144,0.053497,-0.014847,0.954559,-0.106208,-0.005575,-0.032786,62.435211,13.561401,-150.403366,,,
729716483.572959,-0.961887,-2.808804,-78.504266,0.053497,-0.014847,0.954559,-0.106208,-0.005575,-0.032786,62.435211,13.561401,-150.403366,,,
729716483.574672,-0.961887,-2.808801,-81.581144,0.053497,-0.014847,0.954559,-0.106208,-0.005575,-0.032786,62.435211,13.561401,-150.403366,,,
729716483.574898,-0.961887,-2.808804,-78.504266,0.053497,-0.014847,0.954559,-0.106208,-0.005575,-0.032786,62.435211,13.561401,-150.403366,,,
729716483.579606,-0.995548,-2.819067,-81.591955,0.056747,-0.016144,0.964584,-0.106208,-0.005575,-0.032786,62.435211,13.561401,-150.403366,,,
729716483.579847,-0.995548,-2.81907,-78.515076,0.056747,-0.016144,0.964584,-0.106208,-0.005575,-0.032786,62.435211,13.561401,-150.403366,,,
729716483.583308,-1.028144,-2.819031,-81.602758,0.056747,-0.016144,0.964584,-0.122822,0.012251,-0.031696,62.435211,13.561401,-150.403366,,,
729716483.583574,-1.028144,-2.819034,-78.52588,0.056747,-0.016144,0.964584,-0.122822,0.012251,-0.031696,62.435211,13.561401,-150.403366,,,
729716483.584582,-1.028144,-2.819031,-81.602758,0.056747,-0.016144,0.964584,-0.122822,0.012251,-0.031696,62.435211,13.561401,-150.403366,,,
729716483.584973,-1.028144,-2.819034,-78.52588,0.056747,-0.016144,0.964584,-0.122822,0.012251,-0.031696,62.435211,13.561401,-150.403366,,,
729716483.589175,-1.065419,-2.821798,-81.613212,0.058289,-0.025131,0.976334,-0.122822,0.012251,-0.031696,62.435211,13.561401,-150.403366,,,
729716483.589397,-1.065419,-2.821801,-78.536333,0.058289,-0.025131,0.976334,-0.122822,0.012251,-0.031696,62.435211,13.561401,-150.403366,,,
729716483.592275,-1.101608,-2.817072,-81.623162,0.058289,-0.025131,0.976334,-0.126988,0.02087,-0.026691,62.435211,13.561401,-150.403366,,,
729716483.592503,-1.101608,-2.817075,-78.546283,0.058289,-0.025131,0.976334,-0.126988,0.02087,-0.026691,62.435211,13.561401,-150.403366,,,
729716483.594953,-1.101608,-2.817072,-81.623162,0.058289,-0.025131,0.976334,-0.126988,0.02087,-0.026691,62.435211,13.561401,-150.403366,,,
729716483.595165,-1.101608,-2.817075,-78.546283,0.058289,-0.025131,0.976334,-0.126988,0.02087,-0.026691,62.435211,13.561401,-150.403366,,,
729716483.599242,-1.140493,-2.815534,-81.631955,0.054337,-0.036713,0.981537,-0.126988,0.02087,-0.026691,62.435211,13.561401,-150.403366,,,
729716483.599492,-1.140493,-2.815537,-78.555077,0.054337,-0.036713,0.981537,-0.126988,0.02087,-0.026691,62.435211,13.561401,-150.403366,,,
729716483.602589,-1.176572,-2.810724,-81.638307,0.054337,-0.036713,0.981537,-0.118021,0.019907,-0.008655,62.435211,13.561401,-150.403366,,,
729716483.602823,-1.176571,-2.810727,-78.561429,0.054337,-0.036713,0.981537,-0.118021,0.019907,-0.008655,62.435211,13.561401,-150.403366,,,
729716483.604648,-1.176572,-2.810724,-81.638307,0.054337,-0.036713,0.981537,-0.118021,0.019907,-0.008655,62.435211,13.561401,-150.403366,,,
729716483.604875,-1.176571,-2.810727,-78.561429,0.054337,-0.036713,0.981537,-0.118021,0.019907,-0.008655,62.435211,13.561401,-150.403366,,,
729716483.609724,-1.21363,-2.808147,-81.642449,0.044052,-0.04039,0.988266,-0.118021,0.019907,-0.008655,62.397079,13.740067,-150.380127,,,
729716483.609994,-1.21363,-2.80815,-78.56557,0.044052,-0.04039,0.988266,-0.118021,0.019907,-0.008655,62.397079,13.740067,-150.380127,,,
729716483.612519,-1.246518,-2.804557,-81.645521,0.044052,-0.04039,0.988266,-0.108149,0.011038,-0.008998,62.397079,13.740067,-150.380127,,,
729716483.612855,-1.246518,-2.804559,-78.568643,0.044052,-0.04039,0.988266,-0.108149,0.011038,-0.008998,62.397079,13.740067,-150.380127,,,
729716483.614646,-1.246518,-2.804557,-81.645521,0.044052,-0.04039,0.988266,-0.108149,0.011038,-0.008998,62.397079,13.740067,-150.380127,,,
729716483.614874,-1.246518,-2.804559,-78.568643,0.044052,-0.04039,0.988266,-0.108149,0.011038,-0.008998,62.397079,13.740067,-150.380127,,,
729716483.618728,-1.278422,-2.803428,-81.649051,0.041153,-0.037399,0.995636,-0.108149,0.011038,-0.008998,62.397079,13.740067,-150.380127,,,
729716483.618955,-1.278422,-2.803431,-78.572172,0.041153,-0.037399,0.995636,-0.108149,0.011038,-0.008998,62.397079,13.740067,-150.380127,,,
729716483.623413,-1.306105,-2.804673,-81.65373,0.041153,-0.037399,0.995636,-0.085042,-0.010309,-0.021108,62.397079,13.740067,-150.380127,,,
729716483.623673,-1.306104,-2.804676,-78.576852,0.041153,-0.037399,0.995636,-0.085042,-0.010309,-0.021108,62.397079,13.740067,-150.380127,,,
729716483.624622,-1.306105,-2.804673,-81.65373,0.041153,-0.037399,0.995636,-0.085042,-0.010309,-0.021108,62.397079,13.740067,-150.380127,,,
729716483.624878,-1.306104,-2.804676,-78.576852,0.041153,-0.037399,0.995636,-0.085042,-0.010309,-0.021108,62.397079,13.740067,-150.380127,,,
729716483.629462,-1.329807,-2.808156,-81.660247,0.04686,-0.0354,0.994095,-0.085042,-0.010309,-0.021108,62.397079,13.740067,-150.380127,,,
729716483.629708,-1.329806,-2.808159,-78.583368,0.04686,-0.0354,0.994095,-0.085042,-0.010309,-0.021108,62.397079,13.740067,-150.380127,,,
729716483.632445,-1.349993,-2.811275,-81.668639,0.04686,-0.0354,0.994095,-0.062305,-0.003089,-0.030558,62.397079,13.740067,-150.380127,,,
729716483.632671,-1.349993,-2.811278,-78.59176,0.04686,-0.0354,0.994095,-0.062305,-0.003089,-0.030558,62.397079,13.740067,-150.380127,,,
729716483.634678,-1.349993,-2.811275,-81.668639,0.04686,-0.0354,0.994095,-0.062305,-0.003089,-0.030558,62.397079,13.740067,-150.380127,,,
729716483.634971,-1.349993,-2.811278,-78.59176,0.04686,-0.0354,0.994095,-0.062305,-0.003089,-0.030558,62.397079,13.740067,-150.380127,,,
729716483.63906,-1.366853,-2.813598,-81.677849,0.04538,-0.037888,1.004578,-0.062305,-0.003089,-0.030558,62.397079,13.740067,-150.380127,,,
729716483.639296,-1.366853,-2.813601,-78.60097,0.04538,-0.037888,1.004578,-0.062305,-0.003089,-0.030558,62.397079,13.740067,-150.380127,,,
729716483.642383,-1.383531,-2.815787,-81.686472,0.04538,-0.037888,1.004578,-0.060364,-0.006737,-0.027135,62.397079,13.740067,-150.380127,,,
729716483.642636,-1.383531,-2.81579,-78.609594,0.04538,-0.037888,1.004578,-0.060364,-0.006737,-0.027135,62.397079,13.740067,-150.380127,,,
729716483.644751,-1.383531,-2.815787,-81.686472,0.04538,-0.037888,1.004578,-0.060364,-0.006737,-0.027135,62.397079,13.740067,-150.380127,,,
729716483.644945,-1.383531,-2.81579,-78.609594,0.04538,-0.037888,1.004578,-0.060364,-0.006737,-0.027135,62.397079,13.740067,-150.380127,,,
729716483.648704,-1.399303,-2.820463,-81.693806,0.045776,-0.031586,1.001968,-0.060364,-0.006737,-0.027135,62.397079,13.740067,-150.380127,,,
729716483.648951,-1.399303,-2.820466,-78.616928,0.045776,-0.031586,1.001968,-0.060364,-0.006737,-0.027135,62.397079,13.740067,-150.380127,,,
729716483.652915,-1.416808,-2.824552,-81.699504,0.045776,-0.031586,1.001968,-0.063032,-0.015734,-0.011042,62.320755,13.948196,-150.448257,,,
729716483.653153,-1.416808,-2.824555,-78.622626,0.045776,-0.031586,1.001968,-0.063032,-0.015734,-0.011042,62.320755,13.948196,-150.448257,,,
729716483.654602,-1.416808,-2.824552,-81.699504,0.045776,-0.031586,1.001968,-0.063032,-0.015734,-0.011042,62.320755,13.948196,-150.448257,,,
729716483.654892,-1.416808,-2.824555,-78.622626,0.045776,-0.031586,1.001968,-0.063032,-0.015734,-0.011042,62.320755,13.948196,-150.448257,,,
729716483.65877,-1.433538,-2.831691,-81.703181,0.045319,-0.033234,0.995621,-0.063032,-0.015734,-0.011042,62.320755,13.948196,-150.448257,,,
