Time (sec),Pitch (deg),Roll (deg),Yaw(deg),X-Acceleration (g),Y-Acceleration (g),Z-Acceleration (g),Pitch Rate (deg/sec),Roll Rate (deg/sec),Yaw Rate (deg/sec),Magnetic Field in X direction (uT),Magnetic Field in Y direction (uT),Magnetic Field in Z Direction (uT),Latitude (deg),Longitude (deg),Altitude (m)
729705288.387194,-8.53761,-0.193705,72.371905,0.004288,-0.166397,0.99527,0.049374,-0.005657,0.021521,85.616821,43.52829,-146.692734,,,
729705288.390533,-8.520879,-0.197942,72.379157,0.004288,-0.166397,0.99527,0.049374,-0.005657,0.021521,85.616821,43.52829,-146.692734,,,
729705288.393899,-8.520879,-0.197942,72.379157,0.004288,-0.166397,0.99527,0.049374,-0.005657,0.021521,85.616821,43.52829,-146.692734,,,
729705288.397245,-8.507621,-0.199463,72.388988,0.000259,-0.167831,0.988785,0.043898,-0.008229,0.035722,85.616821,43.52829,-146.692734,,,
729705288.400518,-8.49363,-0.203187,72.400399,0.000259,-0.167831,0.988785,0.043898,-0.008229,0.035722,85.616821,43.52829,-146.692734,,,
729705288.403855,-8.49363,-0.203187,72.400399,0.000259,-0.167831,0.988785,0.043898,-0.008229,0.035722,85.616821,43.52829,-146.692734,,,
729705288.407206,-8.483532,-0.20626,72.41296,0.002457,-0.161713,0.981934,0.033782,-0.020512,0.042517,85.616821,43.52829,-146.692734,,,
729705288.410579,-8.47318,-0.212381,72.425358,0.002457,-0.161713,0.981934,0.033782,-0.020512,0.042517,85.616821,43.52829,-146.692734,,,
729705288.413996,-8.47318,-0.212381,72.425358,0.002457,-0.161713,0.981934,0.033782,-0.020512,0.042517,85.814316,43.39238,-146.401505,,,
729705288.417262,-8.464863,-0.220481,72.437775,0.006958,-0.157196,0.977783,0.028152,-0.039783,0.041167,85.814316,43.39238,-146.401505,,,
729705288.42052,-8.456292,-0.231646,72.449197,0.006958,-0.157196,0.977783,0.028152,-0.039783,0.041167,85.814316,43.39238,-146.401505,,,
729705288.423917,-8.456292,-0.231646,72.449197,0.006958,-0.157196,0.977783,0.028152,-0.039783,0.041167,85.814316,43.39238,-146.401505,,,
729705288.427301,-8.448812,-0.244425,72.459082,0.009079,-0.15416,0.980286,0.028843,-0.053268,0.032002,85.814316,43.39238,-146.401505,,,
729705288.43051,-8.441255,-0.260087,72.467843,0.009079,-0.15416,0.980286,0.028843,-0.053268,0.032002,85.814316,43.39238,-146.401505,,,
729705288.433878,-8.441255,-0.260087,72.467843,0.009079,-0.15416,0.980286,0.028843,-0.053268,0.032002,85.814316,43.39238,-146.401505,,,
729705288.43728,-8.43374,-0.277736,72.47614,0.00943,-0.157272,0.98143,0.019957,-0.069092,0.024747,85.814316,43.39238,-146.401505,,,
729705288.440516,-8.428777,-0.298535,72.484333,0.00943,-0.157272,0.98143,0.019957,-0.069092,0.024747,85.814316,43.39238,-146.401505,,,
729705288.443954,-8.428777,-0.298535,72.484333,0.00943,-0.157272,0.98143,0.019957,-0.069092,0.024747,85.814316,43.39238,-146.401505,,,
729705288.447201,-8.424223,-0.321137,72.492868,0.010818,-0.153442,0.975388,0.013133,-0.082771,0.029231,85.814316,43.39238,-146.401505,,,
729705288.450521,-8.422573,-0.345774,72.50201,0.010818,-0.153442,0.975388,0.013133,-0.082771,0.029231,85.814316,43.39238,-146.401505,,,
729705288.453856,-8.422573,-0.345774,72.50201,0.010818,-0.153442,0.975388,0.013133,-0.082771,0.029231,85.653915,43.39621,-146.397537,,,
729705288.457201,-8.421242,-0.370641,72.511966,0.015869,-0.151962,0.976242,-0.001146,-0.089547,0.03653,85.653915,43.39621,-146.397537,,,
729705288.460594,-8.42452,-0.396199,72.522695,0.015869,-0.151962,0.976242,-0.001146,-0.089547,0.03653,85.653915,43.39621,-146.397537,,,
729705288.463906,-8.42452,-0.396199,72.522695,0.015869,-0.151962,0.976242,-0.001146,-0.089547,0.03653,85.653915,43.39621,-146.397537,,,
729705288.467199,-8.427975,-0.422749,72.533774,0.018906,-0.150604,0.97522,-0.018001,-0.09585,0.034585,85.653915,43.39621,-146.397537,,,
729705288.470521,-8.436373,-0.44869,72.544282,0.018906,-0.150604,0.97522,-0.018001,-0.09585,0.034585,85.653915,43.39621,-146.397537,,,
729705288.473899,-8.436373,-0.44869,72.544282,0.018906,-0.150604,0.97522,-0.018001,-0.09585,0.034585,85.653915,43.39621,-146.397537,,,
729705288.477337,-8.444392,-0.474123,72.554119,0.020309,-0.143433,0.974792,-0.03023,-0.083569,0.030134,85.653915,43.39621,-146.397537,,,
729705288.480527,-8.457316,-0.495349,72.564016,0.020309,-0.143433,0.974792,-0.03023,-0.083569,0.030134,85.653915,43.39621,-146.397537,,,
729705288.483865,-8.457316,-0.495349,72.564016,0.020309,-0.143433,0.974792,-0.03023,-0.083569,0.030134,85.653915,43.39621,-146.397537,,,
729705288.487275,-8.469152,-0.513577,72.574536,0.018387,-0.14064,0.980743,-0.044988,-0.05746,0.039341,85.653915,43.39621,-146.397537,,,
729705288.490509,-8.484558,-0.528885,72.586534,0.018387,-0.14064,0.980743,-0.044988,-0.05746,0.039341,85.653915,43.39621,-146.397537,,,
729705288.494008,-8.484558,-0.528885,72.586534,0.018387,-0.14064,0.980743,-0.044988,-0.05746,0.039341,85.387909,43.495117,-146.650116,,,
729705288.497208,-8.499684,-0.543273,72.600129,0.01387,-0.143097,0.979477,-0.054367,-0.051813,0.05067,85.387909,43.495117,-146.650116,,,
729705288.500524,-8.517026,-0.556621,72.615169,0.01387,-0.143097,0.979477,-0.054367,-0.051813,0.05067,85.387909,43.495117,-146.650116,,,
729705288.503868,-8.517026,-0.556621,72.615169,0.01387,-0.143097,0.979477,-0.054367,-0.051813,0.05067,85.387909,43.495117,-146.650116,,,
729705288.507197,-8.533136,-0.569862,72.630962,0.01709,-0.146576,0.977112,-0.051611,-0.048694,0.051206,85.387909,43.495117,-146.650116,,,
729705288.510594,-8.549326,-0.582814,72.646018,0.01709,-0.146576,0.977112,-0.051611,-0.048694,0.051206,85.387909,43.495117,-146.650116,,,
729705288.513944,-8.549326,-0.582814,72.646018,0.01709,-0.146576,0.977112,-0.051611,-0.048694,0.051206,85.387909,43.495117,-146.650116,,,
729705288.5172,-8.563178,-0.596109,72.659362,0.019669,-0.148727,0.979599,-0.044642,-0.050568,0.040759,85.387909,43.495117,-146.650116,,,
729705288.520518,-8.576954,-0.610821,72.671321,0.019669,-0.148727,0.979599,-0.044642,-0.050568,0.040759,85.387909,43.495117,-146.650116,,,
729705288.523864,-8.576954,-0.610821,72.671321,0.019669,-0.148727,0.979599,-0.044642,-0.050568,0.040759,85.387909,43.495117,-146.650116,,,
729705288.527276,-8.587718,-0.627036,72.68218,0.015503,-0.14917,0.976456,-0.033174,-0.061606,0.031186,85.387909,43.495117,-146.650116,,,
729705288.530529,-8.597296,-0.645413,72.691698,0.015503,-0.14917,0.976456,-0.033174,-0.061606,0.031186,85.387909,43.495117,-146.650116,,,
729705288.533865,-8.597296,-0.645413,72.691698,0.015503,-0.14917,0.976456,-0.033174,-0.061606,0.031186,85.490784,43.544815,-146.360062,,,
729705288.537217,-8.604454,-0.666143,72.700671,0.008972,-0.148041,0.974777,-0.021302,-0.079235,0.030212,85.490784,43.544815,-146.360062,,,
729705288.540524,-8.610709,-0.690529,72.710336,0.008972,-0.148041,0.974777,-0.021302,-0.079235,0.030212,85.490784,43.544815,-146.360062,,,
729705288.543916,-8.610709,-0.690529,72.710336,0.008972,-0.148041,0.974777,-0.021302,-0.079235,0.030212,85.490784,43.544815,-146.360062,,,
729705288.547199,-8.615574,-0.715554,72.721339,0.009369,-0.147675,0.973251,-0.016463,-0.093193,0.038562,85.490784,43.544815,-146.360062,,,
729705288.550519,-8.620222,-0.742636,72.733088,0.009369,-0.147675,0.973251,-0.016463,-0.093193,0.038562,85.490784,43.544815,-146.360062,,,
729705288.553926,-8.620222,-0.742636,72.733088,0.009369,-0.147675,0.973251,-0.016463,-0.093193,0.038562,85.490784,43.544815,-146.360062,,,
729705288.557204,-8.624074,-0.769164,72.745513,0.013412,-0.144547,0.973907,-0.011906,-0.093707,0.042625,85.490784,43.544815,-146.360062,,,
729705288.560613,-8.625986,-0.795203,72.757675,0.013412,-0.144547,0.973907,-0.011906,-0.093707,0.042625,85.490784,43.544815,-146.360062,,,
729705288.563865,-8.625986,-0.795203,72.757675,0.013412,-0.144547,0.973907,-0.011906,-0.093707,0.042625,85.490784,43.544815,-146.360062,,,
729705288.567186,-8.62798,-0.817678,72.769639,0.021332,-0.14064,0.979904,-0.002212,-0.074501,0.042082,85.490784,43.544815,-146.360062,,,
729705288.570527,-8.628215,-0.83774,72.781463,0.021332,-0.14064,0.979904,-0.002212,-0.074501,0.042082,85.490784,43.544815,-146.360062,,,
729705288.573879,-8.628215,-0.83774,72.781463,0.021332,-0.14064,0.979904,-0.002212,-0.074501,0.042082,85.490784,43.544815,-146.360062,,,
729705288.577306,-8.629281,-0.855645,72.792697,0.027435,-0.137344,0.981598,-0.006956,-0.058856,0.038679,84.903564,43.587769,-146.172272,,,
729705288.580518,-8.631219,-0.871951,72.803518,0.027435,-0.137344,0.981598,-0.006956,-0.058856,0.038679,84.903564,43.587769,-146.172272,,,
729705288.583873,-8.631219,-0.871951,72.803518,0.027435,-0.137344,0.981598,-0.006956,-0.058856,0.038679,84.903564,43.587769,-146.172272,,,
729705288.587188,-8.635471,-0.886938,72.814459,0.024017,-0.129013,0.971786,-0.02102,-0.053589,0.037891,84.903564,43.587769,-146.172272,,,
729705288.590295,-8.64177,-0.901131,72.825202,0.024017,-0.129013,0.971786,-0.02102,-0.053589,0.037891,84.903564,43.587769,-146.172272,,,
729705288.593877,-8.64177,-0.901131,72.825202,0.024017,-0.129013,0.971786,-0.02102,-0.053589,0.037891,84.903564,43.587769,-146.172272,,,
729705288.597187,-8.650619,-0.913433,72.836006,0.022385,-0.12352,0.971115,-0.037987,-0.043819,0.036968,84.903564,43.587769,-146.172272,,,
729705288.600519,-8.661624,-0.925138,72.846852,0.022385,-0.12352,0.971115,-0.037987,-0.043819,0.036968,84.903564,43.587769,-146.172272,,,
729705288.60391,-8.661624,-0.925138,72.846852,0.022385,-0.12352,0.971115,-0.037987,-0.043819,0.036968,84.903564,43.587769,-146.172272,,,
729705288.607195,-8.673601,-0.935509,72.858321,0.019623,-0.126877,0.972702,-0.040538,-0.037262,0.041431,84.903564,43.587769,-146.172272,,,
729705288.610575,-8.685282,-0.944374,72.871011,0.019623,-0.126877,0.972702,-0.040538,-0.037262,0.041431,84.903564,43.587769,-146.172272,,,
729705288.613856,-8.685282,-0.944374,72.871011,0.019623,-0.126877,0.972702,-0.040538,-0.037262,0.041431,84.903564,43.587769,-146.172272,,,
729705288.617245,-8.696076,-0.953551,72.884485,0.018967,-0.133026,0.979279,-0.031923,-0.037131,0.045758,85.368683,43.546936,-146.173203,,,
729705288.620511,-8.705182,-0.961864,72.898208,0.018967,-0.133026,0.979279,-0.031923,-0.037131,0.045758,85.368683,43.546936,-146.173203,,,
729705288.623863,-8.705182,-0.961864,72.898208,0.018967,-0.133026,0.979279,-0.031923,-0.037131,0.045758,85.368683,43.546936,-146.173203,,,
729705288.627204,-8.711963,-0.971773,72.911758,0.017059,-0.138382,0.982529,-0.017397,-0.041819,0.046786,85.368683,43.546936,-146.173203,,,
729705288.630628,-8.716451,-0.982969,72.925414,0.017059,-0.138382,0.982529,-0.017397,-0.041819,0.046786,85.368683,43.546936,-146.173203,,,
729705288.633861,-8.716451,-0.982969,72.925414,0.017059,-0.138382,0.982529,-0.017397,-0.041819,0.046786,85.368683,43.546936,-146.173203,,,
729705288.637216,-8.719475,-0.996811,72.938337,0.015427,-0.137146,0.980621,-0.004081,-0.058947,0.04064,85.368683,43.546936,-146.173203,,,
729705288.640523,-8.719678,-1.01303,72.950446,0.015427,-0.137146,0.980621,-0.004081,-0.058947,0.04064,85.368683,43.546936,-146.173203,,,
729705288.643925,-8.719678,-1.01303,72.950446,0.015427,-0.137146,0.980621,-0.004081,-0.058947,0.04064,85.368683,43.546936,-146.173203,,,
729705288.647211,-8.718384,-1.031986,72.961787,0.013519,-0.138184,0.978653,0.009386,-0.081026,0.034105,85.368683,43.546936,-146.173203,,,
729705288.650526,-8.714515,-1.055015,72.972146,0.013519,-0.138184,0.978653,0.009386,-0.081026,0.034105,85.368683,43.546936,-146.173203,,,
729705288.653852,-8.714515,-1.055015,72.972146,0.013519,-0.138184,0.978653,0.009386,-0.081026,0.034105,85.368683,43.546936,-146.173203,,,
729705288.657191,-8.711213,-1.079873,72.981566,0.011948,-0.138626,0.98027,0.015593,-0.095314,0.028947,85.049332,43.638046,-146.512863,,,
729705288.660551,-8.705308,-1.106484,72.989742,0.011948,-0.138626,0.98027,0.015593,-0.095314,0.028947,85.049332,43.638046,-146.512863,,,
729705288.663858,-8.705308,-1.106484,72.989742,0.011948,-0.138626,0.98027,0.015593,-0.095314,0.028947,85.049332,43.638046,-146.512863,,,
729705288.6672,-8.69974,-1.131993,72.997392,0.015335,-0.140717,0.988083,0.026469,-0.085979,0.022572,85.049332,43.638046,-146.512863,,,
729705288.670526,-8.68893,-1.157116,73.004412,0.015335,-0.140717,0.988083,0.026469,-0.085979,0.022572,85.049332,43.638046,-146.512863,,,
729705288.673871,-8.68893,-1.157116,73.004412,0.015335,-0.140717,0.988083,0.026469,-0.085979,0.022572,85.049332,43.638046,-146.512863,,,
729705288.677254,-8.678247,-1.180011,73.011044,0.017334,-0.147324,0.995667,0.048846,-0.074766,0.021962,85.049332,43.638046,-146.512863,,,
729705288.680528,-8.66127,-1.200631,73.01793,0.017334,-0.147324,0.995667,0.048846,-0.074766,0.021962,85.049332,43.638046,-146.512863,,,
729705288.683845,-8.66127,-1.200631,73.01793,0.017334,-0.147324,0.995667,0.048846,-0.074766,0.021962,85.049332,43.638046,-146.512863,,,
729705288.689082,-8.645476,-1.218156,73.025758,0.013489,-0.15274,1.000153,0.058703,-0.052964,0.027224,85.049332,43.638046,-146.512863,,,
729705288.690303,-8.626237,-1.231312,73.034933,0.013489,-0.15274,1.000153,0.058703,-0.052964,0.027224,85.049332,43.638046,-146.512863,,,
729705288.693883,-8.626237,-1.231312,73.034933,0.013489,-0.15274,1.000153,0.058703,-0.052964,0.027224,85.049332,43.638046,-146.512863,,,
729705288.697227,-8.609429,-1.240688,73.04586,0.010742,-0.151443,0.999008,0.060644,-0.025924,0.040286,84.931732,43.287964,-146.298676,,,
729705288.70053,-8.590941,-1.246339,73.059115,0.010742,-0.151443,0.999008,0.060644,-0.025924,0.040286,84.931732,43.287964,-146.298676,,,
729705288.703857,-8.590941,-1.246339,73.059115,0.010742,-0.151443,0.999008,0.060644,-0.025924,0.040286,84.931732,43.287964,-146.298676,,,
729705288.707209,-8.574726,-1.249555,73.07441,0.011856,-0.148972,0.991348,0.055356,-0.008032,0.053345,84.931732,43.287964,-146.298676,,,
729705288.710709,-8.557949,-1.249898,73.090871,0.011856,-0.148972,0.991348,0.055356,-0.008032,0.053345,84.931732,43.287964,-146.298676,,,
729705288.713837,-8.557949,-1.249898,73.090871,0.011856,-0.148972,0.991348,0.055356,-0.008032,0.053345,84.931732,43.287964,-146.298676,,,
729705288.717211,-8.542669,-1.248817,73.107327,0.015701,-0.146545,0.987808,0.055885,0.005748,0.053245,84.931732,43.287964,-146.298676,,,
729705288.720521,-8.525461,-1.244195,73.123861,0.015701,-0.146545,0.987808,0.055885,0.005748,0.053245,84.931732,43.287964,-146.298676,,,
729705288.72396,-8.525461,-1.244195,73.123861,0.015701,-0.146545,0.987808,0.055885,0.005748,0.053245,84.931732,43.287964,-146.298676,,,
729705288.72718,-8.508128,-1.238413,73.139492,0.016327,-0.1474,0.990265,0.064328,0.021273,0.047769,84.931732,43.287964,-146.298676,,,
729705288.73052,-8.487805,-1.229512,73.154049,0.016327,-0.1474,0.990265,0.064328,0.021273,0.047769,84.931732,43.287964,-146.298676,,,
729705288.733864,-8.487805,-1.229512,73.154049,0.016327,-0.1474,0.990265,0.064328,0.021273,0.047769,84.931732,43.287964,-146.298676,,,
729705288.737235,-8.466624,-1.220761,73.167637,0.017319,-0.146561,0.987778,0.077214,0.026261,0.042734,84.931732,43.287964,-146.298676,,,
729705288.740515,-8.443093,-1.210643,73.181568,0.017319,-0.146561,0.987778,0.077214,0.026261,0.042734,85.030289,43.356628,-146.446884,,,
729705288.743862,-8.443093,-1.210643,73.181568,0.017319,-0.146561,0.987778,0.077214,0.026261,0.042734,85.030289,43.356628,-146.446884,,,
729705288.747198,-8.420366,-1.201867,73.196024,0.013275,-0.148254,0.982162,0.080243,0.025058,0.047244,85.030289,43.356628,-146.446884,,,
729705288.750514,-8.397383,-1.192968,73.211483,0.013275,-0.148254,0.982162,0.080243,0.025058,0.047244,85.030289,43.356628,-146.446884,,,
729705288.753865,-8.397383,-1.192968,73.211483,0.013275,-0.148254,0.982162,0.080243,0.025058,0.047244,85.030289,43.356628,-146.446884,,,
729705288.757193,-8.374788,-1.185486,73.228121,0.01033,-0.153687,0.974091,0.079523,0.015904,0.05529,85.030289,43.356628,-146.446884,,,
729705288.760525,-8.352802,-1.178705,73.245849,0.01033,-0.153687,0.974091,0.079523,0.015904,0.05529,85.030289,43.356628,-146.446884,,,
729705288.763944,-8.352802,-1.178705,73.245849,0.01033,-0.153687,0.974091,0.079523,0.015904,0.05529,85.030289,43.356628,-146.446884,,,
729705288.767201,-8.331595,-1.173371,73.263353,0.012924,-0.15506,0.970688,0.071737,0.012277,0.054294,85.030289,43.356628,-146.446884,,,
729705288.770527,-8.313085,-1.167059,73.280154,0.012924,-0.15506,0.970688,0.071737,0.012277,0.054294,85.030289,43.356628,-146.446884,,,
729705288.773865,-8.313085,-1.167059,73.280154,0.012924,-0.15506,0.970688,0.071737,0.012277,0.054294,85.030289,43.356628,-146.446884,,,
729705288.77724,-8.295896,-1.16154,73.295548,0.016006,-0.146957,0.968811,0.054954,0.019777,0.045611,85.030289,43.356628,-146.446884,,,
729705288.780521,-8.281585,-1.153243,73.309446,0.016006,-0.146957,0.968811,0.054954,0.019777,0.045611,85.041428,43.119751,-146.68689,,,
729705288.783877,-8.281585,-1.153243,73.309446,0.016006,-0.146957,0.968811,0.054954,0.019777,0.045611,85.041428,43.119751,-146.68689,,,
729705288.787195,-8.269323,-1.144155,73.321899,0.017883,-0.140854,0.970291,0.036482,0.033785,0.041593,85.041428,43.119751,-146.68689,,,
729705288.790526,-8.259885,-1.131756,73.333774,0.017883,-0.140854,0.970291,0.036482,0.033785,0.041593,85.041428,43.119751,-146.68689,,,
729705288.793878,-8.259885,-1.131756,73.333774,0.017883,-0.140854,0.970291,0.036482,0.033785,0.041593,85.041428,43.119751,-146.68689,,,
729705288.797212,-8.251397,-1.118008,73.344594,0.019928,-0.14888,0.975388,0.028298,0.051316,0.034012,85.041428,43.119751,-146.68689,,,
729705288.800517,-8.244466,-1.101821,73.355,0.019928,-0.14888,0.975388,0.028298,0.051316,0.034012,85.041428,43.119751,-146.68689,,,
729705288.803936,-8.244466,-1.101821,73.355,0.019928,-0.14888,0.975388,0.028298,0.051316,0.034012,85.041428,43.119751,-146.68689,,,
729705288.807199,-8.238416,-1.083701,73.365749,0.025803,-0.155243,0.976135,0.015572,0.067964,0.036461,85.041428,43.119751,-146.68689,,,
729705288.810539,-8.234632,-1.063454,73.37728,0.025803,-0.155243,0.976135,0.015572,0.067964,0.036461,85.041428,43.119751,-146.68689,,,
729705288.813889,-8.234632,-1.063454,73.37728,0.025803,-0.155243,0.976135,0.015572,0.067964,0.036461,85.041428,43.119751,-146.68689,,,
729705288.817286,-8.231186,-1.042387,73.389609,0.024277,-0.155579,0.979752,0.01454,0.068566,0.044452,85.041428,43.119751,-146.68689,,,
729705288.820519,-8.228718,-1.020347,73.402747,0.024277,-0.155579,0.979752,0.01454,0.068566,0.044452,85.054352,43.001282,-146.575958,,,
729705288.823876,-8.228718,-1.020347,73.402747,0.024277,-0.155579,0.979752,0.01454,0.068566,0.044452,85.054352,43.001282,-146.575958,,,
729705288.827203,-8.226219,-0.998489,73.416508,0.027481,-0.151779,0.980148,0.011291,0.074143,0.045148,85.054352,43.001282,-146.575958,,,
729705288.830523,-8.225102,-0.975709,73.430371,0.027481,-0.151779,0.980148,0.011291,0.074143,0.045148,85.054352,43.001282,-146.575958,,,
729705288.833862,-8.225102,-0.975709,73.430371,0.027481,-0.151779,0.980148,0.011291,0.074143,0.045148,85.054352,43.001282,-146.575958,,,
729705288.837186,-8.221932,-0.953587,73.443321,0.034912,-0.147812,0.98584,0.016038,0.076027,0.040698,85.054352,43.001282,-146.575958,,,
729705288.840527,-8.219944,-0.931054,73.454763,0.034912,-0.147812,0.98584,0.016038,0.076027,0.040698,85.054352,43.001282,-146.575958,,,
729705288.843909,-8.219944,-0.931054,73.454763,0.034912,-0.147812,0.98584,0.016038,0.076027,0.040698,85.054352,43.001282,-146.575958,,,
729705288.847192,-8.215557,-0.909812,73.463855,0.041229,-0.145111,0.985748,0.016589,0.072375,0.02337,85.054352,43.001282,-146.575958,,,
729705288.850521,-8.212726,-0.889497,73.469924,0.041229,-0.145111,0.985748,0.016589,0.072375,0.02337,85.054352,43.001282,-146.575958,,,
729705288.853863,-8.212726,-0.889497,73.469924,0.041229,-0.145111,0.985748,0.016589,0.072375,0.02337,85.054352,43.001282,-146.575958,,,
729705288.857256,-8.209499,-0.871315,73.473066,0.040344,-0.144363,0.981445,0.010383,0.060597,0.002529,85.054352,43.001282,-146.575958,,,
729705288.860586,-8.208281,-0.856267,73.474238,0.040344,-0.144363,0.981445,0.010383,0.060597,0.002529,85.579819,42.796158,-146.595505,,,
729705288.863851,-8.208281,-0.856267,73.474238,0.040344,-0.144363,0.981445,0.010383,0.060597,0.002529,85.579819,42.796158,-146.595505,,,
729705288.867183,-8.208299,-0.844091,73.474007,0.035233,-0.144806,0.980988,-0.003344,0.037274,-0.007952,85.579819,42.796158,-146.595505,,,
729705288.870522,-8.21124,-0.835931,73.472036,0.035233,-0.144806,0.980988,-0.003344,0.037274,-0.007952,85.579819,42.796158,-146.595505,,,
729705288.873868,-8.21124,-0.835931,73.472036,0.035233,-0.144806,0.980988,-0.003344,0.037274,-0.007952,85.579819,42.796158,-146.595505,,,
729705288.877216,-8.215241,-0.82994,73.468804,0.037811,-0.148697,0.979385,-0.017838,0.019709,-0.016376,85.579819,42.796158,-146.595505,,,
729705288.880519,-8.222707,-0.827581,73.464177,0.037811,-0.148697,0.979385,-0.017838,0.019709,-0.016376,85.579819,42.796158,-146.595505,,,
729705288.88394,-8.222707,-0.827581,73.464177,0.037811,-0.148697,0.979385,-0.017838,0.019709,-0.016376,85.579819,42.796158,-146.595505,,,
729705288.887197,-8.230317,-0.825612,73.458444,0.039185,-0.15654,0.9823,-0.029617,0.013763,-0.020711,85.579819,42.796158,-146.595505,,,
729705288.890508,-8.241528,-0.825621,73.452083,0.039185,-0.15654,0.9823,-0.029617,0.013763,-0.020711,85.579819,42.796158,-146.595505,,,
729705288.893855,-8.241528,-0.825621,73.452083,0.039185,-0.15654,0.9823,-0.029617,0.013763,-0.020711,85.579819,42.796158,-146.595505,,,
729705288.89718,-8.252679,-0.824226,73.445559,0.038757,-0.165176,0.989761,-0.040421,0.012344,-0.025073,85.579819,42.796158,-146.595505,,,
729705288.900517,-8.266354,-0.824587,73.437443,0.038757,-0.165176,0.989761,-0.040421,0.012344,-0.025073,85.579819,42.796158,-146.595505,,,
729705288.903858,-8.266354,-0.824587,73.437443,0.038757,-0.165176,0.989761,-0.040421,0.012344,-0.025073,85.186951,43.040634,-146.671768,,,
729705288.907256,-8.279937,-0.823285,73.427683,0.040482,-0.165237,0.98938,-0.05262,0.016854,-0.038972,85.186951,43.040634,-146.671768,,,
729705288.910511,-8.296563,-0.82362,73.415839,0.040482,-0.165237,0.98938,-0.05262,0.016854,-0.038972,85.186951,43.040634,-146.671768,,,
729705288.913867,-8.296563,-0.82362,73.415839,0.040482,-0.165237,0.98938,-0.05262,0.016854,-0.038972,85.186951,43.040634,-146.671768,,,
729705288.917174,-8.314216,-0.82198,73.403035,0.038055,-0.162048,0.992905,-0.067971,0.012298,-0.046802,85.186951,43.040634,-146.671768,,,
729705288.920518,-8.334672,-0.825457,73.389216,0.038055,-0.162048,0.992905,-0.067971,0.012298,-0.046802,85.186951,43.040634,-146.671768,,,
729705288.923861,-8.334672,-0.825457,73.389216,0.038055,-0.162048,0.992905,-0.067971,0.012298,-0.046802,85.186951,43.040634,-146.671768,,,
729705288.927179,-8.357578,-0.828306,73.375557,0.028625,-0.162674,0.986221,-0.087624,-0.008395,-0.047094,85.186951,43.040634,-146.671768,,,
729705288.930529,-8.383458,-0.838004,73.360737,0.028625,-0.162674,0.986221,-0.087624,-0.008395,-0.047094,85.186951,43.040634,-146.671768,,,
729705288.933946,-8.383458,-0.838004,73.360737,0.028625,-0.162674,0.986221,-0.087624,-0.008395,-0.047094,85.186951,43.040634,-146.671768,,,
729705288.937223,-8.411652,-0.845465,73.346111,0.022903,-0.164917,0.988983,-0.101585,-0.01752,-0.052535,85.186951,43.040634,-146.671768,,,
729705288.940567,-8.440664,-0.857201,73.330808,0.022903,-0.164917,0.988983,-0.101585,-0.01752,-0.052535,85.186951,43.040634,-146.671768,,,
729705288.943845,-8.440664,-0.857201,73.330808,0.022903,-0.164917,0.988983,-0.101585,-0.01752,-0.052535,85.351273,43.217133,-146.524933,,,
729705288.947185,-8.469474,-0.865707,73.316198,0.019791,-0.168701,0.997025,-0.097707,-0.014701,-0.050855,85.351273,43.217133,-146.524933,,,
729705288.950541,-8.496201,-0.876246,73.30181,0.019791,-0.168701,0.997025,-0.097707,-0.014701,-0.050855,85.351273,43.217133,-146.524933,,,
729705288.953863,-8.496201,-0.876246,73.30181,0.019791,-0.168701,0.997025,-0.097707,-0.014701,-0.050855,85.351273,43.217133,-146.524933,,,
729705288.957238,-8.51954,-0.882375,73.287868,0.022675,-0.171738,1.007431,-0.073564,-0.007582,-0.048357,85.351273,43.217133,-146.524933,,,
729705288.960533,-8.539665,-0.89056,73.273439,0.022675,-0.171738,1.007431,-0.073564,-0.007582,-0.048357,85.351273,43.217133,-146.524933,,,
729705288.963863,-8.539665,-0.89056,73.273439,0.022675,-0.171738,1.007431,-0.073564,-0.007582,-0.048357,85.351273,43.217133,-146.524933,,,
729705288.967199,-8.554573,-0.893888,73.259995,0.024872,-0.17363,1.01358,-0.040984,0.006705,-0.043282,85.351273,43.217133,-146.524933,,,
729705288.970623,-8.566031,-0.897582,73.247557,0.024872,-0.17363,1.01358,-0.040984,0.006705,-0.043282,85.351273,43.217133,-146.524933,,,
729705288.973797,-8.566031,-0.897582,73.247557,0.024872,-0.17363,1.01358,-0.040984,0.006705,-0.043282,85.351273,43.217133,-146.524933,,,
729705288.977286,-8.570858,-0.8949,73.237485,0.023865,-0.176682,1.022949,-0.004567,0.023684,-0.030646,85.351273,43.217133,-146.524933,,,
729705288.980529,-8.573856,-0.893374,73.228938,0.023865,-0.176682,1.022949,-0.004567,0.023684,-0.030646,85.351273,43.217133,-146.524933,,,
729705288.98385,-8.573856,-0.893374,73.228938,0.023865,-0.176682,1.022949,-0.004567,0.023684,-0.030646,85.367752,43.202164,-146.509384,,,
729705288.987244,-8.571002,-0.888161,73.222955,0.017822,-0.172363,1.014603,0.021804,0.022669,-0.018217,85.367752,43.202164,-146.509384,,,
729705288.990633,-8.566265,-0.886773,73.218006,0.017822,-0.172363,1.014603,0.021804,0.022669,-0.018217,85.367752,43.202164,-146.509384,,,
729705288.993903,-8.566265,-0.886773,73.218006,0.017822,-0.172363,1.014603,0.021804,0.022669,-0.018217,85.367752,43.202164,-146.509384,,,
729705288.997206,-8.55633,-0.882091,73.214581,0.017136,-0.162231,1.007599,0.03866,0.01859,-0.012591,85.367752,43.202164,-146.509384,,,
729705289.00054,-8.546043,-0.880913,73.211508,0.017136,-0.162231,1.007599,0.03866,0.01859,-0.012591,85.367752,43.202164,-146.509384,,,
729705289.003863,-8.546043,-0.880913,73.211508,0.017136,-0.162231,1.007599,0.03866,0.01859,-0.012591,85.367752,43.202164,-146.509384,,,
729705289.007244,-8.532258,-0.879957,73.208993,0.017151,-0.150757,1.000732,0.051366,-0.000546,-0.012473,85.367752,43.202164,-146.509384,,,
729705289.010562,-8.52049,-0.883502,73.205621,0.017151,-0.150757,1.000732,0.051366,-0.000546,-0.012473,85.367752,43.202164,-146.509384,,,
729705289.01385,-8.52049,-0.883502,73.205621,0.017151,-0.150757,1.000732,0.051366,-0.000546,-0.012473,85.367752,43.202164,-146.509384,,,
729705289.017186,-8.506823,-0.888054,73.201946,0.016739,-0.142746,0.989655,0.047018,-0.014586,-0.019013,85.367752,43.202164,-146.509384,,,
729705289.020562,-8.495558,-0.894839,73.196614,0.016739,-0.142746,0.989655,0.047018,-0.014586,-0.019013,85.367752,43.202164,-146.509384,,,
729705289.023848,-8.495558,-0.894839,73.196614,0.016739,-0.142746,0.989655,0.047018,-0.014586,-0.019013,85.367752,43.202164,-146.509384,,,
729705289.027188,-8.483489,-0.901807,73.189702,0.020248,-0.132095,0.98558,0.040196,-0.018481,-0.030861,85.271469,43.301285,-146.534668,,,
729705289.030558,-8.475997,-0.909638,73.18197,0.020248,-0.132095,0.98558,0.040196,-0.018481,-0.030861,85.271469,43.301285,-146.534668,,,
729705289.03389,-8.475997,-0.909638,73.18197,0.020248,-0.132095,0.98558,0.040196,-0.018481,-0.030861,85.271469,43.301285,-146.534668,,,
729705289.037186,-8.466938,-0.915894,73.173554,0.020767,-0.124954,0.981506,0.030008,-0.012902,-0.032692,85.271469,43.301285,-146.534668,,,
729705289.040536,-8.461518,-0.922407,73.164724,0.020767,-0.124954,0.981506,0.030008,-0.012902,-0.032692,85.271469,43.301285,-146.534668,,,
729705289.043855,-8.461518,-0.922407,73.164724,0.020767,-0.124954,0.981506,0.030008,-0.012902,-0.032692,85.271469,43.301285,-146.534668,,,
729705289.047269,-8.453112,-0.927649,73.156596,0.013626,-0.129379,0.979965,0.026995,-0.011097,-0.02642,85.271469,43.301285,-146.534668,,,
729705289.05056,-8.447883,-0.934276,73.149489,0.013626,-0.129379,0.979965,0.026995,-0.011097,-0.02642,85.271469,43.301285,-146.534668,,,
729705289.053855,-8.447883,-0.934276,73.149489,0.013626,-0.129379,0.979965,0.026995,-0.011097,-0.02642,85.271469,43.301285,-146.534668,,,
729705289.057199,-8.440909,-0.940678,73.144017,0.009247,-0.13443,0.977844,0.020313,-0.01869,-0.018208,85.271469,43.301285,-146.534668,,,
729705289.060587,-8.438529,-0.948345,73.139624,0.009247,-0.13443,0.977844,0.020313,-0.01869,-0.018208,85.271469,43.301285,-146.534668,,,
729705289.063851,-8.438529,-0.948345,73.139624,0.009247,-0.13443,0.977844,0.020313,-0.01869,-0.018208,85.271469,43.301285,-146.534668,,,
729705289.067186,-8.432814,-0.9564,73.135661,0.003967,-0.142944,0.979034,0.026537,-0.025831,-0.016526,85.233765,43.192703,-146.483932,,,
729705289.070521,-8.432814,-0.9564,73.135661,0.003967,-0.142944,0.979034,0.026537,-0.025831,-0.016526,85.233765,43.192703,-146.483932,,,
729705289.073899,-8.427253,-0.965933,73.131528,0.003967,-0.142944,0.979034,0.026537,-0.025831,-0.016526,85.233765,43.192703,-146.483932,,,
729705289.077192,-8.416581,-0.976641,73.126466,-0.001175,-0.146301,0.983612,0.045182,-0.028484,-0.02469,85.233765,43.192703,-146.483932,,,
729705289.080529,-8.405042,-0.987899,73.120276,-0.001175,-0.146301,0.983612,0.045182,-0.028484,-0.02469,85.233765,43.192703,-146.483932,,,
729705289.083843,-8.405042,-0.987899,73.120276,-0.001175,-0.146301,0.983612,0.045182,-0.028484,-0.02469,85.233765,43.192703,-146.483932,,,
729705289.087234,-8.392238,-1.000194,73.113532,-0.005661,-0.147888,0.979935,0.046067,-0.034957,-0.028439,85.233765,43.192703,-146.483932,,,
729705289.090517,-8.392238,-1.000194,73.113532,-0.005661,-0.147888,0.979935,0.046067,-0.034957,-0.028439,85.233765,43.192703,-146.483932,,,
729705289.093852,-8.378531,-1.011165,73.10603,-0.005661,-0.147888,0.979935,0.046067,-0.034957,-0.028439,85.233765,43.192703,-146.483932,,,
729705289.097202,-8.36442,-1.0202,73.098394,-0.013123,-0.150406,0.984604,0.046503,-0.023402,-0.025385,85.233765,43.192703,-146.483932,,,
729705289.100582,-8.350478,-1.029833,73.092288,-0.013123,-0.150406,0.984604,0.046503,-0.023402,-0.025385,85.233765,43.192703,-146.483932,,,
729705289.103864,-8.350478,-1.029833,73.092288,-0.013123,-0.150406,0.984604,0.046503,-0.023402,-0.025385,85.233765,43.192703,-146.483932,,,
729705289.107189,-8.33886,-1.040673,73.089285,-0.018509,-0.151245,0.978806,0.040715,-0.03744,-0.001425,84.768845,43.119156,-146.644608,,,
729705289.110529,-8.33886,-1.040673,73.089285,-0.018509,-0.151245,0.978806,0.040715,-0.03744,-0.001425,84.768845,43.119156,-146.644608,,,
729705289.11385,-8.326012,-1.052007,73.089937,-0.018509,-0.151245,0.978806,0.040715,-0.03744,-0.001425,84.768845,43.119156,-146.644608,,,
729705289.117181,-8.316287,-1.062177,73.093307,-0.020035,-0.154785,0.977036,0.031346,-0.032786,0.012828,84.768845,43.119156,-146.644608,,,
729705289.120547,-8.316287,-1.062177,73.093307,-0.020035,-0.154785,0.977036,0.031346,-0.032786,0.012828,84.768845,43.119156,-146.644608,,,
729705289.123923,-8.305229,-1.071893,73.097924,-0.020035,-0.154785,0.977036,0.031346,-0.032786,0.012828,84.768845,43.119156,-146.644608,,,
729705289.127179,-8.297496,-1.081647,73.103539,-0.00856,-0.154053,0.980347,0.029097,-0.03694,0.022558,84.768845,43.119156,-146.644608,,,
729705289.130533,-8.297496,-1.081647,73.103539,-0.00856,-0.154053,0.980347,0.029097,-0.03694,0.022558,84.768845,43.119156,-146.644608,,,
729705289.133866,-8.288714,-1.090097,73.110758,-0.00856,-0.154053,0.980347,0.029097,-0.03694,0.022558,84.768845,43.119156,-146.644608,,,
729705289.137176,-8.280767,-1.097126,73.11961,-0.004654,-0.157471,0.9823,0.032679,-0.013281,0.034789,84.768845,43.119156,-146.644608,,,
729705289.140585,-8.280767,-1.097126,73.11961,-0.004654,-0.157471,0.9823,0.032679,-0.013281,0.034789,84.768845,43.119156,-146.644608,,,
729705289.14395,-8.271746,-1.097593,73.130911,-0.004654,-0.157471,0.9823,0.032679,-0.013281,0.034789,84.768845,43.119156,-146.644608,,,
729705289.147181,-8.264792,-1.099501,73.145428,0.001312,-0.156494,0.991211,0.020496,-0.030966,0.062123,84.91362,43.169617,-146.726166,,,
729705289.150536,-8.264792,-1.099501,73.145428,0.001312,-0.156494,0.991211,0.020496,-0.030966,0.062123,84.91362,43.169617,-146.726166,,,
729705289.153913,-8.260223,-1.107296,73.165072,0.001312,-0.156494,0.991211,0.020496,-0.030966,0.062123,84.91362,43.169617,-146.726166,,,
729705289.157273,-8.255935,-1.12505,73.189294,-0.003738,-0.158279,0.946396,0.020682,-0.075565,0.094137,84.91362,43.169617,-146.726166,,,
729705289.160537,-8.255935,-1.12505,73.189294,-0.003738,-0.158279,0.946396,0.020682,-0.075565,0.094137,84.91362,43.169617,-146.726166,,,
729705289.163877,-8.251276,-1.138755,73.217361,-0.003738,-0.158279,0.946396,0.020682,-0.075565,0.094137,84.91362,43.169617,-146.726166,,,
729705289.167189,-8.245538,-1.149536,73.245846,0.016815,-0.151093,0.985535,0.01701,-0.031763,0.094872,84.91362,43.169617,-146.726166,,,
729705289.170534,-8.245538,-1.149536,73.245846,0.016815,-0.151093,0.985535,0.01701,-0.031763,0.094872,84.91362,43.169617,-146.726166,,,
729705289.173872,-8.241881,-1.150663,73.27416,0.016815,-0.151093,0.985535,0.01701,-0.031763,0.094872,84.91362,43.169617,-146.726166,,,
729705289.177186,-8.236658,-1.152048,73.301107,0.045654,-0.140732,0.992783,0.026686,-0.009465,0.092412,84.91362,43.169617,-146.726166,,,
729705289.180599,-8.236658,-1.152048,73.301107,0.045654,-0.140732,0.992783,0.026686,-0.009465,0.092412,84.91362,43.169617,-146.726166,,,
729705289.183851,-8.230547,-1.146783,73.328887,0.045654,-0.140732,0.992783,0.026686,-0.009465,0.092412,84.91362,43.169617,-146.726166,,,
729705289.187182,-8.22252,-1.145373,73.355664,0.044937,-0.139969,0.991821,0.032483,-0.001831,0.08803,84.91362,43.169617,-146.726166,,,
729705289.190529,-8.22252,-1.145373,73.355664,0.044937,-0.139969,0.991821,0.032483,-0.001831,0.08803,84.930832,42.976883,-146.749954,,,
729705289.193907,-8.215977,-1.136969,73.382026,0.044937,-0.139969,0.991821,0.032483,-0.001831,0.08803,84.930832,42.976883,-146.749954,,,
729705289.197178,-8.207676,-1.132982,73.406401,0.047806,-0.13443,0.983734,0.034568,0.006879,0.078081,84.930832,42.976883,-146.749954,,,
729705289.200527,-8.207676,-1.132982,73.406401,0.047806,-0.13443,0.983734,0.034568,0.006879,0.078081,84.930832,42.976883,-146.749954,,,
729705289.203862,-8.200722,-1.125233,73.429491,0.047806,-0.13443,0.983734,0.034568,0.006879,0.078081,84.930832,42.976883,-146.749954,,,
729705289.207181,-8.192985,-1.121651,73.449948,0.057663,-0.127579,0.979431,0.022484,0.006189,0.063373,84.930832,42.976883,-146.749954,,,
729705289.210641,-8.192985,-1.121651,73.449948,0.057663,-0.127579,0.979431,0.022484,0.006189,0.063373,84.930832,42.976883,-146.749954,,,
729705289.21391,-8.188427,-1.116466,73.468487,0.057663,-0.127579,0.979431,0.022484,0.006189,0.063373,84.930832,42.976883,-146.749954,,,
729705289.217195,-8.185213,-1.113386,73.484355,0.058014,-0.126465,0.969315,0.006144,0.010327,0.047556,84.930832,42.976883,-146.749954,,,
729705289.220624,-8.185213,-1.113386,73.484355,0.058014,-0.126465,0.969315,0.006144,0.010327,0.047556,84.930832,42.976883,-146.749954,,,
729705289.223876,-8.185255,-1.107523,73.498108,0.058014,-0.126465,0.969315,0.006144,0.010327,0.047556,84.930832,42.976883,-146.749954,,,
729705289.227194,-8.185703,-1.101498,73.509144,0.058105,-0.12616,0.968384,-0.002088,0.024577,0.029449,84.930832,42.976883,-146.749954,,,
729705289.230518,-8.185703,-1.101498,73.509144,0.058105,-0.12616,0.968384,-0.002088,0.024577,0.029449,85.114868,42.842484,-146.7155,,,
729705289.233926,-8.187948,-1.092932,73.517804,0.058105,-0.12616,0.968384,-0.002088,0.024577,0.029449,85.114868,42.842484,-146.7155,,,
729705289.237189,-8.189224,-1.08459,73.523829,0.058243,-0.126999,0.969437,-0.003673,0.030668,0.012351,85.114868,42.842484,-146.7155,,,
729705289.240527,-8.189224,-1.08459,73.523829,0.058243,-0.126999,0.969437,-0.003673,0.030668,0.012351,85.114868,42.842484,-146.7155,,,
729705289.243871,-8.191835,-1.075116,73.528058,0.058243,-0.126999,0.969437,-0.003673,0.030668,0.012351,85.114868,42.842484,-146.7155,,,
729705289.247194,-8.193557,-1.06678,73.531158,0.053177,-0.132477,0.973572,-0.005552,0.029562,0.008515,85.114868,42.842484,-146.7155,,,
729705289.25053,-8.193557,-1.06678,73.531158,0.053177,-0.132477,0.973572,-0.005552,0.029562,0.008515,85.114868,42.842484,-146.7155,,,
729705289.253871,-8.195481,-1.060969,73.534083,0.053177,-0.132477,0.973572,-0.005552,0.029562,0.008515,85.114868,42.842484,-146.7155,,,
729705289.257186,-8.196933,-1.056574,73.536843,0.043655,-0.136307,0.970596,-0.000619,0.013835,0.006932,85.114868,42.842484,-146.7155,,,
729705289.260615,-8.196933,-1.056574,73.536843,0.043655,-0.136307,0.970596,-0.000619,0.013835,0.006932,85.114868,42.842484,-146.7155,,,
729705289.263864,-8.197189,-1.05595,73.538576,0.043655,-0.136307,0.970596,-0.000619,0.013835,0.006932,85.114868,42.842484,-146.7155,,,
729705289.267184,-8.197492,-1.054277,73.540527,0.039597,-0.1427,0.975266,-0.004603,0.004546,0.007537,85.114868,42.842484,-146.7155,,,
729705289.270533,-8.197492,-1.054277,73.540527,0.039597,-0.1427,0.975266,-0.004603,0.004546,0.007537,85.146469,42.926025,-147.062012,,,
729705289.273855,-8.198247,-1.054994,73.542271,0.039597,-0.1427,0.975266,-0.004603,0.004546,0.007537,85.146469,42.926025,-147.062012,,,
729705289.277187,-8.200076,-1.053616,73.544557,0.034851,-0.146591,0.981201,-0.008606,0.005651,0.005208,85.146469,42.926025,-147.062012,,,
729705289.280525,-8.200076,-1.053616,73.544557,0.034851,-0.146591,0.981201,-0.008606,0.005651,0.005208,85.146469,42.926025,-147.062012,,,
729705289.283866,-8.201452,-1.056199,73.545875,0.034851,-0.146591,0.981201,-0.008606,0.005651,0.005208,85.146469,42.926025,-147.062012,,,
729705289.287182,-8.204853,-1.05558,73.5463,0.037918,-0.143723,0.982117,-0.016064,0.008386,-0.004357,85.146469,42.926025,-147.062012,,,
729705289.29053,-8.204853,-1.05558,73.5463,0.037918,-0.143723,0.982117,-0.016064,0.008386,-0.004357,85.146469,42.926025,-147.062012,,,
729705289.293869,-8.207743,-1.059305,73.544495,0.037918,-0.143723,0.982117,-0.016064,0.008386,-0.004357,85.146469,42.926025,-147.062012,,,
729705289.29718,-8.213193,-1.055364,73.541123,0.041626,-0.14241,0.989563,-0.020351,0.025844,-0.016044,85.146469,42.926025,-147.062012,,,
729705289.300601,-8.213193,-1.055364,73.541123,0.041626,-0.14241,0.989563,-0.020351,0.025844,-0.016044,85.146469,42.926025,-147.062012,,,
729705289.303858,-8.217331,-1.053644,73.534946,0.041626,-0.14241,0.989563,-0.020351,0.025844,-0.016044,85.146469,42.926025,-147.062012,,,
729705289.307187,-8.224121,-1.045104,73.52806,0.039062,-0.14505,0.989548,-0.026795,0.039811,-0.027927,85.146469,42.926025,-147.062012,,,
729705289.310518,-8.224121,-1.045104,73.52806,0.039062,-0.14505,0.989548,-0.026795,0.039811,-0.027927,85.069534,42.911743,-147.011215,,,
729705289.313657,-8.229355,-1.04129,73.518848,0.039062,-0.14505,0.989548,-0.026795,0.039811,-0.027927,85.069534,42.911743,-147.011215,,,
729705289.317209,-8.23645,-1.031969,73.508251,0.037567,-0.143982,0.986328,-0.02758,0.038789,-0.045528,85.069534,42.911743,-147.011215,,,
729705289.320507,-8.23645,-1.031969,73.508251,0.037567,-0.143982,0.986328,-0.02758,0.038789,-0.045528,85.069534,42.911743,-147.011215,,,
729705289.323867,-8.242393,-1.028869,73.494645,0.037567,-0.143982,0.986328,-0.02758,0.038789,-0.045528,85.069534,42.911743,-147.011215,,,
729705289.327185,-8.249935,-1.021382,73.480632,0.032532,-0.146805,0.986725,-0.022613,0.033742,-0.051567,85.069534,42.911743,-147.011215,,,
729705289.330535,-8.249935,-1.021382,73.480632,0.032532,-0.146805,0.986725,-0.022613,0.033742,-0.051567,85.069534,42.911743,-147.011215,,,
729705289.333845,-8.255853,-1.018988,73.465971,0.032532,-0.146805,0.986725,-0.022613,0.033742,-0.051567,85.069534,42.911743,-147.011215,,,
729705289.337179,-8.261835,-1.013308,73.452929,0.020584,-0.152893,0.990829,-0.017993,0.024222,-0.041413,85.069534,42.911743,-147.011215,,,
729705289.34061,-8.261835,-1.013308,73.452929,0.020584,-0.152893,0.990829,-0.017993,0.024222,-0.041413,85.069534,42.911743,-147.011215,,,
729705289.343854,-8.266321,-1.011883,73.440429,0.020584,-0.152893,0.990829,-0.017993,0.024222,-0.041413,85.069534,42.911743,-147.011215,,,
729705289.347188,-8.269495,-1.007797,73.429798,0.019791,-0.151062,0.993912,-0.008063,0.015677,-0.033651,85.069534,42.911743,-147.011215,,,
729705289.350528,-8.269495,-1.007797,73.429798,0.019791,-0.151062,0.993912,-0.008063,0.015677,-0.033651,85.069534,42.911743,-147.011215,,,
729705289.35392,-8.272083,-1.008518,73.420238,0.019791,-0.151062,0.993912,-0.008063,0.015677,-0.033651,85.050476,42.955414,-146.501877,,,
729705289.357166,-8.273307,-1.00928,73.412101,0.015961,-0.154465,0.992615,-0.001185,-0.002663,-0.025301,85.050476,42.955414,-146.501877,,,
729705289.360527,-8.273307,-1.00928,73.412101,0.015961,-0.154465,0.992615,-0.001185,-0.002663,-0.025301,85.050476,42.955414,-146.501877,,,
729705289.363849,-8.274352,-1.014051,73.404442,0.015961,-0.154465,0.992615,-0.001185,-0.002663,-0.025301,85.050476,42.955414,-146.501877,,,
729705289.367177,-8.275676,-1.017617,73.397493,0.013565,-0.15303,0.991653,-0.002866,-0.010306,-0.025119,85.050476,42.955414,-146.501877,,,
729705289.370529,-8.275676,-1.017617,73.397493,0.013565,-0.15303,0.991653,-0.002866,-0.010306,-0.025119,85.050476,42.955414,-146.501877,,,
729705289.37388,-8.277395,-1.025871,73.389945,0.013565,-0.15303,0.991653,-0.002866,-0.010306,-0.025119,85.050476,42.955414,-146.501877,,,
729705289.37719,-8.278797,-1.030955,73.382507,0.013077,-0.150787,0.994339,-0.005233,-0.006383,-0.027463,85.050476,42.955414,-146.501877,,,
729705289.380594,-8.278797,-1.030955,73.382507,0.013077,-0.150787,0.994339,-0.005233,-0.006383,-0.027463,85.050476,42.955414,-146.501877,,,
729705289.383863,-8.279378,-1.038447,73.374627,0.013077,-0.150787,0.994339,-0.005233,-0.006383,-0.027463,85.050476,42.955414,-146.501877,,,
729705289.387187,-8.2788,-1.041846,73.367412,0.009033,-0.155273,0.999527,0.003339,-0.003056,-0.027405,85.050476,42.955414,-146.501877,,,
729705289.390527,-8.2788,-1.041846,73.367412,0.009033,-0.155273,0.999527,0.003339,-0.003056,-0.027405,85.050476,42.955414,-146.501877,,,
729705289.393914,-8.27713,-1.048241,73.35967,0.009033,-0.155273,0.999527,0.003339,-0.003056,-0.027405,84.976379,43.173401,-146.67366,,,
729705289.397179,-8.274204,-1.053714,73.352305,0.007675,-0.1595,0.996857,0.014458,-0.018386,-0.024442,84.976379,43.173401,-146.67366,,,
729705289.400533,-8.274204,-1.053714,73.352305,0.007675,-0.1595,0.996857,0.014458,-0.018386,-0.024442,84.976379,43.173401,-146.67366,,,
729705289.403863,-8.269785,-1.063727,73.345168,0.007675,-0.1595,0.996857,0.014458,-0.018386,-0.024442,84.976379,43.173401,-146.67366,,,
729705289.407184,-8.263374,-1.072703,73.340184,0.004395,-0.158524,0.992493,0.025799,-0.032766,-0.014991,84.976379,43.173401,-146.67366,,,
729705289.410526,-8.263374,-1.072703,73.340184,0.004395,-0.158524,0.992493,0.025799,-0.032766,-0.014991,84.976379,43.173401,-146.67366,,,
729705289.413864,-8.256412,-1.083874,73.336914,0.004395,-0.158524,0.992493,0.025799,-0.032766,-0.014991,84.976379,43.173401,-146.67366,,,
729705289.417182,-8.247783,-1.095641,73.334565,0.004623,-0.153793,0.993378,0.029672,-0.045825,-0.00667,84.976379,43.173401,-146.67366,,,
729705289.420599,-8.247783,-1.095641,73.334565,0.004623,-0.153793,0.993378,0.029672,-0.045825,-0.00667,84.976379,43.173401,-146.67366,,,
729705289.423854,-8.239878,-1.109934,73.333194,0.004623,-0.153793,0.993378,0.029672,-0.045825,-0.00667,84.976379,43.173401,-146.67366,,,
729705289.427185,-8.230272,-1.126388,73.332603,0.007629,-0.147659,0.987869,0.035942,-0.058801,-0.004253,84.976379,43.173401,-146.67366,,,
729705289.430533,-8.230272,-1.126388,73.332603,0.007629,-0.147659,0.987869,0.035942,-0.058801,-0.004253,84.976379,43.173401,-146.67366,,,
729705289.433842,-8.222207,-1.144068,73.332017,0.007629,-0.147659,0.987869,0.035942,-0.058801,-0.004253,84.947845,43.157654,-146.890625,,,
729705289.437179,-8.214184,-1.162572,73.330683,0.010437,-0.141724,0.988281,0.028303,-0.058884,-0.011302,84.947845,43.157654,-146.890625,,,
729705289.44052,-8.214184,-1.162572,73.330683,0.010437,-0.141724,0.988281,0.028303,-0.058884,-0.011302,84.947845,43.157654,-146.890625,,,
729705289.443908,-8.208105,-1.180135,73.327948,0.010437,-0.141724,0.988281,0.028303,-0.058884,-0.011302,84.947845,43.157654,-146.890625,,,
729705289.447173,-8.200569,-1.198455,73.324298,0.014145,-0.13858,0.987534,0.026654,-0.055812,-0.013854,84.947845,43.157654,-146.890625,,,
729705289.450548,-8.200569,-1.198455,73.324298,0.014145,-0.13858,0.987534,0.026654,-0.055812,-0.013854,84.947845,43.157654,-146.890625,,,
729705289.453866,-8.19371,-1.215555,73.321008,0.014145,-0.13858,0.987534,0.026654,-0.055812,-0.013854,84.947845,43.157654,-146.890625,,,
729705289.457178,-8.186528,-1.231734,73.318397,0.014313,-0.138596,0.988373,0.02262,-0.043962,-0.006763,84.947845,43.157654,-146.890625,,,
729705289.460532,-8.186528,-1.231734,73.318397,0.014313,-0.138596,0.988373,0.02262,-0.043962,-0.006763,84.947845,43.157654,-146.890625,,,
729705289.463883,-8.181484,-1.243236,73.317782,0.014313,-0.138596,0.988373,0.02262,-0.043962,-0.006763,84.947845,43.157654,-146.890625,,,
729705289.467176,-8.175098,-1.252918,73.319472,0.015991,-0.14325,0.993149,0.026067,-0.022947,0.011222,84.947845,43.157654,-146.890625,,,
729705289.470597,-8.175098,-1.252918,73.319472,0.015991,-0.14325,0.993149,0.026067,-0.022947,0.011222,84.947845,43.157654,-146.890625,,,
729705289.473877,-8.170414,-1.258096,73.324019,0.015991,-0.14325,0.993149,0.026067,-0.022947,0.011222,84.945312,42.969879,-146.955734,,,
729705289.477193,-8.163511,-1.263178,73.330996,0.018188,-0.14711,0.995163,0.025616,-0.016134,0.029507,84.945312,42.969879,-146.955734,,,
729705289.480532,-8.163511,-1.263178,73.330996,0.018188,-0.14711,0.995163,0.025616,-0.016134,0.029507,84.945312,42.969879,-146.955734,,,
729705289.483856,-8.158472,-1.265533,73.340945,0.018188,-0.14711,0.995163,0.025616,-0.016134,0.029507,84.945312,42.969879,-146.955734,,,
729705289.487208,-8.150929,-1.26984,73.351636,0.01973,-0.144516,0.99205,0.031466,-0.015832,0.032944,84.945312,42.969879,-146.955734,,,
729705289.490525,-8.150929,-1.26984,73.351636,0.01973,-0.144516,0.99205,0.031466,-0.015832,0.032944,84.945312,42.969879,-146.955734,,,
729705289.493918,-8.144628,-1.270567,73.361587,0.01973,-0.144516,0.99205,0.031466,-0.015832,0.032944,84.945312,42.969879,-146.955734,,,
729705289.497181,-8.134963,-1.272133,73.36898,0.024185,-0.13591,0.994659,0.037956,-0.002592,0.018683,84.945312,42.969879,-146.955734,,,
729705289.500531,-8.134963,-1.272133,73.36898,0.024185,-0.13591,0.994659,0.037956,-0.002592,0.018683,84.945312,42.969879,-146.955734,,,
729705289.503864,-8.125283,-1.270213,73.374335,0.024185,-0.13591,0.994659,0.037956,-0.002592,0.018683,84.945312,42.969879,-146.955734,,,
729705289.507183,-8.112212,-1.269843,73.377012,0.02858,-0.132599,0.997284,0.05484,0.002107,0.001305,84.945312,42.969879,-146.955734,,,
729705289.510507,-8.112212,-1.269843,73.377012,0.02858,-0.132599,0.997284,0.05484,0.002107,0.001305,84.945312,42.969879,-146.955734,,,
729705289.513867,-8.096571,-1.26833,73.378143,0.02858,-0.132599,0.997284,0.05484,0.002107,0.001305,84.945312,42.969879,-146.955734,,,
729705289.517182,-8.078366,-1.270476,73.378327,0.026627,-0.136459,0.990845,0.066168,-0.009311,-0.004496,85.03392,42.761108,-147.066589,,,
729705289.520591,-8.078366,-1.270476,73.378327,0.026627,-0.136459,0.990845,0.066168,-0.009311,-0.004496,85.03392,42.761108,-147.066589,,,
729705289.523856,-8.059711,-1.27289,73.378032,0.026627,-0.136459,0.990845,0.066168,-0.009311,-0.004496,85.03392,42.761108,-147.066589,,,
729705289.527182,-8.041937,-1.277245,73.377159,0.022827,-0.13652,0.980621,0.057931,-0.01325,-0.004673,85.03392,42.761108,-147.066589,,,
729705289.530524,-8.041937,-1.277245,73.377159,0.022827,-0.13652,0.980621,0.057931,-0.01325,-0.004673,85.03392,42.761108,-147.066589,,,
729705289.533927,-8.025238,-1.280592,73.376869,0.022827,-0.13652,0.980621,0.057931,-0.01325,-0.004673,85.03392,42.761108,-147.066589,,,
729705289.537174,-8.010101,-1.285006,73.376941,0.021881,-0.131973,0.977631,0.048286,-0.01208,-0.000761,85.03392,42.761108,-147.066589,,,
729705289.540544,-8.010101,-1.285006,73.376941,0.021881,-0.131973,0.977631,0.048286,-0.01208,-0.000761,85.03392,42.761108,-147.066589,,,
729705289.543849,-7.997054,-1.288641,73.377443,0.021881,-0.131973,0.977631,0.048286,-0.01208,-0.000761,85.03392,42.761108,-147.066589,,,
729705289.547261,-7.985826,-1.293139,73.377704,0.024002,-0.131409,0.97699,0.03723,-0.007898,-0.002119,85.03392,42.761108,-147.066589,,,
729705289.550519,-7.985826,-1.293139,73.377704,0.024002,-0.131409,0.97699,0.03723,-0.007898,-0.002119,85.03392,42.761108,-147.066589,,,
729705289.55382,-7.976966,-1.295601,73.377527,0.024002,-0.131409,0.97699,0.03723,-0.007898,-0.002119,85.03392,42.761108,-147.066589,,,
729705289.557193,-7.968744,-1.296226,73.376535,0.024582,-0.12825,0.980026,0.0253,0.00725,-0.006543,85.044846,42.712219,-146.986984,,,
729705289.560512,-7.968744,-1.296226,73.376535,0.024582,-0.12825,0.980026,0.0253,0.00725,-0.006543,85.044846,42.712219,-146.986984,,,
729705289.563857,-7.963553,-1.293686,73.375471,0.024582,-0.12825,0.980026,0.0253,0.00725,-0.006543,85.044846,42.712219,-146.986984,,,
729705289.567181,-7.958648,-1.289354,73.374786,0.022003,-0.132675,0.985016,0.016005,0.026191,-0.002188,85.044846,42.712219,-146.986984,,,
729705289.570533,-7.958648,-1.289354,73.374786,0.022003,-0.132675,0.985016,0.016005,0.026191,-0.002188,85.044846,42.712219,-146.986984,,,
729705289.573854,-7.954867,-1.282324,73.374596,0.022003,-0.132675,0.985016,0.016005,0.026191,-0.002188,85.044846,42.712219,-146.986984,,,
729705289.577184,-7.951874,-1.272357,73.375324,0.021515,-0.136551,0.982971,0.010102,0.044968,0.002526,85.044846,42.712219,-146.986984,,,
729705289.580507,-7.951874,-1.272357,73.375324,0.021515,-0.136551,0.982971,0.010102,0.044968,0.002526,85.044846,42.712219,-146.986984,,,
729705289.583919,-7.948465,-1.26058,73.377316,0.021515,-0.136551,0.982971,0.010102,0.044968,0.002526,85.044846,42.712219,-146.986984,,,
729705289.587176,-7.946089,-1.246294,73.381215,0.020065,-0.139435,0.983841,0.01351,0.050066,0.016601,85.044846,42.712219,-146.986984,,,
729705289.590507,-7.946089,-1.246294,73.381215,0.020065,-0.139435,0.983841,0.01351,0.050066,0.016601,85.044846,42.712219,-146.986984,,,
729705289.593875,-7.942915,-1.23254,73.387062,0.020065,-0.139435,0.983841,0.01351,0.050066,0.016601,85.044846,42.712219,-146.986984,,,
729705289.597179,-7.94004,-1.218944,73.394832,0.016022,-0.138901,0.979736,0.012369,0.043438,0.026559,85.01683,42.581757,-146.811813,,,
729705289.600532,-7.94004,-1.218944,73.394832,0.016022,-0.138901,0.979736,0.012369,0.043438,0.026559,85.01683,42.581757,-146.811813,,,
729705289.603863,-7.937202,-1.207525,73.403516,0.016022,-0.138901,0.979736,0.012369,0.043438,0.026559,85.01683,42.581757,-146.811813,,,
729705289.607181,-7.934227,-1.19839,73.412178,0.016235,-0.135681,0.978973,0.013292,0.020278,0.026073,85.01683,42.581757,-146.811813,,,
729705289.610586,-7.934227,-1.19839,73.412178,0.016235,-0.135681,0.978973,0.013292,0.020278,0.026073,85.01683,42.581757,-146.811813,,,
729705289.613841,-7.930419,-1.194299,73.420477,0.016235,-0.135681,0.978973,0.013292,0.020278,0.026073,85.01683,42.581757,-146.811813,,,
729705289.617178,-7.926838,-1.195015,73.427521,0.013687,-0.130676,0.977737,0.010824,-0.015877,0.015582,85.01683,42.581757,-146.811813,,,
729705289.62053,-7.926838,-1.195015,73.427521,0.013687,-0.130676,0.977737,0.010824,-0.015877,0.015582,85.01683,42.581757,-146.811813,,,
729705289.62388,-7.922867,-1.200619,73.431826,0.013687,-0.130676,0.977737,0.010824,-0.015877,0.015582,85.01683,42.581757,-146.811813,,,
729705289.627185,-7.919898,-1.210302,73.433219,0.017059,-0.125534,0.9814,0.006126,-0.038785,-0.00595,85.01683,42.581757,-146.811813,,,
729705289.630523,-7.919898,-1.210302,73.433219,0.017059,-0.125534,0.9814,0.006126,-0.038785,-0.00595,85.01683,42.581757,-146.811813,,,
729705289.633852,-7.916989,-1.223921,73.431122,0.017059,-0.125534,0.9814,0.006126,-0.038785,-0.00595,85.01683,42.581757,-146.811813,,,
729705289.637179,-7.915984,-1.239278,73.425925,0.01889,-0.129745,0.989197,0.000435,-0.052098,-0.025811,85.01683,42.581757,-146.811813,,,
729705289.640521,-7.915984,-1.239278,73.425925,0.01889,-0.129745,0.989197,0.000435,-0.052098,-0.025811,84.899551,42.798523,-147.00885,,,
729705289.643861,-7.914825,-1.25657,73.418675,0.01889,-0.129745,0.989197,0.000435,-0.052098,-0.025811,84.899551,42.798523,-147.00885,,,
729705289.647175,-7.915174,-1.273578,73.410375,0.022171,-0.134918,0.991974,0.001164,-0.052015,-0.030518,84.899551,42.798523,-147.00885,,,
729705289.65061,-7.915174,-1.273578,73.410375,0.022171,-0.134918,0.991974,0.001164,-0.052015,-0.030518,84.899551,42.798523,-147.00885,,,
729705289.653857,-7.914701,-1.289568,73.402856,0.022171,-0.134918,0.991974,0.001164,-0.052015,-0.030518,84.899551,42.798523,-147.00885,,,
729705289.657185,-7.914133,-1.303881,73.397262,0.025055,-0.139572,0.994568,0.00334,-0.039424,-0.015325,84.899551,42.798523,-147.00885,,,
729705289.660521,-7.914133,-1.303881,73.397262,0.025055,-0.139572,0.994568,0.00334,-0.039424,-0.015325,84.899551,42.798523,-147.00885,,,
729705289.663907,-7.913486,-1.315576,73.394251,0.025055,-0.139572,0.994568,0.00334,-0.039424,-0.015325,84.899551,42.798523,-147.00885,,,
729705289.667178,-7.912235,-1.324648,73.39451,0.022858,-0.144135,0.995804,0.005242,-0.022917,0.006719,84.899551,42.798523,-147.00885,,,
729705289.670531,-7.912235,-1.324648,73.39451,0.022858,-0.144135,0.995804,0.005242,-0.022917,0.006719,84.899551,42.798523,-147.00885,,,
729705289.673862,-7.911455,-1.33072,73.397958,0.022858,-0.144135,0.995804,0.005242,-0.022917,0.006719,84.899551,42.798523,-147.00885,,,
729705289.677178,-7.910538,-1.335498,73.403749,0.024887,-0.145813,0.990799,0.002817,-0.01361,0.023607,84.899551,42.798523,-147.00885,,,
729705289.680513,-7.910538,-1.335498,73.403749,0.024887,-0.145813,0.990799,0.002817,-0.01361,0.023607,84.808609,42.736984,-146.609039,,,
729705289.68386,-7.909846,-1.338343,73.411795,0.024887,-0.145813,0.990799,0.002817,-0.01361,0.023607,84.808609,42.736984,-146.609039,,,
729705289.687194,-7.909091,-1.341349,73.42168,0.026672,-0.142685,0.989716,0.003318,-0.009438,0.031617,84.808609,42.736984,-146.609039,,,
729705289.690605,-7.909091,-1.341349,73.42168,0.026672,-0.142685,0.989716,0.003318,-0.009438,0.031617,84.808609,42.736984,-146.609039,,,
729705289.693857,-7.907522,-1.342798,73.431701,0.026672,-0.142685,0.989716,0.003318,-0.009438,0.031617,84.808609,42.736984,-146.609039,,,
729705289.697213,-7.905255,-1.344496,73.440826,0.02623,-0.137695,0.988693,0.009318,-0.00343,0.0284,84.808609,42.736984,-146.609039,,,
729705289.700571,-7.905255,-1.344496,73.440826,0.02623,-0.137695,0.988693,0.009318,-0.00343,0.0284,84.808609,42.736984,-146.609039,,,
729705289.703915,-7.901659,-1.343935,73.449475,0.02623,-0.137695,0.988693,0.009318,-0.00343,0.0284,84.808609,42.736984,-146.609039,,,
729705289.707172,-7.899123,-1.344268,73.456193,0.029434,-0.133209,0.987473,0.009661,-0.001962,0.015683,84.808609,42.736984,-146.609039,,,
729705289.710529,-7.899123,-1.344268,73.456193,0.029434,-0.133209,0.987473,0.009661,-0.001962,0.015683,84.808609,42.736984,-146.609039,,,
729705289.713926,-7.895397,-1.345068,73.460932,0.029434,-0.133209,0.987473,0.009661,-0.001962,0.015683,84.808609,42.736984,-146.609039,,,
729705289.717174,-7.893241,-1.348414,73.464072,0.031555,-0.130463,0.980286,0.006263,-0.014493,0.005901,84.808609,42.736984,-146.609039,,,
729705289.720514,-7.893241,-1.348414,73.464072,0.031555,-0.130463,0.980286,0.006263,-0.014493,0.005901,84.961945,42.551254,-146.66687,,,
729705289.723849,-7.890802,-1.353041,73.466152,0.031555,-0.130463,0.980286,0.006263,-0.014493,0.005901,84.961945,42.551254,-146.66687,,,
729705289.727185,-7.890155,-1.359872,73.466781,0.028473,-0.130112,0.977707,-0.003426,-0.023737,-0.00438,84.961945,42.551254,-146.66687,,,
729705289.730584,-7.890155,-1.359872,73.466781,0.028473,-0.130112,0.977707,-0.003426,-0.023737,-0.00438,84.961945,42.551254,-146.66687,,,
729705289.733858,-7.891345,-1.368625,73.465591,0.028473,-0.130112,0.977707,-0.003426,-0.023737,-0.00438,84.961945,42.551254,-146.66687,,,
729705289.737214,-7.894479,-1.379265,73.462916,0.031769,-0.127823,0.97731,-0.013506,-0.037117,-0.012466,84.961945,42.551254,-146.66687,,,
729705289.740522,-7.894479,-1.379265,73.462916,0.031769,-0.127823,0.97731,-0.013506,-0.037117,-0.012466,84.961945,42.551254,-146.66687,,,
729705289.743923,-7.899614,-1.391504,73.45902,0.031769,-0.127823,0.97731,-0.013506,-0.037117,-0.012466,84.961945,42.551254,-146.66687,,,
729705289.747171,-7.905224,-1.404375,73.45402,0.030334,-0.132599,0.980286,-0.020532,-0.039933,-0.018602,84.961945,42.551254,-146.66687,,,
729705289.75052,-7.905224,-1.404375,73.45402,0.030334,-0.132599,0.980286,-0.020532,-0.039933,-0.018602,84.961945,42.551254,-146.66687,,,
729705289.753857,-7.912136,-1.417911,73.448424,0.030334,-0.132599,0.980286,-0.020532,-0.039933,-0.018602,84.961945,42.551254,-146.66687,,,
729705289.757181,-7.91817,-1.431766,73.442579,0.027435,-0.135742,0.980087,-0.021064,-0.041636,-0.021662,84.961945,42.551254,-146.66687,,,
729705289.760514,-7.91817,-1.431766,73.442579,0.027435,-0.135742,0.980087,-0.021064,-0.041636,-0.021662,84.541977,42.795258,-146.806976,,,
729705289.763847,-7.925185,-1.444165,73.436302,0.027435,-0.135742,0.980087,-0.021064,-0.041636,-0.021662,84.541977,42.795258,-146.806976,,,
729705289.767179,-7.931516,-1.453233,73.430024,0.030975,-0.138458,0.987091,-0.022933,-0.020173,-0.02209,84.541977,42.795258,-146.806976,,,
729705289.77058,-7.931516,-1.453233,73.430024,0.030975,-0.138458,0.987091,-0.022933,-0.020173,-0.02209,84.541977,42.795258,-146.806976,,,
729705289.773858,-7.938026,-1.45956,73.424387,0.030975,-0.138458,0.987091,-0.022933,-0.020173,-0.02209,84.541977,42.795258,-146.806976,,,
729705289.777178,-7.944359,-1.464602,73.419285,0.031387,-0.14241,0.986725,-0.025119,-0.008495,-0.015519,84.541977,42.795258,-146.806976,,,
729705289.780533,-7.944359,-1.464602,73.419285,0.031387,-0.14241,0.986725,-0.025119,-0.008495,-0.015519,84.541977,42.795258,-146.806976,,,
729705289.783888,-7.951043,-1.469117,73.415049,0.031387,-0.14241,0.986725,-0.025119,-0.008495,-0.015519,84.541977,42.795258,-146.806976,,,
729705289.787172,-7.958856,-1.471569,73.412083,0.028473,-0.14563,0.984818,-0.028043,0.00153,-0.006306,84.541977,42.795258,-146.806976,,,
729705289.790539,-7.958856,-1.471569,73.412083,0.028473,-0.14563,0.984818,-0.028043,0.00153,-0.006306,84.541977,42.795258,-146.806976,,,
729705289.793852,-7.966504,-1.4729,73.410528,0.028473,-0.14563,0.984818,-0.028043,0.00153,-0.006306,84.541977,42.795258,-146.806976,,,
729705289.797177,-7.975661,-1.471785,73.410612,0.02565,-0.15213,0.987381,-0.033108,0.009647,-0.000655,84.541977,42.795258,-146.806976,,,
729705289.800518,-7.975661,-1.471785,73.410612,0.02565,-0.15213,0.987381,-0.033108,0.009647,-0.000655,84.541977,42.795258,-146.806976,,,
729705289.803956,-7.983694,-1.471295,73.411327,0.02565,-0.15213,0.987381,-0.033108,0.009647,-0.000655,84.636169,42.714584,-146.809174,,,
729705289.807235,-7.991853,-1.470989,73.412637,0.026886,-0.151535,0.988541,-0.026197,0.00199,0.003163,84.636169,42.714584,-146.809174,,,
729705289.810585,-7.991853,-1.470989,73.412637,0.026886,-0.151535,0.988541,-0.026197,0.00199,0.003163,84.636169,42.714584,-146.809174,,,
729705289.813858,-7.997657,-1.471751,73.413487,0.026886,-0.151535,0.988541,-0.026197,0.00199,0.003163,84.636169,42.714584,-146.809174,,,
729705289.817169,-8.002868,-1.472562,73.413826,0.029434,-0.148697,0.991516,-0.010687,0.000152,-0.000859,84.636169,42.714584,-146.809174,,,
729705289.820524,-8.002868,-1.472562,73.413826,0.029434,-0.148697,0.991516,-0.010687,0.000152,-0.000859,84.636169,42.714584,-146.809174,,,
729705289.823947,-8.004525,-1.474317,73.413766,0.029434,-0.148697,0.991516,-0.010687,0.000152,-0.000859,84.636169,42.714584,-146.809174,,,
729705289.827201,-8.004669,-1.475465,73.412313,0.031158,-0.144089,0.995071,0.00777,-0.002808,-0.01311,84.636169,42.714584,-146.809174,,,
729705289.830527,-8.004669,-1.475465,73.412313,0.031158,-0.144089,0.995071,0.00777,-0.002808,-0.01311,84.636169,42.714584,-146.809174,,,
729705289.833864,-8.002292,-1.478265,73.409019,0.031158,-0.144089,0.995071,0.00777,-0.002808,-0.01311,84.636169,42.714584,-146.809174,,,
