Time (sec),Pitch (deg),Roll (deg),Yaw(deg),X-Acceleration (g),Y-Acceleration (g),Z-Acceleration (g),Pitch Rate (deg/sec),Roll Rate (deg/sec),Yaw Rate (deg/sec),Magnetic Field in X direction (uT),Magnetic Field in Y direction (uT),Magnetic Field in Z Direction (uT),Latitude (deg),Longitude (deg),Altitude (m)
729706388.511856,-2.031119,-1.435241,163.884077,0.028549,-0.036697,0.998825,0.002019,0.007343,-0.008039,86.298309,14.249298,-147.13414,,,
729706388.515193,-2.030488,-1.435241,163.884077,0.028549,-0.036697,0.998825,0.002019,0.007343,-0.008039,86.298309,14.249298,-147.13414,,,
729706388.51852,-2.029963,-1.43626,163.880447,0.029236,-0.033615,0.992981,0.000854,3.2e-05,-0.015407,86.298309,14.249298,-147.13414,,,
729706388.521889,-2.029872,-1.437974,163.876155,0.029236,-0.033615,0.992981,0.000854,3.2e-05,-0.015407,86.298309,14.249298,-147.13414,,,
729706388.5252,-2.029872,-1.437974,163.876155,0.029236,-0.033615,0.992981,0.000854,3.2e-05,-0.015407,86.298309,14.249298,-147.13414,,,
729706388.528529,-2.03032,-1.439535,163.870952,0.029495,-0.033035,0.994507,-0.003058,-0.001825,-0.02178,86.298309,14.249298,-147.13414,,,
729706388.531849,-2.03032,-1.439535,163.864982,0.029495,-0.033035,0.994507,-0.003058,-0.001825,-0.02178,86.298309,14.249298,-147.13414,,,
729706388.535277,-2.03153,-1.44226,163.864982,0.029495,-0.033035,0.994507,-0.003058,-0.001825,-0.02178,86.298309,14.249298,-147.13414,,,
729706388.538527,-2.033634,-1.442999,163.859201,0.02623,-0.033737,0.995865,-0.00909,0.003488,-0.02063,86.298309,14.249298,-147.13414,,,
729706388.541892,-2.036044,-1.444319,163.853983,0.02623,-0.033737,0.995865,-0.00909,0.003488,-0.02063,86.298309,14.249298,-147.13414,,,
729706388.545198,-2.036044,-1.444319,163.853983,0.02623,-0.033737,0.995865,-0.00909,0.003488,-0.02063,86.298309,14.249298,-147.13414,,,
729706388.548588,-2.038835,-1.443977,163.84973,0.025024,-0.035904,0.994843,-0.009789,0.00663,-0.014176,86.298309,14.249298,-147.13414,,,
729706388.551883,-2.041283,-1.443293,163.846768,0.025024,-0.035904,0.994843,-0.009789,0.00663,-0.014176,86.07019,14.396255,-147.170181,,,
729706388.555181,-2.041283,-1.443293,163.846768,0.025024,-0.035904,0.994843,-0.009789,0.00663,-0.014176,86.07019,14.396255,-147.170181,,,
729706388.558611,-2.04399,-1.440349,163.844963,0.022324,-0.041153,1.000702,-0.010155,0.017783,-0.006282,86.07019,14.396255,-147.170181,,,
729706388.561935,-2.046483,-1.436922,163.843915,0.022324,-0.041153,1.000702,-0.010155,0.017783,-0.006282,86.07019,14.396255,-147.170181,,,
729706388.565183,-2.046483,-1.436922,163.843915,0.022324,-0.041153,1.000702,-0.010155,0.017783,-0.006282,86.07019,14.396255,-147.170181,,,
729706388.568538,-2.047884,-1.433036,163.843035,0.024902,-0.039597,1.001083,-0.004154,0.01826,-0.005389,86.07019,14.396255,-147.170181,,,
729706388.571874,-2.047884,-1.433036,163.843035,0.024902,-0.039597,1.001083,-0.004154,0.01826,-0.005389,86.07019,14.396255,-147.170181,,,
729706388.575248,-2.049171,-1.429689,163.841796,0.024902,-0.039597,1.001083,-0.004154,0.01826,-0.005389,86.07019,14.396255,-147.170181,,,
729706388.578529,-2.049992,-1.426473,163.839992,0.026398,-0.037231,1.000168,-0.002129,0.014361,-0.009459,86.07019,14.396255,-147.170181,,,
729706388.581857,-2.049992,-1.426473,163.839992,0.026398,-0.037231,1.000168,-0.002129,0.014361,-0.009459,86.07019,14.396255,-147.170181,,,
729706388.585186,-2.05094,-1.424313,163.837445,0.026398,-0.037231,1.000168,-0.002129,0.014361,-0.009459,86.07019,14.396255,-147.170181,,,
729706388.588523,-2.052647,-1.422891,163.834124,0.024902,-0.037125,0.994019,-0.008054,0.005556,-0.014774,86.07019,14.396255,-147.170181,,,
729706388.591871,-2.052647,-1.422891,163.830113,0.024902,-0.037125,0.994019,-0.008054,0.005556,-0.014774,86.07019,14.396255,-147.170181,,,
729706388.595196,-2.055139,-1.42389,163.830113,0.024902,-0.037125,0.994019,-0.008054,0.005556,-0.014774,86.229385,14.192642,-147.014084,,,
729706388.598517,-2.058132,-1.426297,163.82573,0.022629,-0.03595,0.989243,-0.01077,-0.008095,-0.017431,86.229385,14.192642,-147.014084,,,
729706388.601935,-2.058132,-1.426297,163.82573,0.022629,-0.03595,0.989243,-0.01077,-0.008095,-0.017431,86.229385,14.192642,-147.014084,,,
729706388.605183,-2.060485,-1.431345,163.820835,0.022629,-0.03595,0.989243,-0.01077,-0.008095,-0.017431,86.229385,14.192642,-147.014084,,,
729706388.608577,-2.062313,-1.436918,163.816002,0.020615,-0.039352,0.991455,-0.004657,-0.019038,-0.017366,86.229385,14.192642,-147.014084,,,
729706388.611912,-2.062313,-1.436918,163.816002,0.020615,-0.039352,0.991455,-0.004657,-0.019038,-0.017366,86.229385,14.192642,-147.014084,,,
729706388.615241,-2.062928,-1.443661,163.811858,0.020615,-0.039352,0.991455,-0.004657,-0.019038,-0.017366,86.229385,14.192642,-147.014084,,,
729706388.618517,-2.062673,-1.449561,163.808293,0.020966,-0.04039,0.997971,0.003453,-0.01613,-0.013621,86.229385,14.192642,-147.014084,,,
729706388.62188,-2.062673,-1.449561,163.808293,0.020966,-0.04039,0.997971,0.003453,-0.01613,-0.013621,86.229385,14.192642,-147.014084,,,
729706388.625186,-2.061117,-1.454495,163.805209,0.020966,-0.04039,0.997971,0.003453,-0.01613,-0.013621,86.229385,14.192642,-147.014084,,,
729706388.628598,-2.058522,-1.45721,163.802761,0.020355,-0.042679,1.004456,0.012061,-0.001081,-0.009374,86.229385,14.192642,-147.014084,,,
729706388.631855,-2.058522,-1.45721,163.802761,0.020355,-0.042679,1.004456,0.012061,-0.001081,-0.009374,86.229385,14.192642,-147.014084,,,
729706388.635194,-2.054794,-1.457891,163.801291,0.020355,-0.042679,1.004456,0.012061,-0.001081,-0.009374,86.276215,14.121399,-147.127945,,,
729706388.638516,-2.049845,-1.458397,163.801026,0.016434,-0.041931,1.003174,0.017418,0.002512,-0.001035,86.276215,14.121399,-147.127945,,,
729706388.641931,-2.049845,-1.458397,163.801026,0.016434,-0.041931,1.003174,0.017418,0.002512,-0.001035,86.276215,14.121399,-147.127945,,,
729706388.645184,-2.046367,-1.457919,163.801953,0.016434,-0.041931,1.003174,0.017418,0.002512,-0.001035,86.276215,14.121399,-147.127945,,,
729706388.648528,-2.043426,-1.457656,163.803429,0.01828,-0.03685,0.99408,0.009413,0.003205,0.003053,86.276215,14.121399,-147.127945,,,
729706388.651901,-2.043426,-1.457656,163.803429,0.01828,-0.03685,0.99408,0.009413,0.003205,0.003053,86.276215,14.121399,-147.127945,,,
729706388.655259,-2.042352,-1.457698,163.805019,0.01828,-0.03685,0.99408,0.009413,0.003205,0.003053,86.276215,14.121399,-147.127945,,,
729706388.658514,-2.043047,-1.457976,163.806304,0.020828,-0.033722,0.99025,-0.005698,0.000627,0.001284,86.276215,14.121399,-147.127945,,,
729706388.661859,-2.043047,-1.457976,163.806304,0.020828,-0.033722,0.99025,-0.005698,0.000627,0.001284,86.276215,14.121399,-147.127945,,,
729706388.665214,-2.045475,-1.459221,163.807453,0.020828,-0.033722,0.99025,-0.005698,0.000627,0.001284,86.276215,14.121399,-147.127945,,,
729706388.668521,-2.048245,-1.460603,163.808318,0.021179,-0.034988,0.991852,-0.009316,-0.000709,-0.000631,86.276215,14.121399,-147.127945,,,
729706388.671865,-2.048245,-1.460603,163.808318,0.021179,-0.034988,0.991852,-0.009316,-0.000709,-0.000631,86.276215,14.121399,-147.127945,,,
729706388.675187,-2.050917,-1.46207,163.808536,0.021179,-0.034988,0.991852,-0.009316,-0.000709,-0.000631,86.13887,14.198257,-147.322647,,,
729706388.678519,-2.053299,-1.464449,163.808446,0.0242,-0.035858,0.999054,-0.007679,-0.004935,-0.002728,86.13887,14.198257,-147.322647,,,
729706388.681916,-2.053299,-1.464449,163.808446,0.0242,-0.035858,0.999054,-0.007679,-0.004935,-0.002728,86.13887,14.198257,-147.322647,,,
729706388.685191,-2.055261,-1.465816,163.807756,0.0242,-0.035858,0.999054,-0.007679,-0.004935,-0.002728,86.13887,14.198257,-147.322647,,,
729706388.688522,-2.055881,-1.467429,163.807054,0.025635,-0.039246,1.001526,-0.00072,-0.001598,-0.002868,86.13887,14.198257,-147.322647,,,
729706388.691866,-2.055881,-1.467429,163.807054,0.025635,-0.039246,1.001526,-0.00072,-0.001598,-0.002868,86.13887,14.198257,-147.322647,,,
729706388.695234,-2.05616,-1.467533,163.806376,0.025635,-0.039246,1.001526,-0.00072,-0.001598,-0.002868,86.13887,14.198257,-147.322647,,,
729706388.698518,-2.054763,-1.467599,163.805458,0.02597,-0.038681,1.004181,0.007471,0.00436,-0.004575,86.13887,14.198257,-147.322647,,,
729706388.701849,-2.054763,-1.467599,163.805458,0.02597,-0.038681,1.004181,0.007471,0.00436,-0.004575,86.13887,14.198257,-147.322647,,,
729706388.705199,-2.053404,-1.466019,163.804908,0.02597,-0.038681,1.004181,0.007471,0.00436,-0.004575,86.13887,14.198257,-147.322647,,,
729706388.708519,-2.050742,-1.464665,163.805113,0.025177,-0.039383,1.004089,0.012327,0.007497,0.00076,86.13887,14.198257,-147.322647,,,
729706388.711864,-2.050742,-1.464665,163.805113,0.025177,-0.039383,1.004089,0.012327,0.007497,0.00076,86.13887,14.198257,-147.322647,,,
729706388.715189,-2.048232,-1.461954,163.806112,0.025177,-0.039383,1.004089,0.012327,0.007497,0.00076,86.273178,14.300262,-147.087738,,,
729706388.718518,-2.045039,-1.460505,163.807467,0.025146,-0.039673,1.001968,0.011389,0.007364,0.003532,86.273178,14.300262,-147.087738,,,
729706388.721929,-2.045039,-1.460505,163.807467,0.025146,-0.039673,1.001968,0.011389,0.007364,0.003532,86.273178,14.300262,-147.087738,,,
729706388.725187,-2.042859,-1.457647,163.809366,0.025146,-0.039673,1.001968,0.011389,0.007364,0.003532,86.273178,14.300262,-147.087738,,,
729706388.728521,-2.040699,-1.455982,163.810998,0.024323,-0.038391,0.99942,0.008021,0.008636,0.002075,86.273178,14.300262,-147.087738,,,
729706388.731862,-2.040699,-1.455982,163.810998,0.024323,-0.038391,0.99942,0.008021,0.008636,0.002075,86.273178,14.300262,-147.087738,,,
729706388.735265,-2.038876,-1.453862,163.812547,0.024323,-0.038391,0.99942,0.008021,0.008636,0.002075,86.273178,14.300262,-147.087738,,,
729706388.738517,-2.037757,-1.453714,163.814612,0.025803,-0.036758,0.997452,0.004293,0.001416,0.005997,86.273178,14.300262,-147.087738,,,
729706388.741874,-2.037757,-1.453714,163.814612,0.025803,-0.036758,0.997452,0.004293,0.001416,0.005997,86.273178,14.300262,-147.087738,,,
729706388.745197,-2.036552,-1.453782,163.816884,0.025803,-0.036758,0.997452,0.004293,0.001416,0.005997,86.273178,14.300262,-147.087738,,,
729706388.748604,-2.03531,-1.455453,163.819405,0.02562,-0.038147,0.994492,0.005735,-0.005072,0.007864,86.273178,14.300262,-147.087738,,,
729706388.751857,-2.03531,-1.455453,163.819405,0.02562,-0.038147,0.994492,0.005735,-0.005072,0.007864,86.273178,14.300262,-147.087738,,,
729706388.755203,-2.033845,-1.45743,163.821779,0.02562,-0.038147,0.994492,0.005735,-0.005072,0.007864,86.273178,14.300262,-147.087738,,,
729706388.758515,-2.032114,-1.459962,163.823647,0.028519,-0.036713,0.997131,0.007647,-0.004931,0.004469,86.181549,14.05542,-146.966553,,,
729706388.761912,-2.032114,-1.459962,163.823647,0.028519,-0.036713,0.997131,0.007647,-0.004931,0.004469,86.181549,14.05542,-146.966553,,,
729706388.765189,-2.029592,-1.462562,163.824934,0.028519,-0.036713,0.997131,0.007647,-0.004931,0.004469,86.181549,14.05542,-146.966553,,,
729706388.768514,-2.024966,-1.466333,163.82541,0.03421,-0.035919,0.995804,0.020494,-0.013151,-0.001561,86.181549,14.05542,-146.966553,,,
729706388.771846,-2.024966,-1.466333,163.82541,0.03421,-0.035919,0.995804,0.020494,-0.013151,-0.001561,86.181549,14.05542,-146.966553,,,
729706388.77528,-2.019755,-1.470601,163.824763,0.03421,-0.035919,0.995804,0.020494,-0.013151,-0.001561,86.181549,14.05542,-146.966553,,,
729706388.77851,-2.014083,-1.473949,163.823091,0.036835,-0.035995,0.995712,0.020498,-0.007274,-0.00874,86.181549,14.05542,-146.966553,,,
729706388.781863,-2.014083,-1.473949,163.823091,0.036835,-0.035995,0.995712,0.020498,-0.007274,-0.00874,86.181549,14.05542,-146.966553,,,
729706388.785191,-2.009381,-1.476134,163.820753,0.036835,-0.035995,0.995712,0.020498,-0.007274,-0.00874,86.181549,14.05542,-146.966553,,,
729706388.78852,-2.004535,-1.476824,163.818475,0.036011,-0.035065,0.994247,0.018523,0.002997,-0.008285,86.181549,14.05542,-146.966553,,,
729706388.791862,-2.004535,-1.476824,163.818475,0.036011,-0.035065,0.994247,0.018523,0.002997,-0.008285,86.181549,14.05542,-146.966553,,,
729706388.795205,-2.000781,-1.476592,163.816495,0.036011,-0.035065,0.994247,0.018523,0.002997,-0.008285,86.181549,14.05542,-146.966553,,,
729706388.79852,-1.997599,-1.475524,163.814238,0.031784,-0.033234,0.989502,0.010885,0.009228,-0.010004,86.143021,14.156723,-147.350632,,,
729706388.801933,-1.997599,-1.475524,163.814238,0.031784,-0.033234,0.989502,0.010885,0.009228,-0.010004,86.143021,14.156723,-147.350632,,,
729706388.805196,-1.996006,-1.473271,163.812229,0.031784,-0.033234,0.989502,0.010885,0.009228,-0.010004,86.143021,14.156723,-147.350632,,,
729706388.808517,-1.994938,-1.471111,163.810482,0.032303,-0.034622,0.989334,0.003931,0.010466,-0.007939,86.143021,14.156723,-147.350632,,,
729706388.811857,-1.994938,-1.471111,163.810482,0.032303,-0.034622,0.989334,0.003931,0.010466,-0.007939,86.143021,14.156723,-147.350632,,,
729706388.815266,-1.994506,-1.46846,163.808786,0.032303,-0.034622,0.989334,0.003931,0.010466,-0.007939,86.143021,14.156723,-147.350632,,,
729706388.818512,-1.994385,-1.464587,163.807062,0.030518,-0.033966,0.992706,-0.00079,0.019152,-0.007994,86.143021,14.156723,-147.350632,,,
729706388.82187,-1.994385,-1.464587,163.807062,0.030518,-0.033966,0.992706,-0.00079,0.019152,-0.007994,86.143021,14.156723,-147.350632,,,
729706388.82521,-1.995622,-1.459939,163.805248,0.030518,-0.033966,0.992706,-0.00079,0.019152,-0.007994,86.143021,14.156723,-147.350632,,,
729706388.82852,-1.997315,-1.45502,163.803644,0.029785,-0.032333,0.990173,-0.006224,0.020741,-0.006409,86.143021,14.156723,-147.350632,,,
729706388.83185,-1.997315,-1.45502,163.803644,0.029785,-0.032333,0.990173,-0.006224,0.020741,-0.006409,86.143021,14.156723,-147.350632,,,
729706388.835213,-2.000174,-1.450212,163.80182,0.029785,-0.032333,0.990173,-0.006224,0.020741,-0.006409,86.143021,14.156723,-147.350632,,,
729706388.838518,-2.003121,-1.445249,163.800158,0.024323,-0.032043,0.988098,-0.009433,0.019291,-0.005261,86.184402,14.256485,-147.098877,,,
729706388.84185,-2.003121,-1.445249,163.800158,0.024323,-0.032043,0.988098,-0.009433,0.019291,-0.005261,86.184402,14.256485,-147.098877,,,
729706388.845214,-2.006009,-1.442959,163.79877,0.024323,-0.032043,0.988098,-0.009433,0.019291,-0.005261,86.184402,14.256485,-147.098877,,,
729706388.848519,-2.008846,-1.441302,163.797242,0.021271,-0.034225,0.988159,-0.009799,0.007088,-0.006503,86.184402,14.256485,-147.098877,,,
729706388.851917,-2.008846,-1.441302,163.797242,0.021271,-0.034225,0.988159,-0.009799,0.007088,-0.006503,86.184402,14.256485,-147.098877,,,
729706388.855195,-2.011653,-1.442235,163.795388,0.021271,-0.034225,0.988159,-0.009799,0.007088,-0.006503,86.184402,14.256485,-147.098877,,,
729706388.858522,-2.014299,-1.442165,163.793156,0.021332,-0.034958,0.987381,-0.010343,0.001252,-0.009623,86.184402,14.256485,-147.098877,,,
729706388.861849,-2.014299,-1.442165,163.793156,0.021332,-0.034958,0.987381,-0.010343,0.001252,-0.009623,86.184402,14.256485,-147.098877,,,
729706388.865252,-2.017765,-1.445024,163.790837,0.021332,-0.034958,0.987381,-0.010343,0.001252,-0.009623,86.184402,14.256485,-147.098877,,,
729706388.868516,-2.021905,-1.447123,163.788293,0.021484,-0.033081,0.987015,-0.015038,-0.007254,-0.011526,86.184402,14.256485,-147.098877,,,
729706388.871861,-2.021905,-1.447123,163.788293,0.021484,-0.033081,0.987015,-0.015038,-0.007254,-0.011526,86.184402,14.256485,-147.098877,,,
729706388.87522,-2.026295,-1.451968,163.785352,0.021484,-0.033081,0.987015,-0.015038,-0.007254,-0.011526,86.184402,14.256485,-147.098877,,,
729706388.878588,-2.031245,-1.455214,163.782545,0.02243,-0.035873,0.990234,-0.018268,-0.006813,-0.010861,86.129211,14.405884,-147.184616,,,
729706388.88187,-2.031245,-1.455214,163.782545,0.02243,-0.035873,0.990234,-0.018268,-0.006813,-0.010861,86.129211,14.405884,-147.184616,,,
729706388.885178,-2.036812,-1.458766,163.779752,0.02243,-0.035873,0.990234,-0.018268,-0.006813,-0.010861,86.129211,14.405884,-147.184616,,,
729706388.888524,-2.043297,-1.460177,163.777282,0.023438,-0.038116,0.994949,-0.023148,0.000733,-0.008785,86.129211,14.405884,-147.184616,,,
729706388.89192,-2.043297,-1.460177,163.777282,0.023438,-0.038116,0.994949,-0.023148,0.000733,-0.008785,86.129211,14.405884,-147.184616,,,
729706388.895209,-2.050136,-1.461644,163.775339,0.023438,-0.038116,0.994949,-0.023148,0.000733,-0.008785,86.129211,14.405884,-147.184616,,,
729706388.898516,-2.057028,-1.460466,163.773878,0.02594,-0.039948,1.000839,-0.02209,0.011061,-0.00575,86.129211,14.405884,-147.184616,,,
729706388.901872,-2.057028,-1.460466,163.773878,0.02594,-0.039948,1.000839,-0.02209,0.011061,-0.00575,86.129211,14.405884,-147.184616,,,
729706388.905266,-2.062678,-1.458727,163.772716,0.02594,-0.039948,1.000839,-0.02209,0.011061,-0.00575,86.129211,14.405884,-147.184616,,,
729706388.908514,-2.067127,-1.455797,163.771718,0.023712,-0.040558,1.00531,-0.011777,0.013623,-0.005063,86.129211,14.405884,-147.184616,,,
729706388.911857,-2.067127,-1.455797,163.771718,0.023712,-0.040558,1.00531,-0.011777,0.013623,-0.005063,86.129211,14.405884,-147.184616,,,
729706388.915201,-2.069177,-1.453144,163.771058,0.023712,-0.040558,1.00531,-0.011777,0.013623,-0.005063,86.129211,14.405884,-147.184616,,,
729706388.918522,-2.070114,-1.450791,163.770821,0.022461,-0.041885,1.007126,-0.00088,0.009118,-0.002518,86.129211,14.405884,-147.184616,,,
729706388.921874,-2.070114,-1.450791,163.770821,0.022461,-0.041885,1.007126,-0.00088,0.009118,-0.002518,86.23378,14.222031,-146.867126,,,
729706388.925208,-2.069739,-1.449728,163.770343,0.022461,-0.041885,1.007126,-0.00088,0.009118,-0.002518,86.23378,14.222031,-146.867126,,,
729706388.928517,-2.06932,-1.451343,163.769679,0.01976,-0.040085,1.002167,0.001677,-0.005989,-0.003794,86.23378,14.222031,-146.867126,,,
729706388.931922,-2.06932,-1.451343,163.769679,0.01976,-0.040085,1.002167,0.001677,-0.005989,-0.003794,86.23378,14.222031,-146.867126,,,
729706388.935192,-2.068712,-1.454647,163.768605,0.01976,-0.040085,1.002167,0.001677,-0.005989,-0.003794,86.23378,14.222031,-146.867126,,,
729706388.93852,-2.068273,-1.460141,163.767107,0.019318,-0.038116,0.996185,0.000799,-0.016816,-0.006582,86.23378,14.222031,-146.867126,,,
729706388.941847,-2.068273,-1.460141,163.767107,0.019318,-0.038116,0.996185,0.000799,-0.016816,-0.006582,86.23378,14.222031,-146.867126,,,
729706388.945261,-2.067837,-1.466349,163.765441,0.019318,-0.038116,0.996185,0.000799,-0.016816,-0.006582,86.23378,14.222031,-146.867126,,,
729706388.94851,-2.067961,-1.473929,163.763844,0.022308,-0.036987,0.997391,-0.00081,-0.022531,-0.00594,86.23378,14.222031,-146.867126,,,
729706388.951882,-2.067961,-1.473929,163.763844,0.022308,-0.036987,0.997391,-0.00081,-0.022531,-0.00594,86.23378,14.222031,-146.867126,,,
729706388.955194,-2.068091,-1.479435,163.762587,0.022308,-0.036987,0.997391,-0.00081,-0.022531,-0.00594,86.23378,14.222031,-146.867126,,,
729706388.958517,-2.068565,-1.48378,163.761298,0.024414,-0.035736,0.999496,-0.001793,-0.009619,-0.005971,86.23378,14.222031,-146.867126,,,
729706388.961843,-2.068565,-1.48378,163.761298,0.024414,-0.035736,0.999496,-0.001793,-0.009619,-0.005971,86.237625,14.299408,-146.947189,,,
729706388.965201,-2.069265,-1.486413,163.760236,0.024414,-0.035736,0.999496,-0.001793,-0.009619,-0.005971,86.237625,14.299408,-146.947189,,,
729706388.968533,-2.070085,-1.487744,163.759367,0.025406,-0.03685,1.000534,-0.003462,0.003073,-0.004446,86.237625,14.299408,-146.947189,,,
729706388.971884,-2.070085,-1.487744,163.759367,0.025406,-0.03685,1.000534,-0.003462,0.003073,-0.004446,86.237625,14.299408,-146.947189,,,
729706388.975257,-2.070989,-1.486435,163.758782,0.025406,-0.03685,1.000534,-0.003462,0.003073,-0.004446,86.237625,14.299408,-146.947189,,,
729706388.978514,-2.070521,-1.483341,163.75874,0.025314,-0.037918,1.005722,0.004202,0.015739,-0.00081,86.237625,14.299408,-146.947189,,,
729706388.981915,-2.070521,-1.483341,163.75874,0.025314,-0.037918,1.005722,0.004202,0.015739,-0.00081,86.237625,14.299408,-146.947189,,,
729706388.985183,-2.070369,-1.478979,163.758738,0.025314,-0.037918,1.005722,0.004202,0.015739,-0.00081,86.237625,14.299408,-146.947189,,,
729706388.988516,-2.07018,-1.473963,163.758515,0.023682,-0.034958,1.005081,0.001521,0.022146,-0.002262,86.237625,14.299408,-146.947189,,,
729706388.991847,-2.07018,-1.473963,163.758515,0.023682,-0.034958,1.005081,0.001521,0.022146,-0.002262,86.237625,14.299408,-146.947189,,,
729706388.99519,-2.069974,-1.468037,163.75835,0.023682,-0.034958,1.005081,0.001521,0.022146,-0.002262,86.237625,14.299408,-146.947189,,,
729706388.998513,-2.069448,-1.463163,163.757978,0.020798,-0.035065,1.002502,-0.000441,0.017622,-0.003543,86.237625,14.299408,-146.947189,,,
729706389.001845,-2.069448,-1.463163,163.757978,0.020798,-0.035065,1.002502,-0.000441,0.017622,-0.003543,86.27626,14.314194,-146.736832,,,
729706389.005179,-2.069732,-1.458813,163.757638,0.020798,-0.035065,1.002502,-0.000441,0.017622,-0.003543,86.27626,14.314194,-146.736832,,,
729706389.008512,-2.068928,-1.456518,163.757645,0.018066,-0.038391,1.001495,0.002827,0.007931,-0.001023,86.27626,14.314194,-146.736832,,,
729706389.01187,-2.068928,-1.456518,163.757645,0.018066,-0.038391,1.001495,0.002827,0.007931,-0.001023,86.27626,14.314194,-146.736832,,,
729706389.015178,-2.068278,-1.455304,163.757915,0.018066,-0.038391,1.001495,0.002827,0.007931,-0.001023,86.27626,14.314194,-146.736832,,,
729706389.018626,-2.066908,-1.457458,163.758694,0.01474,-0.036621,0.999969,0.005372,-0.008241,0.002677,86.27626,14.314194,-146.736832,,,
729706389.021904,-2.066908,-1.457458,163.758694,0.01474,-0.036621,0.999969,0.005372,-0.008241,0.002677,86.27626,14.314194,-146.736832,,,
729706389.0252,-2.065875,-1.460674,163.759854,0.01474,-0.036621,0.999969,0.005372,-0.008241,0.002677,86.27626,14.314194,-146.736832,,,
729706389.02852,-2.0652,-1.466302,163.761027,0.014755,-0.034775,0.996506,0.001287,-0.01911,0.003044,86.27626,14.314194,-146.736832,,,
729706389.031871,-2.0652,-1.466302,163.761027,0.014755,-0.034775,0.996506,0.001287,-0.01911,0.003044,86.27626,14.314194,-146.736832,,,
729706389.035276,-2.065508,-1.472632,163.761987,0.014755,-0.034775,0.996506,0.001287,-0.01911,0.003044,86.27626,14.314194,-146.736832,,,
729706389.038516,-2.066595,-1.479518,163.762477,0.018661,-0.034256,0.995667,-0.004043,-0.020236,1.4e-05,86.27626,14.314194,-146.736832,,,
729706389.041886,-2.066595,-1.479518,163.762477,0.018661,-0.034256,0.995667,-0.004043,-0.020236,1.4e-05,86.27626,14.314194,-146.736832,,,
729706389.045203,-2.067947,-1.485736,163.763183,0.018661,-0.034256,0.995667,-0.004043,-0.020236,1.4e-05,85.945404,14.532272,-146.918304,,,
729706389.048521,-2.069313,-1.49025,163.763943,0.023773,-0.035919,0.998459,-0.004401,-0.008048,0.00043,85.945404,14.532272,-146.918304,,,
729706389.051902,-2.069313,-1.49025,163.763943,0.023773,-0.035919,0.998459,-0.004401,-0.008048,0.00043,85.945404,14.532272,-146.918304,,,
729706389.05518,-2.070309,-1.492461,163.764593,0.023773,-0.035919,0.998459,-0.004401,-0.008048,0.00043,85.945404,14.532272,-146.918304,,,
729706389.058522,-2.070777,-1.492894,163.76555,0.027878,-0.036835,1.002853,-0.002258,0.005765,0.002603,85.945404,14.532272,-146.918304,,,
729706389.061846,-2.070777,-1.492894,163.76555,0.027878,-0.036835,1.002853,-0.002258,0.005765,0.002603,85.945404,14.532272,-146.918304,,,
729706389.065207,-2.071243,-1.490865,163.766379,0.027878,-0.036835,1.002853,-0.002258,0.005765,0.002603,85.945404,14.532272,-146.918304,,,
729706389.068515,-2.070825,-1.487517,163.76718,0.029785,-0.037994,1.002411,0.003046,0.016603,0.002311,85.945404,14.532272,-146.918304,,,
729706389.07186,-2.070825,-1.487517,163.76718,0.029785,-0.037994,1.002411,0.003046,0.016603,0.002311,85.945404,14.532272,-146.918304,,,
729706389.075236,-2.069257,-1.481768,163.767938,0.029785,-0.037994,1.002411,0.003046,0.016603,0.002311,85.945404,14.532272,-146.918304,,,
729706389.078512,-2.067363,-1.475511,163.768372,0.02774,-0.037109,1.002655,0.007196,0.024027,0.000126,85.945404,14.532272,-146.918304,,,
729706389.081851,-2.067363,-1.475511,163.768372,0.02774,-0.037109,1.002655,0.007196,0.024027,0.000126,85.945404,14.532272,-146.918304,,,
729706389.085189,-2.065291,-1.468261,163.769096,0.02774,-0.037109,1.002655,0.007196,0.024027,0.000126,86.317932,14.396225,-146.990265,,,
729706389.088517,-2.063166,-1.462322,163.769645,0.025864,-0.037811,0.999069,0.006916,0.02268,-0.000821,86.317932,14.396225,-146.990265,,,
729706389.091854,-2.063166,-1.462322,163.769645,0.025864,-0.037811,0.999069,0.006916,0.02268,-0.000821,86.317932,14.396225,-146.990265,,,
729706389.095198,-2.061375,-1.456464,163.770434,0.025864,-0.037811,0.999069,0.006916,0.02268,-0.000821,86.317932,14.396225,-146.990265,,,
729706389.098515,-2.060282,-1.454255,163.77148,0.022247,-0.036194,0.991791,0.000773,0.007402,0.001436,86.317932,14.396225,-146.990265,,,
729706389.101905,-2.060282,-1.454255,163.77148,0.022247,-0.036194,0.991791,0.000773,0.007402,0.001436,86.317932,14.396225,-146.990265,,,
729706389.105195,-2.060788,-1.452244,163.771997,0.022247,-0.036194,0.991791,0.000773,0.007402,0.001436,86.317932,14.396225,-146.990265,,,
729706389.108516,-2.062322,-1.454846,163.772442,0.021271,-0.034653,0.983505,-0.00612,-0.011765,0.001544,86.317932,14.396225,-146.990265,,,
729706389.111848,-2.062322,-1.454846,163.772442,0.021271,-0.034653,0.983505,-0.00612,-0.011765,0.001544,86.317932,14.396225,-146.990265,,,
729706389.115181,-2.065088,-1.458177,163.773118,0.021271,-0.034653,0.983505,-0.00612,-0.011765,0.001544,86.317932,14.396225,-146.990265,,,
729706389.118515,-2.069355,-1.463254,163.773096,0.025146,-0.034515,0.982117,-0.014978,-0.012841,-0.002743,86.317932,14.396225,-146.990265,,,
729706389.121859,-2.069355,-1.463254,163.773096,0.025146,-0.034515,0.982117,-0.014978,-0.012841,-0.002743,86.317932,14.396225,-146.990265,,,
729706389.12533,-2.074153,-1.466424,163.771683,0.025146,-0.034515,0.982117,-0.014978,-0.012841,-0.002743,86.051926,14.488434,-147.137726,,,
729706389.128497,-2.079636,-1.46892,163.769253,0.030334,-0.034821,0.987778,-0.019609,-0.002282,-0.009464,86.051926,14.488434,-147.137726,,,
729706389.131864,-2.079636,-1.46892,163.769253,0.030334,-0.034821,0.987778,-0.019609,-0.002282,-0.009464,86.051926,14.488434,-147.137726,,,
729706389.135188,-2.086338,-1.469223,163.766332,0.030334,-0.034821,0.987778,-0.019609,-0.002282,-0.009464,86.051926,14.488434,-147.137726,,,
729706389.138523,-2.093956,-1.465824,163.76303,0.031448,-0.035492,0.993286,-0.025724,0.022769,-0.011994,86.051926,14.488434,-147.137726,,,
729706389.141889,-2.093956,-1.465824,163.76303,0.031448,-0.035492,0.993286,-0.025724,0.022769,-0.011994,86.051926,14.488434,-147.137726,,,
729706389.145189,-2.102426,-1.459886,163.75991,0.031448,-0.035492,0.993286,-0.025724,0.022769,-0.011994,86.051926,14.488434,-147.137726,,,
729706389.148513,-2.111516,-1.450809,163.756982,0.031631,-0.038132,0.994781,-0.031329,0.03991,-0.010694,86.051926,14.488434,-147.137726,,,
729706389.151943,-2.111516,-1.450809,163.756982,0.031631,-0.038132,0.994781,-0.031329,0.03991,-0.010694,86.051926,14.488434,-147.137726,,,
729706389.155182,-2.121565,-1.439854,163.754117,0.031631,-0.038132,0.994781,-0.031329,0.03991,-0.010694,86.051926,14.488434,-147.137726,,,
729706389.15853,-2.132735,-1.426486,163.751439,0.028519,-0.038193,0.993149,-0.039194,0.052335,-0.009394,86.051926,14.488434,-147.137726,,,
729706389.16188,-2.132735,-1.426486,163.751439,0.028519,-0.038193,0.993149,-0.039194,0.052335,-0.009394,86.051926,14.488434,-147.137726,,,
729706389.16519,-2.144826,-1.412932,163.748808,0.028519,-0.038193,0.993149,-0.039194,0.052335,-0.009394,86.412811,14.508575,-146.961288,,,
729706389.168521,-2.15737,-1.399445,163.746491,0.023163,-0.03595,0.992752,-0.043051,0.049143,-0.007244,86.412811,14.508575,-146.961288,,,
729706389.171864,-2.15737,-1.399445,163.746491,0.023163,-0.03595,0.992752,-0.043051,0.049143,-0.007244,86.412811,14.508575,-146.961288,,,
729706389.175205,-2.170584,-1.387076,163.74454,0.023163,-0.03595,0.992752,-0.043051,0.049143,-0.007244,86.412811,14.508575,-146.961288,,,
729706389.178519,-2.184849,-1.376076,163.742419,0.017715,-0.037598,0.99205,-0.050016,0.039826,-0.008281,86.412811,14.508575,-146.961288,,,
729706389.181863,-2.184849,-1.376076,163.742419,0.017715,-0.037598,0.99205,-0.050016,0.039826,-0.008281,86.412811,14.508575,-146.961288,,,
729706389.185208,-2.198199,-1.366549,163.740026,0.017715,-0.037598,0.99205,-0.050016,0.039826,-0.008281,86.412811,14.508575,-146.961288,,,
729706389.188521,-2.210938,-1.360024,163.738092,0.015884,-0.040558,0.994217,-0.04336,0.021792,-0.005158,86.412811,14.508575,-146.961288,,,
729706389.191922,-2.210938,-1.360024,163.738092,0.015884,-0.040558,0.994217,-0.04336,0.021792,-0.005158,86.412811,14.508575,-146.961288,,,
729706389.195208,-2.222601,-1.35538,163.736696,0.015884,-0.040558,0.994217,-0.04336,0.021792,-0.005158,86.412811,14.508575,-146.961288,,,
729706389.198537,-2.233613,-1.353189,163.735314,0.012894,-0.043869,0.997467,-0.035918,0.004908,-0.005269,86.412811,14.508575,-146.961288,,,
729706389.201857,-2.233613,-1.353189,163.735314,0.012894,-0.043869,0.997467,-0.035918,0.004908,-0.005269,86.412811,14.508575,-146.961288,,,
729706389.205192,-2.242098,-1.353877,163.734342,0.012894,-0.043869,0.997467,-0.035918,0.004908,-0.005269,86.412811,14.508575,-146.961288,,,
729706389.208524,-2.248724,-1.354584,163.733516,0.016296,-0.044342,1.002701,-0.019971,-0.000781,-0.004852,86.310715,14.579559,-146.873505,,,
729706389.21187,-2.248724,-1.354584,163.733516,0.016296,-0.044342,1.002701,-0.019971,-0.000781,-0.004852,86.310715,14.579559,-146.873505,,,
729706389.215256,-2.253776,-1.357201,163.732916,0.016296,-0.044342,1.002701,-0.019971,-0.000781,-0.004852,86.310715,14.579559,-146.873505,,,
729706389.218514,-2.258162,-1.358542,163.73265,0.020599,-0.043442,1.001434,-0.011577,-0.002122,-0.003131,86.310715,14.579559,-146.873505,,,
729706389.221857,-2.258162,-1.358542,163.73265,0.020599,-0.043442,1.001434,-0.011577,-0.002122,-0.003131,86.310715,14.579559,-146.873505,,,
729706389.225208,-2.261347,-1.361667,163.732372,0.020599,-0.043442,1.001434,-0.011577,-0.002122,-0.003131,86.310715,14.579559,-146.873505,,,
729706389.228521,-2.26423,-1.363581,163.732092,0.021896,-0.041733,0.999924,-0.007778,-0.002993,-0.003621,86.310715,14.579559,-146.873505,,,
729706389.23186,-2.26423,-1.363581,163.732092,0.021896,-0.041733,0.999924,-0.007778,-0.002993,-0.003621,86.310715,14.579559,-146.873505,,,
729706389.235236,-2.266677,-1.365896,163.731585,0.021896,-0.041733,0.999924,-0.007778,-0.002993,-0.003621,86.310715,14.579559,-146.873505,,,
729706389.238521,-2.269477,-1.365947,163.731414,0.022446,-0.039459,0.99881,-0.010157,0.004984,-0.001574,86.310715,14.579559,-146.873505,,,
729706389.24192,-2.269477,-1.365947,163.731414,0.022446,-0.039459,0.99881,-0.010157,0.004984,-0.001574,86.310715,14.579559,-146.873505,,,
729706389.2452,-2.27174,-1.365902,163.731511,0.022446,-0.039459,0.99881,-0.010157,0.004984,-0.001574,86.310715,14.579559,-146.873505,,,
729706389.248522,-2.27476,-1.365682,163.732142,0.023178,-0.041199,0.996429,-0.012724,0.003484,0.002083,86.208801,14.514862,-147.153931,,,
729706389.251869,-2.27476,-1.365682,163.732142,0.023178,-0.041199,0.996429,-0.012724,0.003484,0.002083,86.208801,14.514862,-147.153931,,,
729706389.25529,-2.277876,-1.364471,163.733383,0.023178,-0.041199,0.996429,-0.012724,0.003484,0.002083,86.208801,14.514862,-147.153931,,,
729706389.258537,-2.2808,-1.363824,163.734988,0.023514,-0.043182,0.995621,-0.008929,0.003282,0.004713,86.208801,14.514862,-147.153931,,,
729706389.261868,-2.2808,-1.363824,163.734988,0.023514,-0.043182,0.995621,-0.008929,0.003282,0.004713,86.208801,14.514862,-147.153931,,,
729706389.265193,-2.28306,-1.363052,163.736716,0.023514,-0.043182,0.995621,-0.008929,0.003282,0.004713,86.208801,14.514862,-147.153931,,,
729706389.26853,-2.284971,-1.363527,163.73805,0.02243,-0.040512,0.99614,-0.005525,0.00304,0.002191,86.208801,14.514862,-147.153931,,,
729706389.271853,-2.284971,-1.363527,163.73805,0.02243,-0.040512,0.99614,-0.005525,0.00304,0.002191,86.208801,14.514862,-147.153931,,,
729706389.275184,-2.287051,-1.362163,163.739076,0.02243,-0.040512,0.99614,-0.005525,0.00304,0.002191,86.208801,14.514862,-147.153931,,,
729706389.278549,-2.287991,-1.363086,163.740015,0.02243,-0.040512,0.99614,7.9e-05,-0.00135,0.001901,86.208801,14.514862,-147.153931,,,
729706389.281945,-2.287991,-1.363086,163.740015,0.02243,-0.041092,0.99736,7.9e-05,-0.00135,0.001901,86.208801,14.514862,-147.153931,,,
729706389.285202,-2.288558,-1.362014,163.740961,0.02243,-0.041092,0.99736,7.9e-05,-0.00135,0.001901,86.208801,14.514862,-147.153931,,,
729706389.288531,-2.288883,-1.362015,163.741253,0.02504,-0.037842,0.998581,-0.002112,0.004417,-0.002082,86.214401,14.821701,-147.274307,,,
729706389.291863,-2.288883,-1.362015,163.741253,0.02504,-0.037842,0.998581,-0.002112,0.004417,-0.002082,86.214401,14.821701,-147.274307,,,
729706389.295253,-2.290034,-1.360848,163.741172,0.02504,-0.037842,0.998581,-0.002112,0.004417,-0.002082,86.214401,14.821701,-147.274307,,,
729706389.298502,-2.291103,-1.360192,163.740964,0.023941,-0.039505,1.000076,-0.00492,0.006803,-0.002644,86.214401,14.821701,-147.274307,,,
729706389.301867,-2.291103,-1.360192,163.740964,0.023941,-0.039505,1.000076,-0.00492,0.006803,-0.002644,86.214401,14.821701,-147.274307,,,
729706389.305189,-2.292865,-1.359329,163.740663,0.023941,-0.039505,1.000076,-0.00492,0.006803,-0.002644,86.214401,14.821701,-147.274307,,,
729706389.308531,-2.293915,-1.359373,163.740416,0.022278,-0.04248,0.998947,-0.002574,0.002033,-0.002241,86.214401,14.821701,-147.274307,,,
729706389.311957,-2.293915,-1.359373,163.740416,0.022278,-0.04248,0.998947,-0.002574,0.002033,-0.002241,86.214401,14.821701,-147.274307,,,
729706389.315179,-2.294565,-1.359374,163.740161,0.022278,-0.04248,0.998947,-0.002574,0.002033,-0.002241,86.214401,14.821701,-147.274307,,,
729706389.318574,-2.294185,-1.360161,163.74063,0.019714,-0.045456,1.001892,0.004395,-0.002238,0.002701,86.214401,14.821701,-147.274307,,,
729706389.321913,-2.294185,-1.360161,163.74063,0.019714,-0.045456,1.001892,0.004395,-0.002238,0.002701,86.214401,14.821701,-147.274307,,,
729706389.325193,-2.292191,-1.361296,163.742041,0.019714,-0.045456,1.001892,0.004395,-0.002238,0.002701,86.214401,14.821701,-147.274307,,,
729706389.328523,-2.28871,-1.363235,163.743637,0.019714,-0.045456,1.001892,0.015557,-0.00652,0.003718,86.162109,14.550873,-147.19664,,,
729706389.331854,-2.28871,-1.363235,163.743637,0.020279,-0.044449,1.004608,0.015557,-0.00652,0.003718,86.162109,14.550873,-147.19664,,,
729706389.335271,-2.284708,-1.365893,163.745728,0.020279,-0.044449,1.004608,0.015557,-0.00652,0.003718,86.162109,14.550873,-147.19664,,,
729706389.33855,-2.284708,-1.365893,163.745728,0.020279,-0.044449,1.004608,0.021912,-0.006944,0.003388,86.162109,14.550873,-147.19664,,,
729706389.34193,-2.279457,-1.368586,163.747797,0.025513,-0.041122,1.002975,0.021912,-0.006944,0.003388,86.162109,14.550873,-147.19664,,,
729706389.345191,-2.273737,-1.371198,163.749271,0.025513,-0.041122,1.002975,0.021912,-0.006944,0.003388,86.162109,14.550873,-147.19664,,,
729706389.34861,-2.273737,-1.371198,163.749271,0.025513,-0.041122,1.002975,0.015668,-0.003863,-0.001979,86.162109,14.550873,-147.19664,,,
729706389.351866,-2.268632,-1.373745,163.749944,0.026825,-0.040115,1.001694,0.015668,-0.003863,-0.001979,86.162109,14.550873,-147.19664,,,
729706389.355186,-2.264753,-1.37618,163.750366,0.026825,-0.040115,1.001694,0.015668,-0.003863,-0.001979,86.162109,14.550873,-147.19664,,,
729706389.358596,-2.264753,-1.37998,163.750503,0.026825,-0.040115,1.001694,0.015668,-0.003863,-0.001979,86.162109,14.550873,-147.19664,,,
729706389.361858,-2.261379,-1.37998,163.750503,0.028336,-0.039597,0.995163,0.010766,-0.011034,-0.003781,86.162109,14.550873,-147.19664,,,
729706389.365188,-2.258949,-1.383969,163.749898,0.028336,-0.039597,0.995163,0.010766,-0.011034,-0.003781,86.162109,14.550873,-147.19664,,,
729706389.368552,-2.258949,-1.38799,163.748824,0.028336,-0.039597,0.995163,-0.00045,-0.009492,-0.006709,86.162109,14.550873,-147.19664,,,
729706389.371895,-2.258051,-1.38799,163.748824,0.031509,-0.039108,0.991699,-0.00045,-0.009492,-0.006709,86.145813,14.685776,-147.172729,,,
729706389.37518,-2.2586,-1.391549,163.747242,0.031509,-0.039108,0.991699,-0.00045,-0.009492,-0.006709,86.145813,14.685776,-147.172729,,,
729706389.37853,-2.2586,-1.391549,163.747242,0.031509,-0.039108,0.991699,-0.00045,-0.009492,-0.006709,86.145813,14.685776,-147.172729,,,
729706389.381851,-2.26026,-1.393848,163.745121,0.033752,-0.03833,0.992355,-0.006675,-0.001795,-0.010394,86.145813,14.685776,-147.172729,,,
729706389.385182,-2.26237,-1.394682,163.742398,0.033752,-0.03833,0.992355,-0.006675,-0.001795,-0.010394,86.145813,14.685776,-147.172729,,,
729706389.388587,-2.26237,-1.394682,163.742398,0.033752,-0.03833,0.992355,-0.006675,-0.001795,-0.010394,86.145813,14.685776,-147.172729,,,
729706389.39186,-2.264735,-1.394583,163.739325,0.035492,-0.040375,0.996124,-0.010027,0.006134,-0.012707,86.145813,14.685776,-147.172729,,,
729706389.395187,-2.267754,-1.392398,163.736148,0.035492,-0.040375,0.996124,-0.010027,0.006134,-0.012707,86.145813,14.685776,-147.172729,,,
729706389.39854,-2.267754,-1.392398,163.736148,0.035492,-0.040375,0.996124,-0.010027,0.006134,-0.012707,86.145813,14.685776,-147.172729,,,
729706389.401912,-2.269049,-1.388708,163.732847,0.03064,-0.045807,0.996872,-0.001745,0.021272,-0.013585,86.145813,14.685776,-147.172729,,,
729706389.405182,-2.270245,-1.382401,163.729596,0.03064,-0.045807,0.996872,-0.001745,0.021272,-0.013585,86.145813,14.685776,-147.172729,,,
729706389.408613,-2.270245,-1.382401,163.729596,0.03064,-0.045807,0.996872,-0.001745,0.021272,-0.013585,86.145813,14.685776,-147.172729,,,
729706389.411863,-2.271008,-1.375862,163.726931,0.03006,-0.047455,0.996735,-0.002699,0.028481,-0.009278,86.326599,14.581161,-147.221802,,,
729706389.41519,-2.271851,-1.367676,163.724816,0.03006,-0.047455,0.996735,-0.002699,0.028481,-0.009278,86.326599,14.581161,-147.221802,,,
729706389.418548,-2.271851,-1.367676,163.724816,0.03006,-0.047455,0.996735,-0.002699,0.028481,-0.009278,86.326599,14.581161,-147.221802,,,
729706389.421866,-2.271877,-1.359318,163.722679,0.026367,-0.045898,0.993134,0.000632,0.031645,-0.009433,86.326599,14.581161,-147.221802,,,
729706389.42519,-2.27193,-1.351853,163.720472,0.026367,-0.045898,0.993134,0.000632,0.031645,-0.009433,86.326599,14.581161,-147.221802,,,
729706389.428605,-2.27193,-1.351853,163.720472,0.026367,-0.045898,0.993134,0.000632,0.031645,-0.009433,86.326599,14.581161,-147.221802,,,
729706389.431852,-2.272751,-1.343875,163.71821,0.023895,-0.044769,0.989746,-0.004972,0.030747,-0.009852,86.326599,14.581161,-147.221802,,,
729706389.435203,-2.275204,-1.336943,163.715683,0.023895,-0.044769,0.989746,-0.004972,0.030747,-0.009852,86.326599,14.581161,-147.221802,,,
729706389.438555,-2.275204,-1.336943,163.715683,0.023895,-0.044769,0.989746,-0.004972,0.030747,-0.009852,86.326599,14.581161,-147.221802,,,
729706389.441923,-2.279876,-1.330016,163.712789,0.021042,-0.041702,0.987305,-0.020788,0.026168,-0.012209,86.326599,14.581161,-147.221802,,,
729706389.445181,-2.286801,-1.325175,163.709272,0.021042,-0.041702,0.987305,-0.020788,0.026168,-0.012209,86.326599,14.581161,-147.221802,,,
729706389.448538,-2.286801,-1.325175,163.709272,0.021042,-0.041702,0.987305,-0.020788,0.026168,-0.012209,86.326599,14.581161,-147.221802,,,
729706389.451939,-2.295293,-1.319942,163.705406,0.019501,-0.040512,0.985733,-0.031517,0.020401,-0.014762,86.253403,14.42598,-147.093658,,,
729706389.455179,-2.304942,-1.317543,163.701804,0.019501,-0.040512,0.985733,-0.031517,0.020401,-0.014762,86.253403,14.42598,-147.093658,,,
729706389.458528,-2.304942,-1.317543,163.701804,0.019501,-0.040512,0.985733,-0.031517,0.020401,-0.014762,86.253403,14.42598,-147.093658,,,
729706389.461882,-2.315528,-1.31482,163.698206,0.01561,-0.041794,0.985703,-0.037554,0.011403,-0.014996,86.253403,14.42598,-147.093658,,,
729706389.465225,-2.326655,-1.314316,163.693759,0.01561,-0.041794,0.985703,-0.037554,0.011403,-0.014996,86.253403,14.42598,-147.093658,,,
729706389.468513,-2.326655,-1.314316,163.693759,0.01561,-0.041794,0.985703,-0.037554,0.011403,-0.014996,86.253403,14.42598,-147.093658,,,
729706389.471867,-2.338082,-1.310648,163.689535,0.014938,-0.042297,0.990952,-0.038497,0.017242,-0.01407,86.253403,14.42598,-147.093658,,,
729706389.475185,-2.350358,-1.308011,163.685915,0.014938,-0.042297,0.990952,-0.038497,0.017242,-0.01407,86.253403,14.42598,-147.093658,,,
729706389.478576,-2.350358,-1.308011,163.685915,0.014938,-0.042297,0.990952,-0.038497,0.017242,-0.01407,86.253403,14.42598,-147.093658,,,
729706389.481838,-2.362866,-1.302489,163.683322,0.013702,-0.042786,0.996399,-0.04184,0.025262,-0.007312,86.253403,14.42598,-147.093658,,,
729706389.485247,-2.37592,-1.296512,163.681277,0.013702,-0.042786,0.996399,-0.04184,0.025262,-0.007312,86.253403,14.42598,-147.093658,,,
729706389.488507,-2.37592,-1.296512,163.681277,0.013702,-0.042786,0.996399,-0.04184,0.025262,-0.007312,86.253403,14.42598,-147.093658,,,
729706389.491888,-2.388525,-1.287409,163.679749,0.012314,-0.044006,1.003342,-0.043277,0.037378,-0.00407,86.253403,14.42598,-147.093658,,,
729706389.495184,-2.401019,-1.277534,163.679057,0.012314,-0.044006,1.003342,-0.043277,0.037378,-0.00407,86.223099,14.682663,-147.225189,,,
729706389.498518,-2.401019,-1.277534,163.679057,0.012314,-0.044006,1.003342,-0.043277,0.037378,-0.00407,86.223099,14.682663,-147.225189,,,
729706389.501893,-2.412166,-1.265044,163.679257,0.009308,-0.046677,1.011658,-0.038397,0.048368,0.001733,86.223099,14.682663,-147.225189,,,
729706389.50518,-2.4226,-1.253007,163.680594,0.009308,-0.046677,1.011658,-0.038397,0.048368,0.001733,86.223099,14.682663,-147.225189,,,
729706389.508519,-2.4226,-1.253007,163.680594,0.009308,-0.046677,1.011658,-0.038397,0.048368,0.001733,86.223099,14.682663,-147.225189,,,
729706389.511851,-2.431001,-1.241365,163.682313,0.008621,-0.047882,1.010925,-0.026497,0.041098,0.003929,86.223099,14.682663,-147.225189,,,
729706389.515189,-2.437932,-1.231832,163.683794,0.008621,-0.047882,1.010925,-0.026497,0.041098,0.003929,86.223099,14.682663,-147.225189,,,
729706389.518556,-2.437932,-1.231832,163.683794,0.008621,-0.047882,1.010925,-0.026497,0.041098,0.003929,86.223099,14.682663,-147.225189,,,
729706389.52194,-2.442854,-1.224859,163.685826,0.005508,-0.048691,1.009735,-0.013959,0.022336,0.007493,86.223099,14.682663,-147.225189,,,
729706389.525197,-2.445632,-1.220513,163.688029,0.005508,-0.048691,1.009735,-0.013959,0.022336,0.007493,86.223099,14.682663,-147.225189,,,
729706389.528546,-2.445632,-1.220513,163.688029,0.005508,-0.048691,1.009735,-0.013959,0.022336,0.007493,86.223099,14.682663,-147.225189,,,
729706389.531949,-2.446943,-1.21901,163.689663,0.004959,-0.046158,1.008286,-0.002629,0.00368,0.003388,86.223099,14.682663,-147.225189,,,
729706389.535188,-2.447067,-1.219392,163.691449,0.004959,-0.046158,1.008286,-0.002629,0.00368,0.003388,86.431198,14.420151,-147.016251,,,
729706389.538542,-2.447067,-1.219392,163.691449,0.004959,-0.046158,1.008286,-0.002629,0.00368,0.003388,86.431198,14.420151,-147.016251,,,
729706389.541862,-2.447745,-1.222315,163.693594,0.007828,-0.042816,1.003906,-0.004734,-0.010168,0.006108,86.431198,14.420151,-147.016251,,,
729706389.545193,-2.448772,-1.225406,163.696353,0.007828,-0.042816,1.003906,-0.004734,-0.010168,0.006108,86.431198,14.420151,-147.016251,,,
729706389.548541,-2.448772,-1.225406,163.696353,0.007828,-0.042816,1.003906,-0.004734,-0.010168,0.006108,86.431198,14.420151,-147.016251,,,
729706389.551862,-2.449529,-1.229983,163.699495,0.009842,-0.044144,1.003784,-0.002573,-0.012967,0.009039,86.431198,14.420151,-147.016251,,,
729706389.555187,-2.450851,-1.233183,163.703269,0.009842,-0.044144,1.003784,-0.002573,-0.012967,0.009039,86.431198,14.420151,-147.016251,,,
729706389.558605,-2.450851,-1.233183,163.703269,0.009842,-0.044144,1.003784,-0.002573,-0.012967,0.009039,86.431198,14.420151,-147.016251,,,
729706389.561854,-2.452381,-1.236254,163.707729,0.01384,-0.043793,1.004776,-0.004272,-0.004565,0.014207,86.431198,14.420151,-147.016251,,,
729706389.565276,-2.453653,-1.235769,163.712823,0.01384,-0.043793,1.004776,-0.004272,-0.004565,0.014207,86.431198,14.420151,-147.016251,,,
729706389.568519,-2.453653,-1.235769,163.712823,0.01384,-0.043793,1.004776,-0.004272,-0.004565,0.014207,86.431198,14.420151,-147.016251,,,
729706389.571927,-2.454958,-1.235209,163.718773,0.017609,-0.044662,1.002853,-0.003963,0.006404,0.020629,86.431198,14.420151,-147.016251,,,
729706389.575179,-2.456609,-1.231847,163.725264,0.017609,-0.044662,1.002853,-0.003963,0.006404,0.020629,86.401413,14.387909,-147.070236,,,
729706389.578535,-2.456609,-1.231847,163.725264,0.017609,-0.044662,1.002853,-0.003963,0.006404,0.020629,86.401413,14.387909,-147.070236,,,
729706389.581868,-2.457087,-1.229705,163.732197,0.021851,-0.042801,1.001709,0.002078,0.010445,0.024159,86.401413,14.387909,-147.070236,,,
729706389.585183,-2.456372,-1.225417,163.73954,0.021851,-0.042801,1.001709,0.002078,0.010445,0.024159,86.401413,14.387909,-147.070236,,,
729706389.588529,-2.456372,-1.225417,163.73954,0.021851,-0.042801,1.001709,0.002078,0.010445,0.024159,86.401413,14.387909,-147.070236,,,
729706389.591855,-2.453811,-1.224791,163.746635,0.021973,-0.043686,0.993713,0.011818,0.000544,0.022925,86.401413,14.387909,-147.070236,,,
729706389.595186,-2.45056,-1.224068,163.753086,0.021973,-0.043686,0.993713,0.011818,0.000544,0.022925,86.401413,14.387909,-147.070236,,,
729706389.598514,-2.45056,-1.224068,163.753086,0.021973,-0.043686,0.993713,0.011818,0.000544,0.022925,86.401413,14.387909,-147.070236,,,
729706389.601864,-2.445867,-1.228247,163.758395,0.026093,-0.042618,0.984619,0.017275,-0.015929,0.015623,86.401413,14.387909,-147.070236,,,
729706389.605186,-2.442131,-1.23131,163.762814,0.026093,-0.042618,0.984619,0.017275,-0.015929,0.015623,86.401413,14.387909,-147.070236,,,
729706389.608581,-2.442131,-1.23131,163.762814,0.026093,-0.042618,0.984619,0.017275,-0.015929,0.015623,86.401413,14.387909,-147.070236,,,
729706389.611849,-2.439254,-1.237996,163.766332,0.030334,-0.039307,0.979568,0.006786,-0.020339,0.010476,86.401413,14.387909,-147.070236,,,
729706389.615184,-2.438608,-1.24217,163.76909,0.030334,-0.039307,0.979568,0.006786,-0.020339,0.010476,86.253769,14.552628,-147.14209,,,
729706389.618525,-2.438608,-1.24217,163.76909,0.030334,-0.039307,0.979568,0.006786,-0.020339,0.010476,86.253769,14.552628,-147.14209,,,
729706389.621996,-2.440188,-1.248448,163.770023,0.033981,-0.037903,0.976318,-0.010018,-0.015309,-0.001089,86.253769,14.552628,-147.14209,,,
729706389.625174,-2.443673,-1.250455,163.769853,0.033981,-0.037903,0.976318,-0.010018,-0.015309,-0.001089,86.253769,14.552628,-147.14209,,,
729706389.628531,-2.443673,-1.250455,163.769853,0.033981,-0.037903,0.976318,-0.010018,-0.015309,-0.001089,86.253769,14.552628,-147.14209,,,
729706389.631864,-2.4487,-1.251773,163.768888,0.039032,-0.03595,0.978867,-0.02165,0.004808,-0.005676,86.253769,14.552628,-147.14209,,,
729706389.635188,-2.45618,-1.247734,163.76724,0.039032,-0.03595,0.978867,-0.02165,0.004808,-0.005676,86.253769,14.552628,-147.14209,,,
729706389.638536,-2.45618,-1.247734,163.76724,0.039032,-0.03595,0.978867,-0.02165,0.004808,-0.005676,86.253769,14.552628,-147.14209,,,
729706389.641867,-2.465117,-1.242707,163.764996,0.03952,-0.039398,0.983673,-0.033563,0.025228,-0.00901,86.253769,14.552628,-147.14209,,,
729706389.645186,-2.475947,-1.234886,163.762774,0.03952,-0.039398,0.983673,-0.033563,0.025228,-0.00901,86.253769,14.552628,-147.14209,,,
729706389.648592,-2.475947,-1.234886,163.762774,0.03952,-0.039398,0.983673,-0.033563,0.025228,-0.00901,86.253769,14.552628,-147.14209,,,
729706389.651859,-2.488025,-1.227,163.761027,0.034851,-0.043137,0.984818,-0.042994,0.032266,-0.005228,86.253769,14.552628,-147.14209,,,
729706389.655205,-2.500294,-1.218273,163.759447,0.034851,-0.043137,0.984818,-0.042994,0.032266,-0.005228,86.253769,14.552628,-147.14209,,,
729706389.658529,-2.500294,-1.218273,163.759447,0.034851,-0.043137,0.984818,-0.042994,0.032266,-0.005228,86.172348,14.634811,-147.220291,,,
729706389.661912,-2.512492,-1.209764,163.757837,0.029449,-0.045166,0.988571,-0.042368,0.033616,-0.005318,86.172348,14.634811,-147.220291,,,
729706389.665183,-2.523441,-1.201269,163.756224,0.029449,-0.045166,0.988571,-0.042368,0.033616,-0.005318,86.172348,14.634811,-147.220291,,,
729706389.668537,-2.523441,-1.201269,163.756224,0.029449,-0.045166,0.988571,-0.042368,0.033616,-0.005318,86.172348,14.634811,-147.220291,,,
729706389.671861,-2.53299,-1.193434,163.75442,0.026917,-0.044739,0.994186,-0.031731,0.028429,-0.006894,86.172348,14.634811,-147.220291,,,
729706389.67518,-2.541467,-1.187136,163.752631,0.026917,-0.044739,0.994186,-0.031731,0.028429,-0.006894,86.172348,14.634811,-147.220291,,,
729706389.678551,-2.541467,-1.187136,163.752631,0.026917,-0.044739,0.994186,-0.031731,0.028429,-0.006894,86.172348,14.634811,-147.220291,,,
729706389.68186,-2.549229,-1.181747,163.75015,0.024719,-0.044281,0.993073,-0.026975,0.018976,-0.011939,86.172348,14.634811,-147.220291,,,
729706389.685185,-2.556646,-1.179677,163.746172,0.024719,-0.044281,0.993073,-0.026975,0.018976,-0.011939,86.172348,14.634811,-147.220291,,,
729706389.68857,-2.556646,-1.179677,163.746172,0.024719,-0.044281,0.993073,-0.026975,0.018976,-0.011939,86.172348,14.634811,-147.220291,,,
729706389.691852,-2.564355,-1.177955,163.74187,0.023529,-0.043381,0.991516,-0.027205,0.006519,-0.014622,86.172348,14.634811,-147.220291,,,
729706389.695186,-2.571682,-1.179432,163.737345,0.023529,-0.043381,0.991516,-0.027205,0.006519,-0.014622,86.172348,14.634811,-147.220291,,,
729706389.698517,-2.571682,-1.179432,163.737345,0.023529,-0.043381,0.991516,-0.027205,0.006519,-0.014622,86.382492,14.772705,-147.065338,,,
729706389.701932,-2.580868,-1.178691,163.732208,0.021393,-0.044891,0.991913,-0.035785,0.00692,-0.019349,86.382492,14.772705,-147.065338,,,
729706389.70518,-2.590175,-1.181071,163.726772,0.021393,-0.044891,0.991913,-0.035785,0.00692,-0.019349,86.382492,14.772705,-147.065338,,,
729706389.708533,-2.590175,-1.181071,163.726772,0.021393,-0.044891,0.991913,-0.035785,0.00692,-0.019349,86.382492,14.772705,-147.065338,,,
729706389.711882,-2.601001,-1.181314,163.721721,0.020126,-0.045044,0.992828,-0.039688,0.002206,-0.017488,86.382492,14.772705,-147.065338,,,
729706389.715187,-2.611923,-1.185043,163.716827,0.020126,-0.045044,0.992828,-0.039688,0.002206,-0.017488,86.382492,14.772705,-147.065338,,,
729706389.718537,-2.611923,-1.185043,163.716827,0.020126,-0.045044,0.992828,-0.039688,0.002206,-0.017488,86.382492,14.772705,-147.065338,,,
729706389.721861,-2.62429,-1.184565,163.712529,0.018433,-0.046112,0.996262,-0.043259,0.006098,-0.014395,86.382492,14.772705,-147.065338,,,
729706389.72519,-2.636245,-1.186304,163.70857,0.018433,-0.046112,0.996262,-0.043259,0.006098,-0.014395,86.382492,14.772705,-147.065338,,,
729706389.728589,-2.636245,-1.186304,163.70857,0.018433,-0.046112,0.996262,-0.043259,0.006098,-0.014395,86.382492,14.772705,-147.065338,,,
729706389.731864,-2.648289,-1.184111,163.705028,0.016479,-0.048843,1.002975,-0.040353,0.013074,-0.012486,86.382492,14.772705,-147.065338,,,
729706389.735224,-2.658555,-1.183651,163.701709,0.016479,-0.048843,1.002975,-0.040353,0.013074,-0.012486,86.382492,14.772705,-147.065338,,,
729706389.738512,-2.658555,-1.183651,163.701709,0.016479,-0.048843,1.002975,-0.040353,0.013074,-0.012486,86.561127,14.868805,-147.449692,,,
729706389.741919,-2.667369,-1.180768,163.69862,0.01799,-0.049515,1.006531,-0.028739,0.015056,-0.01182,86.561127,14.868805,-147.449692,,,
729706389.745177,-2.674613,-1.179035,163.695663,0.01799,-0.049515,1.006531,-0.028739,0.015056,-0.01182,86.561127,14.868805,-147.449692,,,
729706389.74854,-2.674613,-1.179035,163.695663,0.01799,-0.049515,1.006531,-0.028739,0.015056,-0.01182,86.561127,14.868805,-147.449692,,,
729706389.751868,-2.680321,-1.176093,163.693093,0.015213,-0.052353,1.009903,-0.01727,0.014717,-0.009769,86.561127,14.868805,-147.449692,,,
729706389.755181,-2.684918,-1.174408,163.690945,0.015213,-0.052353,1.009903,-0.01727,0.014717,-0.009769,86.561127,14.868805,-147.449692,,,
729706389.758526,-2.684918,-1.174408,163.690945,0.015213,-0.052353,1.009903,-0.01727,0.014717,-0.009769,86.561127,14.868805,-147.449692,,,
729706389.761848,-2.68919,-1.172234,163.68931,0.014694,-0.049057,1.009155,-0.013312,0.010656,-0.006599,86.561127,14.868805,-147.449692,,,
729706389.76518,-2.693115,-1.170823,163.688217,0.014694,-0.049057,1.009155,-0.013312,0.010656,-0.006599,86.561127,14.868805,-147.449692,,,
729706389.768598,-2.693115,-1.170823,163.688217,0.014694,-0.049057,1.009155,-0.013312,0.010656,-0.006599,86.561127,14.868805,-147.449692,,,
729706389.771855,-2.697864,-1.169361,163.687521,0.013397,-0.049271,1.005432,-0.016622,0.00711,-0.003977,86.561127,14.868805,-147.449692,,,
729706389.775182,-2.703572,-1.16893,163.68672,0.013397,-0.049271,1.005432,-0.016622,0.00711,-0.003977,86.561127,14.868805,-147.449692,,,
729706389.778512,-2.703572,-1.16893,163.68672,0.013397,-0.049271,1.005432,-0.016622,0.00711,-0.003977,86.389511,14.761551,-147.39003,,,
729706389.781943,-2.710889,-1.168455,163.685983,0.016678,-0.049042,1.002258,-0.025026,0.004564,-0.003458,86.389511,14.761551,-147.39003,,,
729706389.785181,-2.7185,-1.168024,163.684947,0.016678,-0.049042,1.002258,-0.025026,0.004564,-0.003458,86.389511,14.761551,-147.39003,,,
729706389.788532,-2.7185,-1.168024,163.684947,0.016678,-0.049042,1.002258,-0.025026,0.004564,-0.003458,86.389511,14.761551,-147.39003,,,
729706389.791875,-2.727177,-1.167313,163.683151,0.016815,-0.047256,1.003906,-0.031367,0.006864,-0.008649,86.389511,14.761551,-147.39003,,,
729706389.795188,-2.736431,-1.165774,163.680624,0.016815,-0.047256,1.003906,-0.031367,0.006864,-0.008649,86.389511,14.761551,-147.39003,,,
729706389.798531,-2.736431,-1.165774,163.680624,0.016815,-0.047256,1.003906,-0.031367,0.006864,-0.008649,86.389511,14.761551,-147.39003,,,
729706389.80187,-2.747117,-1.164208,163.678014,0.017838,-0.047684,1.003067,-0.039177,0.008358,-0.009024,86.389511,14.761551,-147.39003,,,
729706389.805195,-2.757955,-1.161951,163.675896,0.017838,-0.047684,1.003067,-0.039177,0.008358,-0.009024,86.389511,14.761551,-147.39003,,,
729706389.808515,-2.757955,-1.161951,163.675896,0.017838,-0.047684,1.003067,-0.039177,0.008358,-0.009024,86.389511,14.761551,-147.39003,,,
729706389.811863,-2.767963,-1.159995,163.674469,0.01741,-0.052048,1.004883,-0.033033,0.010244,-0.00412,86.389511,14.761551,-147.39003,,,
729706389.815188,-2.776946,-1.157357,163.673808,0.01741,-0.052048,1.004883,-0.033033,0.010244,-0.00412,86.389511,14.761551,-147.39003,,,
729706389.818591,-2.776946,-1.157357,163.673808,0.01741,-0.052048,1.004883,-0.033033,0.010244,-0.00412,86.389511,14.761551,-147.39003,,,
729706389.821854,-2.783804,-1.155156,163.673884,0.014511,-0.053238,1.007889,-0.018794,0.011191,0.000957,86.234161,14.912277,-147.192947,,,
729706389.825188,-2.788277,-1.152651,163.674706,0.014511,-0.053238,1.007889,-0.018794,0.011191,0.000957,86.234161,14.912277,-147.192947,,,
729706389.828535,-2.788277,-1.152651,163.674706,0.014511,-0.053238,1.007889,-0.018794,0.011191,0.000957,86.234161,14.912277,-147.192947,,,
729706389.831889,-2.790251,-1.151133,163.675822,0.016205,-0.053207,1.008789,-0.002813,0.00756,0.002863,86.234161,14.912277,-147.192947,,,
729706389.835184,-2.789714,-1.148751,163.67717,0.016205,-0.053207,1.008789,-0.002813,0.00756,0.002863,86.234161,14.912277,-147.192947,,,
729706389.83859,-2.789714,-1.148751,163.67717,0.016205,-0.053207,1.008789,-0.002813,0.00756,0.002863,86.234161,14.912277,-147.192947,,,
729706389.841859,-2.786819,-1.147147,163.678063,0.019424,-0.050888,1.008621,0.011402,0.0099,-0.000178,86.234161,14.912277,-147.192947,,,
729706389.845182,-2.783841,-1.144802,163.678258,0.019424,-0.050888,1.008621,0.011402,0.0099,-0.000178,86.234161,14.912277,-147.192947,,,
729706389.848532,-2.783841,-1.144802,163.678258,0.019424,-0.050888,1.008621,0.011402,0.0099,-0.000178,86.234161,14.912277,-147.192947,,,
729706389.851863,-2.78091,-1.144427,163.678392,0.021362,-0.045013,1.00116,0.01151,0.002987,-0.000287,86.234161,14.912277,-147.192947,,,
729706389.855174,-2.778251,-1.143496,163.679161,0.021362,-0.045013,1.00116,0.01151,0.002987,-0.000287,86.234161,14.912277,-147.192947,,,
729706389.858577,-2.778251,-1.143496,163.679161,0.021362,-0.045013,1.00116,0.01151,0.002987,-0.000287,86.234161,14.912277,-147.192947,,,
729706389.861847,-2.776648,-1.143623,163.680179,0.018127,-0.045273,0.997116,0.003512,0.001529,0.001927,86.423859,14.807114,-147.220871,,,
729706389.865178,-2.777823,-1.144214,163.68089,0.018127,-0.045273,0.997116,0.003512,0.001529,0.001927,86.423859,14.807114,-147.220871,,,
729706389.868528,-2.777823,-1.144214,163.68089,0.018127,-0.045273,0.997116,0.003512,0.001529,0.001927,86.423859,14.807114,-147.220871,,,
729706389.871889,-2.781739,-1.146855,163.681706,0.02095,-0.049301,0.986237,-0.015671,-0.009211,0.003219,86.423859,14.807114,-147.220871,,,
729706389.875196,-2.786093,-1.149936,163.683978,0.02095,-0.049301,0.986237,-0.015671,-0.009211,0.003219,86.423859,14.807114,-147.220871,,,
729706389.878532,-2.786093,-1.149936,163.683978,0.02095,-0.049301,0.986237,-0.015671,-0.009211,0.003219,86.423859,14.807114,-147.220871,,,
729706389.881878,-2.791325,-1.153389,163.687836,0.015366,-0.055435,0.991486,-0.020073,-0.008632,0.014521,86.423859,14.807114,-147.220871,,,
729706389.885186,-2.796988,-1.156465,163.692341,0.015366,-0.055435,0.991486,-0.020073,-0.008632,0.014521,86.423859,14.807114,-147.220871,,,
729706389.88852,-2.796988,-1.156465,163.692341,0.015366,-0.055435,0.991486,-0.020073,-0.008632,0.014521,86.423859,14.807114,-147.220871,,,
729706389.891864,-2.800744,-1.159559,163.695847,0.023056,-0.049484,0.994507,-0.008373,-0.006504,0.007429,86.423859,14.807114,-147.220871,,,
729706389.89518,-2.802664,-1.16064,163.697634,0.023056,-0.049484,0.994507,-0.008373,-0.006504,0.007429,86.423859,14.807114,-147.220871,,,
729706389.898598,-2.802664,-1.16064,163.697634,0.023056,-0.049484,0.994507,-0.008373,-0.006504,0.007429,86.423859,14.807114,-147.220871,,,
729706389.901843,-2.801366,-1.160865,163.698033,0.030731,-0.052094,1.002289,0.011132,0.005642,-0.002354,86.575439,14.863724,-147.274887,,,
729706389.90518,-2.796676,-1.158442,163.697773,0.030731,-0.052094,1.002289,0.011132,0.005642,-0.002354,86.575439,14.863724,-147.274887,,,
729706389.90853,-2.796676,-1.158442,163.697773,0.030731,-0.052094,1.002289,0.011132,0.005642,-0.002354,86.575439,14.863724,-147.274887,,,
729706389.911904,-2.787848,-1.154186,163.697127,0.027878,-0.056488,1.010803,0.036451,0.023578,-0.005347,86.575439,14.863724,-147.274887,,,
729706389.915175,-2.778271,-1.14734,163.696496,0.027878,-0.056488,1.010803,0.036451,0.023578,-0.005347,86.575439,14.863724,-147.274887,,,
729706389.918535,-2.778271,-1.14734,163.696496,0.027878,-0.056488,1.010803,0.036451,0.023578,-0.005347,86.575439,14.863724,-147.274887,,,
729706389.921843,-2.768047,-1.139651,163.696271,0.027069,-0.051193,1.001358,0.038235,0.032734,-0.002401,86.575439,14.863724,-147.274887,,,
729706389.925182,-2.758312,-1.131219,163.69622,0.027069,-0.051193,1.001358,0.038235,0.032734,-0.002401,86.575439,14.863724,-147.274887,,,
729706389.928525,-2.758312,-1.131219,163.69622,0.027069,-0.051193,1.001358,0.038235,0.032734,-0.002401,86.575439,14.863724,-147.274887,,,
729706389.931845,-2.750857,-1.123762,163.696594,0.023285,-0.044724,0.990677,0.023905,0.025385,0.000886,86.575439,14.863724,-147.274887,,,
729706389.93518,-2.744202,-1.117735,163.697797,0.023285,-0.044724,0.990677,0.023905,0.025385,0.000886,86.575439,14.863724,-147.274887,,,
729706389.938607,-2.744202,-1.117735,163.697797,0.023285,-0.044724,0.990677,0.023905,0.025385,0.000886,86.575439,14.863724,-147.274887,,,
729706389.941857,-2.739854,-1.112409,163.699213,0.016464,-0.044098,0.986038,0.010679,0.020507,0.002639,86.446564,14.807632,-147.466858,,,
729706389.945182,-2.737761,-1.107966,163.700358,0.016464,-0.044098,0.986038,0.010679,0.020507,0.002639,86.446564,14.807632,-147.466858,,,
