Time (sec),Pitch (deg),Roll (deg),Yaw(deg),X-Acceleration (g),Y-Acceleration (g),Z-Acceleration (g),Pitch Rate (deg/sec),Roll Rate (deg/sec),Yaw Rate (deg/sec),Magnetic Field in X direction (uT),Magnetic Field in Y direction (uT),Magnetic Field in Z Direction (uT),Latitude (deg),Longitude (deg),Altitude (m)
729717230.20561,-19.651975,7.654162,105.702931,-0.143326,-0.325912,0.926727,-1.675952,0.033888,-0.344287,94.362656,50.674683,-140.923935,,,
729717230.205794,-20.149625,7.659688,141.207856,-0.133148,-0.345398,0.923325,-1.675952,0.033888,-0.344287,94.362656,50.674683,-140.923935,,,
729717230.210224,-20.149627,7.659688,102.594653,-0.133148,-0.345398,0.923325,-1.675952,0.033888,-0.344287,94.362656,50.674683,-140.923935,,,
729717230.211568,-20.633442,7.647722,105.63155,-0.133148,-0.345398,0.923325,-1.675952,0.033888,-0.344287,94.362656,50.674683,-140.923935,,,
729717230.211714,-20.633445,7.64772,141.167902,-0.133148,-0.345398,0.923325,-1.675952,0.033888,-0.344287,94.362656,50.674683,-140.923935,,,
729717230.212499,-20.633448,7.647721,102.554698,-0.133148,-0.345398,0.923325,-1.675952,0.033888,-0.344287,94.362656,50.674683,-140.923935,,,
729717230.212728,-20.633445,7.64772,141.167902,-0.133148,-0.345398,0.923325,-1.675952,0.033888,-0.344287,94.362656,50.674683,-140.923935,,,
729717230.215417,-20.633448,7.647721,102.554698,-0.133148,-0.345398,0.923325,-1.675952,0.033888,-0.344287,93.817245,54.061249,-139.072144,,,
729717230.218467,-21.105254,7.618984,105.583345,-0.119507,-0.363861,0.925491,-1.586975,-0.060141,-0.384497,93.817245,54.061249,-139.072144,,,
729717230.2187,-21.105257,7.618982,141.119698,-0.119507,-0.363861,0.925491,-1.586975,-0.060141,-0.384497,93.817245,54.061249,-139.072144,,,
729717230.22098,-21.10526,7.618982,102.506494,-0.119507,-0.363861,0.925491,-1.586975,-0.060141,-0.384497,93.817245,54.061249,-139.072144,,,
729717230.221167,-21.568252,7.575411,141.064134,-0.119507,-0.363861,0.925491,-1.586975,-0.060141,-0.384497,93.817245,54.061249,-139.072144,,,
729717230.221737,-21.568255,7.575411,102.450929,-0.119507,-0.363861,0.925491,-1.586975,-0.060141,-0.384497,93.817245,54.061249,-139.072144,,,
729717230.222291,-21.568249,7.575413,105.52778,-0.119507,-0.363861,0.925491,-1.586975,-0.060141,-0.384497,93.817245,54.061249,-139.072144,,,
729717230.222428,-21.568252,7.575411,141.064134,-0.119507,-0.363861,0.925491,-1.586975,-0.060141,-0.384497,93.817245,54.061249,-139.072144,,,
729717230.224905,-21.568255,7.575411,102.450929,-0.119507,-0.363861,0.925491,-1.586975,-0.060141,-0.384497,93.817245,54.061249,-139.072144,,,
729717230.225113,-21.568249,7.575413,105.52778,-0.119507,-0.363861,0.925491,-1.586975,-0.060141,-0.384497,93.817245,54.061249,-139.072144,,,
729717230.22576,-22.026783,7.520201,141.002173,-0.10997,-0.375107,0.916565,-1.551571,-0.121609,-0.417536,93.817245,54.061249,-139.072144,,,
729717230.229812,-22.026785,7.520201,102.388968,-0.10997,-0.375107,0.916565,-1.551571,-0.121609,-0.417536,93.817245,54.061249,-139.072144,,,
729717230.231478,-22.484897,7.456906,105.398717,-0.10997,-0.375107,0.916565,-1.551571,-0.121609,-0.417536,93.817245,54.061249,-139.072144,,,
729717230.231594,-22.484901,7.456904,140.935071,-0.10997,-0.375107,0.916565,-1.551571,-0.121609,-0.417536,93.817245,54.061249,-139.072144,,,
729717230.232162,-22.484903,7.456904,102.321866,-0.10997,-0.375107,0.916565,-1.551571,-0.121609,-0.417536,93.817245,54.061249,-139.072144,,,
729717230.232302,-22.484897,7.456906,105.398717,-0.10997,-0.375107,0.916565,-1.551571,-0.121609,-0.417536,93.817245,54.061249,-139.072144,,,
729717230.232397,-22.484901,7.456904,140.935071,-0.10997,-0.375107,0.916565,-1.551571,-0.121609,-0.417536,93.817245,54.061249,-139.072144,,,
729717230.234889,-22.484903,7.456904,102.321866,-0.10997,-0.375107,0.916565,-1.551571,-0.121609,-0.417536,93.817245,54.061249,-139.072144,,,
729717230.235791,-22.484897,7.456906,105.398717,-0.10997,-0.375107,0.916565,-1.571493,-0.15251,-0.43684,93.817245,54.061249,-139.072144,,,
729717230.235979,-22.946226,7.387328,140.864564,-0.098572,-0.385727,0.910049,-1.571493,-0.15251,-0.43684,93.817245,54.061249,-139.072144,,,
729717230.239689,-22.946228,7.387328,102.251358,-0.098572,-0.385727,0.910049,-1.571493,-0.15251,-0.43684,93.817245,54.061249,-139.072144,,,
729717230.240922,-22.946222,7.38733,105.32821,-0.098572,-0.385727,0.910049,-1.571493,-0.15251,-0.43684,93.817245,54.061249,-139.072144,,,
729717230.241028,-23.413605,7.311843,140.792188,-0.098572,-0.385727,0.910049,-1.571493,-0.15251,-0.43684,93.817245,54.061249,-139.072144,,,
729717230.24163,-23.413607,7.311843,102.178981,-0.098572,-0.385727,0.910049,-1.571493,-0.15251,-0.43684,93.817245,54.061249,-139.072144,,,
729717230.242181,-23.413601,7.311845,105.255832,-0.098572,-0.385727,0.910049,-1.571493,-0.15251,-0.43684,93.817245,54.061249,-139.072144,,,
729717230.242417,-23.413605,7.311843,140.792188,-0.098572,-0.385727,0.910049,-1.571493,-0.15251,-0.43684,93.817245,54.061249,-139.072144,,,
729717230.244832,-23.413607,7.311843,102.178981,-0.098572,-0.385727,0.910049,-1.571493,-0.15251,-0.43684,93.817245,54.061249,-139.072144,,,
729717230.245071,-23.413601,7.311845,105.255832,-0.098572,-0.385727,0.910049,-1.571493,-0.15251,-0.43684,93.817245,54.061249,-139.072144,,,
729717230.245783,-23.889519,7.232394,140.718974,-0.089539,-0.406509,0.887375,-1.631855,-0.173873,-0.443912,93.817245,54.061249,-139.072144,,,
729717230.249565,-23.889521,7.232394,102.105767,-0.089539,-0.406509,0.887375,-1.631855,-0.173873,-0.443912,93.817245,54.061249,-139.072144,,,
729717230.251141,-23.889514,7.232396,105.182618,-0.089539,-0.406509,0.887375,-1.631855,-0.173873,-0.443912,93.817245,54.061249,-139.072144,,,
729717230.251303,-24.376,7.155076,140.646794,-0.089539,-0.406509,0.887375,-1.631855,-0.173873,-0.443912,93.817245,54.061249,-139.072144,,,
729717230.25209,-24.376002,7.155076,102.033593,-0.089539,-0.406509,0.887375,-1.631855,-0.173873,-0.443912,93.817245,54.061249,-139.072144,,,
729717230.252828,-24.375996,7.155078,105.110444,-0.089539,-0.406509,0.887375,-1.631855,-0.173873,-0.443912,93.817245,54.061249,-139.072144,,,
729717230.252934,-24.376,7.155076,140.646794,-0.089539,-0.406509,0.887375,-1.631855,-0.173873,-0.443912,93.817245,54.061249,-139.072144,,,
729717230.254899,-24.376002,7.155076,102.033593,-0.089539,-0.406509,0.887375,-1.631855,-0.173873,-0.443912,93.817245,54.061249,-139.072144,,,
729717230.255857,-24.375996,7.155078,105.110444,-0.089539,-0.406509,0.887375,-1.699933,-0.100757,-0.431265,93.124176,56.888474,-136.788193,,,
729717230.255997,-24.871855,7.088645,140.576953,-0.07634,-0.434097,0.868332,-1.699933,-0.100757,-0.431265,93.124176,56.888474,-136.788193,,,
729717230.259654,-24.871857,7.088645,101.963751,-0.07634,-0.434097,0.868332,-1.699933,-0.100757,-0.431265,93.124176,56.888474,-136.788193,,,
729717230.260709,-24.871851,7.088647,105.040601,-0.07634,-0.434097,0.868332,-1.699933,-0.100757,-0.431265,93.124176,56.888474,-136.788193,,,
729717230.26082,-25.373627,7.041305,140.511089,-0.07634,-0.434097,0.868332,-1.699933,-0.100757,-0.431265,93.124176,56.888474,-136.788193,,,
729717230.261696,-25.37363,7.041305,101.897885,-0.07634,-0.434097,0.868332,-1.699933,-0.100757,-0.431265,93.124176,56.888474,-136.788193,,,
729717230.262323,-25.373623,7.041307,104.974736,-0.07634,-0.434097,0.868332,-1.699933,-0.100757,-0.431265,93.124176,56.888474,-136.788193,,,
729717230.262462,-25.373627,7.041305,140.511089,-0.07634,-0.434097,0.868332,-1.699933,-0.100757,-0.431265,93.124176,56.888474,-136.788193,,,
729717230.26486,-25.37363,7.041305,101.897885,-0.07634,-0.434097,0.868332,-1.699933,-0.100757,-0.431265,93.124176,56.888474,-136.788193,,,
729717230.265131,-25.373623,7.041307,104.974736,-0.07634,-0.434097,0.868332,-1.699933,-0.100757,-0.431265,93.124176,56.888474,-136.788193,,,
729717230.265754,-25.876647,7.018546,140.450953,-0.077866,-0.463013,0.906281,-1.713084,0.057049,-0.39259,93.124176,56.888474,-136.788193,,,
729717230.269651,-25.87665,7.018546,101.837748,-0.077866,-0.463013,0.906281,-1.713084,0.057049,-0.39259,93.124176,56.888474,-136.788193,,,
729717230.271187,-25.876643,7.018548,104.914599,-0.077866,-0.463013,0.906281,-1.713084,0.057049,-0.39259,93.124176,56.888474,-136.788193,,,
729717230.271312,-26.375846,7.022254,140.397165,-0.077866,-0.463013,0.906281,-1.713084,0.057049,-0.39259,93.124176,56.888474,-136.788193,,,
729717230.27174,-26.375849,7.022254,101.78396,-0.077866,-0.463013,0.906281,-1.713084,0.057049,-0.39259,93.124176,56.888474,-136.788193,,,
729717230.272151,-26.375842,7.022256,104.860811,-0.077866,-0.463013,0.906281,-1.713084,0.057049,-0.39259,93.124176,56.888474,-136.788193,,,
729717230.272408,-26.375846,7.022254,140.397165,-0.077866,-0.463013,0.906281,-1.713084,0.057049,-0.39259,93.124176,56.888474,-136.788193,,,
729717230.274868,-26.375849,7.022254,101.78396,-0.077866,-0.463013,0.906281,-1.713084,0.057049,-0.39259,93.124176,56.888474,-136.788193,,,
729717230.275063,-26.375842,7.022256,104.860811,-0.077866,-0.463013,0.906281,-1.713084,0.057049,-0.39259,93.124176,56.888474,-136.788193,,,
729717230.275751,-26.868421,7.048684,140.34924,-0.084671,-0.484955,0.949188,-1.672503,0.200157,-0.35023,93.124176,56.888474,-136.788193,,,
729717230.279128,-26.868424,7.048684,101.736035,-0.084671,-0.484955,0.949188,-1.672503,0.200157,-0.35023,93.124176,56.888474,-136.788193,,,
729717230.280298,-26.868416,7.048686,104.812886,-0.084671,-0.484955,0.949188,-1.672503,0.200157,-0.35023,93.124176,56.888474,-136.788193,,,
729717230.280404,-27.354154,7.091616,140.306942,-0.084671,-0.484955,0.949188,-1.672503,0.200157,-0.35023,93.124176,56.888474,-136.788193,,,
729717230.281797,-27.354157,7.091616,101.693737,-0.084671,-0.484955,0.949188,-1.672503,0.200157,-0.35023,93.124176,56.888474,-136.788193,,,
729717230.282377,-27.354149,7.091618,104.770587,-0.084671,-0.484955,0.949188,-1.672503,0.200157,-0.35023,93.124176,56.888474,-136.788193,,,
729717230.282486,-27.354154,7.091616,140.306942,-0.084671,-0.484955,0.949188,-1.672503,0.200157,-0.35023,93.124176,56.888474,-136.788193,,,
729717230.284856,-27.354157,7.091616,101.693737,-0.084671,-0.484955,0.949188,-1.672503,0.200157,-0.35023,93.124176,56.888474,-136.788193,,,
729717230.285121,-27.354149,7.091618,104.770587,-0.084671,-0.484955,0.949188,-1.672503,0.200157,-0.35023,93.124176,56.888474,-136.788193,,,
729717230.285753,-27.833315,7.145786,140.271086,-0.084778,-0.494568,0.936417,-1.631647,0.260005,-0.306698,93.124176,56.888474,-136.788193,,,
729717230.289112,-27.833318,7.145786,101.65788,-0.084778,-0.494568,0.936417,-1.631647,0.260005,-0.306698,93.124176,56.888474,-136.788193,,,
729717230.290161,-27.83331,7.145788,104.73473,-0.084778,-0.494568,0.936417,-1.631647,0.260005,-0.306698,93.124176,56.888474,-136.788193,,,
729717230.290267,-28.307278,7.209113,140.242201,-0.084778,-0.494568,0.936417,-1.631647,0.260005,-0.306698,93.124176,56.888474,-136.788193,,,
729717230.291778,-28.307281,7.209113,101.628997,-0.084778,-0.494568,0.936417,-1.631647,0.260005,-0.306698,93.124176,56.888474,-136.788193,,,
729717230.292336,-28.307273,7.209115,104.705848,-0.084778,-0.494568,0.936417,-1.631647,0.260005,-0.306698,93.124176,56.888474,-136.788193,,,
729717230.292457,-28.307278,7.209113,140.242201,-0.084778,-0.494568,0.936417,-1.631647,0.260005,-0.306698,93.124176,56.888474,-136.788193,,,
729717230.294858,-28.307281,7.209113,101.628997,-0.084778,-0.494568,0.936417,-1.631647,0.260005,-0.306698,93.124176,56.888474,-136.788193,,,
729717230.295171,-28.307273,7.209115,104.705848,-0.084778,-0.494568,0.936417,-1.631647,0.260005,-0.306698,93.124176,56.888474,-136.788193,,,
729717230.295777,-28.779301,7.282478,140.221343,-0.09848,-0.504623,0.908981,-1.623282,0.30469,-0.259152,93.124176,56.888474,-136.788193,,,
729717230.299611,-28.779304,7.282478,101.608139,-0.09848,-0.504623,0.908981,-1.623282,0.30469,-0.259152,93.069595,59.531784,-134.367462,,,
729717230.30106,-28.779295,7.28248,104.68499,-0.09848,-0.504623,0.908981,-1.623282,0.30469,-0.259152,93.069595,59.531784,-134.367462,,,
729717230.301179,-29.251852,7.365991,140.209284,-0.09848,-0.504623,0.908981,-1.623282,0.30469,-0.259152,93.069595,59.531784,-134.367462,,,
729717230.301723,-29.251855,7.365991,101.59608,-0.09848,-0.504623,0.908981,-1.623282,0.30469,-0.259152,93.069595,59.531784,-134.367462,,,
729717230.302271,-29.251847,7.365993,104.672931,-0.09848,-0.504623,0.908981,-1.623282,0.30469,-0.259152,93.069595,59.531784,-134.367462,,,
729717230.302399,-29.251852,7.365991,140.209284,-0.09848,-0.504623,0.908981,-1.623282,0.30469,-0.259152,93.069595,59.531784,-134.367462,,,
729717230.304866,-29.251855,7.365991,101.59608,-0.09848,-0.504623,0.908981,-1.623282,0.30469,-0.259152,93.069595,59.531784,-134.367462,,,
729717230.30511,-29.251847,7.365993,104.672931,-0.09848,-0.504623,0.908981,-1.623282,0.30469,-0.259152,93.069595,59.531784,-134.367462,,,
729717230.305756,-29.728674,7.45697,140.205483,-0.109848,-0.512497,0.887177,-1.659259,0.329251,-0.21797,93.069595,59.531784,-134.367462,,,
729717230.309189,-29.728677,7.45697,101.592277,-0.109848,-0.512497,0.887177,-1.659259,0.329251,-0.21797,93.069595,59.531784,-134.367462,,,
729717230.310222,-29.728668,7.456972,104.669128,-0.109848,-0.512497,0.887177,-1.659259,0.329251,-0.21797,93.069595,59.531784,-134.367462,,,
729717230.31033,-30.213688,7.553754,140.20952,-0.109848,-0.512497,0.887177,-1.659259,0.329251,-0.21797,93.069595,59.531784,-134.367462,,,
729717230.311767,-30.213691,7.553754,101.596314,-0.109848,-0.512497,0.887177,-1.659259,0.329251,-0.21797,93.069595,59.531784,-134.367462,,,
729717230.312279,-30.213683,7.553756,104.673165,-0.109848,-0.512497,0.887177,-1.659259,0.329251,-0.21797,93.069595,59.531784,-134.367462,,,
729717230.312412,-30.213688,7.553754,140.20952,-0.109848,-0.512497,0.887177,-1.659259,0.329251,-0.21797,93.069595,59.531784,-134.367462,,,
729717230.314861,-30.213691,7.553754,101.596314,-0.109848,-0.512497,0.887177,-1.659259,0.329251,-0.21797,93.069595,59.531784,-134.367462,,,
729717230.315091,-30.213683,7.553756,104.673165,-0.109848,-0.512497,0.887177,-1.659259,0.329251,-0.21797,93.069595,59.531784,-134.367462,,,
729717230.315753,-30.71078,7.656823,140.221432,-0.118271,-0.521423,0.850327,-1.748245,0.345165,-0.188122,93.069595,59.531784,-134.367462,,,
729717230.319185,-30.710782,7.656823,101.608225,-0.118271,-0.521423,0.850327,-1.748245,0.345165,-0.188122,93.069595,59.531784,-134.367462,,,
729717230.320313,-30.710774,7.656825,104.685076,-0.118271,-0.521423,0.850327,-1.748245,0.345165,-0.188122,93.069595,59.531784,-134.367462,,,
729717230.320432,-30.71078,7.656823,140.221432,-0.118271,-0.521423,0.850327,-1.748245,0.345165,-0.188122,93.069595,59.531784,-134.367462,,,
729717230.321775,-31.224371,7.766144,101.628309,-0.118271,-0.521423,0.850327,-1.748245,0.345165,-0.188122,93.069595,59.531784,-134.367462,,,
729717230.322324,-31.224362,7.766146,104.70516,-0.118271,-0.521423,0.850327,-1.748245,0.345165,-0.188122,93.069595,59.531784,-134.367462,,,
729717230.322445,-31.224368,7.766144,140.241516,-0.118271,-0.521423,0.850327,-1.748245,0.345165,-0.188122,93.069595,59.531784,-134.367462,,,
729717230.324853,-31.224371,7.766144,101.628309,-0.118271,-0.521423,0.850327,-1.748245,0.345165,-0.188122,93.069595,59.531784,-134.367462,,,
729717230.325062,-31.224362,7.766146,104.70516,-0.118271,-0.521423,0.850327,-1.748245,0.345165,-0.188122,93.069595,59.531784,-134.367462,,,
729717230.325754,-31.755448,7.881121,140.269171,-0.121262,-0.533539,0.827515,-1.87509,0.356193,-0.16776,93.069595,59.531784,-134.367462,,,
729717230.329104,-31.755451,7.881121,101.655965,-0.121262,-0.533539,0.827515,-1.87509,0.356193,-0.16776,93.069595,59.531784,-134.367462,,,
729717230.330203,-31.755442,7.881122,104.732816,-0.121262,-0.533539,0.827515,-1.87509,0.356193,-0.16776,93.069595,59.531784,-134.367462,,,
729717230.330308,-31.755448,7.881121,140.305096,-0.121262,-0.533539,0.827515,-1.87509,0.356193,-0.16776,93.069595,59.531784,-134.367462,,,
729717230.332004,-32.305091,8.00071,101.691889,-0.121262,-0.533539,0.827515,-1.87509,0.356193,-0.16776,93.069595,59.531784,-134.367462,,,
729717230.332807,-32.305082,8.000712,104.76874,-0.121262,-0.533539,0.827515,-1.87509,0.356193,-0.16776,93.069595,59.531784,-134.367462,,,
729717230.332962,-32.305088,8.00071,140.305096,-0.121262,-0.533539,0.827515,-1.87509,0.356193,-0.16776,93.069595,59.531784,-134.367462,,,
729717230.334824,-32.305091,8.00071,101.691889,-0.121262,-0.533539,0.827515,-1.87509,0.356193,-0.16776,93.069595,59.531784,-134.367462,,,
729717230.335165,-32.305082,8.000712,104.76874,-0.121262,-0.533539,0.827515,-1.87509,0.356193,-0.16776,93.069595,59.531784,-134.367462,,,
729717230.335781,-32.874646,8.123773,140.351037,-0.127853,-0.549957,0.798553,-2.019931,0.340894,-0.138302,93.069595,59.531784,-134.367462,,,
729717230.340121,-32.874649,8.123773,101.737831,-0.127853,-0.549957,0.798553,-2.019931,0.340894,-0.138302,93.300339,62.460876,-131.151764,,,
729717230.342244,-32.87464,8.123775,104.814682,-0.127853,-0.549957,0.798553,-2.019931,0.340894,-0.138302,93.300339,62.460876,-131.151764,,,
729717230.342415,-33.465199,8.252513,140.407955,-0.127853,-0.549957,0.798553,-2.019931,0.340894,-0.138302,93.300339,62.460876,-131.151764,,,
729717230.343194,-33.465202,8.252513,101.794748,-0.127853,-0.549957,0.798553,-2.019931,0.340894,-0.138302,93.300339,62.460876,-131.151764,,,
729717230.344747,-33.465202,8.252513,101.794748,-0.127853,-0.549957,0.798553,-2.019931,0.340894,-0.138302,93.300339,62.460876,-131.151764,,,
729717230.346159,-33.465193,8.252515,104.871599,-0.140274,-0.571457,0.761032,-2.16167,0.369692,-0.104642,93.300339,62.460876,-131.151764,,,
729717230.346283,-34.075186,8.392194,140.476226,-0.140274,-0.571457,0.761032,-2.16167,0.369692,-0.104642,93.300339,62.460876,-131.151764,,,
729717230.349116,-34.075189,8.392194,101.863021,-0.140274,-0.571457,0.761032,-2.16167,0.369692,-0.104642,93.300339,62.460876,-131.151764,,,
729717230.349674,-34.075179,8.392196,104.939871,-0.140274,-0.571457,0.761032,-2.16167,0.369692,-0.104642,93.300339,62.460876,-131.151764,,,
729717230.349792,-34.075186,8.392194,140.476226,-0.140274,-0.571457,0.761032,-2.16167,0.369692,-0.104642,93.300339,62.460876,-131.151764,,,
729717230.352055,-34.701257,8.548689,101.943322,-0.140274,-0.571457,0.761032,-2.16167,0.369692,-0.104642,93.300339,62.460876,-131.151764,,,
729717230.352854,-34.701246,8.548691,105.020172,-0.140274,-0.571457,0.761032,-2.16167,0.369692,-0.104642,93.300339,62.460876,-131.151764,,,
729717230.353013,-34.701253,8.548689,140.556527,-0.140274,-0.571457,0.761032,-2.16167,0.369692,-0.104642,93.300339,62.460876,-131.151764,,,
729717230.354852,-34.701257,8.548689,101.943322,-0.140274,-0.571457,0.761032,-2.16167,0.369692,-0.104642,93.300339,62.460876,-131.151764,,,
729717230.355114,-34.701246,8.548691,105.020172,-0.140274,-0.571457,0.761032,-2.16167,0.369692,-0.104642,93.300339,62.460876,-131.151764,,,
729717230.355786,-35.338818,8.724921,140.648814,-0.14856,-0.591812,0.762634,-2.250985,0.454521,-0.06524,93.300339,62.460876,-131.151764,,,
729717230.359553,-35.338821,8.724921,102.035609,-0.14856,-0.591812,0.762634,-2.250985,0.454521,-0.06524,93.300339,62.460876,-131.151764,,,
729717230.361084,-35.33881,8.724923,105.112459,-0.14856,-0.591812,0.762634,-2.250985,0.454521,-0.06524,93.300339,62.460876,-131.151764,,,
729717230.361228,-35.981625,8.922025,140.752357,-0.14856,-0.591812,0.762634,-2.250985,0.454521,-0.06524,93.300339,62.460876,-131.151764,,,
729717230.361772,-35.981628,8.922025,102.139152,-0.14856,-0.591812,0.762634,-2.250985,0.454521,-0.06524,93.300339,62.460876,-131.151764,,,
729717230.362311,-35.981617,8.922027,105.216003,-0.14856,-0.591812,0.762634,-2.250985,0.454521,-0.06524,93.300339,62.460876,-131.151764,,,
729717230.362469,-35.981625,8.922025,140.752357,-0.14856,-0.591812,0.762634,-2.250985,0.454521,-0.06524,93.300339,62.460876,-131.151764,,,
729717230.364885,-35.981628,8.922025,102.139152,-0.14856,-0.591812,0.762634,-2.250985,0.454521,-0.06524,93.300339,62.460876,-131.151764,,,
729717230.365108,-35.981617,8.922027,105.216003,-0.14856,-0.591812,0.762634,-2.250985,0.454521,-0.06524,93.300339,62.460876,-131.151764,,,
729717230.365786,-36.625138,9.139962,140.866071,-0.1539,-0.605072,0.775009,-2.263697,0.551276,-0.030596,93.300339,62.460876,-131.151764,,,
729717230.369564,-36.625141,9.139962,102.252869,-0.1539,-0.605072,0.775009,-2.263697,0.551276,-0.030596,93.300339,62.460876,-131.151764,,,
729717230.371102,-36.62513,9.139963,105.329719,-0.1539,-0.605072,0.775009,-2.263697,0.551276,-0.030596,93.300339,62.460876,-131.151764,,,
729717230.371207,-37.266312,9.377108,140.989725,-0.1539,-0.605072,0.775009,-2.263697,0.551276,-0.030596,93.300339,62.460876,-131.151764,,,
729717230.371739,-37.266315,9.377108,102.376522,-0.1539,-0.605072,0.775009,-2.263697,0.551276,-0.030596,93.300339,62.460876,-131.151764,,,
729717230.37229,-37.266304,9.37711,105.453372,-0.1539,-0.605072,0.775009,-2.263697,0.551276,-0.030596,93.300339,62.460876,-131.151764,,,
729717230.372407,-37.266312,9.377108,140.989725,-0.1539,-0.605072,0.775009,-2.263697,0.551276,-0.030596,93.300339,62.460876,-131.151764,,,
729717230.374894,-37.266315,9.377108,102.376522,-0.1539,-0.605072,0.775009,-2.263697,0.551276,-0.030596,93.300339,62.460876,-131.151764,,,
729717230.375108,-37.266304,9.37711,105.453372,-0.1539,-0.605072,0.775009,-2.263697,0.551276,-0.030596,93.300339,62.460876,-131.151764,,,
729717230.375783,-37.903047,9.630151,141.122979,-0.164291,-0.615631,0.783646,-2.239962,0.613492,0.001827,93.300339,62.460876,-131.151764,,,
729717230.380772,-37.90305,9.630151,102.509775,-0.164291,-0.615631,0.783646,-2.239962,0.613492,0.001827,93.972672,65.394791,-126.841415,,,
729717230.382745,-38.534187,9.894502,105.727647,-0.164291,-0.615631,0.783646,-2.239962,0.613492,0.001827,93.972672,65.394791,-126.841415,,,
729717230.382877,-38.534196,9.8945,141.263999,-0.164291,-0.615631,0.783646,-2.239962,0.613492,0.001827,93.972672,65.394791,-126.841415,,,
729717230.383446,-38.534199,9.8945,102.650797,-0.164291,-0.615631,0.783646,-2.239962,0.613492,0.001827,93.972672,65.394791,-126.841415,,,
729717230.384722,-38.534199,9.8945,102.650797,-0.164291,-0.615631,0.783646,-2.239962,0.613492,0.001827,93.972672,65.394791,-126.841415,,,
729717230.385092,-38.534187,9.894502,105.727647,-0.164291,-0.615631,0.783646,-2.239962,0.613492,0.001827,93.972672,65.394791,-126.841415,,,
729717230.385749,-39.159525,10.166536,141.410945,-0.172028,-0.62384,0.768448,-2.205486,0.633097,0.013168,93.972672,65.394791,-126.841415,,,
729717230.389117,-39.159529,10.166536,102.797743,-0.172028,-0.62384,0.768448,-2.205486,0.633097,0.013168,93.972672,65.394791,-126.841415,,,
729717230.390191,-39.159517,10.166537,105.874592,-0.172028,-0.62384,0.768448,-2.205486,0.633097,0.013168,93.972672,65.394791,-126.841415,,,
729717230.390295,-39.159525,10.166536,141.410945,-0.172028,-0.62384,0.768448,-2.205486,0.633097,0.013168,93.972672,65.394791,-126.841415,,,
729717230.391768,-39.780161,10.442715,102.949397,-0.172028,-0.62384,0.768448,-2.205486,0.633097,0.013168,93.972672,65.394791,-126.841415,,,
729717230.392307,-39.780149,10.442716,106.026247,-0.172028,-0.62384,0.768448,-2.205486,0.633097,0.013168,93.972672,65.394791,-126.841415,,,
729717230.392427,-39.780158,10.442714,141.562602,-0.172028,-0.62384,0.768448,-2.205486,0.633097,0.013168,93.972672,65.394791,-126.841415,,,
729717230.394871,-39.780161,10.442715,102.949397,-0.172028,-0.62384,0.768448,-2.205486,0.633097,0.013168,93.972672,65.394791,-126.841415,,,
729717230.395192,-39.780149,10.442716,106.026247,-0.172028,-0.62384,0.768448,-2.205486,0.633097,0.013168,93.972672,65.394791,-126.841415,,,
729717230.395778,-40.396854,10.719179,141.717391,-0.172989,-0.630798,0.743301,-2.180418,0.61244,0.006337,93.972672,65.394791,-126.841415,,,
729717230.399451,-40.396858,10.71918,103.104186,-0.172989,-0.630798,0.743301,-2.180418,0.61244,0.006337,93.972672,65.394791,-126.841415,,,
729717230.400855,-40.396845,10.719181,106.181036,-0.172989,-0.630798,0.743301,-2.180418,0.61244,0.006337,93.972672,65.394791,-126.841415,,,
729717230.400962,-41.010548,10.994771,141.874269,-0.172989,-0.630798,0.743301,-2.180418,0.61244,0.006337,93.972672,65.394791,-126.841415,,,
729717230.401798,-41.010552,10.994771,103.261066,-0.172989,-0.630798,0.743301,-2.180418,0.61244,0.006337,93.972672,65.394791,-126.841415,,,
729717230.40238,-41.010539,10.994772,106.337915,-0.172989,-0.630798,0.743301,-2.180418,0.61244,0.006337,93.972672,65.394791,-126.841415,,,
729717230.402493,-41.010548,10.994771,141.874269,-0.172989,-0.630798,0.743301,-2.180418,0.61244,0.006337,93.972672,65.394791,-126.841415,,,
729717230.404856,-41.010552,10.994771,103.261066,-0.172989,-0.630798,0.743301,-2.180418,0.61244,0.006337,93.972672,65.394791,-126.841415,,,
729717230.405073,-41.010539,10.994772,106.337915,-0.172989,-0.630798,0.743301,-2.180418,0.61244,0.006337,93.972672,65.394791,-126.841415,,,
729717230.405749,-41.622408,11.26985,142.033251,-0.17572,-0.646286,0.720123,-2.167731,0.590252,-0.008723,93.972672,65.394791,-126.841415,,,
729717230.410271,-41.622412,11.26985,103.420046,-0.17572,-0.646286,0.720123,-2.167731,0.590252,-0.008723,93.972672,65.394791,-126.841415,,,
729717230.411892,-41.622399,11.269851,106.496895,-0.17572,-0.646286,0.720123,-2.167731,0.590252,-0.008723,93.972672,65.394791,-126.841415,,,
729717230.412037,-42.232256,11.545329,142.194421,-0.17572,-0.646286,0.720123,-2.167731,0.590252,-0.008723,93.972672,65.394791,-126.841415,,,
729717230.412579,-42.23226,11.545329,103.581213,-0.17572,-0.646286,0.720123,-2.167731,0.590252,-0.008723,93.972672,65.394791,-126.841415,,,
729717230.412885,-42.232256,11.545329,142.194421,-0.17572,-0.646286,0.720123,-2.167731,0.590252,-0.008723,93.972672,65.394791,-126.841415,,,
729717230.414785,-42.23226,11.545329,103.581213,-0.17572,-0.646286,0.720123,-2.167731,0.590252,-0.008723,93.972672,65.394791,-126.841415,,,
729717230.416223,-42.232247,11.54533,106.658063,-0.174255,-0.66806,0.712601,-2.157357,0.578119,-0.020475,93.972672,65.394791,-126.841415,,,
729717230.416352,-42.840282,11.822207,142.358446,-0.174255,-0.66806,0.712601,-2.157357,0.578119,-0.020475,93.972672,65.394791,-126.841415,,,
729717230.41942,-42.840285,11.822207,103.745238,-0.174255,-0.66806,0.712601,-2.157357,0.578119,-0.020475,94.578934,67.745285,-122.216125,,,
729717230.420284,-42.840272,11.822208,106.822088,-0.174255,-0.66806,0.712601,-2.157357,0.578119,-0.020475,94.578934,67.745285,-122.216125,,,
729717230.420385,-42.840282,11.822207,142.358446,-0.174255,-0.66806,0.712601,-2.157357,0.578119,-0.020475,94.578934,67.745285,-122.216125,,,
729717230.421753,-43.448858,12.100189,103.912741,-0.174255,-0.66806,0.712601,-2.157357,0.578119,-0.020475,94.578934,67.745285,-122.216125,,,
729717230.422293,-43.448844,12.10019,106.98959,-0.174255,-0.66806,0.712601,-2.157357,0.578119,-0.020475,94.578934,67.745285,-122.216125,,,
729717230.422415,-43.448854,12.100189,142.525947,-0.174255,-0.66806,0.712601,-2.157357,0.578119,-0.020475,94.578934,67.745285,-122.216125,,,
729717230.424851,-43.448858,12.100189,103.912741,-0.174255,-0.66806,0.712601,-2.157357,0.578119,-0.020475,94.578934,67.745285,-122.216125,,,
729717230.425073,-43.448844,12.10019,106.98959,-0.174255,-0.66806,0.712601,-2.157357,0.578119,-0.020475,94.578934,67.745285,-122.216125,,,
729717230.425811,-44.059745,12.377685,142.697666,-0.172226,-0.68985,0.691818,-2.175645,0.545562,-0.032329,94.578934,67.745285,-122.216125,,,
729717230.429077,-44.059749,12.377686,104.084461,-0.172226,-0.68985,0.691818,-2.175645,0.545562,-0.032329,94.578934,67.745285,-122.216125,,,
729717230.430177,-44.059735,12.377686,107.16131,-0.172226,-0.68985,0.691818,-2.175645,0.545562,-0.032329,94.578934,67.745285,-122.216125,,,
729717230.430283,-44.059745,12.377685,142.697666,-0.172226,-0.68985,0.691818,-2.175645,0.545562,-0.032329,94.578934,67.745285,-122.216125,,,
729717230.431774,-44.673145,12.653034,104.261154,-0.172226,-0.68985,0.691818,-2.175645,0.545562,-0.032329,94.578934,67.745285,-122.216125,,,
729717230.432313,-44.673131,12.653035,107.338003,-0.172226,-0.68985,0.691818,-2.175645,0.545562,-0.032329,94.578934,67.745285,-122.216125,,,
729717230.432433,-44.673142,12.653034,142.874358,-0.172226,-0.68985,0.691818,-2.175645,0.545562,-0.032329,94.578934,67.745285,-122.216125,,,
729717230.434892,-44.673145,12.653034,104.261154,-0.172226,-0.68985,0.691818,-2.175645,0.545562,-0.032329,94.578934,67.745285,-122.216125,,,
729717230.435135,-44.673131,12.653035,107.338003,-0.172226,-0.68985,0.691818,-2.175645,0.545562,-0.032329,94.578934,67.745285,-122.216125,,,
729717230.435786,-45.288514,12.92418,143.055972,-0.165115,-0.716293,0.663895,-2.192948,0.483006,-0.041452,94.578934,67.745285,-122.216125,,,
729717230.439559,-45.288518,12.924181,104.442769,-0.165115,-0.716293,0.663895,-2.192948,0.483006,-0.041452,94.578934,67.745285,-122.216125,,,
729717230.441109,-45.288503,12.924181,107.519618,-0.165115,-0.716293,0.663895,-2.192948,0.483006,-0.041452,94.578934,67.745285,-122.216125,,,
729717230.441265,-45.905173,13.191788,143.244875,-0.165115,-0.716293,0.663895,-2.192948,0.483006,-0.041452,94.578934,67.745285,-122.216125,,,
729717230.442039,-45.905177,13.191788,104.631671,-0.165115,-0.716293,0.663895,-2.192948,0.483006,-0.041452,94.578934,67.745285,-122.216125,,,
729717230.442727,-45.905162,13.191789,107.70852,-0.165115,-0.716293,0.663895,-2.192948,0.483006,-0.041452,94.578934,67.745285,-122.216125,,,
729717230.442835,-45.905173,13.191788,143.244875,-0.165115,-0.716293,0.663895,-2.192948,0.483006,-0.041452,94.578934,67.745285,-122.216125,,,
729717230.444829,-45.905177,13.191788,104.631671,-0.165115,-0.716293,0.663895,-2.192948,0.483006,-0.041452,94.578934,67.745285,-122.216125,,,
729717230.445105,-45.905162,13.191789,107.70852,-0.165115,-0.716293,0.663895,-2.192948,0.483006,-0.041452,94.578934,67.745285,-122.216125,,,
729717230.445759,-46.52132,13.456662,143.443221,-0.183609,-0.749084,0.641357,-2.197317,0.406768,-0.026479,94.578934,67.745285,-122.216125,,,
729717230.449722,-46.521324,13.456662,104.830017,-0.183609,-0.749084,0.641357,-2.197317,0.406768,-0.026479,94.578934,67.745285,-122.216125,,,
729717230.450991,-46.521309,13.456663,107.906866,-0.183609,-0.749084,0.641357,-2.197317,0.406768,-0.026479,94.578934,67.745285,-122.216125,,,
729717230.451101,-47.135059,13.719585,143.65293,-0.183609,-0.749084,0.641357,-2.197317,0.406768,-0.026479,94.578934,67.745285,-122.216125,,,
729717230.451636,-47.135064,13.719586,105.039725,-0.183609,-0.749084,0.641357,-2.197317,0.406768,-0.026479,94.578934,67.745285,-122.216125,,,
729717230.452192,-47.135048,13.719586,108.116574,-0.183609,-0.749084,0.641357,-2.197317,0.406768,-0.026479,94.578934,67.745285,-122.216125,,,
729717230.452416,-47.135059,13.719585,143.65293,-0.183609,-0.749084,0.641357,-2.197317,0.406768,-0.026479,94.578934,67.745285,-122.216125,,,
729717230.454908,-47.135064,13.719586,105.039725,-0.183609,-0.749084,0.641357,-2.197317,0.406768,-0.026479,94.578934,67.745285,-122.216125,,,
729717230.455085,-47.135048,13.719586,108.116574,-0.183609,-0.749084,0.641357,-2.197317,0.406768,-0.026479,94.578934,67.745285,-122.216125,,,
729717230.455755,-47.746618,13.981211,143.875504,-0.214615,-0.779709,0.624557,-2.193308,0.321078,0.004953,94.578934,67.745285,-122.216125,,,
729717230.460167,-47.746622,13.981211,105.262303,-0.214615,-0.779709,0.624557,-2.193308,0.321078,0.004953,95.124054,69.521423,-118.109589,,,
729717230.462099,-47.746606,13.981211,108.339151,-0.214615,-0.779709,0.624557,-2.193308,0.321078,0.004953,95.124054,69.521423,-118.109589,,,
729717230.462241,-48.356083,14.240638,144.110657,-0.214615,-0.779709,0.624557,-2.193308,0.321078,0.004953,95.124054,69.521423,-118.109589,,,
729717230.462788,-48.356087,14.240639,105.497454,-0.214615,-0.779709,0.624557,-2.193308,0.321078,0.004953,95.124054,69.521423,-118.109589,,,
729717230.464815,-48.356087,14.240639,105.497454,-0.214615,-0.779709,0.624557,-2.193308,0.321078,0.004953,95.124054,69.521423,-118.109589,,,
729717230.465553,-48.356071,14.240639,108.574302,-0.214615,-0.779709,0.624557,-2.193308,0.321078,0.004953,95.124054,69.521423,-118.109589,,,
729717230.46575,-48.962781,14.497586,144.357587,-0.231186,-0.797836,0.601318,-2.185841,0.230908,0.030046,95.124054,69.521423,-118.109589,,,
729717230.469117,-48.962785,14.497587,105.744385,-0.231186,-0.797836,0.601318,-2.185841,0.230908,0.030046,95.124054,69.521423,-118.109589,,,
729717230.470171,-48.962768,14.497587,108.821233,-0.231186,-0.797836,0.601318,-2.185841,0.230908,0.030046,95.124054,69.521423,-118.109589,,,
729717230.470276,-48.962781,14.497586,144.357587,-0.231186,-0.797836,0.601318,-2.185841,0.230908,0.030046,95.124054,69.521423,-118.109589,,,
729717230.471821,-49.566755,14.754581,106.00222,-0.231186,-0.797836,0.601318,-2.185841,0.230908,0.030046,95.124054,69.521423,-118.109589,,,
729717230.472376,-49.566738,14.754581,109.079068,-0.231186,-0.797836,0.601318,-2.185841,0.230908,0.030046,95.124054,69.521423,-118.109589,,,
729717230.472484,-49.566751,14.754581,144.615423,-0.231186,-0.797836,0.601318,-2.185841,0.230908,0.030046,95.124054,69.521423,-118.109589,,,
729717230.474855,-49.566755,14.754581,106.00222,-0.231186,-0.797836,0.601318,-2.185841,0.230908,0.030046,95.124054,69.521423,-118.109589,,,
729717230.475094,-49.566738,14.754581,109.079068,-0.231186,-0.797836,0.601318,-2.185841,0.230908,0.030046,95.124054,69.521423,-118.109589,,,
729717230.475793,-50.166384,15.013089,144.87975,-0.233505,-0.806046,0.600143,-2.160827,0.194793,0.032622,95.124054,69.521423,-118.109589,,,
729717230.479392,-50.166388,15.01309,106.266545,-0.233505,-0.806046,0.600143,-2.160827,0.194793,0.032622,95.124054,69.521423,-118.109589,,,
729717230.480756,-50.16637,15.013089,109.343393,-0.233505,-0.806046,0.600143,-2.160827,0.194793,0.032622,95.124054,69.521423,-118.109589,,,
729717230.480911,-50.759189,15.272224,145.145692,-0.233505,-0.806046,0.600143,-2.160827,0.194793,0.032622,95.124054,69.521423,-118.109589,,,
729717230.481669,-50.759194,15.272225,106.532486,-0.233505,-0.806046,0.600143,-2.160827,0.194793,0.032622,95.124054,69.521423,-118.109589,,,
729717230.48226,-50.759176,15.272224,109.609333,-0.233505,-0.806046,0.600143,-2.160827,0.194793,0.032622,95.124054,69.521423,-118.109589,,,
729717230.482399,-50.759189,15.272224,145.145692,-0.233505,-0.806046,0.600143,-2.160827,0.194793,0.032622,95.124054,69.521423,-118.109589,,,
729717230.484883,-50.759194,15.272225,106.532486,-0.233505,-0.806046,0.600143,-2.160827,0.194793,0.032622,95.124054,69.521423,-118.109589,,,
729717230.485074,-50.759176,15.272224,109.609333,-0.233505,-0.806046,0.600143,-2.160827,0.194793,0.032622,95.124054,69.521423,-118.109589,,,
729717230.485777,-51.343663,15.530953,145.411496,-0.216965,-0.810333,0.618393,-2.100137,0.180789,0.013975,95.124054,69.521423,-118.109589,,,
729717230.489658,-51.343668,15.530954,106.798296,-0.216965,-0.810333,0.618393,-2.100137,0.180789,0.013975,95.124054,69.521423,-118.109589,,,
729717230.491049,-51.343649,15.530954,109.875143,-0.216965,-0.810333,0.618393,-2.100137,0.180789,0.013975,95.124054,69.521423,-118.109589,,,
729717230.49116,-51.918858,15.788047,145.67564,-0.216965,-0.810333,0.618393,-2.100137,0.180789,0.013975,95.124054,69.521423,-118.109589,,,
729717230.491703,-51.918863,15.788048,107.062439,-0.216965,-0.810333,0.618393,-2.100137,0.180789,0.013975,95.124054,69.521423,-118.109589,,,
729717230.492246,-51.918844,15.788047,110.139287,-0.216965,-0.810333,0.618393,-2.100137,0.180789,0.013975,95.124054,69.521423,-118.109589,,,
729717230.492398,-51.918858,15.788047,145.67564,-0.216965,-0.810333,0.618393,-2.100137,0.180789,0.013975,95.124054,69.521423,-118.109589,,,
729717230.494901,-51.918863,15.788048,107.062439,-0.216965,-0.810333,0.618393,-2.100137,0.180789,0.013975,95.124054,69.521423,-118.109589,,,
729717230.495182,-51.918844,15.788047,110.139287,-0.216965,-0.810333,0.618393,-2.100137,0.180789,0.013975,95.124054,69.521423,-118.109589,,,
729717230.495786,-52.484095,16.041806,145.937765,-0.208557,-0.821579,0.616425,-2.028052,0.157618,-0.007572,95.124054,69.521423,-118.109589,,,
729717230.500382,-52.4841,16.041807,107.324564,-0.208557,-0.821579,0.616425,-2.028052,0.157618,-0.007572,95.124054,69.521423,-118.109589,,,
729717230.502296,-52.48408,16.041806,110.401411,-0.208557,-0.821579,0.616425,-2.028052,0.157618,-0.007572,95.133698,71.049377,-113.385147,,,
729717230.502425,-53.038783,16.291531,146.19798,-0.208557,-0.821579,0.616425,-2.028052,0.157618,-0.007572,95.133698,71.049377,-113.385147,,,
729717230.503337,-53.038788,16.291532,107.584779,-0.208557,-0.821579,0.616425,-2.028052,0.157618,-0.007572,95.133698,71.049377,-113.385147,,,
729717230.504787,-53.038788,16.291532,107.584779,-0.208557,-0.821579,0.616425,-2.028052,0.157618,-0.007572,95.133698,71.049377,-113.385147,,,
729717230.505531,-53.038768,16.291531,110.661626,-0.208557,-0.821579,0.616425,-2.028052,0.157618,-0.007572,95.133698,71.049377,-113.385147,,,
729717230.505788,-53.580997,16.536311,146.453613,-0.207413,-0.836823,0.60289,-1.935376,0.138524,-0.031778,95.133698,71.049377,-113.385147,,,
729717230.509119,-53.581002,16.536312,107.840411,-0.207413,-0.836823,0.60289,-1.935376,0.138524,-0.031778,95.133698,71.049377,-113.385147,,,
729717230.510191,-53.580982,16.536311,110.917258,-0.207413,-0.836823,0.60289,-1.935376,0.138524,-0.031778,95.133698,71.049377,-113.385147,,,
729717230.510301,-53.580997,16.536311,146.453613,-0.207413,-0.836823,0.60289,-1.935376,0.138524,-0.031778,95.133698,71.049377,-113.385147,,,
729717230.511866,-54.109513,16.777569,108.091104,-0.207413,-0.836823,0.60289,-1.935376,0.138524,-0.031778,95.133698,71.049377,-113.385147,,,
729717230.512598,-54.109493,16.777568,111.16795,-0.207413,-0.836823,0.60289,-1.935376,0.138524,-0.031778,95.133698,71.049377,-113.385147,,,
729717230.51272,-54.109508,16.777568,146.704301,-0.207413,-0.836823,0.60289,-1.935376,0.138524,-0.031778,95.133698,71.049377,-113.385147,,,
729717230.514829,-54.109513,16.777569,108.091104,-0.207413,-0.836823,0.60289,-1.935376,0.138524,-0.031778,95.133698,71.049377,-113.385147,,,
729717230.515078,-54.109493,16.777568,111.16795,-0.207413,-0.836823,0.60289,-1.935376,0.138524,-0.031778,95.133698,71.049377,-113.385147,,,
729717230.51575,-54.623803,17.014523,146.949439,-0.207413,-0.836823,0.60289,-1.935376,0.138524,-0.031778,95.133698,71.049377,-113.385147,,,
729717230.51922,-54.623808,17.014524,108.336243,-0.197754,-0.850128,0.610687,-1.829362,0.130784,-0.05261,95.133698,71.049377,-113.385147,,,
729717230.5204,-54.623787,17.014523,111.41309,-0.197754,-0.850128,0.610687,-1.829362,0.130784,-0.05261,95.133698,71.049377,-113.385147,,,
729717230.520512,-54.623803,17.014523,146.949439,-0.197754,-0.850128,0.610687,-1.829362,0.130784,-0.05261,95.133698,71.049377,-113.385147,,,
729717230.521756,-55.122427,17.245277,108.574379,-0.197754,-0.850128,0.610687,-1.829362,0.130784,-0.05261,95.133698,71.049377,-113.385147,,,
729717230.522316,-55.122405,17.245275,111.651225,-0.197754,-0.850128,0.610687,-1.829362,0.130784,-0.05261,95.133698,71.049377,-113.385147,,,
729717230.52243,-55.122422,17.245276,147.187577,-0.197754,-0.850128,0.610687,-1.829362,0.130784,-0.05261,95.133698,71.049377,-113.385147,,,
729717230.524866,-55.122427,17.245277,108.574379,-0.197754,-0.850128,0.610687,-1.829362,0.130784,-0.05261,95.133698,71.049377,-113.385147,,,
729717230.525063,-55.122405,17.245275,111.651225,-0.197754,-0.850128,0.610687,-1.829362,0.130784,-0.05261,95.133698,71.049377,-113.385147,,,
729717230.525752,-55.122422,17.46975,147.417979,-0.197754,-0.850128,0.610687,-1.829362,0.130784,-0.05261,95.133698,71.049377,-113.385147,,,
729717230.529254,-55.605008,17.469751,108.804779,-0.186142,-0.854752,0.604919,-1.710454,0.123489,-0.073731,95.133698,71.049377,-113.385147,,,
729717230.530415,-55.604986,17.46975,111.881625,-0.186142,-0.854752,0.604919,-1.710454,0.123489,-0.073731,95.133698,71.049377,-113.385147,,,
729717230.530533,-55.605002,17.46975,147.417979,-0.186142,-0.854752,0.604919,-1.710454,0.123489,-0.073731,95.133698,71.049377,-113.385147,,,
729717230.53172,-56.071354,17.687296,109.026392,-0.186142,-0.854752,0.604919,-1.710454,0.123489,-0.073731,95.133698,71.049377,-113.385147,,,
729717230.532268,-56.071332,17.687295,112.103238,-0.186142,-0.854752,0.604919,-1.710454,0.123489,-0.073731,95.133698,71.049377,-113.385147,,,
729717230.532397,-56.071349,17.687295,147.639597,-0.186142,-0.854752,0.604919,-1.710454,0.123489,-0.073731,95.133698,71.049377,-113.385147,,,
729717230.53483,-56.071354,17.687296,109.026392,-0.186142,-0.854752,0.604919,-1.710454,0.123489,-0.073731,95.133698,71.049377,-113.385147,,,
729717230.535071,-56.071332,17.687295,112.103238,-0.186142,-0.854752,0.604919,-1.710454,0.123489,-0.073731,95.133698,71.049377,-113.385147,,,
729717230.535762,-56.521312,17.896286,147.850786,-0.174179,-0.858154,0.603119,-1.585795,0.117632,-0.099253,95.133698,71.049377,-113.385147,,,
729717230.539001,-56.521318,17.896287,109.237582,-0.174179,-0.858154,0.603119,-1.585795,0.117632,-0.099253,95.133698,71.049377,-113.385147,,,
729717230.539958,-56.521295,17.896286,112.314428,-0.174179,-0.858154,0.603119,-1.585795,0.117632,-0.099253,95.133698,71.049377,-113.385147,,,
729717230.540068,-56.521312,17.896286,147.850786,-0.174179,-0.858154,0.603119,-1.585795,0.117632,-0.099253,95.133698,71.049377,-113.385147,,,
729717230.542073,-56.953656,18.09692,109.438998,-0.174179,-0.858154,0.603119,-1.585795,0.117632,-0.099253,95.15947,72.038971,-110.14827,,,
729717230.542725,-56.953633,18.096919,112.515844,-0.174179,-0.858154,0.603119,-1.585795,0.117632,-0.099253,95.15947,72.038971,-110.14827,,,
729717230.542813,-56.953651,18.096919,148.052203,-0.174179,-0.858154,0.603119,-1.585795,0.117632,-0.099253,95.15947,72.038971,-110.14827,,,
729717230.54475,-56.953656,18.09692,109.438998,-0.174179,-0.858154,0.603119,-1.585795,0.117632,-0.099253,95.15947,72.038971,-110.14827,,,
729717230.545058,-56.953633,18.096919,112.515844,-0.174179,-0.858154,0.603119,-1.585795,0.117632,-0.099253,95.15947,72.038971,-110.14827,,,
729717230.545788,-57.3676,18.288763,148.244493,-0.165878,-0.865021,0.600098,-1.449445,0.1043,-0.110586,95.15947,72.038971,-110.14827,,,
729717230.548801,-57.367606,18.288764,109.631287,-0.165878,-0.865021,0.600098,-1.449445,0.1043,-0.110586,95.15947,72.038971,-110.14827,,,
729717230.549542,-57.367582,18.288762,112.708133,-0.165878,-0.865021,0.600098,-1.449445,0.1043,-0.110586,95.15947,72.038971,-110.14827,,,
729717230.549633,-57.3676,18.288763,148.244493,-0.165878,-0.865021,0.600098,-1.449445,0.1043,-0.110586,95.15947,72.038971,-110.14827,,,
729717230.551626,-57.762591,18.469718,109.81366,-0.165878,-0.865021,0.600098,-1.449445,0.1043,-0.110586,95.15947,72.038971,-110.14827,,,
729717230.551962,-57.762567,18.469716,112.890506,-0.165878,-0.865021,0.600098,-1.449445,0.1043,-0.110586,95.15947,72.038971,-110.14827,,,
729717230.55239,-57.762585,18.469717,148.426864,-0.165878,-0.865021,0.600098,-1.449445,0.1043,-0.110586,95.15947,72.038971,-110.14827,,,
729717230.554783,-57.762591,18.469718,109.81366,-0.165878,-0.865021,0.600098,-1.449445,0.1043,-0.110586,95.15947,72.038971,-110.14827,,,
729717230.555032,-57.762567,18.469716,112.890506,-0.165878,-0.865021,0.600098,-1.449445,0.1043,-0.110586,95.15947,72.038971,-110.14827,,,
729717230.555757,-57.762585,18.469717,148.599422,-0.160645,-0.878296,0.598419,-1.297603,0.078255,-0.114083,95.15947,72.038971,-110.14827,,,
729717230.5586,-58.136774,18.639244,109.986221,-0.160645,-0.878296,0.598419,-1.297603,0.078255,-0.114083,95.15947,72.038971,-110.14827,,,
729717230.559172,-58.13675,18.639242,113.063066,-0.160645,-0.878296,0.598419,-1.297603,0.078255,-0.114083,95.15947,72.038971,-110.14827,,,
729717230.559244,-58.136768,18.639243,148.599422,-0.160645,-0.878296,0.598419,-1.297603,0.078255,-0.114083,95.15947,72.038971,-110.14827,,,
729717230.561676,-58.48996,18.796693,110.148643,-0.160645,-0.878296,0.598419,-1.297603,0.078255,-0.114083,95.15947,72.038971,-110.14827,,,
729717230.562048,-58.489936,18.796691,113.225488,-0.160645,-0.878296,0.598419,-1.297603,0.078255,-0.114083,95.15947,72.038971,-110.14827,,,
729717230.562386,-58.489954,18.796691,148.761848,-0.160645,-0.878296,0.598419,-1.297603,0.078255,-0.114083,95.15947,72.038971,-110.14827,,,
729717230.564783,-58.48996,18.796693,110.148643,-0.160645,-0.878296,0.598419,-1.297603,0.078255,-0.114083,95.15947,72.038971,-110.14827,,,
729717230.565031,-58.489936,18.796691,113.225488,-0.160645,-0.878296,0.598419,-1.297603,0.078255,-0.114083,95.15947,72.038971,-110.14827,,,
729717230.565725,-58.489954,18.796691,148.761848,-0.160645,-0.878296,0.598419,-1.144835,0.046752,-0.109137,95.15947,72.038971,-110.14827,,,
729717230.568614,-58.822009,18.942417,110.302067,-0.159119,-0.887909,0.59404,-1.144835,0.046752,-0.109137,95.15947,72.038971,-110.14827,,,
729717230.569193,-58.821985,18.942415,113.378912,-0.159119,-0.887909,0.59404,-1.144835,0.046752,-0.109137,95.15947,72.038971,-110.14827,,,
729717230.569266,-58.822003,18.942415,148.915273,-0.159119,-0.887909,0.59404,-1.144835,0.046752,-0.109137,95.15947,72.038971,-110.14827,,,
729717230.571673,-59.133202,19.076757,110.448009,-0.159119,-0.887909,0.59404,-1.144835,0.046752,-0.109137,95.15947,72.038971,-110.14827,,,
729717230.572004,-59.133178,19.076754,113.524854,-0.159119,-0.887909,0.59404,-1.144835,0.046752,-0.109137,95.15947,72.038971,-110.14827,,,
729717230.572427,-59.133197,19.076755,149.061216,-0.159119,-0.887909,0.59404,-1.144835,0.046752,-0.109137,95.15947,72.038971,-110.14827,,,
729717230.574778,-59.133202,19.076757,110.448009,-0.159119,-0.887909,0.59404,-1.144835,0.046752,-0.109137,95.15947,72.038971,-110.14827,,,
729717230.575031,-59.133178,19.076754,113.524854,-0.159119,-0.887909,0.59404,-1.144835,0.046752,-0.109137,95.15947,72.038971,-110.14827,,,
729717230.575743,-59.133197,19.076755,149.061216,-0.159119,-0.887909,0.59404,-1.003748,-0.003302,-0.107292,95.15947,72.038971,-110.14827,,,
729717230.579137,-59.424965,19.195711,110.583987,-0.156189,-0.895447,0.581665,-1.003748,-0.003302,-0.107292,95.15947,72.038971,-110.14827,,,
729717230.580124,-59.42494,19.195708,113.660832,-0.156189,-0.895447,0.581665,-1.003748,-0.003302,-0.107292,95.15947,72.038971,-110.14827,,,
729717230.580201,-59.424959,19.195709,149.197191,-0.156189,-0.895447,0.581665,-1.003748,-0.003302,-0.107292,95.15947,72.038971,-110.14827,,,
729717230.581571,-59.698344,19.296439,110.708031,-0.156189,-0.895447,0.581665,-1.003748,-0.003302,-0.107292,95.15947,72.038971,-110.14827,,,
729717230.58205,-59.698319,19.296437,113.784876,-0.156189,-0.895447,0.581665,-1.003748,-0.003302,-0.107292,95.15947,72.038971,-110.14827,,,
729717230.58239,-59.698338,19.296437,149.321231,-0.156189,-0.895447,0.581665,-1.003748,-0.003302,-0.107292,95.087006,72.442169,-107.391907,,,
729717230.585,-59.698344,19.296439,110.708031,-0.156189,-0.895447,0.581665,-1.003748,-0.003302,-0.107292,95.087006,72.442169,-107.391907,,,
729717230.585288,-59.698319,19.296437,113.784876,-0.156189,-0.895447,0.581665,-1.003748,-0.003302,-0.107292,95.087006,72.442169,-107.391907,,,
729717230.585761,-59.698338,19.296437,149.321231,-0.156189,-0.895447,0.581665,-0.871451,-0.05628,-0.112435,95.087006,72.442169,-107.391907,,,
729717230.588743,-59.953949,19.379352,110.819957,-0.144699,-0.894913,0.553436,-0.871451,-0.05628,-0.112435,95.087006,72.442169,-107.391907,,,
729717230.589382,-59.953924,19.379349,113.896801,-0.144699,-0.894913,0.553436,-0.871451,-0.05628,-0.112435,95.087006,72.442169,-107.391907,,,
729717230.589455,-59.953943,19.37935,149.433153,-0.144699,-0.894913,0.553436,-0.871451,-0.05628,-0.112435,95.087006,72.442169,-107.391907,,,
729717230.591651,-60.192392,19.445993,110.919747,-0.144699,-0.894913,0.553436,-0.871451,-0.05628,-0.112435,95.087006,72.442169,-107.391907,,,
729717230.591981,-60.192367,19.44599,113.996591,-0.144699,-0.894913,0.553436,-0.871451,-0.05628,-0.112435,95.087006,72.442169,-107.391907,,,
729717230.592386,-60.192386,19.445991,149.532944,-0.144699,-0.894913,0.553436,-0.871451,-0.05628,-0.112435,95.087006,72.442169,-107.391907,,,
729717230.594788,-60.192392,19.445993,110.919747,-0.144699,-0.894913,0.553436,-0.871451,-0.05628,-0.112435,95.087006,72.442169,-107.391907,,,
729717230.595032,-60.192367,19.44599,113.996591,-0.144699,-0.894913,0.553436,-0.871451,-0.05628,-0.112435,95.087006,72.442169,-107.391907,,,
729717230.595794,-60.192386,19.445991,149.532944,-0.144699,-0.894913,0.553436,-0.755955,-0.094375,-0.114395,95.087006,72.442169,-107.391907,,,
729717230.598602,-60.41531,19.498183,111.009001,-0.145828,-0.903702,0.546188,-0.755955,-0.094375,-0.114395,95.087006,72.442169,-107.391907,,,
729717230.599178,-60.415284,19.49818,114.085845,-0.145828,-0.903702,0.546188,-0.755955,-0.094375,-0.114395,95.087006,72.442169,-107.391907,,,
729717230.599249,-60.415304,19.498181,149.622195,-0.145828,-0.903702,0.546188,-0.755955,-0.094375,-0.114395,95.087006,72.442169,-107.391907,,,
729717230.601672,-60.62384,19.537519,111.08781,-0.145828,-0.903702,0.546188,-0.755955,-0.094375,-0.114395,95.087006,72.442169,-107.391907,,,
729717230.602003,-60.623813,19.537516,114.164654,-0.145828,-0.903702,0.546188,-0.755955,-0.094375,-0.114395,95.087006,72.442169,-107.391907,,,
729717230.602383,-60.623834,19.537517,149.701014,-0.145828,-0.903702,0.546188,-0.755955,-0.094375,-0.114395,95.087006,72.442169,-107.391907,,,
729717230.604793,-60.62384,19.537519,111.08781,-0.145828,-0.903702,0.546188,-0.755955,-0.094375,-0.114395,95.087006,72.442169,-107.391907,,,
729717230.605029,-60.623813,19.537516,114.164654,-0.145828,-0.903702,0.546188,-0.755955,-0.094375,-0.114395,95.087006,72.442169,-107.391907,,,
729717230.605723,-60.623834,19.537517,149.701014,-0.145828,-0.903702,0.546188,-0.755955,-0.094375,-0.114395,95.087006,72.442169,-107.391907,,,
729717230.608656,-60.819737,19.563496,111.155168,-0.148743,-0.907776,0.539352,-0.659448,-0.118597,-0.123899,95.087006,72.442169,-107.391907,,,
729717230.609284,-60.819711,19.563493,114.232012,-0.148743,-0.907776,0.539352,-0.659448,-0.118597,-0.123899,95.087006,72.442169,-107.391907,,,
729717230.609355,-60.819731,19.563494,149.768369,-0.148743,-0.907776,0.539352,-0.659448,-0.118597,-0.123899,95.087006,72.442169,-107.391907,,,
729717230.611661,-61.005073,19.575154,111.211442,-0.148743,-0.907776,0.539352,-0.659448,-0.118597,-0.123899,95.087006,72.442169,-107.391907,,,
729717230.612024,-61.005047,19.575152,114.288285,-0.148743,-0.907776,0.539352,-0.659448,-0.118597,-0.123899,95.087006,72.442169,-107.391907,,,
729717230.612381,-61.005067,19.575153,149.824638,-0.148743,-0.907776,0.539352,-0.659448,-0.118597,-0.123899,95.087006,72.442169,-107.391907,,,
729717230.614782,-61.005073,19.575154,111.211442,-0.148743,-0.907776,0.539352,-0.659448,-0.118597,-0.123899,95.087006,72.442169,-107.391907,,,
729717230.615031,-61.005047,19.575152,114.288285,-0.148743,-0.907776,0.539352,-0.659448,-0.118597,-0.123899,95.087006,72.442169,-107.391907,,,
729717230.615721,-61.005067,19.575153,149.824638,-0.148743,-0.907776,0.539352,-0.659448,-0.118597,-0.123899,95.087006,72.442169,-107.391907,,,
729717230.618716,-61.180053,19.571223,111.254593,-0.13765,-0.903519,0.518829,-0.576398,-0.147624,-0.14216,95.087006,72.442169,-107.391907,,,
729717230.619398,-61.180026,19.57122,114.331436,-0.13765,-0.903519,0.518829,-0.576398,-0.147624,-0.14216,95.087006,72.442169,-107.391907,,,
729717230.619471,-61.180047,19.571221,149.867787,-0.13765,-0.903519,0.518829,-0.576398,-0.147624,-0.14216,95.087006,72.442169,-107.391907,,,
729717230.621655,-61.346104,19.553256,111.284043,-0.13765,-0.903519,0.518829,-0.576398,-0.147624,-0.14216,95.087006,72.442169,-107.391907,,,
729717230.621991,-61.346077,19.553253,114.360887,-0.13765,-0.903519,0.518829,-0.576398,-0.147624,-0.14216,95.087006,72.442169,-107.391907,,,
729717230.622385,-61.346098,19.553254,149.897248,-0.13765,-0.903519,0.518829,-0.576398,-0.147624,-0.14216,95.087006,72.442169,-107.391907,,,
729717230.624983,-61.346104,19.553256,111.284043,-0.13765,-0.903519,0.518829,-0.576398,-0.147624,-0.14216,94.590561,73.013077,-106.253204,,,
729717230.625273,-61.346077,19.553253,114.360887,-0.13765,-0.903519,0.518829,-0.576398,-0.147624,-0.14216,94.590561,73.013077,-106.253204,,,
729717230.625722,-61.346098,19.553254,149.897248,-0.13765,-0.903519,0.518829,-0.576398,-0.147624,-0.14216,94.590561,73.013077,-106.253204,,,
729717230.629937,-61.505088,19.522793,111.299834,-0.124969,-0.897552,0.509644,-0.514423,-0.151085,-0.168218,94.590561,73.013077,-106.253204,,,
729717230.631976,-61.505061,19.52279,114.376677,-0.124969,-0.897552,0.509644,-0.514423,-0.151085,-0.168218,94.590561,73.013077,-106.253204,,,
729717230.63219,-61.658204,19.480858,149.915973,-0.124969,-0.897552,0.509644,-0.514423,-0.151085,-0.168218,94.590561,73.013077,-106.253204,,,
729717230.633072,-61.65821,19.48086,111.302772,-0.124969,-0.897552,0.509644,-0.514423,-0.151085,-0.168218,94.590561,73.013077,-106.253204,,,
729717230.633249,-61.658204,19.480858,149.915973,-0.124969,-0.897552,0.509644,-0.514423,-0.151085,-0.168218,94.590561,73.013077,-106.253204,,,
729717230.634813,-61.65821,19.48086,111.302772,-0.124969,-0.897552,0.509644,-0.514423,-0.151085,-0.168218,94.590561,73.013077,-106.253204,,,
729717230.635882,-61.658183,19.480857,114.379616,-0.124969,-0.897552,0.509644,-0.514423,-0.151085,-0.168218,94.590561,73.013077,-106.253204,,,
729717230.636096,-61.806678,19.426412,149.906514,-0.124969,-0.897552,0.502502,-0.470824,-0.162128,-0.194971,94.590561,73.013077,-106.253204,,,
729717230.640273,-61.806684,19.426414,111.293317,-0.112,-0.897629,0.502502,-0.470824,-0.162128,-0.194971,94.590561,73.013077,-106.253204,,,
729717230.642403,-61.806657,19.426411,114.37016,-0.112,-0.897629,0.502502,-0.470824,-0.162128,-0.194971,94.590561,73.013077,-106.253204,,,
729717230.642625,-61.951254,19.359903,149.886007,-0.112,-0.897629,0.502502,-0.470824,-0.162128,-0.194971,94.590561,73.013077,-106.253204,,,
729717230.643423,-61.95126,19.359905,111.272809,-0.112,-0.897629,0.502502,-0.470824,-0.162128,-0.194971,94.590561,73.013077,-106.253204,,,
729717230.644792,-61.95126,19.359905,111.272809,-0.112,-0.897629,0.502502,-0.470824,-0.162128,-0.194971,94.590561,73.013077,-106.253204,,,
729717230.645969,-61.951233,19.359902,114.349652,-0.112,-0.897629,0.502502,-0.470824,-0.162128,-0.194971,94.590561,73.013077,-106.253204,,,
729717230.646145,-62.094117,19.283248,149.856248,-0.112,-0.897629,0.502502,-0.450158,-0.175585,-0.217782,94.590561,73.013077,-106.253204,,,
729717230.649476,-62.094123,19.28325,111.243049,-0.10614,-0.896729,0.492905,-0.450158,-0.175585,-0.217782,94.590561,73.013077,-106.253204,,,
729717230.650883,-62.094096,19.283247,114.319892,-0.10614,-0.896729,0.492905,-0.450158,-0.175585,-0.217782,94.590561,73.013077,-106.253204,,,
729717230.651061,-62.237759,19.19807,149.819523,-0.10614,-0.896729,0.492905,-0.450158,-0.175585,-0.217782,94.590561,73.013077,-106.253204,,,
729717230.651874,-62.237765,19.198072,111.206321,-0.10614,-0.896729,0.492905,-0.450158,-0.175585,-0.217782,94.590561,73.013077,-106.253204,,,
729717230.65271,-62.237737,19.198069,114.283164,-0.10614,-0.896729,0.492905,-0.450158,-0.175585,-0.217782,94.590561,73.013077,-106.253204,,,
729717230.652868,-62.237759,19.19807,149.819523,-0.10614,-0.896729,0.492905,-0.450158,-0.175585,-0.217782,94.590561,73.013077,-106.253204,,,
729717230.654842,-62.237765,19.198072,111.206321,-0.10614,-0.896729,0.492905,-0.450158,-0.175585,-0.217782,94.590561,73.013077,-106.253204,,,
729717230.655113,-62.237737,19.198069,114.283164,-0.10614,-0.896729,0.492905,-0.450158,-0.175585,-0.217782,94.590561,73.013077,-106.253204,,,
729717230.655781,-62.237759,19.19807,149.819523,-0.10614,-0.896729,0.492905,-0.450158,-0.175585,-0.217782,94.590561,73.013077,-106.253204,,,
729717230.659735,-62.383915,19.105181,111.164182,-0.09996,-0.894745,0.473694,-0.461947,-0.195555,-0.237927,94.590561,73.013077,-106.253204,,,
729717230.661426,-62.383887,19.105179,114.241025,-0.09996,-0.894745,0.473694,-0.461947,-0.195555,-0.237927,94.590561,73.013077,-106.253204,,,
729717230.661597,-62.533523,19.005229,149.730201,-0.09996,-0.894745,0.473694,-0.461947,-0.195555,-0.237927,94.590561,73.013077,-106.253204,,,
729717230.662374,-62.53353,19.00523,111.116994,-0.09996,-0.894745,0.473694,-0.461947,-0.195555,-0.237927,94.590561,73.013077,-106.253204,,,
729717230.663145,-62.533501,19.005228,114.193837,-0.09996,-0.894745,0.473694,-0.461947,-0.195555,-0.237927,94.590561,73.013077,-106.253204,,,
729717230.663372,-62.533523,19.005229,149.730201,-0.09996,-0.894745,0.473694,-0.461947,-0.195555,-0.237927,94.590561,73.013077,-106.253204,,,
729717230.665067,-62.53353,19.00523,111.116994,-0.09996,-0.894745,0.473694,-0.461947,-0.195555,-0.237927,94.006226,73.388245,-105.634109,,,
729717230.665535,-62.533501,19.005228,114.193837,-0.09996,-0.894745,0.473694,-0.461947,-0.195555,-0.237927,94.006226,73.388245,-105.634109,,,
729717230.665734,-62.533523,19.005229,149.730201,-0.09996,-0.894745,0.473694,-0.461947,-0.195555,-0.237927,94.006226,73.388245,-105.634109,,,
729717230.669455,-62.687406,18.898959,111.064085,-0.094727,-0.894516,0.453247,-0.48512,-0.203625,-0.262203,94.006226,73.388245,-105.634109,,,
729717230.670861,-62.687378,18.898956,114.140928,-0.094727,-0.894516,0.453247,-0.48512,-0.203625,-0.262203,94.006226,73.388245,-105.634109,,,
729717230.67101,-62.6874,18.898957,149.677291,-0.094727,-0.894516,0.453247,-0.48512,-0.203625,-0.262203,94.006226,73.388245,-105.634109,,,
729717230.671682,-62.846817,18.786793,111.00462,-0.094727,-0.894516,0.453247,-0.48512,-0.203625,-0.262203,94.006226,73.388245,-105.634109,,,
729717230.672227,-62.846789,18.786791,114.081463,-0.094727,-0.894516,0.453247,-0.48512,-0.203625,-0.262203,94.006226,73.388245,-105.634109,,,
729717230.672399,-62.846811,18.786792,149.617827,-0.094727,-0.894516,0.453247,-0.48512,-0.203625,-0.262203,94.006226,73.388245,-105.634109,,,
729717230.674858,-62.846817,18.786793,111.00462,-0.094727,-0.894516,0.453247,-0.48512,-0.203625,-0.262203,94.006226,73.388245,-105.634109,,,
729717230.67506,-62.846789,18.786791,114.081463,-0.094727,-0.894516,0.453247,-0.48512,-0.203625,-0.262203,94.006226,73.388245,-105.634109,,,
729717230.675752,-62.846811,18.786792,149.617827,-0.094727,-0.894516,0.453247,-0.48512,-0.203625,-0.262203,94.006226,73.388245,-105.634109,,,
729717230.6794,-63.013228,18.667112,110.937632,-0.085449,-0.894928,0.442154,-0.524825,-0.208544,-0.29704,94.006226,73.388245,-105.634109,,,
729717230.680874,-63.013199,18.66711,114.014475,-0.085449,-0.894928,0.442154,-0.524825,-0.208544,-0.29704,94.006226,73.388245,-105.634109,,,
729717230.681026,-63.013221,18.667111,149.550837,-0.085449,-0.894928,0.442154,-0.524825,-0.208544,-0.29704,94.006226,73.388245,-105.634109,,,
729717230.68164,-63.187478,18.539539,110.863717,-0.085449,-0.894928,0.442154,-0.524825,-0.208544,-0.29704,94.006226,73.388245,-105.634109,,,
729717230.682195,-63.187449,18.539536,113.94056,-0.085449,-0.894928,0.442154,-0.524825,-0.208544,-0.29704,94.006226,73.388245,-105.634109,,,
729717230.682411,-63.187472,18.539537,149.476918,-0.085449,-0.894928,0.442154,-0.524825,-0.208544,-0.29704,94.006226,73.388245,-105.634109,,,
729717230.684853,-63.187478,18.539539,110.863717,-0.085449,-0.894928,0.442154,-0.524825,-0.208544,-0.29704,94.006226,73.388245,-105.634109,,,
729717230.685064,-63.187449,18.539536,113.94056,-0.085449,-0.894928,0.442154,-0.524825,-0.208544,-0.29704,94.006226,73.388245,-105.634109,,,
729717230.685747,-63.187472,18.539537,149.476918,-0.085449,-0.894928,0.442154,-0.524825,-0.208544,-0.29704,94.006226,73.388245,-105.634109,,,
729717230.68945,-63.369901,18.405079,110.782274,-0.081146,-0.893387,0.427338,-0.573567,-0.208959,-0.333478,94.006226,73.388245,-105.634109,,,
729717230.69085,-63.369871,18.405076,113.859116,-0.081146,-0.893387,0.427338,-0.573567,-0.208959,-0.333478,94.006226,73.388245,-105.634109,,,
729717230.691002,-63.369894,18.405077,149.395479,-0.081146,-0.893387,0.427338,-0.573567,-0.208959,-0.333478,94.006226,73.388245,-105.634109,,,
729717230.69164,-63.560622,18.264725,110.691936,-0.081146,-0.893387,0.427338,-0.573567,-0.208959,-0.333478,94.006226,73.388245,-105.634109,,,
