Time (sec),Pitch (deg),Roll (deg),Yaw(deg),X-Acceleration (g),Y-Acceleration (g),Z-Acceleration (g),Pitch Rate (deg/sec),Roll Rate (deg/sec),Yaw Rate (deg/sec),Magnetic Field in X direction (uT),Magnetic Field in Y direction (uT),Magnetic Field in Z Direction (uT),Latitude (deg),Longitude (deg),Altitude (m)
729716428.384865,-3.074109,-1.384651,-83.142679,-0.011337,0.01059,0.908447,-1.077984,0.980905,0.280513,64.095398,14.673782,-150.673126,,,
729716428.385145,-3.433348,-1.107878,-79.985929,-0.011337,0.01059,0.908447,-1.418314,0.932605,0.3156,64.095398,14.673782,-150.673126,,,
729716428.390118,-3.433348,-1.107875,-83.062807,-0.011337,0.01059,0.908447,-1.418314,0.932605,0.3156,64.095398,14.673782,-150.673126,,,
729716428.39036,-3.84234,-0.836065,-79.902864,-0.033493,0.018539,0.849243,-1.418314,0.932605,0.3156,64.095398,14.673782,-150.673126,,,
729716428.393056,-3.842341,-0.836061,-82.979742,-0.033493,0.018539,0.849243,-1.418314,0.932605,0.3156,64.095398,14.673782,-150.673126,,,
729716428.393299,-3.84234,-0.836065,-79.902864,-0.033493,0.018539,0.849243,-1.418314,0.932605,0.3156,64.095398,14.673782,-150.673126,,,
729716428.396649,-4.30096,-0.568991,-82.897286,-0.033493,0.018539,0.849243,-1.762613,0.883598,0.284552,64.095398,14.673782,-150.673126,,,
729716428.396903,-4.300959,-0.568995,-79.820408,-0.033493,0.018539,0.849243,-1.762613,0.883598,0.284552,64.095398,14.673782,-150.673126,,,
729716428.398353,-4.30096,-0.568991,-82.897286,-0.033493,0.018539,0.849243,-1.762613,0.883598,0.284552,64.095398,14.673782,-150.673126,,,
729716428.39857,-4.300959,-0.568995,-79.820408,-0.033493,0.018539,0.849243,-1.762613,0.883598,0.284552,64.095398,14.673782,-150.673126,,,
729716428.403081,-4.807596,-0.309854,-82.819258,-0.000671,0.022522,0.83226,-1.762613,0.883598,0.284552,64.095398,14.673782,-150.673126,,,
729716428.403335,-4.807595,-0.309857,-79.74238,-0.000671,0.022522,0.83226,-1.762613,0.883598,0.284552,64.095398,14.673782,-150.673126,,,
729716428.40661,-5.359297,-0.062913,-82.749025,-0.000671,0.022522,0.83226,-2.067369,0.788836,0.204389,64.095398,14.673782,-150.673126,,,
729716428.406862,-5.359296,-0.062916,-79.672147,-0.000671,0.022522,0.83226,-2.067369,0.788836,0.204389,65.906693,18.079544,-151.141144,,,
729716428.408984,-5.359297,-0.062913,-82.749025,-0.000671,0.022522,0.83226,-2.067369,0.788836,0.204389,65.906693,18.079544,-151.141144,,,
729716428.409209,-5.359296,-0.062916,-79.672147,-0.000671,0.022522,0.83226,-2.067369,0.788836,0.204389,65.906693,18.079544,-151.141144,,,
729716428.415939,-5.952507,0.168387,-82.689796,0.005554,-9.2e-05,0.804642,-2.320403,0.659661,0.086618,65.906693,18.079544,-151.141144,,,
729716428.41624,-6.583231,0.381959,-79.567305,0.005554,-9.2e-05,0.804642,-2.320403,0.659661,0.086618,65.906693,18.079544,-151.141144,,,
729716428.419285,-6.583232,0.381963,-82.644183,0.005554,-9.2e-05,0.804642,-2.320403,0.659661,0.086618,65.906693,18.079544,-151.141144,,,
729716428.41952,-6.583231,0.381959,-79.567305,0.005554,-9.2e-05,0.804642,-2.320403,0.659661,0.086618,65.906693,18.079544,-151.141144,,,
729716428.423112,-7.249522,0.57287,-82.61337,0.013763,-0.038223,0.805603,-2.320403,0.659661,0.086618,65.906693,18.079544,-151.141144,,,
729716428.423369,-7.24952,0.572866,-79.536492,0.013763,-0.038223,0.805603,-2.320403,0.659661,0.086618,65.906693,18.079544,-151.141144,,,
729716428.427395,-7.951496,0.733526,-82.598676,0.013763,-0.038223,0.805603,-2.569709,0.430476,-0.042708,65.906693,18.079544,-151.141144,,,
729716428.427679,-7.951494,0.733522,-79.521798,0.013763,-0.038223,0.805603,-2.569709,0.430476,-0.042708,65.906693,18.079544,-151.141144,,,
729716428.428249,-7.951496,0.733526,-82.598676,0.013763,-0.038223,0.805603,-2.569709,0.430476,-0.042708,65.906693,18.079544,-151.141144,,,
729716428.4286,-7.951494,0.733522,-79.521798,0.013763,-0.038223,0.805603,-2.569709,0.430476,-0.042708,65.906693,18.079544,-151.141144,,,
729716428.433027,-8.689832,0.855202,-82.600856,0.020279,-0.072617,0.787354,-2.569709,0.430476,-0.042708,65.906693,18.079544,-151.141144,,,
729716428.433261,-8.68983,0.855198,-79.523978,0.020279,-0.072617,0.787354,-2.569709,0.430476,-0.042708,65.906693,18.079544,-151.141144,,,
729716428.43648,-9.464921,0.929746,-82.620614,0.020279,-0.072617,0.787354,-2.831429,0.111223,-0.188181,65.906693,18.079544,-151.141144,,,
729716428.436746,-9.464919,0.929742,-79.543736,0.020279,-0.072617,0.787354,-2.831429,0.111223,-0.188181,65.906693,18.079544,-151.141144,,,
729716428.438377,-9.464921,0.929746,-82.620614,0.020279,-0.072617,0.787354,-2.831429,0.111223,-0.188181,65.906693,18.079544,-151.141144,,,
729716428.438593,-9.464919,0.929742,-79.543736,0.020279,-0.072617,0.787354,-2.831429,0.111223,-0.188181,65.906693,18.079544,-151.141144,,,
729716428.443106,-10.278412,0.954692,-82.660666,0.018799,-0.106705,0.730209,-2.831429,0.111223,-0.188181,65.906693,18.079544,-151.141144,,,
729716428.443326,-10.27841,0.954688,-79.583788,0.018799,-0.106705,0.730209,-2.831429,0.111223,-0.188181,65.906693,18.079544,-151.141144,,,
729716428.448264,-11.133375,0.932701,-82.722881,0.018799,-0.106705,0.730209,-3.136039,-0.172079,-0.341378,66.566895,24.470291,-152.007401,,,
729716428.448577,-11.133372,0.932697,-79.646003,0.018799,-0.106705,0.730209,-3.136039,-0.172079,-0.341378,66.566895,24.470291,-152.007401,,,
729716428.453447,-12.036038,0.86466,-82.807867,0.013931,-0.161209,0.708664,-3.136039,-0.172079,-0.341378,66.566895,24.470291,-152.007401,,,
729716428.453703,-12.036035,0.864656,-79.730989,0.013931,-0.161209,0.708664,-3.136039,-0.172079,-0.341378,66.566895,24.470291,-152.007401,,,
729716428.456405,-12.988345,0.747898,-82.917969,0.013931,-0.161209,0.708664,-3.482706,-0.452165,-0.512195,66.566895,24.470291,-152.007401,,,
729716428.456642,-12.988342,0.747895,-79.841091,0.013931,-0.161209,0.708664,-3.482706,-0.452165,-0.512195,66.566895,24.470291,-152.007401,,,
729716428.458408,-12.988345,0.747898,-82.917969,0.013931,-0.161209,0.708664,-3.482706,-0.452165,-0.512195,66.566895,24.470291,-152.007401,,,
729716428.45863,-12.988342,0.747895,-79.841091,0.013931,-0.161209,0.708664,-3.482706,-0.452165,-0.512195,66.566895,24.470291,-152.007401,,,
729716428.463103,-13.988423,0.586546,-83.057022,0.012924,-0.176666,0.662079,-3.482706,-0.452165,-0.512195,66.566895,24.470291,-152.007401,,,
729716428.463345,-13.988419,0.586542,-79.980144,0.012924,-0.176666,0.662079,-3.482706,-0.452165,-0.512195,66.566895,24.470291,-152.007401,,,
729716428.466586,-15.032262,0.391322,-83.22738,0.012924,-0.176666,0.662079,-3.784138,-0.577092,-0.699043,66.566895,24.470291,-152.007401,,,
729716428.466838,-15.032258,0.391318,-80.150502,0.012924,-0.176666,0.662079,-3.784138,-0.577092,-0.699043,66.566895,24.470291,-152.007401,,,
729716428.468318,-15.032262,0.391322,-83.22738,0.012924,-0.176666,0.662079,-3.784138,-0.577092,-0.699043,66.566895,24.470291,-152.007401,,,
729716428.468578,-15.032258,0.391318,-80.150502,0.012924,-0.176666,0.662079,-3.784138,-0.577092,-0.699043,66.566895,24.470291,-152.007401,,,
729716428.47326,-16.119036,0.170183,-83.429156,0.061157,-0.170837,0.682785,-3.784138,-0.577092,-0.699043,66.566895,24.470291,-152.007401,,,
729716428.473488,-16.119032,0.170179,-80.352278,0.061157,-0.170837,0.682785,-3.784138,-0.577092,-0.699043,66.566895,24.470291,-152.007401,,,
729716428.474973,-16.119036,0.170183,-83.429156,0.061157,-0.170837,0.682785,-3.784138,-0.577092,-0.699043,66.566895,24.470291,-152.007401,,,
729716428.475277,-17.251472,-0.076632,-80.584176,0.061157,-0.170837,0.682785,-4.110968,-0.677175,-0.855218,66.566895,24.470291,-152.007401,,,
729716428.479981,-17.251477,-0.076628,-83.661054,0.061157,-0.170837,0.682785,-4.110968,-0.677175,-0.855218,66.566895,24.470291,-152.007401,,,
729716428.480232,-18.430668,-0.352464,-80.845433,0.062561,-0.241699,0.684769,-4.110968,-0.677175,-0.855218,66.566895,24.470291,-152.007401,,,
729716428.482727,-18.430672,-0.35246,-83.922311,0.062561,-0.241699,0.684769,-4.110968,-0.677175,-0.855218,66.566895,24.470291,-152.007401,,,
729716428.482953,-18.430668,-0.352464,-80.845433,0.062561,-0.241699,0.684769,-4.110968,-0.677175,-0.855218,66.566895,24.470291,-152.007401,,,
729716428.486555,-19.653634,-0.65903,-84.212287,0.062561,-0.241699,0.684769,-4.421983,-0.788058,-0.977428,66.566895,24.470291,-152.007401,,,
729716428.486798,-19.653629,-0.659034,-81.135409,0.062561,-0.241699,0.684769,-4.421983,-0.788058,-0.977428,66.566895,24.470291,-152.007401,,,
729716428.488353,-19.653634,-0.65903,-84.212287,0.062561,-0.241699,0.684769,-4.421983,-0.788058,-0.977428,66.566895,24.470291,-152.007401,,,
729716428.488573,-19.653629,-0.659034,-81.135409,0.062561,-0.241699,0.684769,-4.421983,-0.788058,-0.977428,65.047318,33.029007,-150.782043,,,
729716428.493713,-20.917466,-0.995108,-84.530381,0.063385,-0.341324,0.621841,-4.421983,-0.788058,-0.977428,65.047318,33.029007,-150.782043,,,
729716428.493955,-20.917461,-0.995111,-81.453503,0.063385,-0.341324,0.621841,-4.421983,-0.788058,-0.977428,65.047318,33.029007,-150.782043,,,
729716428.49611,-20.917466,-1.351692,-84.877186,0.063385,-0.341324,0.621841,-4.653198,-0.766036,-1.084341,65.047318,33.029007,-150.782043,,,
729716428.49633,-22.21604,-1.351695,-81.800307,0.063385,-0.341324,0.621841,-4.653198,-0.766036,-1.084341,65.047318,33.029007,-150.782043,,,
729716428.49872,-22.216045,-1.351692,-84.877186,0.063385,-0.341324,0.621841,-4.653198,-0.766036,-1.084341,65.047318,33.029007,-150.782043,,,
729716428.498925,-22.21604,-1.351695,-81.800307,0.063385,-0.341324,0.621841,-4.653198,-0.766036,-1.084341,65.047318,33.029007,-150.782043,,,
729716428.503205,-23.542337,-1.718168,-85.252292,0.088501,-0.414719,0.639343,-4.653198,-0.766036,-1.084341,65.047318,33.029007,-150.782043,,,
729716428.503436,-23.54233,-1.718171,-82.175414,0.088501,-0.414719,0.639343,-4.653198,-0.766036,-1.084341,65.047318,33.029007,-150.782043,,,
729716428.506371,-24.890163,-2.090327,-85.652925,0.088501,-0.414719,0.639343,-4.810044,-0.681413,-1.147656,65.047318,33.029007,-150.782043,,,
729716428.506601,-24.890156,-2.09033,-82.576046,0.088501,-0.414719,0.639343,-4.810044,-0.681413,-1.147656,65.047318,33.029007,-150.782043,,,
729716428.508402,-24.890163,-2.090327,-85.652925,0.088501,-0.414719,0.639343,-4.810044,-0.681413,-1.147656,65.047318,33.029007,-150.782043,,,
729716428.50862,-24.890156,-2.09033,-82.576046,0.088501,-0.414719,0.639343,-4.810044,-0.681413,-1.147656,65.047318,33.029007,-150.782043,,,
729716428.51323,-26.256402,-2.469515,-86.077596,0.102463,-0.481369,0.68219,-4.810044,-0.681413,-1.147656,65.047318,33.029007,-150.782043,,,
729716428.513454,-26.256394,-2.469519,-83.000717,0.102463,-0.481369,0.68219,-4.810044,-0.681413,-1.147656,65.047318,33.029007,-150.782043,,,
729716428.516282,-26.256402,-2.853208,-86.524768,0.102463,-0.481369,0.68219,-4.905422,-0.553862,-1.177852,65.047318,33.029007,-150.782043,,,
729716428.516521,-27.636711,-2.853212,-83.44789,0.102463,-0.481369,0.68219,-4.905422,-0.553862,-1.177852,65.047318,33.029007,-150.782043,,,
729716428.518702,-27.636719,-2.853208,-86.524768,0.102463,-0.481369,0.68219,-4.905422,-0.553862,-1.177852,65.047318,33.029007,-150.782043,,,
729716428.518913,-27.636711,-2.853212,-83.44789,0.102463,-0.481369,0.68219,-4.905422,-0.553862,-1.177852,65.047318,33.029007,-150.782043,,,
729716428.52301,-29.023528,-3.234082,-86.992216,0.097549,-0.546417,0.664169,-4.905422,-0.553862,-1.177852,65.047318,33.029007,-150.782043,,,
729716428.523242,-29.02352,-3.234085,-83.915338,0.097549,-0.546417,0.664169,-4.905422,-0.553862,-1.177852,65.047318,33.029007,-150.782043,,,
729716428.52537,-29.023528,-3.234082,-86.992216,0.097549,-0.546417,0.664169,-4.909829,-0.39559,-1.179153,65.047318,33.029007,-150.782043,,,
729716428.525588,-30.411193,-3.609898,-84.401911,0.097549,-0.546417,0.664169,-4.909829,-0.39559,-1.179153,65.047318,33.029007,-150.782043,,,
729716428.530062,-30.411202,-3.609895,-87.47879,0.097549,-0.546417,0.664169,-4.909829,-0.39559,-1.179153,63.046295,43.153091,-147.347794,,,
729716428.530372,-31.795903,-3.985488,-84.904328,0.102066,-0.609222,0.717407,-4.909829,-0.39559,-1.179153,63.046295,43.153091,-147.347794,,,
729716428.5329,-31.795912,-3.985485,-87.981207,0.102066,-0.609222,0.717407,-4.909829,-0.39559,-1.179153,63.046295,43.153091,-147.347794,,,
729716428.533128,-31.795903,-3.985488,-84.904328,0.102066,-0.609222,0.717407,-4.909829,-0.39559,-1.179153,63.046295,43.153091,-147.347794,,,
729716428.535019,-31.795912,-3.985485,-87.981207,0.102066,-0.609222,0.717407,-4.909829,-0.39559,-1.179153,63.046295,43.153091,-147.347794,,,
729716428.535261,-33.178789,-4.370148,-85.418635,0.102066,-0.609222,0.717407,-4.918853,-0.375166,-1.128207,63.046295,43.153091,-147.347794,,,
729716428.539975,-33.178798,-4.370145,-88.495514,0.102066,-0.609222,0.717407,-4.918853,-0.375166,-1.128207,63.046295,43.153091,-147.347794,,,
729716428.540209,-34.560887,-4.770968,-85.941759,0.08287,-0.671051,0.682556,-4.918853,-0.375166,-1.128207,63.046295,43.153091,-147.347794,,,
729716428.543074,-34.560898,-4.770965,-89.018638,0.08287,-0.671051,0.682556,-4.918853,-0.375166,-1.128207,63.046295,43.153091,-147.347794,,,
729716428.543303,-34.560887,-4.770968,-85.941759,0.08287,-0.671051,0.682556,-4.918853,-0.375166,-1.128207,63.046295,43.153091,-147.347794,,,
729716428.545754,-34.560898,-4.770965,-89.018638,0.08287,-0.671051,0.682556,-4.935499,-0.4082,-1.036091,63.046295,43.153091,-147.347794,,,
729716428.545977,-35.943804,-5.190066,-86.471736,0.08287,-0.671051,0.682556,-4.935499,-0.4082,-1.036091,63.046295,43.153091,-147.347794,,,
729716428.549253,-35.943815,-5.190063,-89.548616,0.08287,-0.671051,0.682556,-4.935499,-0.4082,-1.036091,63.046295,43.153091,-147.347794,,,
729716428.549469,-35.943804,-5.190066,-86.471736,0.08287,-0.671051,0.682556,-4.935499,-0.4082,-1.036091,63.046295,43.153091,-147.347794,,,
729716428.553313,-37.326818,-5.627027,-90.083345,0.052811,-0.720596,0.617432,-4.935499,-0.4082,-1.036091,63.046295,43.153091,-147.347794,,,
729716428.553612,-37.326807,-5.62703,-87.006466,0.052811,-0.720596,0.617432,-4.935499,-0.4082,-1.036091,63.046295,43.153091,-147.347794,,,
729716428.555036,-37.326818,-5.627027,-90.083345,0.052811,-0.720596,0.617432,-4.935499,-0.4082,-1.036091,63.046295,43.153091,-147.347794,,,
729716428.555268,-38.709358,-6.081963,-87.544798,0.052811,-0.720596,0.617432,-4.94002,-0.443605,-0.922695,63.046295,43.153091,-147.347794,,,
729716428.559767,-38.709369,-6.08196,-90.621678,0.052811,-0.720596,0.617432,-4.94002,-0.443605,-0.922695,63.046295,43.153091,-147.347794,,,
729716428.56002,-38.709358,-6.081963,-87.544798,0.052811,-0.720596,0.617432,-4.94002,-0.443605,-0.922695,63.046295,43.153091,-147.347794,,,
729716428.563084,-40.090671,-6.55406,-91.163347,0.032532,-0.751083,0.591812,-4.94002,-0.443605,-0.922695,63.046295,43.153091,-147.347794,,,
729716428.563311,-40.090658,-6.554063,-88.086467,0.032532,-0.751083,0.591812,-4.94002,-0.443605,-0.922695,63.046295,43.153091,-147.347794,,,
729716428.565031,-40.090671,-6.55406,-91.163347,0.032532,-0.751083,0.591812,-4.94002,-0.443605,-0.922695,63.046295,43.153091,-147.347794,,,
729716428.56525,-41.469167,-7.04204,-88.631613,0.032532,-0.751083,0.591812,-4.922531,-0.457627,-0.79654,63.046295,43.153091,-147.347794,,,
729716428.570144,-41.46918,-7.042038,-91.708494,0.032532,-0.751083,0.591812,-4.922531,-0.457627,-0.79654,63.046295,43.153091,-147.347794,,,
729716428.570394,-42.841268,-7.54135,-89.17946,0.019699,-0.779617,0.567154,-4.922531,-0.457627,-0.79654,61.523453,52.530655,-142.007523,,,
729716428.573636,-42.841282,-7.541347,-92.25634,0.019699,-0.779617,0.567154,-4.922531,-0.457627,-0.79654,61.523453,52.530655,-142.007523,,,
729716428.573887,-42.841268,-7.54135,-89.17946,0.019699,-0.779617,0.567154,-4.922531,-0.457627,-0.79654,61.523453,52.530655,-142.007523,,,
729716428.574983,-42.841282,-7.541347,-92.25634,0.019699,-0.779617,0.567154,-4.922531,-0.457627,-0.79654,61.523453,52.530655,-142.007523,,,
729716428.575286,-44.203825,-8.047814,-89.729792,0.019699,-0.779617,0.567154,-4.845273,-0.420272,-0.671923,61.523453,52.530655,-142.007523,,,
729716428.58011,-44.203839,-8.047812,-92.806673,0.019699,-0.779617,0.567154,-4.845273,-0.420272,-0.671923,61.523453,52.530655,-142.007523,,,
729716428.580346,-45.552132,-8.557765,-90.28128,0.014267,-0.801376,0.57431,-4.845273,-0.420272,-0.671923,61.523453,52.530655,-142.007523,,,
729716428.582879,-45.552147,-8.557763,-93.358161,0.014267,-0.801376,0.57431,-4.845273,-0.420272,-0.671923,61.523453,52.530655,-142.007523,,,
729716428.583107,-45.552132,-8.557765,-90.28128,0.014267,-0.801376,0.57431,-4.845273,-0.420272,-0.671923,61.523453,52.530655,-142.007523,,,
729716428.585071,-45.552147,-8.557763,-93.358161,0.014267,-0.801376,0.57431,-4.845273,-0.420272,-0.671923,61.523453,52.530655,-142.007523,,,
729716428.585303,-46.882261,-9.067353,-90.832395,0.014267,-0.801376,0.57431,-4.69785,-0.352661,-0.536546,61.523453,52.530655,-142.007523,,,
729716428.590072,-46.882277,-9.067351,-93.909277,0.014267,-0.801376,0.57431,-4.69785,-0.352661,-0.536546,61.523453,52.530655,-142.007523,,,
729716428.590329,-48.187963,-9.573663,-91.381307,0.013428,-0.817734,0.589035,-4.69785,-0.352661,-0.536546,61.523453,52.530655,-142.007523,,,
729716428.592839,-48.18798,-9.573661,-94.458189,0.013428,-0.817734,0.589035,-4.69785,-0.352661,-0.536546,61.523453,52.530655,-142.007523,,,
729716428.593061,-48.187963,-9.573663,-91.381307,0.013428,-0.817734,0.589035,-4.69785,-0.352661,-0.536546,61.523453,52.530655,-142.007523,,,
729716428.595069,-48.18798,-9.573661,-94.458189,0.013428,-0.817734,0.589035,-4.69785,-0.352661,-0.536546,61.523453,52.530655,-142.007523,,,
729716428.595263,-49.463955,-10.077,-91.929576,0.013428,-0.817734,0.589035,-4.47709,-0.272941,-0.429736,61.523453,52.530655,-142.007523,,,
729716428.59981,-49.463972,-10.076998,-95.006458,0.013428,-0.817734,0.589035,-4.47709,-0.272941,-0.429736,61.523453,52.530655,-142.007523,,,
729716428.600075,-49.463955,-10.077,-91.929576,0.013428,-0.817734,0.589035,-4.47709,-0.272941,-0.429736,61.523453,52.530655,-142.007523,,,
729716428.603078,-50.706276,-10.576591,-95.554996,0.019577,-0.825577,0.600739,-4.47709,-0.272941,-0.429736,61.523453,52.530655,-142.007523,,,
729716428.603306,-50.706258,-10.576592,-92.478114,0.019577,-0.825577,0.600739,-4.47709,-0.272941,-0.429736,61.523453,52.530655,-142.007523,,,
729716428.605089,-50.706276,-10.576591,-95.554996,0.019577,-0.825577,0.600739,-4.47709,-0.272941,-0.429736,61.523453,52.530655,-142.007523,,,
729716428.605287,-51.9134,-11.069252,-93.025626,0.019577,-0.825577,0.600739,-4.225309,-0.182006,-0.332981,61.523453,52.530655,-142.007523,,,
729716428.60993,-51.913418,-11.069251,-96.102509,0.019577,-0.825577,0.600739,-4.225309,-0.182006,-0.332981,61.523453,52.530655,-142.007523,,,
729716428.610195,-51.9134,-11.069252,-93.025626,0.022705,-0.829071,0.6064,-4.225309,-0.182006,-0.332981,61.523453,52.530655,-142.007523,,,
729716428.613271,-53.084157,-11.555073,-96.647417,0.022705,-0.829071,0.6064,-4.225309,-0.182006,-0.332981,60.166519,60.161346,-135.027985,,,
729716428.613508,-53.084138,-11.555074,-93.570533,0.022705,-0.829071,0.6064,-4.225309,-0.182006,-0.332981,60.166519,60.161346,-135.027985,,,
729716428.615062,-53.084157,-11.555073,-96.647417,0.022705,-0.829071,0.6064,-4.225309,-0.182006,-0.332981,60.166519,60.161346,-135.027985,,,
729716428.615262,-54.213539,-12.033633,-94.107704,0.022705,-0.829071,0.6064,-4.225309,-0.182006,-0.332981,60.166519,60.161346,-135.027985,,,
729716428.620193,-54.213559,-12.033632,-97.184588,0.022705,-0.829071,0.6064,-3.92419,-0.143169,-0.225743,60.166519,60.161346,-135.027985,,,
729716428.620441,-55.299914,-12.504077,-94.631812,0.001541,-0.832092,0.606445,-3.92419,-0.143169,-0.225743,60.166519,60.161346,-135.027985,,,
729716428.622665,-55.299936,-12.504076,-97.708696,0.001541,-0.832092,0.606445,-3.92419,-0.143169,-0.225743,60.166519,60.161346,-135.027985,,,
729716428.622891,-55.299914,-12.504077,-94.631812,0.001541,-0.832092,0.606445,-3.92419,-0.143169,-0.225743,60.166519,60.161346,-135.027985,,,
729716428.6251,-55.299936,-12.504076,-97.708696,0.001541,-0.832092,0.606445,-3.92419,-0.143169,-0.225743,60.166519,60.161346,-135.027985,,,
729716428.625329,-56.341968,-12.969286,-95.139115,0.001541,-0.832092,0.606445,-3.592189,-0.187535,-0.114426,60.166519,60.161346,-135.027985,,,
729716428.62989,-56.341991,-12.969286,-98.215999,0.001541,-0.832092,0.606445,-3.592189,-0.187535,-0.114426,60.166519,60.161346,-135.027985,,,
729716428.630162,-56.341968,-12.969286,-95.139115,0.001541,-0.832092,0.606445,-3.592189,-0.187535,-0.114426,60.166519,60.161346,-135.027985,,,
729716428.634284,-57.339281,-13.433469,-98.704856,-0.020538,-0.843124,0.588959,-3.592189,-0.187535,-0.114426,60.166519,60.161346,-135.027985,,,
729716428.634552,-57.339258,-13.433469,-95.627971,-0.020538,-0.843124,0.588959,-3.592189,-0.187535,-0.114426,60.166519,60.161346,-135.027985,,,
729716428.635068,-57.339281,-13.433469,-98.704856,-0.020538,-0.843124,0.588959,-3.592189,-0.187535,-0.114426,60.166519,60.161346,-135.027985,,,
729716428.635262,-58.292309,-13.898878,-96.097276,-0.020538,-0.843124,0.588959,-3.592189,-0.187535,-0.114426,60.166519,60.161346,-135.027985,,,
729716428.640055,-58.292332,-13.898878,-99.174162,-0.020538,-0.843124,0.588959,-3.269914,-0.287948,-0.010209,60.166519,60.161346,-135.027985,,,
729716428.640309,-58.292309,-14.365903,-96.546031,-0.020538,-0.843124,0.588959,-3.269914,-0.287948,-0.010209,60.166519,60.161346,-135.027985,,,
729716428.642856,-59.202533,-14.365904,-99.622917,-0.023407,-0.85199,0.558151,-3.269914,-0.287948,-0.010209,60.166519,60.161346,-135.027985,,,
729716428.643094,-59.202508,-14.365903,-96.546031,-0.023407,-0.85199,0.558151,-3.269914,-0.287948,-0.010209,60.166519,60.161346,-135.027985,,,
729716428.645013,-59.202533,-14.365904,-99.622917,-0.023407,-0.85199,0.558151,-3.269914,-0.287948,-0.010209,60.166519,60.161346,-135.027985,,,
729716428.645344,-60.070904,-14.831705,-96.971856,-0.023407,-0.85199,0.558151,-3.269914,-0.287948,-0.010209,60.166519,60.161346,-135.027985,,,
729716428.650951,-60.070929,-14.831705,-100.048743,-0.023407,-0.85199,0.558151,-2.964925,-0.38999,0.082237,60.166519,60.161346,-135.027985,,,
729716428.651225,-60.9007,-15.295259,-97.374222,-0.016464,-0.861374,0.538925,-2.964925,-0.38999,0.082237,60.166519,60.161346,-135.027985,,,
729716428.653591,-60.900727,-15.29526,-100.451109,-0.016464,-0.861374,0.538925,-2.964925,-0.38999,0.082237,59.568192,64.712479,-128.909164,,,
729716428.653851,-60.9007,-15.295259,-97.374222,-0.016464,-0.861374,0.538925,-2.964925,-0.38999,0.082237,59.568192,64.712479,-128.909164,,,
729716428.655009,-60.900727,-15.29526,-100.451109,-0.016464,-0.861374,0.538925,-2.964925,-0.38999,0.082237,59.568192,64.712479,-128.909164,,,
729716428.655279,-60.9007,-15.295259,-97.75375,-0.016464,-0.861374,0.538925,-2.964925,-0.38999,0.082237,59.568192,64.712479,-128.909164,,,
729716428.659921,-61.695464,-15.754931,-100.830638,-0.016464,-0.861374,0.538925,-2.721413,-0.473582,0.170046,59.568192,64.712479,-128.909164,,,
729716428.660207,-61.695437,-15.75493,-97.75375,-0.016464,-0.861374,0.538925,-2.721413,-0.473582,0.170046,59.568192,64.712479,-128.909164,,,
729716428.663028,-62.460782,-16.208925,-101.189325,-0.0065,-0.890335,0.510345,-2.721413,-0.473582,0.170046,59.568192,64.712479,-128.909164,,,
729716428.663257,-62.460753,-16.208924,-98.112437,-0.0065,-0.890335,0.510345,-2.721413,-0.473582,0.170046,59.568192,64.712479,-128.909164,,,
729716428.66509,-62.460782,-16.208925,-101.189325,-0.0065,-0.890335,0.510345,-2.721413,-0.473582,0.170046,59.568192,64.712479,-128.909164,,,
729716428.665358,-63.202362,-16.658081,-98.452677,-0.0065,-0.890335,0.510345,-2.552833,-0.545813,0.252109,59.568192,64.712479,-128.909164,,,
729716428.670196,-63.202391,-16.658083,-101.529566,-0.0065,-0.890335,0.510345,-2.552833,-0.545813,0.252109,59.568192,64.712479,-128.909164,,,
729716428.670459,-63.926482,-17.1061,-98.776736,-0.0065,-0.890335,0.510345,-2.552833,-0.545813,0.252109,59.568192,64.712479,-128.909164,,,
729716428.674122,-63.926512,-17.106102,-101.853625,0.011078,-0.931549,0.465714,-2.552833,-0.545813,0.252109,59.568192,64.712479,-128.909164,,,
729716428.674384,-63.926482,-17.1061,-98.776736,0.011078,-0.931549,0.465714,-2.552833,-0.545813,0.252109,59.568192,64.712479,-128.909164,,,
729716428.674917,-63.926512,-17.106102,-101.853625,0.011078,-0.931549,0.465714,-2.552833,-0.545813,0.252109,59.568192,64.712479,-128.909164,,,
729716428.675269,-63.926482,-17.1061,-98.776736,0.011078,-0.931549,0.465714,-2.552833,-0.545813,0.252109,59.568192,64.712479,-128.909164,,,
729716428.679981,-64.639144,-17.559038,-102.166854,0.011078,-0.931549,0.465714,-2.48301,-0.637897,0.3194,59.568192,64.712479,-128.909164,,,
729716428.680251,-64.639113,-17.559036,-99.089964,0.011078,-0.931549,0.465714,-2.48301,-0.637897,0.3194,59.568192,64.712479,-128.909164,,,
729716428.683156,-65.347344,-18.024371,-102.477376,0.047607,-0.974564,0.394592,-2.48301,-0.637897,0.3194,59.568192,64.712479,-128.909164,,,
729716428.683386,-65.347312,-18.024369,-99.400486,0.047607,-0.974564,0.394592,-2.48301,-0.637897,0.3194,59.568192,64.712479,-128.909164,,,
729716428.684984,-65.347344,-18.024371,-102.477376,0.047607,-0.974564,0.394592,-2.48301,-0.637897,0.3194,59.568192,64.712479,-128.909164,,,
729716428.685272,-65.347312,-18.024369,-99.400486,0.047607,-0.974564,0.394592,-2.48301,-0.637897,0.3194,59.568192,64.712479,-128.909164,,,
729716428.689978,-66.056205,-18.509915,-102.793968,0.047607,-0.974564,0.394592,-2.500934,-0.723941,0.362249,59.568192,64.712479,-128.909164,,,
729716428.690254,-66.056172,-18.509912,-99.717077,0.047607,-0.974564,0.394592,-2.500934,-0.723941,0.362249,59.568192,64.712479,-128.909164,,,
729716428.693674,-66.770226,-19.022274,-103.12703,0.085297,-1.02417,0.321854,-2.500934,-0.723941,0.362249,59.163696,67.798431,-123.73027,,,
729716428.693938,-66.770192,-19.022271,-100.050139,0.085297,-1.02417,0.321854,-2.500934,-0.723941,0.362249,59.163696,67.798431,-123.73027,,,
729716428.694913,-66.770226,-19.022274,-103.12703,0.085297,-1.02417,0.321854,-2.500934,-0.723941,0.362249,59.163696,67.798431,-123.73027,,,
729716428.695263,-66.770192,-19.022271,-100.050139,0.085297,-1.02417,0.321854,-2.500934,-0.723941,0.362249,59.163696,67.798431,-123.73027,,,
729716428.699798,-67.491571,-19.565594,-103.486464,0.085297,-1.02417,0.321854,-2.561485,-0.73196,0.374201,59.163696,67.798431,-123.73027,,,
729716428.700025,-67.491535,-19.565591,-100.409571,0.085297,-1.02417,0.321854,-2.561485,-0.73196,0.374201,59.163696,67.798431,-123.73027,,,
729716428.703078,-68.22015,-20.140841,-103.880188,0.129684,-1.066696,0.294678,-2.561485,-0.73196,0.374201,59.163696,67.798431,-123.73027,,,
729716428.70331,-68.220113,-20.140837,-100.803294,0.129684,-1.066696,0.294678,-2.561485,-0.73196,0.374201,59.163696,67.798431,-123.73027,,,
729716428.705105,-68.22015,-20.140841,-103.880188,0.129684,-1.066696,0.294678,-2.561485,-0.73196,0.374201,59.163696,67.798431,-123.73027,,,
729716428.705363,-68.220113,-20.140837,-101.23784,0.129684,-1.066696,0.294678,-2.561485,-0.73196,0.374201,59.163696,67.798431,-123.73027,,,
729716428.710089,-68.956258,-20.748938,-104.314734,0.129684,-1.066696,0.294678,-2.619999,-0.669409,0.380465,59.163696,67.798431,-123.73027,,,
729716428.710406,-68.956219,-20.748933,-101.23784,0.129684,-1.066696,0.294678,-2.619999,-0.669409,0.380465,59.163696,67.798431,-123.73027,,,
729716428.713035,-69.697711,-21.389449,-104.793054,0.167221,-1.103638,0.301285,-2.619999,-0.669409,0.380465,59.163696,67.798431,-123.73027,,,
729716428.713268,-69.697671,-21.389444,-101.716158,0.167221,-1.103638,0.301285,-2.619999,-0.669409,0.380465,59.163696,67.798431,-123.73027,,,
729716428.715073,-69.697711,-21.389449,-104.793054,0.167221,-1.103638,0.301285,-2.619999,-0.669409,0.380465,59.163696,67.798431,-123.73027,,,
729716428.715334,-69.697671,-21.389444,-101.716158,0.167221,-1.103638,0.301285,-2.619999,-0.669409,0.380465,59.163696,67.798431,-123.73027,,,
729716428.720062,-70.440903,-22.060049,-105.314873,0.167221,-1.103638,0.301285,-2.631721,-0.578481,0.387097,59.163696,67.798431,-123.73027,,,
729716428.720318,-70.440862,-22.060043,-102.237977,0.167221,-1.103638,0.301285,-2.631721,-0.578481,0.387097,59.163696,67.798431,-123.73027,,,
729716428.723092,-71.182584,-22.759135,-105.878333,0.189133,-1.142212,0.32225,-2.631721,-0.578481,0.387097,59.163696,67.798431,-123.73027,,,
729716428.723332,-71.182541,-22.759128,-102.801436,0.189133,-1.142212,0.32225,-2.631721,-0.578481,0.387097,59.163696,67.798431,-123.73027,,,
729716428.725053,-71.182584,-22.759135,-105.878333,0.189133,-1.142212,0.32225,-2.631721,-0.578481,0.387097,59.163696,67.798431,-123.73027,,,
729716428.725318,-71.182541,-22.759128,-102.801436,0.189133,-1.142212,0.32225,-2.631721,-0.578481,0.387097,59.163696,67.798431,-123.73027,,,
729716428.730053,-71.920473,-23.487211,-106.482143,0.189133,-1.142212,0.32225,-2.601276,-0.499088,0.40914,59.163696,67.798431,-123.73027,,,
729716428.730334,-71.920428,-23.487204,-103.405244,0.189133,-1.142212,0.32225,-2.601276,-0.499088,0.40914,59.163696,67.798431,-123.73027,,,
729716428.733185,-72.650072,-24.240995,-107.121698,0.19519,-1.18396,0.340759,-2.601276,-0.499088,0.40914,59.163696,67.798431,-123.73027,,,
729716428.733424,-72.650025,-24.240987,-104.044798,0.19519,-1.18396,0.340759,-2.601276,-0.499088,0.40914,59.163696,67.798431,-123.73027,,,
729716428.735642,-72.650072,-24.240995,-107.121698,0.19519,-1.18396,0.340759,-2.601276,-0.499088,0.40914,59.130478,70.452545,-117.734528,,,
729716428.735911,-73.366881,-25.013245,-104.713876,0.19519,-1.18396,0.340759,-2.493775,-0.400943,0.433456,59.130478,70.452545,-117.734528,,,
729716428.739853,-73.36693,-25.013255,-107.790778,0.19519,-1.18396,0.340759,-2.493775,-0.400943,0.433456,59.130478,70.452545,-117.734528,,,
729716428.740083,-73.366881,-25.013245,-104.713876,0.19519,-1.18396,0.340759,-2.493775,-0.400943,0.433456,59.130478,70.452545,-117.734528,,,
729716428.742885,-74.066873,-25.791667,-108.481145,0.196808,-1.219421,0.377029,-2.493775,-0.400943,0.433456,59.130478,70.452545,-117.734528,,,
729716428.743128,-74.066822,-25.791657,-105.404243,0.196808,-1.219421,0.377029,-2.493775,-0.400943,0.433456,59.130478,70.452545,-117.734528,,,
729716428.745123,-74.066873,-25.791667,-108.481145,0.196808,-1.219421,0.377029,-2.493775,-0.400943,0.433456,59.130478,70.452545,-117.734528,,,
729716428.745338,-74.066822,-25.791657,-105.404243,0.196808,-1.219421,0.377029,-2.493775,-0.400943,0.433456,59.130478,70.452545,-117.734528,,,
729716428.749842,-74.744313,-26.563719,-109.181479,0.196808,-1.219421,0.377029,-2.300158,-0.283157,0.4661,59.130478,70.452545,-117.734528,,,
729716428.750092,-74.744259,-26.563707,-106.104576,0.196808,-1.219421,0.377029,-2.300158,-0.283157,0.4661,59.130478,70.452545,-117.734528,,,
729716428.753077,-75.392907,-27.320038,-109.878187,0.193085,-1.245911,0.44136,-2.300158,-0.283157,0.4661,59.130478,70.452545,-117.734528,,,
729716428.753313,-75.392851,-27.320025,-106.801281,0.193085,-1.245911,0.44136,-2.300158,-0.283157,0.4661,59.130478,70.452545,-117.734528,,,
729716428.755016,-75.392907,-27.320038,-109.878187,0.193085,-1.245911,0.44136,-2.300158,-0.283157,0.4661,59.130478,70.452545,-117.734528,,,
729716428.755294,-75.392851,-27.320025,-106.801281,0.193085,-1.245911,0.44136,-2.300158,-0.283157,0.4661,59.130478,70.452545,-117.734528,,,
729716428.760123,-76.009239,-28.058026,-110.562933,0.193085,-1.245911,0.44136,-2.04716,-0.240736,0.48261,59.130478,70.452545,-117.734528,,,
729716428.760414,-76.009181,-28.058012,-107.486026,0.193085,-1.245911,0.44136,-2.04716,-0.240736,0.48261,59.130478,70.452545,-117.734528,,,
729716428.763022,-76.591675,-28.774735,-111.228622,0.1996,-1.260422,0.4758,-2.04716,-0.240736,0.48261,59.130478,70.452545,-117.734528,,,
729716428.763258,-76.591614,-28.774719,-108.151713,0.1996,-1.260422,0.4758,-2.04716,-0.240736,0.48261,59.130478,70.452545,-117.734528,,,
729716428.765049,-76.591675,-28.774735,-111.228622,0.1996,-1.260422,0.4758,-2.04716,-0.240736,0.48261,59.130478,70.452545,-117.734528,,,
729716428.765321,-76.591614,-28.774719,-108.151713,0.1996,-1.260422,0.4758,-2.04716,-0.240736,0.48261,59.130478,70.452545,-117.734528,,,
729716428.769957,-77.138264,-29.459206,-111.862496,0.1996,-1.260422,0.4758,-1.759348,-0.224179,0.492441,59.130478,70.452545,-117.734528,,,
729716428.770194,-77.1382,-29.459189,-108.785585,0.1996,-1.260422,0.4758,-1.759348,-0.224179,0.492441,59.130478,70.452545,-117.734528,,,
729716428.772866,-77.647237,-30.099049,-112.45161,0.199188,-1.269943,0.488297,-1.759348,-0.224179,0.492441,59.130478,70.452545,-117.734528,,,
729716428.773096,-77.64717,-30.099031,-109.374698,0.199188,-1.269943,0.488297,-1.759348,-0.224179,0.492441,59.130478,70.452545,-117.734528,,,
729716428.775688,-77.647237,-30.099049,-112.45161,0.199188,-1.269943,0.488297,-1.759348,-0.224179,0.492441,59.537201,72.02916,-113.468567,,,
729716428.775907,-78.118627,-30.682206,-109.906717,0.199188,-1.269943,0.488297,-1.463625,-0.218751,0.492624,59.537201,72.02916,-113.468567,,,
729716428.779458,-78.118697,-30.682225,-112.983631,0.199188,-1.269943,0.488297,-1.463625,-0.218751,0.492624,59.537201,72.02916,-113.468567,,,
729716428.779673,-78.118627,-30.682206,-109.906717,0.199188,-1.269943,0.488297,-1.463625,-0.218751,0.492624,59.537201,72.02916,-113.468567,,,
729716428.783008,-78.552296,-31.202545,-113.45094,0.18364,-1.266846,0.503693,-1.463625,-0.218751,0.492624,59.537201,72.02916,-113.468567,,,
729716428.783242,-78.552224,-31.202524,-110.374025,0.18364,-1.266846,0.503693,-1.463625,-0.218751,0.492624,59.537201,72.02916,-113.468567,,,
729716428.785008,-78.552296,-31.202545,-113.45094,0.18364,-1.266846,0.503693,-1.463625,-0.218751,0.492624,59.537201,72.02916,-113.468567,,,
729716428.785238,-78.552224,-31.202524,-110.374025,0.18364,-1.266846,0.503693,-1.463625,-0.218751,0.492624,59.537201,72.02916,-113.468567,,,
729716428.789948,-78.949152,-31.663731,-113.855053,0.18364,-1.266846,0.503693,-1.190118,-0.234201,0.473754,59.537201,72.02916,-113.468567,,,
729716428.790184,-78.949078,-31.663709,-110.778136,0.18364,-1.266846,0.503693,-1.190118,-0.234201,0.473754,59.537201,72.02916,-113.468567,,,
729716428.792989,-79.311583,-32.069962,-114.199569,0.180771,-1.242905,0.475983,-1.190118,-0.234201,0.473754,59.537201,72.02916,-113.468567,,,
729716428.793234,-79.311506,-32.069938,-111.12265,0.180771,-1.242905,0.475983,-1.190118,-0.234201,0.473754,59.537201,72.02916,-113.468567,,,
729716428.795056,-79.311583,-32.069962,-114.199569,0.180771,-1.242905,0.475983,-1.190118,-0.234201,0.473754,59.537201,72.02916,-113.468567,,,
729716428.795279,-79.311506,-32.069938,-111.12265,0.180771,-1.242905,0.475983,-1.190118,-0.234201,0.473754,59.537201,72.02916,-113.468567,,,
729716428.799691,-79.639988,-32.423226,-114.488131,0.180771,-1.242905,0.475983,-0.938723,-0.232296,0.430247,59.537201,72.02916,-113.468567,,,
729716428.799921,-79.639908,-32.423201,-111.41121,0.180771,-1.242905,0.475983,-0.938723,-0.232296,0.430247,59.537201,72.02916,-113.468567,,,
729716428.802908,-79.933103,-32.716234,-114.718545,0.181564,-1.211029,0.440308,-0.938723,-0.232296,0.430247,59.537201,72.02916,-113.468567,,,
729716428.803138,-79.933022,-32.716207,-111.641622,0.181564,-1.211029,0.440308,-0.938723,-0.232296,0.430247,59.537201,72.02916,-113.468567,,,
729716428.805034,-79.933103,-32.716234,-114.718545,0.181564,-1.211029,0.440308,-0.938723,-0.232296,0.430247,59.537201,72.02916,-113.468567,,,
729716428.805262,-79.933022,-32.716207,-111.641622,0.181564,-1.211029,0.440308,-0.938723,-0.232296,0.430247,59.537201,72.02916,-113.468567,,,
729716428.810118,-80.188742,-32.934834,-114.882806,0.181564,-1.211029,0.440308,-0.660755,-0.145198,0.366156,59.537201,72.02916,-113.468567,,,
729716428.810397,-80.188658,-32.934807,-111.805882,0.181564,-1.211029,0.440308,-0.660755,-0.145198,0.366156,59.537201,72.02916,-113.468567,,,
729716428.813048,-80.405421,-33.065885,-114.971968,0.197205,-1.171463,0.460495,-0.660755,-0.145198,0.366156,59.537201,72.02916,-113.468567,,,
729716428.813286,-80.405336,-33.065858,-111.895044,0.197205,-1.171463,0.460495,-0.660755,-0.145198,0.366156,59.537201,72.02916,-113.468567,,,
729716428.815058,-80.405421,-33.065885,-114.971968,0.197205,-1.171463,0.460495,-0.660755,-0.145198,0.366156,59.537201,72.02916,-113.468567,,,
729716428.815265,-80.405336,-33.065858,-111.895044,0.197205,-1.171463,0.460495,-0.660755,-0.145198,0.366156,59.537201,72.02916,-113.468567,,,
729716428.820584,-80.582984,-33.09829,-114.977109,0.197205,-1.171463,0.460495,-0.376802,-0.039062,0.310427,60.200943,72.737061,-111.441116,,,
729716428.820846,-80.72263,-33.019048,-111.808192,0.197403,-1.136963,0.465332,-0.376802,-0.039062,0.310427,60.200943,72.737061,-111.441116,,,
729716428.82275,-80.722719,-33.019077,-114.885119,0.197403,-1.136963,0.465332,-0.376802,-0.039062,0.310427,60.200943,72.737061,-111.441116,,,
729716428.822974,-80.72263,-33.019048,-111.808192,0.197403,-1.136963,0.465332,-0.376802,-0.039062,0.310427,60.200943,72.737061,-111.441116,,,
729716428.825086,-80.722719,-33.019077,-114.885119,0.197403,-1.136963,0.465332,-0.376802,-0.039062,0.310427,60.200943,72.737061,-111.441116,,,
729716428.825305,-80.72263,-33.019048,-111.808192,0.197403,-1.136963,0.465332,-0.376802,-0.039062,0.310427,60.200943,72.737061,-111.441116,,,
729716428.831044,-80.825936,-32.820216,-114.686485,0.197403,-1.136963,0.465332,-0.108945,0.055828,0.272705,60.200943,72.737061,-111.441116,,,
729716428.831328,-80.894307,-32.498417,-111.298336,0.177368,-1.10936,0.440536,-0.108945,0.055828,0.272705,60.200943,72.737061,-111.441116,,,
729716428.833116,-80.894398,-32.498446,-114.375264,0.177368,-1.10936,0.440536,-0.108945,0.055828,0.272705,60.200943,72.737061,-111.441116,,,
729716428.833367,-80.894307,-32.498417,-111.298336,0.177368,-1.10936,0.440536,-0.108945,0.055828,0.272705,60.200943,72.737061,-111.441116,,,
729716428.834998,-80.894398,-32.498446,-114.375264,0.177368,-1.10936,0.440536,-0.108945,0.055828,0.272705,60.200943,72.737061,-111.441116,,,
729716428.835242,-80.894307,-32.498417,-111.298336,0.177368,-1.10936,0.440536,-0.108945,0.055828,0.272705,60.200943,72.737061,-111.441116,,,
729716428.840897,-80.931079,-32.061483,-113.955384,0.177368,-1.10936,0.440536,0.122229,0.096723,0.252317,60.200943,72.737061,-111.441116,,,
729716428.841093,-80.939344,-31.530854,-110.36786,0.155228,-1.076019,0.399445,0.122229,0.096723,0.252317,60.200943,72.737061,-111.441116,,,
729716428.842556,-80.939435,-31.530881,-113.444789,0.155228,-1.076019,0.399445,0.122229,0.096723,0.252317,60.200943,72.737061,-111.441116,,,
729716428.842726,-80.939344,-31.530854,-110.36786,0.155228,-1.076019,0.399445,0.122229,0.096723,0.252317,60.200943,72.737061,-111.441116,,,
729716428.845019,-80.939435,-31.530881,-113.444789,0.155228,-1.076019,0.399445,0.122229,0.096723,0.252317,60.200943,72.737061,-111.441116,,,
729716428.845191,-80.939344,-31.530854,-110.36786,0.155228,-1.076019,0.399445,0.122229,0.096723,0.252317,60.200943,72.737061,-111.441116,,,
729716428.849469,-80.923114,-30.936584,-112.869344,0.155228,-1.076019,0.399445,0.288812,0.078393,0.22687,60.200943,72.737061,-111.441116,,,
729716428.849642,-80.923023,-30.936558,-109.792416,0.155228,-1.076019,0.399445,0.288812,0.078393,0.22687,60.200943,72.737061,-111.441116,,,
729716428.853152,-80.886062,-30.302297,-112.248388,0.142868,-1.046539,0.330078,0.288812,0.078393,0.22687,60.200943,72.737061,-111.441116,,,
729716428.85341,-80.885972,-30.302272,-109.171459,0.142868,-1.046539,0.330078,0.288812,0.078393,0.22687,60.200943,72.737061,-111.441116,,,
729716428.855026,-80.886062,-30.302297,-112.248388,0.142868,-1.046539,0.330078,0.288812,0.078393,0.22687,60.200943,72.737061,-111.441116,,,
729716428.855244,-80.885972,-30.302272,-109.171459,0.142868,-1.046539,0.330078,0.288812,0.078393,0.22687,60.200943,72.737061,-111.441116,,,
729716428.860702,-80.833455,-29.654758,-111.606618,0.142868,-1.046539,0.330078,0.367028,0.022058,0.198805,60.646729,72.772919,-111.962357,,,
729716428.860905,-80.76997,-29.023974,-107.896156,0.130295,-1.014969,0.250504,0.367028,0.022058,0.198805,60.646729,72.772919,-111.962357,,,
729716428.862529,-80.770059,-29.023997,-110.973085,0.130295,-1.014969,0.250504,0.367028,0.022058,0.198805,60.646729,72.772919,-111.962357,,,
729716428.862698,-80.76997,-29.023974,-107.896156,0.130295,-1.014969,0.250504,0.367028,0.022058,0.198805,60.646729,72.772919,-111.962357,,,
729716428.865059,-80.770059,-29.023997,-110.973085,0.130295,-1.014969,0.250504,0.367028,0.022058,0.198805,60.646729,72.772919,-111.962357,,,
729716428.865279,-80.76997,-29.023974,-107.896156,0.130295,-1.014969,0.250504,0.367028,0.022058,0.198805,60.646729,72.772919,-111.962357,,,
729716428.870893,-80.698746,-28.439568,-110.376365,0.130295,-1.014969,0.250504,0.382848,-0.046044,0.135838,60.646729,72.772919,-111.962357,,,
729716428.871095,-80.620679,-27.9307,-106.769411,0.121109,-0.985016,0.186584,0.382848,-0.046044,0.135838,60.646729,72.772919,-111.962357,,,
729716428.872566,-80.620767,-27.930721,-109.846339,0.121109,-0.985016,0.186584,0.382848,-0.046044,0.135838,60.646729,72.772919,-111.962357,,,
729716428.872739,-80.620679,-27.9307,-106.769411,0.121109,-0.985016,0.186584,0.382848,-0.046044,0.135838,60.646729,72.772919,-111.962357,,,
729716428.875019,-80.620767,-27.930721,-109.846339,0.121109,-0.985016,0.186584,0.382848,-0.046044,0.135838,60.646729,72.772919,-111.962357,,,
729716428.875197,-80.620679,-27.9307,-106.769411,0.121109,-0.985016,0.186584,0.382848,-0.046044,0.135838,60.646729,72.772919,-111.962357,,,
729716428.879512,-80.538323,-27.520458,-109.407954,0.121109,-0.985016,0.186584,0.350009,-0.089503,0.037642,60.646729,72.772919,-111.962357,,,
729716428.879682,-80.538236,-27.520438,-106.331027,0.121109,-0.985016,0.186584,0.350009,-0.089503,0.037642,60.646729,72.772919,-111.962357,,,
729716428.883413,-80.454896,-27.210755,-109.067417,0.148834,-0.95755,0.156754,0.350009,-0.089503,0.037642,60.646729,72.772919,-111.962357,,,
729716428.883673,-80.45481,-27.210736,-105.990491,0.148834,-0.95755,0.156754,0.350009,-0.089503,0.037642,60.646729,72.772919,-111.962357,,,
729716428.88498,-80.454896,-27.210755,-109.067417,0.148834,-0.95755,0.156754,0.350009,-0.089503,0.037642,60.646729,72.772919,-111.962357,,,
729716428.885243,-80.45481,-27.210736,-105.990491,0.148834,-0.95755,0.156754,0.350009,-0.089503,0.037642,60.646729,72.772919,-111.962357,,,
729716428.890931,-80.372136,-26.988762,-108.816943,0.148834,-0.95755,0.156754,0.303029,-0.064245,-0.038728,60.646729,72.772919,-111.962357,,,
729716428.891133,-80.289633,-26.829956,-105.55885,0.153656,-0.953308,0.147949,0.303029,-0.064245,-0.038728,60.646729,72.772919,-111.962357,,,
729716428.892408,-80.289717,-26.829974,-108.635776,0.153656,-0.953308,0.147949,0.303029,-0.064245,-0.038728,60.646729,72.772919,-111.962357,,,
729716428.892578,-80.289633,-26.829956,-105.55885,0.153656,-0.953308,0.147949,0.303029,-0.064245,-0.038728,60.646729,72.772919,-111.962357,,,
729716428.895042,-80.289717,-26.829974,-108.635776,0.153656,-0.953308,0.147949,0.303029,-0.064245,-0.038728,60.646729,72.772919,-111.962357,,,
729716428.895201,-80.289633,-26.829956,-105.55885,0.153656,-0.953308,0.147949,0.303029,-0.064245,-0.038728,60.646729,72.772919,-111.962357,,,
729716428.899887,-80.207483,-26.715203,-108.5066,0.153656,-0.953308,0.147949,0.284106,-0.013283,-0.084098,60.873688,72.208176,-112.337357,,,
729716428.900073,-80.207399,-26.715185,-105.429675,0.153656,-0.953308,0.147949,0.284106,-0.013283,-0.084098,60.873688,72.208176,-112.337357,,,
729716428.902431,-80.124597,-26.630267,-108.415354,0.151932,-0.95459,0.177353,0.284106,-0.013283,-0.084098,60.873688,72.208176,-112.337357,,,
729716428.902612,-80.124514,-26.630249,-105.338429,0.151932,-0.95459,0.177353,0.284106,-0.013283,-0.084098,60.873688,72.208176,-112.337357,,,
729716428.905079,-80.124597,-26.630267,-108.415354,0.151932,-0.95459,0.177353,0.284106,-0.013283,-0.084098,60.873688,72.208176,-112.337357,,,
729716428.905323,-80.124514,-26.630249,-105.338429,0.151932,-0.95459,0.177353,0.284106,-0.013283,-0.084098,60.873688,72.208176,-112.337357,,,
729716428.910878,-80.038575,-26.560608,-108.346607,0.151932,-0.95459,0.177353,0.302965,0.036878,-0.109806,60.873688,72.208176,-112.337357,,,
729716428.91114,-79.946667,-26.489707,-105.20777,0.156097,-0.950394,0.196777,0.302965,0.036878,-0.109806,60.873688,72.208176,-112.337357,,,
729716428.912792,-79.946749,-26.489724,-108.284694,0.156097,-0.950394,0.196777,0.302965,0.036878,-0.109806,60.873688,72.208176,-112.337357,,,
729716428.913015,-79.946667,-26.489707,-105.20777,0.156097,-0.950394,0.196777,0.302965,0.036878,-0.109806,60.873688,72.208176,-112.337357,,,
729716428.915061,-79.946749,-26.489724,-108.284694,0.156097,-0.950394,0.196777,0.302965,0.036878,-0.109806,60.873688,72.208176,-112.337357,,,
729716428.915298,-79.946667,-26.489707,-105.20777,0.156097,-0.950394,0.196777,0.302965,0.036878,-0.109806,60.873688,72.208176,-112.337357,,,
729716428.920046,-79.847459,-26.403365,-108.21835,0.156097,-0.950394,0.196777,0.355125,0.127549,-0.129336,60.873688,72.208176,-112.337357,,,
729716428.920297,-79.847379,-26.403348,-105.141426,0.156097,-0.950394,0.196777,0.355125,0.127549,-0.129336,60.873688,72.208176,-112.337357,,,
729716428.922867,-79.740073,-26.298725,-108.147792,0.159897,-0.940857,0.23201,0.355125,0.127549,-0.129336,60.873688,72.208176,-112.337357,,,
729716428.923104,-79.739993,-26.298708,-105.070869,0.159897,-0.940857,0.23201,0.355125,0.127549,-0.129336,60.873688,72.208176,-112.337357,,,
729716428.925046,-79.740073,-26.298725,-108.147792,0.159897,-0.940857,0.23201,0.355125,0.127549,-0.129336,60.873688,72.208176,-112.337357,,,
729716428.925264,-79.739993,-26.298708,-105.070869,0.159897,-0.940857,0.23201,0.355125,0.127549,-0.129336,60.873688,72.208176,-112.337357,,,
729716428.929929,-79.625574,-26.173312,-108.072449,0.159897,-0.940857,0.23201,0.402504,0.238123,-0.142202,60.873688,72.208176,-112.337357,,,
729716428.930167,-79.625494,-26.173295,-104.995527,0.159897,-0.940857,0.23201,0.402504,0.238123,-0.142202,60.873688,72.208176,-112.337357,,,
729716428.933134,-79.504594,-26.025348,-107.989557,0.152252,-0.933792,0.243515,0.402504,0.238123,-0.142202,60.873688,72.208176,-112.337357,,,
729716428.933363,-79.504516,-26.025332,-104.912636,0.152252,-0.933792,0.243515,0.402504,0.238123,-0.142202,60.873688,72.208176,-112.337357,,,
729716428.934988,-79.504594,-26.025348,-107.989557,0.152252,-0.933792,0.243515,0.402504,0.238123,-0.142202,60.873688,72.208176,-112.337357,,,
729716428.935235,-79.504516,-26.025332,-104.912636,0.152252,-0.933792,0.243515,0.402504,0.238123,-0.142202,60.873688,72.208176,-112.337357,,,
729716428.940556,-79.37778,-25.862679,-107.901896,0.152252,-0.933792,0.243515,0.431531,0.276175,-0.150114,60.814468,72.082184,-112.866104,,,
729716428.940848,-79.377702,-25.862663,-104.824976,0.152252,-0.933792,0.243515,0.431531,0.276175,-0.150114,60.814468,72.082184,-112.866104,,,
729716428.942753,-79.247193,-25.703617,-107.818556,0.135803,-0.929413,0.226425,0.431531,0.276175,-0.150114,60.814468,72.082184,-112.866104,,,
729716428.942979,-79.247117,-25.703602,-104.741636,0.135803,-0.929413,0.226425,0.431531,0.276175,-0.150114,60.814468,72.082184,-112.866104,,,
729716428.945137,-79.247193,-25.703617,-107.818556,0.135803,-0.929413,0.226425,0.431531,0.276175,-0.150114,60.814468,72.082184,-112.866104,,,
729716428.945337,-79.247117,-25.703602,-104.741636,0.135803,-0.929413,0.226425,0.431531,0.276175,-0.150114,60.814468,72.082184,-112.866104,,,
729716428.949913,-79.116623,-25.570211,-107.751794,0.135803,-0.929413,0.226425,0.411595,0.188793,-0.167163,60.814468,72.082184,-112.866104,,,
729716428.950172,-79.116548,-25.570197,-104.674874,0.135803,-0.929413,0.226425,0.411595,0.188793,-0.167163,60.814468,72.082184,-112.866104,,,
729716428.952895,-78.98889,-25.478423,-107.71209,0.121643,-0.927597,0.165131,0.411595,0.188793,-0.167163,60.814468,72.082184,-112.866104,,,
729716428.953128,-78.988815,-25.478409,-104.635171,0.121643,-0.927597,0.165131,0.411595,0.188793,-0.167163,60.814468,72.082184,-112.866104,,,
729716428.955034,-78.98889,-25.478423,-107.71209,0.121643,-0.927597,0.165131,0.411595,0.188793,-0.167163,60.814468,72.082184,-112.866104,,,
729716428.955251,-78.988815,-25.478409,-104.635171,0.121643,-0.927597,0.165131,0.411595,0.188793,-0.167163,60.814468,72.082184,-112.866104,,,
729716428.959904,-78.865142,-25.438818,-107.70901,0.121643,-0.927597,0.165131,0.36374,0.078562,-0.206034,60.814468,72.082184,-112.866104,,,
729716428.960156,-78.865068,-25.438803,-104.632091,0.121643,-0.927597,0.165131,0.36374,0.078562,-0.206034,60.814468,72.082184,-112.866104,,,
729716428.962877,-78.745905,-25.457686,-107.751009,0.102814,-0.928345,0.128555,0.36374,0.078562,-0.206034,60.814468,72.082184,-112.866104,,,
729716428.963105,-78.745832,-25.457671,-104.674091,0.102814,-0.928345,0.128555,0.36374,0.078562,-0.206034,60.814468,72.082184,-112.866104,,,
729716428.965058,-78.745905,-25.457686,-107.751009,0.102814,-0.928345,0.128555,0.36374,0.078562,-0.206034,60.814468,72.082184,-112.866104,,,
729716428.965281,-78.745832,-25.457671,-104.674091,0.102814,-0.928345,0.128555,0.36374,0.078562,-0.206034,60.814468,72.082184,-112.866104,,,
729716428.969939,-78.631313,-25.537259,-107.844725,0.102814,-0.928345,0.128555,0.29888,0.027395,-0.262555,60.814468,72.082184,-112.866104,,,
729716428.970175,-78.631241,-25.537245,-104.767808,0.102814,-0.928345,0.128555,0.29888,0.027395,-0.262555,60.814468,72.082184,-112.866104,,,
729716428.972863,-78.521489,-25.68114,-107.99879,0.09053,-0.920868,0.128433,0.29888,0.027395,-0.262555,60.814468,72.082184,-112.866104,,,
729716428.973103,-78.521418,-25.681125,-104.921873,0.09053,-0.920868,0.128433,0.29888,0.027395,-0.262555,60.814468,72.082184,-112.866104,,,
729716428.975038,-78.521489,-25.68114,-107.99879,0.09053,-0.920868,0.128433,0.29888,0.027395,-0.262555,60.814468,72.082184,-112.866104,,,
729716428.975284,-78.521418,-25.681125,-104.921873,0.09053,-0.920868,0.128433,0.29888,0.027395,-0.262555,60.814468,72.082184,-112.866104,,,
729716428.980568,-78.417302,-25.890924,-108.218548,0.09053,-0.920868,0.128433,0.221765,0.022602,-0.324976,60.323792,71.79509,-114.206985,,,
729716428.980877,-78.417231,-25.890909,-105.141632,0.09053,-0.920868,0.128433,0.221765,0.022602,-0.324976,60.323792,71.79509,-114.206985,,,
729716428.982962,-78.320527,-26.153246,-108.491859,0.107681,-0.913223,0.132797,0.221765,0.022602,-0.324976,60.323792,71.79509,-114.206985,,,
729716428.983191,-78.320457,-26.153231,-105.414943,0.107681,-0.913223,0.132797,0.221765,0.022602,-0.324976,60.323792,71.79509,-114.206985,,,
729716428.985008,-78.320527,-26.153246,-108.491859,0.107681,-0.913223,0.132797,0.221765,0.022602,-0.324976,60.323792,71.79509,-114.206985,,,
729716428.985232,-78.320457,-26.153231,-105.414943,0.107681,-0.913223,0.132797,0.221765,0.022602,-0.324976,60.323792,71.79509,-114.206985,,,
729716428.98978,-78.233927,-26.454304,-108.804759,0.107681,-0.913223,0.132797,0.127584,0.022369,-0.338254,60.323792,71.79509,-114.206985,,,
729716428.99001,-78.233858,-26.454289,-105.727844,0.107681,-0.913223,0.132797,0.127584,0.022369,-0.338254,60.323792,71.79509,-114.206985,,,
729716428.99308,-78.157848,-26.778853,-109.14149,0.096359,-0.931808,0.123489,0.127584,0.022369,-0.338254,60.323792,71.79509,-114.206985,,,
729716428.993309,-78.157779,-26.778837,-106.064575,0.096359,-0.931808,0.123489,0.127584,0.022369,-0.338254,60.323792,71.79509,-114.206985,,,
729716428.99507,-78.157848,-26.778853,-109.14149,0.096359,-0.931808,0.123489,0.127584,0.022369,-0.338254,60.323792,71.79509,-114.206985,,,
729716428.995289,-78.157779,-26.778837,-106.064575,0.096359,-0.931808,0.123489,0.127584,0.022369,-0.338254,60.323792,71.79509,-114.206985,,,
729716428.999867,-78.090634,-27.109161,-109.483169,0.096359,-0.931808,0.123489,0.072037,0.012247,-0.311426,60.323792,71.79509,-114.206985,,,
729716429.000096,-78.090566,-27.109145,-106.406255,0.096359,-0.931808,0.123489,0.072037,0.012247,-0.311426,60.323792,71.79509,-114.206985,,,
729716429.003065,-78.030482,-27.436396,-109.820173,0.070801,-0.947845,0.130035,0.072037,0.012247,-0.311426,60.323792,71.79509,-114.206985,,,
729716429.003289,-78.030413,-27.43638,-106.743259,0.070801,-0.947845,0.130035,0.072037,0.012247,-0.311426,60.323792,71.79509,-114.206985,,,
729716429.005008,-78.030482,-27.436396,-109.820173,0.070801,-0.947845,0.130035,0.072037,0.012247,-0.311426,60.323792,71.79509,-114.206985,,,
729716429.005226,-78.030413,-27.43638,-106.743259,0.070801,-0.947845,0.130035,0.072037,0.012247,-0.311426,60.323792,71.79509,-114.206985,,,
729716429.010022,-77.974885,-27.754895,-110.146386,0.070801,-0.947845,0.130035,0.062235,0.003817,-0.284881,60.323792,71.79509,-114.206985,,,
729716429.010252,-77.974817,-27.754879,-107.069472,0.070801,-0.947845,0.130035,0.062235,0.003817,-0.284881,60.323792,71.79509,-114.206985,,,
729716429.01272,-77.920153,-28.052127,-110.450326,0.070038,-0.94606,0.158356,0.062235,0.003817,-0.284881,60.323792,71.79509,-114.206985,,,
729716429.012953,-77.920085,-28.05211,-107.373413,0.070038,-0.94606,0.158356,0.062235,0.003817,-0.284881,60.323792,71.79509,-114.206985,,,
729716429.015071,-77.920153,-28.052127,-110.450326,0.070038,-0.94606,0.158356,0.062235,0.003817,-0.284881,60.323792,71.79509,-114.206985,,,
729716429.015289,-77.920085,-28.05211,-107.373413,0.070038,-0.94606,0.158356,0.062235,0.003817,-0.284881,60.323792,71.79509,-114.206985,,,
729716429.019648,-77.863412,-28.314873,-110.722529,0.070038,-0.94606,0.158356,0.10748,0.034287,-0.251915,60.323792,71.79509,-114.206985,,,
729716429.019846,-77.863344,-28.314856,-107.645616,0.070038,-0.94606,0.158356,0.10748,0.034287,-0.251915,60.323792,71.79509,-114.206985,,,
729716429.023607,-77.801919,-28.529227,-110.951541,0.059952,-0.944977,0.195831,0.10748,0.034287,-0.251915,59.860794,71.588135,-114.428772,,,
729716429.023793,-77.801852,-28.52921,-107.874628,0.059952,-0.944977,0.195831,0.10748,0.034287,-0.251915,59.860794,71.588135,-114.428772,,,
729716429.024924,-77.801919,-28.529227,-110.951541,0.059952,-0.944977,0.195831,0.10748,0.034287,-0.251915,59.860794,71.588135,-114.428772,,,
729716429.025264,-77.801852,-28.52921,-107.874628,0.059952,-0.944977,0.195831,0.10748,0.034287,-0.251915,59.860794,71.588135,-114.428772,,,
729716429.029921,-77.734199,-28.685047,-111.127722,0.059952,-0.944977,0.195831,0.186493,0.082759,-0.204167,59.860794,71.588135,-114.428772,,,
729716429.030157,-77.734132,-28.68503,-108.050809,0.059952,-0.944977,0.195831,0.186493,0.082759,-0.204167,59.860794,71.588135,-114.428772,,,
729716429.033111,-77.658997,-28.779568,-111.247513,0.048172,-0.951508,0.231049,0.186493,0.082759,-0.204167,59.860794,71.588135,-114.428772,,,
729716429.033289,-77.658931,-28.779551,-108.170601,0.048172,-0.951508,0.231049,0.186493,0.082759,-0.204167,59.860794,71.588135,-114.428772,,,
729716429.034938,-77.658997,-28.779568,-111.247513,0.048172,-0.951508,0.231049,0.186493,0.082759,-0.204167,59.860794,71.588135,-114.428772,,,
729716429.035254,-77.658931,-28.779551,-108.170601,0.048172,-0.951508,0.231049,0.186493,0.082759,-0.204167,59.860794,71.588135,-114.428772,,,
729716429.039928,-77.575501,-28.811825,-111.308863,0.048172,-0.951508,0.231049,0.279737,0.114978,-0.154147,59.860794,71.588135,-114.428772,,,
729716429.040162,-77.575435,-28.811808,-108.231952,0.048172,-0.951508,0.231049,0.279737,0.114978,-0.154147,59.860794,71.588135,-114.428772,,,
729716429.042463,-77.483551,-28.780323,-111.309467,0.047623,-0.956528,0.234863,0.279737,0.114978,-0.154147,59.860794,71.588135,-114.428772,,,
729716429.042697,-77.483485,-28.780306,-108.232555,0.047623,-0.956528,0.234863,0.279737,0.114978,-0.154147,59.860794,71.588135,-114.428772,,,
729716429.04508,-77.483551,-28.780323,-111.309467,0.047623,-0.956528,0.234863,0.279737,0.114978,-0.154147,59.860794,71.588135,-114.428772,,,
729716429.045333,-77.483485,-28.780306,-108.232555,0.047623,-0.956528,0.234863,0.279737,0.114978,-0.154147,59.860794,71.588135,-114.428772,,,
729716429.049883,-77.38462,-28.692751,-111.256175,0.047623,-0.956528,0.234863,0.352722,0.142578,-0.110852,59.860794,71.588135,-114.428772,,,
729716429.050124,-77.384555,-28.692734,-108.179264,0.047623,-0.956528,0.234863,0.352722,0.142578,-0.110852,59.860794,71.588135,-114.428772,,,
729716429.052686,-77.281015,-28.558756,-111.159695,0.050079,-0.960556,0.224243,0.352722,0.142578,-0.110852,59.860794,71.588135,-114.428772,,,
729716429.052936,-77.28095,-28.55874,-108.082784,0.050079,-0.960556,0.224243,0.352722,0.142578,-0.110852,59.860794,71.588135,-114.428772,,,
729716429.055063,-77.281015,-28.558756,-111.159695,0.050079,-0.960556,0.224243,0.352722,0.142578,-0.110852,59.860794,71.588135,-114.428772,,,
729716429.055281,-77.28095,-28.55874,-108.082784,0.050079,-0.960556,0.224243,0.352722,0.142578,-0.110852,59.860794,71.588135,-114.428772,,,
729716429.060046,-77.175442,-28.385657,-111.028108,0.050079,-0.960556,0.224243,0.380132,0.178136,-0.067489,59.860794,71.588135,-114.428772,,,
729716429.06028,-77.175378,-28.385641,-107.951197,0.050079,-0.960556,0.224243,0.380132,0.178136,-0.067489,59.860794,71.588135,-114.428772,,,
729716429.063254,-77.070088,-28.183424,-110.872398,0.047318,-0.959442,0.203125,0.380132,0.178136,-0.067489,59.723465,71.290466,-114.778107,,,
729716429.063526,-77.070024,-28.183408,-107.795487,0.047318,-0.959442,0.203125,0.380132,0.178136,-0.067489,59.723465,71.290466,-114.778107,,,
729716429.065007,-77.070088,-28.183424,-110.872398,0.047318,-0.959442,0.203125,0.380132,0.178136,-0.067489,59.723465,71.290466,-114.778107,,,
729716429.065234,-77.070024,-28.183408,-107.795487,0.047318,-0.959442,0.203125,0.380132,0.178136,-0.067489,59.723465,71.290466,-114.778107,,,
729716429.069981,-76.966864,-27.958632,-110.698944,0.047318,-0.959442,0.203125,0.374508,0.207905,-0.030346,59.723465,71.290466,-114.778107,,,
729716429.070214,-76.966801,-27.958617,-107.622034,0.047318,-0.959442,0.203125,0.374508,0.207905,-0.030346,59.723465,71.290466,-114.778107,,,
729716429.072847,-76.867919,-27.71857,-110.512293,0.050476,-0.954376,0.180435,0.374508,0.207905,-0.030346,59.723465,71.290466,-114.778107,,,
729716429.073071,-76.867856,-27.718555,-107.435383,0.050476,-0.954376,0.180435,0.374508,0.207905,-0.030346,59.723465,71.290466,-114.778107,,,
729716429.075038,-76.867919,-27.71857,-110.512293,0.050476,-0.954376,0.180435,0.374508,0.207905,-0.030346,59.723465,71.290466,-114.778107,,,
729716429.075284,-76.867856,-27.718555,-107.435383,0.050476,-0.954376,0.180435,0.374508,0.207905,-0.030346,59.723465,71.290466,-114.778107,,,
729716429.079912,-76.77616,-27.478719,-110.324094,0.050476,-0.954376,0.180435,0.320184,0.174915,-0.00138,59.723465,71.290466,-114.778107,,,
729716429.080135,-76.776097,-27.478705,-107.247184,0.050476,-0.954376,0.180435,0.320184,0.174915,-0.00138,59.723465,71.290466,-114.778107,,,
729716429.082946,-76.69533,-27.25111,-110.140706,0.053452,-0.957413,0.15033,0.320184,0.174915,-0.00138,59.723465,71.290466,-114.778107,,,
729716429.083173,-76.695269,-27.251096,-107.063797,0.053452,-0.957413,0.15033,0.320184,0.174915,-0.00138,59.723465,71.290466,-114.778107,,,
729716429.085063,-76.69533,-27.25111,-110.140706,0.053452,-0.957413,0.15033,0.320184,0.174915,-0.00138,59.723465,71.290466,-114.778107,,,
729716429.085307,-76.695269,-27.251096,-107.063797,0.053452,-0.957413,0.15033,0.320184,0.174915,-0.00138,59.723465,71.290466,-114.778107,,,
729716429.091176,-76.628481,-27.04167,-109.964135,0.053452,-0.957413,0.15033,0.223376,0.092347,0.035736,59.723465,71.290466,-114.778107,,,
729716429.091452,-76.576537,-26.8546,-106.721187,0.044418,-0.97084,0.102951,0.223376,0.092347,0.035736,59.723465,71.290466,-114.778107,,,
729716429.091922,-76.576537,-26.8546,-106.721187,0.044418,-0.97084,0.102951,0.223376,0.092347,0.035736,59.723465,71.290466,-114.778107,,,
729716429.097294,-76.576598,-26.854613,-109.798096,0.044418,-0.97084,0.102951,0.110712,0.025305,0.056479,59.723465,71.290466,-114.778107,,,
729716429.09755,-76.540194,-26.695725,-106.57301,0.044418,-0.97084,0.102951,0.110712,0.025305,0.056479,59.723465,71.290466,-114.778107,,,
729716429.09904,-76.540255,-26.695738,-109.649919,0.044418,-0.97084,0.102951,0.110712,0.025305,0.056479,59.723465,71.290466,-114.778107,,,
