Time (sec),Pitch (deg),Roll (deg),Yaw(deg),X-Acceleration (g),Y-Acceleration (g),Z-Acceleration (g),Pitch Rate (deg/sec),Roll Rate (deg/sec),Yaw Rate (deg/sec),Magnetic Field in X direction (uT),Magnetic Field in Y direction (uT),Magnetic Field in Z Direction (uT),Latitude (deg),Longitude (deg),Altitude (m)
729707157.512794,0.817529,3.569039,123.240184,-0.069901,0.012009,1.017761,0.031756,-0.044561,-0.034297,62.278168,30.240723,-147.461975,,,
729707157.51465,0.817518,3.569007,-20.669991,-0.069901,0.012009,1.017761,0.031756,-0.044561,-0.034297,62.278168,30.240723,-147.461975,,,
729707157.516166,0.828211,3.558051,123.231838,-0.069901,0.012009,1.017761,0.039906,-0.005694,-0.025794,62.278168,30.240723,-147.461975,,,
729707157.518301,0.8282,3.558018,-20.678337,-0.069901,0.012009,1.017761,0.039906,-0.005694,-0.025794,62.278168,30.240723,-147.461975,,,
729707157.519493,0.828211,3.558051,123.231838,-0.069901,0.012009,1.017761,0.039906,-0.005694,-0.025794,62.278168,30.240723,-147.461975,,,
729707157.520293,0.8282,3.558018,-20.678337,-0.069901,0.012009,1.017761,0.039906,-0.005694,-0.025794,62.278168,30.240723,-147.461975,,,
729707157.522801,0.839782,3.558326,123.225499,-0.06871,0.011459,1.017883,0.039906,-0.005694,-0.025794,62.278168,30.240723,-147.461975,,,
729707157.52397,0.839771,3.558293,-20.684675,-0.06871,0.011459,1.017883,0.039906,-0.005694,-0.025794,62.278168,30.240723,-147.461975,,,
729707157.52619,0.851873,3.56108,123.221626,-0.06871,0.011459,1.017883,0.043635,0.034152,-0.008663,62.278168,30.240723,-147.461975,,,
729707157.528892,0.851862,3.561047,-20.688546,-0.06871,0.011459,1.017883,0.043635,0.034152,-0.008663,62.278168,30.240723,-147.461975,,,
729707157.529511,0.851873,3.56108,123.221626,-0.06871,0.011459,1.017883,0.043635,0.034152,-0.008663,62.278168,30.240723,-147.461975,,,
729707157.530292,0.851862,3.561047,-20.688546,-0.06871,0.011459,1.017883,0.043635,0.034152,-0.008663,62.278168,30.240723,-147.461975,,,
729707157.532809,0.863181,3.572218,123.219738,-0.074158,0.016129,1.009354,0.043635,0.034152,-0.008663,62.278168,30.240723,-147.461975,,,
729707157.534766,0.86317,3.572185,-20.690439,-0.074158,0.016129,1.009354,0.043635,0.034152,-0.008663,62.278168,30.240723,-147.461975,,,
729707157.53614,0.87416,3.586654,123.220038,-0.074158,0.016129,1.009354,0.043635,0.034152,-0.008663,62.278168,30.240723,-147.461975,,,
729707157.539882,0.874149,3.586622,-20.690141,-0.074158,0.016129,1.009354,0.038526,0.062732,0.006245,62.260773,30.245667,-147.267548,,,
729707157.540184,0.87416,3.586654,123.220038,-0.074158,0.016129,1.009354,0.038526,0.062732,0.006245,62.260773,30.245667,-147.267548,,,
729707157.542796,0.884862,3.60483,123.222279,-0.077805,0.021439,1.001312,0.038526,0.062732,0.006245,62.260773,30.245667,-147.267548,,,
729707157.544677,0.884851,3.604798,-20.687902,-0.077805,0.021439,1.001312,0.038526,0.062732,0.006245,62.260773,30.245667,-147.267548,,,
729707157.546149,0.884862,3.60483,123.222279,-0.077805,0.021439,1.001312,0.035867,0.068193,0.015417,62.260773,30.245667,-147.267548,,,
729707157.54819,0.895339,3.624609,-20.684342,-0.077805,0.021439,1.001312,0.035867,0.068193,0.015417,62.260773,30.245667,-147.267548,,,
729707157.549493,0.89535,3.624642,123.225837,-0.077805,0.021439,1.001312,0.035867,0.068193,0.015417,62.260773,30.245667,-147.267548,,,
729707157.550386,0.895339,3.624609,-20.684342,-0.077805,0.021439,1.001312,0.035867,0.068193,0.015417,62.260773,30.245667,-147.267548,,,
729707157.552822,0.905521,3.641867,123.230488,-0.085205,0.021118,0.992569,0.035867,0.068193,0.015417,62.260773,30.245667,-147.267548,,,
729707157.554703,0.90551,3.641835,-20.679694,-0.085205,0.021118,0.992569,0.035867,0.068193,0.015417,62.260773,30.245667,-147.267548,,,
729707157.55614,0.905521,3.641867,123.230488,-0.085205,0.021118,0.992569,0.035867,0.068193,0.015417,62.260773,30.245667,-147.267548,,,
729707157.558206,0.915903,3.657272,-20.674107,-0.085205,0.021118,0.992569,0.034413,0.040844,0.022124,62.260773,30.245667,-147.267548,,,
729707157.559557,0.915913,3.657304,123.23608,-0.085205,0.021118,0.992569,0.034413,0.040844,0.022124,62.260773,30.245667,-147.267548,,,
729707157.560277,0.915903,3.657272,-20.674107,-0.085205,0.021118,0.992569,0.034413,0.040844,0.022124,62.260773,30.245667,-147.267548,,,
729707157.562804,0.925919,3.664489,123.241924,-0.092041,0.02063,0.978149,0.034413,0.040844,0.022124,62.260773,30.245667,-147.267548,,,
729707157.564224,0.925908,3.664456,-20.668247,-0.092041,0.02063,0.978149,0.034413,0.040844,0.022124,62.260773,30.245667,-147.267548,,,
729707157.566151,0.925919,3.664489,123.241924,-0.092041,0.02063,0.978149,0.034413,0.040844,0.022124,62.260773,30.245667,-147.267548,,,
729707157.569127,0.935245,3.666996,-20.662507,-0.092041,0.02063,0.978149,0.029693,-0.007447,0.021306,62.260773,30.245667,-147.267548,,,
729707157.56959,0.935256,3.667029,123.247665,-0.092041,0.02063,0.978149,0.029693,-0.007447,0.021306,62.260773,30.245667,-147.267548,,,
729707157.570292,0.935245,3.666996,-20.662507,-0.092041,0.02063,0.978149,0.029693,-0.007447,0.021306,62.260773,30.245667,-147.267548,,,
729707157.572886,0.943437,3.660491,123.253646,-0.088745,0.022202,0.968887,0.029693,-0.007447,0.021306,62.260773,30.245667,-147.267548,,,
729707157.574196,0.943426,3.660458,-20.656523,-0.088745,0.022202,0.968887,0.029693,-0.007447,0.021306,62.260773,30.245667,-147.267548,,,
729707157.576142,0.943437,3.660491,123.253646,-0.088745,0.022202,0.968887,0.029693,-0.007447,0.021306,62.260773,30.245667,-147.267548,,,
729707157.578212,0.950508,3.64953,-20.651324,-0.088745,0.022202,0.968887,0.024042,-0.049945,0.01565,62.260773,30.245667,-147.267548,,,
729707157.579474,0.950519,3.649563,123.258847,-0.088745,0.022202,0.968887,0.024042,-0.049945,0.01565,62.222794,29.910492,-147.220581,,,
729707157.580923,0.950508,3.64953,-20.651324,-0.088745,0.022202,0.968887,0.024042,-0.049945,0.01565,62.222794,29.910492,-147.220581,,,
729707157.582803,0.956304,3.632627,123.262755,-0.082062,0.023087,0.969788,0.024042,-0.049945,0.01565,62.222794,29.910492,-147.220581,,,
729707157.584547,0.956293,3.632594,-20.647418,-0.082062,0.023087,0.969788,0.024042,-0.049945,0.01565,62.222794,29.910492,-147.220581,,,
729707157.586212,0.956304,3.614504,123.265936,-0.082062,0.023087,0.969788,0.009506,-0.068629,0.009795,62.222794,29.910492,-147.220581,,,
729707157.58812,0.959263,3.614472,-20.644237,-0.082062,0.023087,0.969788,0.009506,-0.068629,0.009795,62.222794,29.910492,-147.220581,,,
729707157.589496,0.959274,3.614504,123.265936,-0.082062,0.023087,0.969788,0.009506,-0.068629,0.009795,62.222794,29.910492,-147.220581,,,
729707157.590281,0.959263,3.614472,-20.644237,-0.082062,0.023087,0.969788,0.009506,-0.068629,0.009795,62.222794,29.910492,-147.220581,,,
729707157.592821,0.961734,3.594136,123.268965,-0.073746,0.023666,0.976685,0.009506,-0.068629,0.009795,62.222794,29.910492,-147.220581,,,
729707157.594369,0.961723,3.594103,-20.641214,-0.073746,0.023666,0.976685,0.009506,-0.068629,0.009795,62.222794,29.910492,-147.220581,,,
729707157.596253,0.961734,3.575605,123.271965,-0.073746,0.023666,0.976685,0.005648,-0.062951,0.009497,62.222794,29.910492,-147.220581,,,
729707157.597588,0.962509,3.575572,-20.638216,-0.073746,0.023666,0.976685,0.005648,-0.062951,0.009497,62.222794,29.910492,-147.220581,,,
729707157.599479,0.96252,3.575605,123.271965,-0.073746,0.023666,0.976685,0.005648,-0.062951,0.009497,62.222794,29.910492,-147.220581,,,
729707157.600333,0.962509,3.575572,-20.638216,-0.073746,0.023666,0.976685,0.005648,-0.062951,0.009497,62.222794,29.910492,-147.220581,,,
729707157.602801,0.963572,3.557872,123.275898,-0.0634,0.017929,0.982574,0.005648,-0.062951,0.009497,62.222794,29.910492,-147.220581,,,
729707157.604451,0.963561,3.557839,-20.634282,-0.0634,0.017929,0.982574,0.005648,-0.062951,0.009497,62.222794,29.910492,-147.220581,,,
729707157.60616,0.963572,3.557872,123.275898,-0.0634,0.017929,0.982574,0.005648,-0.062951,0.009497,62.222794,29.910492,-147.220581,,,
729707157.607943,0.963185,3.54478,-20.628759,-0.0634,0.017929,0.982574,0.001456,-0.042654,0.02052,62.222794,29.910492,-147.220581,,,
729707157.60949,0.963196,3.544812,123.281425,-0.0634,0.017929,0.982574,0.001456,-0.042654,0.02052,62.222794,29.910492,-147.220581,,,
729707157.610281,0.963185,3.54478,-20.628759,-0.0634,0.017929,0.982574,0.001456,-0.042654,0.02052,62.222794,29.910492,-147.220581,,,
729707157.612886,0.96389,3.533308,123.288615,-0.05629,0.013885,0.99173,0.001456,-0.042654,0.02052,62.222794,29.910492,-147.220581,,,
729707157.614579,0.963879,3.533276,-20.621556,-0.05629,0.013885,0.99173,0.001456,-0.042654,0.02052,62.222794,29.910492,-147.220581,,,
729707157.616164,0.96389,3.533308,123.288615,-0.05629,0.013885,0.99173,0.001456,-0.042654,0.02052,62.222794,29.910492,-147.220581,,,
729707157.618797,0.964493,3.528269,-20.613096,-0.05629,0.013885,0.99173,-0.002847,-0.021015,0.029477,62.222794,29.910492,-147.220581,,,
729707157.619484,0.964504,3.528301,123.297075,-0.05629,0.013885,0.99173,-0.002847,-0.021015,0.029477,62.222794,29.910492,-147.220581,,,
729707157.620944,0.964493,3.528269,-20.613096,-0.05629,0.013885,0.99173,-0.002847,-0.021015,0.029477,62.229263,30.05426,-147.173645,,,
729707157.622823,0.964106,3.523011,123.30621,-0.045883,0.015518,0.996292,-0.002847,-0.021015,0.029477,62.229263,30.05426,-147.173645,,,
729707157.624779,0.964095,3.522978,-20.603959,-0.045883,0.015518,0.996292,-0.002847,-0.021015,0.029477,62.229263,30.05426,-147.173645,,,
729707157.62618,0.964106,3.523011,123.30621,-0.045883,0.015518,0.996292,-0.002847,-0.021015,0.029477,62.229263,30.05426,-147.173645,,,
729707157.627773,0.964626,3.52536,-20.594825,-0.045883,0.015518,0.996292,-0.002552,-0.001282,0.030052,62.229263,30.05426,-147.173645,,,
729707157.629477,0.964637,3.525393,123.315341,-0.045883,0.015518,0.996292,-0.002552,-0.001282,0.030052,62.229263,30.05426,-147.173645,,,
729707157.630281,0.964626,3.52536,-20.594825,-0.045883,0.015518,0.996292,-0.002552,-0.001282,0.030052,62.229263,30.05426,-147.173645,,,
729707157.632805,0.964265,3.525998,123.323506,-0.041672,0.019196,0.999847,-0.002552,-0.001282,0.030052,62.229263,30.05426,-147.173645,,,
729707157.633915,0.964254,3.525965,-20.586663,-0.041672,0.019196,0.999847,-0.002552,-0.001282,0.030052,62.229263,30.05426,-147.173645,,,
729707157.636161,0.964265,3.525998,123.323506,-0.041672,0.019196,0.999847,-0.002552,-0.001282,0.030052,62.229263,30.05426,-147.173645,,,
729707157.638877,0.964532,3.536424,-20.580146,-0.041672,0.019196,0.999847,-0.003265,0.019537,0.019351,62.229263,30.05426,-147.173645,,,
729707157.639561,0.964543,3.536457,123.330026,-0.041672,0.019196,0.999847,-0.003265,0.019537,0.019351,62.229263,30.05426,-147.173645,,,
729707157.640279,0.964532,3.536424,-20.580146,-0.041672,0.019196,0.999847,-0.003265,0.019537,0.019351,62.229263,30.05426,-147.173645,,,
729707157.642798,0.964646,3.542296,123.334875,-0.040222,0.018951,1.002182,-0.003265,0.019537,0.019351,62.229263,30.05426,-147.173645,,,
729707157.643621,0.964635,3.542263,-20.575296,-0.040222,0.018951,1.002182,-0.003265,0.019537,0.019351,62.229263,30.05426,-147.173645,,,
729707157.646179,0.964646,3.542296,123.334875,-0.040222,0.018951,1.002182,-0.003265,0.019537,0.019351,62.229263,30.05426,-147.173645,,,
729707157.649332,0.967105,3.558496,-20.572195,-0.040222,0.018951,1.002182,0.005785,0.036728,0.008641,62.229263,30.05426,-147.173645,,,
729707157.649609,0.967116,3.558529,123.33797,-0.040222,0.018951,1.002182,0.005785,0.036728,0.008641,62.229263,30.05426,-147.173645,,,
729707157.650277,0.967105,3.558496,-20.572195,-0.040222,0.018951,1.002182,0.005785,0.036728,0.008641,62.229263,30.05426,-147.173645,,,
729707157.652899,0.968876,3.569247,123.340106,-0.044403,0.018158,1.00145,0.005785,0.036728,0.008641,62.229263,30.05426,-147.173645,,,
729707157.653989,0.968865,3.569214,-20.57006,-0.044403,0.018158,1.00145,0.005785,0.036728,0.008641,62.229263,30.05426,-147.173645,,,
729707157.65617,0.968876,3.569247,123.340106,-0.044403,0.018158,1.00145,0.005785,0.036728,0.008641,62.229263,30.05426,-147.173645,,,
729707157.657519,0.972519,3.587164,-20.569187,-0.044403,0.018158,1.00145,0.010387,0.044563,0.00088,62.229263,30.05426,-147.173645,,,
729707157.659487,0.97253,3.587197,123.340985,-0.044403,0.018158,1.00145,0.010387,0.044563,0.00088,62.229263,30.05426,-147.173645,,,
729707157.660281,0.972519,3.587164,-20.569187,-0.044403,0.018158,1.00145,0.010387,0.044563,0.00088,62.229263,30.05426,-147.173645,,,
729707157.662805,0.975862,3.598521,123.341283,-0.046173,0.016357,0.995926,0.010387,0.044563,0.00088,62.43483,30.000458,-147.226929,,,
729707157.665083,0.975851,3.598488,-20.568894,-0.046173,0.016357,0.995926,0.010387,0.044563,0.00088,62.43483,30.000458,-147.226929,,,
729707157.666215,0.975862,3.598521,123.341283,-0.046173,0.016357,0.995926,0.010387,0.044563,0.00088,62.43483,30.000458,-147.226929,,,
729707157.667499,0.98096,3.612714,-20.568786,-0.046173,0.016357,0.995926,0.013141,0.03486,0.000257,62.43483,30.000458,-147.226929,,,
729707157.669499,0.980971,3.612746,123.341388,-0.046173,0.016357,0.995926,0.013141,0.03486,0.000257,62.43483,30.000458,-147.226929,,,
729707157.670278,0.98096,3.612714,-20.568786,-0.046173,0.016357,0.995926,0.013141,0.03486,0.000257,62.43483,30.000458,-147.226929,,,
729707157.672818,0.984595,3.620626,123.341383,-0.053513,0.017075,0.99353,0.013141,0.03486,0.000257,62.43483,30.000458,-147.226929,,,
729707157.674161,0.984584,3.620593,-20.568792,-0.053513,0.017075,0.99353,0.013141,0.03486,0.000257,62.43483,30.000458,-147.226929,,,
729707157.676188,0.984595,3.620626,123.341383,-0.053513,0.017075,0.99353,0.013141,0.03486,0.000257,62.43483,30.000458,-147.226929,,,
729707157.678897,0.989013,3.627364,-20.569536,-0.053513,0.017075,0.99353,0.012743,0.017727,-0.004748,62.43483,30.000458,-147.226929,,,
729707157.679568,0.989024,3.627397,123.340641,-0.053513,0.017075,0.99353,0.012743,0.017727,-0.004748,62.43483,30.000458,-147.226929,,,
729707157.680285,0.989013,3.627364,-20.569536,-0.053513,0.017075,0.99353,0.012743,0.017727,-0.004748,62.43483,30.000458,-147.226929,,,
729707157.682806,0.992472,3.630487,123.339478,-0.053986,0.019363,0.992645,0.012743,0.017727,-0.004748,62.43483,30.000458,-147.226929,,,
729707157.683663,0.992461,3.630454,-20.570696,-0.053986,0.019363,0.992645,0.012743,0.017727,-0.004748,62.43483,30.000458,-147.226929,,,
729707157.686172,0.992472,3.630487,123.339478,-0.053986,0.019363,0.992645,0.012743,0.017727,-0.004748,62.43483,30.000458,-147.226929,,,
729707157.687768,0.99515,3.630878,-20.57222,-0.053986,0.019363,0.992645,0.010412,0.002258,-0.007504,62.43483,30.000458,-147.226929,,,
729707157.689473,0.995161,3.630911,123.337959,-0.053986,0.019363,0.992645,0.010412,0.002258,-0.007504,62.43483,30.000458,-147.226929,,,
729707157.690281,0.99515,3.630878,-20.57222,-0.053986,0.019363,0.992645,0.010412,0.002258,-0.007504,62.43483,30.000458,-147.226929,,,
729707157.692795,0.997993,3.630535,123.335077,-0.05571,0.019135,0.991074,0.010412,0.002258,-0.007504,62.43483,30.000458,-147.226929,,,
729707157.694091,0.997982,3.630502,-20.5751,-0.05571,0.019135,0.991074,0.010412,0.002258,-0.007504,62.43483,30.000458,-147.226929,,,
729707157.696153,0.997993,3.630535,123.335077,-0.05571,0.019135,0.991074,0.010412,0.002258,-0.007504,62.43483,30.000458,-147.226929,,,
729707157.698247,1.000182,3.62663,-20.579075,-0.05571,0.019135,0.991074,0.010429,-0.002527,-0.015478,62.43483,30.000458,-147.226929,,,
729707157.699506,1.000193,3.626663,123.331102,-0.05571,0.019135,0.991074,0.010429,-0.002527,-0.015478,62.43483,30.000458,-147.226929,,,
729707157.700285,1.000182,3.62663,-20.579075,-0.05571,0.019135,0.991074,0.010429,-0.002527,-0.015478,62.43483,30.000458,-147.226929,,,
729707157.702802,1.002751,3.624491,123.326562,-0.054962,0.019348,0.995865,0.010429,-0.002527,-0.015478,62.21933,30.14563,-147.240601,,,
729707157.705184,1.002741,3.624458,-20.583614,-0.054962,0.019348,0.995865,0.010429,-0.002527,-0.015478,62.21933,30.14563,-147.240601,,,
729707157.706137,1.002751,3.624491,123.326562,-0.054962,0.019348,0.995865,0.010429,-0.002527,-0.015478,62.21933,30.14563,-147.240601,,,
729707157.707486,1.004862,3.616608,-20.588817,-0.054962,0.019348,0.995865,0.007952,-0.007611,-0.020911,62.21933,30.14563,-147.240601,,,
729707157.709481,1.004873,3.616641,123.321357,-0.054962,0.019348,0.995865,0.007952,-0.007611,-0.020911,62.21933,30.14563,-147.240601,,,
729707157.71028,1.004862,3.616608,-20.588817,-0.054962,0.019348,0.995865,0.007952,-0.007611,-0.020911,62.21933,30.14563,-147.240601,,,
729707157.712795,1.005953,3.613612,123.315153,-0.056351,0.019485,0.998932,0.007952,-0.007611,-0.020911,62.21933,30.14563,-147.240601,,,
729707157.71467,1.005942,3.61358,-20.595023,-0.056351,0.019485,0.998932,0.007952,-0.007611,-0.020911,62.21933,30.14563,-147.240601,,,
729707157.716173,1.005953,3.613612,123.315153,-0.056351,0.019485,0.998932,0.007952,-0.007611,-0.020911,62.21933,30.14563,-147.240601,,,
729707157.717251,1.007017,3.605359,-20.60161,-0.056351,0.019485,0.998932,0.004735,-0.005826,-0.024444,62.21933,30.14563,-147.240601,,,
729707157.719498,1.007028,3.605392,123.308567,-0.056351,0.019485,0.998932,0.004735,-0.005826,-0.024444,62.21933,30.14563,-147.240601,,,
729707157.720278,1.007017,3.605359,-20.60161,-0.056351,0.019485,0.998932,0.004735,-0.005826,-0.024444,62.21933,30.14563,-147.240601,,,
729707157.722793,1.007471,3.604107,123.302348,-0.061203,0.020126,1.008423,0.004735,-0.005826,-0.024444,62.21933,30.14563,-147.240601,,,
729707157.724384,1.00746,3.604074,-20.607828,-0.061203,0.020126,1.008423,0.004735,-0.005826,-0.024444,62.21933,30.14563,-147.240601,,,
729707157.726129,1.007471,3.604107,123.302348,-0.061203,0.020126,1.008423,0.004735,-0.005826,-0.024444,62.21933,30.14563,-147.240601,,,
729707157.728115,1.008084,3.599286,-20.612787,-0.061203,0.020126,1.008423,0.004125,0.006452,-0.016329,62.21933,30.14563,-147.240601,,,
729707157.729568,1.008095,3.599319,123.297394,-0.061203,0.020126,1.008423,0.004125,0.006452,-0.016329,62.21933,30.14563,-147.240601,,,
729707157.730283,1.008084,3.599286,-20.612787,-0.061203,0.020126,1.008423,0.004125,0.006452,-0.016329,62.21933,30.14563,-147.240601,,,
729707157.732805,1.008773,3.601067,123.293825,-0.060181,0.018997,1.011917,0.004125,0.006452,-0.016329,62.21933,30.14563,-147.240601,,,
729707157.733935,1.008762,3.601034,-20.616358,-0.060181,0.018997,1.011917,0.004125,0.006452,-0.016329,62.21933,30.14563,-147.240601,,,
729707157.736135,1.008773,3.601067,123.293825,-0.060181,0.018997,1.011917,0.004125,0.006452,-0.016329,62.21933,30.14563,-147.240601,,,
729707157.737495,1.009382,3.599733,-20.618482,-0.060181,0.018997,1.011917,0.003972,0.015428,-0.006776,62.21933,30.14563,-147.240601,,,
729707157.739487,1.009393,3.599766,123.291702,-0.060181,0.018997,1.011917,0.003972,0.015428,-0.006776,62.21933,30.14563,-147.240601,,,
729707157.740283,1.009382,3.599733,-20.618482,-0.060181,0.018997,1.011917,0.003972,0.015428,-0.006776,62.21933,30.14563,-147.240601,,,
729707157.742799,1.010349,3.60527,123.290549,-0.060791,0.018311,1.011856,0.003972,0.015428,-0.006776,62.252991,30.316452,-147.369553,,,
729707157.744552,1.010338,3.605237,-20.619621,-0.060791,0.018311,1.011856,0.003972,0.015428,-0.006776,62.252991,30.316452,-147.369553,,,
729707157.746136,1.010349,3.60527,123.290549,-0.060791,0.018311,1.011856,0.003972,0.015428,-0.006776,62.252991,30.316452,-147.369553,,,
729707157.747577,1.011632,3.611862,-20.62002,-0.060791,0.018311,1.011856,0.007581,0.045641,-0.001748,62.252991,30.316452,-147.369553,,,
729707157.749483,1.011643,3.611894,123.290154,-0.060791,0.018311,1.011856,0.007581,0.045641,-0.001748,62.252991,30.316452,-147.369553,,,
729707157.750283,1.011632,3.611862,-20.62002,-0.060791,0.018311,1.011856,0.007581,0.045641,-0.001748,62.252991,30.316452,-147.369553,,,
729707157.752798,1.013778,3.62657,123.290059,-0.056717,0.02037,1.017075,0.007581,0.045641,-0.001748,62.252991,30.316452,-147.369553,,,
729707157.754174,1.013767,3.626538,-20.620119,-0.056717,0.02037,1.017075,0.007581,0.045641,-0.001748,62.252991,30.316452,-147.369553,,,
729707157.756134,1.013778,3.62657,123.290059,-0.056717,0.02037,1.017075,0.007581,0.045641,-0.001748,62.252991,30.316452,-147.369553,,,
729707157.758952,1.016522,3.642769,-20.619493,-0.056717,0.02037,1.017075,0.010184,0.07117,0.003207,62.252991,30.316452,-147.369553,,,
729707157.759524,1.016533,3.642802,123.290688,-0.056717,0.02037,1.017075,0.010184,0.07117,0.003207,62.252991,30.316452,-147.369553,,,
729707157.760286,1.016522,3.642769,-20.619493,-0.056717,0.02037,1.017075,0.010184,0.07117,0.003207,62.252991,30.316452,-147.369553,,,
729707157.762795,1.018606,3.663581,123.292457,-0.062637,0.025223,1.01445,0.010184,0.07117,0.003207,62.252991,30.316452,-147.369553,,,
729707157.764427,1.018595,3.663549,-20.617724,-0.062637,0.025223,1.01445,0.010184,0.07117,0.003207,62.252991,30.316452,-147.369553,,,
729707157.766213,1.018606,3.663581,123.292457,-0.062637,0.025223,1.01445,0.010184,0.07117,0.003207,62.252991,30.316452,-147.369553,,,
729707157.769007,1.019277,3.683445,-20.614317,-0.062637,0.025223,1.01445,-0.002619,0.080393,0.013527,62.252991,30.316452,-147.369553,,,
729707157.769491,1.019288,3.683477,123.295869,-0.062637,0.025223,1.01445,-0.002619,0.080393,0.013527,62.252991,30.316452,-147.369553,,,
729707157.770293,1.019277,3.683445,-20.614317,-0.062637,0.025223,1.01445,-0.002619,0.080393,0.013527,62.252991,30.316452,-147.369553,,,
729707157.772799,1.01783,3.704633,123.300936,-0.069489,0.028259,1.005981,-0.002619,0.080393,0.013527,62.252991,30.316452,-147.369553,,,
729707157.774199,1.017819,3.704601,-20.609249,-0.069489,0.028259,1.005981,-0.002619,0.080393,0.013527,62.252991,30.316452,-147.369553,,,
729707157.776159,1.01783,3.704633,123.300936,-0.069489,0.028259,1.005981,-0.002619,0.080393,0.013527,62.252991,30.316452,-147.369553,,,
729707157.778366,1.014427,3.720466,-20.602734,-0.069489,0.028259,1.005981,-0.018082,0.057331,0.022338,62.252991,30.316452,-147.369553,,,
729707157.779554,1.014438,3.720499,123.30744,-0.069489,0.028259,1.005981,-0.018082,0.057331,0.022338,62.252991,30.316452,-147.369553,,,
729707157.780276,1.014427,3.720466,-20.602734,-0.069489,0.028259,1.005981,-0.018082,0.057331,0.022338,62.252991,30.316452,-147.369553,,,
729707157.782804,1.008725,3.733397,123.315465,-0.0737,0.030136,1.002548,-0.018082,0.057331,0.022338,62.252991,30.316452,-147.369553,,,
729707157.78521,1.008714,3.733365,-20.594709,-0.0737,0.030136,1.002548,-0.018082,0.057331,0.022338,62.293686,30.455887,-147.391647,,,
729707157.786162,1.008725,3.733397,123.315465,-0.0737,0.030136,1.002548,-0.018082,0.057331,0.022338,62.293686,30.455887,-147.391647,,,
729707157.788359,1.002373,3.739181,-20.585481,-0.0737,0.030136,1.002548,-0.025072,0.023647,0.029973,62.293686,30.455887,-147.391647,,,
729707157.789515,1.002383,3.739214,123.324692,-0.0737,0.030136,1.002548,-0.025072,0.023647,0.029973,62.293686,30.455887,-147.391647,,,
729707157.790286,1.002373,3.739181,-20.585481,-0.0737,0.030136,1.002548,-0.025072,0.023647,0.029973,62.293686,30.455887,-147.391647,,,
729707157.792807,0.994816,3.742831,123.334279,-0.073822,0.03479,1.00473,-0.025072,0.023647,0.029973,62.293686,30.455887,-147.391647,,,
729707157.794168,0.994805,3.742799,-20.575897,-0.073822,0.03479,1.00473,-0.025072,0.023647,0.029973,62.293686,30.455887,-147.391647,,,
729707157.796153,0.994816,3.742831,123.334279,-0.073822,0.03479,1.00473,-0.025072,0.023647,0.029973,62.293686,30.455887,-147.391647,,,
729707157.79851,0.987305,3.741314,-20.566965,-0.073822,0.03479,1.00473,-0.02648,-0.001913,0.025143,62.293686,30.455887,-147.391647,,,
729707157.799517,0.987316,3.741346,123.343212,-0.073822,0.03479,1.00473,-0.02648,-0.001913,0.025143,62.293686,30.455887,-147.391647,,,
729707157.800307,0.987305,3.741314,-20.566965,-0.073822,0.03479,1.00473,-0.02648,-0.001913,0.025143,62.293686,30.455887,-147.391647,,,
729707157.802803,0.979813,3.739032,123.351198,-0.069031,0.037643,1.007767,-0.02648,-0.001913,0.025143,62.293686,30.455887,-147.391647,,,
729707157.804652,0.979802,3.739,-20.55898,-0.069031,0.037643,1.007767,-0.02648,-0.001913,0.025143,62.293686,30.455887,-147.391647,,,
729707157.806144,0.979813,3.739032,123.351198,-0.069031,0.037643,1.007767,-0.02648,-0.001913,0.025143,62.293686,30.455887,-147.391647,,,
729707157.808213,0.972723,3.734457,-20.551335,-0.069031,0.037643,1.007767,-0.026628,-0.008608,0.02263,62.293686,30.455887,-147.391647,,,
729707157.809481,0.972734,3.734489,123.358843,-0.069031,0.037643,1.007767,-0.026628,-0.008608,0.02263,62.293686,30.455887,-147.391647,,,
729707157.81028,0.972723,3.734457,-20.551335,-0.069031,0.037643,1.007767,-0.026628,-0.008608,0.02263,62.293686,30.455887,-147.391647,,,
729707157.812823,0.965828,3.731858,123.366525,-0.070404,0.029694,1.01268,-0.026628,-0.008608,0.02263,62.293686,30.455887,-147.391647,,,
729707157.814104,0.965817,3.731825,-20.543656,-0.070404,0.029694,1.01268,-0.026628,-0.008608,0.02263,62.293686,30.455887,-147.391647,,,
729707157.81617,0.965828,3.731858,123.366525,-0.070404,0.029694,1.01268,-0.026628,-0.008608,0.02263,62.293686,30.455887,-147.391647,,,
729707157.819207,0.960466,3.730115,-20.535307,-0.070404,0.029694,1.01268,-0.018204,0.006319,0.027712,62.293686,30.455887,-147.391647,,,
729707157.819759,0.960477,3.730147,123.374872,-0.070404,0.029694,1.01268,-0.018204,0.006319,0.027712,62.293686,30.455887,-147.391647,,,
729707157.820323,0.960466,3.730115,-20.535307,-0.070404,0.029694,1.01268,-0.018204,0.006319,0.027712,62.293686,30.455887,-147.391647,,,
729707157.822835,0.956257,3.731528,123.384821,-0.069733,0.025726,1.021118,-0.018204,0.006319,0.027712,62.293686,30.455887,-147.391647,,,
729707157.82421,0.956246,3.731495,-20.525357,-0.069733,0.025726,1.021118,-0.018204,0.006319,0.027712,62.293686,30.455887,-147.391647,,,
729707157.82615,0.956257,3.731528,123.384821,-0.069733,0.025726,1.021118,-0.018204,0.006319,0.027712,62.332199,30.492447,-147.229126,,,
729707157.828559,0.954132,3.732205,-20.513034,-0.069733,0.025726,1.021118,-0.007521,0.013324,0.044742,62.332199,30.492447,-147.229126,,,
729707157.829573,0.954143,3.732238,123.397144,-0.069733,0.025726,1.021118,-0.007521,0.013324,0.044742,62.332199,30.492447,-147.229126,,,
729707157.830296,0.954132,3.732205,-20.513034,-0.069733,0.025726,1.021118,-0.007521,0.013324,0.044742,62.332199,30.492447,-147.229126,,,
729707157.832811,0.95401,3.734395,123.412035,-0.069427,0.022293,1.023331,-0.007521,0.013324,0.044742,62.332199,30.492447,-147.229126,,,
729707157.834163,0.953999,3.734363,-20.498144,-0.069427,0.022293,1.023331,-0.007521,0.013324,0.044742,62.332199,30.492447,-147.229126,,,
729707157.836146,0.95401,3.734395,123.412035,-0.069427,0.022293,1.023331,-0.007521,0.013324,0.044742,62.332199,30.492447,-147.229126,,,
729707157.839153,0.957236,3.734483,-20.480933,-0.069427,0.022293,1.023331,0.008235,0.010997,0.061769,62.332199,30.492447,-147.229126,,,
729707157.839504,0.957247,3.734516,123.429243,-0.069427,0.022293,1.023331,0.008235,0.010997,0.061769,62.332199,30.492447,-147.229126,,,
729707157.840284,0.957236,3.734483,-20.480933,-0.069427,0.022293,1.023331,0.008235,0.010997,0.061769,62.332199,30.492447,-147.229126,,,
729707157.842815,0.962302,3.736476,123.447868,-0.068771,0.021637,1.022522,0.008235,0.010997,0.061769,62.332199,30.492447,-147.229126,,,
729707157.844222,0.962291,3.736443,-20.462313,-0.068771,0.021637,1.022522,0.008235,0.010997,0.061769,62.332199,30.492447,-147.229126,,,
729707157.846159,0.962302,3.736476,123.447868,-0.068771,0.021637,1.022522,0.008235,0.010997,0.061769,62.332199,30.492447,-147.229126,,,
729707157.84766,0.962291,3.738404,-20.443062,-0.068771,0.021637,1.022522,0.028245,0.010563,0.067519,62.332199,30.492447,-147.229126,,,
729707157.849492,0.971705,3.738436,123.467122,-0.068771,0.021637,1.022522,0.028245,0.010563,0.067519,62.332199,30.492447,-147.229126,,,
729707157.85063,0.971694,3.738404,-20.443062,-0.068771,0.021637,1.022522,0.028245,0.010563,0.067519,62.332199,30.492447,-147.229126,,,
729707157.852895,0.982664,3.741175,123.48592,-0.061981,0.0224,1.026566,0.028245,0.010563,0.067519,62.332199,30.492447,-147.229126,,,
729707157.854606,0.982653,3.741142,-20.424265,-0.061981,0.0224,1.026566,0.028245,0.010563,0.067519,62.332199,30.492447,-147.229126,,,
729707157.856218,0.982664,3.741175,123.48592,-0.061981,0.0224,1.026566,0.028245,0.010563,0.067519,62.332199,30.492447,-147.229126,,,
729707157.858472,0.998202,3.746979,-20.406812,-0.061981,0.0224,1.026566,0.051043,0.025781,0.059786,62.332199,30.492447,-147.229126,,,
729707157.859491,0.998213,3.747011,123.503375,-0.061981,0.0224,1.026566,0.051043,0.025781,0.059786,62.332199,30.492447,-147.229126,,,
729707157.860284,0.998202,3.746979,-20.406812,-0.061981,0.0224,1.026566,0.051043,0.025781,0.059786,62.332199,30.492447,-147.229126,,,
729707157.862873,1.015201,3.75462,123.518955,-0.061508,0.026138,1.025284,0.051043,0.025781,0.059786,62.332199,30.492447,-147.229126,,,
729707157.86436,1.01519,3.754587,-20.391215,-0.061508,0.026138,1.025284,0.051043,0.025781,0.059786,62.332199,30.492447,-147.229126,,,
729707157.866141,1.015201,3.75462,123.518955,-0.061508,0.026138,1.025284,0.051043,0.025781,0.059786,62.277679,30.455566,-147.165833,,,
729707157.868219,1.01519,3.754587,-20.391215,-0.061508,0.026138,1.025284,0.067838,0.04567,0.04575,62.277679,30.455566,-147.165833,,,
729707157.869483,1.035975,3.766396,123.532357,-0.061508,0.026138,1.025284,0.067838,0.04567,0.04575,62.277679,30.455566,-147.165833,,,
729707157.871115,1.035964,3.766364,-20.377819,-0.061508,0.026138,1.025284,0.067838,0.04567,0.04575,62.277679,30.455566,-147.165833,,,
729707157.872808,1.056876,3.779576,123.544467,-0.061295,0.027115,1.015488,0.067838,0.04567,0.04575,62.277679,30.455566,-147.165833,,,
729707157.874644,1.056865,3.779544,-20.365712,-0.061295,0.027115,1.015488,0.067838,0.04567,0.04575,62.277679,30.455566,-147.165833,,,
729707157.876153,1.056876,3.779576,123.544467,-0.061295,0.027115,1.015488,0.067838,0.04567,0.04575,62.277679,30.455566,-147.165833,,,
729707157.878148,1.081622,3.794549,-20.353408,-0.061295,0.027115,1.015488,0.08059,0.054293,0.048049,62.277679,30.455566,-147.165833,,,
729707157.879496,1.081633,3.794582,123.556761,-0.061295,0.027115,1.015488,0.08059,0.054293,0.048049,62.277679,30.455566,-147.165833,,,
729707157.880287,1.081622,3.794549,-20.353408,-0.061295,0.027115,1.015488,0.08059,0.054293,0.048049,62.277679,30.455566,-147.165833,,,
729707157.882796,1.105827,3.808433,123.57027,-0.069763,0.024246,1.000641,0.08059,0.054293,0.048049,62.277679,30.455566,-147.165833,,,
729707157.885028,1.105816,3.808401,-20.3399,-0.069763,0.024246,1.000641,0.08059,0.054293,0.048049,62.277679,30.455566,-147.165833,,,
729707157.886143,1.105827,3.808433,123.57027,-0.069763,0.024246,1.000641,0.08059,0.054293,0.048049,62.277679,30.455566,-147.165833,,,
729707157.887416,1.105816,3.808401,-20.3399,-0.069763,0.024246,1.000641,0.081141,0.043947,0.061437,62.277679,30.455566,-147.165833,,,
729707157.889492,1.131851,3.821068,123.585676,-0.069763,0.024246,1.000641,0.081141,0.043947,0.061437,62.277679,30.455566,-147.165833,,,
729707157.891103,1.13184,3.821035,-20.324491,-0.069763,0.024246,1.000641,0.081141,0.043947,0.061437,62.277679,30.455566,-147.165833,,,
729707157.892832,1.156335,3.830862,123.603236,-0.078171,0.023819,0.982849,0.081141,0.043947,0.061437,62.277679,30.455566,-147.165833,,,
729707157.89481,1.156324,3.830829,-20.306943,-0.078171,0.023819,0.982849,0.081141,0.043947,0.061437,62.277679,30.455566,-147.165833,,,
729707157.896211,1.156335,3.830862,123.603236,-0.078171,0.023819,0.982849,0.081141,0.043947,0.061437,62.277679,30.455566,-147.165833,,,
729707157.897438,1.156324,3.830829,-20.306943,-0.078171,0.023819,0.982849,0.079894,0.015328,0.075741,62.277679,30.455566,-147.165833,,,
729707157.899498,1.181641,3.83687,123.622836,-0.078171,0.023819,0.982849,0.079894,0.015328,0.075741,62.277679,30.455566,-147.165833,,,
729707157.901108,1.18163,3.836838,-20.287338,-0.078171,0.023819,0.982849,0.079894,0.015328,0.075741,62.277679,30.455566,-147.165833,,,
729707157.902811,1.205763,3.837262,123.643758,-0.081543,0.024109,0.968063,0.079894,0.015328,0.075741,62.277679,30.455566,-147.165833,,,
729707157.904399,1.205752,3.83723,-20.266415,-0.081543,0.024109,0.968063,0.079894,0.015328,0.075741,62.277679,30.455566,-147.165833,,,
729707157.906174,1.205763,3.837262,123.643758,-0.081543,0.024109,0.968063,0.079894,0.015328,0.075741,62.277679,30.455566,-147.165833,,,
729707157.909187,1.205752,3.83723,-20.266415,-0.081543,0.024109,0.968063,0.07197,-0.024859,0.079953,62.341721,30.07515,-147.004669,,,
729707157.909504,1.229198,3.832044,123.665353,-0.081543,0.024109,0.968063,0.07197,-0.024859,0.079953,62.341721,30.07515,-147.004669,,,
729707157.911145,1.229187,3.832011,-20.244822,-0.081543,0.024109,0.968063,0.07197,-0.024859,0.079953,62.341721,30.07515,-147.004669,,,
729707157.912811,1.250367,3.820256,123.687664,-0.084839,0.024872,0.96254,0.07197,-0.024859,0.079953,62.341721,30.07515,-147.004669,,,
729707157.914645,1.250356,3.820223,-20.222508,-0.084839,0.024872,0.96254,0.07197,-0.024859,0.079953,62.341721,30.07515,-147.004669,,,
729707157.916162,1.250367,3.820256,123.687664,-0.084839,0.024872,0.96254,0.07197,-0.024859,0.079953,62.341721,30.07515,-147.004669,,,
729707157.918535,1.270145,3.80243,-20.201124,-0.084839,0.024872,0.96254,0.063707,-0.070991,0.072961,62.341721,30.07515,-147.004669,,,
729707157.919473,1.270156,3.802463,123.709048,-0.084839,0.024872,0.96254,0.063707,-0.070991,0.072961,62.341721,30.07515,-147.004669,,,
729707157.920281,1.270145,3.80243,-20.201124,-0.084839,0.024872,0.96254,0.063707,-0.070991,0.072961,62.341721,30.07515,-147.004669,,,
729707157.922796,1.289553,3.77794,123.729013,-0.081192,0.02594,0.964355,0.063707,-0.070991,0.072961,62.341721,30.07515,-147.004669,,,
729707157.924659,1.289542,3.777907,-20.18116,-0.081192,0.02594,0.964355,0.063707,-0.070991,0.072961,62.341721,30.07515,-147.004669,,,
729707157.926158,1.289553,3.77794,123.729013,-0.081192,0.02594,0.964355,0.063707,-0.070991,0.072961,62.341721,30.07515,-147.004669,,,
729707157.9276,1.289542,3.777907,-20.18116,-0.081192,0.02594,0.964355,0.069743,-0.103839,0.063023,62.341721,30.07515,-147.004669,,,
729707157.92949,1.309487,3.748336,123.747523,-0.081192,0.02594,0.964355,0.069743,-0.103839,0.063023,62.341721,30.07515,-147.004669,,,
729707157.93108,1.309476,3.748303,-20.162652,-0.081192,0.02594,0.964355,0.069743,-0.103839,0.063023,62.341721,30.07515,-147.004669,,,
729707157.932801,1.331182,3.716136,123.76344,-0.073975,0.024536,0.975082,0.069743,-0.103839,0.063023,62.341721,30.07515,-147.004669,,,
729707157.935008,1.33117,3.716104,-20.146738,-0.073975,0.024536,0.975082,0.069743,-0.103839,0.063023,62.341721,30.07515,-147.004669,,,
729707157.936143,1.331182,3.716136,123.76344,-0.073975,0.024536,0.975082,0.069743,-0.103839,0.063023,62.341721,30.07515,-147.004669,,,
729707157.936953,1.33117,3.716104,-20.146738,-0.073975,0.024536,0.975082,0.069743,-0.103839,0.063023,62.341721,30.07515,-147.004669,,,
729707157.93948,1.354861,3.681722,123.777193,-0.073975,0.024536,0.975082,0.083322,-0.112426,0.048572,62.341721,30.07515,-147.004669,,,
729707157.94168,1.35485,3.681689,-20.132987,-0.073975,0.024536,0.975082,0.083322,-0.112426,0.048572,62.341721,30.07515,-147.004669,,,
729707157.942882,1.38077,3.64838,123.788596,-0.063858,0.019196,0.988602,0.083322,-0.112426,0.048572,62.341721,30.07515,-147.004669,,,
729707157.944934,1.380759,3.648348,-20.121589,-0.063858,0.019196,0.988602,0.083322,-0.112426,0.048572,62.341721,30.07515,-147.004669,,,
729707157.946165,1.38077,3.64838,123.788596,-0.063858,0.019196,0.988602,0.083322,-0.112426,0.048572,62.341721,30.07515,-147.004669,,,
729707157.946953,1.380759,3.648348,-20.121589,-0.063858,0.019196,0.988602,0.083322,-0.112426,0.048572,62.341721,30.07515,-147.004669,,,
729707157.94955,1.409247,3.615389,123.798431,-0.063858,0.019196,0.988602,0.09978,-0.103965,0.03848,62.284515,30.048111,-147.140717,,,
729707157.952298,1.409236,3.615356,-20.111743,-0.063858,0.019196,0.988602,0.09978,-0.103965,0.03848,62.284515,30.048111,-147.140717,,,
729707157.952797,1.43996,3.586008,123.807611,-0.056625,0.015762,0.992966,0.09978,-0.103965,0.03848,62.284515,30.048111,-147.140717,,,
729707157.954433,1.439949,3.585975,-20.102568,-0.056625,0.015762,0.992966,0.09978,-0.103965,0.03848,62.284515,30.048111,-147.140717,,,
729707157.956153,1.43996,3.586008,123.807611,-0.056625,0.015762,0.992966,0.09978,-0.103965,0.03848,62.284515,30.048111,-147.140717,,,
729707157.956954,1.439949,3.585975,-20.102568,-0.056625,0.015762,0.992966,0.09978,-0.103965,0.03848,62.284515,30.048111,-147.140717,,,
729707157.959486,1.472875,3.561251,123.816696,-0.056625,0.015762,0.992966,0.114032,-0.073409,0.038673,62.284515,30.048111,-147.140717,,,
729707157.961515,1.472864,3.561219,-20.093484,-0.056625,0.015762,0.992966,0.114032,-0.073409,0.038673,62.284515,30.048111,-147.140717,,,
729707157.962802,1.507011,3.542602,123.826354,-0.048615,0.013199,1.000793,0.114032,-0.073409,0.038673,62.284515,30.048111,-147.140717,,,
729707157.96502,1.507,3.542569,-20.083829,-0.048615,0.013199,1.000793,0.114032,-0.073409,0.038673,62.284515,30.048111,-147.140717,,,
729707157.966156,1.507011,3.542602,123.826354,-0.048615,0.013199,1.000793,0.114032,-0.073409,0.038673,62.284515,30.048111,-147.140717,,,
729707157.966952,1.507,3.542569,-20.083829,-0.048615,0.013199,1.000793,0.114032,-0.073409,0.038673,62.284515,30.048111,-147.140717,,,
729707157.969483,1.542046,3.532884,123.836712,-0.048615,0.013199,1.000793,0.123512,-0.029639,0.04459,62.284515,30.048111,-147.140717,,,
729707157.971485,1.542035,3.532851,-20.073474,-0.048615,0.013199,1.000793,0.123512,-0.029639,0.04459,62.284515,30.048111,-147.140717,,,
729707157.972804,1.57804,3.526637,123.848466,-0.044891,0.013397,1.002716,0.123512,-0.029639,0.04459,62.284515,30.048111,-147.140717,,,
729707157.974333,1.578029,3.526604,-20.061717,-0.044891,0.013397,1.002716,0.123512,-0.029639,0.04459,62.284515,30.048111,-147.140717,,,
729707157.976215,1.57804,3.526637,123.848466,-0.044891,0.013397,1.002716,0.123512,-0.029639,0.04459,62.284515,30.048111,-147.140717,,,
729707157.976977,1.578029,3.526604,-20.061717,-0.044891,0.013397,1.002716,0.123512,-0.029639,0.04459,62.284515,30.048111,-147.140717,,,
729707157.979478,1.612713,3.531382,123.861187,-0.044891,0.013397,1.002716,0.11769,0.017308,0.051768,62.284515,30.048111,-147.140717,,,
729707157.982265,1.612701,3.53135,-20.048996,-0.044891,0.013397,1.002716,0.11769,0.017308,0.051768,62.284515,30.048111,-147.140717,,,
729707157.982823,1.646672,3.538126,123.874491,-0.042084,0.016495,0.997498,0.11769,0.017308,0.051768,62.284515,30.048111,-147.140717,,,
729707157.984679,1.646661,3.538093,-20.035691,-0.042084,0.016495,0.997498,0.11769,0.017308,0.051768,62.284515,30.048111,-147.140717,,,
729707157.98615,1.646672,3.538126,123.874491,-0.042084,0.016495,0.997498,0.11769,0.017308,0.051768,62.284515,30.048111,-147.140717,,,
729707157.987027,1.646661,3.538093,-20.035691,-0.042084,0.016495,0.997498,0.11769,0.017308,0.051768,62.284515,30.048111,-147.140717,,,
729707157.989543,1.678214,3.55602,123.887563,-0.042084,0.016495,0.997498,0.105723,0.052878,0.050618,62.426697,29.558853,-147.284561,,,
729707157.992099,1.678202,3.555988,-20.022621,-0.042084,0.016495,0.997498,0.105723,0.052878,0.050618,62.426697,29.558853,-147.284561,,,
729707157.992809,1.708544,3.571019,123.900184,-0.043564,0.025711,0.993713,0.105723,0.052878,0.050618,62.426697,29.558853,-147.284561,,,
729707157.994909,1.708533,3.570987,-20.010002,-0.043564,0.025711,0.993713,0.105723,0.052878,0.050618,62.426697,29.558853,-147.284561,,,
729707157.99615,1.708544,3.571019,123.900184,-0.043564,0.025711,0.993713,0.105723,0.052878,0.050618,62.426697,29.558853,-147.284561,,,
729707157.996979,1.708533,3.570987,-20.010002,-0.043564,0.025711,0.993713,0.105723,0.052878,0.050618,62.426697,29.558853,-147.284561,,,
729707157.999474,1.736553,3.593046,123.911487,-0.043564,0.025711,0.993713,0.095628,0.060448,0.042223,62.426697,29.558853,-147.284561,,,
729707158.001725,1.736541,3.593014,-19.998679,-0.043564,0.025711,0.993713,0.095628,0.060448,0.042223,62.426697,29.558853,-147.284561,,,
729707158.002862,1.763133,3.608365,123.921332,-0.049042,0.033371,0.98703,0.095628,0.060448,0.042223,62.426697,29.558853,-147.284561,,,
729707158.00464,1.763122,3.608333,-19.988847,-0.049042,0.033371,0.98703,0.095628,0.060448,0.042223,62.426697,29.558853,-147.284561,,,
729707158.006161,1.763133,3.608365,123.921332,-0.049042,0.033371,0.98703,0.095628,0.060448,0.042223,62.426697,29.558853,-147.284561,,,
729707158.00698,1.763122,3.608333,-19.988847,-0.049042,0.033371,0.98703,0.095628,0.060448,0.042223,62.426697,29.558853,-147.284561,,,
729707158.00954,1.787661,3.625871,123.928185,-0.049042,0.033371,0.98703,0.088466,0.046781,0.02189,62.426697,29.558853,-147.284561,,,
729707158.011802,1.78765,3.625838,-19.98199,-0.049042,0.033371,0.98703,0.088466,0.046781,0.02189,62.426697,29.558853,-147.284561,,,
729707158.012809,1.813355,3.636585,123.931829,-0.053009,0.03215,0.982468,0.088466,0.046781,0.02189,62.426697,29.558853,-147.284561,,,
729707158.014451,1.813344,3.636553,-19.978342,-0.053009,0.03215,0.982468,0.088466,0.046781,0.02189,62.426697,29.558853,-147.284561,,,
729707158.016209,1.813355,3.636585,123.931829,-0.053009,0.03215,0.982468,0.088466,0.046781,0.02189,62.426697,29.558853,-147.284561,,,
729707158.016975,1.813344,3.636553,-19.978342,-0.053009,0.03215,0.982468,0.088466,0.046781,0.02189,62.426697,29.558853,-147.284561,,,
729707158.019485,1.837373,3.645257,123.932575,-0.053009,0.03215,0.982468,0.089848,0.021633,0.002057,62.426697,29.558853,-147.284561,,,
729707158.021301,1.837361,3.645224,-19.977599,-0.053009,0.03215,0.982468,0.089848,0.021633,0.002057,62.426697,29.558853,-147.284561,,,
729707158.022808,1.862501,3.649052,123.931461,-0.058014,0.025497,0.981461,0.089848,0.021633,0.002057,62.426697,29.558853,-147.284561,,,
729707158.024145,1.86249,3.64902,-19.978717,-0.058014,0.025497,0.981461,0.089848,0.021633,0.002057,62.426697,29.558853,-147.284561,,,
729707158.026152,1.862501,3.649052,123.931461,-0.058014,0.025497,0.981461,0.089848,0.021633,0.002057,62.426697,29.558853,-147.284561,,,
729707158.02701,1.86249,3.64902,-19.978717,-0.058014,0.025497,0.981461,0.089848,0.021633,0.002057,62.426697,29.558853,-147.284561,,,
729707158.02947,1.884372,3.648259,123.929063,-0.058014,0.025497,0.981461,0.084387,-0.004999,-0.007432,62.060104,29.635849,-147.195755,,,
729707158.033642,1.884361,3.648227,-19.981116,-0.058014,0.025497,0.981461,0.084387,-0.004999,-0.007432,62.060104,29.635849,-147.195755,,,
729707158.033936,1.906461,3.644538,123.925607,-0.066544,0.018814,0.974503,0.084387,-0.004999,-0.007432,62.060104,29.635849,-147.195755,,,
729707158.036145,1.906461,3.644538,123.925607,-0.066544,0.018814,0.974503,0.084387,-0.004999,-0.007432,62.060104,29.635849,-147.195755,,,
729707158.038759,1.90645,3.644505,-19.984578,-0.066544,0.018814,0.974503,0.064578,-0.032286,-0.00586,62.060104,29.635849,-147.195755,,,
729707158.039505,1.923087,3.635052,123.922616,-0.066544,0.018814,0.974503,0.064578,-0.032286,-0.00586,62.060104,29.635849,-147.195755,,,
729707158.040834,1.923076,3.635019,-19.987568,-0.066544,0.018814,0.974503,0.064578,-0.032286,-0.00586,62.060104,29.635849,-147.195755,,,
729707158.042805,1.939577,3.623552,123.920553,-0.068954,0.017258,0.972595,0.064578,-0.032286,-0.00586,62.060104,29.635849,-147.195755,,,
729707158.044235,1.939566,3.623519,-19.989631,-0.068954,0.017258,0.972595,0.064578,-0.032286,-0.00586,62.060104,29.635849,-147.195755,,,
729707158.046136,1.939577,3.623552,123.920553,-0.068954,0.017258,0.972595,0.064578,-0.032286,-0.00586,62.060104,29.635849,-147.195755,,,
729707158.046983,1.939566,3.623519,-19.989631,-0.068954,0.017258,0.972595,0.064578,-0.032286,-0.00586,62.060104,29.635849,-147.195755,,,
729707158.049488,1.950599,3.606894,123.919478,-0.068954,0.017258,0.972595,0.044042,-0.049573,-0.000884,62.060104,29.635849,-147.195755,,,
729707158.051511,1.950588,3.606861,-19.990694,-0.068954,0.017258,0.972595,0.044042,-0.049573,-0.000884,62.060104,29.635849,-147.195755,,,
729707158.052814,1.961817,3.591085,123.919363,-0.067856,0.016953,0.979797,0.044042,-0.049573,-0.000884,62.060104,29.635849,-147.195755,,,
729707158.054458,1.961806,3.591053,-19.990813,-0.067856,0.016953,0.979797,0.044042,-0.049573,-0.000884,62.060104,29.635849,-147.195755,,,
729707158.056232,1.961817,3.591085,123.919363,-0.067856,0.016953,0.979797,0.044042,-0.049573,-0.000884,62.060104,29.635849,-147.195755,,,
729707158.056992,1.961806,3.591053,-19.990813,-0.067856,0.016953,0.979797,0.044042,-0.049573,-0.000884,62.060104,29.635849,-147.195755,,,
729707158.059493,1.967712,3.572109,123.918953,-0.067856,0.016953,0.979797,0.025069,-0.050556,-0.004875,62.060104,29.635849,-147.195755,,,
729707158.061184,1.967701,3.572076,-19.991227,-0.067856,0.016953,0.979797,0.025069,-0.050556,-0.004875,62.060104,29.635849,-147.195755,,,
729707158.062798,1.974272,3.557517,123.917313,-0.060349,0.013672,0.987106,0.025069,-0.050556,-0.004875,62.060104,29.635849,-147.195755,,,
729707158.06454,1.974261,3.557484,-19.992866,-0.060349,0.013672,0.987106,0.025069,-0.050556,-0.004875,62.060104,29.635849,-147.195755,,,
729707158.066154,1.974272,3.557517,123.917313,-0.060349,0.013672,0.987106,0.025069,-0.050556,-0.004875,62.060104,29.635849,-147.195755,,,
729707158.066984,1.974261,3.557484,-19.992866,-0.060349,0.013672,0.987106,0.025069,-0.050556,-0.004875,62.060104,29.635849,-147.195755,,,
729707158.069541,1.977554,3.540978,123.914519,-0.060349,0.013672,0.987106,0.016208,-0.038668,-0.014363,62.060104,29.635849,-147.195755,,,
729707158.072437,1.977543,3.540945,-19.995661,-0.060349,0.013672,0.987106,0.016208,-0.038668,-0.014363,62.264297,29.323517,-147.487244,,,
729707158.0728,1.981465,3.530643,123.909811,-0.055161,0.00975,0.992599,0.016208,-0.038668,-0.014363,62.264297,29.323517,-147.487244,,,
729707158.074078,1.981453,3.530611,-20.000372,-0.055161,0.00975,0.992599,0.016208,-0.038668,-0.014363,62.264297,29.323517,-147.487244,,,
729707158.076161,1.981465,3.530643,123.909811,-0.055161,0.00975,0.992599,0.016208,-0.038668,-0.014363,62.264297,29.323517,-147.487244,,,
729707158.07704,1.981453,3.530611,-20.000372,-0.055161,0.00975,0.992599,0.016208,-0.038668,-0.014363,62.264297,29.323517,-147.487244,,,
729707158.079479,1.984366,3.520387,123.903556,-0.055161,0.00975,0.992599,0.01538,-0.016981,-0.025953,62.264297,29.323517,-147.487244,,,
729707158.081212,1.984355,3.520355,-20.00663,-0.055161,0.00975,0.992599,0.01538,-0.016981,-0.025953,62.264297,29.323517,-147.487244,,,
729707158.082803,1.987799,3.516718,123.895911,-0.056442,0.009323,0.995346,0.01538,-0.016981,-0.025953,62.264297,29.323517,-147.487244,,,
729707158.084162,1.987787,3.516685,-20.014275,-0.056442,0.009323,0.995346,0.01538,-0.016981,-0.025953,62.264297,29.323517,-147.487244,,,
729707158.086154,1.987799,3.516718,123.895911,-0.056442,0.009323,0.995346,0.01538,-0.016981,-0.025953,62.264297,29.323517,-147.487244,,,
729707158.086948,1.987787,3.516685,-20.014275,-0.056442,0.009323,0.995346,0.01538,-0.016981,-0.025953,62.264297,29.323517,-147.487244,,,
729707158.089485,1.990983,3.513345,123.88757,-0.056442,0.009323,0.995346,0.015258,0.000885,-0.031337,62.264297,29.323517,-147.487244,,,
729707158.092144,1.990972,3.513312,-20.022602,-0.056442,0.009323,0.995346,0.015258,0.000885,-0.031337,62.264297,29.323517,-147.487244,,,
729707158.09285,1.994182,3.513401,123.878883,-0.059647,0.008621,0.993591,0.015258,0.000885,-0.031337,62.264297,29.323517,-147.487244,,,
729707158.094096,1.99417,3.513368,-20.031291,-0.059647,0.008621,0.993591,0.015258,0.000885,-0.031337,62.264297,29.323517,-147.487244,,,
729707158.096139,1.994182,3.513401,123.878883,-0.059647,0.008621,0.993591,0.015258,0.000885,-0.031337,62.264297,29.323517,-147.487244,,,
729707158.096944,1.99417,3.513368,-20.031291,-0.059647,0.008621,0.993591,0.015258,0.000885,-0.031337,62.264297,29.323517,-147.487244,,,
729707158.099479,1.996105,3.512244,123.870152,-0.059647,0.008621,0.993591,0.012926,0.00201,-0.032082,62.264297,29.323517,-147.487244,,,
729707158.101064,1.996094,3.512212,-20.040022,-0.059647,0.008621,0.993591,0.012926,0.00201,-0.032082,62.264297,29.323517,-147.487244,,,
729707158.102827,1.999116,3.512396,123.861877,-0.061569,0.006592,0.985962,0.012926,0.00201,-0.032082,62.264297,29.323517,-147.487244,,,
729707158.103891,1.999105,3.512364,-20.048301,-0.061569,0.006592,0.985962,0.012926,0.00201,-0.032082,62.264297,29.323517,-147.487244,,,
729707158.10618,1.999116,3.512396,123.861877,-0.061569,0.006592,0.985962,0.012926,0.00201,-0.032082,62.264297,29.323517,-147.487244,,,
729707158.106943,1.999105,3.512364,-20.048301,-0.061569,0.006592,0.985962,0.012926,0.00201,-0.032082,62.264297,29.323517,-147.487244,,,
729707158.109464,1.999365,3.512687,123.854339,-0.061569,0.006592,0.985962,0.010249,-0.001506,-0.026978,62.264297,29.323517,-147.487244,,,
729707158.112363,1.999354,3.512655,-20.055844,-0.061569,0.006592,0.985962,0.010249,-0.001506,-0.026978,62.090103,29.415787,-147.225281,,,
729707158.112828,2.001595,3.511282,123.847598,-0.066269,0.007339,0.979309,0.010249,-0.001506,-0.026978,62.090103,29.415787,-147.225281,,,
729707158.114076,2.001584,3.51125,-20.062572,-0.066269,0.007339,0.979309,0.010249,-0.001506,-0.026978,62.090103,29.415787,-147.225281,,,
729707158.116158,2.001595,3.511282,123.847598,-0.066269,0.007339,0.979309,0.010249,-0.001506,-0.026978,62.090103,29.415787,-147.225281,,,
729707158.116964,2.001584,3.51125,-20.062572,-0.066269,0.007339,0.979309,0.010249,-0.001506,-0.026978,62.090103,29.415787,-147.225281,,,
729707158.119536,2.000486,3.511863,123.841204,-0.066269,0.007339,0.979309,0.008797,-0.002368,-0.024176,62.090103,29.415787,-147.225281,,,
729707158.120931,2.000475,3.511831,-20.068963,-0.066269,0.007339,0.979309,0.008797,-0.002368,-0.024176,62.090103,29.415787,-147.225281,,,
729707158.122826,2.002372,3.511781,123.834166,-0.061905,0.01712,0.977722,0.008797,-0.002368,-0.024176,62.090103,29.415787,-147.225281,,,
729707158.124321,2.002361,3.511749,-20.075999,-0.061905,0.01712,0.977722,0.008797,-0.002368,-0.024176,62.090103,29.415787,-147.225281,,,
729707158.126222,2.002372,3.511781,123.834166,-0.061905,0.01712,0.977722,0.008797,-0.002368,-0.024176,62.090103,29.415787,-147.225281,,,
729707158.126906,2.002361,3.511749,-20.075999,-0.061905,0.01712,0.977722,0.008797,-0.002368,-0.024176,62.090103,29.415787,-147.225281,,,
729707158.12943,2.000741,3.51595,123.826072,-0.061905,0.01712,0.977722,0.0032,0.014265,-0.031496,62.090103,29.415787,-147.225281,,,
729707158.131509,2.00073,3.515917,-20.084098,-0.061905,0.01712,0.977722,0.0032,0.014265,-0.031496,62.090103,29.415787,-147.225281,,,
729707158.132768,1.999857,3.520466,123.816971,-0.058395,0.02533,0.977493,0.0032,0.014265,-0.031496,62.090103,29.415787,-147.225281,,,
729707158.133849,1.999846,3.520433,-20.093198,-0.058395,0.02533,0.977493,0.0032,0.014265,-0.031496,62.090103,29.415787,-147.225281,,,
729707158.136133,1.999857,3.520466,123.816971,-0.058395,0.02533,0.977493,0.0032,0.014265,-0.031496,62.090103,29.415787,-147.225281,,,
729707158.136877,1.999846,3.520433,-20.093198,-0.058395,0.02533,0.977493,0.0032,0.014265,-0.031496,62.090103,29.415787,-147.225281,,,
729707158.139483,1.994206,3.526276,123.806891,-0.058395,0.02533,0.977493,-0.012604,0.018052,-0.03908,62.090103,29.415787,-147.225281,,,
729707158.141574,1.994195,3.526243,-20.103277,-0.058395,0.02533,0.977493,-0.012604,0.018052,-0.03908,62.090103,29.415787,-147.225281,,,
729707158.142764,1.987712,3.531252,123.795795,-0.058517,0.034393,0.969894,-0.012604,0.018052,-0.03908,62.090103,29.415787,-147.225281,,,
729707158.143793,1.987701,3.53122,-20.114375,-0.058517,0.034393,0.969894,-0.012604,0.018052,-0.03908,62.090103,29.415787,-147.225281,,,
729707158.146112,1.987712,3.531252,123.795795,-0.058517,0.034393,0.969894,-0.012604,0.018052,-0.03908,62.090103,29.415787,-147.225281,,,
729707158.146846,1.987701,3.53122,-20.114375,-0.058517,0.034393,0.969894,-0.012604,0.018052,-0.03908,62.090103,29.415787,-147.225281,,,
729707158.149443,1.974642,3.535035,123.784149,-0.058517,0.034393,0.969894,-0.038637,0.014281,-0.044669,62.090103,29.415787,-147.225281,,,
729707158.150694,1.974631,3.535002,-20.126023,-0.058517,0.034393,0.969894,-0.038637,0.014281,-0.044669,62.090103,29.415787,-147.225281,,,
729707158.152768,1.961465,3.538091,123.772456,-0.062485,0.040665,0.968063,-0.038637,0.014281,-0.044669,62.368362,29.400757,-147.413162,,,
729707158.154033,1.961454,3.538058,-20.137717,-0.062485,0.040665,0.968063,-0.038637,0.014281,-0.044669,62.368362,29.400757,-147.413162,,,
729707158.156111,1.961465,3.538091,123.772456,-0.062485,0.040665,0.968063,-0.038637,0.014281,-0.044669,62.368362,29.400757,-147.413162,,,
729707158.15685,1.961454,3.538058,-20.137717,-0.062485,0.040665,0.968063,-0.038637,0.014281,-0.044669,62.368362,29.400757,-147.413162,,,
729707158.159446,1.94318,3.538775,123.760521,-0.062485,0.040665,0.968063,-0.055224,0.004157,-0.047633,62.368362,29.400757,-147.413162,,,
729707158.160706,1.943169,3.538743,-20.149656,-0.062485,0.040665,0.968063,-0.055224,0.004157,-0.047633,62.368362,29.400757,-147.413162,,,
729707158.162712,1.925173,3.538604,123.747535,-0.06398,0.042297,0.97142,-0.055224,0.004157,-0.047633,62.368362,29.400757,-147.413162,,,
729707158.163653,1.925162,3.538571,-20.162646,-0.06398,0.042297,0.97142,-0.055224,0.004157,-0.047633,62.368362,29.400757,-147.413162,,,
729707158.166056,1.925173,3.538604,123.747535,-0.06398,0.042297,0.97142,-0.055224,0.004157,-0.047633,62.368362,29.400757,-147.413162,,,
729707158.166806,1.925162,3.538571,-20.162646,-0.06398,0.042297,0.97142,-0.055224,0.004157,-0.047633,62.368362,29.400757,-147.413162,,,
729707158.169396,1.902822,3.535673,123.733403,-0.06398,0.042297,0.97142,-0.067195,-0.011793,-0.056453,62.368362,29.400757,-147.413162,,,
729707158.171039,1.902811,3.535641,-20.17678,-0.06398,0.042297,0.97142,-0.067195,-0.011793,-0.056453,62.368362,29.400757,-147.413162,,,
729707158.17273,1.881809,3.530975,123.71849,-0.063019,0.040329,0.976517,-0.067195,-0.011793,-0.056453,62.368362,29.400757,-147.413162,,,
729707158.173805,1.881798,3.530942,-20.191682,-0.063019,0.040329,0.976517,-0.067195,-0.011793,-0.056453,62.368362,29.400757,-147.413162,,,
729707158.176093,1.881809,3.530975,123.71849,-0.063019,0.040329,0.976517,-0.067195,-0.011793,-0.056453,62.368362,29.400757,-147.413162,,,
729707158.176801,1.881798,3.530942,-20.191682,-0.063019,0.040329,0.976517,-0.067195,-0.011793,-0.056453,62.368362,29.400757,-147.413162,,,
729707158.179379,1.856881,3.524669,123.702476,-0.063019,0.040329,0.976517,-0.076572,-0.022523,-0.06473,62.368362,29.400757,-147.413162,,,
729707158.180525,1.85687,3.524636,-20.207689,-0.063019,0.040329,0.976517,-0.076572,-0.022523,-0.06473,62.368362,29.400757,-147.413162,,,
729707158.182714,1.833769,3.517524,123.685028,-0.063614,0.037872,0.982162,-0.076572,-0.022523,-0.06473,62.368362,29.400757,-147.413162,,,
729707158.183643,1.833758,3.517492,-20.225151,-0.063614,0.037872,0.982162,-0.076572,-0.022523,-0.06473,62.368362,29.400757,-147.413162,,,
729707158.186076,1.833769,3.517524,123.685028,-0.063614,0.037872,0.982162,-0.076572,-0.022523,-0.06473,62.368362,29.400757,-147.413162,,,
729707158.186865,1.833758,3.517492,-20.225151,-0.063614,0.037872,0.982162,-0.076572,-0.022523,-0.06473,62.368362,29.400757,-147.413162,,,
729707158.189494,1.807504,3.510647,123.667066,-0.063614,0.037872,0.982162,-0.078551,-0.023826,-0.068223,62.368362,29.400757,-147.413162,,,
729707158.191624,1.807493,3.510615,-20.243107,-0.063614,0.037872,0.982162,-0.078551,-0.023826,-0.068223,62.368362,29.400757,-147.413162,,,
729707158.192874,1.782824,3.504012,123.649754,-0.064651,0.034241,0.993256,-0.078551,-0.023826,-0.068223,62.381577,29.469055,-147.11792,,,
729707158.195537,1.782813,3.503979,-20.260414,-0.064651,0.034241,0.993256,-0.078551,-0.023826,-0.068223,62.381577,29.469055,-147.11792,,,
729707158.196152,1.782824,3.504012,123.649754,-0.064651,0.034241,0.993256,-0.078551,-0.023826,-0.068223,62.381577,29.469055,-147.11792,,,
729707158.19696,1.782813,3.503979,-20.260414,-0.064651,0.034241,0.993256,-0.078551,-0.023826,-0.068223,62.381577,29.469055,-147.11792,,,
729707158.199472,1.755457,3.498063,123.632995,-0.064651,0.034241,0.993256,-0.081242,-0.024514,-0.064422,62.381577,29.469055,-147.11792,,,
729707158.201047,1.755446,3.49803,-20.277185,-0.064651,0.034241,0.993256,-0.081242,-0.024514,-0.064422,62.381577,29.469055,-147.11792,,,
729707158.20282,1.731274,3.490275,123.617175,-0.066391,0.028397,1.002716,-0.081242,-0.024514,-0.064422,62.381577,29.469055,-147.11792,,,
729707158.204857,1.731263,3.490242,-20.293002,-0.066391,0.028397,1.002716,-0.081242,-0.024514,-0.064422,62.381577,29.469055,-147.11792,,,
729707158.206163,1.731274,3.490275,123.617175,-0.066391,0.028397,1.002716,-0.081242,-0.024514,-0.064422,62.381577,29.469055,-147.11792,,,
729707158.206947,1.731263,3.490242,-20.293002,-0.066391,0.028397,1.002716,-0.081242,-0.024514,-0.064422,62.381577,29.469055,-147.11792,,,
729707158.209487,1.707141,3.481882,123.603099,-0.066391,0.028397,1.002716,-0.073531,-0.027484,-0.051753,62.381577,29.469055,-147.11792,,,
729707158.211667,1.70713,3.481849,-20.307069,-0.066391,0.028397,1.002716,-0.073531,-0.027484,-0.051753,62.381577,29.469055,-147.11792,,,
729707158.212808,1.685634,3.474418,123.590509,-0.067856,0.023956,1.014679,-0.073531,-0.027484,-0.051753,62.381577,29.469055,-147.11792,,,
729707158.214807,1.685623,3.474385,-20.319659,-0.067856,0.023956,1.014679,-0.073531,-0.027484,-0.051753,62.381577,29.469055,-147.11792,,,
729707158.216202,1.685634,3.474418,123.590509,-0.067856,0.023956,1.014679,-0.073531,-0.027484,-0.051753,62.381577,29.469055,-147.11792,,,
729707158.216951,1.685623,3.474385,-20.319659,-0.067856,0.023956,1.014679,-0.073531,-0.027484,-0.051753,62.381577,29.469055,-147.11792,,,
729707158.21947,1.666087,3.469071,123.578716,-0.067856,0.023956,1.014679,-0.061784,-0.011336,-0.045499,62.381577,29.469055,-147.11792,,,
729707158.221229,1.666076,3.469038,-20.331454,-0.067856,0.023956,1.014679,-0.061784,-0.011336,-0.045499,62.381577,29.469055,-147.11792,,,
729707158.222804,1.648574,3.466664,123.567278,-0.067169,0.020508,1.024368,-0.061784,-0.011336,-0.045499,62.381577,29.469055,-147.11792,,,
729707158.224352,1.648563,3.466631,-20.342892,-0.067169,0.020508,1.024368,-0.061784,-0.011336,-0.045499,62.381577,29.469055,-147.11792,,,
729707158.226171,1.648574,3.466664,123.567278,-0.067169,0.020508,1.024368,-0.061784,-0.011336,-0.045499,62.381577,29.469055,-147.11792,,,
729707158.227,1.648563,3.466631,-20.342892,-0.067169,0.020508,1.024368,-0.061784,-0.011336,-0.045499,62.381577,29.469055,-147.11792,,,
729707158.229457,1.634746,3.467444,123.556404,-0.067169,0.020508,1.024368,-0.05047,0.00874,-0.040809,62.381577,29.469055,-147.11792,,,
729707158.232509,1.634735,3.467411,-20.353766,-0.067169,0.020508,1.024368,-0.05047,0.00874,-0.040809,62.381577,29.469055,-147.11792,,,
729707158.23281,1.620662,3.470142,123.54599,-0.065414,0.020889,1.028976,-0.05047,0.00874,-0.040809,62.381577,29.469055,-147.11792,,,
729707158.235107,1.620651,3.47011,-20.364182,-0.065414,0.020889,1.028976,-0.05047,0.00874,-0.040809,62.167587,29.626328,-147.404114,,,
729707158.236139,1.620662,3.470142,123.54599,-0.065414,0.020889,1.028976,-0.05047,0.00874,-0.040809,62.167587,29.626328,-147.404114,,,
729707158.236954,1.620651,3.47011,-20.364182,-0.065414,0.020889,1.028976,-0.05047,0.00874,-0.040809,62.167587,29.626328,-147.404114,,,
729707158.239495,1.611356,3.475318,123.535871,-0.065414,0.020889,1.028976,-0.036922,0.016652,-0.037647,62.167587,29.626328,-147.404114,,,
729707158.240534,1.611345,3.475286,-20.374296,-0.065414,0.020889,1.028976,-0.036922,0.016652,-0.037647,62.167587,29.626328,-147.404114,,,
729707158.242895,1.600244,3.480217,123.526239,-0.0625,0.024536,1.025055,-0.036922,0.016652,-0.037647,62.167587,29.626328,-147.404114,,,
729707158.244397,1.600233,3.480184,-20.383931,-0.0625,0.024536,1.025055,-0.036922,0.016652,-0.037647,62.167587,29.626328,-147.404114,,,
729707158.246138,1.600244,3.480217,123.526239,-0.0625,0.024536,1.025055,-0.036922,0.016652,-0.037647,62.167587,29.626328,-147.404114,,,
