Time (sec),Pitch (deg),Roll (deg),Yaw(deg),X-Acceleration (g),Y-Acceleration (g),Z-Acceleration (g),Pitch Rate (deg/sec),Roll Rate (deg/sec),Yaw Rate (deg/sec),Magnetic Field in X direction (uT),Magnetic Field in Y direction (uT),Magnetic Field in Z Direction (uT),Latitude (deg),Longitude (deg),Altitude (m)
729705773.816827,-2.888083,-2.571509,79.439228,0.045364,-0.049118,0.992569,-0.053219,0.051641,0.013942,85.970749,36.211029,-148.951538,,,
729705773.820174,-2.888083,-2.571509,79.439228,0.045364,-0.049118,0.992569,-0.053219,0.051641,0.013942,85.970749,36.211029,-148.951538,,,
729705773.823515,-2.898292,-2.568081,79.442407,0.036453,-0.057831,0.993622,-0.0293,0.002609,0.006973,85.970749,36.211029,-148.951538,,,
729705773.826823,-2.903106,-2.575249,79.444784,0.036453,-0.057831,0.993622,-0.0293,0.002609,0.006973,85.970749,36.211029,-148.951538,,,
729705773.830157,-2.903106,-2.575249,79.444784,0.036453,-0.057831,0.993622,-0.0293,0.002609,0.006973,85.970749,36.211029,-148.951538,,,
729705773.833512,-2.908657,-2.582891,79.447789,0.034164,-0.059647,0.99823,-0.014403,-0.031884,0.009048,85.970749,36.211029,-148.951538,,,
729705773.836821,-2.912138,-2.599889,79.449575,0.034164,-0.059647,0.99823,-0.014403,-0.031884,0.009048,85.970749,36.211029,-148.951538,,,
729705773.839835,-2.912138,-2.599889,79.449575,0.034164,-0.059647,0.99823,-0.014403,-0.031884,0.009048,85.970749,36.211029,-148.951538,,,
729705773.843544,-2.913634,-2.612503,79.450694,0.036255,-0.060547,1.00206,0.000993,-0.043155,0.001492,86.073288,36.284836,-148.711731,,,
729705773.846824,-2.913367,-2.631744,79.4503,0.036255,-0.060547,1.00206,0.000993,-0.043155,0.001492,86.073288,36.284836,-148.711731,,,
729705773.850166,-2.913367,-2.631744,79.4503,0.036255,-0.060547,1.00206,0.000993,-0.043155,0.001492,86.073288,36.284836,-148.711731,,,
729705773.853536,-2.911166,-2.643631,79.449266,0.044662,-0.056107,1.008636,0.011075,-0.03636,-0.005637,86.073288,36.284836,-148.711731,,,
729705773.856853,-2.907558,-2.658744,79.448015,0.044662,-0.056107,1.008636,0.011075,-0.03636,-0.005637,86.073288,36.284836,-148.711731,,,
729705773.860157,-2.907558,-2.658744,79.448015,0.044662,-0.056107,1.008636,0.011075,-0.03636,-0.005637,86.073288,36.284836,-148.711731,,,
729705773.863516,-2.903632,-2.66488,79.447763,0.047928,-0.056366,1.010757,0.014281,-0.012776,-0.000813,86.073288,36.284836,-148.711731,,,
729705773.866822,-2.89755,-2.672473,79.448503,0.047928,-0.056366,1.010757,0.014281,-0.012776,-0.000813,86.073288,36.284836,-148.711731,,,
729705773.870169,-2.89755,-2.672473,79.448503,0.047928,-0.056366,1.010757,0.014281,-0.012776,-0.000813,86.073288,36.284836,-148.711731,,,
729705773.873502,-2.894054,-2.670066,79.451435,0.047485,-0.060272,1.010864,0.012205,0.019482,0.012696,86.073288,36.284836,-148.711731,,,
729705773.876829,-2.887907,-2.666314,79.456186,0.047485,-0.060272,1.010864,0.012205,0.019482,0.012696,86.073288,36.284836,-148.711731,,,
729705773.880255,-2.887907,-2.666314,79.456186,0.047485,-0.060272,1.010864,0.012205,0.019482,0.012696,86.073288,36.284836,-148.711731,,,
729705773.883488,-2.885104,-2.654542,79.462928,0.048111,-0.063354,1.010269,0.011862,0.047774,0.025222,86.035782,36.119354,-148.742233,,,
729705773.886831,-2.880071,-2.641838,79.471336,0.048111,-0.063354,1.010269,0.011862,0.047774,0.025222,86.035782,36.119354,-148.742233,,,
729705773.890172,-2.880071,-2.641838,79.471336,0.048111,-0.063354,1.010269,0.011862,0.047774,0.025222,86.035782,36.119354,-148.742233,,,
729705773.893564,-2.876071,-2.625887,79.480339,0.049515,-0.061707,1.005249,0.016337,0.059236,0.028502,86.035782,36.119354,-148.742233,,,
729705773.896822,-2.872451,-2.607662,79.489171,0.049515,-0.061707,1.005249,0.016337,0.059236,0.028502,86.035782,36.119354,-148.742233,,,
729705773.900166,-2.872451,-2.607662,79.489171,0.049515,-0.061707,1.005249,0.016337,0.059236,0.028502,86.035782,36.119354,-148.742233,,,
729705773.903502,-2.86714,-2.591132,79.497393,0.050766,-0.055588,1.000046,0.019776,0.058327,0.024641,86.035782,36.119354,-148.742233,,,
729705773.906824,-2.864449,-2.573312,79.503971,0.050766,-0.055588,1.000046,0.019776,0.058327,0.024641,86.035782,36.119354,-148.742233,,,
729705773.910169,-2.864449,-2.573312,79.503971,0.050766,-0.055588,1.000046,0.019776,0.058327,0.024641,86.035782,36.119354,-148.742233,,,
729705773.9135,-2.859943,-2.561194,79.508304,0.051102,-0.051102,0.993942,0.015855,0.038121,0.010146,86.035782,36.119354,-148.742233,,,
729705773.916835,-2.858542,-2.550171,79.51161,0.051102,-0.051102,0.993942,0.015855,0.038121,0.010146,86.035782,36.119354,-148.742233,,,
729705773.92022,-2.858542,-2.550171,79.51161,0.051102,-0.051102,0.993942,0.015855,0.038121,0.010146,86.035782,36.119354,-148.742233,,,
729705773.923503,-2.855768,-2.544992,79.513719,0.047806,-0.050278,0.989365,0.008528,0.017684,0.003111,86.035782,36.119354,-148.742233,,,
729705773.926821,-2.856139,-2.539917,79.514525,0.047806,-0.050278,0.989365,0.008528,0.017684,0.003111,86.210632,36.017914,-148.848526,,,
729705773.930168,-2.856139,-2.539917,79.514525,0.047806,-0.050278,0.989365,0.008528,0.017684,0.003111,86.210632,36.017914,-148.848526,,,
729705773.933546,-2.855314,-2.536439,79.514664,0.050217,-0.051453,0.992691,0.001693,0.015076,-0.000892,86.210632,36.017914,-148.848526,,,
729705773.936819,-2.855959,-2.532761,79.514815,0.050217,-0.051453,0.992691,0.001693,0.015076,-0.000892,86.210632,36.017914,-148.848526,,,
729705773.940154,-2.855959,-2.532761,79.514815,0.050217,-0.051453,0.992691,0.001693,0.015076,-0.000892,86.210632,36.017914,-148.848526,,,
729705773.943511,-2.854342,-2.52729,79.515551,0.05014,-0.051849,1.003601,0.007709,0.022257,0.00265,86.210632,36.017914,-148.848526,,,
729705773.946819,-2.853197,-2.522404,79.517417,0.05014,-0.051849,1.003601,0.007709,0.022257,0.00265,86.210632,36.017914,-148.848526,,,
729705773.950167,-2.853197,-2.522404,79.517417,0.05014,-0.051849,1.003601,0.007709,0.022257,0.00265,86.210632,36.017914,-148.848526,,,
729705773.953499,-2.848033,-2.517455,79.519908,0.04744,-0.055542,1.004578,0.022506,0.018338,0.00616,86.210632,36.017914,-148.848526,,,
729705773.956816,-2.844245,-2.514153,79.522681,0.04744,-0.055542,1.004578,0.022506,0.018338,0.00616,86.210632,36.017914,-148.848526,,,
729705773.960196,-2.844245,-2.514153,79.522681,0.04744,-0.055542,1.004578,0.022506,0.018338,0.00616,86.210632,36.017914,-148.848526,,,
729705773.963496,-2.836648,-2.511292,79.52578,0.045197,-0.058487,1.003998,0.028701,0.009853,0.007969,86.210632,36.017914,-148.848526,,,
729705773.966892,-2.831311,-2.510694,79.528509,0.045197,-0.058487,1.003998,0.028701,0.009853,0.007969,86.195023,36.113586,-148.654083,,,
729705773.970178,-2.831311,-2.510694,79.528509,0.045197,-0.058487,1.003998,0.028701,0.009853,0.007969,86.195023,36.113586,-148.654083,,,
729705773.973552,-2.822037,-2.509234,79.530742,0.043472,-0.060059,1.006317,0.034043,0.007803,0.003821,86.195023,36.113586,-148.654083,,,
729705773.976833,-2.814963,-2.508809,79.532702,0.043472,-0.060059,1.006317,0.034043,0.007803,0.003821,86.195023,36.113586,-148.654083,,,
729705773.980189,-2.814963,-2.508809,79.532702,0.043472,-0.060059,1.006317,0.034043,0.007803,0.003821,86.195023,36.113586,-148.654083,,,
729705773.98356,-2.805795,-2.506177,79.535483,0.039444,-0.064102,1.007263,0.032996,0.011272,0.008974,86.195023,36.113586,-148.654083,,,
729705773.986819,-2.797292,-2.506094,79.539344,0.039444,-0.064102,1.007263,0.032996,0.011272,0.008974,86.195023,36.113586,-148.654083,,,
729705773.990177,-2.797292,-2.506094,79.539344,0.039444,-0.064102,1.007263,0.032996,0.011272,0.008974,86.195023,36.113586,-148.654083,,,
729705773.993517,-2.787248,-2.50504,79.544515,0.035721,-0.067734,1.005386,0.036893,0.003786,0.017267,86.195023,36.113586,-148.654083,,,
729705773.99682,-2.778666,-2.506287,79.5504,0.035721,-0.067734,1.005386,0.036893,0.003786,0.017267,86.195023,36.113586,-148.654083,,,
729705774.000219,-2.778666,-2.506287,79.5504,0.035721,-0.067734,1.005386,0.036893,0.003786,0.017267,86.195023,36.113586,-148.654083,,,
729705774.003489,-2.771401,-2.505909,79.556644,0.035767,-0.06636,1.000137,0.023866,0.004516,0.019831,86.195023,36.113586,-148.654083,,,
729705774.006824,-2.766052,-2.506002,79.562677,0.035767,-0.06636,1.000137,0.023866,0.004516,0.019831,86.123688,36.136017,-148.411896,,,
729705774.010163,-2.766052,-2.506002,79.562677,0.035767,-0.06636,1.000137,0.023866,0.004516,0.019831,86.123688,36.136017,-148.411896,,,
729705774.013549,-2.760804,-2.503251,79.568084,0.044678,-0.059982,1.001358,0.017592,0.014665,0.015278,86.123688,36.136017,-148.411896,,,
729705774.016817,-2.757985,-2.500932,79.572682,0.044678,-0.059982,1.001358,0.017592,0.014665,0.015278,86.123688,36.136017,-148.411896,,,
729705774.020177,-2.757985,-2.500932,79.572682,0.044678,-0.059982,1.001358,0.017592,0.014665,0.015278,86.123688,36.136017,-148.411896,,,
729705774.0235,-2.755809,-2.495772,79.577225,0.045197,-0.056351,1.002121,0.006906,0.021004,0.014711,86.123688,36.136017,-148.411896,,,
729705774.026836,-2.756115,-2.492644,79.582148,0.045197,-0.056351,1.002121,0.006906,0.021004,0.014711,86.123688,36.136017,-148.411896,,,
729705774.030174,-2.756115,-2.492644,79.582148,0.045197,-0.056351,1.002121,0.006906,0.021004,0.014711,86.123688,36.136017,-148.411896,,,
729705774.033509,-2.756745,-2.488868,79.587514,0.043533,-0.057617,0.995483,-0.002591,0.01539,0.017707,86.123688,36.136017,-148.411896,,,
729705774.036821,-2.760481,-2.486728,79.593215,0.043533,-0.057617,0.995483,-0.002591,0.01539,0.017707,86.123688,36.136017,-148.411896,,,
729705774.040244,-2.760481,-2.486728,79.593215,0.043533,-0.057617,0.995483,-0.002591,0.01539,0.017707,86.123688,36.136017,-148.411896,,,
729705774.043503,-2.762682,-2.486146,79.598971,0.044312,-0.06073,0.992767,-0.006583,-0.000347,0.018033,86.123688,36.136017,-148.411896,,,
729705774.046832,-2.766658,-2.488795,79.604341,0.044312,-0.06073,0.992767,-0.006583,-0.000347,0.018033,86.123688,36.136017,-148.411896,,,
729705774.050173,-2.766658,-2.488795,79.604341,0.044312,-0.06073,0.992767,-0.006583,-0.000347,0.018033,86.218506,36.129959,-148.314163,,,
729705774.053515,-2.766047,-2.494312,79.608553,0.046951,-0.060226,0.994446,0.006663,-0.021074,0.00934,86.218506,36.129959,-148.314163,,,
729705774.056848,-2.766884,-2.501117,79.611161,0.046951,-0.060226,0.994446,0.006663,-0.021074,0.00934,86.218506,36.129959,-148.314163,,,
729705774.060174,-2.766884,-2.501117,79.611161,0.046951,-0.060226,0.994446,0.006663,-0.021074,0.00934,86.218506,36.129959,-148.314163,,,
729705774.063562,-2.762364,-2.510126,79.612599,0.0513,-0.057846,0.996567,0.020546,-0.031707,0.000819,86.218506,36.129959,-148.314163,,,
729705774.066874,-2.759628,-2.518359,79.613267,0.0513,-0.057846,0.996567,0.020546,-0.031707,0.000819,86.218506,36.129959,-148.314163,,,
729705774.070163,-2.759628,-2.518359,79.613267,0.0513,-0.057846,0.996567,0.020546,-0.031707,0.000819,86.218506,36.129959,-148.314163,,,
729705774.073495,-2.751391,-2.528885,79.613155,0.05307,-0.057816,0.996811,0.028787,-0.034845,-0.004342,86.218506,36.129959,-148.314163,,,
729705774.076842,-2.748061,-2.536924,79.613101,0.05307,-0.057816,0.996811,0.028787,-0.034845,-0.004342,86.218506,36.129959,-148.314163,,,
729705774.080176,-2.748061,-2.536924,79.613101,0.05307,-0.057816,0.996811,0.028787,-0.034845,-0.004342,86.218506,36.129959,-148.314163,,,
729705774.083505,-2.741558,-2.546542,79.613308,0.056137,-0.058609,0.992386,0.018473,-0.02791,-0.001247,86.218506,36.129959,-148.314163,,,
729705774.086831,-2.741226,-2.553231,79.613741,0.056137,-0.058609,0.992386,0.018473,-0.02791,-0.001247,86.218506,36.129959,-148.314163,,,
729705774.090231,-2.741226,-2.553231,79.613741,0.056137,-0.058609,0.992386,0.018473,-0.02791,-0.001247,86.206894,36.038254,-148.591843,,,
729705774.093557,-2.739408,-2.559444,79.613975,0.06105,-0.054398,0.987946,0.002911,-0.016108,-0.00154,86.206894,36.038254,-148.591843,,,
729705774.096851,-2.742649,-2.564551,79.613912,0.06105,-0.054398,0.987946,0.002911,-0.016108,-0.00154,86.206894,36.038254,-148.591843,,,
729705774.100194,-2.742649,-2.564551,79.613912,0.06105,-0.054398,0.987946,0.002911,-0.016108,-0.00154,86.206894,36.038254,-148.591843,,,
729705774.103486,-2.746425,-2.567811,79.613534,0.060272,-0.05365,0.983765,-0.016366,-0.00554,-0.002999,86.206894,36.038254,-148.591843,,,
729705774.106838,-2.753851,-2.569772,79.612754,0.060272,-0.05365,0.983765,-0.016366,-0.00554,-0.002999,86.206894,36.038254,-148.591843,,,
729705774.110155,-2.753851,-2.569772,79.612754,0.060272,-0.05365,0.983765,-0.016366,-0.00554,-0.002999,86.206894,36.038254,-148.591843,,,
729705774.113489,-2.759781,-2.571744,79.612027,0.056885,-0.053833,0.984985,-0.020766,-0.00415,-0.002375,86.206894,36.038254,-148.591843,,,
729705774.116882,-2.770029,-2.573367,79.611375,0.056885,-0.053833,0.984985,-0.020766,-0.00415,-0.002375,86.206894,36.038254,-148.591843,,,
729705774.120171,-2.770029,-2.573367,79.611375,0.056885,-0.053833,0.984985,-0.020766,-0.00415,-0.002375,86.206894,36.038254,-148.591843,,,
729705774.12351,-2.77863,-2.575246,79.609604,0.055893,-0.052734,0.985565,-0.030607,-0.001678,-0.00956,86.206894,36.038254,-148.591843,,,
729705774.126846,-2.791347,-2.577388,79.606121,0.055893,-0.052734,0.985565,-0.030607,-0.001678,-0.00956,86.206894,36.038254,-148.591843,,,
729705774.130217,-2.791347,-2.577388,79.606121,0.055893,-0.052734,0.985565,-0.030607,-0.001678,-0.00956,86.137741,36.010895,-148.655502,,,
729705774.133502,-2.802099,-2.578974,79.60062,0.058304,-0.051651,0.988205,-0.039395,0.000258,-0.023337,86.137741,36.010895,-148.655502,,,
729705774.136854,-2.8165,-2.581777,79.592654,0.058304,-0.051651,0.988205,-0.039395,0.000258,-0.023337,86.137741,36.010895,-148.655502,,,
729705774.140178,-2.8165,-2.581777,79.592654,0.058304,-0.051651,0.988205,-0.039395,0.000258,-0.023337,86.137741,36.010895,-148.655502,,,
729705774.143561,-2.829215,-2.584105,79.582905,0.053864,-0.052155,0.984772,-0.046076,-0.003122,-0.035838,86.137741,36.010895,-148.655502,,,
729705774.146817,-2.844293,-2.588427,79.572171,0.053864,-0.052155,0.984772,-0.046076,-0.003122,-0.035838,86.137741,36.010895,-148.655502,,,
729705774.150172,-2.844293,-2.588427,79.572171,0.053864,-0.052155,0.984772,-0.046076,-0.003122,-0.035838,86.137741,36.010895,-148.655502,,,
729705774.153508,-2.857728,-2.591354,79.560621,0.045746,-0.054794,0.988922,-0.048001,-0.00729,-0.042115,86.137741,36.010895,-148.655502,,,
729705774.156868,-2.872709,-2.597462,79.548447,0.045746,-0.054794,0.988922,-0.048001,-0.00729,-0.042115,86.137741,36.010895,-148.655502,,,
729705774.160153,-2.872709,-2.597462,79.548447,0.045746,-0.054794,0.988922,-0.048001,-0.00729,-0.042115,86.137741,36.010895,-148.655502,,,
729705774.163507,-2.884038,-2.601281,79.536999,0.042099,-0.059097,0.991867,-0.037665,-0.007841,-0.038289,86.137741,36.010895,-148.655502,,,
729705774.166874,-2.895713,-2.608868,79.5259,0.042099,-0.059097,0.991867,-0.037665,-0.007841,-0.038289,86.137741,36.010895,-148.655502,,,
729705774.170209,-2.895713,-2.608868,79.5259,0.042099,-0.059097,0.991867,-0.037665,-0.007841,-0.038289,86.201706,36.260223,-148.648148,,,
729705774.1735,-2.904583,-2.612013,79.514692,0.042374,-0.061462,0.996536,-0.030367,-0.003001,-0.040689,86.201706,36.260223,-148.648148,,,
729705774.176858,-2.913324,-2.617777,79.502924,0.042374,-0.061462,0.996536,-0.030367,-0.003001,-0.040689,86.201706,36.260223,-148.648148,,,
729705774.180261,-2.913324,-2.617777,79.502924,0.042374,-0.061462,0.996536,-0.030367,-0.003001,-0.040689,86.201706,36.260223,-148.648148,,,
729705774.183509,-2.920855,-2.617004,79.490891,0.040375,-0.060516,0.997147,-0.027679,0.011681,-0.044297,86.201706,36.260223,-148.648148,,,
729705774.186878,-2.929406,-2.617968,79.478796,0.040375,-0.060516,0.997147,-0.027679,0.011681,-0.044297,86.201706,36.260223,-148.648148,,,
729705774.190197,-2.929406,-2.617968,79.478796,0.040375,-0.060516,0.997147,-0.027679,0.011681,-0.044297,86.201706,36.260223,-148.648148,,,
729705774.193502,-2.937236,-2.613902,79.466843,0.036758,-0.056778,0.997086,-0.030011,0.02164,-0.044443,86.201706,36.260223,-148.648148,,,
729705774.196866,-2.946005,-2.611883,79.454883,0.036758,-0.056778,0.997086,-0.030011,0.02164,-0.044443,86.201706,36.260223,-148.648148,,,
729705774.20018,-2.946005,-2.611883,79.454883,0.036758,-0.056778,0.997086,-0.030011,0.02164,-0.044443,86.201706,36.260223,-148.648148,,,
729705774.203501,-2.954145,-2.606043,79.443993,0.034317,-0.056854,0.994507,-0.030595,0.027979,-0.038021,86.201706,36.260223,-148.648148,,,
729705774.206924,-2.962624,-2.601264,79.433138,0.034317,-0.056854,0.994507,-0.030595,0.027979,-0.038021,86.201706,36.260223,-148.648148,,,
729705774.210186,-2.962624,-2.601264,79.433138,0.034317,-0.056854,0.994507,-0.030595,0.027979,-0.038021,86.124283,36.366394,-148.481522,,,
729705774.213512,-2.970588,-2.591043,79.422661,0.034897,-0.059738,0.999176,-0.029268,0.042632,-0.036635,86.124283,36.366394,-148.481522,,,
729705774.216878,-2.977647,-2.583591,79.411659,0.034897,-0.059738,0.999176,-0.029268,0.042632,-0.036635,86.124283,36.366394,-148.481522,,,
729705774.220227,-2.977647,-2.583591,79.411659,0.034897,-0.059738,0.999176,-0.029268,0.042632,-0.036635,86.124283,36.366394,-148.481522,,,
729705774.223484,-2.982573,-2.572334,79.400543,0.03511,-0.059387,0.997208,-0.016257,0.045441,-0.039208,86.124283,36.366394,-148.481522,,,
729705774.226835,-2.982573,-2.572334,79.400543,0.03511,-0.059387,0.997208,-0.016257,0.045441,-0.039208,86.124283,36.366394,-148.481522,,,
729705774.230163,-2.986615,-2.562311,79.389032,0.03511,-0.059387,0.997208,-0.016257,0.045441,-0.039208,86.124283,36.366394,-148.481522,,,
729705774.233558,-2.987454,-2.551386,79.377398,0.030594,-0.059021,1.001602,0.003768,0.042005,-0.041462,86.124283,36.366394,-148.481522,,,
729705774.236819,-2.987454,-2.551386,79.366594,0.030594,-0.059021,1.001602,0.003768,0.042005,-0.041462,86.124283,36.366394,-148.481522,,,
729705774.240184,-2.985323,-2.54128,79.366594,0.030594,-0.059021,1.001602,0.003768,0.042005,-0.041462,86.124283,36.366394,-148.481522,,,
729705774.243494,-2.9777,-2.533606,79.356807,0.028641,-0.059464,1.002914,0.032926,0.027025,-0.035542,86.124283,36.366394,-148.481522,,,
729705774.246898,-2.9777,-2.533606,79.348261,0.028641,-0.059464,1.002914,0.032926,0.027025,-0.035542,86.124283,36.366394,-148.481522,,,
729705774.250149,-2.96834,-2.528429,79.348261,0.028641,-0.059464,1.002914,0.032926,0.027025,-0.035542,86.124283,36.366394,-148.481522,,,
729705774.253511,-2.95301,-2.525676,79.341269,0.031052,-0.061127,0.998383,0.058887,0.012651,-0.025722,86.390274,36.16832,-148.594299,,,
729705774.256839,-2.95301,-2.525676,79.341269,0.031052,-0.061127,0.998383,0.058887,0.012651,-0.025722,86.390274,36.16832,-148.594299,,,
729705774.260219,-2.937472,-2.522601,79.335691,0.031052,-0.061127,0.998383,0.058887,0.012651,-0.025722,86.390274,36.16832,-148.594299,,,
729705774.263491,-2.917755,-2.519514,79.330319,0.035324,-0.057999,0.99826,0.071709,0.017976,-0.024528,86.390274,36.16832,-148.594299,,,
729705774.266865,-2.917755,-2.519514,79.330319,0.035324,-0.057999,0.99826,0.071709,0.017976,-0.024528,86.390274,36.16832,-148.594299,,,
729705774.270162,-2.899167,-2.513786,79.324873,0.035324,-0.057999,0.99826,0.071709,0.017976,-0.024528,86.390274,36.16832,-148.594299,,,
729705774.273578,-2.878888,-2.508265,79.319532,0.043594,-0.051285,0.99678,0.071895,0.025642,-0.023353,86.390274,36.16832,-148.594299,,,
729705774.276834,-2.878888,-2.508265,79.319532,0.043594,-0.051285,0.99678,0.071895,0.025642,-0.023353,86.390274,36.16832,-148.594299,,,
729705774.280165,-2.860723,-2.499318,79.313927,0.043594,-0.051285,0.99678,0.071895,0.025642,-0.023353,86.390274,36.16832,-148.594299,,,
729705774.283507,-2.842241,-2.491671,79.307496,0.043045,-0.04422,0.989944,0.062926,0.031893,-0.027943,86.390274,36.16832,-148.594299,,,
729705774.286923,-2.842241,-2.491671,79.307496,0.043045,-0.04422,0.989944,0.062926,0.031893,-0.027943,86.390274,36.16832,-148.594299,,,
729705774.290155,-2.826941,-2.481204,79.300903,0.043045,-0.04422,0.989944,0.062926,0.031893,-0.027943,86.390274,36.16832,-148.594299,,,
729705774.293493,-2.81169,-2.473488,79.293803,0.047134,-0.039795,0.987946,0.048703,0.030466,-0.029984,86.22641,35.940994,-148.798386,,,
729705774.296831,-2.81169,-2.473488,79.293803,0.047134,-0.039795,0.987946,0.048703,0.030466,-0.029984,86.22641,35.940994,-148.798386,,,
729705774.300234,-2.80094,-2.463489,79.285667,0.047134,-0.039795,0.987946,0.048703,0.030466,-0.029984,86.22641,35.940994,-148.798386,,,
729705774.303484,-2.788441,-2.454376,79.276197,0.051971,-0.037613,0.987732,0.041786,0.037824,-0.038339,86.22641,35.940994,-148.798386,,,
729705774.306832,-2.788441,-2.454376,79.276197,0.051971,-0.037613,0.987732,0.041786,0.037824,-0.038339,86.22641,35.940994,-148.798386,,,
729705774.310176,-2.778872,-2.442311,79.265037,0.051971,-0.037613,0.987732,0.041786,0.037824,-0.038339,86.22641,35.940994,-148.798386,,,
729705774.313564,-2.766872,-2.432838,79.252107,0.051544,-0.037186,0.993759,0.040567,0.038028,-0.049674,86.22641,35.940994,-148.798386,,,
729705774.31683,-2.766872,-2.432838,79.252107,0.051544,-0.037186,0.993759,0.040567,0.038028,-0.049674,86.22641,35.940994,-148.798386,,,
729705774.32026,-2.756961,-2.41971,79.239165,0.051544,-0.037186,0.993759,0.040567,0.038028,-0.049674,86.22641,35.940994,-148.798386,,,
729705774.323481,-2.74354,-2.410439,79.226068,0.045853,-0.043335,0.991867,0.046851,0.037042,-0.049738,86.22641,35.940994,-148.798386,,,
729705774.326885,-2.74354,-2.410439,79.226068,0.045853,-0.043335,0.991867,0.046851,0.037042,-0.049738,86.22641,35.940994,-148.798386,,,
729705774.330153,-2.732184,-2.398291,79.213725,0.045853,-0.043335,0.991867,0.046851,0.037042,-0.049738,86.22641,35.940994,-148.798386,,,
729705774.333492,-2.716758,-2.389382,79.201895,0.045273,-0.046249,0.994202,0.055311,0.036616,-0.045513,86.296173,35.888367,-148.586288,,,
729705774.336834,-2.716758,-2.389382,79.201895,0.045273,-0.046249,0.994202,0.055311,0.036616,-0.045513,86.296173,35.888367,-148.586288,,,
729705774.34023,-2.704557,-2.378001,79.190601,0.045273,-0.046249,0.994202,0.055311,0.036616,-0.045513,86.296173,35.888367,-148.586288,,,
729705774.34348,-2.69041,-2.369261,79.180218,0.043091,-0.044601,0.990845,0.048116,0.033759,-0.038142,86.296173,35.888367,-148.586288,,,
729705774.346836,-2.69041,-2.369261,79.180218,0.043091,-0.044601,0.990845,0.048116,0.033759,-0.038142,86.296173,35.888367,-148.586288,,,
729705774.35015,-2.678201,-2.361241,79.170738,0.043091,-0.044601,0.990845,0.048116,0.033759,-0.038142,86.296173,35.888367,-148.586288,,,
729705774.353487,-2.663224,-2.354573,79.161766,0.040787,-0.043762,0.988251,0.054585,0.026647,-0.034744,86.296173,35.888367,-148.586288,,,
729705774.356833,-2.663224,-2.354573,79.161766,0.040787,-0.043762,0.988251,0.054585,0.026647,-0.034744,86.296173,35.888367,-148.586288,,,
729705774.360182,-2.647059,-2.349444,79.15301,0.040787,-0.043762,0.988251,0.054585,0.026647,-0.034744,86.296173,35.888367,-148.586288,,,
729705774.363485,-2.630487,-2.344078,79.144142,0.04364,-0.039627,0.991943,0.05597,0.023593,-0.035793,86.296173,35.888367,-148.586288,,,
729705774.366887,-2.630487,-2.344078,79.144142,0.04364,-0.039627,0.991943,0.05597,0.023593,-0.035793,86.296173,35.888367,-148.586288,,,
729705774.370158,-2.613536,-2.339607,79.134824,0.04364,-0.039627,0.991943,0.05597,0.023593,-0.035793,86.296173,35.888367,-148.586288,,,
729705774.373525,-2.597773,-2.33498,79.12542,0.043335,-0.035782,0.988159,0.054658,0.019773,-0.03656,86.296173,35.888367,-148.586288,,,
729705774.376828,-2.597773,-2.33498,79.12542,0.043335,-0.035782,0.988159,0.054658,0.019773,-0.03656,86.274536,35.949997,-148.666412,,,
729705774.380207,-2.580909,-2.334116,79.11633,0.043335,-0.035782,0.988159,0.054658,0.019773,-0.03656,86.274536,35.949997,-148.666412,,,
729705774.383481,-2.567395,-2.331402,79.108788,0.038513,-0.035614,0.982391,0.04332,0.012538,-0.026213,86.274536,35.949997,-148.666412,,,
729705774.386831,-2.567395,-2.331402,79.108788,0.038513,-0.035614,0.982391,0.04332,0.012538,-0.026213,86.274536,35.949997,-148.666412,,,
729705774.390168,-2.55416,-2.332349,79.103446,0.038513,-0.035614,0.982391,0.04332,0.012538,-0.026213,86.274536,35.949997,-148.666412,,,
729705774.393485,-2.544425,-2.330971,79.101406,0.031281,-0.039886,0.980377,0.031111,0.005612,-0.003732,86.274536,35.949997,-148.666412,,,
729705774.396835,-2.544425,-2.330971,79.101406,0.031281,-0.039886,0.980377,0.031111,0.005612,-0.003732,86.274536,35.949997,-148.666412,,,
729705774.400187,-2.535371,-2.332411,79.102379,0.031281,-0.039886,0.980377,0.031111,0.005612,-0.003732,86.274536,35.949997,-148.666412,,,
729705774.40349,-2.52939,-2.332445,79.105555,0.031235,-0.04364,0.980591,0.018668,9.4e-05,0.011477,86.274536,35.949997,-148.666412,,,
729705774.406884,-2.52939,-2.332445,79.105555,0.031235,-0.04364,0.980591,0.018668,9.4e-05,0.011477,86.274536,35.949997,-148.666412,,,
729705774.41017,-2.526089,-2.33431,79.110145,0.031235,-0.04364,0.980591,0.018668,9.4e-05,0.011477,86.274536,35.949997,-148.666412,,,
729705774.413542,-2.523887,-2.336044,79.11548,0.041641,-0.037476,0.981888,0.007186,-0.007257,0.016792,86.274536,35.949997,-148.666412,,,
729705774.416881,-2.523887,-2.336044,79.11548,0.041641,-0.037476,0.981888,0.007186,-0.007257,0.016792,86.262375,35.85907,-148.743652,,,
729705774.420262,-2.523713,-2.340793,79.120686,0.041641,-0.037476,0.981888,0.007186,-0.007257,0.016792,86.262375,35.85907,-148.743652,,,
729705774.423488,-2.524788,-2.346402,79.125817,0.042236,-0.03093,0.980392,-0.004447,-0.019746,0.016451,86.262375,35.85907,-148.743652,,,
729705774.426851,-2.524788,-2.346402,79.125817,0.042236,-0.03093,0.980392,-0.004447,-0.019746,0.016451,86.262375,35.85907,-148.743652,,,
729705774.430184,-2.528173,-2.35295,79.130277,0.042236,-0.03093,0.980392,-0.004447,-0.019746,0.016451,86.262375,35.85907,-148.743652,,,
729705774.433491,-2.533605,-2.359625,79.133402,0.045486,-0.028046,0.986374,-0.020143,-0.021611,0.007769,86.262375,35.85907,-148.743652,,,
729705774.436837,-2.533605,-2.359625,79.133402,0.045486,-0.028046,0.986374,-0.020143,-0.021611,0.007769,86.262375,35.85907,-148.743652,,,
729705774.440193,-2.540131,-2.366654,79.135178,0.045486,-0.028046,0.986374,-0.020143,-0.021611,0.007769,86.262375,35.85907,-148.743652,,,
729705774.443506,-2.547791,-2.37377,79.135931,0.050095,-0.02623,0.993927,-0.026098,-0.023386,0.000797,86.262375,35.85907,-148.743652,,,
729705774.446912,-2.547791,-2.37377,79.135931,0.050095,-0.02623,0.993927,-0.026098,-0.023386,0.000797,86.262375,35.85907,-148.743652,,,
729705774.450174,-2.553587,-2.380909,79.135617,0.050095,-0.02623,0.993927,-0.026098,-0.023386,0.000797,86.262375,35.85907,-148.743652,,,
729705774.453492,-2.56044,-2.385053,79.134629,0.050156,-0.021118,1.003998,-0.023017,-0.00771,-0.004247,86.262375,35.85907,-148.743652,,,
729705774.456827,-2.56044,-2.385053,79.134629,0.050156,-0.021118,1.003998,-0.023017,-0.00771,-0.004247,86.34613,35.824295,-148.726807,,,
729705774.460228,-2.564541,-2.386828,79.134113,0.050156,-0.021118,1.003998,-0.023017,-0.00771,-0.004247,86.34613,35.824295,-148.726807,,,
729705774.4635,-2.569654,-2.386011,79.134376,0.046936,-0.025452,1.013397,-0.014383,0.009762,0.000783,86.34613,35.824295,-148.726807,,,
729705774.466817,-2.569654,-2.386011,79.134376,0.046936,-0.025452,1.013397,-0.014383,0.009762,0.000783,86.34613,35.824295,-148.726807,,,
729705774.470173,-2.572251,-2.3817,79.136105,0.046936,-0.025452,1.013397,-0.014383,0.009762,0.000783,86.34613,35.824295,-148.726807,,,
729705774.473492,-2.57517,-2.376928,79.139474,0.041611,-0.033585,1.01442,-0.004215,0.023506,0.012263,86.34613,35.824295,-148.726807,,,
729705774.476836,-2.57517,-2.376928,79.139474,0.041611,-0.033585,1.01442,-0.004215,0.023506,0.012263,86.34613,35.824295,-148.726807,,,
729705774.480175,-2.575799,-2.36723,79.144126,0.041611,-0.033585,1.01442,-0.004215,0.023506,0.012263,86.34613,35.824295,-148.726807,,,
729705774.48355,-2.575213,-2.359216,79.149609,0.040573,-0.036392,1.016006,0.006377,0.032596,0.018544,86.34613,35.824295,-148.726807,,,
729705774.486895,-2.575213,-2.359216,79.149609,0.040573,-0.036392,1.016006,0.006377,0.032596,0.018544,86.34613,35.824295,-148.726807,,,
729705774.490149,-2.572132,-2.349114,79.15553,0.040573,-0.036392,1.016006,0.006377,0.032596,0.018544,86.34613,35.824295,-148.726807,,,
729705774.493493,-2.568024,-2.339481,79.161641,0.040085,-0.034805,1.011169,0.018526,0.034819,0.019574,86.34613,35.824295,-148.726807,,,
729705774.496815,-2.568024,-2.339481,79.161641,0.040085,-0.034805,1.011169,0.018526,0.034819,0.019574,86.36261,36.050827,-148.641205,,,
729705774.500202,-2.560315,-2.330796,79.168133,0.040085,-0.034805,1.011169,0.018526,0.034819,0.019574,86.36261,36.050827,-148.641205,,,
729705774.503486,-2.554536,-2.322891,79.175127,0.031403,-0.03981,1.008499,0.022173,0.024885,0.022726,86.36261,36.050827,-148.641205,,,
729705774.506831,-2.554536,-2.322891,79.175127,0.031403,-0.03981,1.008499,0.022173,0.024885,0.022726,86.36261,36.050827,-148.641205,,,
729705774.510153,-2.545002,-2.318589,79.182524,0.031403,-0.03981,1.008499,0.022173,0.024885,0.022726,86.36261,36.050827,-148.641205,,,
729705774.513489,-2.538636,-2.315509,79.190687,0.025757,-0.042801,1.003769,0.02541,0.010089,0.027655,86.36261,36.050827,-148.641205,,,
729705774.516826,-2.538636,-2.315509,79.190687,0.025757,-0.042801,1.003769,0.02541,0.010089,0.027655,86.36261,36.050827,-148.641205,,,
729705774.520153,-2.527925,-2.317208,79.199458,0.025757,-0.042801,1.003769,0.02541,0.010089,0.027655,86.36261,36.050827,-148.641205,,,
729705774.523483,-2.521469,-2.318394,79.209109,0.026642,-0.043884,1.000992,0.023576,-0.003272,0.033102,86.36261,36.050827,-148.641205,,,
729705774.526871,-2.521469,-2.318394,79.209109,0.026642,-0.043884,1.000992,0.023576,-0.003272,0.033102,86.36261,36.050827,-148.641205,,,
729705774.530151,-2.510517,-2.322956,79.219334,0.026642,-0.043884,1.000992,0.023576,-0.003272,0.033102,86.36261,36.050827,-148.641205,,,
729705774.533495,-2.504492,-2.325779,79.229663,0.033066,-0.040558,1.001694,0.023169,-0.008887,0.033043,86.36261,36.050827,-148.641205,,,
729705774.536818,-2.504492,-2.325779,79.229663,0.033066,-0.040558,1.001694,0.023169,-0.008887,0.033043,86.36261,36.050827,-148.641205,,,
729705774.540203,-2.493085,-2.32996,79.239721,0.033066,-0.040558,1.001694,0.023169,-0.008887,0.033043,86.448715,35.956772,-148.660889,,,
729705774.543485,-2.486903,-2.331279,79.249636,0.038361,-0.039108,1.003815,0.023903,-0.00154,0.031583,86.448715,35.956772,-148.660889,,,
729705774.546835,-2.486903,-2.331279,79.249636,0.038361,-0.039108,1.003815,0.023903,-0.00154,0.031583,86.448715,35.956772,-148.660889,,,
729705774.550164,-2.476567,-2.333038,79.259823,0.038361,-0.039108,1.003815,0.023903,-0.00154,0.031583,86.448715,35.956772,-148.660889,,,
729705774.553485,-2.468796,-2.333738,79.270927,0.036346,-0.042877,1.006332,0.031186,-0.000506,0.037409,86.448715,35.956772,-148.660889,,,
729705774.556827,-2.468796,-2.333738,79.270927,0.036346,-0.042877,1.006332,0.031186,-0.000506,0.037409,86.448715,35.956772,-148.660889,,,
729705774.560163,-2.458225,-2.333701,79.283005,0.036346,-0.042877,1.006332,0.031186,-0.000506,0.037409,86.448715,35.956772,-148.660889,,,
729705774.56349,-2.448688,-2.334548,79.296109,0.034531,-0.046463,1.003265,0.037673,-0.003729,0.044378,86.448715,35.956772,-148.660889,,,
729705774.566869,-2.448688,-2.334548,79.296109,0.034531,-0.046463,1.003265,0.037673,-0.003729,0.044378,86.448715,35.956772,-148.660889,,,
729705774.570198,-2.435668,-2.336381,79.310418,0.034531,-0.046463,1.003265,0.037673,-0.003729,0.044378,86.448715,35.956772,-148.660889,,,
729705774.573506,-2.422928,-2.338776,79.326207,0.034286,-0.049927,1.000641,0.0492,-0.008402,0.054198,86.448715,35.956772,-148.660889,,,
729705774.576828,-2.422928,-2.338776,79.326207,0.034286,-0.049927,1.000641,0.0492,-0.008402,0.054198,86.448715,35.956772,-148.660889,,,
729705774.580241,-2.408051,-2.340226,79.343074,0.034286,-0.049927,1.000641,0.0492,-0.008402,0.054198,86.334808,35.747604,-148.781616,,,
729705774.583481,-2.393645,-2.344124,79.360522,0.035919,-0.051056,0.99942,0.055475,-0.015466,0.058538,86.334808,35.747604,-148.781616,,,
729705774.586846,-2.393645,-2.344124,79.360522,0.035919,-0.051056,0.99942,0.055475,-0.015466,0.058538,86.334808,35.747604,-148.781616,,,
729705774.590171,-2.377992,-2.345024,79.378874,0.035919,-0.051056,0.99942,0.055475,-0.015466,0.058538,86.334808,35.747604,-148.781616,,,
729705774.593488,-2.361418,-2.349644,79.39795,0.037048,-0.047623,0.999435,0.0641,-0.016726,0.064256,86.334808,35.747604,-148.781616,,,
729705774.596899,-2.361418,-2.349644,79.39795,0.037048,-0.047623,0.999435,0.0641,-0.016726,0.064256,86.334808,35.747604,-148.781616,,,
729705774.600211,-2.344184,-2.350127,79.417651,0.037048,-0.047623,0.999435,0.0641,-0.016726,0.064256,86.334808,35.747604,-148.781616,,,
729705774.603479,-2.325623,-2.353486,79.437408,0.03981,-0.042542,1.00148,0.069942,-0.00991,0.065543,86.334808,35.747604,-148.781616,,,
729705774.606886,-2.325623,-2.353486,79.437408,0.03981,-0.042542,1.00148,0.069942,-0.00991,0.065543,86.334808,35.747604,-148.781616,,,
729705774.610145,-2.306536,-2.35256,79.457329,0.03981,-0.042542,1.00148,0.069942,-0.00991,0.065543,86.334808,35.747604,-148.781616,,,
729705774.613485,-2.286884,-2.353056,79.476431,0.043564,-0.040588,1.003128,0.070973,0.001328,0.060681,86.334808,35.747604,-148.781616,,,
729705774.61683,-2.286884,-2.353056,79.476431,0.043564,-0.040588,1.003128,0.070973,0.001328,0.060681,86.334808,35.747604,-148.781616,,,
729705774.62015,-2.267014,-2.350668,79.494393,0.043564,-0.040588,1.003128,0.070973,0.001328,0.060681,86.15239,35.52034,-148.768539,,,
729705774.623483,-2.24765,-2.347746,79.511215,0.044205,-0.0392,0.999069,0.06897,0.01514,0.053203,86.15239,35.52034,-148.768539,,,
729705774.626828,-2.24765,-2.347746,79.511215,0.044205,-0.0392,0.999069,0.06897,0.01514,0.053203,86.15239,35.52034,-148.768539,,,
729705774.63021,-2.22901,-2.342109,79.526949,0.044205,-0.0392,0.999069,0.06897,0.01514,0.053203,86.15239,35.52034,-148.768539,,,
729705774.633482,-2.211113,-2.336004,79.541659,0.04567,-0.039551,0.999313,0.062633,0.023952,0.046537,86.15239,35.52034,-148.768539,,,
729705774.636827,-2.211113,-2.336004,79.541659,0.04567,-0.039551,0.999313,0.062633,0.023952,0.046537,86.15239,35.52034,-148.768539,,,
729705774.640155,-2.19498,-2.327985,79.556039,0.04567,-0.039551,0.999313,0.062633,0.023952,0.046537,86.15239,35.52034,-148.768539,,,
729705774.643486,-2.177521,-2.3226,79.569891,0.043564,-0.041061,0.991699,0.061862,0.017452,0.043258,86.15239,35.52034,-148.768539,,,
729705774.646825,-2.177521,-2.3226,79.569891,0.043564,-0.041061,0.991699,0.061862,0.017452,0.043258,86.15239,35.52034,-148.768539,,,
729705774.650155,-2.163087,-2.316745,79.583132,0.043564,-0.041061,0.991699,0.061862,0.017452,0.043258,86.15239,35.52034,-148.768539,,,
729705774.653489,-2.145869,-2.313043,79.595567,0.044373,-0.039795,0.988846,0.063873,0.013149,0.037947,86.15239,35.52034,-148.768539,,,
729705774.656895,-2.145869,-2.313043,79.595567,0.044373,-0.039795,0.988846,0.063873,0.013149,0.037947,86.15239,35.52034,-148.768539,,,
729705774.660148,-2.1317,-2.309203,79.607048,0.044373,-0.039795,0.988846,0.063873,0.013149,0.037947,86.243591,35.595367,-148.99147,,,
729705774.663488,-2.115494,-2.309062,79.61737,0.043808,-0.035568,0.987503,0.05575,-0.001154,0.030633,86.243591,35.595367,-148.99147,,,
729705774.666829,-2.115494,-2.309062,79.61737,0.043808,-0.035568,0.987503,0.05575,-0.001154,0.030633,86.243591,35.595367,-148.99147,,,
729705774.670223,-2.104517,-2.309496,79.626777,0.043808,-0.035568,0.987503,0.05575,-0.001154,0.030633,86.243591,35.595367,-148.99147,,,
729705774.673472,-2.092801,-2.312163,79.635085,0.04393,-0.034973,0.986252,0.038967,-0.009532,0.023943,86.243591,35.595367,-148.99147,,,
729705774.676831,-2.092801,-2.312163,79.635085,0.04393,-0.034973,0.986252,0.038967,-0.009532,0.023943,86.243591,35.595367,-148.99147,,,
729705774.68015,-2.084983,-2.314684,79.642251,0.04393,-0.034973,0.986252,0.038967,-0.009532,0.023943,86.243591,35.595367,-148.99147,,,
729705774.683484,-2.076329,-2.317184,79.648242,0.045639,-0.034897,0.988342,0.03161,-0.004449,0.016189,86.243591,35.595367,-148.99147,,,
729705774.686826,-2.076329,-2.317184,79.648242,0.045639,-0.034897,0.988342,0.03161,-0.004449,0.016189,86.243591,35.595367,-148.99147,,,
729705774.690149,-2.069412,-2.319351,79.653507,0.045639,-0.034897,0.988342,0.03161,-0.004449,0.016189,86.243591,35.595367,-148.99147,,,
729705774.693518,-2.06231,-2.320328,79.658541,0.045425,-0.035248,0.994598,0.024097,0.000874,0.014737,86.243591,35.595367,-148.99147,,,
729705774.69692,-2.06231,-2.320328,79.658541,0.045425,-0.035248,0.994598,0.024097,0.000874,0.014737,86.243591,35.595367,-148.99147,,,
729705774.700177,-2.05746,-2.321498,79.664117,0.045425,-0.035248,0.994598,0.024097,0.000874,0.014737,86.243591,35.595367,-148.99147,,,
729705774.703501,-2.05248,-2.321098,79.670576,0.044418,-0.03775,0.992722,0.018532,0.005804,0.020928,86.292038,35.438828,-149.032089,,,
729705774.706834,-2.05248,-2.321098,79.670576,0.044418,-0.03775,0.992722,0.018532,0.005804,0.020928,86.292038,35.438828,-149.032089,,,
729705774.710235,-2.049488,-2.321716,79.677837,0.044418,-0.03775,0.992722,0.018532,0.005804,0.020928,86.292038,35.438828,-149.032089,,,
729705774.713482,-2.047028,-2.321242,79.686393,0.042892,-0.041595,0.992035,0.008688,0.003305,0.030021,86.292038,35.438828,-149.032089,,,
729705774.716838,-2.047028,-2.321242,79.686393,0.042892,-0.041595,0.992035,0.008688,0.003305,0.030021,86.292038,35.438828,-149.032089,,,
729705774.720166,-2.046467,-2.32119,79.695062,0.042892,-0.041595,0.992035,0.008688,0.003305,0.030021,86.292038,35.438828,-149.032089,,,
729705774.723484,-2.045443,-2.31942,79.70267,0.04866,-0.037308,0.991699,0.004756,0.008163,0.022547,86.292038,35.438828,-149.032089,,,
729705774.726863,-2.045443,-2.31942,79.70267,0.04866,-0.037308,0.991699,0.004756,0.008163,0.022547,86.292038,35.438828,-149.032089,,,
729705774.73017,-2.04671,-2.318426,79.708477,0.04866,-0.037308,0.991699,0.004756,0.008163,0.022547,86.292038,35.438828,-149.032089,,,
729705774.73349,-2.047724,-2.316361,79.712079,0.048233,-0.032028,0.991669,-0.004234,0.010068,0.007414,86.292038,35.438828,-149.032089,,,
729705774.736893,-2.047724,-2.316361,79.712079,0.048233,-0.032028,0.991669,-0.004234,0.010068,0.007414,86.292038,35.438828,-149.032089,,,
729705774.740164,-2.050166,-2.315996,79.713381,0.048233,-0.032028,0.991669,-0.004234,0.010068,0.007414,86.292038,35.438828,-149.032089,,,
729705774.743498,-2.052551,-2.315072,79.712887,0.044846,-0.03389,0.989838,-0.008373,0.00612,-0.005235,86.361694,35.32399,-148.943588,,,
729705774.746863,-2.052551,-2.315072,79.712887,0.044846,-0.03389,0.989838,-0.008373,0.00612,-0.005235,86.361694,35.32399,-148.943588,,,
729705774.750254,-2.055455,-2.315319,79.711505,0.044846,-0.03389,0.989838,-0.008373,0.00612,-0.005235,86.361694,35.32399,-148.943588,,,
729705774.753483,-2.059154,-2.315071,79.709714,0.040421,-0.039169,0.991028,-0.014101,0.002441,-0.008064,86.361694,35.32399,-148.943588,,,
729705774.756825,-2.059154,-2.315071,79.709714,0.040421,-0.039169,0.991028,-0.014101,0.002441,-0.008064,86.361694,35.32399,-148.943588,,,
729705774.760208,-2.063586,-2.317329,79.707679,0.040421,-0.039169,0.991028,-0.014101,0.002441,-0.008064,86.361694,35.32399,-148.943588,,,
729705774.763484,-2.069671,-2.318832,79.705714,0.039047,-0.041824,0.987366,-0.023247,-0.001667,-0.007507,86.361694,35.32399,-148.943588,,,
729705774.766843,-2.069671,-2.318832,79.705714,0.039047,-0.041824,0.987366,-0.023247,-0.001667,-0.007507,86.361694,35.32399,-148.943588,,,
729705774.770164,-2.076525,-2.321769,79.703103,0.039047,-0.041824,0.987366,-0.023247,-0.001667,-0.007507,86.361694,35.32399,-148.943588,,,
729705774.773524,-2.0836,-2.323476,79.699612,0.036545,-0.038879,0.991974,-0.024546,-0.002099,-0.013915,86.361694,35.32399,-148.943588,,,
729705774.776811,-2.0836,-2.323476,79.699612,0.036545,-0.038879,0.991974,-0.024546,-0.002099,-0.013915,86.361694,35.32399,-148.943588,,,
729705774.780162,-2.089964,-2.326904,79.695718,0.036545,-0.038879,0.991974,-0.024546,-0.002099,-0.013915,86.361694,35.32399,-148.943588,,,
729705774.783492,-2.095697,-2.329666,79.691348,0.036362,-0.036469,0.995697,-0.019634,-0.00598,-0.01772,86.409225,35.167267,-148.856842,,,
729705774.786642,-2.095697,-2.329666,79.691348,0.036362,-0.036469,0.995697,-0.019634,-0.00598,-0.01772,86.409225,35.167267,-148.856842,,,
729705774.790182,-2.102223,-2.332826,79.687016,0.036362,-0.036469,0.995697,-0.019634,-0.00598,-0.01772,86.409225,35.167267,-148.856842,,,
729705774.793517,-2.108611,-2.334487,79.683346,0.035416,-0.03746,0.99646,-0.024123,8.4e-05,-0.013068,86.409225,35.167267,-148.856842,,,
729705774.796838,-2.108611,-2.334487,79.683346,0.035416,-0.03746,0.99646,-0.024123,8.4e-05,-0.013068,86.409225,35.167267,-148.856842,,,
729705774.800223,-2.116425,-2.336716,79.680368,0.035416,-0.03746,0.99646,-0.024123,8.4e-05,-0.013068,86.409225,35.167267,-148.856842,,,
729705774.803484,-2.123139,-2.33643,79.679205,0.034058,-0.043594,0.995728,-0.022551,0.006716,-0.000849,86.409225,35.167267,-148.856842,,,
729705774.806825,-2.123139,-2.33643,79.679205,0.034058,-0.043594,0.995728,-0.022551,0.006716,-0.000849,86.409225,35.167267,-148.856842,,,
729705774.81017,-2.128953,-2.336441,79.68013,0.034058,-0.043594,0.995728,-0.022551,0.006716,-0.000849,86.409225,35.167267,-148.856842,,,
729705774.813484,-2.135014,-2.330959,79.683043,0.034164,-0.047485,1.000076,-0.018413,0.027981,0.012215,86.409225,35.167267,-148.856842,,,
729705774.816834,-2.135014,-2.330959,79.683043,0.034164,-0.047485,1.000076,-0.018413,0.027981,0.012215,86.409225,35.167267,-148.856842,,,
729705774.820155,-2.14003,-2.324073,79.68746,0.034164,-0.047485,1.000076,-0.018413,0.027981,0.012215,86.409225,35.167267,-148.856842,,,
729705774.823484,-2.146112,-2.313717,79.693004,0.037445,-0.043259,1.0047,-0.01782,0.040196,0.019564,86.439941,35.645584,-149.229141,,,
729705774.826828,-2.146112,-2.313717,79.693004,0.037445,-0.043259,1.0047,-0.01782,0.040196,0.019564,86.439941,35.645584,-149.229141,,,
729705774.830149,-2.151578,-2.303298,79.699174,0.037445,-0.043259,1.0047,-0.01782,0.040196,0.019564,86.439941,35.645584,-149.229141,,,
729705774.833484,-2.156517,-2.293763,79.705249,0.03595,-0.041397,0.999847,-0.014586,0.030828,0.018611,86.439941,35.645584,-149.229141,,,
729705774.836815,-2.156517,-2.293763,79.705249,0.03595,-0.041397,0.999847,-0.014586,0.030828,0.018611,86.439941,35.645584,-149.229141,,,
729705774.840164,-2.162165,-2.286344,79.710973,0.03595,-0.041397,0.999847,-0.014586,0.030828,0.018611,86.439941,35.645584,-149.229141,,,
729705774.843483,-2.167446,-2.281432,79.71632,0.03215,-0.038879,0.995377,-0.018079,0.014095,0.016102,86.439941,35.645584,-149.229141,,,
729705774.846844,-2.167446,-2.281432,79.71632,0.03215,-0.038879,0.995377,-0.018079,0.014095,0.016102,86.439941,35.645584,-149.229141,,,
729705774.850223,-2.173952,-2.278954,79.72081,0.03215,-0.038879,0.995377,-0.018079,0.014095,0.016102,86.439941,35.645584,-149.229141,,,
729705774.853483,-2.179641,-2.279168,79.724521,0.036118,-0.034088,0.99675,-0.018732,-0.002592,0.010772,86.439941,35.645584,-149.229141,,,
729705774.856828,-2.179641,-2.279168,79.724521,0.036118,-0.034088,0.99675,-0.018732,-0.002592,0.010772,86.439941,35.645584,-149.229141,,,
729705774.860167,-2.184391,-2.281372,79.727153,0.036118,-0.034088,0.99675,-0.018732,-0.002592,0.010772,86.439941,35.645584,-149.229141,,,
729705774.863483,-2.187852,-2.287214,79.728806,0.038651,-0.031876,0.99498,-0.009288,-0.021305,0.003854,86.439941,35.645584,-149.229141,,,
729705774.866857,-2.187852,-2.287214,79.728806,0.038651,-0.031876,0.99498,-0.009288,-0.021305,0.003854,86.40361,35.465714,-149.125931,,,
729705774.870154,-2.188657,-2.292981,79.729436,0.038651,-0.031876,0.99498,-0.009288,-0.021305,0.003854,86.40361,35.465714,-149.125931,,,
729705774.873492,-2.18784,-2.299082,79.728905,0.044891,-0.031082,1.001678,0.006619,-0.016843,-0.004621,86.40361,35.465714,-149.125931,,,
729705774.876888,-2.18784,-2.299082,79.728905,0.044891,-0.031082,1.001678,0.006619,-0.016843,-0.004621,86.40361,35.465714,-149.125931,,,
729705774.880159,-2.185249,-2.303041,79.728698,0.044891,-0.031082,1.001678,0.006619,-0.016843,-0.004621,86.40361,35.465714,-149.125931,,,
729705774.883488,-2.181023,-2.306921,79.729067,0.044205,-0.033569,1.003632,0.014296,-0.007617,-0.000589,86.40361,35.465714,-149.125931,,,
729705774.886887,-2.181023,-2.306921,79.729067,0.044205,-0.033569,1.003632,0.014296,-0.007617,-0.000589,86.40361,35.465714,-149.125931,,,
729705774.890151,-2.178756,-2.307991,79.730749,0.044205,-0.033569,1.003632,0.014296,-0.007617,-0.000589,86.40361,35.465714,-149.125931,,,
729705774.893494,-2.173412,-2.310049,79.734256,0.044266,-0.034637,1.001312,0.021496,-0.002917,0.012265,86.40361,35.465714,-149.125931,,,
729705774.896812,-2.173412,-2.310049,79.734256,0.044266,-0.034637,1.001312,0.021496,-0.002917,0.012265,86.40361,35.465714,-149.125931,,,
729705774.900148,-2.16984,-2.310692,79.73855,0.044266,-0.034637,1.001312,0.021496,-0.002917,0.012265,86.40361,35.465714,-149.125931,,,
729705774.903481,-2.165607,-2.312362,79.743195,0.043488,-0.030045,0.996689,0.014265,-0.001894,0.015277,86.40361,35.465714,-149.125931,,,
729705774.906821,-2.165607,-2.312362,79.743195,0.043488,-0.030045,0.996689,0.014265,-0.001894,0.015277,86.247055,35.450821,-148.964066,,,
729705774.910149,-2.163201,-2.312478,79.748599,0.043488,-0.030045,0.996689,0.014265,-0.001894,0.015277,86.247055,35.450821,-148.964066,,,
729705774.913485,-2.160949,-2.312613,79.754374,0.043106,-0.028503,0.997498,0.00712,0.003296,0.018335,86.247055,35.450821,-148.964066,,,
729705774.916842,-2.160949,-2.312613,79.754374,0.043106,-0.028503,0.997498,0.00712,0.003296,0.018335,86.247055,35.450821,-148.964066,,,
729705774.920164,-2.159706,-2.310014,79.760002,0.043106,-0.028503,0.997498,0.00712,0.003296,0.018335,86.247055,35.450821,-148.964066,,,
729705774.923481,-2.1573,-2.308429,79.764802,0.046082,-0.030106,0.999008,0.010217,0.00948,0.01296,86.247055,35.450821,-148.964066,,,
729705774.926846,-2.1573,-2.308429,79.764802,0.046082,-0.030106,0.999008,0.010217,0.00948,0.01296,86.247055,35.450821,-148.964066,,,
729705774.930146,-2.154912,-2.304701,79.768389,0.046082,-0.030106,0.999008,0.010217,0.00948,0.01296,86.247055,35.450821,-148.964066,,,
729705774.933478,-2.152747,-2.303043,79.770722,0.047211,-0.028824,0.999893,0.009751,0.006656,0.004654,86.247055,35.450821,-148.964066,,,
729705774.936917,-2.152747,-2.303043,79.770722,0.047211,-0.028824,0.999893,0.009751,0.006656,0.004654,86.247055,35.450821,-148.964066,,,
729705774.940206,-2.148593,-2.301634,79.772574,0.047211,-0.028824,0.999893,0.009751,0.006656,0.004654,86.247055,35.450821,-148.964066,,,
729705774.943488,-2.14459,-2.301423,79.773864,0.046219,-0.03154,1.000137,0.01695,0.003621,0.00059,86.247055,35.450821,-148.964066,,,
729705774.946819,-2.14459,-2.301423,79.773864,0.046219,-0.03154,1.000137,0.01695,0.003621,0.00059,86.294662,35.324661,-149.088364,,,
729705774.950153,-2.138615,-2.302134,79.775029,0.046219,-0.03154,1.000137,0.01695,0.003621,0.00059,86.294662,35.324661,-149.088364,,,
729705774.953486,-2.133532,-2.303353,79.776442,0.044785,-0.036636,1.003693,0.021297,-0.002339,0.002067,86.294662,35.324661,-149.088364,,,
729705774.956851,-2.133532,-2.303353,79.776442,0.044785,-0.036636,1.003693,0.021297,-0.002339,0.002067,86.294662,35.324661,-149.088364,,,
729705774.960168,-2.125222,-2.306456,79.77805,0.044785,-0.036636,1.003693,0.021297,-0.002339,0.002067,86.294662,35.324661,-149.088364,,,
729705774.96348,-2.115947,-2.309151,79.780254,0.041626,-0.039505,1.003387,0.035235,-0.008394,0.005263,86.294662,35.324661,-149.088364,,,
729705774.966836,-2.115947,-2.309151,79.780254,0.041626,-0.039505,1.003387,0.035235,-0.008394,0.005263,86.294662,35.324661,-149.088364,,,
729705774.970163,-2.104601,-2.313586,79.782331,0.041626,-0.039505,1.003387,0.035235,-0.008394,0.005263,86.294662,35.324661,-149.088364,,,
729705774.973492,-2.091861,-2.317418,79.783921,0.04245,-0.038483,1.001694,0.048414,-0.010089,0.001117,86.294662,35.324661,-149.088364,,,
729705774.976814,-2.091861,-2.317418,79.783921,0.04245,-0.038483,1.001694,0.048414,-0.010089,0.001117,86.294662,35.324661,-149.088364,,,
729705774.980156,-2.076637,-2.322005,79.784944,0.04245,-0.038483,1.001694,0.048414,-0.010089,0.001117,86.294662,35.324661,-149.088364,,,
729705774.983478,-2.060979,-2.325209,79.785481,0.045364,-0.034698,1.003555,0.058472,-0.007794,-0.002964,86.294662,35.324661,-149.088364,,,
729705774.986898,-2.060979,-2.325209,79.785481,0.045364,-0.034698,1.003555,0.058472,-0.007794,-0.002964,86.269363,35.529099,-148.978439,,,
729705774.99015,-2.042661,-2.328677,79.786161,0.045364,-0.034698,1.003555,0.058472,-0.007794,-0.002964,86.269363,35.529099,-148.978439,,,
729705774.993499,-2.026571,-2.330986,79.787633,0.042801,-0.033783,1.000748,0.055366,-0.004427,0.002512,86.269363,35.529099,-148.978439,,,
729705774.996843,-2.026571,-2.330986,79.787633,0.042801,-0.033783,1.000748,0.055366,-0.004427,0.002512,86.269363,35.529099,-148.978439,,,
729705775.000247,-2.010251,-2.332874,79.790016,0.042801,-0.033783,1.000748,0.055366,-0.004427,0.002512,86.269363,35.529099,-148.978439,,,
729705775.003528,-2.010251,-2.332874,79.790016,0.042801,-0.033783,1.000748,0.043864,0.006153,0.011019,86.269363,35.529099,-148.978439,,,
729705775.006836,-1.996935,-2.33225,79.793599,0.040771,-0.035995,0.99762,0.043864,0.006153,0.011019,86.269363,35.529099,-148.978439,,,
729705775.010175,-1.98456,-2.332694,79.79791,0.040771,-0.035995,0.99762,0.043864,0.006153,0.011019,86.269363,35.529099,-148.978439,,,
729705775.013497,-1.975143,-2.331589,79.80241,0.040771,-0.035995,0.99762,0.031315,0.005388,0.012407,86.269363,35.529099,-148.978439,,,
729705775.016883,-1.975143,-2.331589,79.80241,0.042816,-0.036423,0.9944,0.031315,0.005388,0.012407,86.269363,35.529099,-148.978439,,,
729705775.020143,-1.966356,-2.33263,79.806392,0.042816,-0.036423,0.9944,0.031315,0.005388,0.012407,86.269363,35.529099,-148.978439,,,
729705775.023511,-1.960464,-2.332333,79.809648,0.0439,-0.0327,0.991562,0.017663,0.003601,0.007493,86.269363,35.529099,-148.978439,,,
729705775.026829,-1.960464,-2.332333,79.809648,0.0439,-0.0327,0.991562,0.017663,0.003601,0.007493,86.269363,35.529099,-148.978439,,,
729705775.030145,-1.956169,-2.334005,79.811458,0.0439,-0.0327,0.991562,0.017663,0.003601,0.007493,86.566666,35.453659,-149.138306,,,
729705775.033525,-1.953563,-2.335145,79.811595,0.044464,-0.030716,0.994308,0.006626,-0.00054,-0.004011,86.566666,35.453659,-149.138306,,,
729705775.036887,-1.953563,-2.335145,79.811595,0.044464,-0.030716,0.994308,0.006626,-0.00054,-0.004011,86.566666,35.453659,-149.138306,,,
729705775.040163,-1.953566,-2.336918,79.810244,0.044464,-0.030716,0.994308,0.006626,-0.00054,-0.004011,86.566666,35.453659,-149.138306,,,
729705775.043486,-1.953566,-2.336918,79.810244,0.044464,-0.030716,0.994308,0.006626,-0.00054,-0.004011,86.566666,35.453659,-149.138306,,,
729705775.046832,-1.952914,-2.33882,79.80773,0.038589,-0.036362,0.997177,0.003452,-0.005692,-0.01214,86.566666,35.453659,-149.138306,,,
729705775.050144,-1.953026,-2.34251,79.804622,0.038589,-0.036362,0.997177,0.003452,-0.005692,-0.01214,86.566666,35.453659,-149.138306,,,
729705775.05352,-1.951506,-2.347755,79.801599,0.038589,-0.036362,0.997177,0.006775,-0.017137,-0.011717,86.566666,35.453659,-149.138306,,,
729705775.056831,-1.951506,-2.347755,79.801599,0.034119,-0.041901,0.997162,0.006775,-0.017137,-0.011717,86.566666,35.453659,-149.138306,,,
729705775.060168,-1.949571,-2.354875,79.799464,0.034119,-0.041901,0.997162,0.006775,-0.017137,-0.011717,86.566666,35.453659,-149.138306,,,
729705775.063558,-1.94577,-2.362058,79.799022,0.028351,-0.049454,0.99913,0.016089,-0.02326,-0.000544,86.566666,35.453659,-149.138306,,,
729705775.066821,-1.94577,-2.362058,79.799022,0.028351,-0.049454,0.99913,0.016089,-0.02326,-0.000544,86.566666,35.453659,-149.138306,,,
729705775.07015,-1.939818,-2.370729,79.800289,0.028351,-0.049454,0.99913,0.016089,-0.02326,-0.000544,86.4991,35.217438,-149.450195,,,
729705775.073566,-1.939818,-2.370729,79.803476,0.028351,-0.049454,0.99913,0.028442,-0.027558,0.012171,86.4991,35.217438,-149.450195,,,
729705775.076888,-1.932216,-2.379108,79.803476,0.023926,-0.053833,1.001236,0.028442,-0.027558,0.012171,86.4991,35.217438,-149.450195,,,
729705775.080205,-1.924582,-2.387376,79.808638,0.023926,-0.053833,1.001236,0.028442,-0.027558,0.012171,86.4991,35.217438,-149.450195,,,
729705775.083538,-1.924582,-2.387376,79.808638,0.023926,-0.053833,1.001236,0.028442,-0.027558,0.012171,86.4991,35.217438,-149.450195,,,
729705775.086812,-1.916504,-2.394334,79.814697,0.027191,-0.051498,0.997864,0.02927,-0.018843,0.018425,86.4991,35.217438,-149.450195,,,
729705775.090157,-1.909831,-2.400091,79.82085,0.027191,-0.051498,0.997864,0.02927,-0.018843,0.018425,86.4991,35.217438,-149.450195,,,
729705775.093551,-1.909831,-2.400091,79.82085,0.027191,-0.051498,0.997864,0.02927,-0.018843,0.018425,86.4991,35.217438,-149.450195,,,
729705775.096836,-1.903921,-2.404044,79.82645,0.0327,-0.044662,0.99408,0.019609,-0.007099,0.015014,86.4991,35.217438,-149.450195,,,
729705775.100116,-1.899936,-2.405952,79.831024,0.0327,-0.044662,0.99408,0.019609,-0.007099,0.015014,86.4991,35.217438,-149.450195,,,
729705775.103589,-1.899936,-2.405952,79.831024,0.0327,-0.044662,0.99408,0.019609,-0.007099,0.015014,86.4991,35.217438,-149.450195,,,
729705775.106845,-1.897223,-2.405519,79.835205,0.037125,-0.040115,0.991089,0.007698,0.006949,0.01271,86.4991,35.217438,-149.450195,,,
729705775.11019,-1.896117,-2.404258,79.83961,0.037125,-0.040115,0.991089,0.007698,0.006949,0.01271,86.364883,35.04509,-148.915802,,,
729705775.113567,-1.896117,-2.404258,79.83961,0.037125,-0.040115,0.991089,0.007698,0.006949,0.01271,86.364883,35.04509,-148.915802,,,
729705775.116821,-1.897291,-2.400088,79.844276,0.038528,-0.042252,0.993317,-0.005603,0.020703,0.014916,86.364883,35.04509,-148.915802,,,
729705775.12015,-1.899666,-2.39509,79.848993,0.038528,-0.042252,0.993317,-0.005603,0.020703,0.014916,86.364883,35.04509,-148.915802,,,
729705775.123538,-1.899666,-2.39509,79.848993,0.038528,-0.042252,0.993317,-0.005603,0.020703,0.014916,86.364883,35.04509,-148.915802,,,
729705775.126845,-1.902398,-2.391101,79.853286,0.041534,-0.042038,0.990128,-0.008159,0.013851,0.012051,86.364883,35.04509,-148.915802,,,
729705775.130146,-1.906411,-2.387513,79.85662,0.041534,-0.042038,0.990128,-0.008159,0.013851,0.012051,86.364883,35.04509,-148.915802,,,
729705775.133555,-1.906411,-2.387513,79.85662,0.041534,-0.042038,0.990128,-0.008159,0.013851,0.012051,86.364883,35.04509,-148.915802,,,
729705775.136911,-1.908308,-2.38772,79.858655,0.039795,-0.03775,0.988632,-0.004001,-0.002879,0.003169,86.364883,35.04509,-148.915802,,,
729705775.140154,-1.912824,-2.388549,79.859276,0.039795,-0.03775,0.988632,-0.004001,-0.002879,0.003169,86.364883,35.04509,-148.915802,,,
729705775.14352,-1.912824,-2.388549,79.859276,0.039795,-0.03775,0.988632,-0.004001,-0.002879,0.003169,86.364883,35.04509,-148.915802,,,
729705775.146818,-1.91475,-2.396365,79.858469,0.037903,-0.033875,0.987259,-0.006888,-0.031125,-0.006021,86.364883,35.04509,-148.915802,,,
729705775.150174,-1.921159,-2.403444,79.856731,0.037903,-0.033875,0.987259,-0.006888,-0.031125,-0.006021,86.364883,35.04509,-148.915802,,,
729705775.153531,-1.921159,-2.403444,79.856731,0.037903,-0.033875,0.987259,-0.006888,-0.031125,-0.006021,86.401093,35.369827,-149.039948,,,
729705775.156812,-1.923424,-2.417967,79.853962,0.03981,-0.035156,0.986206,-0.008751,-0.052556,-0.012097,86.401093,35.369827,-149.039948,,,
729705775.160168,-1.931362,-2.430697,79.850606,0.03981,-0.035156,0.986206,-0.008751,-0.052556,-0.012097,86.401093,35.369827,-149.039948,,,
729705775.163607,-1.931362,-2.430697,79.850606,0.03981,-0.035156,0.986206,-0.008751,-0.052556,-0.012097,86.401093,35.369827,-149.039948,,,
729705775.166833,-1.93495,-2.44917,79.847092,0.043381,-0.038254,0.987228,-0.012093,-0.06222,-0.012038,86.401093,35.369827,-149.039948,,,
729705775.170158,-1.942484,-2.464909,79.844138,0.043381,-0.038254,0.987228,-0.012093,-0.06222,-0.012038,86.401093,35.369827,-149.039948,,,
729705775.173496,-1.942484,-2.464909,79.844138,0.043381,-0.038254,0.987228,-0.012093,-0.06222,-0.012038,86.401093,35.369827,-149.039948,,,
729705775.176906,-1.947369,-2.483271,79.84099,0.047501,-0.03891,0.990128,-0.018536,-0.056714,-0.0122,86.401093,35.369827,-149.039948,,,
729705775.180143,-1.954839,-2.497419,79.837841,0.047501,-0.03891,0.990128,-0.018536,-0.056714,-0.0122,86.401093,35.369827,-149.039948,,,
729705775.183497,-1.954839,-2.497419,79.837841,0.047501,-0.03891,0.990128,-0.018536,-0.056714,-0.0122,86.401093,35.369827,-149.039948,,,
729705775.18683,-1.960952,-2.509678,79.834623,0.052414,-0.0383,0.996201,-0.021523,-0.031096,-0.01209,86.401093,35.369827,-149.039948,,,
729705775.190179,-1.969015,-2.51541,79.831648,0.052414,-0.0383,0.996201,-0.021523,-0.031096,-0.01209,86.401093,35.369827,-149.039948,,,
729705775.193533,-1.969015,-2.51541,79.831648,0.052414,-0.0383,0.996201,-0.021523,-0.031096,-0.01209,86.131454,35.347046,-148.970749,,,
729705775.196839,-1.975391,-2.519436,79.829186,0.057373,-0.034729,0.998245,-0.021863,-0.006761,-0.008064,86.131454,35.347046,-148.970749,,,
729705775.200156,-1.983906,-2.520155,79.827451,0.057373,-0.034729,0.998245,-0.021863,-0.006761,-0.008064,86.131454,35.347046,-148.970749,,,
729705775.203635,-1.983906,-2.520155,79.827451,0.057373,-0.034729,0.998245,-0.021863,-0.006761,-0.008064,86.131454,35.347046,-148.970749,,,
729705775.206818,-1.990823,-2.519309,79.826526,0.053604,-0.037491,0.996353,-0.023967,0.009452,-0.002013,86.131454,35.347046,-148.970749,,,
729705775.210159,-1.998695,-2.515899,79.825626,0.053604,-0.037491,0.996353,-0.023967,0.009452,-0.002013,86.131454,35.347046,-148.970749,,,
729705775.213505,-1.998695,-2.515899,79.825626,0.053604,-0.037491,0.996353,-0.023967,0.009452,-0.002013,86.131454,35.347046,-148.970749,,,
729705775.2169,-2.004622,-2.511731,79.824176,0.055283,-0.036652,0.998032,-0.019172,0.019152,-0.005899,86.131454,35.347046,-148.970749,,,
729705775.220144,-2.009652,-2.505548,79.822316,0.055283,-0.036652,0.998032,-0.019172,0.019152,-0.005899,86.131454,35.347046,-148.970749,,,
729705775.223525,-2.009652,-2.505548,79.822316,0.055283,-0.036652,0.998032,-0.019172,0.019152,-0.005899,86.131454,35.347046,-148.970749,,,
729705775.226827,-2.013356,-2.500601,79.819816,0.057465,-0.033218,0.99678,-0.009422,0.019885,-0.010493,86.131454,35.347046,-148.970749,,,
729705775.230148,-2.014959,-2.495847,79.816837,0.057465,-0.033218,0.99678,-0.009422,0.019885,-0.010493,86.131454,35.347046,-148.970749,,,
729705775.233486,-2.014959,-2.495847,79.816837,0.057465,-0.033218,0.99678,-0.009422,0.019885,-0.010493,86.594452,35.324631,-149.035553,,,
729705775.236834,-2.015047,-2.493898,79.812871,0.05603,-0.031036,0.992874,0.001694,0.009409,-0.017564,86.594452,35.324631,-149.035553,,,
729705775.240165,-2.014965,-2.492379,79.807788,0.05603,-0.031036,0.992874,0.001694,0.009409,-0.017564,86.594452,35.324631,-149.035553,,,
729705775.243481,-2.014965,-2.492379,79.807788,0.05603,-0.031036,0.992874,0.001694,0.009409,-0.017564,86.594452,35.324631,-149.035553,,,
729705775.246845,-2.014391,-2.492499,79.801827,0.055222,-0.031662,0.99263,0.001279,0.000411,-0.023602,86.594452,35.324631,-149.035553,,,
729705775.250149,-2.014291,-2.49484,79.795144,0.055222,-0.031662,0.99263,0.001279,0.000411,-0.023602,86.594452,35.324631,-149.035553,,,
729705775.253567,-2.014291,-2.49484,79.795144,0.055222,-0.031662,0.99263,0.001279,0.000411,-0.023602,86.594452,35.324631,-149.035553,,,
729705775.25681,-2.0133,-2.496923,79.788189,0.052322,-0.031357,0.99205,0.001403,-0.003574,-0.025672,86.594452,35.324631,-149.035553,,,
729705775.260168,-2.013594,-2.500907,79.781301,0.052322,-0.031357,0.99205,0.001403,-0.003574,-0.025672,86.594452,35.324631,-149.035553,,,
729705775.263502,-2.013594,-2.500907,79.781301,0.052322,-0.031357,0.99205,0.001403,-0.003574,-0.025672,86.594452,35.324631,-149.035553,,,
729705775.266899,-2.012603,-2.502819,79.77482,0.049301,-0.033737,0.993668,0.002957,-0.000937,-0.023284,86.594452,35.324631,-149.035553,,,
