Time (sec),Pitch (deg),Roll (deg),Yaw(deg),X-Acceleration (g),Y-Acceleration (g),Z-Acceleration (g),Pitch Rate (deg/sec),Roll Rate (deg/sec),Yaw Rate (deg/sec),Magnetic Field in X direction (uT),Magnetic Field in Y direction (uT),Magnetic Field in Z Direction (uT),Latitude (deg),Longitude (deg),Altitude (m)
729716323.845556,-69.993969,-10.489812,-94.719494,0.061172,-0.914062,0.316818,-0.430596,-0.0372,0.118294,62.647614,68.891785,-123.33136,,,
729716323.845968,-69.993929,-10.489815,-91.642597,0.061172,-0.914062,0.316818,-0.430596,-0.0372,0.118294,62.647614,68.891785,-123.33136,,,
729716323.850281,-70.123333,-10.466106,-94.685337,0.061172,-0.914062,0.316818,-0.433252,-0.025934,0.120399,62.647614,68.891785,-123.33136,,,
729716323.850508,-70.123293,-10.466109,-91.60844,0.061172,-0.914062,0.316818,-0.433252,-0.025934,0.120399,62.647614,68.891785,-123.33136,,,
729716323.854192,-70.25191,-10.438264,-94.646854,0.05455,-0.92186,0.324402,-0.433252,-0.025934,0.120399,62.67157,69.691055,-122.892838,,,
729716323.854439,-70.251869,-10.438267,-91.569957,0.05455,-0.92186,0.324402,-0.433252,-0.025934,0.120399,62.67157,69.691055,-122.892838,,,
729716323.855644,-70.25191,-10.438264,-94.646854,0.05455,-0.92186,0.324402,-0.433252,-0.025934,0.120399,62.67157,69.691055,-122.892838,,,
729716323.855947,-70.251869,-10.438267,-91.569957,0.05455,-0.92186,0.324402,-0.433252,-0.025934,0.120399,62.67157,69.691055,-122.892838,,,
729716323.860228,-70.380924,-10.414338,-94.608804,0.05455,-0.92186,0.324402,-0.428947,-0.049983,0.123264,62.67157,69.691055,-122.892838,,,
729716323.860449,-70.380883,-10.414341,-91.531907,0.05455,-0.92186,0.324402,-0.428947,-0.049983,0.123264,62.67157,69.691055,-122.892838,,,
729716323.863282,-70.507742,-10.391302,-94.568378,0.057693,-0.923294,0.322769,-0.428947,-0.049983,0.123264,62.67157,69.691055,-122.892838,,,
729716323.863498,-70.507701,-10.391304,-91.491481,0.057693,-0.923294,0.322769,-0.428947,-0.049983,0.123264,62.67157,69.691055,-122.892838,,,
729716323.865748,-70.507742,-10.391302,-94.568378,0.057693,-0.923294,0.322769,-0.428947,-0.049983,0.123264,62.67157,69.691055,-122.892838,,,
729716323.865962,-70.507701,-10.391304,-91.491481,0.057693,-0.923294,0.322769,-0.428947,-0.049983,0.123264,62.67157,69.691055,-122.892838,,,
729716323.87043,-70.630075,-10.367269,-94.525536,0.057693,-0.923294,0.322769,-0.388573,-0.055942,0.119188,62.67157,69.691055,-122.892838,,,
729716323.870653,-70.630034,-10.367272,-91.448639,0.057693,-0.923294,0.322769,-0.388573,-0.055942,0.119188,62.67157,69.691055,-122.892838,,,
729716323.873418,-70.746248,-10.344498,-94.483302,0.05751,-0.921585,0.336853,-0.388573,-0.055942,0.119188,62.67157,69.691055,-122.892838,,,
729716323.873635,-70.746207,-10.344501,-91.406405,0.05751,-0.921585,0.336853,-0.388573,-0.055942,0.119188,62.67157,69.691055,-122.892838,,,
729716323.875822,-70.746248,-10.344498,-94.483302,0.05751,-0.921585,0.336853,-0.388573,-0.055942,0.119188,62.67157,69.691055,-122.892838,,,
729716323.876011,-70.746207,-10.344501,-91.406405,0.05751,-0.921585,0.336853,-0.388573,-0.055942,0.119188,62.67157,69.691055,-122.892838,,,
729716323.880462,-70.856093,-10.326169,-94.444615,0.05751,-0.921585,0.336853,-0.353943,-0.068448,0.101228,62.67157,69.691055,-122.892838,,,
729716323.880701,-70.856051,-10.326172,-91.367717,0.05751,-0.921585,0.336853,-0.353943,-0.068448,0.101228,62.67157,69.691055,-122.892838,,,
729716323.8834,-70.961246,-10.315976,-94.412718,0.06163,-0.916779,0.347961,-0.353943,-0.068448,0.101228,62.67157,69.691055,-122.892838,,,
729716323.883636,-70.961205,-10.315979,-91.33582,0.06163,-0.916779,0.347961,-0.353943,-0.068448,0.101228,62.67157,69.691055,-122.892838,,,
729716323.885748,-70.961246,-10.315976,-94.412718,0.06163,-0.916779,0.347961,-0.353943,-0.068448,0.101228,62.67157,69.691055,-122.892838,,,
729716323.885959,-70.961205,-10.315979,-91.33582,0.06163,-0.916779,0.347961,-0.353943,-0.068448,0.101228,62.67157,69.691055,-122.892838,,,
729716323.890389,-71.065046,-10.317352,-94.391165,0.06163,-0.916779,0.347961,-0.358699,-0.078073,0.07263,62.67157,69.691055,-122.892838,,,
729716323.890625,-71.065004,-10.317355,-91.314267,0.06163,-0.916779,0.347961,-0.358699,-0.078073,0.07263,62.67157,69.691055,-122.892838,,,
729716323.894163,-71.170882,-10.331739,-94.381831,0.064117,-0.914185,0.319122,-0.358699,-0.078073,0.07263,62.586975,69.934509,-121.893631,,,
729716323.894408,-71.17084,-10.331742,-91.304933,0.064117,-0.914185,0.319122,-0.358699,-0.078073,0.07263,62.586975,69.934509,-121.893631,,,
729716323.895597,-71.170882,-10.331739,-94.381831,0.064117,-0.914185,0.319122,-0.358699,-0.078073,0.07263,62.586975,69.934509,-121.893631,,,
729716323.895967,-71.17084,-10.331742,-91.304933,0.064117,-0.914185,0.319122,-0.358699,-0.078073,0.07263,62.586975,69.934509,-121.893631,,,
729716323.900814,-71.281116,-10.36167,-94.386506,0.064117,-0.914185,0.319122,-0.4052,-0.101127,0.050685,62.586975,69.934509,-121.893631,,,
729716323.90108,-71.281073,-10.361673,-91.309608,0.064117,-0.914185,0.319122,-0.4052,-0.101127,0.050685,62.586975,69.934509,-121.893631,,,
729716323.903936,-71.398738,-10.410618,-94.406773,0.067474,-0.920074,0.291107,-0.4052,-0.101127,0.050685,62.586975,69.934509,-121.893631,,,
729716323.904201,-71.398695,-10.410621,-91.329874,0.067474,-0.920074,0.291107,-0.4052,-0.101127,0.050685,62.586975,69.934509,-121.893631,,,
729716323.90571,-71.398738,-10.410618,-94.406773,0.067474,-0.920074,0.291107,-0.4052,-0.101127,0.050685,62.586975,69.934509,-121.893631,,,
729716323.905944,-71.398695,-10.410621,-91.329874,0.067474,-0.920074,0.291107,-0.4052,-0.101127,0.050685,62.586975,69.934509,-121.893631,,,
729716323.910634,-71.52735,-10.480753,-94.443836,0.067474,-0.920074,0.291107,-0.498397,-0.13914,0.033671,62.586975,69.934509,-121.893631,,,
729716323.910865,-71.527307,-10.480756,-91.366938,0.067474,-0.920074,0.291107,-0.498397,-0.13914,0.033671,62.586975,69.934509,-121.893631,,,
729716323.913455,-71.670654,-10.571202,-94.496099,0.068344,-0.940399,0.259415,-0.498397,-0.13914,0.033671,62.586975,69.934509,-121.893631,,,
729716323.913684,-71.670611,-10.571205,-91.4192,0.068344,-0.940399,0.259415,-0.498397,-0.13914,0.033671,62.586975,69.934509,-121.893631,,,
729716323.915727,-71.670654,-10.571202,-94.496099,0.068344,-0.940399,0.259415,-0.498397,-0.13914,0.033671,62.586975,69.934509,-121.893631,,,
729716323.915943,-71.670611,-10.571205,-91.4192,0.068344,-0.940399,0.259415,-0.498397,-0.13914,0.033671,62.586975,69.934509,-121.893631,,,
729716323.920447,-71.8292,-10.680455,-94.562181,0.068344,-0.940399,0.259415,-0.609881,-0.171911,0.028213,62.586975,69.934509,-121.893631,,,
729716323.920673,-71.829156,-10.680457,-91.485282,0.068344,-0.940399,0.259415,-0.609881,-0.171911,0.028213,62.586975,69.934509,-121.893631,,,
729716323.923786,-72.002792,-10.804871,-94.640769,0.061935,-0.949371,0.2388,-0.609881,-0.171911,0.028213,62.586975,69.934509,-121.893631,,,
729716323.924023,-72.002747,-10.804874,-91.563869,0.061935,-0.949371,0.2388,-0.609881,-0.171911,0.028213,62.586975,69.934509,-121.893631,,,
729716323.925683,-72.002792,-10.804871,-94.640769,0.061935,-0.949371,0.2388,-0.609881,-0.171911,0.028213,62.586975,69.934509,-121.893631,,,
729716323.926056,-72.002747,-10.804874,-91.563869,0.061935,-0.949371,0.2388,-0.609881,-0.171911,0.028213,62.586975,69.934509,-121.893631,,,
729716323.930056,-72.189509,-10.939641,-94.728812,0.061935,-0.949371,0.2388,-0.696486,-0.16795,0.033022,62.586975,69.934509,-121.893631,,,
729716323.930294,-72.189464,-10.939644,-91.651912,0.061935,-0.949371,0.2388,-0.696486,-0.16795,0.033022,62.586975,69.934509,-121.893631,,,
729716323.934075,-72.387416,-11.076906,-94.821099,0.061523,-0.954285,0.25293,-0.696486,-0.16795,0.033022,62.721878,70.44902,-119.97139,,,
729716323.934333,-72.38737,-11.076909,-91.744199,0.061523,-0.954285,0.25293,-0.696486,-0.16795,0.033022,62.721878,70.44902,-119.97139,,,
729716323.935683,-72.387416,-11.076906,-94.821099,0.061523,-0.954285,0.25293,-0.696486,-0.16795,0.033022,62.721878,70.44902,-119.97139,,,
729716323.935925,-72.38737,-11.076909,-91.744199,0.061523,-0.954285,0.25293,-0.696486,-0.16795,0.033022,62.721878,70.44902,-119.97139,,,
729716323.940876,-72.59284,-11.206085,-94.909827,0.061523,-0.954285,0.25293,-0.727828,-0.135159,0.063381,62.721878,70.44902,-119.97139,,,
729716323.941129,-72.592794,-11.206088,-91.832927,0.061523,-0.954285,0.25293,-0.727828,-0.135159,0.063381,62.721878,70.44902,-119.97139,,,
729716323.943757,-72.801825,-11.318799,-94.985049,0.053131,-0.970169,0.289627,-0.727828,-0.135159,0.063381,62.721878,70.44902,-119.97139,,,
729716323.944005,-72.801778,-11.318802,-91.908148,0.053131,-0.970169,0.289627,-0.727828,-0.135159,0.063381,62.721878,70.44902,-119.97139,,,
729716323.945545,-72.801825,-11.318799,-94.985049,0.053131,-0.970169,0.289627,-0.727828,-0.135159,0.063381,62.721878,70.44902,-119.97139,,,
729716323.945961,-72.801778,-11.318802,-91.908148,0.053131,-0.970169,0.289627,-0.727828,-0.135159,0.063381,62.721878,70.44902,-119.97139,,,
729716323.95029,-73.011948,-11.40895,-95.037317,0.053131,-0.970169,0.289627,-0.725453,-0.144251,0.121182,62.721878,70.44902,-119.97139,,,
729716323.950516,-73.011901,-11.408953,-91.960416,0.053131,-0.970169,0.289627,-0.725453,-0.144251,0.121182,62.721878,70.44902,-119.97139,,,
729716323.953798,-73.223064,-11.476085,-95.063282,0.031876,-0.98912,0.314896,-0.725453,-0.144251,0.121182,62.721878,70.44902,-119.97139,,,
729716323.954032,-73.223016,-11.476088,-91.98638,0.031876,-0.98912,0.314896,-0.725453,-0.144251,0.121182,62.721878,70.44902,-119.97139,,,
729716323.955696,-73.223064,-11.476085,-95.063282,0.031876,-0.98912,0.314896,-0.725453,-0.144251,0.121182,62.721878,70.44902,-119.97139,,,
729716323.955928,-73.223016,-11.476088,-91.98638,0.031876,-0.98912,0.314896,-0.725453,-0.144251,0.121182,62.721878,70.44902,-119.97139,,,
729716323.96043,-73.435569,-11.520789,-95.063201,0.031876,-0.98912,0.314896,-0.724437,-0.148585,0.168387,62.721878,70.44902,-119.97139,,,
729716323.960653,-73.435521,-11.520792,-91.986298,0.031876,-0.98912,0.314896,-0.724437,-0.148585,0.168387,62.721878,70.44902,-119.97139,,,
729716323.963273,-73.648612,-11.544098,-95.042217,0.026306,-0.993591,0.29483,-0.724437,-0.148585,0.168387,62.721878,70.44902,-119.97139,,,
729716323.963491,-73.648563,-11.5441,-91.965314,0.026306,-0.993591,0.29483,-0.724437,-0.148585,0.168387,62.721878,70.44902,-119.97139,,,
729716323.96575,-73.648612,-11.544098,-95.042217,0.026306,-0.993591,0.29483,-0.724437,-0.148585,0.168387,62.721878,70.44902,-119.97139,,,
729716323.965975,-73.648563,-11.5441,-91.965314,0.026306,-0.993591,0.29483,-0.724437,-0.148585,0.168387,62.721878,70.44902,-119.97139,,,
729716323.970637,-73.858887,-11.54657,-95.004399,0.026306,-0.993591,0.29483,-0.687503,-0.108789,0.189532,62.721878,70.44902,-119.97139,,,
729716323.970871,-73.858837,-11.546572,-91.927495,0.026306,-0.993591,0.29483,-0.687503,-0.108789,0.189532,62.721878,70.44902,-119.97139,,,
729716323.974392,-74.063649,-11.526764,-94.949525,0.041016,-0.984741,0.310257,-0.687503,-0.108789,0.189532,62.607208,71.146942,-118.710403,,,
729716323.974639,-74.063598,-11.526766,-91.872621,0.041016,-0.984741,0.310257,-0.687503,-0.108789,0.189532,62.607208,71.146942,-118.710403,,,
729716323.975605,-74.063649,-11.526764,-94.949525,0.041016,-0.984741,0.310257,-0.687503,-0.108789,0.189532,62.607208,71.146942,-118.710403,,,
729716323.975991,-74.063598,-11.526766,-91.872621,0.041016,-0.984741,0.310257,-0.687503,-0.108789,0.189532,62.607208,71.146942,-118.710403,,,
729716323.980371,-74.261554,-11.487936,-94.880483,0.041016,-0.984741,0.310257,-0.635832,-0.075687,0.207047,62.607208,71.146942,-118.710403,,,
729716323.980602,-74.261503,-11.487938,-91.803579,0.041016,-0.984741,0.310257,-0.635832,-0.075687,0.207047,62.607208,71.146942,-118.710403,,,
729716323.983596,-74.452612,-11.43139,-94.797676,0.04628,-0.98378,0.325424,-0.635832,-0.075687,0.207047,62.607208,71.146942,-118.710403,,,
729716323.983824,-74.452561,-11.431393,-91.720772,0.04628,-0.98378,0.325424,-0.635832,-0.075687,0.207047,62.607208,71.146942,-118.710403,,,
729716323.98571,-74.452612,-11.43139,-94.797676,0.04628,-0.98378,0.325424,-0.635832,-0.075687,0.207047,62.607208,71.146942,-118.710403,,,
729716323.985932,-74.452561,-11.431393,-91.720772,0.04628,-0.98378,0.325424,-0.635832,-0.075687,0.207047,62.607208,71.146942,-118.710403,,,
729716323.990634,-74.63721,-11.355045,-94.698599,0.04628,-0.98378,0.325424,-0.583576,-0.052516,0.221514,62.607208,71.146942,-118.710403,,,
729716323.990874,-74.637158,-11.355048,-91.621693,0.04628,-0.98378,0.325424,-0.583576,-0.052516,0.221514,62.607208,71.146942,-118.710403,,,
729716323.993737,-74.813683,-11.262597,-94.586034,0.03949,-0.985306,0.311218,-0.583576,-0.052516,0.221514,62.607208,71.146942,-118.710403,,,
729716323.993964,-74.81363,-11.2626,-91.509129,0.03949,-0.985306,0.311218,-0.583576,-0.052516,0.221514,62.607208,71.146942,-118.710403,,,
729716323.995623,-74.813683,-11.262597,-94.586034,0.03949,-0.985306,0.311218,-0.583576,-0.052516,0.221514,62.607208,71.146942,-118.710403,,,
729716323.995954,-74.81363,-11.2626,-91.509129,0.03949,-0.985306,0.311218,-0.583576,-0.052516,0.221514,62.607208,71.146942,-118.710403,,,
729716324.000632,-74.980384,-11.160588,-94.46662,0.03949,-0.985306,0.311218,-0.518301,-0.036568,0.210707,62.607208,71.146942,-118.710403,,,
729716324.000877,-74.980331,-11.160591,-91.389714,0.03949,-0.985306,0.311218,-0.518301,-0.036568,0.210707,62.607208,71.146942,-118.710403,,,
729716324.003779,-75.138403,-11.054564,-94.345596,0.049789,-0.97934,0.319992,-0.518301,-0.036568,0.210707,62.607208,71.146942,-118.710403,,,
729716324.004014,-75.138349,-11.054567,-91.26869,0.049789,-0.97934,0.319992,-0.518301,-0.036568,0.210707,62.607208,71.146942,-118.710403,,,
729716324.005712,-75.138403,-11.054564,-94.345596,0.049789,-0.97934,0.319992,-0.518301,-0.036568,0.210707,62.607208,71.146942,-118.710403,,,
729716324.005939,-75.138349,-11.054567,-91.26869,0.049789,-0.97934,0.319992,-0.518301,-0.036568,0.210707,62.607208,71.146942,-118.710403,,,
729716324.010612,-75.290357,-10.956201,-94.231919,0.049789,-0.97934,0.319992,-0.48851,-0.046047,0.180746,62.607208,71.146942,-118.710403,,,
729716324.010839,-75.290302,-10.956204,-91.155012,0.049789,-0.97934,0.319992,-0.48851,-0.046047,0.180746,62.607208,71.146942,-118.710403,,,
729716324.013283,-75.438539,-10.878001,-94.136046,0.054276,-0.97522,0.297943,-0.48851,-0.046047,0.180746,62.607208,71.146942,-118.710403,,,
729716324.013503,-75.438484,-10.878005,-91.059139,0.054276,-0.97522,0.297943,-0.48851,-0.046047,0.180746,62.607208,71.146942,-118.710403,,,
729716324.016393,-75.438539,-10.878001,-94.136046,0.054276,-0.97522,0.297943,-0.48851,-0.046047,0.180746,63.040405,71.523941,-117.548172,,,
729716324.016635,-75.438484,-10.878005,-91.059139,0.054276,-0.97522,0.297943,-0.48851,-0.046047,0.180746,63.040405,71.523941,-117.548172,,,
729716324.020551,-75.583452,-10.830456,-94.067269,0.054276,-0.97522,0.297943,-0.483771,-0.077159,0.118609,63.040405,71.523941,-117.548172,,,
729716324.020779,-75.583396,-10.83046,-90.990361,0.054276,-0.97522,0.297943,-0.483771,-0.077159,0.118609,63.040405,71.523941,-117.548172,,,
729716324.023479,-75.725775,-10.825028,-94.03743,0.058533,-0.962494,0.258926,-0.483771,-0.077159,0.118609,63.040405,71.523941,-117.548172,,,
729716324.023702,-75.725719,-10.825031,-90.960522,0.058533,-0.962494,0.258926,-0.483771,-0.077159,0.118609,63.040405,71.523941,-117.548172,,,
729716324.025774,-75.725775,-10.825028,-94.03743,0.058533,-0.962494,0.258926,-0.483771,-0.077159,0.118609,63.040405,71.523941,-117.548172,,,
729716324.02603,-75.725719,-10.825031,-90.960522,0.058533,-0.962494,0.258926,-0.483771,-0.077159,0.118609,63.040405,71.523941,-117.548172,,,
729716324.030361,-75.863684,-10.868439,-94.053625,0.058533,-0.962494,0.258926,-0.458704,-0.106388,0.035269,63.040405,71.523941,-117.548172,,,
729716324.030593,-75.863627,-10.868443,-90.976717,0.058533,-0.962494,0.258926,-0.458704,-0.106388,0.035269,63.040405,71.523941,-117.548172,,,
729716324.033391,-75.994303,-10.96068,-94.116171,0.06488,-0.949326,0.257767,-0.458704,-0.106388,0.035269,63.040405,71.523941,-117.548172,,,
729716324.033618,-75.994245,-10.960684,-91.039262,0.06488,-0.949326,0.257767,-0.458704,-0.106388,0.035269,63.040405,71.523941,-117.548172,,,
729716324.035746,-75.994303,-10.96068,-94.116171,0.06488,-0.949326,0.257767,-0.458704,-0.106388,0.035269,63.040405,71.523941,-117.548172,,,
729716324.035962,-75.994245,-10.960684,-91.039262,0.06488,-0.949326,0.257767,-0.458704,-0.106388,0.035269,63.040405,71.523941,-117.548172,,,
729716324.042041,-76.115434,-11.100892,-94.225071,0.06488,-0.949326,0.257767,-0.395819,-0.11518,-0.053433,63.040405,71.523941,-117.548172,,,
729716324.042318,-76.223723,-11.285039,-91.302664,0.069504,-0.945618,0.272202,-0.395819,-0.11518,-0.053433,63.040405,71.523941,-117.548172,,,
729716324.04257,-76.223723,-11.285039,-91.302664,0.069504,-0.945618,0.272202,-0.395819,-0.11518,-0.053433,63.040405,71.523941,-117.548172,,,
729716324.046901,-76.223782,-11.285036,-94.379573,0.069504,-0.945618,0.272202,-0.395819,-0.11518,-0.053433,63.040405,71.523941,-117.548172,,,
729716324.047126,-76.315789,-11.502185,-91.496838,0.069504,-0.945618,0.272202,-0.29289,-0.074749,-0.128628,63.040405,71.523941,-117.548172,,,
729716324.050487,-76.315848,-11.502182,-94.573748,0.069504,-0.945618,0.272202,-0.29289,-0.074749,-0.128628,63.040405,71.523941,-117.548172,,,
729716324.05072,-76.315789,-11.502185,-91.496838,0.069504,-0.945618,0.272202,-0.29289,-0.074749,-0.128628,63.040405,71.523941,-117.548172,,,
729716324.053559,-76.391637,-11.741554,-94.797002,0.084686,-0.946304,0.313309,-0.29289,-0.074749,-0.128628,63.040405,71.523941,-117.548172,,,
729716324.053798,-76.391578,-11.741557,-91.720092,0.084686,-0.946304,0.313309,-0.29289,-0.074749,-0.128628,63.040405,71.523941,-117.548172,,,
729716324.056342,-76.391637,-11.741554,-94.797002,0.084686,-0.946304,0.313309,-0.29289,-0.074749,-0.128628,62.757858,71.898743,-116.877655,,,
729716324.056561,-76.391578,-11.741557,-91.720092,0.084686,-0.946304,0.313309,-0.29289,-0.074749,-0.128628,62.757858,71.898743,-116.877655,,,
729716324.060526,-76.453655,-11.992111,-95.036606,0.084686,-0.946304,0.313309,-0.209475,-0.048716,-0.16333,62.757858,71.898743,-116.877655,,,
729716324.060772,-76.453596,-11.992114,-91.959695,0.084686,-0.946304,0.313309,-0.209475,-0.048716,-0.16333,62.757858,71.898743,-116.877655,,,
729716324.06347,-76.504073,-12.247439,-95.2843,0.073364,-0.963272,0.308304,-0.209475,-0.048716,-0.16333,62.757858,71.898743,-116.877655,,,
729716324.063713,-76.504013,-12.247442,-92.20739,0.073364,-0.963272,0.308304,-0.209475,-0.048716,-0.16333,62.757858,71.898743,-116.877655,,,
729716324.06572,-76.504073,-12.247439,-95.2843,0.073364,-0.963272,0.308304,-0.209475,-0.048716,-0.16333,62.757858,71.898743,-116.877655,,,
729716324.065934,-76.504013,-12.247442,-92.20739,0.073364,-0.963272,0.308304,-0.209475,-0.048716,-0.16333,62.757858,71.898743,-116.877655,,,
729716324.070498,-76.543235,-12.503031,-95.533011,0.073364,-0.963272,0.308304,-0.142439,-0.04703,-0.171158,62.757858,71.898743,-116.877655,,,
729716324.070725,-76.543175,-12.503033,-92.456101,0.073364,-0.963272,0.308304,-0.142439,-0.04703,-0.171158,62.757858,71.898743,-116.877655,,,
729716324.073558,-76.572673,-12.752509,-95.774883,0.067688,-0.978989,0.285294,-0.142439,-0.04703,-0.171158,62.757858,71.898743,-116.877655,,,
729716324.073792,-76.572613,-12.752511,-92.697972,0.067688,-0.978989,0.285294,-0.142439,-0.04703,-0.171158,62.757858,71.898743,-116.877655,,,
729716324.075798,-76.572673,-12.752509,-95.774883,0.067688,-0.978989,0.285294,-0.142439,-0.04703,-0.171158,62.757858,71.898743,-116.877655,,,
729716324.075997,-76.572613,-12.752511,-92.697972,0.067688,-0.978989,0.285294,-0.142439,-0.04703,-0.171158,62.757858,71.898743,-116.877655,,,
729716324.080706,-76.594139,-12.987175,-95.998877,0.067688,-0.978989,0.285294,-0.091605,-0.068002,-0.149431,62.757858,71.898743,-116.877655,,,
729716324.080963,-76.594079,-12.987177,-92.921966,0.067688,-0.978989,0.285294,-0.091605,-0.068002,-0.149431,62.757858,71.898743,-116.877655,,,
729716324.08377,-76.61004,-13.203607,-96.200256,0.057648,-0.986786,0.279083,-0.091605,-0.068002,-0.149431,62.757858,71.898743,-116.877655,,,
729716324.084004,-76.60998,-13.203608,-93.123345,0.057648,-0.986786,0.279083,-0.091605,-0.068002,-0.149431,62.757858,71.898743,-116.877655,,,
729716324.085706,-76.61004,-13.203607,-96.200256,0.057648,-0.986786,0.279083,-0.091605,-0.068002,-0.149431,62.757858,71.898743,-116.877655,,,
729716324.085922,-76.60998,-13.203608,-93.123345,0.057648,-0.986786,0.279083,-0.091605,-0.068002,-0.149431,62.757858,71.898743,-116.877655,,,
729716324.090666,-76.620708,-13.403804,-96.382098,0.057648,-0.986786,0.279083,-0.049573,-0.08152,-0.127556,62.757858,71.898743,-116.877655,,,
729716324.090909,-76.620647,-13.403805,-93.305187,0.057648,-0.986786,0.279083,-0.049573,-0.08152,-0.127556,62.757858,71.898743,-116.877655,,,
729716324.093539,-76.626037,-13.588993,-96.548219,0.05249,-0.989929,0.272446,-0.049573,-0.08152,-0.127556,62.757858,71.898743,-116.877655,,,
729716324.093759,-76.625976,-13.588993,-93.471308,0.05249,-0.989929,0.272446,-0.049573,-0.08152,-0.127556,62.757858,71.898743,-116.877655,,,
729716324.095581,-76.626037,-13.588993,-96.548219,0.05249,-0.989929,0.272446,-0.049573,-0.08152,-0.127556,62.757858,71.898743,-116.877655,,,
729716324.095959,-76.625976,-13.588993,-93.471308,0.05249,-0.989929,0.272446,-0.049573,-0.08152,-0.127556,62.757858,71.898743,-116.877655,,,
729716324.100897,-76.629037,-13.759907,-96.701701,0.05249,-0.989929,0.272446,-0.034812,-0.068237,-0.107487,62.238922,71.88295,-116.624466,,,
729716324.101145,-76.628976,-13.759907,-93.62479,0.05249,-0.989929,0.272446,-0.034812,-0.068237,-0.107487,62.238922,71.88295,-116.624466,,,
729716324.103214,-76.632343,-13.915869,-96.84146,0.074066,-0.98558,0.264435,-0.034812,-0.068237,-0.107487,62.238922,71.88295,-116.624466,,,
729716324.103445,-76.632282,-13.91587,-93.764549,0.074066,-0.98558,0.264435,-0.034812,-0.068237,-0.107487,62.238922,71.88295,-116.624466,,,
729716324.105765,-76.632343,-13.915869,-96.84146,0.074066,-0.98558,0.264435,-0.034812,-0.068237,-0.107487,62.238922,71.88295,-116.624466,,,
729716324.105979,-76.632282,-13.91587,-93.764549,0.074066,-0.98558,0.264435,-0.034812,-0.068237,-0.107487,62.238922,71.88295,-116.624466,,,
729716324.110426,-76.635968,-14.051839,-96.963499,0.074066,-0.98558,0.264435,-0.030928,-0.044934,-0.076211,62.238922,71.88295,-116.624466,,,
729716324.11065,-76.635908,-14.051839,-93.886588,0.074066,-0.98558,0.264435,-0.030928,-0.044934,-0.076211,62.238922,71.88295,-116.624466,,,
729716324.113219,-76.640414,-14.161028,-97.062023,0.075516,-0.98877,0.249496,-0.030928,-0.044934,-0.076211,62.238922,71.88295,-116.624466,,,
729716324.113438,-76.640353,-14.161028,-93.985112,0.075516,-0.98877,0.249496,-0.030928,-0.044934,-0.076211,62.238922,71.88295,-116.624466,,,
729716324.115841,-76.640414,-14.161028,-97.062023,0.075516,-0.98877,0.249496,-0.030928,-0.044934,-0.076211,62.238922,71.88295,-116.624466,,,
729716324.116038,-76.640353,-14.161028,-93.985112,0.075516,-0.98877,0.249496,-0.030928,-0.044934,-0.076211,62.238922,71.88295,-116.624466,,,
729716324.120405,-76.644933,-14.23672,-97.130553,0.075516,-0.98877,0.249496,-0.017444,-0.013228,-0.026302,62.238922,71.88295,-116.624466,,,
729716324.120644,-76.644872,-14.23672,-94.053642,0.075516,-0.98877,0.249496,-0.017444,-0.013228,-0.026302,62.238922,71.88295,-116.624466,,,
729716324.1238,-76.6488,-14.275261,-97.165347,0.063385,-1.002594,0.258102,-0.017444,-0.013228,-0.026302,62.238922,71.88295,-116.624466,,,
729716324.124035,-76.648739,-14.275262,-94.088437,0.063385,-1.002594,0.258102,-0.017444,-0.013228,-0.026302,62.238922,71.88295,-116.624466,,,
729716324.125679,-76.6488,-14.275261,-97.165347,0.063385,-1.002594,0.258102,-0.017444,-0.013228,-0.026302,62.238922,71.88295,-116.624466,,,
729716324.125921,-76.648739,-14.275262,-94.088437,0.063385,-1.002594,0.258102,-0.017444,-0.013228,-0.026302,62.238922,71.88295,-116.624466,,,
729716324.130387,-76.652024,-14.284816,-97.172206,0.063385,-1.002594,0.258102,-0.008678,-0.006147,0.016158,62.238922,71.88295,-116.624466,,,
729716324.130634,-76.651963,-14.284816,-94.095295,0.063385,-1.002594,0.258102,-0.008678,-0.006147,0.016158,62.238922,71.88295,-116.624466,,,
729716324.133697,-76.655156,-14.271102,-97.155874,0.065826,-1.008453,0.258621,-0.008678,-0.006147,0.016158,62.238922,71.88295,-116.624466,,,
729716324.133945,-76.655095,-14.271102,-94.078964,0.065826,-1.008453,0.258621,-0.008678,-0.006147,0.016158,62.238922,71.88295,-116.624466,,,
729716324.135721,-76.655156,-14.271102,-97.155874,0.065826,-1.008453,0.258621,-0.008678,-0.006147,0.016158,62.238922,71.88295,-116.624466,,,
729716324.135941,-76.655095,-14.271102,-94.078964,0.065826,-1.008453,0.258621,-0.008678,-0.006147,0.016158,62.238922,71.88295,-116.624466,,,
729716324.142828,-76.657369,-14.238332,-97.122255,0.065826,-1.008453,0.258621,0.010742,0.022823,0.034525,62.314484,71.712021,-116.657196,,,
729716324.143121,-76.656739,-14.18835,-93.999308,0.070938,-0.99733,0.248856,0.010742,0.022823,0.034525,62.314484,71.712021,-116.657196,,,
729716324.146616,-76.6568,-14.18835,-97.076219,0.070938,-0.99733,0.248856,0.010742,0.022823,0.034525,62.314484,71.712021,-116.657196,,,
729716324.146875,-76.656739,-14.18835,-93.999308,0.070938,-0.99733,0.248856,0.010742,0.022823,0.034525,62.314484,71.712021,-116.657196,,,
729716324.150566,-76.651241,-14.117049,-97.014998,0.070938,-0.99733,0.248856,0.060204,0.06128,0.047336,62.314484,71.712021,-116.657196,,,
729716324.150801,-76.65118,-14.117049,-93.938087,0.070938,-0.99733,0.248856,0.060204,0.06128,0.047336,62.314484,71.712021,-116.657196,,,
729716324.153403,-76.651241,-14.024108,-96.937127,0.067291,-0.989655,0.275787,0.060204,0.06128,0.047336,62.314484,71.712021,-116.657196,,,
729716324.153648,-76.638799,-14.024108,-93.860216,0.067291,-0.989655,0.275787,0.060204,0.06128,0.047336,62.314484,71.712021,-116.657196,,,
729716324.156111,-76.63886,-14.024108,-96.937127,0.067291,-0.989655,0.275787,0.060204,0.06128,0.047336,62.314484,71.712021,-116.657196,,,
729716324.156326,-76.638799,-14.024108,-93.860216,0.067291,-0.989655,0.275787,0.060204,0.06128,0.047336,62.314484,71.712021,-116.657196,,,
729716324.160598,-76.617972,-13.91068,-96.841985,0.067291,-0.989655,0.275787,0.125141,0.082634,0.059572,62.314484,71.712021,-116.657196,,,
729716324.160859,-76.617912,-13.91068,-93.765074,0.067291,-0.989655,0.275787,0.125141,0.082634,0.059572,62.314484,71.712021,-116.657196,,,
729716324.162219,-76.617972,-13.91068,-96.841985,0.067291,-0.989655,0.275787,0.125141,0.082634,0.059572,62.314484,71.712021,-116.657196,,,
729716324.162628,-76.579288,-13.769747,-93.644437,0.056976,-0.994629,0.288803,0.125141,0.082634,0.059572,62.314484,71.712021,-116.657196,,,
729716324.16722,-76.579348,-13.769746,-96.721348,0.056976,-0.994629,0.288803,0.125141,0.082634,0.059572,62.314484,71.712021,-116.657196,,,
729716324.167446,-76.541133,-13.631224,-93.525105,0.056976,-0.994629,0.288803,0.178167,0.070266,0.063697,62.314484,71.712021,-116.657196,,,
729716324.170227,-76.541193,-13.631223,-96.602016,0.056976,-0.994629,0.288803,0.178167,0.070266,0.063697,62.314484,71.712021,-116.657196,,,
729716324.17046,-76.541133,-13.631224,-93.525105,0.056976,-0.994629,0.288803,0.178167,0.070266,0.063697,62.314484,71.712021,-116.657196,,,
729716324.172651,-76.541193,-13.631223,-96.602016,0.05751,-0.996887,0.285599,0.178167,0.070266,0.063697,62.314484,71.712021,-116.657196,,,
729716324.172889,-76.488926,-13.480754,-93.38995,0.05751,-0.996887,0.285599,0.178167,0.070266,0.063697,62.314484,71.712021,-116.657196,,,
729716324.176661,-76.488986,-13.480753,-96.46686,0.05751,-0.996887,0.285599,0.178167,0.070266,0.063697,62.314484,71.712021,-116.657196,,,
729716324.176885,-76.488926,-13.480754,-93.38995,0.05751,-0.996887,0.285599,0.178167,0.070266,0.063697,62.314484,71.712021,-116.657196,,,
729716324.181124,-76.437957,-13.332622,-96.328376,0.05751,-0.996887,0.285599,0.219106,0.035824,0.068526,62.482681,71.846634,-116.861649,,,
729716324.181411,-76.437897,-13.332623,-93.251466,0.05751,-0.996887,0.285599,0.219106,0.035824,0.068526,62.482681,71.846634,-116.861649,,,
729716324.182735,-76.437957,-13.332622,-96.328376,0.042999,-0.995056,0.268997,0.219106,0.035824,0.068526,62.482681,71.846634,-116.861649,,,
729716324.182956,-76.37696,-13.194994,-93.11932,0.042999,-0.995056,0.268997,0.219106,0.035824,0.068526,62.482681,71.846634,-116.861649,,,
729716324.186668,-76.37702,-13.194993,-96.19623,0.042999,-0.995056,0.268997,0.219106,0.035824,0.068526,62.482681,71.846634,-116.861649,,,
729716324.186882,-76.37696,-13.194994,-93.11932,0.042999,-0.995056,0.268997,0.219106,0.035824,0.068526,62.482681,71.846634,-116.861649,,,
729716324.190323,-76.318151,-13.055375,-96.062297,0.042999,-0.995056,0.268997,0.226842,0.042887,0.050617,62.482681,71.846634,-116.861649,,,
729716324.190568,-76.318092,-13.055376,-92.985387,0.042999,-0.995056,0.268997,0.226842,0.042887,0.050617,62.482681,71.846634,-116.861649,,,
729716324.193004,-76.318151,-13.055375,-96.062297,0.049652,-0.98848,0.254272,0.226842,0.042887,0.050617,62.482681,71.846634,-116.861649,,,
729716324.193221,-76.256494,-12.937416,-92.874924,0.049652,-0.98848,0.254272,0.226842,0.042887,0.050617,62.482681,71.846634,-116.861649,,,
729716324.196487,-76.256553,-12.937414,-95.951834,0.049652,-0.98848,0.254272,0.226842,0.042887,0.050617,62.482681,71.846634,-116.861649,,,
729716324.196703,-76.256494,-12.937416,-92.874924,0.049652,-0.98848,0.254272,0.226842,0.042887,0.050617,62.482681,71.846634,-116.861649,,,
729716324.200388,-76.198622,-12.822145,-95.845795,0.049652,-0.98848,0.254272,0.208236,0.044033,0.031589,62.482681,71.846634,-116.861649,,,
729716324.200633,-76.198564,-12.822147,-92.768886,0.049652,-0.98848,0.254272,0.208236,0.044033,0.031589,62.482681,71.846634,-116.861649,,,
729716324.203005,-76.198622,-12.822145,-95.845795,0.05925,-0.979919,0.24205,0.208236,0.044033,0.031589,62.482681,71.846634,-116.861649,,,
729716324.203225,-76.140062,-12.719109,-92.674681,0.05925,-0.979919,0.24205,0.208236,0.044033,0.031589,62.482681,71.846634,-116.861649,,,
729716324.206791,-76.14012,-12.719107,-95.751591,0.05925,-0.979919,0.24205,0.208236,0.044033,0.031589,62.482681,71.846634,-116.861649,,,
729716324.207055,-76.140062,-12.719109,-92.674681,0.05925,-0.979919,0.24205,0.208236,0.044033,0.031589,62.482681,71.846634,-116.861649,,,
729716324.210145,-76.087479,-12.622965,-95.663355,0.05925,-0.979919,0.24205,0.182009,0.037713,0.027493,62.482681,71.846634,-116.861649,,,
729716324.210401,-76.087421,-12.622967,-92.586445,0.05925,-0.979919,0.24205,0.182009,0.037713,0.027493,62.482681,71.846634,-116.861649,,,
729716324.21258,-76.087479,-12.622965,-95.663355,0.05925,-0.979919,0.228516,0.182009,0.037713,0.027493,62.482681,71.846634,-116.861649,,,
729716324.212795,-76.036639,-12.539264,-92.510418,0.045059,-0.976639,0.228516,0.182009,0.037713,0.027493,62.482681,71.846634,-116.861649,,,
729716324.216912,-76.036696,-12.539262,-95.587327,0.045059,-0.976639,0.228516,0.182009,0.037713,0.027493,62.482681,71.846634,-116.861649,,,
729716324.21718,-76.036639,-12.539264,-92.510418,0.045059,-0.976639,0.228516,0.182009,0.037713,0.027493,62.482681,71.846634,-116.861649,,,
729716324.221315,-75.989025,-12.457855,-95.514182,0.045059,-0.976639,0.228516,0.173284,0.040417,0.018909,62.501129,71.815506,-117.195862,,,
729716324.221637,-75.988967,-12.457857,-92.437273,0.045059,-0.976639,0.228516,0.173284,0.040417,0.018909,62.501129,71.815506,-117.195862,,,
729716324.222251,-75.989025,-12.457855,-95.514182,0.045059,-0.976639,0.228516,0.173284,0.040417,0.018909,62.501129,71.815506,-117.195862,,,
729716324.222623,-75.939817,-12.389499,-92.377003,0.039597,-0.968536,0.239258,0.173284,0.040417,0.018909,62.501129,71.815506,-117.195862,,,
729716324.227769,-75.939875,-12.389497,-95.453912,0.039597,-0.968536,0.239258,0.176023,0.014348,0.017626,62.501129,71.815506,-117.195862,,,
729716324.228011,-75.89254,-12.315835,-92.309693,0.039597,-0.968536,0.239258,0.176023,0.014348,0.017626,62.501129,71.815506,-117.195862,,,
729716324.229766,-75.892597,-12.315833,-95.386602,0.039597,-0.968536,0.239258,0.176023,0.014348,0.017626,62.501129,71.815506,-117.195862,,,
729716324.229991,-75.89254,-12.315835,-92.309693,0.039597,-0.968536,0.239258,0.176023,0.014348,0.017626,62.501129,71.815506,-117.195862,,,
729716324.232919,-75.892597,-12.315833,-95.386602,0.034286,-0.970093,0.251434,0.176023,0.014348,0.017626,62.501129,71.815506,-117.195862,,,
729716324.233144,-75.838529,-12.247341,-92.242812,0.034286,-0.970093,0.251434,0.176023,0.014348,0.017626,62.501129,71.815506,-117.195862,,,
729716324.236635,-75.838586,-12.247339,-95.319721,0.034286,-0.970093,0.251434,0.176023,0.014348,0.017626,62.501129,71.815506,-117.195862,,,
729716324.236846,-75.838529,-12.247341,-92.242812,0.034286,-0.970093,0.251434,0.176023,0.014348,0.017626,62.501129,71.815506,-117.195862,,,
729716324.241428,-75.787365,-12.179659,-95.248837,0.034286,-0.970093,0.251434,0.199489,-0.007264,0.019798,62.501129,71.815506,-117.195862,,,
729716324.241695,-75.787308,-12.179662,-92.171929,0.034286,-0.970093,0.251434,0.199489,-0.007264,0.019798,62.501129,71.815506,-117.195862,,,
729716324.242273,-75.787365,-12.179659,-95.248837,0.034286,-0.970093,0.251434,0.199489,-0.007264,0.019798,62.501129,71.815506,-117.195862,,,
729716324.242623,-75.726537,-12.108551,-92.096351,0.031769,-0.97998,0.255219,0.199489,-0.007264,0.019798,62.501129,71.815506,-117.195862,,,
729716324.246984,-75.726593,-12.108548,-95.173259,0.031769,-0.97998,0.255219,0.199489,-0.007264,0.019798,62.501129,71.815506,-117.195862,,,
729716324.247271,-75.726537,-12.033643,-92.018278,0.031769,-0.97998,0.255219,0.199489,-0.007264,0.019798,62.501129,71.815506,-117.195862,,,
729716324.251535,-75.66815,-12.033641,-95.095186,0.031769,-0.97998,0.255219,0.232987,0.008055,0.028359,62.501129,71.815506,-117.195862,,,
729716324.251826,-75.668093,-12.033643,-92.018278,0.031769,-0.97998,0.255219,0.232987,0.008055,0.028359,62.501129,71.815506,-117.195862,,,
729716324.25222,-75.66815,-12.033641,-95.095186,0.031769,-0.97998,0.255219,0.232987,0.008055,0.028359,62.501129,71.815506,-117.195862,,,
729716324.252641,-75.60082,-11.943388,-91.926353,0.036911,-0.985138,0.275452,0.232987,0.008055,0.028359,62.501129,71.815506,-117.195862,,,
729716324.259186,-75.600876,-11.943385,-95.00326,0.036911,-0.985138,0.275452,0.246625,-0.005911,0.054442,62.501129,71.815506,-117.195862,,,
729716324.259497,-75.535755,-11.842785,-91.822885,0.036911,-0.985138,0.275452,0.246625,-0.005911,0.054442,62.501129,71.815506,-117.195862,,,
729716324.264029,-75.535811,-11.842783,-94.899793,0.036011,-0.991821,0.272781,0.246625,-0.005911,0.054442,62.614151,71.699585,-117.763611,,,
729716324.26429,-75.468619,-11.720049,-91.69432,0.036011,-0.991821,0.272781,0.246625,-0.005911,0.054442,62.614151,71.699585,-117.763611,,,
729716324.26624,-75.468674,-11.720046,-94.771227,0.036011,-0.991821,0.272781,0.246625,-0.005911,0.054442,62.614151,71.699585,-117.763611,,,
729716324.266408,-75.468619,-11.720049,-91.69432,0.036011,-0.991821,0.272781,0.246625,-0.005911,0.054442,62.614151,71.699585,-117.763611,,,
729716324.270068,-75.403482,-11.595467,-94.637547,0.036011,-0.991821,0.272781,0.246876,-0.017971,0.077665,62.614151,71.699585,-117.763611,,,
729716324.270242,-75.403427,-11.59547,-91.56064,0.036011,-0.991821,0.272781,0.246876,-0.017971,0.077665,62.614151,71.699585,-117.763611,,,
729716324.272413,-75.403482,-11.595467,-94.637547,0.036011,-0.991821,0.272781,0.246876,-0.017971,0.077665,62.614151,71.699585,-117.763611,,,
729716324.272634,-75.338191,-11.466645,-91.420597,0.029404,-0.993027,0.254547,0.246876,-0.017971,0.077665,62.614151,71.699585,-117.763611,,,
729716324.277078,-75.338246,-11.466642,-94.497504,0.029404,-0.993027,0.254547,0.246876,-0.017971,0.077665,62.614151,71.699585,-117.763611,,,
729716324.277344,-75.338191,-11.466645,-91.420597,0.029404,-0.993027,0.254547,0.246876,-0.017971,0.077665,62.614151,71.699585,-117.763611,,,
729716324.280197,-75.27339,-11.335272,-94.352939,0.029404,-0.993027,0.254547,0.238635,-0.039237,0.077873,62.614151,71.699585,-117.763611,,,
729716324.280427,-75.273335,-11.335275,-91.276032,0.029404,-0.993027,0.254547,0.238635,-0.039237,0.077873,62.614151,71.699585,-117.763611,,,
729716324.282389,-75.27339,-11.335272,-94.352939,0.029404,-0.993027,0.254547,0.238635,-0.039237,0.077873,62.614151,71.699585,-117.763611,,,
729716324.282609,-75.212983,-11.220802,-91.143749,0.032532,-0.98642,0.257523,0.238635,-0.039237,0.077873,62.614151,71.699585,-117.763611,,,
729716324.28712,-75.213037,-11.220799,-94.220656,0.032532,-0.98642,0.257523,0.238635,-0.039237,0.077873,62.614151,71.699585,-117.763611,,,
729716324.287407,-75.154971,-11.119298,-91.019157,0.032532,-0.98642,0.257523,0.238635,-0.039237,0.077873,62.614151,71.699585,-117.763611,,,
729716324.290473,-75.155025,-11.119295,-94.096064,0.032532,-0.98642,0.257523,0.206587,-0.079131,0.056817,62.614151,71.699585,-117.763611,,,
729716324.290712,-75.154971,-11.119298,-91.019157,0.032532,-0.98642,0.257523,0.206587,-0.079131,0.056817,62.614151,71.699585,-117.763611,,,
729716324.292345,-75.155025,-11.119295,-94.096064,0.032532,-0.98642,0.257523,0.206587,-0.079131,0.056817,62.614151,71.699585,-117.763611,,,
729716324.292594,-75.10479,-11.036727,-90.909795,0.039597,-0.97464,0.233765,0.206587,-0.079131,0.056817,62.614151,71.699585,-117.763611,,,
729716324.297035,-75.104844,-11.036724,-93.986701,0.039597,-0.97464,0.233765,0.206587,-0.079131,0.056817,62.614151,71.699585,-117.763611,,,
729716324.29731,-75.10479,-11.036727,-90.909795,0.039597,-0.97464,0.233765,0.206587,-0.079131,0.056817,62.614151,71.699585,-117.763611,,,
729716324.300475,-75.048712,-10.969251,-93.892261,0.039597,-0.97464,0.233765,0.221288,-0.067529,0.033983,62.614151,71.699585,-117.763611,,,
729716324.300744,-75.048658,-10.969255,-90.815354,0.039597,-0.97464,0.233765,0.221288,-0.067529,0.033983,62.614151,71.699585,-117.763611,,,
729716324.303015,-75.048712,-10.969251,-93.892261,0.039597,-0.97464,0.233765,0.221288,-0.067529,0.033983,62.693115,71.54184,-118.238647,,,
729716324.303232,-74.990706,-10.89702,-90.720166,0.046112,-0.965759,0.257446,0.221288,-0.067529,0.033983,62.693115,71.54184,-118.238647,,,
729716324.307006,-74.990759,-10.897017,-93.797072,0.046112,-0.965759,0.257446,0.221288,-0.067529,0.033983,62.693115,71.54184,-118.238647,,,
729716324.307269,-74.990706,-10.89702,-90.720166,0.046112,-0.965759,0.257446,0.221288,-0.067529,0.033983,62.693115,71.54184,-118.238647,,,
729716324.310416,-74.924949,-10.833846,-93.713807,0.046112,-0.965759,0.257446,0.258572,-0.054714,0.024858,62.693115,71.54184,-118.238647,,,
729716324.310647,-74.924896,-10.833849,-90.636901,0.046112,-0.965759,0.257446,0.258572,-0.054714,0.024858,62.693115,71.54184,-118.238647,,,
729716324.312358,-74.924949,-10.833846,-93.713807,0.046112,-0.965759,0.257446,0.258572,-0.054714,0.024858,62.693115,71.54184,-118.238647,,,
729716324.31263,-74.856367,-10.756314,-90.53952,0.047485,-0.971207,0.295807,0.258572,-0.054714,0.024858,62.693115,71.54184,-118.238647,,,
729716324.316885,-74.85642,-10.75631,-93.616426,0.047485,-0.971207,0.295807,0.258572,-0.054714,0.024858,62.693115,71.54184,-118.238647,,,
729716324.317101,-74.856367,-10.756314,-90.53952,0.047485,-0.971207,0.295807,0.258572,-0.054714,0.024858,62.693115,71.54184,-118.238647,,,
729716324.320439,-74.781551,-10.692389,-93.527855,0.047485,-0.971207,0.295807,0.294047,-0.091816,0.034506,62.693115,71.54184,-118.238647,,,
729716324.320666,-74.781498,-10.692392,-90.450949,0.047485,-0.971207,0.295807,0.294047,-0.091816,0.034506,62.693115,71.54184,-118.238647,,,
729716324.322395,-74.781551,-10.692389,-93.527855,0.047485,-0.971207,0.295807,0.294047,-0.091816,0.034506,62.693115,71.54184,-118.238647,,,
729716324.322612,-74.702581,-10.611746,-90.340814,0.042938,-0.978653,0.287704,0.294047,-0.091816,0.034506,62.693115,71.54184,-118.238647,,,
729716324.327487,-74.702634,-10.611743,-93.417719,0.042938,-0.978653,0.287704,0.294047,-0.091816,0.034506,62.693115,71.54184,-118.238647,,,
729716324.327725,-74.614321,-10.544808,-90.24114,0.042938,-0.978653,0.287704,0.350882,-0.098405,0.030138,62.693115,71.54184,-118.238647,,,
729716324.330152,-74.614374,-10.544804,-93.318045,0.042938,-0.978653,0.287704,0.350882,-0.098405,0.030138,62.693115,71.54184,-118.238647,,,
729716324.330378,-74.614321,-10.544808,-90.24114,0.042938,-0.978653,0.287704,0.350882,-0.098405,0.030138,62.693115,71.54184,-118.238647,,,
729716324.332424,-74.614374,-10.544804,-93.318045,0.042938,-0.978653,0.287704,0.350882,-0.098405,0.030138,62.693115,71.54184,-118.238647,,,
729716324.332623,-74.614321,-10.544808,-90.24114,0.043243,-0.971313,0.299057,0.350882,-0.098405,0.030138,62.693115,71.54184,-118.238647,,,
729716324.337089,-74.514074,-10.458722,-93.20063,0.043243,-0.971313,0.299057,0.350882,-0.098405,0.030138,62.693115,71.54184,-118.238647,,,
729716324.337341,-74.514022,-10.458726,-90.123726,0.043243,-0.971313,0.299057,0.350882,-0.098405,0.030138,62.693115,71.54184,-118.238647,,,
729716324.340476,-74.406642,-10.382973,-93.097765,0.043243,-0.971313,0.299057,0.4156,-0.059466,0.019819,62.693115,71.54184,-118.238647,,,
729716324.340703,-74.406591,-10.382977,-90.020861,0.043243,-0.971313,0.299057,0.4156,-0.059466,0.019819,62.693115,71.54184,-118.238647,,,
729716324.343015,-74.406642,-10.382973,-93.097765,0.043243,-0.971313,0.299057,0.4156,-0.059466,0.019819,62.607025,71.140579,-118.876709,,,
729716324.343236,-74.293094,-10.292504,-89.908509,0.05365,-0.961899,0.329773,0.4156,-0.059466,0.019819,62.607025,71.140579,-118.876709,,,
729716324.347011,-74.293145,-10.292501,-92.985413,0.05365,-0.961899,0.329773,0.4156,-0.059466,0.019819,62.607025,71.140579,-118.876709,,,
729716324.347254,-74.293094,-10.292504,-89.908509,0.05365,-0.961899,0.329773,0.4156,-0.059466,0.019819,62.607025,71.140579,-118.876709,,,
729716324.350295,-74.172211,-10.213954,-92.885229,0.05365,-0.961899,0.329773,0.44106,-0.071627,0.021957,62.607025,71.140579,-118.876709,,,
729716324.350518,-74.17216,-10.213958,-89.808325,0.05365,-0.961899,0.329773,0.44106,-0.071627,0.021957,62.607025,71.140579,-118.876709,,,
729716324.352406,-74.172211,-10.213954,-92.885229,0.05365,-0.961899,0.329773,0.44106,-0.071627,0.021957,62.607025,71.140579,-118.876709,,,
729716324.352654,-74.17216,-10.213958,-89.808325,0.052872,-0.966034,0.307343,0.44106,-0.071627,0.021957,62.607025,71.140579,-118.876709,,,
729716324.357101,-74.053482,-10.121436,-92.767905,0.052872,-0.966034,0.307343,0.44106,-0.071627,0.021957,62.607025,71.140579,-118.876709,,,
729716324.357327,-74.053432,-10.12144,-89.691001,0.052872,-0.966034,0.307343,0.44106,-0.071627,0.021957,62.607025,71.140579,-118.876709,,,
729716324.360456,-73.925934,-10.03843,-92.653114,0.052872,-0.966034,0.307343,0.484423,-0.106385,0.039534,62.607025,71.140579,-118.876709,,,
729716324.360685,-73.925884,-10.038434,-89.57621,0.052872,-0.966034,0.307343,0.484423,-0.106385,0.039534,62.607025,71.140579,-118.876709,,,
729716324.36232,-73.925934,-10.03843,-92.653114,0.052872,-0.966034,0.307343,0.484423,-0.106385,0.039534,62.607025,71.140579,-118.876709,,,
729716324.362601,-73.925884,-10.038434,-89.57621,0.043274,-0.969482,0.28569,0.484423,-0.106385,0.039534,62.607025,71.140579,-118.876709,,,
729716324.36708,-73.791206,-9.945926,-92.5254,0.043274,-0.969482,0.28569,0.484423,-0.106385,0.039534,62.607025,71.140579,-118.876709,,,
729716324.367305,-73.791156,-9.94593,-89.448497,0.043274,-0.969482,0.28569,0.484423,-0.106385,0.039534,62.607025,71.140579,-118.876709,,,
729716324.37045,-73.647079,-9.832984,-92.381787,0.043274,-0.969482,0.28569,0.55598,-0.043633,0.064775,62.607025,71.140579,-118.876709,,,
729716324.370696,-73.64703,-9.832988,-89.304885,0.043274,-0.969482,0.28569,0.55598,-0.043633,0.064775,62.607025,71.140579,-118.876709,,,
729716324.372418,-73.647079,-9.832984,-92.381787,0.043274,-0.969482,0.28569,0.55598,-0.043633,0.064775,62.607025,71.140579,-118.876709,,,
729716324.372614,-73.64703,-9.832988,-89.304885,0.04921,-0.974609,0.331467,0.55598,-0.043633,0.064775,62.607025,71.140579,-118.876709,,,
729716324.377138,-73.493398,-9.692271,-92.221317,0.04921,-0.974609,0.331467,0.55598,-0.043633,0.064775,62.607025,71.140579,-118.876709,,,
729716324.377355,-73.493349,-9.692275,-89.144415,0.04921,-0.974609,0.331467,0.55598,-0.043633,0.064775,62.607025,71.140579,-118.876709,,,
729716324.381389,-73.331943,-9.525412,-92.046655,0.04921,-0.974609,0.331467,0.597323,0.029574,0.087929,62.607025,71.140579,-118.876709,,,
729716324.381657,-73.331895,-9.525416,-88.969753,0.04921,-0.974609,0.331467,0.597323,0.029574,0.087929,62.607025,71.140579,-118.876709,,,
729716324.382222,-73.331943,-9.525412,-92.046655,0.04921,-0.974609,0.331467,0.597323,0.029574,0.087929,62.607025,71.140579,-118.876709,,,
729716324.382683,-73.331895,-9.525416,-88.969753,0.05896,-0.984894,0.348572,0.597323,0.029574,0.087929,62.607025,71.140579,-118.876709,,,
729716324.387912,-73.16796,-9.340579,-91.861629,0.05896,-0.984894,0.348572,0.597323,0.029574,0.087929,62.803055,70.755707,-120.101624,,,
729716324.388174,-73.006342,-9.149339,-88.594584,0.05896,-0.984894,0.348572,0.574203,0.028434,0.103337,62.803055,70.755707,-120.101624,,,
729716324.390153,-73.006389,-9.149335,-91.671485,0.05896,-0.984894,0.348572,0.574203,0.028434,0.103337,62.803055,70.755707,-120.101624,,,
729716324.390376,-73.006342,-9.149339,-88.594584,0.05896,-0.984894,0.348572,0.574203,0.028434,0.103337,62.803055,70.755707,-120.101624,,,
729716324.392419,-73.006389,-9.149335,-91.671485,0.05896,-0.984894,0.348572,0.574203,0.028434,0.103337,62.803055,70.755707,-120.101624,,,
729716324.392611,-73.006342,-9.149339,-88.594584,0.05896,-0.984894,0.348572,0.574203,0.028434,0.103337,62.803055,70.755707,-120.101624,,,
729716324.396611,-72.848729,-8.962625,-91.483677,0.059189,-0.984543,0.298676,0.574203,0.028434,0.103337,62.803055,70.755707,-120.101624,,,
729716324.396828,-72.848682,-8.96263,-88.406776,0.059189,-0.984543,0.298676,0.574203,0.028434,0.103337,62.803055,70.755707,-120.101624,,,
729716324.4003,-72.695791,-8.787431,-91.305352,0.059189,-0.984543,0.298676,0.531832,0.011374,0.097344,62.803055,70.755707,-120.101624,,,
729716324.400544,-72.695745,-8.787436,-88.228451,0.059189,-0.984543,0.298676,0.531832,0.011374,0.097344,62.803055,70.755707,-120.101624,,,
729716324.402476,-72.695791,-8.787431,-91.305352,0.059189,-0.984543,0.298676,0.531832,0.011374,0.097344,62.803055,70.755707,-120.101624,,,
729716324.402669,-72.695745,-8.787436,-88.228451,0.059189,-0.984543,0.298676,0.531832,0.011374,0.097344,62.803055,70.755707,-120.101624,,,
729716324.407363,-72.549163,-8.624222,-91.137012,0.069794,-0.962357,0.279617,0.531832,0.011374,0.097344,62.803055,70.755707,-120.101624,,,
729716324.407658,-72.549117,-8.474937,-87.903602,0.069794,-0.962357,0.279617,0.531832,0.011374,0.097344,62.803055,70.755707,-120.101624,,,
729716324.41134,-72.409556,-8.474932,-90.980503,0.069794,-0.962357,0.279617,0.484251,-0.009788,0.080878,62.803055,70.755707,-120.101624,,,
729716324.411626,-72.409511,-8.474937,-87.903602,0.069794,-0.962357,0.279617,0.484251,-0.009788,0.080878,62.803055,70.755707,-120.101624,,,
729716324.412333,-72.409556,-8.474932,-90.980503,0.069794,-0.962357,0.279617,0.484251,-0.009788,0.080878,62.803055,70.755707,-120.101624,,,
729716324.412692,-72.409511,-8.474937,-87.903602,0.069794,-0.962357,0.279617,0.484251,-0.009788,0.080878,62.803055,70.755707,-120.101624,,,
729716324.41746,-72.275595,-8.34278,-90.838357,0.059525,-0.947586,0.273285,0.484251,-0.009788,0.080878,62.803055,70.755707,-120.101624,,,
729716324.417724,-72.142994,-8.227037,-87.632193,0.059525,-0.947586,0.273285,0.484251,-0.009788,0.080878,62.803055,70.755707,-120.101624,,,
729716324.420199,-72.143039,-8.227032,-90.709093,0.059525,-0.947586,0.273285,0.484635,-0.032598,0.055084,62.803055,70.755707,-120.101624,,,
729716324.420452,-72.142994,-8.227037,-87.632193,0.059525,-0.947586,0.273285,0.484635,-0.032598,0.055084,62.803055,70.755707,-120.101624,,,
729716324.422406,-72.143039,-8.227032,-90.709093,0.059525,-0.947586,0.273285,0.484635,-0.032598,0.055084,62.803055,70.755707,-120.101624,,,
729716324.422702,-72.142994,-8.227037,-87.632193,0.059525,-0.947586,0.273285,0.484635,-0.032598,0.055084,62.803055,70.755707,-120.101624,,,
729716324.428255,-72.007657,-8.125726,-90.592466,0.053818,-0.943527,0.29245,0.484635,-0.032598,0.055084,63.154343,70.315308,-120.794754,,,
729716324.428547,-71.866449,-8.030589,-87.407417,0.053818,-0.943527,0.29245,0.533267,-0.005148,0.041132,63.154343,70.315308,-120.794754,,,
729716324.430381,-71.866493,-8.030584,-90.484316,0.053818,-0.943527,0.29245,0.533267,-0.005148,0.041132,63.154343,70.315308,-120.794754,,,
729716324.43062,-71.866449,-8.030589,-87.407417,0.053818,-0.943527,0.29245,0.533267,-0.005148,0.041132,63.154343,70.315308,-120.794754,,,
729716324.432312,-71.866493,-8.030584,-90.484316,0.053818,-0.943527,0.29245,0.533267,-0.005148,0.041132,63.154343,70.315308,-120.794754,,,
729716324.432573,-71.866449,-8.030589,-87.407417,0.053818,-0.943527,0.29245,0.533267,-0.005148,0.041132,63.154343,70.315308,-120.794754,,,
729716324.437092,-71.717973,-7.931379,-90.377753,0.059738,-0.944733,0.340454,0.533267,-0.005148,0.041132,63.154343,70.315308,-120.794754,,,
729716324.437359,-71.71793,-7.931384,-87.300854,0.059738,-0.944733,0.340454,0.533267,-0.005148,0.041132,63.154343,70.315308,-120.794754,,,
729716324.441341,-71.563251,-7.823428,-90.266396,0.059738,-0.944733,0.340454,0.561854,0.007517,0.056638,63.154343,70.315308,-120.794754,,,
729716324.441617,-71.563208,-7.823433,-87.189497,0.059738,-0.944733,0.340454,0.561854,0.007517,0.056638,63.154343,70.315308,-120.794754,,,
729716324.442234,-71.563251,-7.823428,-90.266396,0.059738,-0.944733,0.340454,0.561854,0.007517,0.056638,63.154343,70.315308,-120.794754,,,
729716324.442624,-71.563208,-7.823433,-87.189497,0.059738,-0.944733,0.340454,0.561854,0.007517,0.056638,63.154343,70.315308,-120.794754,,,
729716324.447115,-71.406357,-7.708726,-90.146151,0.052353,-0.958954,0.358185,0.561854,0.007517,0.056638,63.154343,70.315308,-120.794754,,,
729716324.447344,-71.406314,-7.708732,-87.069253,0.052353,-0.958954,0.358185,0.561854,0.007517,0.056638,63.154343,70.315308,-120.794754,,,
729716324.451336,-71.249428,-7.590142,-90.014839,0.052353,-0.958954,0.358185,0.56592,-0.037155,0.08623,63.154343,70.315308,-120.794754,,,
729716324.451595,-71.249386,-7.590147,-86.937941,0.052353,-0.958954,0.358185,0.56592,-0.037155,0.08623,63.154343,70.315308,-120.794754,,,
729716324.452299,-71.249428,-7.590142,-90.014839,0.052353,-0.958954,0.358185,0.56592,-0.037155,0.08623,63.154343,70.315308,-120.794754,,,
729716324.452619,-71.249386,-7.590147,-86.937941,0.052353,-0.958954,0.358185,0.56592,-0.037155,0.08623,63.154343,70.315308,-120.794754,,,
729716324.457398,-71.092053,-7.465285,-89.871822,0.041733,-0.965576,0.319962,0.56592,-0.037155,0.08623,63.154343,70.315308,-120.794754,,,
729716324.457678,-71.092011,-7.46529,-86.794924,0.041733,-0.965576,0.319962,0.56592,-0.037155,0.08623,63.154343,70.315308,-120.794754,,,
729716324.460415,-70.932731,-7.330763,-89.720494,0.041733,-0.965576,0.319962,0.577218,-9.7e-05,0.104339,63.154343,70.315308,-120.794754,,,
729716324.460645,-70.932689,-7.330768,-86.643597,0.041733,-0.965576,0.319962,0.577218,-9.7e-05,0.104339,63.154343,70.315308,-120.794754,,,
729716324.462256,-70.932731,-7.330763,-89.720494,0.041733,-0.965576,0.319962,0.577218,-9.7e-05,0.104339,63.154343,70.315308,-120.794754,,,
729716324.462659,-70.932689,-7.330768,-86.643597,0.041733,-0.965576,0.319962,0.577218,-9.7e-05,0.104339,63.154343,70.315308,-120.794754,,,
729716324.467917,-70.772368,-7.186777,-89.566762,0.050201,-0.954803,0.341919,0.577218,-9.7e-05,0.104339,63.259201,69.837738,-122.199127,,,
729716324.468166,-70.614561,-7.038269,-86.338958,0.050201,-0.954803,0.341919,0.542455,0.0356,0.103865,63.259201,69.837738,-122.199127,,,
729716324.471078,-70.614602,-7.038263,-89.415855,0.050201,-0.954803,0.341919,0.542455,0.0356,0.103865,63.259201,69.837738,-122.199127,,,
729716324.471335,-70.614561,-7.038269,-86.338958,0.050201,-0.954803,0.341919,0.542455,0.0356,0.103865,63.259201,69.837738,-122.199127,,,
729716324.472291,-70.614602,-7.038263,-89.415855,0.050201,-0.954803,0.341919,0.542455,0.0356,0.103865,63.259201,69.837738,-122.199127,,,
729716324.472659,-70.614561,-7.038269,-86.338958,0.050201,-0.954803,0.341919,0.542455,0.0356,0.103865,63.259201,69.837738,-122.199127,,,
729716324.477019,-70.464488,-6.890833,-89.268618,0.059555,-0.946686,0.344101,0.542455,0.0356,0.103865,63.259201,69.837738,-122.199127,,,
729716324.477241,-70.464447,-6.890839,-86.191721,0.059555,-0.946686,0.344101,0.542455,0.0356,0.103865,63.259201,69.837738,-122.199127,,,
729716324.480367,-70.325084,-6.750627,-89.125964,0.059555,-0.946686,0.344101,0.462209,0.002833,0.106483,63.259201,69.837738,-122.199127,,,
729716324.480601,-70.325044,-6.750633,-86.049067,0.059555,-0.946686,0.344101,0.462209,0.002833,0.106483,63.259201,69.837738,-122.199127,,,
729716324.48236,-70.325084,-6.750627,-89.125964,0.059555,-0.946686,0.344101,0.462209,0.002833,0.106483,63.259201,69.837738,-122.199127,,,
729716324.482623,-70.325044,-6.750633,-86.049067,0.059555,-0.946686,0.344101,0.462209,0.002833,0.106483,63.259201,69.837738,-122.199127,,,
729716324.487272,-70.197675,-6.621872,-88.989589,0.044144,-0.94429,0.291977,0.462209,0.002833,0.106483,63.259201,69.837738,-122.199127,,,
729716324.487502,-70.197635,-6.621878,-85.912692,0.044144,-0.94429,0.291977,0.462209,0.002833,0.106483,63.259201,69.837738,-122.199127,,,
729716324.491293,-70.081051,-6.502367,-88.859482,0.044144,-0.94429,0.291977,0.389639,-0.003927,0.100051,63.259201,69.837738,-122.199127,,,
729716324.491562,-70.081011,-6.502373,-85.782586,0.044144,-0.94429,0.291977,0.389639,-0.003927,0.100051,63.259201,69.837738,-122.199127,,,
729716324.492237,-70.081051,-6.502367,-88.859482,0.044144,-0.94429,0.291977,0.389639,-0.003927,0.100051,63.259201,69.837738,-122.199127,,,
729716324.492662,-70.081011,-6.502373,-85.782586,0.044144,-0.94429,0.291977,0.389639,-0.003927,0.100051,63.259201,69.837738,-122.199127,,,
729716324.49713,-69.972961,-6.390953,-88.738641,0.034637,-0.927963,0.278946,0.389639,-0.003927,0.100051,63.259201,69.837738,-122.199127,,,
729716324.497361,-69.972921,-6.390959,-85.661745,0.034637,-0.927963,0.278946,0.389639,-0.003927,0.100051,63.259201,69.837738,-122.199127,,,
729716324.501332,-69.870699,-6.286832,-88.628133,0.034637,-0.927963,0.278946,0.352306,0.012261,0.079607,63.259201,69.837738,-122.199127,,,
729716324.501604,-69.87066,-6.286838,-85.551237,0.034637,-0.927963,0.278946,0.352306,0.012261,0.079607,63.259201,69.837738,-122.199127,,,
729716324.50232,-69.870699,-6.286832,-88.628133,0.034637,-0.927963,0.278946,0.352306,0.012261,0.079607,63.259201,69.837738,-122.199127,,,
729716324.502627,-69.87066,-6.286838,-85.551237,0.034637,-0.927963,0.278946,0.352306,0.012261,0.079607,63.259201,69.837738,-122.199127,,,
729716324.508036,-69.771833,-6.189462,-88.526667,0.040146,-0.911926,0.317413,0.352306,0.012261,0.079607,63.3638,69.50563,-123.21846,,,
729716324.508329,-69.67407,-6.10058,-85.356629,0.040146,-0.911926,0.317413,0.356104,0.000259,0.065163,63.3638,69.50563,-123.21846,,,
729716324.510285,-69.674109,-6.100574,-88.433525,0.040146,-0.911926,0.317413,0.356104,0.000259,0.065163,63.3638,69.50563,-123.21846,,,
729716324.510512,-69.67407,-6.10058,-85.356629,0.040146,-0.911926,0.317413,0.356104,0.000259,0.065163,63.3638,69.50563,-123.21846,,,
729716324.512266,-69.674109,-6.100574,-88.433525,0.040146,-0.911926,0.317413,0.356104,0.000259,0.065163,63.3638,69.50563,-123.21846,,,
729716324.512642,-69.67407,-6.10058,-85.356629,0.040146,-0.911926,0.317413,0.356104,0.000259,0.065163,63.3638,69.50563,-123.21846,,,
729716324.517113,-69.574605,-6.019766,-88.346755,0.038635,-0.911667,0.337509,0.356104,0.000259,0.065163,63.3638,69.50563,-123.21846,,,
729716324.517346,-69.574566,-6.019772,-85.26986,0.038635,-0.911667,0.337509,0.356104,0.000259,0.065163,63.3638,69.50563,-123.21846,,,
729716324.521361,-69.470332,-5.943455,-88.263184,0.038635,-0.911667,0.337509,0.393782,-0.009854,0.056863,63.3638,69.50563,-123.21846,,,
729716324.52163,-69.470294,-5.943461,-85.186289,0.038635,-0.911667,0.337509,0.393782,-0.009854,0.056863,63.3638,69.50563,-123.21846,,,
729716324.522242,-69.470332,-5.943455,-88.263184,0.038635,-0.911667,0.337509,0.393782,-0.009854,0.056863,63.3638,69.50563,-123.21846,,,
729716324.522621,-69.470294,-5.943461,-85.186289,0.038635,-0.911667,0.337509,0.393782,-0.009854,0.056863,63.3638,69.50563,-123.21846,,,
729716324.527352,-69.360307,-5.8705,-88.18177,0.031891,-0.915604,0.36264,0.393782,-0.009854,0.056863,63.3638,69.50563,-123.21846,,,
729716324.527581,-69.360269,-5.870506,-85.104875,0.031891,-0.915604,0.36264,0.393782,-0.009854,0.056863,63.3638,69.50563,-123.21846,,,
729716324.53036,-69.243363,-5.804365,-88.105433,0.031891,-0.915604,0.36264,0.437391,-0.021921,0.041763,63.3638,69.50563,-123.21846,,,
729716324.530593,-69.243326,-5.804371,-85.028538,0.031891,-0.915604,0.36264,0.437391,-0.021921,0.041763,63.3638,69.50563,-123.21846,,,
729716324.532363,-69.243363,-5.804365,-88.105433,0.031891,-0.915604,0.36264,0.437391,-0.021921,0.041763,63.3638,69.50563,-123.21846,,,
729716324.532591,-69.243326,-5.804371,-85.028538,0.031891,-0.915604,0.36264,0.437391,-0.021921,0.041763,63.3638,69.50563,-123.21846,,,
729716324.536944,-69.119391,-5.746816,-88.035848,0.0345,-0.916977,0.377304,0.437391,-0.021921,0.041763,63.3638,69.50563,-123.21846,,,
729716324.537172,-69.119354,-5.746822,-84.958953,0.0345,-0.916977,0.377304,0.437391,-0.021921,0.041763,63.3638,69.50563,-123.21846,,,
729716324.540656,-68.989666,-5.699888,-87.975279,0.0345,-0.916977,0.377304,0.467467,-0.044113,0.017556,63.3638,69.50563,-123.21846,,,
729716324.540914,-68.989628,-5.699894,-84.898384,0.0345,-0.916977,0.377304,0.467467,-0.044113,0.017556,63.3638,69.50563,-123.21846,,,
729716324.542322,-68.989666,-5.699888,-87.975279,0.0345,-0.916977,0.377304,0.467467,-0.044113,0.017556,63.3638,69.50563,-123.21846,,,
729716324.542597,-68.989628,-5.699894,-84.898384,0.0345,-0.916977,0.377304,0.467467,-0.044113,0.017556,63.3638,69.50563,-123.21846,,,
729716324.547484,-68.857,-5.666754,-87.925046,0.043945,-0.917374,0.37262,0.467467,-0.044113,0.017556,63.579575,69.043472,-124.056091,,,
729716324.547777,-68.856963,-5.66676,-84.848152,0.043945,-0.917374,0.37262,0.467467,-0.044113,0.017556,63.579575,69.043472,-124.056091,,,
729716324.551642,-68.724074,-5.647156,-87.884577,0.043945,-0.917374,0.37262,0.459392,-0.06902,-0.005561,63.579575,69.043472,-124.056091,,,
729716324.551943,-68.724037,-5.647162,-84.807683,0.043945,-0.917374,0.37262,0.459392,-0.06902,-0.005561,63.579575,69.043472,-124.056091,,,
729716324.552328,-68.724074,-5.647156,-87.884577,0.043945,-0.917374,0.37262,0.459392,-0.06902,-0.005561,63.579575,69.043472,-124.056091,,,
729716324.552779,-68.724037,-5.647162,-84.807683,0.043945,-0.917374,0.37262,0.459392,-0.06902,-0.005561,63.579575,69.043472,-124.056091,,,
729716324.557022,-68.593535,-5.638296,-87.85243,0.037643,-0.917297,0.34877,0.459392,-0.06902,-0.005561,63.579575,69.043472,-124.056091,,,
729716324.557275,-68.593498,-5.638303,-84.775536,0.037643,-0.917297,0.34877,0.459392,-0.06902,-0.005561,63.579575,69.043472,-124.056091,,,
729716324.560324,-68.465957,-5.636644,-87.825838,0.037643,-0.917297,0.34877,0.431545,-0.078546,-0.017705,63.579575,69.043472,-124.056091,,,
729716324.560567,-68.465921,-5.63665,-84.748944,0.037643,-0.917297,0.34877,0.431545,-0.078546,-0.017705,63.579575,69.043472,-124.056091,,,
729716324.56222,-68.465957,-5.636644,-87.825838,0.037643,-0.917297,0.34877,0.431545,-0.078546,-0.017705,63.579575,69.043472,-124.056091,,,
729716324.562633,-68.465921,-5.63665,-84.748944,0.037643,-0.917297,0.34877,0.431545,-0.078546,-0.017705,63.579575,69.043472,-124.056091,,,
729716324.567015,-68.343026,-5.640087,-87.804498,0.033478,-0.910858,0.340302,0.431545,-0.078546,-0.017705,63.579575,69.043472,-124.056091,,,
