Time (sec),Pitch (deg),Roll (deg),Yaw(deg),X-Acceleration (g),Y-Acceleration (g),Z-Acceleration (g),Pitch Rate (deg/sec),Roll Rate (deg/sec),Yaw Rate (deg/sec),Magnetic Field in X direction (uT),Magnetic Field in Y direction (uT),Magnetic Field in Z Direction (uT),Latitude (deg),Longitude (deg),Altitude (m)
729715995.657668,-25.14959,-1.492564,-82.705483,0.030411,-0.416962,0.886749,0.361976,-0.037738,-0.066008,64.326172,36.162018,-149.256775,,,
729715995.658116,-25.149583,-1.492568,-79.628605,0.030411,-0.416962,0.886749,0.361976,-0.037738,-0.066008,64.326172,36.162018,-149.256775,,,
729715995.663076,-25.045103,-1.512166,-82.722745,0.036728,-0.414185,0.902847,0.361976,-0.037738,-0.066008,64.326172,36.162018,-149.256775,,,
729715995.663359,-24.943857,-1.522345,-79.661972,0.036728,-0.414185,0.902847,0.338062,0.014607,-0.057266,64.326172,36.162018,-149.256775,,,
729715995.666923,-24.943864,-1.522342,-82.738851,0.036728,-0.414185,0.902847,0.338062,0.014607,-0.057266,64.326172,36.162018,-149.256775,,,
729715995.667213,-24.943857,-1.522345,-79.661972,0.036728,-0.414185,0.902847,0.338062,0.014607,-0.057266,64.326172,36.162018,-149.256775,,,
729715995.667758,-24.943864,-1.522342,-82.738851,0.036728,-0.414185,0.902847,0.338062,0.014607,-0.057266,64.326172,36.162018,-149.256775,,,
729715995.66804,-24.943857,-1.522345,-79.661972,0.036728,-0.414185,0.902847,0.338062,0.014607,-0.057266,64.326172,36.162018,-149.256775,,,
729715995.672409,-24.845831,-1.525353,-82.752994,0.038879,-0.415421,0.907272,0.338062,0.014607,-0.057266,64.326172,36.162018,-149.256775,,,
729715995.672643,-24.845825,-1.525357,-79.676116,0.038879,-0.415421,0.907272,0.338062,0.014607,-0.057266,64.326172,36.162018,-149.256775,,,
729715995.675902,-24.750997,-1.522345,-82.764111,0.038879,-0.415421,0.907272,0.324046,0.047237,-0.035225,64.326172,36.162018,-149.256775,,,
729715995.676144,-24.750991,-1.522348,-79.687233,0.038879,-0.415421,0.907272,0.324046,0.047237,-0.035225,64.326172,36.162018,-149.256775,,,
729715995.677794,-24.750997,-1.522345,-82.764111,0.038879,-0.415421,0.907272,0.324046,0.047237,-0.035225,64.326172,36.162018,-149.256775,,,
729715995.678036,-24.750991,-1.522348,-79.687233,0.038879,-0.415421,0.907272,0.324046,0.047237,-0.035225,64.326172,36.162018,-149.256775,,,
729715995.682648,-24.65756,-1.513351,-82.770821,0.032745,-0.416885,0.902191,0.324046,0.047237,-0.035225,64.326172,36.162018,-149.256775,,,
729715995.682903,-24.657554,-1.513354,-79.693943,0.032745,-0.416885,0.902191,0.324046,0.047237,-0.035225,64.326172,36.162018,-149.256775,,,
729715995.68602,-24.564092,-1.499668,-82.77351,0.032745,-0.416885,0.902191,0.333661,0.06166,-0.00585,64.326172,36.162018,-149.256775,,,
729715995.686488,-24.564085,-1.499672,-79.696632,0.032745,-0.416885,0.902191,0.333661,0.06166,-0.00585,64.326172,36.162018,-149.256775,,,
729715995.687744,-24.564092,-1.499668,-82.77351,0.032745,-0.416885,0.902191,0.333661,0.06166,-0.00585,64.326172,36.162018,-149.256775,,,
729715995.688044,-24.564085,-1.499672,-79.696632,0.032745,-0.416885,0.902191,0.333661,0.06166,-0.00585,64.326172,36.162018,-149.256775,,,
729715995.692524,-24.468453,-1.482426,-82.77322,0.023071,-0.415649,0.907333,0.333661,0.06166,-0.00585,64.326172,36.162018,-149.256775,,,
729715995.692777,-24.468447,-1.482429,-79.696341,0.023071,-0.415649,0.907333,0.333661,0.06166,-0.00585,64.326172,36.162018,-149.256775,,,
729715995.697615,-24.36941,-1.463754,-82.770926,0.023071,-0.415649,0.907333,0.355339,0.057256,0.000954,64.431442,35.639343,-149.690704,,,
729715995.697939,-24.369404,-1.463758,-79.694047,0.023071,-0.415649,0.907333,0.355339,0.057256,0.000954,64.431442,35.639343,-149.690704,,,
729715995.702352,-24.266852,-1.446428,-82.767692,0.022141,-0.411011,0.910889,0.355339,0.057256,0.000954,64.431442,35.639343,-149.690704,,,
729715995.702596,-24.266846,-1.446432,-79.690813,0.022141,-0.411011,0.910889,0.355339,0.057256,0.000954,64.431442,35.639343,-149.690704,,,
729715995.705683,-24.161456,-1.4304,-82.763848,0.022141,-0.411011,0.910889,0.377426,0.050121,0.002309,64.431442,35.639343,-149.690704,,,
729715995.705945,-24.16145,-1.430403,-79.68697,0.022141,-0.411011,0.910889,0.377426,0.050121,0.002309,64.431442,35.639343,-149.690704,,,
729715995.707797,-24.161456,-1.4304,-82.763848,0.022141,-0.411011,0.910889,0.377426,0.050121,0.002309,64.431442,35.639343,-149.690704,,,
729715995.708022,-24.16145,-1.430403,-79.68697,0.022141,-0.411011,0.910889,0.377426,0.050121,0.002309,64.431442,35.639343,-149.690704,,,
729715995.711983,-24.053468,-1.415324,-82.759869,0.019455,-0.409317,0.910019,0.377426,0.050121,0.002309,64.431442,35.639343,-149.690704,,,
729715995.712203,-24.053461,-1.415328,-79.682991,0.019455,-0.409317,0.910019,0.377426,0.050121,0.002309,64.431442,35.639343,-149.690704,,,
729715995.715546,-23.941775,-1.402036,-82.755962,0.019455,-0.409317,0.910019,0.405852,0.029229,0.002262,64.431442,35.639343,-149.690704,,,
729715995.715772,-23.941769,-1.40204,-79.679084,0.019455,-0.409317,0.910019,0.405852,0.029229,0.002262,64.431442,35.639343,-149.690704,,,
729715995.717897,-23.941775,-1.402036,-82.755962,0.019455,-0.409317,0.910019,0.405852,0.029229,0.002262,64.431442,35.639343,-149.690704,,,
729715995.718129,-23.941769,-1.40204,-79.679084,0.019455,-0.409317,0.910019,0.405852,0.029229,0.002262,64.431442,35.639343,-149.690704,,,
729715995.722321,-23.825958,-1.392091,-82.751859,0.01474,-0.407043,0.912735,0.405852,0.029229,0.002262,64.431442,35.639343,-149.690704,,,
729715995.722589,-23.825951,-1.392094,-79.67498,0.01474,-0.407043,0.912735,0.405852,0.029229,0.002262,64.431442,35.639343,-149.690704,,,
729715995.72658,-23.707369,-1.386256,-82.748712,0.01474,-0.407043,0.912735,0.424483,0.006264,-0.00874,64.431442,35.639343,-149.690704,,,
729715995.726847,-23.707363,-1.38626,-79.671834,0.01474,-0.407043,0.912735,0.424483,0.006264,-0.00874,64.431442,35.639343,-149.690704,,,
729715995.727688,-23.707369,-1.386256,-82.748712,0.01474,-0.407043,0.912735,0.424483,0.006264,-0.00874,64.431442,35.639343,-149.690704,,,
729715995.72807,-23.707363,-1.38626,-79.671834,0.01474,-0.407043,0.912735,0.424483,0.006264,-0.00874,64.431442,35.639343,-149.690704,,,
729715995.73257,-23.58628,-1.384266,-82.747103,0.015915,-0.401932,0.913635,0.424483,0.006264,-0.00874,64.431442,35.639343,-149.690704,,,
729715995.732821,-23.586274,-1.38427,-79.670225,0.015915,-0.401932,0.913635,0.424483,0.006264,-0.00874,64.431442,35.639343,-149.690704,,,
729715995.736753,-23.463349,-1.38554,-82.746715,0.015915,-0.401932,0.913635,0.428563,-0.006213,-0.012533,64.431442,35.639343,-149.690704,,,
729715995.737038,-23.463343,-1.385544,-79.669837,0.015915,-0.401932,0.913635,0.428563,-0.006213,-0.012533,64.3237,34.56955,-150.118149,,,
729715995.738414,-23.463349,-1.38554,-82.746715,0.015915,-0.401932,0.913635,0.428563,-0.006213,-0.012533,64.3237,34.56955,-150.118149,,,
729715995.738647,-23.340238,-1.388562,-79.670248,0.014359,-0.393982,0.913559,0.428563,-0.006213,-0.012533,64.3237,34.56955,-150.118149,,,
729715995.741966,-23.340244,-1.388558,-82.747126,0.014359,-0.393982,0.913559,0.428563,-0.006213,-0.012533,64.3237,34.56955,-150.118149,,,
729715995.742189,-23.340238,-1.388562,-79.670248,0.014359,-0.393982,0.913559,0.428563,-0.006213,-0.012533,64.3237,34.56955,-150.118149,,,
729715995.745393,-23.217989,-1.393091,-82.747751,0.014359,-0.393982,0.913559,0.419604,-0.020671,-0.01202,64.3237,34.56955,-150.118149,,,
729715995.745632,-23.217983,-1.393094,-79.670873,0.014359,-0.393982,0.913559,0.419604,-0.020671,-0.01202,64.3237,34.56955,-150.118149,,,
729715995.747812,-23.217989,-1.393091,-82.747751,0.014359,-0.393982,0.913559,0.419604,-0.020671,-0.01202,64.3237,34.56955,-150.118149,,,
729715995.748029,-23.217983,-1.393094,-79.670873,0.014359,-0.393982,0.913559,0.419604,-0.020671,-0.01202,64.3237,34.56955,-150.118149,,,
729715995.752061,-23.097329,-1.400098,-82.747434,0.013367,-0.386429,0.910934,0.419604,-0.020671,-0.01202,64.3237,34.56955,-150.118149,,,
729715995.752506,-23.097323,-1.400102,-79.670556,0.013367,-0.386429,0.910934,0.419604,-0.020671,-0.01202,64.3237,34.56955,-150.118149,,,
729715995.755813,-22.979751,-1.409881,-82.745654,0.013367,-0.386429,0.910934,0.399068,-0.040928,-0.001355,64.3237,34.56955,-150.118149,,,
729715995.756077,-22.979745,-1.409885,-79.668776,0.013367,-0.386429,0.910934,0.399068,-0.040928,-0.001355,64.3237,34.56955,-150.118149,,,
729715995.757824,-22.979751,-1.409881,-82.745654,0.013367,-0.386429,0.910934,0.399068,-0.040928,-0.001355,64.3237,34.56955,-150.118149,,,
729715995.758066,-22.979745,-1.409885,-79.668776,0.013367,-0.386429,0.910934,0.399068,-0.040928,-0.001355,64.3237,34.56955,-150.118149,,,
729715995.762669,-22.865121,-1.421173,-82.742603,0.008942,-0.383453,0.900787,0.399068,-0.040928,-0.001355,64.3237,34.56955,-150.118149,,,
729715995.762918,-22.865115,-1.421177,-79.665725,0.008942,-0.383453,0.900787,0.399068,-0.040928,-0.001355,64.3237,34.56955,-150.118149,,,
729715995.766623,-22.753586,-1.432789,-82.737949,0.008942,-0.383453,0.900787,0.379884,-0.044113,0.007413,64.3237,34.56955,-150.118149,,,
729715995.766896,-22.75358,-1.432793,-79.661071,0.008942,-0.383453,0.900787,0.379884,-0.044113,0.007413,64.3237,34.56955,-150.118149,,,
729715995.767748,-22.753586,-1.432789,-82.737949,0.008942,-0.383453,0.900787,0.379884,-0.044113,0.007413,64.3237,34.56955,-150.118149,,,
729715995.768013,-22.75358,-1.432793,-79.661071,0.008942,-0.383453,0.900787,0.379884,-0.044113,0.007413,64.3237,34.56955,-150.118149,,,
729715995.771996,-22.644369,-1.444396,-82.731916,0.009033,-0.377853,0.899689,0.379884,-0.044113,0.007413,64.3237,34.56955,-150.118149,,,
729715995.772223,-22.644363,-1.4444,-79.655038,0.009033,-0.377853,0.899689,0.379884,-0.044113,0.007413,64.3237,34.56955,-150.118149,,,
729715995.775772,-22.535746,-1.454722,-82.724507,0.009033,-0.377853,0.899689,0.388152,-0.036494,0.017735,64.3237,34.56955,-150.118149,,,
729715995.776002,-22.535741,-1.454726,-79.647628,0.009033,-0.377853,0.899689,0.388152,-0.036494,0.017735,64.3237,34.56955,-150.118149,,,
729715995.778572,-22.535746,-1.454722,-82.724507,0.009033,-0.377853,0.899689,0.388152,-0.036494,0.017735,64.325745,33.818558,-150.202454,,,
729715995.778816,-22.42551,-1.462491,-79.63858,0.01178,-0.373978,0.90773,0.388152,-0.036494,0.017735,64.325745,33.818558,-150.202454,,,
729715995.782286,-22.425516,-1.462488,-82.715458,0.01178,-0.373978,0.90773,0.388152,-0.036494,0.017735,64.325745,33.818558,-150.202454,,,
729715995.782524,-22.42551,-1.462491,-79.63858,0.01178,-0.373978,0.90773,0.388152,-0.036494,0.017735,64.325745,33.818558,-150.202454,,,
729715995.786095,-22.311699,-1.468049,-82.705169,0.01178,-0.373978,0.90773,0.41292,-0.026222,0.025563,64.325745,33.818558,-150.202454,,,
729715995.786562,-22.311694,-1.468052,-79.62829,0.01178,-0.373978,0.90773,0.41292,-0.026222,0.025563,64.325745,33.818558,-150.202454,,,
729715995.787708,-22.311699,-1.468049,-82.705169,0.01178,-0.373978,0.90773,0.41292,-0.026222,0.025563,64.325745,33.818558,-150.202454,,,
729715995.788032,-22.311694,-1.468052,-79.62829,0.01178,-0.373978,0.90773,0.41292,-0.026222,0.025563,64.325745,33.818558,-150.202454,,,
729715995.792407,-22.193738,-1.47259,-82.693585,0.013306,-0.375061,0.92308,0.41292,-0.026222,0.025563,64.325745,33.818558,-150.202454,,,
729715995.792659,-22.193732,-1.472594,-79.616707,0.013306,-0.375061,0.92308,0.41292,-0.026222,0.025563,64.325745,33.818558,-150.202454,,,
729715995.795988,-22.071563,-1.477578,-82.680448,0.013306,-0.375061,0.92308,0.442284,-0.039594,0.034692,64.325745,33.818558,-150.202454,,,
729715995.796264,-22.071557,-1.477581,-79.60357,0.013306,-0.375061,0.92308,0.442284,-0.039594,0.034692,64.325745,33.818558,-150.202454,,,
729715995.797746,-22.071563,-1.477578,-82.680448,0.013306,-0.375061,0.92308,0.442284,-0.039594,0.034692,64.325745,33.818558,-150.202454,,,
729715995.798006,-22.071557,-1.477581,-79.60357,0.013306,-0.375061,0.92308,0.442284,-0.039594,0.034692,64.325745,33.818558,-150.202454,,,
729715995.802324,-21.944694,-1.485057,-82.665743,0.01149,-0.377686,0.921448,0.442284,-0.039594,0.034692,64.325745,33.818558,-150.202454,,,
729715995.802557,-21.944689,-1.48506,-79.588865,0.01149,-0.377686,0.921448,0.442284,-0.039594,0.034692,64.325745,33.818558,-150.202454,,,
729715995.805815,-21.813383,-1.495259,-82.649323,0.01149,-0.377686,0.921448,0.470552,-0.069135,0.042395,64.325745,33.818558,-150.202454,,,
729715995.806058,-21.813377,-1.495263,-79.572445,0.01149,-0.377686,0.921448,0.470552,-0.069135,0.042395,64.325745,33.818558,-150.202454,,,
729715995.807764,-21.813383,-1.495259,-82.649323,0.01149,-0.377686,0.921448,0.470552,-0.069135,0.042395,64.325745,33.818558,-150.202454,,,
729715995.807997,-21.813377,-1.495263,-79.572445,0.01149,-0.377686,0.921448,0.470552,-0.069135,0.042395,64.325745,33.818558,-150.202454,,,
729715995.812172,-21.678263,-1.508409,-82.631253,0.00708,-0.376022,0.920898,0.470552,-0.069135,0.042395,64.325745,33.818558,-150.202454,,,
729715995.812396,-21.678257,-1.508412,-79.554375,0.00708,-0.376022,0.920898,0.470552,-0.069135,0.042395,64.325745,33.818558,-150.202454,,,
729715995.815907,-21.539662,-1.525998,-82.611808,0.00708,-0.376022,0.920898,0.497857,-0.103663,0.051189,64.325745,33.818558,-150.202454,,,
729715995.81614,-21.539656,-1.526001,-79.534929,0.00708,-0.376022,0.920898,0.497857,-0.103663,0.051189,64.325745,33.818558,-150.202454,,,
729715995.817907,-21.539662,-1.525998,-82.611808,0.00708,-0.376022,0.920898,0.497857,-0.103663,0.051189,64.325745,33.818558,-150.202454,,,
729715995.818102,-21.539656,-1.526001,-79.534929,0.00708,-0.376022,0.920898,0.497857,-0.103663,0.051189,64.325745,33.818558,-150.202454,,,
729715995.82295,-21.396867,-1.54979,-82.591095,0.007751,-0.372925,0.923019,0.497857,-0.103663,0.051189,64.265823,32.807968,-150.231903,,,
729715995.823224,-21.396862,-1.549793,-79.514217,0.007751,-0.372925,0.923019,0.497857,-0.103663,0.051189,64.265823,32.807968,-150.231903,,,
729715995.826025,-21.250182,-1.581051,-82.568633,0.007751,-0.372925,0.923019,0.524497,-0.164158,0.062288,64.265823,32.807968,-150.231903,,,
729715995.826282,-21.250176,-1.581055,-79.491755,0.007751,-0.372925,0.923019,0.524497,-0.164158,0.062288,64.265823,32.807968,-150.231903,,,
729715995.827786,-21.250182,-1.581051,-82.568633,0.007751,-0.372925,0.923019,0.524497,-0.164158,0.062288,64.265823,32.807968,-150.231903,,,
729715995.828012,-21.250176,-1.581055,-79.491755,0.007751,-0.372925,0.923019,0.524497,-0.164158,0.062288,64.265823,32.807968,-150.231903,,,
729715995.832463,-21.100142,-1.621406,-82.544302,0.000259,-0.370117,0.919388,0.524497,-0.164158,0.062288,64.265823,32.807968,-150.231903,,,
729715995.832696,-21.100136,-1.621409,-79.467424,0.000259,-0.370117,0.919388,0.524497,-0.164158,0.062288,64.265823,32.807968,-150.231903,,,
729715995.83589,-20.947591,-1.672051,-82.519008,0.000259,-0.370117,0.919388,0.541902,-0.23803,0.063225,64.265823,32.807968,-150.231903,,,
729715995.836131,-20.947585,-1.672054,-79.44213,0.000259,-0.370117,0.919388,0.541902,-0.23803,0.063225,64.265823,32.807968,-150.231903,,,
729715995.837726,-20.947591,-1.672051,-82.519008,0.000259,-0.370117,0.919388,0.541902,-0.23803,0.063225,64.265823,32.807968,-150.231903,,,
729715995.838013,-20.947585,-1.672054,-79.44213,0.000259,-0.370117,0.919388,0.541902,-0.23803,0.063225,64.265823,32.807968,-150.231903,,,
729715995.842379,-20.793246,-1.731817,-82.494421,0.002075,-0.365067,0.913742,0.541902,-0.23803,0.063225,64.265823,32.807968,-150.231903,,,
729715995.84261,-20.79324,-1.73182,-79.417543,0.002075,-0.365067,0.913742,0.541902,-0.23803,0.063225,64.265823,32.807968,-150.231903,,,
729715995.84601,-20.637632,-1.798348,-82.471977,0.002075,-0.365067,0.913742,0.552571,-0.270609,0.044223,64.265823,32.807968,-150.231903,,,
729715995.846272,-20.637627,-1.798351,-79.395099,0.002075,-0.365067,0.913742,0.552571,-0.270609,0.044223,64.265823,32.807968,-150.231903,,,
729715995.84785,-20.637632,-1.798348,-82.471977,0.002075,-0.365067,0.913742,0.552571,-0.270609,0.044223,64.265823,32.807968,-150.231903,,,
729715995.848062,-20.637627,-1.798351,-79.395099,0.002075,-0.365067,0.913742,0.552571,-0.270609,0.044223,64.265823,32.807968,-150.231903,,,
729715995.852927,-20.480799,-1.869979,-82.45245,0.021866,-0.352646,0.923172,0.552571,-0.270609,0.044223,64.265823,32.807968,-150.231903,,,
729715995.853357,-20.480794,-1.869983,-79.375572,0.021866,-0.352646,0.923172,0.552571,-0.270609,0.044223,64.265823,32.807968,-150.231903,,,
729715995.855657,-20.323564,-1.945058,-82.435644,0.021866,-0.352646,0.923172,0.545949,-0.279451,0.024699,64.265823,32.807968,-150.231903,,,
729715995.855903,-20.323559,-1.945061,-79.358766,0.021866,-0.352646,0.923172,0.545949,-0.279451,0.024699,64.265823,32.807968,-150.231903,,,
729715995.857786,-20.323564,-1.945058,-82.435644,0.021866,-0.352646,0.923172,0.545949,-0.279451,0.024699,64.265823,32.807968,-150.231903,,,
729715995.858008,-20.323559,-1.945061,-79.358766,0.021866,-0.352646,0.923172,0.545949,-0.279451,0.024699,64.265823,32.807968,-150.231903,,,
729715995.86328,-20.167518,-2.020844,-82.42154,0.030548,-0.345871,0.932053,0.545949,-0.279451,0.024699,63.570297,31.630615,-150.541428,,,
729715995.863584,-20.013937,-2.094095,-79.332318,0.030548,-0.345871,0.932053,0.545949,-0.279451,0.024699,63.570297,31.630615,-150.541428,,,
729715995.865668,-20.013942,-2.094092,-82.409196,0.030548,-0.345871,0.932053,0.529693,-0.250992,0.0193,63.570297,31.630615,-150.541428,,,
729715995.865903,-20.013937,-2.094095,-79.332318,0.030548,-0.345871,0.932053,0.529693,-0.250992,0.0193,63.570297,31.630615,-150.541428,,,
729715995.867835,-20.013942,-2.094092,-82.409196,0.030548,-0.345871,0.932053,0.529693,-0.250992,0.0193,63.570297,31.630615,-150.541428,,,
729715995.868057,-20.013937,-2.094095,-79.332318,0.030548,-0.345871,0.932053,0.529693,-0.250992,0.0193,63.570297,31.630615,-150.541428,,,
729715995.872465,-19.862063,-2.162652,-82.396355,0.032455,-0.341888,0.935196,0.529693,-0.250992,0.0193,63.570297,31.630615,-150.541428,,,
729715995.872722,-19.862058,-2.162655,-79.319477,0.032455,-0.341888,0.935196,0.529693,-0.250992,0.0193,63.570297,31.630615,-150.541428,,,
729715995.875875,-19.712051,-2.225973,-82.382285,0.032455,-0.341888,0.935196,0.519963,-0.217919,0.031705,63.570297,31.630615,-150.541428,,,
729715995.876114,-19.712046,-2.225977,-79.305407,0.032455,-0.341888,0.935196,0.519963,-0.217919,0.031705,63.570297,31.630615,-150.541428,,,
729715995.877752,-19.712051,-2.225973,-82.382285,0.032455,-0.341888,0.935196,0.519963,-0.217919,0.031705,63.570297,31.630615,-150.541428,,,
729715995.878014,-19.712046,-2.225977,-79.305407,0.032455,-0.341888,0.935196,0.519963,-0.217919,0.031705,63.570297,31.630615,-150.541428,,,
729715995.882444,-19.563794,-2.283721,-82.36611,0.035324,-0.339813,0.940384,0.519963,-0.217919,0.031705,63.570297,31.630615,-150.541428,,,
729715995.88268,-19.563789,-2.283724,-79.289231,0.035324,-0.339813,0.940384,0.519963,-0.217919,0.031705,63.570297,31.630615,-150.541428,,,
729715995.886147,-19.416895,-2.335118,-82.347223,0.035324,-0.339813,0.940384,0.511429,-0.171696,0.04872,63.570297,31.630615,-150.541428,,,
729715995.886594,-19.41689,-2.335122,-79.270345,0.035324,-0.339813,0.940384,0.511429,-0.171696,0.04872,63.570297,31.630615,-150.541428,,,
729715995.887721,-19.416895,-2.335118,-82.347223,0.035324,-0.339813,0.940384,0.511429,-0.171696,0.04872,63.570297,31.630615,-150.541428,,,
729715995.888024,-19.41689,-2.335122,-79.270345,0.035324,-0.339813,0.940384,0.511429,-0.171696,0.04872,63.570297,31.630615,-150.541428,,,
729715995.892371,-19.271527,-2.378308,-82.325693,0.043137,-0.337967,0.945068,0.511429,-0.171696,0.04872,63.570297,31.630615,-150.541428,,,
729715995.892596,-19.271522,-2.378311,-79.248815,0.043137,-0.337967,0.945068,0.511429,-0.171696,0.04872,63.570297,31.630615,-150.541428,,,
729715995.89618,-19.127567,-2.411085,-82.301187,0.043137,-0.337967,0.945068,0.500221,-0.107132,0.070999,63.570297,31.630615,-150.541428,,,
729715995.896473,-19.127562,-2.411088,-79.224309,0.043137,-0.337967,0.945068,0.500221,-0.107132,0.070999,63.570297,31.630615,-150.541428,,,
729715995.897715,-19.127567,-2.411085,-82.301187,0.043137,-0.337967,0.945068,0.500221,-0.107132,0.070999,63.570297,31.630615,-150.541428,,,
729715995.898041,-19.127562,-2.411088,-79.224309,0.043137,-0.337967,0.945068,0.500221,-0.107132,0.070999,63.570297,31.630615,-150.541428,,,
729715995.903282,-18.984983,-2.434033,-82.27315,0.046341,-0.335052,0.956573,0.500221,-0.107132,0.070999,63.415634,30.480026,-150.700348,,,
729715995.903541,-18.984978,-2.434036,-79.196272,0.046341,-0.335052,0.956573,0.500221,-0.107132,0.070999,63.415634,30.480026,-150.700348,,,
729715995.9059,-18.845066,-2.44987,-82.241547,0.046341,-0.335052,0.956573,0.483523,-0.069817,0.089279,63.415634,30.480026,-150.700348,,,
729715995.906167,-18.845062,-2.449874,-79.164668,0.046341,-0.335052,0.956573,0.483523,-0.069817,0.089279,63.415634,30.480026,-150.700348,,,
729715995.907764,-18.845066,-2.44987,-82.241547,0.046341,-0.335052,0.956573,0.483523,-0.069817,0.089279,63.415634,30.480026,-150.700348,,,
729715995.908006,-18.845062,-2.449874,-79.164668,0.046341,-0.335052,0.956573,0.483523,-0.069817,0.089279,63.415634,30.480026,-150.700348,,,
729715995.912763,-18.707567,-2.459714,-82.207791,0.044113,-0.333542,0.949051,0.483523,-0.069817,0.089279,63.415634,30.480026,-150.700348,,,
729715995.913005,-18.707562,-2.459717,-79.130913,0.044113,-0.333542,0.949051,0.483523,-0.069817,0.089279,63.415634,30.480026,-150.700348,,,
729715995.915338,-18.572119,-2.463269,-82.173936,0.044113,-0.333542,0.949051,0.471465,-0.021883,0.088466,63.415634,30.480026,-150.700348,,,
729715995.915559,-18.572115,-2.463272,-79.097058,0.044113,-0.333542,0.949051,0.471465,-0.021883,0.088466,63.415634,30.480026,-150.700348,,,
729715995.91791,-18.572119,-2.463269,-82.173936,0.044113,-0.333542,0.949051,0.471465,-0.021883,0.088466,63.415634,30.480026,-150.700348,,,
729715995.918102,-18.572115,-2.463272,-79.097058,0.044113,-0.333542,0.949051,0.471465,-0.021883,0.088466,63.415634,30.480026,-150.700348,,,
729715995.922155,-18.438236,-2.459708,-82.140244,0.048599,-0.321259,0.94754,0.471465,-0.021883,0.088466,63.415634,30.480026,-150.700348,,,
729715995.922399,-18.438231,-2.459711,-79.063366,0.048599,-0.321259,0.94754,0.471465,-0.021883,0.088466,63.415634,30.480026,-150.700348,,,
729715995.926679,-18.305601,-2.449685,-82.106561,0.048599,-0.321259,0.94754,0.465185,0.01397,0.086719,63.415634,30.480026,-150.700348,,,
729715995.926957,-18.305597,-2.449688,-79.029683,0.048599,-0.321259,0.94754,0.465185,0.01397,0.086719,63.415634,30.480026,-150.700348,,,
729715995.927734,-18.305601,-2.449685,-82.106561,0.048599,-0.321259,0.94754,0.465185,0.01397,0.086719,63.415634,30.480026,-150.700348,,,
729715995.92801,-18.305597,-2.449688,-79.029683,0.048599,-0.321259,0.94754,0.465185,0.01397,0.086719,63.415634,30.480026,-150.700348,,,
729715995.932678,-18.173896,-2.436324,-82.07396,0.049438,-0.314819,0.954697,0.465185,0.01397,0.086719,63.415634,30.480026,-150.700348,,,
729715995.932939,-18.173892,-2.436328,-78.997082,0.049438,-0.314819,0.954697,0.465185,0.01397,0.086719,63.415634,30.480026,-150.700348,,,
729715995.935978,-18.043049,-2.422429,-82.042545,0.049438,-0.314819,0.954697,0.457882,0.020206,0.080116,63.415634,30.480026,-150.700348,,,
729715995.936233,-18.043045,-2.422432,-78.965666,0.049438,-0.314819,0.954697,0.457882,0.020206,0.080116,63.415634,30.480026,-150.700348,,,
729715995.937699,-18.043049,-2.422429,-82.042545,0.049438,-0.314819,0.954697,0.457882,0.020206,0.080116,63.415634,30.480026,-150.700348,,,
729715995.938043,-18.043045,-2.422432,-78.965666,0.049438,-0.314819,0.954697,0.457882,0.020206,0.080116,63.415634,30.480026,-150.700348,,,
729715995.94316,-17.913411,-2.408455,-82.012564,0.044769,-0.308975,0.945084,0.457882,0.020206,0.080116,63.358047,29.319275,-151.152771,,,
729715995.943431,-17.913406,-2.408458,-78.935686,0.044769,-0.308975,0.945084,0.457882,0.020206,0.080116,63.358047,29.319275,-151.152771,,,
729715995.945649,-17.78561,-2.395124,-81.984484,0.044769,-0.308975,0.945084,0.438641,0.016204,0.069017,63.358047,29.319275,-151.152771,,,
729715995.945892,-17.785606,-2.395127,-78.907606,0.044769,-0.308975,0.945084,0.438641,0.016204,0.069017,63.358047,29.319275,-151.152771,,,
729715995.947781,-17.78561,-2.395124,-81.984484,0.044769,-0.308975,0.945084,0.438641,0.016204,0.069017,63.358047,29.319275,-151.152771,,,
729715995.948,-17.785606,-2.395127,-78.907606,0.044769,-0.308975,0.945084,0.438641,0.016204,0.069017,63.358047,29.319275,-151.152771,,,
729715995.95292,-17.660831,-2.383482,-81.958494,0.043747,-0.302032,0.937592,0.438641,0.016204,0.069017,63.358047,29.319275,-151.152771,,,
729715995.953346,-17.660827,-2.383485,-78.881616,0.043747,-0.302032,0.937592,0.438641,0.016204,0.069017,63.358047,29.319275,-151.152771,,,
729715995.95699,-17.54,-2.373581,-81.933804,0.043747,-0.302032,0.937592,0.410112,-0.000248,0.06016,63.358047,29.319275,-151.152771,,,
729715995.95729,-17.539996,-2.373584,-78.856926,0.043747,-0.302032,0.937592,0.410112,-0.000248,0.06016,63.358047,29.319275,-151.152771,,,
729715995.957612,-17.54,-2.373581,-81.933804,0.043747,-0.302032,0.937592,0.410112,-0.000248,0.06016,63.358047,29.319275,-151.152771,,,
729715995.958045,-17.539996,-2.373584,-78.856926,0.043747,-0.302032,0.937592,0.410112,-0.000248,0.06016,63.358047,29.319275,-151.152771,,,
729715995.96254,-17.423377,-2.367606,-81.910487,0.042191,-0.292953,0.931442,0.410112,-0.000248,0.06016,63.358047,29.319275,-151.152771,,,
729715995.962807,-17.423372,-2.367609,-78.833609,0.042191,-0.292953,0.931442,0.410112,-0.000248,0.06016,63.358047,29.319275,-151.152771,,,
729715995.965773,-17.311211,-2.368343,-81.889367,0.042191,-0.292953,0.931442,0.383424,-0.04779,0.048858,63.358047,29.319275,-151.152771,,,
729715995.966033,-17.311207,-2.368346,-78.812488,0.042191,-0.292953,0.931442,0.383424,-0.04779,0.048858,63.358047,29.319275,-151.152771,,,
729715995.967802,-17.311211,-2.368343,-81.889367,0.042191,-0.292953,0.931442,0.383424,-0.04779,0.048858,63.358047,29.319275,-151.152771,,,
729715995.968015,-17.311207,-2.368346,-78.812488,0.042191,-0.292953,0.931442,0.383424,-0.04779,0.048858,63.358047,29.319275,-151.152771,,,
729715995.972465,-17.20243,-2.377041,-81.86991,0.043793,-0.283691,0.922028,0.383424,-0.04779,0.048858,63.358047,29.319275,-151.152771,,,
729715995.972722,-17.202426,-2.377044,-78.793031,0.043793,-0.283691,0.922028,0.383424,-0.04779,0.048858,63.358047,29.319275,-151.152771,,,
729715995.97592,-17.096669,-2.395174,-81.851978,0.043793,-0.283691,0.922028,0.355097,-0.110885,0.036764,63.358047,29.319275,-151.152771,,,
729715995.976162,-17.096665,-2.395178,-78.7751,0.043793,-0.283691,0.922028,0.355097,-0.110885,0.036764,63.358047,29.319275,-151.152771,,,
729715995.977786,-17.096669,-2.395174,-81.851978,0.043793,-0.283691,0.922028,0.355097,-0.110885,0.036764,63.358047,29.319275,-151.152771,,,
729715995.978032,-17.096665,-2.395178,-78.7751,0.043793,-0.283691,0.922028,0.355097,-0.110885,0.036764,63.358047,29.319275,-151.152771,,,
729715995.982896,-16.995395,-2.423576,-81.836011,0.040161,-0.282532,0.921326,0.355097,-0.110885,0.036764,63.376541,28.585556,-150.60228,,,
729715995.983167,-16.995391,-2.423579,-78.759133,0.040161,-0.282532,0.921326,0.355097,-0.110885,0.036764,63.376541,28.585556,-150.60228,,,
729715995.985889,-16.89968,-2.461567,-81.823159,0.040161,-0.282532,0.921326,0.317224,-0.165807,0.01395,63.376541,28.585556,-150.60228,,,
729715995.986326,-16.899676,-2.46157,-78.746281,0.040161,-0.282532,0.921326,0.317224,-0.165807,0.01395,63.376541,28.585556,-150.60228,,,
729715995.98771,-16.89968,-2.461567,-81.823159,0.040161,-0.282532,0.921326,0.317224,-0.165807,0.01395,63.376541,28.585556,-150.60228,,,
729715995.988032,-16.899676,-2.46157,-78.746281,0.040161,-0.282532,0.921326,0.317224,-0.165807,0.01395,63.376541,28.585556,-150.60228,,,
729715995.992489,-16.808752,-2.507929,-81.814695,0.040466,-0.276642,0.914703,0.317224,-0.165807,0.01395,63.376541,28.585556,-150.60228,,,
729715995.992725,-16.808748,-2.507932,-78.737817,0.040466,-0.276642,0.914703,0.317224,-0.165807,0.01395,63.376541,28.585556,-150.60228,,,
729715995.996925,-16.7222,-2.561417,-81.81134,0.040466,-0.276642,0.914703,0.292614,-0.203629,-0.023459,63.376541,28.585556,-150.60228,,,
729715995.99723,-16.722196,-2.56142,-78.734462,0.040466,-0.276642,0.914703,0.292614,-0.203629,-0.023459,63.376541,28.585556,-150.60228,,,
729715995.997609,-16.7222,-2.561417,-81.81134,0.040466,-0.276642,0.914703,0.292614,-0.203629,-0.023459,63.376541,28.585556,-150.60228,,,
729715995.998048,-16.722196,-2.56142,-78.734462,0.040466,-0.276642,0.914703,0.292614,-0.203629,-0.023459,63.376541,28.585556,-150.60228,,,
729715996.002801,-16.639152,-2.621571,-81.813915,0.054688,-0.266708,0.924026,0.292614,-0.203629,-0.023459,63.376541,28.585556,-150.60228,,,
729715996.003062,-16.639148,-2.621574,-78.737037,0.054688,-0.266708,0.924026,0.292614,-0.203629,-0.023459,63.376541,28.585556,-150.60228,,,
729715996.005804,-16.558217,-2.688101,-81.822074,0.054688,-0.266708,0.924026,0.278577,-0.234061,-0.059631,63.376541,28.585556,-150.60228,,,
729715996.006047,-16.558213,-2.688104,-78.745196,0.054688,-0.266708,0.924026,0.278577,-0.234061,-0.059631,63.376541,28.585556,-150.60228,,,
729715996.007754,-16.558217,-2.688101,-81.822074,0.054688,-0.266708,0.924026,0.278577,-0.234061,-0.059631,63.376541,28.585556,-150.60228,,,
729715996.007992,-16.558213,-2.688104,-78.745196,0.054688,-0.266708,0.924026,0.278577,-0.234061,-0.059631,63.376541,28.585556,-150.60228,,,
729715996.012541,-16.477502,-2.759423,-81.834866,0.06366,-0.266769,0.937317,0.278577,-0.234061,-0.059631,63.376541,28.585556,-150.60228,,,
729715996.012774,-16.477498,-2.759426,-78.757987,0.06366,-0.266769,0.937317,0.278577,-0.234061,-0.059631,63.376541,28.585556,-150.60228,,,
729715996.015833,-16.395567,-2.833421,-81.851726,0.06366,-0.266769,0.937317,0.291216,-0.235496,-0.085019,63.376541,28.585556,-150.60228,,,
729715996.016064,-16.395563,-2.833424,-78.774848,0.06366,-0.266769,0.937317,0.291216,-0.235496,-0.085019,63.376541,28.585556,-150.60228,,,
729715996.017848,-16.395567,-2.833421,-81.851726,0.06366,-0.266769,0.937317,0.291216,-0.235496,-0.085019,63.376541,28.585556,-150.60228,,,
729715996.018134,-16.395563,-2.833424,-78.774848,0.06366,-0.266769,0.937317,0.291216,-0.235496,-0.085019,63.376541,28.585556,-150.60228,,,
729715996.022486,-16.310947,-2.907946,-81.872258,0.065659,-0.271225,0.951614,0.291216,-0.235496,-0.085019,63.376541,28.585556,-150.60228,,,
729715996.022735,-16.310943,-2.907949,-78.795379,0.065659,-0.271225,0.951614,0.291216,-0.235496,-0.085019,63.376541,28.585556,-150.60228,,,
729715996.02646,-16.222147,-2.981993,-81.895595,0.065659,-0.271225,0.951614,0.326346,-0.227795,-0.099714,62.709641,27.917908,-150.574753,,,
729715996.026719,-16.222143,-2.981996,-78.818717,0.065659,-0.271225,0.951614,0.326346,-0.227795,-0.099714,62.709641,27.917908,-150.574753,,,
729715996.027709,-16.222147,-2.981993,-81.895595,0.065659,-0.271225,0.951614,0.326346,-0.227795,-0.099714,62.709641,27.917908,-150.574753,,,
729715996.028031,-16.222143,-2.981996,-78.818717,0.065659,-0.271225,0.951614,0.326346,-0.227795,-0.099714,62.709641,27.917908,-150.574753,,,
729715996.032803,-16.127189,-3.055418,-81.920019,0.066162,-0.279373,0.966721,0.326346,-0.227795,-0.099714,62.709641,27.917908,-150.574753,,,
729715996.033071,-16.127185,-3.055421,-78.843141,0.066162,-0.279373,0.966721,0.326346,-0.227795,-0.099714,62.709641,27.917908,-150.574753,,,
729715996.035755,-16.026371,-3.126228,-81.944062,0.066162,-0.279373,0.966721,0.364844,-0.206742,-0.097626,62.709641,27.917908,-150.574753,,,
729715996.035998,-16.026367,-3.126231,-78.867184,0.066162,-0.279373,0.966721,0.364844,-0.206742,-0.097626,62.709641,27.917908,-150.574753,,,
729715996.037762,-16.026371,-3.126228,-81.944062,0.066162,-0.279373,0.966721,0.364844,-0.206742,-0.097626,62.709641,27.917908,-150.574753,,,
729715996.038002,-16.026367,-3.126231,-78.867184,0.066162,-0.279373,0.966721,0.364844,-0.206742,-0.097626,62.709641,27.917908,-150.574753,,,
729715996.042486,-15.920596,-3.192806,-81.966386,0.065857,-0.283783,0.976624,0.364844,-0.206742,-0.097626,62.709641,27.917908,-150.574753,,,
729715996.042713,-15.920592,-3.192809,-78.889508,0.065857,-0.283783,0.976624,0.364844,-0.206742,-0.097626,62.709641,27.917908,-150.574753,,,
729715996.045957,-15.811268,-3.253628,-81.985913,0.065857,-0.283783,0.976624,0.388818,-0.171017,-0.07537,62.709641,27.917908,-150.574753,,,
729715996.046195,-15.811264,-3.253631,-78.909035,0.065857,-0.283783,0.976624,0.388818,-0.171017,-0.07537,62.709641,27.917908,-150.574753,,,
729715996.047743,-15.811268,-3.253628,-81.985913,0.065857,-0.283783,0.976624,0.388818,-0.171017,-0.07537,62.709641,27.917908,-150.574753,,,
729715996.048002,-15.811264,-3.253631,-78.909035,0.065857,-0.283783,0.976624,0.388818,-0.171017,-0.07537,62.709641,27.917908,-150.574753,,,
729715996.052827,-15.699195,-3.307245,-82.001087,0.063751,-0.2883,0.97728,0.388818,-0.171017,-0.07537,62.709641,27.917908,-150.574753,,,
729715996.053258,-15.699191,-3.307247,-78.924209,0.063751,-0.2883,0.97728,0.388818,-0.171017,-0.07537,62.709641,27.917908,-150.574753,,,
729715996.055935,-15.585167,-3.352266,-82.010947,0.063751,-0.2883,0.97728,0.399364,-0.111275,-0.039671,62.709641,27.917908,-150.574753,,,
729715996.056203,-15.585163,-3.352269,-78.934069,0.063751,-0.2883,0.97728,0.399364,-0.111275,-0.039671,62.709641,27.917908,-150.574753,,,
729715996.057839,-15.585167,-3.352266,-82.010947,0.063751,-0.2883,0.97728,0.399364,-0.111275,-0.039671,62.709641,27.917908,-150.574753,,,
729715996.05809,-15.585163,-3.352269,-78.934069,0.063751,-0.2883,0.97728,0.399364,-0.111275,-0.039671,62.709641,27.917908,-150.574753,,,
729715996.062345,-15.470489,-3.386341,-82.015988,0.061188,-0.286789,0.976562,0.399364,-0.111275,-0.039671,62.709641,27.917908,-150.574753,,,
729715996.062596,-15.470485,-3.386343,-78.93911,0.061188,-0.286789,0.976562,0.399364,-0.111275,-0.039671,62.709641,27.917908,-150.574753,,,
729715996.066281,-15.356469,-3.407519,-82.016381,0.061188,-0.286789,0.976562,0.394888,-0.028027,-0.013023,62.302887,26.91301,-150.81218,,,
729715996.066538,-15.356465,-3.407522,-78.939503,0.061188,-0.286789,0.976562,0.394888,-0.028027,-0.013023,62.302887,26.91301,-150.81218,,,
729715996.067774,-15.356469,-3.407519,-82.016381,0.061188,-0.286789,0.976562,0.394888,-0.028027,-0.013023,62.302887,26.91301,-150.81218,,,
729715996.068017,-15.356465,-3.407522,-78.939503,0.061188,-0.286789,0.976562,0.394888,-0.028027,-0.013023,62.302887,26.91301,-150.81218,,,
729715996.072424,-15.244476,-3.416399,-82.012304,0.067535,-0.276321,0.982864,0.394888,-0.028027,-0.013023,62.302887,26.91301,-150.81218,,,
729715996.072677,-15.244472,-3.416401,-78.935426,0.067535,-0.276321,0.982864,0.394888,-0.028027,-0.013023,62.302887,26.91301,-150.81218,,,
729715996.077652,-15.135513,-3.415617,-82.003979,0.067535,-0.276321,0.982864,0.367402,0.017202,0.018166,62.302887,26.91301,-150.81218,,,
729715996.077951,-15.135509,-3.41562,-78.927101,0.067535,-0.276321,0.982864,0.367402,0.017202,0.018166,62.302887,26.91301,-150.81218,,,
729715996.082688,-15.030773,-3.408506,-81.992072,0.069931,-0.268677,0.971436,0.367402,0.017202,0.018166,62.302887,26.91301,-150.81218,,,
729715996.082936,-15.030769,-3.408509,-78.915194,0.069931,-0.268677,0.971436,0.367402,0.017202,0.018166,62.302887,26.91301,-150.81218,,,
729715996.08612,-14.930695,-3.396844,-81.977603,0.069931,-0.268677,0.971436,0.332288,0.04238,0.031095,62.302887,26.91301,-150.81218,,,
729715996.086577,-14.930691,-3.396847,-78.900725,0.069931,-0.268677,0.971436,0.332288,0.04238,0.031095,62.302887,26.91301,-150.81218,,,
729715996.0877,-14.930695,-3.396844,-81.977603,0.069931,-0.268677,0.971436,0.332288,0.04238,0.031095,62.302887,26.91301,-150.81218,,,
729715996.088025,-14.930691,-3.396847,-78.900725,0.069931,-0.268677,0.971436,0.332288,0.04238,0.031095,62.302887,26.91301,-150.81218,,,
729715996.092633,-14.83545,-3.381677,-81.962198,0.065689,-0.259766,0.959763,0.332288,0.04238,0.031095,62.302887,26.91301,-150.81218,,,
729715996.09287,-14.835447,-3.38168,-78.88532,0.065689,-0.259766,0.959763,0.332288,0.04238,0.031095,62.302887,26.91301,-150.81218,,,
729715996.096021,-14.747215,-3.364755,-81.947844,0.065689,-0.259766,0.959763,0.284549,0.049487,0.023412,62.302887,26.91301,-150.81218,,,
729715996.096297,-14.747212,-3.364757,-78.870966,0.065689,-0.259766,0.959763,0.284549,0.049487,0.023412,62.302887,26.91301,-150.81218,,,
729715996.097757,-14.747215,-3.364755,-81.947844,0.065689,-0.259766,0.959763,0.284549,0.049487,0.023412,62.302887,26.91301,-150.81218,,,
729715996.097996,-14.747212,-3.364757,-78.870966,0.065689,-0.259766,0.959763,0.284549,0.049487,0.023412,62.302887,26.91301,-150.81218,,,
729715996.102832,-14.666552,-3.347967,-81.936039,0.062881,-0.24736,0.956253,0.284549,0.049487,0.023412,62.302887,26.91301,-150.81218,,,
729715996.103089,-14.666548,-3.34797,-78.85916,0.062881,-0.24736,0.956253,0.284549,0.049487,0.023412,62.302887,26.91301,-150.81218,,,
729715996.106794,-14.592904,-3.333993,-81.928252,0.062881,-0.24736,0.956253,0.234542,0.032185,-0.003803,62.438431,26.351593,-150.786392,,,
729715996.107056,-14.5929,-3.333996,-78.851374,0.062881,-0.24736,0.956253,0.234542,0.032185,-0.003803,62.438431,26.351593,-150.786392,,,
729715996.107608,-14.592904,-3.333993,-81.928252,0.062881,-0.24736,0.956253,0.234542,0.032185,-0.003803,62.438431,26.351593,-150.786392,,,
729715996.108006,-14.5929,-3.333996,-78.851374,0.062881,-0.24736,0.956253,0.234542,0.032185,-0.003803,62.438431,26.351593,-150.786392,,,
729715996.11172,-14.525777,-3.325245,-81.925152,0.061401,-0.233292,0.948578,0.234542,0.032185,-0.003803,62.438431,26.351593,-150.786392,,,
729715996.111857,-14.525773,-3.325248,-78.848274,0.061401,-0.233292,0.948578,0.234542,0.032185,-0.003803,62.438431,26.351593,-150.786392,,,
729715996.115904,-14.464699,-3.324167,-81.927407,0.061401,-0.233292,0.948578,0.191341,-0.014774,-0.037911,62.438431,26.351593,-150.786392,,,
729715996.116063,-14.464695,-3.32417,-78.850529,0.061401,-0.233292,0.948578,0.191341,-0.014774,-0.037911,62.438431,26.351593,-150.786392,,,
729715996.117682,-14.464699,-3.324167,-81.927407,0.061401,-0.233292,0.948578,0.191341,-0.014774,-0.037911,62.438431,26.351593,-150.786392,,,
729715996.11795,-14.464695,-3.32417,-78.850529,0.061401,-0.233292,0.948578,0.191341,-0.014774,-0.037911,62.438431,26.351593,-150.786392,,,
729715996.121302,-14.409126,-3.331004,-81.93464,0.062408,-0.228683,0.945618,0.191341,-0.014774,-0.037911,62.438431,26.351593,-150.786392,,,
729715996.12141,-14.409122,-3.331006,-78.857761,0.062408,-0.228683,0.945618,0.191341,-0.014774,-0.037911,62.438431,26.351593,-150.786392,,,
729715996.124996,-14.3579,-3.34341,-81.945569,0.062408,-0.228683,0.945618,0.166819,-0.040483,-0.06184,62.438431,26.351593,-150.786392,,,
729715996.125082,-14.357897,-3.343413,-78.868691,0.062408,-0.228683,0.945618,0.166819,-0.040483,-0.06184,62.438431,26.351593,-150.786392,,,
729715996.127799,-14.3579,-3.34341,-81.945569,0.062408,-0.228683,0.945618,0.166819,-0.040483,-0.06184,62.438431,26.351593,-150.786392,,,
729715996.128044,-14.357897,-3.343413,-78.868691,0.062408,-0.228683,0.945618,0.166819,-0.040483,-0.06184,62.438431,26.351593,-150.786392,,,
729715996.132314,-14.309244,-3.359031,-81.959719,0.060715,-0.228485,0.952011,0.166819,-0.040483,-0.06184,62.438431,26.351593,-150.786392,,,
729715996.132571,-14.30924,-3.359034,-78.882841,0.060715,-0.228485,0.952011,0.166819,-0.040483,-0.06184,62.438431,26.351593,-150.786392,,,
729715996.135894,-14.261909,-3.375597,-81.975356,0.060715,-0.228485,0.952011,0.163162,-0.036628,-0.067956,62.438431,26.351593,-150.786392,,,
729715996.136153,-14.261905,-3.3756,-78.898478,0.060715,-0.228485,0.952011,0.163162,-0.036628,-0.067956,62.438431,26.351593,-150.786392,,,
729715996.137729,-14.261909,-3.375597,-81.975356,0.060715,-0.228485,0.952011,0.163162,-0.036628,-0.067956,62.438431,26.351593,-150.786392,,,
729715996.138015,-14.261905,-3.3756,-78.898478,0.060715,-0.228485,0.952011,0.163162,-0.036628,-0.067956,62.438431,26.351593,-150.786392,,,
729715996.142599,-14.213928,-3.39121,-81.991419,0.063278,-0.236115,0.970291,0.163162,-0.036628,-0.067956,62.438431,26.351593,-150.786392,,,
729715996.142837,-14.213925,-3.391213,-78.914541,0.063278,-0.236115,0.970291,0.163162,-0.036628,-0.067956,62.438431,26.351593,-150.786392,,,
729715996.146722,-14.163572,-3.405117,-82.006734,0.063278,-0.236115,0.970291,0.182358,-0.026162,-0.057202,62.114716,26.019623,-150.730026,,,
729715996.147026,-14.163569,-3.40512,-78.929856,0.063278,-0.236115,0.970291,0.182358,-0.026162,-0.057202,62.114716,26.019623,-150.730026,,,
729715996.147707,-14.163572,-3.405117,-82.006734,0.063278,-0.236115,0.970291,0.182358,-0.026162,-0.057202,62.114716,26.019623,-150.730026,,,
729715996.148032,-14.163569,-3.40512,-78.929856,0.063278,-0.236115,0.970291,0.182358,-0.026162,-0.057202,62.114716,26.019623,-150.730026,,,
729715996.152942,-14.110172,-3.417493,-82.020046,0.066238,-0.245499,0.983398,0.182358,-0.026162,-0.057202,62.114716,26.019623,-150.730026,,,
729715996.153363,-14.110168,-3.417496,-78.943168,0.066238,-0.245499,0.983398,0.182358,-0.026162,-0.057202,62.114716,26.019623,-150.730026,,,
729715996.155777,-14.054056,-3.428936,-82.03124,0.066238,-0.245499,0.983398,0.202814,-0.027301,-0.045003,62.114716,26.019623,-150.730026,,,
729715996.156032,-14.054053,-3.428939,-78.954361,0.066238,-0.245499,0.983398,0.202814,-0.027301,-0.045003,62.114716,26.019623,-150.730026,,,
729715996.157908,-14.054056,-3.428936,-82.03124,0.066238,-0.245499,0.983398,0.202814,-0.027301,-0.045003,62.114716,26.019623,-150.730026,,,
729715996.15812,-14.054053,-3.428939,-78.954361,0.066238,-0.245499,0.983398,0.202814,-0.027301,-0.045003,62.114716,26.019623,-150.730026,,,
729715996.162565,-13.994583,-3.439603,-82.040993,0.068146,-0.249832,0.989609,0.202814,-0.027301,-0.045003,62.114716,26.019623,-150.730026,,,
729715996.162806,-13.99458,-3.439606,-78.964115,0.068146,-0.249832,0.989609,0.202814,-0.027301,-0.045003,62.114716,26.019623,-150.730026,,,
729715996.16579,-13.931027,-3.449079,-82.050284,0.068146,-0.249832,0.989609,0.236465,-0.013225,-0.045435,62.114716,26.019623,-150.730026,,,
729715996.166029,-13.931024,-3.449082,-78.973406,0.068146,-0.249832,0.989609,0.236465,-0.013225,-0.045435,62.114716,26.019623,-150.730026,,,
729715996.167832,-13.931027,-3.449079,-82.050284,0.068146,-0.249832,0.989609,0.236465,-0.013225,-0.045435,62.114716,26.019623,-150.730026,,,
729715996.168056,-13.931024,-3.449082,-78.973406,0.068146,-0.249832,0.989609,0.236465,-0.013225,-0.045435,62.114716,26.019623,-150.730026,,,
729715996.171923,-13.862853,-3.456504,-82.058875,0.069168,-0.246399,0.99292,0.236465,-0.013225,-0.045435,62.114716,26.019623,-150.730026,,,
729715996.172141,-13.86285,-3.456506,-78.981997,0.069168,-0.246399,0.99292,0.236465,-0.013225,-0.045435,62.114716,26.019623,-150.730026,,,
729715996.175459,-13.790104,-3.46142,-82.066843,0.069168,-0.246399,0.99292,0.266557,-3.7e-05,-0.046252,62.114716,26.019623,-150.730026,,,
729715996.175691,-13.790101,-3.461423,-78.989965,0.069168,-0.246399,0.99292,0.266557,-3.7e-05,-0.046252,62.114716,26.019623,-150.730026,,,
729715996.177853,-13.790104,-3.46142,-82.066843,0.069168,-0.246399,0.99292,0.266557,-3.7e-05,-0.046252,62.114716,26.019623,-150.730026,,,
729715996.178072,-13.790101,-3.461423,-78.989965,0.069168,-0.246399,0.99292,0.266557,-3.7e-05,-0.046252,62.114716,26.019623,-150.730026,,,
729715996.182387,-13.712339,-3.464852,-82.07501,0.066025,-0.243073,0.997757,0.266557,-3.7e-05,-0.046252,62.114716,26.019623,-150.730026,,,
729715996.182635,-13.712336,-3.464855,-78.998132,0.066025,-0.243073,0.997757,0.266557,-3.7e-05,-0.046252,62.114716,26.019623,-150.730026,,,
729715996.185538,-13.62978,-3.468154,-82.083332,0.066025,-0.243073,0.997757,0.299659,-0.003951,-0.050389,62.114716,26.019623,-150.730026,,,
729715996.186013,-13.629776,-3.468157,-79.006454,0.066025,-0.243073,0.997757,0.299659,-0.003951,-0.050389,62.114716,26.019623,-150.730026,,,
729715996.18841,-13.62978,-3.468154,-82.083332,0.066025,-0.243073,0.997757,0.299659,-0.003951,-0.050389,62.468826,25.140305,-150.934586,,,
729715996.18864,-13.629776,-3.468157,-79.006454,0.066025,-0.243073,0.997757,0.299659,-0.003951,-0.050389,62.468826,25.140305,-150.934586,,,
729715996.192172,-13.5438,-3.471942,-82.091709,0.064743,-0.240982,0.994965,0.299659,-0.003951,-0.050389,62.468826,25.140305,-150.934586,,,
729715996.192404,-13.543797,-3.471945,-79.01483,0.064743,-0.240982,0.994965,0.299659,-0.003951,-0.050389,62.468826,25.140305,-150.934586,,,
729715996.195919,-13.45571,-3.475857,-82.099888,0.064743,-0.240982,0.994965,0.309404,-0.003795,-0.04466,62.468826,25.140305,-150.934586,,,
729715996.196193,-13.455707,-3.47586,-79.023009,0.064743,-0.240982,0.994965,0.309404,-0.003795,-0.04466,62.468826,25.140305,-150.934586,,,
729715996.197759,-13.45571,-3.475857,-82.099888,0.064743,-0.240982,0.994965,0.309404,-0.003795,-0.04466,62.468826,25.140305,-150.934586,,,
729715996.198,-13.455707,-3.47586,-79.023009,0.064743,-0.240982,0.994965,0.309404,-0.003795,-0.04466,62.468826,25.140305,-150.934586,,,
729715996.201999,-13.365703,-3.479496,-82.106566,0.062119,-0.241653,0.988586,0.309404,-0.003795,-0.04466,62.468826,25.140305,-150.934586,,,
729715996.202216,-13.3657,-3.479499,-79.029688,0.062119,-0.241653,0.988586,0.309404,-0.003795,-0.04466,62.468826,25.140305,-150.934586,,,
729715996.2054,-13.274296,-3.483126,-82.11129,0.062119,-0.241653,0.988586,0.322813,-0.007161,-0.031603,62.468826,25.140305,-150.934586,,,
729715996.205641,-13.274292,-3.483129,-79.034412,0.062119,-0.241653,0.988586,0.322813,-0.007161,-0.031603,62.468826,25.140305,-150.934586,,,
729715996.207806,-13.274296,-3.483126,-82.11129,0.062119,-0.241653,0.988586,0.322813,-0.007161,-0.031603,62.468826,25.140305,-150.934586,,,
729715996.208024,-13.274292,-3.483129,-79.034412,0.062119,-0.241653,0.988586,0.322813,-0.007161,-0.031603,62.468826,25.140305,-150.934586,,,
729715996.212564,-13.182229,-3.486901,-82.114112,0.054489,-0.241821,0.984528,0.322813,-0.007161,-0.031603,62.468826,25.140305,-150.934586,,,
729715996.21282,-13.182226,-3.486904,-79.037234,0.054489,-0.241821,0.984528,0.322813,-0.007161,-0.031603,62.468826,25.140305,-150.934586,,,
729715996.2154,-13.090768,-3.490331,-82.115001,0.054489,-0.241821,0.984528,0.313483,-0.005914,-0.018438,62.468826,25.140305,-150.934586,,,
729715996.215639,-13.090765,-3.490334,-79.038123,0.054489,-0.241821,0.984528,0.313483,-0.005914,-0.018438,62.468826,25.140305,-150.934586,,,
729715996.217903,-13.090768,-3.490331,-82.115001,0.054489,-0.241821,0.984528,0.313483,-0.005914,-0.018438,62.468826,25.140305,-150.934586,,,
729715996.218099,-13.090765,-3.490334,-79.038123,0.054489,-0.241821,0.984528,0.313483,-0.005914,-0.018438,62.468826,25.140305,-150.934586,,,
729715996.222165,-13.000172,-3.492491,-82.114348,0.055496,-0.233566,0.982819,0.313483,-0.005914,-0.018438,62.468826,25.140305,-150.934586,,,
729715996.222396,-13.000169,-3.492494,-79.03747,0.055496,-0.233566,0.982819,0.313483,-0.005914,-0.018438,62.468826,25.140305,-150.934586,,,
729715996.226934,-12.911437,-3.493047,-82.11244,0.055496,-0.233566,0.982819,0.298239,0.002956,-0.009041,62.468826,25.140305,-150.934586,,,
729715996.227323,-12.911434,-3.493049,-79.035562,0.055496,-0.233566,0.982819,0.298239,0.002956,-0.009041,62.468826,25.140305,-150.934586,,,
729715996.228428,-12.911437,-3.493047,-82.11244,0.055496,-0.233566,0.982819,0.298239,0.002956,-0.009041,62.097855,24.53064,-150.895782,,,
729715996.228922,-12.911434,-3.493049,-79.035562,0.055496,-0.233566,0.982819,0.298239,0.002956,-0.009041,62.097855,24.53064,-150.895782,,,
729715996.231621,-12.825485,-3.49267,-82.109574,0.056213,-0.225464,0.976913,0.298239,0.002956,-0.009041,62.097855,24.53064,-150.895782,,,
729715996.231851,-12.825482,-3.492673,-79.032696,0.056213,-0.225464,0.976913,0.298239,0.002956,-0.009041,62.097855,24.53064,-150.895782,,,
729715996.23557,-12.742994,-3.491578,-82.106837,0.056213,-0.225464,0.976913,0.273917,0.009751,-0.011062,62.097855,24.53064,-150.895782,,,
729715996.235816,-12.742991,-3.49158,-79.029959,0.056213,-0.225464,0.976913,0.273917,0.009751,-0.011062,62.097855,24.53064,-150.895782,,,
729715996.237684,-12.742994,-3.491578,-82.106837,0.056213,-0.225464,0.976913,0.273917,0.009751,-0.011062,62.097855,24.53064,-150.895782,,,
729715996.238023,-12.742991,-3.49158,-79.029959,0.056213,-0.225464,0.976913,0.273917,0.009751,-0.011062,62.097855,24.53064,-150.895782,,,
729715996.242281,-12.664051,-3.489552,-82.104957,0.056091,-0.220688,0.972061,0.273917,0.009751,-0.011062,62.097855,24.53064,-150.895782,,,
729715996.24251,-12.664048,-3.489555,-79.028079,0.056091,-0.220688,0.972061,0.273917,0.009751,-0.011062,62.097855,24.53064,-150.895782,,,
729715996.245466,-12.588271,-3.486298,-82.103951,0.056091,-0.220688,0.972061,0.258116,0.016158,-0.016216,62.097855,24.53064,-150.895782,,,
729715996.245702,-12.588268,-3.486301,-79.027073,0.056091,-0.220688,0.972061,0.258116,0.016158,-0.016216,62.097855,24.53064,-150.895782,,,
729715996.247803,-12.588271,-3.486298,-82.103951,0.056091,-0.220688,0.972061,0.258116,0.016158,-0.016216,62.097855,24.53064,-150.895782,,,
729715996.248028,-12.588268,-3.486301,-79.027073,0.056091,-0.220688,0.972061,0.258116,0.016158,-0.016216,62.097855,24.53064,-150.895782,,,
729715996.252389,-12.518677,-3.483997,-82.103909,0.059784,-0.213028,0.970276,0.258116,0.016158,-0.016216,62.097855,24.53064,-150.895782,,,
729715996.252837,-12.518674,-3.484,-79.027031,0.059784,-0.213028,0.970276,0.258116,0.016158,-0.016216,62.097855,24.53064,-150.895782,,,
729715996.254381,-12.518677,-3.483997,-82.103909,0.059784,-0.213028,0.970276,0.258116,0.016158,-0.016216,62.097855,24.53064,-150.895782,,,
729715996.254704,-12.444427,-3.480526,-79.027025,0.059784,-0.213028,0.970276,0.26493,0.012797,-0.019613,62.097855,24.53064,-150.895782,,,
729715996.258639,-12.44443,-3.480523,-82.103903,0.059784,-0.213028,0.970276,0.26493,0.012797,-0.019613,62.097855,24.53064,-150.895782,,,
729715996.258859,-12.444427,-3.480526,-79.027025,0.059784,-0.213028,0.970276,0.26493,0.012797,-0.019613,62.097855,24.53064,-150.895782,,,
729715996.26174,-12.373411,-3.479585,-82.104901,0.057495,-0.212555,0.972351,0.26493,0.012797,-0.019613,62.097855,24.53064,-150.895782,,,
729715996.261975,-12.373408,-3.479588,-79.028023,0.057495,-0.212555,0.972351,0.26493,0.012797,-0.019613,62.097855,24.53064,-150.895782,,,
729715996.267049,-12.296708,-3.48026,-82.10671,0.057495,-0.212555,0.972351,0.270694,-0.00936,-0.029119,62.097855,24.53064,-150.895782,,,
729715996.26734,-12.296705,-3.480262,-79.029832,0.057495,-0.212555,0.972351,0.270694,-0.00936,-0.029119,62.097855,24.53064,-150.895782,,,
729715996.267774,-12.296708,-3.48026,-82.10671,0.057495,-0.212555,0.972351,0.270694,-0.00936,-0.029119,62.097855,24.53064,-150.895782,,,
729715996.268039,-12.296705,-3.480262,-79.029832,0.057495,-0.212555,0.972351,0.270694,-0.00936,-0.029119,62.097855,24.53064,-150.895782,,,
729715996.272626,-12.223672,-3.485189,-82.11046,0.060028,-0.21257,0.976028,0.270694,-0.00936,-0.029119,61.999542,23.864182,-150.432648,,,
729715996.272876,-12.223669,-3.485191,-79.033582,0.060028,-0.21257,0.976028,0.270694,-0.00936,-0.029119,61.999542,23.864182,-150.432648,,,
729715996.275464,-12.14385,-3.491512,-82.116253,0.060028,-0.21257,0.976028,0.285593,-0.012427,-0.047935,61.999542,23.864182,-150.432648,,,
729715996.275696,-12.143847,-3.491515,-79.039375,0.060028,-0.21257,0.976028,0.285593,-0.012427,-0.047935,61.999542,23.864182,-150.432648,,,
729715996.277839,-12.14385,-3.491512,-82.116253,0.060028,-0.21257,0.976028,0.285593,-0.012427,-0.047935,61.999542,23.864182,-150.432648,,,
729715996.278058,-12.143847,-3.491515,-79.039375,0.060028,-0.21257,0.976028,0.285593,-0.012427,-0.047935,61.999542,23.864182,-150.432648,,,
729715996.282271,-12.067796,-3.498164,-82.124079,0.062576,-0.209793,0.97261,0.285593,-0.012427,-0.047935,61.999542,23.864182,-150.432648,,,
729715996.282508,-12.067793,-3.498167,-79.047201,0.062576,-0.209793,0.97261,0.285593,-0.012427,-0.047935,61.999542,23.864182,-150.432648,,,
729715996.285159,-12.067796,-3.504159,-82.133963,0.062576,-0.209793,0.97261,0.292533,-0.003402,-0.060919,61.999542,23.864182,-150.432648,,,
729715996.285389,-11.984286,-3.504162,-79.057085,0.062576,-0.209793,0.97261,0.292533,-0.003402,-0.060919,61.999542,23.864182,-150.432648,,,
729715996.28817,-11.984289,-3.504159,-82.133963,0.062576,-0.209793,0.97261,0.292533,-0.003402,-0.060919,61.999542,23.864182,-150.432648,,,
729715996.28841,-11.984286,-3.504162,-79.057085,0.062576,-0.209793,0.97261,0.292533,-0.003402,-0.060919,61.999542,23.864182,-150.432648,,,
729715996.292782,-11.899591,-3.508976,-82.145695,0.06572,-0.203705,0.979263,0.292533,-0.003402,-0.060919,61.999542,23.864182,-150.432648,,,
729715996.293038,-11.899588,-3.508979,-79.068817,0.06572,-0.203705,0.979263,0.292533,-0.003402,-0.060919,61.999542,23.864182,-150.432648,,,
729715996.294429,-11.899591,-3.508976,-82.145695,0.06572,-0.203705,0.979263,0.292533,-0.003402,-0.060919,61.999542,23.864182,-150.432648,,,
729715996.294669,-11.813374,-3.512473,-79.081535,0.06572,-0.203705,0.979263,0.309414,0.003957,-0.062446,61.999542,23.864182,-150.432648,,,
729715996.300342,-11.813377,-3.512471,-82.158413,0.06572,-0.203705,0.979263,0.309414,0.003957,-0.062446,61.999542,23.864182,-150.432648,,,
729715996.300639,-11.723761,-3.514755,-79.093834,0.06662,-0.202271,0.980453,0.309414,0.003957,-0.062446,61.999542,23.864182,-150.432648,,,
729715996.301677,-11.723764,-3.514752,-82.170712,0.06662,-0.202271,0.980453,0.309414,0.003957,-0.062446,61.999542,23.864182,-150.432648,,,
729715996.301913,-11.723761,-3.514755,-79.093834,0.06662,-0.202271,0.980453,0.309414,0.003957,-0.062446,61.999542,23.864182,-150.432648,,,
729715996.304436,-11.723764,-3.514752,-82.170712,0.06662,-0.202271,0.980453,0.309414,0.003957,-0.062446,61.999542,23.864182,-150.432648,,,
729715996.304711,-11.629708,-3.515789,-79.105159,0.06662,-0.202271,0.980453,0.34064,0.015731,-0.058712,61.999542,23.864182,-150.432648,,,
729715996.309896,-11.629711,-3.515786,-82.182037,0.06662,-0.202271,0.980453,0.34064,0.015731,-0.058712,61.993484,23.203278,-150.574615,,,
729715996.310171,-11.531448,-3.514313,-79.115334,0.0625,-0.202927,0.986496,0.34064,0.015731,-0.058712,61.993484,23.203278,-150.574615,,,
729715996.312342,-11.531451,-3.51431,-82.192212,0.0625,-0.202927,0.986496,0.34064,0.015731,-0.058712,61.993484,23.203278,-150.574615,,,
729715996.312581,-11.531448,-3.514313,-79.115334,0.0625,-0.202927,0.986496,0.34064,0.015731,-0.058712,61.993484,23.203278,-150.574615,,,
729715996.314448,-11.531451,-3.51431,-82.192212,0.0625,-0.202927,0.986496,0.34064,0.015731,-0.058712,61.993484,23.203278,-150.574615,,,
729715996.314665,-11.429661,-3.509736,-79.124105,0.0625,-0.202927,0.986496,0.363194,0.033024,-0.046345,61.993484,23.203278,-150.574615,,,
729715996.319251,-11.429664,-3.509733,-82.200983,0.0625,-0.202927,0.986496,0.363194,0.033024,-0.046345,61.993484,23.203278,-150.574615,,,
729715996.31975,-11.324808,-3.502145,-79.131102,0.059052,-0.202759,0.987762,0.363194,0.033024,-0.046345,61.993484,23.203278,-150.574615,,,
729715996.321891,-11.32481,-3.502142,-82.20798,0.059052,-0.202759,0.987762,0.363194,0.033024,-0.046345,61.993484,23.203278,-150.574615,,,
729715996.322118,-11.324808,-3.502145,-79.131102,0.059052,-0.202759,0.987762,0.363194,0.033024,-0.046345,61.993484,23.203278,-150.574615,,,
729715996.325934,-11.218275,-3.491612,-82.213749,0.059052,-0.202759,0.987762,0.370269,0.050132,-0.038123,61.993484,23.203278,-150.574615,,,
729715996.326189,-11.218273,-3.491614,-79.136871,0.059052,-0.202759,0.987762,0.370269,0.050132,-0.038123,61.993484,23.203278,-150.574615,,,
729715996.327802,-11.218275,-3.491612,-82.213749,0.059052,-0.202759,0.987762,0.370269,0.050132,-0.038123,61.993484,23.203278,-150.574615,,,
729715996.328025,-11.218273,-3.491614,-79.136871,0.059052,-0.202759,0.987762,0.370269,0.050132,-0.038123,61.993484,23.203278,-150.574615,,,
729715996.332548,-11.111778,-3.479156,-82.218078,0.058655,-0.197723,0.982239,0.370269,0.050132,-0.038123,61.993484,23.203278,-150.574615,,,
729715996.3328,-11.111775,-3.479158,-79.141199,0.058655,-0.197723,0.982239,0.370269,0.050132,-0.038123,61.993484,23.203278,-150.574615,,,
729715996.33555,-11.111778,-3.465135,-82.220248,0.058655,-0.197723,0.982239,0.35402,0.058021,-0.022945,61.993484,23.203278,-150.574615,,,
729715996.335799,-11.007481,-3.465138,-79.14337,0.058655,-0.197723,0.982239,0.35402,0.058021,-0.022945,61.993484,23.203278,-150.574615,,,
729715996.338167,-11.007483,-3.465135,-82.220248,0.058655,-0.197723,0.982239,0.35402,0.058021,-0.022945,61.993484,23.203278,-150.574615,,,
729715996.338405,-11.007481,-3.465138,-79.14337,0.058655,-0.197723,0.982239,0.35402,0.058021,-0.022945,61.993484,23.203278,-150.574615,,,
729715996.342644,-10.905857,-3.449896,-82.220451,0.054855,-0.1884,0.97171,0.35402,0.058021,-0.022945,61.993484,23.203278,-150.574615,,,
729715996.342894,-10.905854,-3.449898,-79.143573,0.054855,-0.1884,0.97171,0.35402,0.058021,-0.022945,61.993484,23.203278,-150.574615,,,
729715996.344437,-10.905857,-3.449896,-82.220451,0.054855,-0.1884,0.97171,0.35402,0.058021,-0.022945,61.993484,23.203278,-150.574615,,,
729715996.344703,-10.806055,-3.434099,-79.141855,0.054855,-0.1884,0.97171,0.345338,0.055467,-0.011651,61.993484,23.203278,-150.574615,,,
729715996.348928,-10.806057,-3.434096,-82.218733,0.054855,-0.1884,0.97171,0.345338,0.055467,-0.011651,61.993484,23.203278,-150.574615,,,
729715996.349172,-10.806055,-3.434099,-79.141855,0.054855,-0.1884,0.97171,0.345338,0.055467,-0.011651,61.993484,23.203278,-150.574615,,,
729715996.35269,-10.707752,-3.41814,-82.215838,0.052261,-0.184174,0.968613,0.345338,0.055467,-0.011651,62.391159,22.398178,-151.092651,,,
729715996.353052,-10.707749,-3.418143,-79.13896,0.052261,-0.184174,0.968613,0.345338,0.055467,-0.011651,62.391159,22.398178,-151.092651,,,
729715996.354371,-10.707752,-3.41814,-82.215838,0.052261,-0.184174,0.968613,0.345338,0.055467,-0.011651,62.391159,22.398178,-151.092651,,,
729715996.354673,-10.610971,-3.402542,-79.136478,0.052261,-0.184174,0.968613,0.345338,0.055467,-0.011651,62.391159,22.398178,-151.092651,,,
729715996.35921,-10.610974,-3.402539,-82.213356,0.052261,-0.184174,0.968613,0.332715,0.055641,-0.020217,62.391159,22.398178,-151.092651,,,
729715996.359444,-10.610971,-3.402542,-79.136478,0.052261,-0.184174,0.968613,0.332715,0.055641,-0.020217,62.391159,22.398178,-151.092651,,,
729715996.362106,-10.515025,-3.387332,-82.213019,0.055954,-0.180969,0.970322,0.332715,0.055641,-0.020217,62.391159,22.398178,-151.092651,,,
729715996.362355,-10.515022,-3.387334,-79.136141,0.055954,-0.180969,0.970322,0.332715,0.055641,-0.020217,62.391159,22.398178,-151.092651,,,
729715996.364482,-10.515025,-3.387332,-82.213019,0.055954,-0.180969,0.970322,0.332715,0.055641,-0.020217,62.391159,22.398178,-151.092651,,,
729715996.364681,-10.420084,-3.371551,-79.138177,0.055954,-0.180969,0.970322,0.332715,0.055641,-0.020217,62.391159,22.398178,-151.092651,,,
729715996.369255,-10.420086,-3.371548,-82.215055,0.055954,-0.180969,0.970322,0.33143,0.064369,-0.038368,62.391159,22.398178,-151.092651,,,
729715996.369534,-10.420084,-3.371551,-79.138177,0.055954,-0.180969,0.970322,0.33143,0.064369,-0.038368,62.391159,22.398178,-151.092651,,,
729715996.371756,-10.325131,-3.354799,-82.219538,0.059494,-0.175446,0.97406,0.33143,0.064369,-0.038368,62.391159,22.398178,-151.092651,,,
729715996.371995,-10.325128,-3.354802,-79.14266,0.059494,-0.175446,0.97406,0.33143,0.064369,-0.038368,62.391159,22.398178,-151.092651,,,
729715996.374545,-10.325131,-3.354799,-82.219538,0.059494,-0.175446,0.97406,0.33143,0.064369,-0.038368,62.391159,22.398178,-151.092651,,,
729715996.374737,-10.228895,-3.337354,-79.148928,0.059494,-0.175446,0.97406,0.338617,0.066174,-0.048526,62.391159,22.398178,-151.092651,,,
729715996.379495,-10.228898,-3.337351,-82.225806,0.059494,-0.175446,0.97406,0.338617,0.066174,-0.048526,62.391159,22.398178,-151.092651,,,
729715996.379739,-10.130914,-3.320449,-79.15624,0.05278,-0.174622,0.977234,0.338617,0.066174,-0.048526,62.391159,22.398178,-151.092651,,,
