Time (sec),Pitch (deg),Roll (deg),Yaw(deg),X-Acceleration (g),Y-Acceleration (g),Z-Acceleration (g),Pitch Rate (deg/sec),Roll Rate (deg/sec),Yaw Rate (deg/sec),Magnetic Field in X direction (uT),Magnetic Field in Y direction (uT),Magnetic Field in Z Direction (uT),Latitude (deg),Longitude (deg),Altitude (m)
729707006.349844,0.828303,2.055022,121.214122,-0.049225,0.018753,0.982666,-0.037034,0.000958,0.003209,60.740067,29.591415,-147.09584,,,
729707006.352322,0.81679,2.049206,-22.694156,-0.049225,0.018753,0.982666,-0.042857,-0.006483,0.003394,60.740067,29.591415,-147.09584,,,
729707006.353246,0.8168,2.04924,121.216013,-0.049225,0.018753,0.982666,-0.042857,-0.006483,0.003394,60.740067,29.591415,-147.09584,,,
729707006.353954,0.81679,2.049206,-22.694156,-0.049225,0.018753,0.982666,-0.042857,-0.006483,0.003394,60.740067,29.591415,-147.09584,,,
729707006.356465,0.804057,2.046091,121.217541,-0.047516,0.01358,0.989441,-0.042857,-0.006483,0.003394,60.740067,29.591415,-147.09584,,,
729707006.3582,0.804047,2.046058,-22.692625,-0.047516,0.01358,0.989441,-0.042857,-0.006483,0.003394,60.740067,29.591415,-147.09584,,,
729707006.359838,0.804057,2.046091,121.217541,-0.047516,0.01358,0.989441,-0.042857,-0.006483,0.003394,60.740067,29.591415,-147.09584,,,
729707006.36149,0.791225,2.03926,-22.691194,-0.047516,0.01358,0.989441,-0.046203,-0.012073,0.002339,60.740067,29.591415,-147.09584,,,
729707006.363143,0.791235,2.039293,121.218987,-0.047516,0.01358,0.989441,-0.046203,-0.012073,0.002339,60.740067,29.591415,-147.09584,,,
729707006.363947,0.791225,2.03926,-22.691194,-0.047516,0.01358,0.989441,-0.046203,-0.012073,0.002339,60.740067,29.591415,-147.09584,,,
729707006.366471,0.778354,2.034304,121.220801,-0.0457,0.012024,0.996399,-0.046203,-0.012073,0.002339,60.740067,29.591415,-147.09584,,,
729707006.368144,0.778345,2.034271,-22.689378,-0.0457,0.012024,0.996399,-0.046203,-0.012073,0.002339,60.740067,29.591415,-147.09584,,,
729707006.369957,0.778354,2.034304,121.220801,-0.0457,0.012024,0.996399,-0.046203,-0.012073,0.002339,60.740067,29.591415,-147.09584,,,
729707006.371408,0.766642,2.026964,-22.687242,-0.0457,0.012024,0.996399,-0.040306,-0.0153,0.004641,60.740067,29.591415,-147.09584,,,
729707006.373171,0.766652,2.026997,121.222933,-0.0457,0.012024,0.996399,-0.040306,-0.0153,0.004641,60.740067,29.591415,-147.09584,,,
729707006.37395,0.766642,2.026964,-22.687242,-0.0457,0.012024,0.996399,-0.040306,-0.0153,0.004641,60.740067,29.591415,-147.09584,,,
729707006.376477,0.75627,2.022281,121.225079,-0.046341,0.008408,1.007812,-0.040306,-0.0153,0.004641,60.740067,29.591415,-147.09584,,,
729707006.378113,0.756261,2.022248,-22.685093,-0.046341,0.008408,1.007812,-0.040306,-0.0153,0.004641,60.740067,29.591415,-147.09584,,,
729707006.379835,0.75627,2.022281,121.225079,-0.046341,0.008408,1.007812,-0.040306,-0.0153,0.004641,60.740067,29.591415,-147.09584,,,
729707006.381759,0.7488,2.017643,-22.682836,-0.046341,0.008408,1.007812,-0.025315,-0.009632,0.005846,60.740067,29.591415,-147.09584,,,
729707006.383143,0.748809,2.017676,121.227331,-0.046341,0.008408,1.007812,-0.025315,-0.009632,0.005846,60.662567,29.787857,-147.156967,,,
729707006.384571,0.7488,2.017643,-22.682836,-0.046341,0.008408,1.007812,-0.025315,-0.009632,0.005846,60.662567,29.787857,-147.156967,,,
729707006.386476,0.742531,2.014689,121.229248,-0.041183,0.004623,1.01358,-0.025315,-0.009632,0.005846,60.662567,29.787857,-147.156967,,,
729707006.388333,0.742521,2.014655,-22.680918,-0.041183,0.004623,1.01358,-0.025315,-0.009632,0.005846,60.662567,29.787857,-147.156967,,,
729707006.38982,0.742531,2.014689,121.229248,-0.041183,0.004623,1.01358,-0.025315,-0.009632,0.005846,60.662567,29.787857,-147.156967,,,
729707006.392112,0.739473,2.014075,-22.679052,-0.041183,0.004623,1.01358,-0.010704,0.001463,0.006081,60.662567,29.787857,-147.156967,,,
729707006.393184,0.739482,2.014108,121.231125,-0.041183,0.004623,1.01358,-0.010704,0.001463,0.006081,60.662567,29.787857,-147.156967,,,
729707006.393953,0.739473,2.014075,-22.679052,-0.041183,0.004623,1.01358,-0.010704,0.001463,0.006081,60.662567,29.787857,-147.156967,,,
729707006.396467,0.737437,2.014335,121.234128,-0.036163,0.004669,1.017258,-0.010704,0.001463,0.006081,60.662567,29.787857,-147.156967,,,
729707006.397562,0.737427,2.014301,-22.67605,-0.036163,0.004669,1.017258,-0.010704,0.001463,0.006081,60.662567,29.787857,-147.156967,,,
729707006.399821,0.737437,2.014335,121.234128,-0.036163,0.004669,1.017258,-0.010704,0.001463,0.006081,60.662567,29.787857,-147.156967,,,
729707006.401605,0.737762,2.018692,-22.672235,-0.036163,0.004669,1.017258,-0.003441,0.014296,0.012193,60.662567,29.787857,-147.156967,,,
729707006.403145,0.737771,2.018726,121.237943,-0.036163,0.004669,1.017258,-0.003441,0.014296,0.012193,60.662567,29.787857,-147.156967,,,
729707006.403945,0.737762,2.018692,-22.672235,-0.036163,0.004669,1.017258,-0.003441,0.014296,0.012193,60.662567,29.787857,-147.156967,,,
729707006.406464,0.737202,2.022464,121.242212,-0.037903,0.007996,1.01265,-0.003441,0.014296,0.012193,60.662567,29.787857,-147.156967,,,
729707006.407841,0.737192,2.022431,-22.667962,-0.037903,0.007996,1.01265,-0.003441,0.014296,0.012193,60.662567,29.787857,-147.156967,,,
729707006.409816,0.737202,2.022464,121.242212,-0.037903,0.007996,1.01265,-0.003441,0.014296,0.012193,60.662567,29.787857,-147.156967,,,
729707006.411571,0.73778,2.030279,-22.663134,-0.037903,0.007996,1.01265,-0.003366,0.022691,0.016326,60.662567,29.787857,-147.156967,,,
729707006.413141,0.737789,2.030313,121.247042,-0.037903,0.007996,1.01265,-0.003366,0.022691,0.016326,60.662567,29.787857,-147.156967,,,
729707006.413947,0.73778,2.030279,-22.663134,-0.037903,0.007996,1.01265,-0.003366,0.022691,0.016326,60.662567,29.787857,-147.156967,,,
729707006.416469,0.737108,2.036563,121.252062,-0.033752,0.011261,1.01181,-0.003366,0.022691,0.016326,60.662567,29.787857,-147.156967,,,
729707006.417841,0.737098,2.036529,-22.65811,-0.033752,0.011261,1.01181,-0.003366,0.022691,0.016326,60.662567,29.787857,-147.156967,,,
729707006.41992,0.737108,2.036563,121.252062,-0.033752,0.011261,1.01181,-0.003366,0.022691,0.016326,60.662567,29.787857,-147.156967,,,
729707006.422822,0.738586,2.0464,-22.65351,-0.033752,0.011261,1.01181,0.00269,0.025812,0.013936,60.662567,29.787857,-147.156967,,,
729707006.423205,0.738595,2.046433,121.256665,-0.033752,0.011261,1.01181,0.00269,0.025812,0.013936,60.662567,29.787857,-147.156967,,,
729707006.424591,0.738586,2.0464,-22.65351,-0.033752,0.011261,1.01181,0.00269,0.025812,0.013936,60.892456,29.680664,-147.082962,,,
729707006.426502,0.739487,2.052431,121.26045,-0.029495,0.013031,1.007477,0.00269,0.025812,0.013936,60.892456,29.680664,-147.082962,,,
729707006.427283,0.739477,2.052398,-22.649727,-0.029495,0.013031,1.007477,0.00269,0.025812,0.013936,60.892456,29.680664,-147.082962,,,
729707006.429799,0.739487,2.052431,121.26045,-0.029495,0.013031,1.007477,0.00269,0.025812,0.013936,60.892456,29.680664,-147.082962,,,
729707006.431371,0.741085,2.059936,-22.647657,-0.029495,0.013031,1.007477,0.003954,0.017513,0.002303,60.892456,29.680664,-147.082962,,,
729707006.433226,0.741094,2.059969,121.262524,-0.029495,0.013031,1.007477,0.003954,0.017513,0.002303,60.892456,29.680664,-147.082962,,,
729707006.433949,0.741085,2.059936,-22.647657,-0.029495,0.013031,1.007477,0.003954,0.017513,0.002303,60.892456,29.680664,-147.082962,,,
729707006.436476,0.743004,2.063461,121.262906,-0.029358,0.013702,1.006104,0.003954,0.017513,0.002303,60.892456,29.680664,-147.082962,,,
729707006.437294,0.742994,2.063427,-22.647275,-0.029358,0.013702,1.006104,0.003954,0.017513,0.002303,60.892456,29.680664,-147.082962,,,
729707006.439796,0.743004,2.063461,121.262906,-0.029358,0.013702,1.006104,0.003954,0.017513,0.002303,60.892456,29.680664,-147.082962,,,
729707006.44285,0.745995,2.067541,-22.648123,-0.029358,0.013702,1.006104,0.010845,0.005874,-0.005858,60.892456,29.680664,-147.082962,,,
729707006.443168,0.746005,2.067574,121.262054,-0.029358,0.013702,1.006104,0.010845,0.005874,-0.005858,60.892456,29.680664,-147.082962,,,
729707006.443955,0.745995,2.067541,-22.648123,-0.029358,0.013702,1.006104,0.010845,0.005874,-0.005858,60.892456,29.680664,-147.082962,,,
729707006.446479,0.749713,2.067147,121.260624,-0.031433,0.012497,1.003067,0.010845,0.005874,-0.005858,60.892456,29.680664,-147.082962,,,
729707006.447549,0.749703,2.067114,-22.649558,-0.031433,0.012497,1.003067,0.010845,0.005874,-0.005858,60.892456,29.680664,-147.082962,,,
729707006.449828,0.749713,2.067147,121.260624,-0.031433,0.012497,1.003067,0.010845,0.005874,-0.005858,60.892456,29.680664,-147.082962,,,
729707006.451936,0.753438,2.06645,-22.651481,-0.031433,0.012497,1.003067,0.014633,-0.010131,-0.008888,60.892456,29.680664,-147.082962,,,
729707006.453248,0.753448,2.066484,121.258702,-0.031433,0.012497,1.003067,0.014633,-0.010131,-0.008888,60.892456,29.680664,-147.082962,,,
729707006.453965,0.753438,2.06645,-22.651481,-0.031433,0.012497,1.003067,0.014633,-0.010131,-0.008888,60.892456,29.680664,-147.082962,,,
729707006.456471,0.757039,2.061661,121.256441,-0.030685,0.011383,0.998871,0.014633,-0.010131,-0.008888,60.892456,29.680664,-147.082962,,,
729707006.4581,0.757029,2.061628,-22.653742,-0.030685,0.011383,0.998871,0.014633,-0.010131,-0.008888,60.892456,29.680664,-147.082962,,,
729707006.459803,0.757039,2.061661,121.256441,-0.030685,0.011383,0.998871,0.014633,-0.010131,-0.008888,60.892456,29.680664,-147.082962,,,
729707006.461151,0.759248,2.056881,-22.656069,-0.030685,0.011383,0.998871,0.013077,-0.02098,-0.009242,60.892456,29.680664,-147.082962,,,
729707006.463142,0.759258,2.056914,121.254111,-0.030685,0.011383,0.998871,0.013077,-0.02098,-0.009242,60.892456,29.680664,-147.082962,,,
729707006.463985,0.759248,2.056881,-22.656069,-0.030685,0.011383,0.998871,0.013077,-0.02098,-0.009242,60.892456,29.680664,-147.082962,,,
729707006.466469,0.762556,2.050234,121.251685,-0.029694,0.015152,0.998291,0.013077,-0.02098,-0.009242,60.733841,29.714722,-147.005905,,,
729707006.468471,0.762546,2.050201,-22.658496,-0.029694,0.015152,0.998291,0.013077,-0.02098,-0.009242,60.733841,29.714722,-147.005905,,,
729707006.469833,0.762556,2.050234,121.251685,-0.029694,0.015152,0.998291,0.013077,-0.02098,-0.009242,60.733841,29.714722,-147.005905,,,
729707006.471271,0.764062,2.044804,-22.661287,-0.029694,0.015152,0.998291,0.010782,-0.012634,-0.011851,60.733841,29.714722,-147.005905,,,
729707006.473163,0.764072,2.044837,121.248897,-0.029694,0.015152,0.998291,0.010782,-0.012634,-0.011851,60.733841,29.714722,-147.005905,,,
729707006.47395,0.764062,2.044804,-22.661287,-0.029694,0.015152,0.998291,0.010782,-0.012634,-0.011851,60.733841,29.714722,-147.005905,,,
729707006.47647,0.7667,2.040889,121.245882,-0.029266,0.015823,1.003616,0.010782,-0.012634,-0.011851,60.733841,29.714722,-147.005905,,,
729707006.477628,0.766691,2.040856,-22.664301,-0.029266,0.015823,1.003616,0.010782,-0.012634,-0.011851,60.733841,29.714722,-147.005905,,,
729707006.479801,0.7667,2.040889,121.245882,-0.029266,0.015823,1.003616,0.010782,-0.012634,-0.011851,60.733841,29.714722,-147.005905,,,
729707006.481168,0.767683,2.038633,-22.667302,-0.029266,0.015823,1.003616,0.008168,-0.003123,-0.011785,60.733841,29.714722,-147.005905,,,
729707006.483207,0.767693,2.038666,121.242879,-0.029266,0.015823,1.003616,0.008168,-0.003123,-0.011785,60.733841,29.714722,-147.005905,,,
729707006.483949,0.767683,2.038633,-22.667302,-0.029266,0.015823,1.003616,0.008168,-0.003123,-0.011785,60.733841,29.714722,-147.005905,,,
729707006.48648,0.769455,2.037206,121.239739,-0.026474,0.012009,1.00293,0.008168,-0.003123,-0.011785,60.733841,29.714722,-147.005905,,,
729707006.487608,0.769445,2.037173,-22.670443,-0.026474,0.012009,1.00293,0.008168,-0.003123,-0.011785,60.733841,29.714722,-147.005905,,,
729707006.489799,0.769455,2.037206,121.239739,-0.026474,0.012009,1.00293,0.008168,-0.003123,-0.011785,60.733841,29.714722,-147.005905,,,
729707006.49208,0.770811,2.036657,-22.674248,-0.026474,0.012009,1.00293,0.00858,0.003716,-0.016396,60.733841,29.714722,-147.005905,,,
729707006.493176,0.770821,2.03669,121.235935,-0.026474,0.012009,1.00293,0.00858,0.003716,-0.016396,60.733841,29.714722,-147.005905,,,
729707006.493947,0.770811,2.036657,-22.674248,-0.026474,0.012009,1.00293,0.00858,0.003716,-0.016396,60.733841,29.714722,-147.005905,,,
729707006.496465,0.772697,2.037984,121.23136,-0.026901,0.01239,1.001419,0.00858,0.003716,-0.016396,60.733841,29.714722,-147.005905,,,
729707006.497588,0.772687,2.037951,-22.678825,-0.026901,0.01239,1.001419,0.00858,0.003716,-0.016396,60.733841,29.714722,-147.005905,,,
729707006.499797,0.772697,2.037984,121.23136,-0.026901,0.01239,1.001419,0.00858,0.003716,-0.016396,60.733841,29.714722,-147.005905,,,
729707006.50088,0.77409,2.040141,-22.68386,-0.026901,0.01239,1.001419,0.0082,0.016101,-0.019748,60.733841,29.714722,-147.005905,,,
729707006.503138,0.7741,2.040174,121.226316,-0.026901,0.01239,1.001419,0.0082,0.016101,-0.019748,60.733841,29.714722,-147.005905,,,
729707006.503947,0.77409,2.040141,-22.68386,-0.026901,0.01239,1.001419,0.0082,0.016101,-0.019748,60.733841,29.714722,-147.005905,,,
729707006.506459,0.776227,2.044574,121.220988,-0.028656,0.014267,0.998932,0.0082,0.016101,-0.019748,60.698868,29.605225,-146.999649,,,
729707006.508581,0.776218,2.04454,-22.689192,-0.028656,0.014267,0.998932,0.0082,0.016101,-0.019748,60.698868,29.605225,-146.999649,,,
729707006.509795,0.776227,2.044574,121.220988,-0.028656,0.014267,0.998932,0.0082,0.016101,-0.019748,60.698868,29.605225,-146.999649,,,
729707006.510964,0.778299,2.048798,-22.694466,-0.028656,0.014267,0.998932,0.007119,0.024738,-0.019514,60.698868,29.605225,-146.999649,,,
729707006.513136,0.778309,2.048831,121.215714,-0.028656,0.014267,0.998932,0.007119,0.024738,-0.019514,60.698868,29.605225,-146.999649,,,
729707006.513945,0.778299,2.048798,-22.694466,-0.028656,0.014267,0.998932,0.007119,0.024738,-0.019514,60.698868,29.605225,-146.999649,,,
729707006.516468,0.779656,2.055367,121.210767,-0.031555,0.014862,0.99295,0.007119,0.024738,-0.019514,60.698868,29.605225,-146.999649,,,
729707006.518045,0.779646,2.055334,-22.699415,-0.031555,0.014862,0.99295,0.007119,0.024738,-0.019514,60.698868,29.605225,-146.999649,,,
729707006.519883,0.779656,2.055367,121.210767,-0.031555,0.014862,0.99295,0.007119,0.024738,-0.019514,60.698868,29.605225,-146.999649,,,
729707006.521081,0.780921,2.060732,-22.703624,-0.031555,0.014862,0.99295,0.007115,0.025708,-0.014522,60.698868,29.605225,-146.999649,,,
729707006.523163,0.78093,2.060765,121.206555,-0.031555,0.014862,0.99295,0.007115,0.025708,-0.014522,60.698868,29.605225,-146.999649,,,
729707006.52395,0.780921,2.060732,-22.703624,-0.031555,0.014862,0.99295,0.007115,0.025708,-0.014522,60.698868,29.605225,-146.999649,,,
729707006.526466,0.782291,2.06683,121.203207,-0.035629,0.01442,0.992294,0.007115,0.025708,-0.014522,60.698868,29.605225,-146.999649,,,
729707006.528032,0.782281,2.066797,-22.706975,-0.035629,0.01442,0.992294,0.007115,0.025708,-0.014522,60.698868,29.605225,-146.999649,,,
729707006.529822,0.782291,2.06683,121.203207,-0.035629,0.01442,0.992294,0.007115,0.025708,-0.014522,60.698868,29.605225,-146.999649,,,
729707006.531061,0.782603,2.071131,-22.709862,-0.035629,0.01442,0.992294,0.002693,0.019702,-0.011568,60.698868,29.605225,-146.999649,,,
729707006.533135,0.782613,2.071165,121.200314,-0.035629,0.01442,0.992294,0.002693,0.019702,-0.011568,60.698868,29.605225,-146.999649,,,
729707006.533948,0.782603,2.071131,-22.709862,-0.035629,0.01442,0.992294,0.002693,0.019702,-0.011568,60.698868,29.605225,-146.999649,,,
729707006.536471,0.783028,2.076304,121.197948,-0.040939,0.01741,0.989044,0.002693,0.019702,-0.011568,60.698868,29.605225,-146.999649,,,
729707006.537847,0.783018,2.076271,-22.712233,-0.040939,0.01741,0.989044,0.002693,0.019702,-0.011568,60.698868,29.605225,-146.999649,,,
729707006.5398,0.783028,2.076304,121.197948,-0.040939,0.01741,0.989044,0.002693,0.019702,-0.011568,60.698868,29.605225,-146.999649,,,
729707006.540661,0.783311,2.080647,-22.713725,-0.040939,0.01741,0.989044,0.002083,0.024429,-0.005613,60.698868,29.605225,-146.999649,,,
729707006.543143,0.78332,2.08068,121.196457,-0.040939,0.01741,0.989044,0.002083,0.024429,-0.005613,60.698868,29.605225,-146.999649,,,
729707006.543944,0.783311,2.080647,-22.713725,-0.040939,0.01741,0.989044,0.002083,0.024429,-0.005613,60.698868,29.605225,-146.999649,,,
729707006.546469,0.783557,2.087016,121.195527,-0.043579,0.016159,0.988953,0.002083,0.024429,-0.005613,60.938889,29.675903,-146.87262,,,
729707006.54822,0.783547,2.086983,-22.714657,-0.043579,0.016159,0.988953,0.002083,0.024429,-0.005613,60.938889,29.675903,-146.87262,,,
729707006.549808,0.783557,2.087016,121.195527,-0.043579,0.016159,0.988953,0.002083,0.024429,-0.005613,60.938889,29.675903,-146.87262,,,
729707006.552173,0.783584,2.091884,-22.71496,-0.043579,0.016159,0.988953,-0.002476,0.023058,-0.00157,60.938889,29.675903,-146.87262,,,
729707006.553199,0.783593,2.091917,121.19521,-0.043579,0.016159,0.988953,-0.002476,0.023058,-0.00157,60.938889,29.675903,-146.87262,,,
729707006.553953,0.783584,2.091884,-22.71496,-0.043579,0.016159,0.988953,-0.002476,0.023058,-0.00157,60.938889,29.675903,-146.87262,,,
729707006.556472,0.782508,2.097477,121.195231,-0.043716,0.013977,0.989197,-0.002476,0.023058,-0.00157,60.938889,29.675903,-146.87262,,,
729707006.557899,0.782499,2.097444,-22.714938,-0.043716,0.013977,0.989197,-0.002476,0.023058,-0.00157,60.938889,29.675903,-146.87262,,,
729707006.559901,0.782508,2.097477,121.195231,-0.043716,0.013977,0.989197,-0.002476,0.023058,-0.00157,60.938889,29.675903,-146.87262,,,
729707006.562106,0.780936,2.100832,-22.714384,-0.043716,0.013977,0.989197,-0.005893,0.019875,0.001849,60.938889,29.675903,-146.87262,,,
729707006.563166,0.780946,2.100865,121.195792,-0.043716,0.013977,0.989197,-0.005893,0.019875,0.001849,60.938889,29.675903,-146.87262,,,
729707006.563959,0.780936,2.100832,-22.714384,-0.043716,0.013977,0.989197,-0.005893,0.019875,0.001849,60.938889,29.675903,-146.87262,,,
729707006.566469,0.778633,2.105424,121.196997,-0.044876,0.015671,0.984985,-0.005893,0.019875,0.001849,60.938889,29.675903,-146.87262,,,
729707006.568113,0.778623,2.105391,-22.713184,-0.044876,0.015671,0.984985,-0.005893,0.019875,0.001849,60.938889,29.675903,-146.87262,,,
729707006.569889,0.778633,2.105424,121.196997,-0.044876,0.015671,0.984985,-0.005893,0.019875,0.001849,60.938889,29.675903,-146.87262,,,
729707006.570636,0.775088,2.107321,-22.711562,-0.044876,0.015671,0.984985,-0.012258,0.016411,0.004303,60.938889,29.675903,-146.87262,,,
729707006.573235,0.775098,2.107355,121.19862,-0.044876,0.015671,0.984985,-0.012258,0.016411,0.004303,60.938889,29.675903,-146.87262,,,
729707006.573947,0.775088,2.107321,-22.711562,-0.044876,0.015671,0.984985,-0.012258,0.016411,0.004303,60.938889,29.675903,-146.87262,,,
729707006.576469,0.771641,2.110669,121.200442,-0.045944,0.017639,0.985199,-0.012258,0.016411,0.004303,60.938889,29.675903,-146.87262,,,
729707006.578113,0.771631,2.110635,-22.709738,-0.045944,0.017639,0.985199,-0.012258,0.016411,0.004303,60.938889,29.675903,-146.87262,,,
729707006.579804,0.771641,2.110669,121.200442,-0.045944,0.017639,0.985199,-0.012258,0.016411,0.004303,60.938889,29.675903,-146.87262,,,
729707006.580907,0.771631,2.110635,-22.708061,-0.045944,0.017639,0.985199,-0.014236,0.012884,0.003038,60.938889,29.675903,-146.87262,,,
729707006.583159,0.767894,2.111521,121.202121,-0.045944,0.017639,0.985199,-0.014236,0.012884,0.003038,60.938889,29.675903,-146.87262,,,
729707006.583946,0.767884,2.111488,-22.708061,-0.045944,0.017639,0.985199,-0.014236,0.012884,0.003038,60.938889,29.675903,-146.87262,,,
729707006.58649,0.763579,2.114401,121.20364,-0.044876,0.017914,0.988174,-0.014236,0.012884,0.003038,60.938889,29.675903,-146.87262,,,
729707006.58849,0.763569,2.114368,-22.706542,-0.044876,0.017914,0.988174,-0.014236,0.012884,0.003038,60.964371,29.593857,-147.28447,,,
729707006.589831,0.763579,2.114401,121.20364,-0.044876,0.017914,0.988174,-0.014236,0.012884,0.003038,60.964371,29.593857,-147.28447,,,
729707006.591196,0.758664,2.115708,-22.705038,-0.044876,0.017914,0.988174,-0.020677,0.011492,0.002562,60.964371,29.593857,-147.28447,,,
729707006.593149,0.758674,2.115741,121.205142,-0.044876,0.017914,0.988174,-0.020677,0.011492,0.002562,60.964371,29.593857,-147.28447,,,
729707006.593945,0.758664,2.115708,-22.705038,-0.044876,0.017914,0.988174,-0.020677,0.011492,0.002562,60.964371,29.593857,-147.28447,,,
729707006.596472,0.753174,2.117637,121.207052,-0.046143,0.014282,0.992569,-0.020677,0.011492,0.002562,60.964371,29.593857,-147.28447,,,
729707006.598249,0.753165,2.117604,-22.703127,-0.046143,0.014282,0.992569,-0.020677,0.011492,0.002562,60.964371,29.593857,-147.28447,,,
729707006.599888,0.753174,2.117637,121.207052,-0.046143,0.014282,0.992569,-0.020677,0.011492,0.002562,60.964371,29.593857,-147.28447,,,
729707006.601169,0.753165,2.117604,-22.703127,-0.046143,0.014282,0.992569,-0.014887,0.007331,0.008747,60.964371,29.593857,-147.28447,,,
729707006.603143,0.748656,2.118218,121.20983,-0.046143,0.014282,0.992569,-0.014887,0.007331,0.008747,60.964371,29.593857,-147.28447,,,
729707006.603945,0.748646,2.118185,-22.700344,-0.046143,0.014282,0.992569,-0.014887,0.007331,0.008747,60.964371,29.593857,-147.28447,,,
729707006.606465,0.744248,2.118803,121.212874,-0.044373,0.012207,0.992752,-0.014887,0.007331,0.008747,60.964371,29.593857,-147.28447,,,
729707006.607856,0.744239,2.11877,-22.697302,-0.044373,0.012207,0.992752,-0.014887,0.007331,0.008747,60.964371,29.593857,-147.28447,,,
729707006.609894,0.744248,2.118803,121.212874,-0.044373,0.012207,0.992752,-0.014887,0.007331,0.008747,60.964371,29.593857,-147.28447,,,
729707006.610922,0.744239,2.11877,-22.697302,-0.044373,0.012207,0.992752,-0.013502,0.002009,0.012119,60.964371,29.593857,-147.28447,,,
729707006.613144,0.740529,2.119078,121.216389,-0.044373,0.012207,0.992752,-0.013502,0.002009,0.012119,60.964371,29.593857,-147.28447,,,
729707006.614203,0.740519,2.119045,-22.693793,-0.044373,0.012207,0.992752,-0.013502,0.002009,0.012119,60.964371,29.593857,-147.28447,,,
729707006.616464,0.736855,2.118575,121.220074,-0.042389,0.014465,0.996811,-0.013502,0.002009,0.012119,60.964371,29.593857,-147.28447,,,
729707006.617521,0.736845,2.118542,-22.690114,-0.042389,0.014465,0.996811,-0.013502,0.002009,0.012119,60.964371,29.593857,-147.28447,,,
729707006.619807,0.736855,2.118575,121.220074,-0.042389,0.014465,0.996811,-0.013502,0.002009,0.012119,60.964371,29.593857,-147.28447,,,
729707006.620705,0.736845,2.118542,-22.690114,-0.042389,0.014465,0.996811,-0.01051,0.002124,0.011245,60.964371,29.593857,-147.28447,,,
729707006.623144,0.734545,2.119307,121.223581,-0.042389,0.014465,0.996811,-0.01051,0.002124,0.011245,60.964371,29.593857,-147.28447,,,
729707006.624308,0.734535,2.119274,-22.686587,-0.042389,0.014465,0.996811,-0.01051,0.002124,0.011245,60.964371,29.593857,-147.28447,,,
729707006.626468,0.731542,2.119304,121.227331,-0.038528,0.012863,1.001373,-0.01051,0.002124,0.011245,60.964371,29.593857,-147.28447,,,
729707006.627573,0.731533,2.11927,-22.682837,-0.038528,0.012863,1.001373,-0.01051,0.002124,0.011245,60.964371,29.593857,-147.28447,,,
729707006.629795,0.731542,2.119304,121.227331,-0.038528,0.012863,1.001373,-0.01051,0.002124,0.011245,60.943314,29.735809,-147.353363,,,
729707006.631509,0.731533,2.11927,-22.682837,-0.038528,0.012863,1.001373,-0.00527,0.000311,0.004873,60.943314,29.735809,-147.353363,,,
729707006.633149,0.729506,2.120552,121.230122,-0.038528,0.012863,1.001373,-0.00527,0.000311,0.004873,60.943314,29.735809,-147.353363,,,
729707006.63395,0.729496,2.120519,-22.680042,-0.038528,0.012863,1.001373,-0.00527,0.000311,0.004873,60.943314,29.735809,-147.353363,,,
729707006.636474,0.72837,2.119996,121.232591,-0.033401,0.012436,1.002457,-0.00527,0.000311,0.004873,60.943314,29.735809,-147.353363,,,
729707006.637533,0.72836,2.119963,-22.67759,-0.033401,0.012436,1.002457,-0.00527,0.000311,0.004873,60.943314,29.735809,-147.353363,,,
729707006.639878,0.72837,2.119996,121.232591,-0.033401,0.012436,1.002457,-0.00527,0.000311,0.004873,60.943314,29.735809,-147.353363,,,
729707006.643084,0.72836,2.119963,-22.67759,-0.033401,0.012436,1.002457,0.004976,-0.000919,0.007891,60.943314,29.735809,-147.353363,,,
729707006.643353,0.728975,2.120781,121.235404,-0.033401,0.012436,1.002457,0.004976,-0.000919,0.007891,60.943314,29.735809,-147.353363,,,
729707006.644218,0.728966,2.120748,-22.674774,-0.033401,0.012436,1.002457,0.004976,-0.000919,0.007891,60.943314,29.735809,-147.353363,,,
729707006.646481,0.730745,2.119725,121.237484,-0.031464,0.013107,1.005493,0.004976,-0.000919,0.007891,60.943314,29.735809,-147.353363,,,
729707006.64755,0.730735,2.119692,-22.672697,-0.031464,0.013107,1.005493,0.004976,-0.000919,0.007891,60.943314,29.735809,-147.353363,,,
729707006.649827,0.730745,2.119725,121.237484,-0.031464,0.013107,1.005493,0.004976,-0.000919,0.007891,60.943314,29.735809,-147.353363,,,
729707006.651168,0.730735,2.119692,-22.672697,-0.031464,0.013107,1.005493,0.009879,-0.000276,0.00284,60.943314,29.735809,-147.353363,,,
729707006.653136,0.733832,2.120804,121.238784,-0.031464,0.013107,1.005493,0.009879,-0.000276,0.00284,60.943314,29.735809,-147.353363,,,
729707006.653949,0.733822,2.120771,-22.671398,-0.031464,0.013107,1.005493,0.009879,-0.000276,0.00284,60.943314,29.735809,-147.353363,,,
729707006.656467,0.736598,2.120037,121.239975,-0.026932,0.012421,1.005035,0.009879,-0.000276,0.00284,60.943314,29.735809,-147.353363,,,
729707006.65766,0.736588,2.120004,-22.670204,-0.026932,0.012421,1.005035,0.009879,-0.000276,0.00284,60.943314,29.735809,-147.353363,,,
729707006.659823,0.736598,2.120037,121.239975,-0.026932,0.012421,1.005035,0.009879,-0.000276,0.00284,60.943314,29.735809,-147.353363,,,
729707006.660617,0.736588,2.120004,-22.670204,-0.026932,0.012421,1.005035,0.009879,-0.000276,0.00284,60.943314,29.735809,-147.353363,,,
729707006.663127,0.740277,2.121674,121.240618,-0.026932,0.012421,1.005035,0.009532,0.003152,-0.000813,60.943314,29.735809,-147.353363,,,
729707006.666123,0.740267,2.121641,-22.669568,-0.026932,0.012421,1.005035,0.009532,0.003152,-0.000813,60.943314,29.735809,-147.353363,,,
729707006.666503,0.742518,2.12253,121.240477,-0.024384,0.010376,1.000885,0.009532,0.003152,-0.000813,60.943314,29.735809,-147.353363,,,
729707006.667954,0.742509,2.122496,-22.669705,-0.024384,0.010376,1.000885,0.009532,0.003152,-0.000813,60.943314,29.735809,-147.353363,,,
729707006.669896,0.742518,2.12253,121.240477,-0.024384,0.010376,1.000885,0.009532,0.003152,-0.000813,61.050507,29.626633,-147.333084,,,
729707006.671376,0.742509,2.122496,-22.669705,-0.024384,0.010376,1.000885,0.009532,0.003152,-0.000813,61.050507,29.626633,-147.333084,,,
729707006.673159,0.745118,2.126229,121.239811,-0.024384,0.010376,1.000885,0.008689,0.011847,-0.00439,61.050507,29.626633,-147.333084,,,
729707006.67483,0.745109,2.126196,-22.670367,-0.024384,0.010376,1.000885,0.008689,0.011847,-0.00439,61.050507,29.626633,-147.333084,,,
729707006.676473,0.747489,2.1292,121.238759,-0.020294,0.013443,1.003159,0.008689,0.011847,-0.00439,61.050507,29.626633,-147.333084,,,
729707006.677284,0.747479,2.129167,-22.671421,-0.020294,0.013443,1.003159,0.008689,0.011847,-0.00439,61.050507,29.626633,-147.333084,,,
729707006.679795,0.747489,2.1292,121.238759,-0.020294,0.013443,1.003159,0.008689,0.011847,-0.00439,61.050507,29.626633,-147.333084,,,
729707006.68067,0.747479,2.129167,-22.671421,-0.020294,0.013443,1.003159,0.008689,0.011847,-0.00439,61.050507,29.626633,-147.333084,,,
729707006.683145,0.749203,2.134446,121.237286,-0.020294,0.013443,1.003159,0.004923,0.013886,-0.007297,61.050507,29.626633,-147.333084,,,
729707006.684479,0.749194,2.134412,-22.67289,-0.020294,0.013443,1.003159,0.004923,0.013886,-0.007297,61.050507,29.626633,-147.333084,,,
729707006.686537,0.750557,2.13762,121.235316,-0.0215,0.017349,1.000397,0.004923,0.013886,-0.007297,61.050507,29.626633,-147.333084,,,
729707006.687907,0.750547,2.137587,-22.67486,-0.0215,0.017349,1.000397,0.004923,0.013886,-0.007297,61.050507,29.626633,-147.333084,,,
729707006.689835,0.750557,2.13762,121.235316,-0.0215,0.017349,1.000397,0.004923,0.013886,-0.007297,61.050507,29.626633,-147.333084,,,
729707006.690618,0.750547,2.137587,-22.67486,-0.0215,0.017349,1.000397,0.004923,0.013886,-0.007297,61.050507,29.626633,-147.333084,,,
729707006.69314,0.751785,2.141488,121.232714,-0.0215,0.017349,1.000397,0.003659,0.010685,-0.011656,61.050507,29.626633,-147.333084,,,
729707006.694219,0.751775,2.141454,-22.677466,-0.0215,0.017349,1.000397,0.003659,0.010685,-0.011656,61.050507,29.626633,-147.333084,,,
729707006.696477,0.75283,2.144047,121.229123,-0.023605,0.015915,0.997803,0.003659,0.010685,-0.011656,61.050507,29.626633,-147.333084,,,
729707006.697288,0.75282,2.144014,-22.681058,-0.023605,0.015915,0.997803,0.003659,0.010685,-0.011656,61.050507,29.626633,-147.333084,,,
729707006.699816,0.75283,2.144047,121.229123,-0.023605,0.015915,0.997803,0.003659,0.010685,-0.011656,61.050507,29.626633,-147.333084,,,
729707006.700648,0.75282,2.144014,-22.681058,-0.023605,0.015915,0.997803,0.003659,0.010685,-0.011656,61.050507,29.626633,-147.333084,,,
729707006.703141,0.753742,2.148319,121.224165,-0.023605,0.015915,0.997803,0.002981,0.016257,-0.021124,61.050507,29.626633,-147.333084,,,
729707006.704942,0.753733,2.148286,-22.686009,-0.023605,0.015915,0.997803,0.002981,0.016257,-0.021124,61.050507,29.626633,-147.333084,,,
729707006.706474,0.754508,2.152784,121.218803,-0.025925,0.015228,1.003021,0.002981,0.016257,-0.021124,61.050507,29.626633,-147.333084,,,
729707006.707526,0.754499,2.152751,-22.691371,-0.025925,0.015228,1.003021,0.002981,0.016257,-0.021124,61.050507,29.626633,-147.333084,,,
729707006.709806,0.754508,2.152784,121.218803,-0.025925,0.015228,1.003021,0.002981,0.016257,-0.021124,61.032715,29.551819,-147.414291,,,
729707006.711321,0.754499,2.152751,-22.691371,-0.025925,0.015228,1.003021,0.002981,0.016257,-0.021124,61.032715,29.551819,-147.414291,,,
729707006.713139,0.755954,2.157825,121.213598,-0.025925,0.015228,1.003021,0.008622,0.022618,-0.019818,61.032715,29.551819,-147.414291,,,
729707006.71498,0.755945,2.157792,-22.696577,-0.025925,0.015228,1.003021,0.008622,0.022618,-0.019818,61.032715,29.551819,-147.414291,,,
729707006.716474,0.757757,2.163308,121.20827,-0.032623,0.011536,1.002014,0.008622,0.022618,-0.019818,61.032715,29.551819,-147.414291,,,
729707006.717538,0.757748,2.163275,-22.701902,-0.032623,0.011536,1.002014,0.008622,0.022618,-0.019818,61.032715,29.551819,-147.414291,,,
729707006.719805,0.757757,2.163308,121.20827,-0.032623,0.011536,1.002014,0.008622,0.022618,-0.019818,61.032715,29.551819,-147.414291,,,
729707006.72065,0.757748,2.163275,-22.701902,-0.032623,0.011536,1.002014,0.008622,0.022618,-0.019818,61.032715,29.551819,-147.414291,,,
729707006.723137,0.758943,2.167746,121.20369,-0.032623,0.011536,1.002014,0.004316,0.023548,-0.014915,61.032715,29.551819,-147.414291,,,
729707006.724958,0.758933,2.167713,-22.706483,-0.032623,0.011536,1.002014,0.004316,0.023548,-0.014915,61.032715,29.551819,-147.414291,,,
729707006.726466,0.759539,2.173608,121.200178,-0.038376,0.013687,0.997543,0.004316,0.023548,-0.014915,61.032715,29.551819,-147.414291,,,
729707006.727526,0.759529,2.173575,-22.709991,-0.038376,0.013687,0.997543,0.004316,0.023548,-0.014915,61.032715,29.551819,-147.414291,,,
729707006.729801,0.759539,2.173608,121.200178,-0.038376,0.013687,0.997543,0.004316,0.023548,-0.014915,61.032715,29.551819,-147.414291,,,
729707006.730653,0.759529,2.173575,-22.709991,-0.038376,0.013687,0.997543,0.004316,0.023548,-0.014915,61.032715,29.551819,-147.414291,,,
729707006.733217,0.758946,2.1774,121.197592,-0.038376,0.013687,0.997543,-0.004087,0.021704,-0.008931,61.032715,29.551819,-147.414291,,,
729707006.735545,0.758937,2.177366,-22.712579,-0.038376,0.013687,0.997543,-0.004087,0.021704,-0.008931,61.032715,29.551819,-147.414291,,,
729707006.736496,0.757935,2.182764,121.196067,-0.040085,0.01355,0.997284,-0.004087,0.021704,-0.008931,61.032715,29.551819,-147.414291,,,
729707006.737301,0.757926,2.182731,-22.714101,-0.040085,0.01355,0.997284,-0.004087,0.021704,-0.008931,61.032715,29.551819,-147.414291,,,
729707006.7398,0.757935,2.182764,121.196067,-0.040085,0.01355,0.997284,-0.004087,0.021704,-0.008931,61.032715,29.551819,-147.414291,,,
729707006.740644,0.757926,2.182731,-22.714101,-0.040085,0.01355,0.997284,-0.004087,0.021704,-0.008931,61.032715,29.551819,-147.414291,,,
729707006.743139,0.756401,2.185262,121.195443,-0.040085,0.01355,0.997284,-0.005431,0.01982,-0.003038,61.032715,29.551819,-147.414291,,,
729707006.744746,0.756392,2.185228,-22.714741,-0.040085,0.01355,0.997284,-0.005431,0.01982,-0.003038,61.032715,29.551819,-147.414291,,,
729707006.746472,0.753911,2.190029,121.195178,-0.042297,0.013474,0.996765,-0.005431,0.01982,-0.003038,61.032715,29.551819,-147.414291,,,
729707006.747619,0.753901,2.189995,-22.714993,-0.042297,0.013474,0.996765,-0.005431,0.01982,-0.003038,61.032715,29.551819,-147.414291,,,
729707006.749827,0.753911,2.190029,121.195178,-0.042297,0.013474,0.996765,-0.005431,0.01982,-0.003038,61.032715,29.551819,-147.414291,,,
729707006.751303,0.753901,2.189995,-22.714993,-0.042297,0.013474,0.996765,-0.005431,0.01982,-0.003038,61.042343,29.585693,-147.272186,,,
729707006.753224,0.750299,2.190528,121.194789,-0.042297,0.013474,0.996765,-0.011867,0.012269,-0.004515,61.042343,29.585693,-147.272186,,,
729707006.754414,0.750289,2.190494,-22.715378,-0.042297,0.013474,0.996765,-0.011867,0.012269,-0.004515,61.042343,29.585693,-147.272186,,,
729707006.756473,0.745981,2.19248,121.193541,-0.04509,0.013428,0.996506,-0.011867,0.012269,-0.004515,61.042343,29.585693,-147.272186,,,
729707006.757528,0.745971,2.192447,-22.716642,-0.04509,0.013428,0.996506,-0.011867,0.012269,-0.004515,61.042343,29.585693,-147.272186,,,
729707006.759894,0.745981,2.19248,121.193541,-0.04509,0.013428,0.996506,-0.011867,0.012269,-0.004515,61.042343,29.585693,-147.272186,,,
729707006.760653,0.745971,2.192447,-22.716642,-0.04509,0.013428,0.996506,-0.011867,0.012269,-0.004515,61.042343,29.585693,-147.272186,,,
729707006.763132,0.741127,2.188983,121.191757,-0.04509,0.013428,0.996506,-0.018232,-0.000618,-0.008731,61.042343,29.585693,-147.272186,,,
729707006.765934,0.741117,2.18895,-22.718432,-0.04509,0.013428,0.996506,-0.018232,-0.000618,-0.008731,61.042343,29.585693,-147.272186,,,
729707006.76649,0.735724,2.186581,121.189851,-0.048538,0.012131,0.993652,-0.018232,-0.000618,-0.008731,61.042343,29.585693,-147.272186,,,
729707006.76756,0.735714,2.186548,-22.720334,-0.048538,0.012131,0.993652,-0.018232,-0.000618,-0.008731,61.042343,29.585693,-147.272186,,,
729707006.769814,0.735724,2.186581,121.189851,-0.048538,0.012131,0.993652,-0.018232,-0.000618,-0.008731,61.042343,29.585693,-147.272186,,,
729707006.77066,0.735714,2.186548,-22.720334,-0.048538,0.012131,0.993652,-0.018232,-0.000618,-0.008731,61.042343,29.585693,-147.272186,,,
729707006.773128,0.731414,2.17854,121.187651,-0.048538,0.012131,0.993652,-0.015645,-0.018964,-0.010931,61.042343,29.585693,-147.272186,,,
729707006.774884,0.731404,2.178506,-22.722534,-0.048538,0.012131,0.993652,-0.015645,-0.018964,-0.010931,61.042343,29.585693,-147.272186,,,
729707006.776467,0.726586,2.171704,121.185175,-0.047974,0.012299,0.996216,-0.015645,-0.018964,-0.010931,61.042343,29.585693,-147.272186,,,
729707006.778048,0.726576,2.171671,-22.725013,-0.047974,0.012299,0.996216,-0.015645,-0.018964,-0.010931,61.042343,29.585693,-147.272186,,,
729707006.779801,0.726586,2.171704,121.185175,-0.047974,0.012299,0.996216,-0.015645,-0.018964,-0.010931,61.042343,29.585693,-147.272186,,,
729707006.780654,0.726576,2.171671,-22.725013,-0.047974,0.012299,0.996216,-0.015645,-0.018964,-0.010931,61.042343,29.585693,-147.272186,,,
729707006.783139,0.722429,2.161199,121.182725,-0.047974,0.012299,0.996216,-0.014366,-0.025413,-0.010954,61.042343,29.585693,-147.272186,,,
729707006.785079,0.722419,2.161166,-22.727461,-0.047974,0.012299,0.996216,-0.014366,-0.025413,-0.010954,61.042343,29.585693,-147.272186,,,
729707006.78654,0.717945,2.153822,121.179872,-0.042618,0.014084,0.997589,-0.014366,-0.025413,-0.010954,61.042343,29.585693,-147.272186,,,
729707006.787832,0.717936,2.153789,-22.730314,-0.042618,0.014084,0.997589,-0.014366,-0.025413,-0.010954,61.042343,29.585693,-147.272186,,,
729707006.789828,0.717945,2.153822,121.179872,-0.042618,0.014084,0.997589,-0.014366,-0.025413,-0.010954,61.042343,29.585693,-147.272186,,,
729707006.790613,0.717936,2.153789,-22.730314,-0.042618,0.014084,0.997589,-0.014366,-0.025413,-0.010954,61.042343,29.585693,-147.272186,,,
729707006.793156,0.713432,2.145965,121.177152,-0.042618,0.014084,0.997589,-0.015317,-0.017392,-0.010089,60.70018,29.767853,-147.310776,,,
729707006.795271,0.713422,2.145931,-22.733018,-0.042618,0.014084,0.997589,-0.015317,-0.017392,-0.010089,60.70018,29.767853,-147.310776,,,
729707006.796473,0.707835,2.14076,121.174528,-0.038635,0.014008,0.997543,-0.015317,-0.017392,-0.010089,60.70018,29.767853,-147.310776,,,
729707006.79783,0.707826,2.140727,-22.73564,-0.038635,0.014008,0.997543,-0.015317,-0.017392,-0.010089,60.70018,29.767853,-147.310776,,,
729707006.799819,0.707835,2.14076,121.174528,-0.038635,0.014008,0.997543,-0.015317,-0.017392,-0.010089,60.70018,29.767853,-147.310776,,,
729707006.800611,0.707826,2.140727,-22.73564,-0.038635,0.014008,0.997543,-0.015317,-0.017392,-0.010089,60.70018,29.767853,-147.310776,,,
729707006.803141,0.700307,2.13617,121.172086,-0.038635,0.014008,0.997543,-0.027954,-0.009765,-0.009335,60.70018,29.767853,-147.310776,,,
729707006.804692,0.700298,2.136137,-22.738079,-0.038635,0.014008,0.997543,-0.027954,-0.009765,-0.009335,60.70018,29.767853,-147.310776,,,
729707006.806473,0.690613,2.133427,121.170161,-0.035492,0.014999,0.990601,-0.027954,-0.009765,-0.009335,60.70018,29.767853,-147.310776,,,
729707006.808111,0.690603,2.133393,-22.740011,-0.035492,0.014999,0.990601,-0.027954,-0.009765,-0.009335,60.70018,29.767853,-147.310776,,,
729707006.809876,0.690613,2.133427,121.170161,-0.035492,0.014999,0.990601,-0.027954,-0.009765,-0.009335,60.70018,29.767853,-147.310776,,,
729707006.810606,0.690603,2.133393,-22.740011,-0.035492,0.014999,0.990601,-0.027954,-0.009765,-0.009335,60.70018,29.767853,-147.310776,,,
729707006.813138,0.679635,2.132725,121.168585,-0.035492,0.014999,0.990601,-0.040101,0.001191,-0.007296,60.70018,29.767853,-147.310776,,,
729707006.815684,0.679626,2.132691,-22.741593,-0.035492,0.014999,0.990601,-0.040101,0.001191,-0.007296,60.70018,29.767853,-147.310776,,,
729707006.816492,0.666879,2.132906,121.167135,-0.033569,0.015167,0.990601,-0.040101,0.001191,-0.007296,60.70018,29.767853,-147.310776,,,
729707006.818092,0.666869,2.132873,-22.743041,-0.033569,0.015167,0.990601,-0.040101,0.001191,-0.007296,60.70018,29.767853,-147.310776,,,
729707006.819814,0.666879,2.132906,121.167135,-0.033569,0.015167,0.990601,-0.040101,0.001191,-0.007296,60.70018,29.767853,-147.310776,,,
729707006.820619,0.666869,2.132873,-22.743041,-0.033569,0.015167,0.990601,-0.040101,0.001191,-0.007296,60.70018,29.767853,-147.310776,,,
729707006.823137,0.652971,2.134791,121.166007,-0.033569,0.015167,0.990601,-0.050056,0.007774,-0.005373,60.70018,29.767853,-147.310776,,,
729707006.824743,0.652962,2.134758,-22.744176,-0.033569,0.015167,0.990601,-0.050056,0.007774,-0.005373,60.70018,29.767853,-147.310776,,,
729707006.826473,0.638649,2.13598,121.165952,-0.033051,0.014694,0.994751,-0.050056,0.007774,-0.005373,60.70018,29.767853,-147.310776,,,
729707006.82816,0.638639,2.135946,-22.74423,-0.033051,0.014694,0.994751,-0.050056,0.007774,-0.005373,60.70018,29.767853,-147.310776,,,
729707006.829801,0.638649,2.13598,121.165952,-0.033051,0.014694,0.994751,-0.050056,0.007774,-0.005373,60.70018,29.767853,-147.310776,,,
729707006.830611,0.638639,2.135946,-22.74423,-0.033051,0.014694,0.994751,-0.050056,0.007774,-0.005373,60.70018,29.767853,-147.310776,,,
729707006.833137,0.624634,2.137684,121.166339,-0.033051,0.014694,0.994751,-0.052537,0.002052,-0.002308,60.796951,29.747391,-147.252213,,,
729707006.835259,0.624625,2.137651,-22.743848,-0.033051,0.014694,0.994751,-0.052537,0.002052,-0.002308,60.796951,29.747391,-147.252213,,,
729707006.836481,0.609299,2.136623,121.166404,-0.032501,0.009354,0.992004,-0.052537,0.002052,-0.002308,60.796951,29.747391,-147.252213,,,
729707006.837656,0.609289,2.13659,-22.743781,-0.032501,0.009354,0.992004,-0.052537,0.002052,-0.002308,60.796951,29.747391,-147.252213,,,
729707006.83983,0.609299,2.136623,121.166404,-0.032501,0.009354,0.992004,-0.052537,0.002052,-0.002308,60.796951,29.747391,-147.252213,,,
729707006.840606,0.609289,2.13659,-22.743781,-0.032501,0.009354,0.992004,-0.052537,0.002052,-0.002308,60.796951,29.747391,-147.252213,,,
729707006.843156,0.594142,2.135335,121.166445,-0.032501,0.009354,0.992004,-0.053932,-0.013529,-0.002282,60.796951,29.747391,-147.252213,,,
729707006.845453,0.594132,2.135302,-22.743726,-0.032501,0.009354,0.992004,-0.053932,-0.013529,-0.002282,60.796951,29.747391,-147.252213,,,
729707006.846495,0.578039,2.130311,121.166508,-0.033707,0.009811,0.990387,-0.053932,-0.013529,-0.002282,60.796951,29.747391,-147.252213,,,
729707006.847969,0.578029,2.130278,-22.743669,-0.033707,0.009811,0.990387,-0.053932,-0.013529,-0.002282,60.796951,29.747391,-147.252213,,,
729707006.849897,0.578039,2.130311,121.166508,-0.033707,0.009811,0.990387,-0.053932,-0.013529,-0.002282,60.796951,29.747391,-147.252213,,,
729707006.850621,0.578029,2.130278,-22.743669,-0.033707,0.009811,0.990387,-0.053932,-0.013529,-0.002282,60.796951,29.747391,-147.252213,,,
729707006.85314,0.561685,2.126798,121.166173,-0.033707,0.009811,0.990387,-0.058487,-0.020165,-0.005059,60.796951,29.747391,-147.252213,,,
729707006.855006,0.561675,2.126765,-22.744006,-0.033707,0.009811,0.990387,-0.058487,-0.020165,-0.005059,60.796951,29.747391,-147.252213,,,
729707006.856479,0.544135,2.119812,121.165705,-0.033813,0.013107,0.995239,-0.058487,-0.020165,-0.005059,60.796951,29.747391,-147.252213,,,
729707006.858124,0.544125,2.119778,-22.744479,-0.033813,0.013107,0.995239,-0.058487,-0.020165,-0.005059,60.796951,29.747391,-147.252213,,,
729707006.859807,0.544135,2.119812,121.165705,-0.033813,0.013107,0.995239,-0.058487,-0.020165,-0.005059,60.796951,29.747391,-147.252213,,,
729707006.860619,0.544125,2.119778,-22.744479,-0.033813,0.013107,0.995239,-0.058487,-0.020165,-0.005059,60.796951,29.747391,-147.252213,,,
729707006.863131,0.526527,2.113425,121.164746,-0.033813,0.013107,0.995239,-0.063298,-0.027606,-0.008476,60.796951,29.747391,-147.252213,,,
729707006.864982,0.526518,2.113392,-22.74544,-0.033813,0.013107,0.995239,-0.063298,-0.027606,-0.008476,60.796951,29.747391,-147.252213,,,
729707006.866469,0.50757,2.104585,121.163458,-0.030762,0.011597,0.997375,-0.063298,-0.027606,-0.008476,60.796951,29.747391,-147.252213,,,
729707006.867892,0.50756,2.104552,-22.746728,-0.030762,0.011597,0.997375,-0.063298,-0.027606,-0.008476,60.796951,29.747391,-147.252213,,,
729707006.869901,0.50757,2.104585,121.163458,-0.030762,0.011597,0.997375,-0.063298,-0.027606,-0.008476,60.796951,29.747391,-147.252213,,,
729707006.87062,0.50756,2.104552,-22.746728,-0.030762,0.011597,0.997375,-0.063298,-0.027606,-0.008476,60.796951,29.747391,-147.252213,,,
729707006.873211,0.487317,2.096006,121.162014,-0.030762,0.011597,0.997375,-0.078343,-0.030361,-0.01001,60.923798,29.707321,-146.976303,,,
729707006.875195,0.487307,2.095972,-22.748158,-0.030762,0.011597,0.997375,-0.078343,-0.030361,-0.01001,60.923798,29.707321,-146.976303,,,
729707006.876479,0.464032,2.085756,121.160272,-0.033371,0.006165,0.99733,-0.078343,-0.030361,-0.01001,60.923798,29.707321,-146.976303,,,
729707006.877924,0.464022,2.085723,-22.7499,-0.033371,0.006165,0.99733,-0.078343,-0.030361,-0.01001,60.923798,29.707321,-146.976303,,,
729707006.879802,0.464032,2.085756,121.160272,-0.033371,0.006165,0.99733,-0.078343,-0.030361,-0.01001,60.923798,29.707321,-146.976303,,,
729707006.880613,0.464022,2.085723,-22.7499,-0.033371,0.006165,0.99733,-0.078343,-0.030361,-0.01001,60.923798,29.707321,-146.976303,,,
729707006.883139,0.440158,2.074054,121.158418,-0.033371,0.006165,0.99733,-0.089639,-0.041378,-0.011208,60.923798,29.707321,-146.976303,,,
729707006.885012,0.440148,2.074021,-22.751759,-0.033371,0.006165,0.99733,-0.089639,-0.041378,-0.011208,60.923798,29.707321,-146.976303,,,
729707006.886475,0.413271,2.061479,121.156332,-0.03537,0.005432,0.997467,-0.089639,-0.041378,-0.011208,60.923798,29.707321,-146.976303,,,
729707006.888114,0.413261,2.061446,-22.75384,-0.03537,0.005432,0.997467,-0.089639,-0.041378,-0.011208,60.923798,29.707321,-146.976303,,,
729707006.889817,0.413271,2.061479,121.156332,-0.03537,0.005432,0.997467,-0.089639,-0.041378,-0.011208,60.923798,29.707321,-146.976303,,,
729707006.89061,0.413261,2.061446,-22.75384,-0.03537,0.005432,0.997467,-0.089639,-0.041378,-0.011208,60.923798,29.707321,-146.976303,,,
729707006.893152,0.385726,2.048173,121.154265,-0.03537,0.005432,0.997467,-0.103905,-0.043291,-0.011567,60.923798,29.707321,-146.976303,,,
729707006.894968,0.385716,2.048139,-22.755908,-0.03537,0.005432,0.997467,-0.103905,-0.043291,-0.011567,60.923798,29.707321,-146.976303,,,
729707006.896473,0.354014,2.035265,121.152674,-0.031662,0.005951,0.998642,-0.103905,-0.043291,-0.011567,60.923798,29.707321,-146.976303,,,
729707006.8981,0.354004,2.035231,-22.757498,-0.031662,0.005951,0.998642,-0.103905,-0.043291,-0.011567,60.923798,29.707321,-146.976303,,,
729707006.899892,0.354014,2.035265,121.152674,-0.031662,0.005951,0.998642,-0.103905,-0.043291,-0.011567,60.923798,29.707321,-146.976303,,,
729707006.900612,0.354004,2.035231,-22.757498,-0.031662,0.005951,0.998642,-0.103905,-0.043291,-0.011567,60.923798,29.707321,-146.976303,,,
729707006.903137,0.320975,2.022396,121.151326,-0.031662,0.005951,0.998642,-0.123913,-0.04139,-0.010551,60.923798,29.707321,-146.976303,,,
729707006.904861,0.320965,2.022363,-22.758847,-0.031662,0.005951,0.998642,-0.123913,-0.04139,-0.010551,60.923798,29.707321,-146.976303,,,
729707006.906473,0.283703,2.009972,121.15022,-0.028809,0.007584,0.998444,-0.123913,-0.04139,-0.010551,60.923798,29.707321,-146.976303,,,
729707006.907915,0.283693,2.009939,-22.759953,-0.028809,0.007584,0.998444,-0.123913,-0.04139,-0.010551,60.923798,29.707321,-146.976303,,,
729707006.909823,0.283703,2.009972,121.15022,-0.028809,0.007584,0.998444,-0.123913,-0.04139,-0.010551,60.923798,29.707321,-146.976303,,,
729707006.910614,0.283693,2.009939,-22.759953,-0.028809,0.007584,0.998444,-0.123913,-0.04139,-0.010551,60.923798,29.707321,-146.976303,,,
729707006.913129,0.244014,1.998504,121.149378,-0.028809,0.007584,0.998444,-0.149016,-0.03208,-0.009536,60.923798,29.707321,-146.976303,,,
729707006.915595,0.244004,1.99847,-22.760795,-0.028809,0.007584,0.998444,-0.149016,-0.03208,-0.009536,60.65715,30.319748,-147.140732,,,
729707006.916471,0.198809,1.988614,121.149171,-0.03009,0.010086,0.993668,-0.149016,-0.03208,-0.009536,60.65715,30.319748,-147.140732,,,
729707006.918104,0.198799,1.988581,-22.761009,-0.03009,0.010086,0.993668,-0.149016,-0.03208,-0.009536,60.65715,30.319748,-147.140732,,,
729707006.919805,0.198809,1.988614,121.149171,-0.03009,0.010086,0.993668,-0.149016,-0.03208,-0.009536,60.65715,30.319748,-147.140732,,,
729707006.920611,0.198799,1.988581,-22.761009,-0.03009,0.010086,0.993668,-0.149016,-0.03208,-0.009536,60.65715,30.319748,-147.140732,,,
729707006.923131,0.15036,1.979157,121.150038,-0.03009,0.010086,0.993668,-0.178242,-0.02715,-0.003018,60.65715,30.319748,-147.140732,,,
729707006.924962,0.15035,1.979124,-22.760143,-0.03009,0.010086,0.993668,-0.178242,-0.02715,-0.003018,60.65715,30.319748,-147.140732,,,
729707006.926473,0.095948,1.971363,121.151668,-0.02951,0.012131,0.989578,-0.178242,-0.02715,-0.003018,60.65715,30.319748,-147.140732,,,
729707006.927882,0.095939,1.97133,-22.758513,-0.02951,0.012131,0.989578,-0.178242,-0.02715,-0.003018,60.65715,30.319748,-147.140732,,,
729707006.929802,0.095948,1.971363,121.151668,-0.02951,0.012131,0.989578,-0.178242,-0.02715,-0.003018,60.65715,30.319748,-147.140732,,,
729707006.930611,0.095939,1.97133,-22.758513,-0.02951,0.012131,0.989578,-0.178242,-0.02715,-0.003018,60.65715,30.319748,-147.140732,,,
729707006.933133,0.037538,1.965246,121.154033,-0.02951,0.012131,0.989578,-0.218274,-0.015629,0.000864,60.65715,30.319748,-147.140732,,,
729707006.935915,0.037529,1.965213,-22.756142,-0.02951,0.012131,0.989578,-0.218274,-0.015629,0.000864,60.65715,30.319748,-147.140732,,,
729707006.936481,-0.028977,1.961612,121.157758,-0.032669,0.011673,0.981964,-0.218274,-0.015629,0.000864,60.65715,30.319748,-147.140732,,,
729707006.938398,-0.028987,1.961579,-22.75242,-0.032669,0.011673,0.981964,-0.218274,-0.015629,0.000864,60.65715,30.319748,-147.140732,,,
729707006.93989,-0.028977,1.961612,121.157758,-0.032669,0.011673,0.981964,-0.218274,-0.015629,0.000864,60.65715,30.319748,-147.140732,,,
729707006.940607,-0.028987,1.961579,-22.75242,-0.032669,0.011673,0.981964,-0.218274,-0.015629,0.000864,60.65715,30.319748,-147.140732,,,
729707006.943157,-0.100302,1.960539,121.163573,-0.032669,0.011673,0.981964,-0.26833,0.003805,0.013701,60.65715,30.319748,-147.140732,,,
729707006.945786,-0.100312,1.960506,-22.74661,-0.032669,0.011673,0.981964,-0.26833,0.003805,0.013701,60.65715,30.319748,-147.140732,,,
729707006.946489,-0.181363,1.962436,121.172106,-0.033005,0.010452,0.978119,-0.26833,0.003805,0.013701,60.65715,30.319748,-147.140732,,,
729707006.947884,-0.181373,1.962402,-22.73808,-0.033005,0.010452,0.978119,-0.26833,0.003805,0.013701,60.65715,30.319748,-147.140732,,,
729707006.949824,-0.181363,1.962436,121.172106,-0.033005,0.010452,0.978119,-0.26833,0.003805,0.013701,60.65715,30.319748,-147.140732,,,
729707006.950614,-0.181373,1.962402,-22.73808,-0.033005,0.010452,0.978119,-0.26833,0.003805,0.013701,60.65715,30.319748,-147.140732,,,
729707006.953231,-0.268392,1.966225,121.183993,-0.033005,0.010452,0.978119,-0.324257,0.0206,0.035187,60.65715,30.319748,-147.140732,,,
729707006.955471,-0.268402,1.966192,-22.726192,-0.033005,0.010452,0.978119,-0.324257,0.0206,0.035187,60.65715,30.319748,-147.140732,,,
729707006.956481,-0.364191,1.972415,121.200401,-0.036011,0.003387,0.9729,-0.324257,0.0206,0.035187,60.88176,30.731903,-146.988907,,,
729707006.959028,-0.364201,1.972381,-22.709769,-0.036011,0.003387,0.9729,-0.324257,0.0206,0.035187,60.88176,30.731903,-146.988907,,,
729707006.959828,-0.364191,1.972415,121.200401,-0.036011,0.003387,0.9729,-0.324257,0.0206,0.035187,60.88176,30.731903,-146.988907,,,
729707006.960627,-0.364201,1.972381,-22.709769,-0.036011,0.003387,0.9729,-0.324257,0.0206,0.035187,60.88176,30.731903,-146.988907,,,
729707006.963129,-0.462944,1.980602,121.222366,-0.036011,0.003387,0.9729,-0.359156,0.033288,0.072513,60.88176,30.731903,-146.988907,,,
729707006.965359,-0.462954,1.980569,-22.687807,-0.036011,0.003387,0.9729,-0.359156,0.033288,0.072513,60.88176,30.731903,-146.988907,,,
729707006.966469,-0.565112,1.990103,121.249131,-0.042389,-0.009735,0.978226,-0.359156,0.033288,0.072513,60.88176,30.731903,-146.988907,,,
729707006.969464,-0.565122,1.99007,-22.661041,-0.042389,-0.009735,0.978226,-0.359156,0.033288,0.072513,60.88176,30.731903,-146.988907,,,
729707006.969943,-0.565112,1.990103,121.249131,-0.042389,-0.009735,0.978226,-0.359156,0.033288,0.072513,60.88176,30.731903,-146.988907,,,
729707006.970621,-0.565122,1.99007,-22.661041,-0.042389,-0.009735,0.978226,-0.359156,0.033288,0.072513,60.88176,30.731903,-146.988907,,,
729707006.973137,-0.663953,2.001952,121.280074,-0.042389,-0.009735,0.978226,-0.355507,0.050669,0.101568,60.88176,30.731903,-146.988907,,,
729707006.975314,-0.663963,2.001918,-22.63011,-0.042389,-0.009735,0.978226,-0.355507,0.050669,0.101568,60.88176,30.731903,-146.988907,,,
729707006.976466,-0.764871,2.017763,121.314451,-0.04129,-0.020599,0.994278,-0.355507,0.050669,0.101568,60.88176,30.731903,-146.988907,,,
729707006.978538,-0.764881,2.01773,-22.595721,-0.04129,-0.020599,0.994278,-0.355507,0.050669,0.101568,60.88176,30.731903,-146.988907,,,
729707006.979809,-0.764871,2.017763,121.314451,-0.04129,-0.020599,0.994278,-0.355507,0.050669,0.101568,60.88176,30.731903,-146.988907,,,
729707006.980623,-0.764881,2.01773,-22.595721,-0.04129,-0.020599,0.994278,-0.355507,0.050669,0.101568,60.88176,30.731903,-146.988907,,,
729707006.98313,-0.862738,2.036313,121.351397,-0.04129,-0.020599,0.994278,-0.358677,0.076047,0.119287,60.88176,30.731903,-146.988907,,,
729707006.985204,-0.862748,2.03628,-22.558772,-0.04129,-0.020599,0.994278,-0.358677,0.076047,0.119287,60.88176,30.731903,-146.988907,,,
729707006.986503,-0.96602,2.060484,121.390371,-0.041702,-0.021484,0.994659,-0.358677,0.076047,0.119287,60.88176,30.731903,-146.988907,,,
729707006.988245,-0.96603,2.06045,-22.519795,-0.041702,-0.021484,0.994659,-0.358677,0.076047,0.119287,60.88176,30.731903,-146.988907,,,
729707006.989843,-0.96602,2.060484,121.390371,-0.041702,-0.021484,0.994659,-0.358677,0.076047,0.119287,60.88176,30.731903,-146.988907,,,
729707006.99062,-0.96603,2.06045,-22.519795,-0.041702,-0.021484,0.994659,-0.358677,0.076047,0.119287,60.88176,30.731903,-146.988907,,,
729707006.993225,-1.067196,2.088899,121.430906,-0.041702,-0.021484,0.994659,-0.374642,0.114482,0.129395,60.88176,30.731903,-146.988907,,,
729707006.995401,-1.067206,2.088865,-22.479264,-0.041702,-0.021484,0.994659,-0.374642,0.114482,0.129395,60.88176,30.731903,-146.988907,,,
729707006.996502,-1.175476,2.123473,121.472873,-0.043503,-0.015259,0.9991,-0.374642,0.114482,0.129395,61.071854,31.453033,-146.586136,,,
729707006.998902,-1.175486,2.12344,-22.437299,-0.043503,-0.015259,0.9991,-0.374642,0.114482,0.129395,61.071854,31.453033,-146.586136,,,
729707006.99983,-1.175476,2.123473,121.472873,-0.043503,-0.015259,0.9991,-0.374642,0.114482,0.129395,61.071854,31.453033,-146.586136,,,
729707007.000616,-1.175486,2.12344,-22.437299,-0.043503,-0.015259,0.9991,-0.374642,0.114482,0.129395,61.071854,31.453033,-146.586136,,,
729707007.003138,-1.285248,2.162124,121.515978,-0.043503,-0.015259,0.9991,-0.422294,0.153161,0.135227,61.071854,31.453033,-146.586136,,,
729707007.005354,-1.285258,2.162091,-22.394198,-0.043503,-0.015259,0.9991,-0.422294,0.153161,0.135227,61.071854,31.453033,-146.586136,,,
729707007.006471,-1.410807,2.2124,121.560161,-0.038376,-0.013245,0.992966,-0.422294,0.153161,0.135227,61.071854,31.453033,-146.586136,,,
729707007.008476,-1.410817,2.212366,-22.350011,-0.038376,-0.013245,0.992966,-0.422294,0.153161,0.135227,61.071854,31.453033,-146.586136,,,
729707007.009819,-1.410807,2.2124,121.560161,-0.038376,-0.013245,0.992966,-0.422294,0.153161,0.135227,61.071854,31.453033,-146.586136,,,
729707007.010664,-1.410817,2.212366,-22.350011,-0.038376,-0.013245,0.992966,-0.422294,0.153161,0.135227,61.071854,31.453033,-146.586136,,,
729707007.013131,-1.540549,2.270929,121.606069,-0.038376,-0.013245,0.992966,-0.495247,0.219035,0.143858,61.071854,31.453033,-146.586136,,,
729707007.015197,-1.540559,2.270896,-22.304103,-0.038376,-0.013245,0.992966,-0.495247,0.219035,0.143858,61.071854,31.453033,-146.586136,,,
729707007.016509,-1.540549,2.270929,121.606069,-0.038376,-0.013245,0.992966,-0.495247,0.219035,0.143858,61.071854,31.453033,-146.586136,,,
729707007.018297,-1.687227,2.336763,-22.255192,-0.041336,-0.01651,0.986588,-0.495247,0.219035,0.143858,61.071854,31.453033,-146.586136,,,
729707007.019806,-1.687217,2.336797,121.654979,-0.041336,-0.01651,0.986588,-0.495247,0.219035,0.143858,61.071854,31.453033,-146.586136,,,
729707007.020613,-1.687227,2.336763,-22.255192,-0.041336,-0.01651,0.986588,-0.495247,0.219035,0.143858,61.071854,31.453033,-146.586136,,,
729707007.023128,-1.845652,2.406017,121.707387,-0.041336,-0.01651,0.986588,-0.578283,0.240394,0.163559,61.071854,31.453033,-146.586136,,,
729707007.025352,-1.845662,2.405984,-22.202782,-0.041336,-0.01651,0.986588,-0.578283,0.240394,0.163559,61.071854,31.453033,-146.586136,,,
729707007.026474,-2.015807,2.47583,121.763595,-0.047501,-0.022644,0.974258,-0.578283,0.240394,0.163559,61.071854,31.453033,-146.586136,,,
729707007.028493,-2.015818,2.475797,-22.146582,-0.047501,-0.022644,0.974258,-0.578283,0.240394,0.163559,61.071854,31.453033,-146.586136,,,
729707007.029801,-2.015807,2.47583,121.763595,-0.047501,-0.022644,0.974258,-0.578283,0.240394,0.163559,61.071854,31.453033,-146.586136,,,
729707007.030613,-2.015818,2.475797,-22.146582,-0.047501,-0.022644,0.974258,-0.578283,0.240394,0.163559,61.071854,31.453033,-146.586136,,,
729707007.033125,-2.198411,2.546112,121.823004,-0.047501,-0.022644,0.974258,-0.66585,0.241201,0.180496,61.071854,31.453033,-146.586136,,,
729707007.035146,-2.198421,2.546079,-22.087167,-0.047501,-0.022644,0.974258,-0.66585,0.241201,0.180496,61.071854,31.453033,-146.586136,,,
729707007.036495,-2.394236,2.618249,121.885248,-0.053543,-0.022156,0.966797,-0.66585,0.241201,0.180496,61.071854,31.453033,-146.586136,,,
729707007.038676,-2.394247,2.618215,-22.024926,-0.053543,-0.022156,0.966797,-0.66585,0.241201,0.180496,61.552292,32.62735,-146.60817,,,
729707007.039824,-2.394236,2.618249,121.885248,-0.053543,-0.022156,0.966797,-0.66585,0.241201,0.180496,61.552292,32.62735,-146.60817,,,
729707007.04064,-2.394247,2.618215,-22.024926,-0.053543,-0.022156,0.966797,-0.66585,0.241201,0.180496,61.552292,32.62735,-146.60817,,,
729707007.043125,-2.605237,2.692775,121.948783,-0.053543,-0.022156,0.966797,-0.77242,0.255684,0.182805,61.552292,32.62735,-146.60817,,,
729707007.045162,-2.605247,2.692742,-21.961399,-0.053543,-0.022156,0.966797,-0.77242,0.255684,0.182805,61.552292,32.62735,-146.60817,,,
729707007.046471,-2.605237,2.769587,122.011881,-0.046753,-0.019333,0.962585,-0.77242,0.255684,0.182805,61.552292,32.62735,-146.60817,,,
729707007.048289,-2.833445,2.769554,-21.898304,-0.046753,-0.019333,0.962585,-0.77242,0.255684,0.182805,61.552292,32.62735,-146.60817,,,
729707007.049821,-2.833435,2.769587,122.011881,-0.046753,-0.019333,0.962585,-0.77242,0.255684,0.182805,61.552292,32.62735,-146.60817,,,
729707007.050611,-2.833445,2.769554,-21.898304,-0.046753,-0.019333,0.962585,-0.77242,0.255684,0.182805,61.552292,32.62735,-146.60817,,,
729707007.053134,-3.080129,2.849247,122.074094,-0.046753,-0.019333,0.962585,-0.90145,0.273798,0.168208,61.552292,32.62735,-146.60817,,,
729707007.05534,-3.08014,2.849214,-21.836081,-0.046753,-0.019333,0.962585,-0.90145,0.273798,0.168208,61.552292,32.62735,-146.60817,,,
729707007.056561,-3.344888,2.932226,122.135081,-0.041687,-0.021423,0.953278,-0.90145,0.273798,0.168208,61.552292,32.62735,-146.60817,,,
729707007.058659,-3.344899,2.932193,-21.7751,-0.041687,-0.021423,0.953278,-0.90145,0.273798,0.168208,61.552292,32.62735,-146.60817,,,
729707007.059813,-3.344888,2.932226,122.135081,-0.041687,-0.021423,0.953278,-0.90145,0.273798,0.168208,61.552292,32.62735,-146.60817,,,
729707007.06064,-3.344899,2.932193,-21.7751,-0.041687,-0.021423,0.953278,-0.90145,0.273798,0.168208,61.552292,32.62735,-146.60817,,,
729707007.063131,-3.626565,3.018377,122.194876,-0.041687,-0.021423,0.953278,-1.018992,0.29406,0.150926,61.552292,32.62735,-146.60817,,,
729707007.065422,-3.626575,3.018344,-21.715312,-0.041687,-0.021423,0.953278,-1.018992,0.29406,0.150926,61.552292,32.62735,-146.60817,,,
729707007.066508,-3.626565,3.018377,122.194876,-0.041687,-0.021423,0.953278,-1.018992,0.29406,0.150926,61.552292,32.62735,-146.60817,,,
729707007.068354,-3.923823,3.1069,-21.655985,-0.042694,-0.03244,0.94725,-1.018992,0.29406,0.150926,61.552292,32.62735,-146.60817,,,
729707007.069813,-3.923812,3.106933,122.254189,-0.042694,-0.03244,0.94725,-1.018992,0.29406,0.150926,61.552292,32.62735,-146.60817,,,
729707007.070612,-3.923823,3.1069,-21.655985,-0.042694,-0.03244,0.94725,-1.018992,0.29406,0.150926,61.552292,32.62735,-146.60817,,,
729707007.07314,-4.235121,3.197219,122.313401,-0.042694,-0.03244,0.94725,-1.116619,0.303547,0.141323,61.552292,32.62735,-146.60817,,,
729707007.07539,-4.235132,3.197186,-21.596773,-0.042694,-0.03244,0.94725,-1.116619,0.303547,0.141323,61.552292,32.62735,-146.60817,,,
729707007.07648,-4.235121,3.197219,122.313401,-0.042694,-0.03244,0.94725,-1.116619,0.303547,0.141323,61.552292,32.62735,-146.60817,,,
