Time (sec),Pitch (deg),Roll (deg),Yaw(deg),X-Acceleration (g),Y-Acceleration (g),Z-Acceleration (g),Pitch Rate (deg/sec),Roll Rate (deg/sec),Yaw Rate (deg/sec),Magnetic Field in X direction (uT),Magnetic Field in Y direction (uT),Magnetic Field in Z Direction (uT),Latitude (deg),Longitude (deg),Altitude (m)
729706288.358692,-4.125703,-1.37667,165.024298,0.018433,-0.075607,0.992111,-0.013608,0.010657,-0.003246,85.627594,15.766571,-147.552597,,,
729706288.362009,-4.130163,-1.373497,165.023692,0.018433,-0.075607,0.992111,-0.013608,0.010657,-0.003246,85.722733,15.784714,-147.398254,,,
729706288.365351,-4.130163,-1.373497,165.023692,0.018433,-0.075607,0.992111,-0.013608,0.010657,-0.003246,85.722733,15.784714,-147.398254,,,
729706288.368694,-4.134197,-1.372686,165.022276,0.020569,-0.073868,0.994415,-0.011002,0.00522,-0.00821,85.722733,15.784714,-147.398254,,,
729706288.372006,-4.137652,-1.370899,165.020035,0.020569,-0.073868,0.994415,-0.011002,0.00522,-0.00821,85.722733,15.784714,-147.398254,,,
729706288.375412,-4.137652,-1.370899,165.020035,0.020569,-0.073868,0.994415,-0.011002,0.00522,-0.00821,85.722733,15.784714,-147.398254,,,
729706288.37867,-4.139487,-1.37137,165.017103,0.022644,-0.074173,1.000031,-0.001323,0.000734,-0.01246,85.722733,15.784714,-147.398254,,,
729706288.382011,-4.14125,-1.37044,165.013479,0.022644,-0.074173,1.000031,-0.001323,0.000734,-0.01246,85.722733,15.784714,-147.398254,,,
729706288.385352,-4.14125,-1.37044,165.013479,0.022644,-0.074173,1.000031,-0.001323,0.000734,-0.01246,85.722733,15.784714,-147.398254,,,
729706288.388743,-4.140922,-1.370315,165.009281,0.022079,-0.075989,0.999466,0.005902,0.006028,-0.015869,85.722733,15.784714,-147.398254,,,
729706288.392003,-4.140572,-1.36861,165.005308,0.022079,-0.075989,0.999466,0.005902,0.006028,-0.015869,85.722733,15.784714,-147.398254,,,
729706288.395351,-4.140572,-1.36861,165.005308,0.022079,-0.075989,0.999466,0.005902,0.006028,-0.015869,85.722733,15.784714,-147.398254,,,
729706288.398682,-4.139313,-1.367218,165.001253,0.022583,-0.076462,1.001495,0.00388,0.010467,-0.015932,85.722733,15.784714,-147.398254,,,
729706288.40201,-4.138913,-1.364461,164.997056,0.022583,-0.076462,1.001495,0.00388,0.010467,-0.015932,85.799393,15.672806,-147.327606,,,
729706288.405348,-4.138913,-1.364461,164.997056,0.022583,-0.076462,1.001495,0.00388,0.010467,-0.015932,85.799393,15.672806,-147.327606,,,
729706288.408677,-4.136247,-1.36169,164.993141,0.022171,-0.076096,1.001175,0.01223,0.013442,-0.014001,85.799393,15.672806,-147.327606,,,
729706288.412008,-4.133307,-1.358684,164.989966,0.022171,-0.076096,1.001175,0.01223,0.013442,-0.014001,85.799393,15.672806,-147.327606,,,
729706288.415376,-4.133307,-1.358684,164.989966,0.022171,-0.076096,1.001175,0.01223,0.013442,-0.014001,85.799393,15.672806,-147.327606,,,
729706288.418693,-4.128358,-1.35517,164.987474,0.022598,-0.078506,1.000198,0.02081,0.01713,-0.009395,85.799393,15.672806,-147.327606,,,
729706288.422004,-4.122945,-1.351071,164.98522,0.022598,-0.078506,1.000198,0.02081,0.01713,-0.009395,85.799393,15.672806,-147.327606,,,
729706288.425349,-4.122945,-1.351071,164.98522,0.022598,-0.078506,1.000198,0.02081,0.01713,-0.009395,85.799393,15.672806,-147.327606,,,
729706288.42874,-4.117076,-1.347177,164.982856,0.01944,-0.073944,0.999527,0.021351,0.018667,-0.009978,85.799393,15.672806,-147.327606,,,
729706288.432002,-4.111573,-1.342455,164.980245,0.01944,-0.073944,0.999527,0.021351,0.018667,-0.009978,85.799393,15.672806,-147.327606,,,
729706288.435357,-4.111573,-1.342455,164.980245,0.01944,-0.073944,0.999527,0.021351,0.018667,-0.009978,85.799393,15.672806,-147.327606,,,
729706288.438696,-4.105192,-1.339558,164.977401,0.021545,-0.069489,0.991226,0.022252,0.01277,-0.011174,85.799393,15.672806,-147.327606,,,
729706288.442005,-4.100558,-1.336663,164.974321,0.021545,-0.069489,0.991226,0.022252,0.01277,-0.011174,85.561951,15.63266,-147.189316,,,
729706288.445356,-4.100558,-1.336663,164.974321,0.021545,-0.069489,0.991226,0.022252,0.01277,-0.011174,85.561951,15.63266,-147.189316,,,
729706288.448688,-4.097146,-1.334951,164.970626,0.019714,-0.067749,0.984543,0.009455,0.009628,-0.014848,85.561951,15.63266,-147.189316,,,
729706288.452007,-4.095347,-1.332893,164.966513,0.019714,-0.067749,0.984543,0.009455,0.009628,-0.014848,85.561951,15.63266,-147.189316,,,
729706288.455444,-4.095347,-1.332893,164.966513,0.019714,-0.067749,0.984543,0.009455,0.009628,-0.014848,85.561951,15.63266,-147.189316,,,
729706288.458682,-4.094299,-1.331032,164.962499,0.019424,-0.068985,0.984955,0.002877,0.009497,-0.013887,85.561951,15.63266,-147.189316,,,
729706288.462046,-4.094754,-1.329313,164.959078,0.019424,-0.068985,0.984955,0.002877,0.009497,-0.013887,85.561951,15.63266,-147.189316,,,
729706288.465367,-4.094754,-1.329313,164.959078,0.019424,-0.068985,0.984955,0.002877,0.009497,-0.013887,85.561951,15.63266,-147.189316,,,
729706288.468775,-4.095339,-1.327659,164.956312,0.019104,-0.071472,0.988312,-0.003331,0.009618,-0.009093,85.561951,15.63266,-147.189316,,,
729706288.472009,-4.097171,-1.325279,164.953558,0.019104,-0.071472,0.988312,-0.003331,0.009618,-0.009093,85.561951,15.63266,-147.189316,,,
729706288.475364,-4.097171,-1.325279,164.953558,0.019104,-0.071472,0.988312,-0.003331,0.009618,-0.009093,85.561951,15.63266,-147.189316,,,
729706288.478704,-4.097558,-1.322888,164.950463,0.017273,-0.073593,0.98851,0.000542,0.011349,-0.011448,85.561951,15.63266,-147.189316,,,
729706288.482069,-4.098014,-1.3211,164.947682,0.017273,-0.073593,0.98851,0.000542,0.011349,-0.011448,85.566086,15.671448,-147.333771,,,
729706288.485363,-4.098014,-1.3211,164.947682,0.017273,-0.073593,0.98851,0.000542,0.011349,-0.011448,85.566086,15.671448,-147.333771,,,
729706288.488691,-4.097231,-1.320887,164.945197,0.020477,-0.073456,0.986053,0.004142,0.001921,-0.00937,85.566086,15.671448,-147.333771,,,
729706288.492016,-4.097113,-1.321363,164.942327,0.020477,-0.073456,0.986053,0.004142,0.001921,-0.00937,85.566086,15.671448,-147.333771,,,
729706288.495405,-4.097113,-1.321363,164.942327,0.020477,-0.073456,0.986053,0.004142,0.001921,-0.00937,85.566086,15.671448,-147.333771,,,
729706288.498681,-4.096222,-1.322179,164.938283,0.021088,-0.071014,0.985413,0.0029,0.00073,-0.01747,85.566086,15.671448,-147.333771,,,
729706288.502014,-4.097282,-1.322898,164.933553,0.021088,-0.071014,0.985413,0.0029,0.00073,-0.01747,85.566086,15.671448,-147.333771,,,
729706288.505354,-4.097282,-1.322898,164.933553,0.021088,-0.071014,0.985413,0.0029,0.00073,-0.01747,85.566086,15.671448,-147.333771,,,
729706288.508743,-4.098664,-1.32431,164.928755,0.018951,-0.070496,0.983368,-0.007014,-0.00108,-0.017487,85.566086,15.671448,-147.333771,,,
729706288.512008,-4.101442,-1.32559,164.924336,0.018951,-0.070496,0.983368,-0.007014,-0.00108,-0.017487,85.566086,15.671448,-147.333771,,,
729706288.515361,-4.101442,-1.32559,164.924336,0.018951,-0.070496,0.983368,-0.007014,-0.00108,-0.017487,85.566086,15.671448,-147.333771,,,
729706288.518689,-4.105525,-1.327395,164.920351,0.017914,-0.073303,0.979645,-0.016258,-0.002,-0.014051,85.566086,15.671448,-147.333771,,,
729706288.522014,-4.110649,-1.328776,164.916825,0.017914,-0.073303,0.979645,-0.016258,-0.002,-0.014051,85.566086,15.671448,-147.333771,,,
729706288.525346,-4.110649,-1.328776,164.916825,0.017914,-0.073303,0.979645,-0.016258,-0.002,-0.014051,85.604248,15.666794,-147.22731,,,
729706288.528693,-4.116939,-1.329876,164.914343,0.018753,-0.073013,0.982178,-0.021045,0.000707,-0.006599,85.604248,15.666794,-147.22731,,,
729706288.532015,-4.123096,-1.329695,164.912658,0.018753,-0.073013,0.982178,-0.021045,0.000707,-0.006599,85.604248,15.666794,-147.22731,,,
729706288.535359,-4.123096,-1.329695,164.912658,0.018753,-0.073013,0.982178,-0.021045,0.000707,-0.006599,85.604248,15.666794,-147.22731,,,
729706288.538695,-4.130029,-1.328924,164.911351,0.022934,-0.07254,0.985855,-0.022941,0.009042,-0.003606,85.604248,15.666794,-147.22731,,,
729706288.542027,-4.136826,-1.326332,164.910515,0.022934,-0.07254,0.985855,-0.022941,0.009042,-0.003606,85.604248,15.666794,-147.22731,,,
729706288.545444,-4.136826,-1.326332,164.910515,0.022934,-0.07254,0.985855,-0.022941,0.009042,-0.003606,85.604248,15.666794,-147.22731,,,
729706288.548688,-4.144362,-1.323553,164.909386,0.026871,-0.074417,0.990356,-0.027338,0.014184,-0.00529,85.604248,15.666794,-147.22731,,,
729706288.552014,-4.152399,-1.319079,164.907932,0.026871,-0.074417,0.990356,-0.027338,0.014184,-0.00529,85.604248,15.666794,-147.22731,,,
729706288.555389,-4.152399,-1.319079,164.907932,0.026871,-0.074417,0.990356,-0.027338,0.014184,-0.00529,85.604248,15.666794,-147.22731,,,
729706288.558775,-4.160048,-1.315619,164.906288,0.025894,-0.074753,0.989853,-0.026607,0.015079,-0.00607,85.604248,15.666794,-147.22731,,,
729706288.562024,-4.16787,-1.311721,164.904538,0.025894,-0.074753,0.989853,-0.026607,0.015079,-0.00607,85.604248,15.666794,-147.22731,,,
729706288.56537,-4.16787,-1.311721,164.904538,0.025894,-0.074753,0.989853,-0.026607,0.015079,-0.00607,85.602646,15.923325,-147.025299,,,
729706288.568678,-4.175654,-1.30871,164.902687,0.024063,-0.075302,0.990814,-0.027883,0.013734,-0.006368,85.602646,15.923325,-147.025299,,,
729706288.572061,-4.183676,-1.305954,164.900962,0.024063,-0.075302,0.990814,-0.027883,0.013734,-0.006368,85.602646,15.923325,-147.025299,,,
729706288.575363,-4.183676,-1.305954,164.900962,0.024063,-0.075302,0.990814,-0.027883,0.013734,-0.006368,85.602646,15.923325,-147.025299,,,
729706288.578694,-4.191781,-1.304579,164.899475,0.02597,-0.074677,0.992416,-0.028673,0.006773,-0.004494,85.602646,15.923325,-147.025299,,,
729706288.582015,-4.200475,-1.303846,164.898278,0.02597,-0.074677,0.992416,-0.028673,0.006773,-0.004494,85.602646,15.923325,-147.025299,,,
729706288.585162,-4.200475,-1.303846,164.898278,0.02597,-0.074677,0.992416,-0.028673,0.006773,-0.004494,85.602646,15.923325,-147.025299,,,
729706288.588706,-4.210717,-1.303951,164.896956,0.027664,-0.075836,0.991837,-0.036644,0.002705,-0.005056,85.602646,15.923325,-147.025299,,,
729706288.592026,-4.22154,-1.303528,164.895454,0.027664,-0.075836,0.991837,-0.036644,0.002705,-0.005056,85.602646,15.923325,-147.025299,,,
729706288.595372,-4.22154,-1.303528,164.895454,0.027664,-0.075836,0.991837,-0.036644,0.002705,-0.005056,85.602646,15.923325,-147.025299,,,
729706288.598685,-4.232472,-1.304048,164.893305,0.028824,-0.078674,0.996338,-0.037537,0.002848,-0.009056,85.602646,15.923325,-147.025299,,,
729706288.602046,-4.243304,-1.303047,164.891203,0.028824,-0.078674,0.996338,-0.037537,0.002848,-0.009056,85.602646,15.923325,-147.025299,,,
729706288.605347,-4.243304,-1.303047,164.891203,0.028824,-0.078674,0.996338,-0.037537,0.002848,-0.009056,85.718918,15.955383,-147.478088,,,
729706288.608681,-4.253303,-1.30201,164.889251,0.031128,-0.081299,1.003464,-0.03304,0.008521,-0.007714,85.718918,15.955383,-147.478088,,,
729706288.612026,-4.262103,-1.299806,164.887734,0.031128,-0.081299,1.003464,-0.03304,0.008521,-0.007714,85.718918,15.955383,-147.478088,,,
729706288.615356,-4.262103,-1.299806,164.887734,0.031128,-0.081299,1.003464,-0.03304,0.008521,-0.007714,85.718918,15.955383,-147.478088,,,
729706288.618691,-4.270406,-1.296977,164.8868,0.029953,-0.083221,1.005173,-0.027822,0.014973,-0.003613,85.718918,15.955383,-147.478088,,,
729706288.622084,-4.278223,-1.292916,164.885977,0.029953,-0.083221,1.005173,-0.027822,0.014973,-0.003613,85.718918,15.955383,-147.478088,,,
729706288.625337,-4.278223,-1.292916,164.885977,0.029953,-0.083221,1.005173,-0.027822,0.014973,-0.003613,85.718918,15.955383,-147.478088,,,
729706288.628749,-4.285478,-1.287346,164.885552,0.02919,-0.081741,1.005234,-0.023849,0.022358,-0.001157,85.718918,15.955383,-147.478088,,,
729706288.632071,-4.292061,-1.282374,164.885452,0.02919,-0.081741,1.005234,-0.023849,0.022358,-0.001157,85.718918,15.955383,-147.478088,,,
729706288.635397,-4.292061,-1.282374,164.885452,0.02919,-0.081741,1.005234,-0.023849,0.022358,-0.001157,85.718918,15.955383,-147.478088,,,
729706288.638686,-4.297486,-1.275602,164.885436,0.029892,-0.081894,1.007187,-0.016142,0.028072,-0.001311,85.718918,15.955383,-147.478088,,,
729706288.642053,-4.302361,-1.268209,164.88513,0.029892,-0.081894,1.007187,-0.016142,0.028072,-0.001311,85.718918,15.955383,-147.478088,,,
729706288.645386,-4.302361,-1.268209,164.88513,0.029892,-0.081894,1.007187,-0.016142,0.028072,-0.001311,85.718918,15.955383,-147.478088,,,
729706288.648736,-4.30656,-1.259976,164.884682,0.02771,-0.081146,1.007095,-0.012437,0.031063,-0.002619,85.810455,15.862106,-147.345154,,,
729706288.652035,-4.310312,-1.252389,164.884187,0.02771,-0.081146,1.007095,-0.012437,0.031063,-0.002619,85.810455,15.862106,-147.345154,,,
729706288.655343,-4.310312,-1.252389,164.884187,0.02771,-0.081146,1.007095,-0.012437,0.031063,-0.002619,85.810455,15.862106,-147.345154,,,
729706288.658676,-4.313244,-1.245046,164.884074,0.02507,-0.080338,1.001816,-0.008269,0.025358,-0.000352,85.810455,15.862106,-147.345154,,,
729706288.662087,-4.31569,-1.23996,164.883941,0.02507,-0.080338,1.001816,-0.008269,0.025358,-0.000352,85.810455,15.862106,-147.345154,,,
729706288.665352,-4.31569,-1.23996,164.883941,0.02507,-0.080338,1.001816,-0.008269,0.025358,-0.000352,85.810455,15.862106,-147.345154,,,
729706288.668688,-4.317706,-1.234956,164.883509,0.022705,-0.082245,1.003281,-0.005751,0.018561,-0.002919,85.810455,15.862106,-147.345154,,,
729706288.672013,-4.319131,-1.232168,164.882731,0.022705,-0.082245,1.003281,-0.005751,0.018561,-0.002919,85.810455,15.862106,-147.345154,,,
729706288.67541,-4.319131,-1.232168,164.882731,0.022705,-0.082245,1.003281,-0.005751,0.018561,-0.002919,85.810455,15.862106,-147.345154,,,
729706288.678685,-4.318616,-1.229157,164.881562,0.025085,-0.08168,1.003021,0.005327,0.012211,-0.006464,85.810455,15.862106,-147.345154,,,
729706288.682055,-4.317719,-1.228396,164.879798,0.025085,-0.08168,1.003021,0.005327,0.012211,-0.006464,85.810455,15.862106,-147.345154,,,
729706288.68537,-4.317719,-1.228396,164.879798,0.025085,-0.08168,1.003021,0.005327,0.012211,-0.006464,85.810455,15.862106,-147.345154,,,
729706288.68875,-4.315461,-1.225743,164.877855,0.02478,-0.07901,1.003143,0.009536,0.015184,-0.008536,85.664551,15.889282,-147.475922,,,
729706288.692036,-4.313661,-1.224029,164.875368,0.02478,-0.07901,1.003143,0.009536,0.015184,-0.008536,85.664551,15.889282,-147.475922,,,
729706288.695359,-4.313661,-1.224029,164.875368,0.02478,-0.07901,1.003143,0.009536,0.015184,-0.008536,85.664551,15.889282,-147.475922,,,
729706288.69874,-4.310198,-1.220142,164.872977,0.025452,-0.078247,1.003357,0.013537,0.0181,-0.008868,85.664551,15.889282,-147.475922,,,
729706288.702099,-4.308005,-1.217355,164.871534,0.025452,-0.078247,1.003357,0.013537,0.0181,-0.008868,85.664551,15.889282,-147.475922,,,
729706288.705341,-4.308005,-1.217355,164.871534,0.025452,-0.078247,1.003357,0.013537,0.0181,-0.008868,85.664551,15.889282,-147.475922,,,
729706288.708699,-4.304758,-1.213303,164.871974,0.018326,-0.081314,0.999115,0.013103,0.015795,0.003491,85.664551,15.889282,-147.475922,,,
729706288.712055,-4.302049,-1.211004,164.873132,0.018326,-0.081314,0.999115,0.013103,0.015795,0.003491,85.664551,15.889282,-147.475922,,,
729706288.715412,-4.302049,-1.211004,164.873132,0.018326,-0.081314,0.999115,0.013103,0.015795,0.003491,85.664551,15.889282,-147.475922,,,
729706288.718692,-4.298385,-1.206873,164.874468,0.020401,-0.078674,0.998474,0.012875,0.018072,0.003996,85.664551,15.889282,-147.475922,,,
729706288.722013,-4.298385,-1.206873,164.874468,0.020401,-0.078674,0.998474,0.012875,0.018072,0.003996,85.664551,15.889282,-147.475922,,,
729706288.725344,-4.295979,-1.20335,164.875646,0.020401,-0.078674,0.998474,0.012875,0.018072,0.003996,85.664551,15.889282,-147.475922,,,
729706288.728682,-4.292546,-1.198429,164.876451,0.022842,-0.072937,0.996658,0.012832,0.019527,0.000751,85.890442,15.944244,-147.68277,,,
729706288.732057,-4.292546,-1.19466,164.876397,0.022842,-0.072937,0.996658,0.012832,0.019527,0.000751,85.890442,15.944244,-147.68277,,,
729706288.735344,-4.29045,-1.19466,164.876397,0.022842,-0.072937,0.996658,0.012832,0.019527,0.000751,85.890442,15.944244,-147.68277,,,
729706288.738752,-4.288052,-1.189687,164.875682,0.024231,-0.070953,0.991547,0.008085,0.020015,-0.0044,85.890442,15.944244,-147.68277,,,
729706288.742005,-4.288052,-1.189687,164.875682,0.024231,-0.070953,0.991547,0.008085,0.020015,-0.0044,85.890442,15.944244,-147.68277,,,
729706288.745354,-4.287356,-1.185094,164.874771,0.024231,-0.070953,0.991547,0.008085,0.020015,-0.0044,85.890442,15.944244,-147.68277,,,
729706288.748693,-4.286671,-1.179513,164.873406,0.021927,-0.069092,0.987305,4.5e-05,0.024346,-0.007566,85.890442,15.944244,-147.68277,,,
729706288.752117,-4.286671,-1.174525,164.871406,0.021927,-0.069092,0.987305,4.5e-05,0.024346,-0.007566,85.890442,15.944244,-147.68277,,,
729706288.75534,-4.289034,-1.174525,164.871406,0.021927,-0.069092,0.987305,4.5e-05,0.024346,-0.007566,85.890442,15.944244,-147.68277,,,
729706288.758703,-4.29232,-1.168938,164.869634,0.019669,-0.070267,0.985352,-0.014911,0.023953,-0.005999,85.890442,15.944244,-147.68277,,,
729706288.762011,-4.29232,-1.168938,164.869634,0.019669,-0.070267,0.985352,-0.014911,0.023953,-0.005999,85.890442,15.944244,-147.68277,,,
729706288.765423,-4.29843,-1.163454,164.868353,0.019669,-0.070267,0.985352,-0.014911,0.023953,-0.005999,85.890442,15.944244,-147.68277,,,
729706288.76867,-4.304906,-1.156473,164.867247,0.021194,-0.070404,0.98349,-0.023744,0.028606,-0.005044,85.873154,16.115463,-147.323959,,,
729706288.772009,-4.304906,-1.156473,164.867247,0.021194,-0.070404,0.98349,-0.023744,0.028606,-0.005044,85.873154,16.115463,-147.323959,,,
729706288.775362,-4.312684,-1.149823,164.866229,0.021194,-0.070404,0.98349,-0.023744,0.028606,-0.005044,85.873154,16.115463,-147.323959,,,
729706288.77873,-4.320205,-1.14148,164.865159,0.020218,-0.071884,0.988266,-0.02402,0.034368,-0.005869,85.873154,16.115463,-147.323959,,,
729706288.782023,-4.320205,-1.14148,164.865159,0.020218,-0.071884,0.988266,-0.02402,0.034368,-0.005869,85.873154,16.115463,-147.323959,,,
729706288.785351,-4.326907,-1.13307,164.863673,0.020218,-0.071884,0.988266,-0.02402,0.034368,-0.005869,85.873154,16.115463,-147.323959,,,
729706288.788695,-4.331459,-1.123685,164.86268,0.015961,-0.075287,0.994614,-0.014003,0.038417,-0.002847,85.873154,16.115463,-147.323959,,,
729706288.792099,-4.331459,-1.123685,164.86268,0.015961,-0.075287,0.994614,-0.014003,0.038417,-0.002847,85.873154,16.115463,-147.323959,,,
729706288.79534,-4.335812,-1.113718,164.862209,0.015961,-0.075287,0.994614,-0.014003,0.038417,-0.002847,85.873154,16.115463,-147.323959,,,
729706288.798684,-4.338629,-1.105188,164.862212,0.013855,-0.077637,0.992798,-0.009375,0.030108,0.000503,85.873154,16.115463,-147.323959,,,
729706288.802,-4.338629,-1.105188,164.862212,0.013855,-0.077637,0.992798,-0.009375,0.030108,0.000503,85.873154,16.115463,-147.323959,,,
729706288.805417,-4.341316,-1.098896,164.862961,0.013855,-0.077637,0.992798,-0.009375,0.030108,0.000503,85.873154,16.115463,-147.323959,,,
729706288.808673,-4.343622,-1.094601,164.863655,0.014252,-0.078568,0.985519,-0.007106,0.012528,-0.000239,85.873154,16.115463,-147.323959,,,
729706288.812026,-4.343622,-1.094601,164.863655,0.014252,-0.078568,0.985519,-0.007106,0.012528,-0.000239,86.075592,15.639008,-147.404861,,,
729706288.815371,-4.344472,-1.09295,164.864041,0.014252,-0.078568,0.985519,-0.007106,0.012528,-0.000239,86.075592,15.639008,-147.404861,,,
729706288.81868,-4.345174,-1.091269,164.86434,0.015656,-0.074203,0.985641,-0.000872,0.006271,-0.001532,86.075592,15.639008,-147.404861,,,
729706288.82202,-4.345174,-1.091269,164.86434,0.015656,-0.074203,0.985641,-0.000872,0.006271,-0.001532,86.075592,15.639008,-147.404861,,,
729706288.82536,-4.344762,-1.090801,164.863653,0.015656,-0.074203,0.985641,-0.000872,0.006271,-0.001532,86.075592,15.639008,-147.404861,,,
729706288.828682,-4.345876,-1.089638,164.862189,0.019272,-0.071564,0.986679,-0.005601,0.007314,-0.007167,86.075592,15.639008,-147.404861,,,
729706288.832005,-4.345876,-1.089638,164.862189,0.019272,-0.071564,0.986679,-0.005601,0.007314,-0.007167,86.075592,15.639008,-147.404861,,,
729706288.835406,-4.346889,-1.088965,164.860242,0.019272,-0.071564,0.986679,-0.005601,0.007314,-0.007167,86.075592,15.639008,-147.404861,,,
729706288.838671,-4.349677,-1.087457,164.857986,0.020782,-0.073776,0.984116,-0.010525,0.01106,-0.00938,86.075592,15.639008,-147.404861,,,
729706288.842009,-4.349677,-1.087457,164.857986,0.020782,-0.073776,0.984116,-0.010525,0.01106,-0.00938,86.075592,15.639008,-147.404861,,,
729706288.845367,-4.352211,-1.0858,164.85544,0.020782,-0.073776,0.984116,-0.010525,0.01106,-0.00938,86.075592,15.639008,-147.404861,,,
729706288.848672,-4.356219,-1.083553,164.852781,0.019348,-0.075089,0.98439,-0.014616,0.013136,-0.010226,86.075592,15.639008,-147.404861,,,
729706288.852006,-4.356219,-1.083553,164.852781,0.019348,-0.075089,0.98439,-0.014616,0.013136,-0.010226,85.940231,15.912109,-147.288025,,,
729706288.855432,-4.360187,-1.080824,164.850515,0.019348,-0.075089,0.98439,-0.014616,0.013136,-0.010226,85.940231,15.912109,-147.288025,,,
729706288.858671,-4.365511,-1.076422,164.848881,0.016495,-0.07872,0.98616,-0.019407,0.020859,-0.006,85.940231,15.912109,-147.288025,,,
729706288.862005,-4.365511,-1.076422,164.848881,0.016495,-0.07872,0.98616,-0.019407,0.020859,-0.006,85.940231,15.912109,-147.288025,,,
729706288.865367,-4.370779,-1.071218,164.847875,0.016495,-0.07872,0.98616,-0.019407,0.020859,-0.006,85.940231,15.912109,-147.288025,,,
729706288.868695,-4.376605,-1.066391,164.847277,0.014008,-0.077469,0.987701,-0.020443,0.019989,-0.002965,85.940231,15.912109,-147.288025,,,
729706288.872008,-4.376605,-1.066391,164.847277,0.014008,-0.077469,0.987701,-0.020443,0.019989,-0.002965,85.940231,15.912109,-147.288025,,,
729706288.875349,-4.383283,-1.060635,164.84709,0.014008,-0.077469,0.987701,-0.020443,0.019989,-0.002965,85.940231,15.912109,-147.288025,,,
729706288.878679,-4.390683,-1.055606,164.846511,0.01297,-0.075134,0.989273,-0.026986,0.020464,-0.005164,85.940231,15.912109,-147.288025,,,
729706288.882102,-4.390683,-1.055606,164.846511,0.01297,-0.075134,0.989273,-0.026986,0.020464,-0.005164,85.940231,15.912109,-147.288025,,,
729706288.88535,-4.399039,-1.050098,164.845645,0.01297,-0.075134,0.989273,-0.026986,0.020464,-0.005164,85.940231,15.912109,-147.288025,,,
729706288.888679,-4.406485,-1.04522,164.8452,0.010513,-0.076447,0.995834,-0.023944,0.019752,-0.002025,85.940231,15.912109,-147.288025,,,
729706288.892005,-4.406485,-1.04522,164.8452,0.010513,-0.076447,0.995834,-0.023944,0.019752,-0.002025,86.032745,15.911835,-147.21962,,,
729706288.895422,-4.41316,-1.039786,164.844407,0.010513,-0.076447,0.995834,-0.023944,0.019752,-0.002025,86.032745,15.911835,-147.21962,,,
729706288.89867,-4.417684,-1.03532,164.843095,0.009705,-0.079376,1.002457,-0.010743,0.01767,-0.005536,86.032745,15.911835,-147.21962,,,
729706288.902022,-4.417684,-1.03532,164.843095,0.009705,-0.079376,1.002457,-0.010743,0.01767,-0.005536,86.032745,15.911835,-147.21962,,,
729706288.905358,-4.420089,-1.031546,164.842207,0.009705,-0.079376,1.002457,-0.010743,0.01767,-0.005536,86.032745,15.911835,-147.21962,,,
729706288.908681,-4.422363,-1.028387,164.841939,0.009476,-0.082748,1.003174,-0.005322,0.012464,-0.001369,86.032745,15.911835,-147.21962,,,
729706288.912055,-4.422363,-1.028387,164.841939,0.009476,-0.082748,1.003174,-0.005322,0.012464,-0.001369,86.032745,15.911835,-147.21962,,,
729706288.915364,-4.422632,-1.02643,164.842058,0.009476,-0.082748,1.003174,-0.005322,0.012464,-0.001369,86.032745,15.911835,-147.21962,,,
729706288.918682,-4.422643,-1.024943,164.842742,0.006729,-0.081802,1.003647,0.002007,0.006415,0.002215,86.032745,15.911835,-147.21962,,,
729706288.922003,-4.422643,-1.024943,164.842742,0.006729,-0.081802,1.003647,0.002007,0.006415,0.002215,86.032745,15.911835,-147.21962,,,
729706288.925372,-4.421741,-1.02493,164.843684,0.006729,-0.081802,1.003647,0.002007,0.006415,0.002215,86.032745,15.911835,-147.21962,,,
729706288.928677,-4.420678,-1.024878,164.844181,0.007706,-0.077682,1.00238,0.004287,0.00324,-0.001182,86.032745,15.911835,-147.21962,,,
729706288.93201,-4.420678,-1.024878,164.844181,0.007706,-0.077682,1.00238,0.004287,0.00324,-0.001182,86.07695,16.085587,-147.042511,,,
729706288.935421,-4.420226,-1.024663,164.844215,0.007706,-0.077682,1.00238,0.004287,0.00324,-0.001182,86.07695,16.085587,-147.042511,,,
729706288.93868,-4.420411,-1.023696,164.844016,0.0103,-0.073425,1.002136,0.000125,0.008118,-0.002772,86.07695,16.085587,-147.042511,,,
729706288.942026,-4.420411,-1.023696,164.844016,0.0103,-0.073425,1.002136,0.000125,0.008118,-0.002772,86.07695,16.085587,-147.042511,,,
729706288.945357,-4.421852,-1.021245,164.844244,0.0103,-0.073425,1.002136,0.000125,0.008118,-0.002772,86.07695,16.085587,-147.042511,,,
729706288.948679,-4.42327,-1.018549,164.845179,0.009232,-0.073242,1.00145,-0.002867,0.011989,0.002392,86.07695,16.085587,-147.042511,,,
729706288.952024,-4.42327,-1.018549,164.845179,0.009232,-0.073242,1.00145,-0.002867,0.011989,0.002392,86.07695,16.085587,-147.042511,,,
729706288.955344,-4.423992,-1.014786,164.84676,0.009232,-0.073242,1.00145,-0.002867,0.011989,0.002392,86.07695,16.085587,-147.042511,,,
729706288.958678,-4.424141,-1.011391,164.849314,0.007889,-0.080841,1.003662,0.002143,0.013792,0.009435,86.07695,16.085587,-147.042511,,,
729706288.962081,-4.424141,-1.011391,164.849314,0.007889,-0.080841,1.003662,0.002143,0.013792,0.009435,86.07695,16.085587,-147.042511,,,
729706288.965359,-4.423599,-1.006766,164.852668,0.007889,-0.080841,1.003662,0.002143,0.013792,0.009435,86.07695,16.085587,-147.042511,,,
729706288.968774,-4.423114,-1.00306,164.856217,0.012436,-0.077988,1.002853,0.003514,0.014496,0.011334,86.07695,16.085587,-147.042511,,,
729706288.972008,-4.423114,-1.00306,164.856217,0.012436,-0.077988,1.002853,0.003514,0.014496,0.011334,86.07695,16.085587,-147.042511,,,
729706288.975346,-4.421435,-0.998537,164.860105,0.012436,-0.077988,1.002853,0.003514,0.014496,0.011334,85.997986,15.928085,-147.580597,,,
729706288.978699,-4.419329,-0.99654,164.863423,0.014648,-0.074493,0.997742,0.006532,0.006874,0.00805,85.997986,15.928085,-147.580597,,,
729706288.982023,-4.419329,-0.99654,164.863423,0.014648,-0.074493,0.997742,0.006532,0.006874,0.00805,85.997986,15.928085,-147.580597,,,
729706288.985406,-4.418064,-0.995078,164.866689,0.014648,-0.074493,0.997742,0.006532,0.006874,0.00805,85.997986,15.928085,-147.580597,,,
729706288.988669,-4.415505,-0.996835,164.869764,0.011551,-0.07489,0.99353,0.010733,-0.007169,0.007259,85.997986,15.928085,-147.580597,,,
729706288.992023,-4.415505,-0.996835,164.869764,0.011551,-0.07489,0.99353,0.010733,-0.007169,0.007259,85.997986,15.928085,-147.580597,,,
729706288.99535,-4.41332,-0.998449,164.871613,0.011551,-0.07489,0.99353,0.010733,-0.007169,0.007259,85.997986,15.928085,-147.580597,,,
729706288.998676,-4.409561,-1.003514,164.872332,0.014267,-0.072205,0.986313,0.014933,-0.018412,0.000275,85.997986,15.928085,-147.580597,,,
729706289.002025,-4.409561,-1.003514,164.872332,0.014267,-0.072205,0.986313,0.014933,-0.018412,0.000275,85.997986,15.928085,-147.580597,,,
729706289.005341,-4.406593,-1.007991,164.872981,0.014267,-0.072205,0.986313,0.014933,-0.018412,0.000275,85.997986,15.928085,-147.580597,,,
729706289.008678,-4.404182,-1.014541,164.873212,0.017838,-0.070496,0.983658,0.00699,-0.020322,-0.001545,85.997986,15.928085,-147.580597,,,
729706289.01211,-4.404182,-1.014541,164.873212,0.017838,-0.070496,0.983658,0.00699,-0.020322,-0.001545,85.997986,15.928085,-147.580597,,,
729706289.015371,-4.402982,-1.01963,164.873164,0.017838,-0.070496,0.983658,0.00699,-0.020322,-0.001545,86.006866,16.102844,-147.139709,,,
729706289.018683,-4.40448,-1.025405,164.872637,0.023987,-0.069473,0.979797,-0.009662,-0.014437,-0.003778,86.006866,16.102844,-147.139709,,,
729706289.022034,-4.40448,-1.025405,164.872637,0.023987,-0.069473,0.979797,-0.009662,-0.014437,-0.003778,86.006866,16.102844,-147.139709,,,
729706289.025412,-4.407874,-1.028126,164.871918,0.023987,-0.069473,0.979797,-0.009662,-0.014437,-0.003778,86.006866,16.102844,-147.139709,,,
729706289.028674,-4.414342,-1.030467,164.870795,0.025665,-0.067657,0.983749,-0.024764,-0.001376,-0.005527,86.006866,16.102844,-147.139709,,,
729706289.03205,-4.414342,-1.030467,164.870795,0.025665,-0.067657,0.983749,-0.024764,-0.001376,-0.005527,86.006866,16.102844,-147.139709,,,
729706289.035352,-4.421358,-1.02869,164.869823,0.025665,-0.067657,0.983749,-0.024764,-0.001376,-0.005527,86.006866,16.102844,-147.139709,,,
729706289.038674,-4.427304,-1.026534,164.868517,0.027115,-0.072311,0.991562,-0.016792,0.013379,-0.007035,86.006866,16.102844,-147.139709,,,
729706289.042032,-4.427304,-1.026534,164.868517,0.027115,-0.072311,0.991562,-0.016792,0.013379,-0.007035,86.006866,16.102844,-147.139709,,,
729706289.045358,-4.431865,-1.021071,164.86709,0.027115,-0.072311,0.991562,-0.016792,0.013379,-0.007035,86.006866,16.102844,-147.139709,,,
729706289.048676,-4.433835,-1.014728,164.865784,0.02475,-0.077255,0.998108,-0.002039,0.028843,-0.005746,86.006866,16.102844,-147.139709,,,
729706289.052054,-4.433835,-1.014728,164.865784,0.02475,-0.077255,0.998108,-0.002039,0.028843,-0.005746,86.006866,16.102844,-147.139709,,,
729706289.05534,-4.4328,-1.006244,164.864756,0.02475,-0.077255,0.998108,-0.002039,0.028843,-0.005746,86.10788,16.004959,-147.28418,,,
729706289.058674,-4.429776,-0.998021,164.863548,0.0242,-0.07634,1.001755,0.014079,0.03164,-0.006922,86.10788,16.004959,-147.28418,,,
729706289.062023,-4.429776,-0.998021,164.863548,0.0242,-0.07634,1.001755,0.014079,0.03164,-0.006922,86.10788,16.004959,-147.28418,,,
729706289.065417,-4.424966,-0.989464,164.86263,0.0242,-0.07634,1.001755,0.014079,0.03164,-0.006922,86.10788,16.004959,-147.28418,,,
729706289.068677,-4.419617,-0.983375,164.862262,0.02182,-0.074982,0.994827,0.020777,0.019738,-0.002794,86.10788,16.004959,-147.28418,,,
729706289.072024,-4.419617,-0.983375,164.862262,0.02182,-0.074982,0.994827,0.020777,0.019738,-0.002794,86.10788,16.004959,-147.28418,,,
729706289.075364,-4.413989,-0.978798,164.861693,0.02182,-0.074982,0.994827,0.020777,0.019738,-0.002794,86.10788,16.004959,-147.28418,,,
729706289.078684,-4.410391,-0.977555,164.860227,0.019318,-0.069183,0.985184,0.009285,0.003009,-0.008314,86.10788,16.004959,-147.28418,,,
729706289.082035,-4.410391,-0.977555,164.860227,0.019318,-0.069183,0.985184,0.009285,0.003009,-0.008314,86.10788,16.004959,-147.28418,,,
729706289.085387,-4.40802,-0.978286,164.85799,0.019318,-0.069183,0.985184,0.009285,0.003009,-0.008314,86.10788,16.004959,-147.28418,,,
729706289.088722,-4.408761,-0.980715,164.854947,0.019424,-0.06514,0.977356,-0.006714,-0.007545,-0.013614,86.10788,16.004959,-147.28418,,,
729706289.092119,-4.408761,-0.980715,164.854947,0.019424,-0.06514,0.977356,-0.006714,-0.007545,-0.013614,86.10788,16.004959,-147.28418,,,
729706289.095376,-4.411039,-0.986011,164.851521,0.019424,-0.06514,0.977356,-0.006714,-0.007545,-0.013614,85.947632,16.072922,-146.949341,,,
729706289.098679,-4.416474,-0.991823,164.848045,0.018387,-0.067902,0.973862,-0.023131,-0.016873,-0.014091,85.947632,16.072922,-146.949341,,,
729706289.102123,-4.416474,-0.991823,164.848045,0.018387,-0.067902,0.973862,-0.023131,-0.016873,-0.014091,85.947632,16.072922,-146.949341,,,
729706289.105369,-4.422918,-0.998902,164.84391,0.018387,-0.067902,0.973862,-0.023131,-0.016873,-0.014091,85.947632,16.072922,-146.949341,,,
729706289.108685,-4.432855,-1.00315,164.839843,0.022278,-0.067795,0.979324,-0.036965,-0.007418,-0.014155,85.947632,16.072922,-146.949341,,,
729706289.112009,-4.432855,-1.00315,164.839843,0.022278,-0.067795,0.979324,-0.036965,-0.007418,-0.014155,85.947632,16.072922,-146.949341,,,
729706289.115364,-4.442508,-1.007138,164.836063,0.022278,-0.067795,0.979324,-0.036965,-0.007418,-0.014155,85.947632,16.072922,-146.949341,,,
729706289.118683,-4.453283,-1.006706,164.832641,0.023178,-0.071365,0.988571,-0.036255,0.011951,-0.012587,85.947632,16.072922,-146.949341,,,
729706289.122024,-4.453283,-1.006706,164.832641,0.023178,-0.071365,0.988571,-0.036255,0.011951,-0.012587,85.947632,16.072922,-146.949341,,,
729706289.125351,-4.463004,-1.004477,164.829385,0.023178,-0.071365,0.988571,-0.036255,0.011951,-0.012587,85.947632,16.072922,-146.949341,,,
729706289.128759,-4.471844,-0.997758,164.827031,0.02597,-0.076263,0.995209,-0.028451,0.031683,-0.007295,85.947632,16.072922,-146.949341,,,
729706289.132046,-4.471844,-0.997758,164.827031,0.02597,-0.076263,0.995209,-0.028451,0.031683,-0.007295,85.947632,16.072922,-146.949341,,,
729706289.135347,-4.479377,-0.9902,164.825048,0.02597,-0.076263,0.995209,-0.028451,0.031683,-0.007295,85.947632,16.072922,-146.949341,,,
729706289.138685,-4.485548,-0.980824,164.823301,0.024094,-0.080124,0.995804,-0.017104,0.036432,-0.006465,86.285309,16.189941,-147.204453,,,
729706289.142012,-4.485548,-0.980824,164.823301,0.024094,-0.080124,0.995804,-0.017104,0.036432,-0.006465,86.285309,16.189941,-147.204453,,,
729706289.145361,-4.489764,-0.972703,164.821873,0.024094,-0.080124,0.995804,-0.017104,0.036432,-0.006465,86.285309,16.189941,-147.204453,,,
729706289.148677,-4.493004,-0.96487,164.820538,0.020844,-0.080978,0.992722,-0.007586,0.026237,-0.0066,86.285309,16.189941,-147.204453,,,
729706289.15201,-4.493004,-0.96487,164.820538,0.020844,-0.080978,0.992722,-0.007586,0.026237,-0.0066,86.285309,16.189941,-147.204453,,,
729706289.155346,-4.494003,-0.960621,164.818332,0.020844,-0.080978,0.992722,-0.007586,0.026237,-0.0066,86.285309,16.189941,-147.204453,,,
729706289.158675,-4.495092,-0.959253,164.815418,0.020233,-0.079254,0.986801,-0.001491,0.002247,-0.011988,86.285309,16.189941,-147.204453,,,
729706289.16202,-4.495092,-0.959253,164.815418,0.020233,-0.079254,0.986801,-0.001491,0.002247,-0.011988,86.285309,16.189941,-147.204453,,,
729706289.165341,-4.493218,-0.96234,164.81207,0.020233,-0.079254,0.986801,-0.001491,0.002247,-0.011988,86.285309,16.189941,-147.204453,,,
729706289.168675,-4.493091,-0.968718,164.80792,0.017548,-0.082825,0.982437,-0.000379,-0.02325,-0.017786,86.285309,16.189941,-147.204453,,,
729706289.172121,-4.493091,-0.968718,164.80792,0.017548,-0.082825,0.982437,-0.000379,-0.02325,-0.017786,86.285309,16.189941,-147.204453,,,
729706289.175341,-4.491886,-0.978382,164.802831,0.017548,-0.082825,0.982437,-0.000379,-0.02325,-0.017786,86.285309,16.189941,-147.204453,,,
729706289.178693,-4.493228,-0.989238,164.79712,0.020554,-0.083679,0.986847,-0.005334,-0.034042,-0.02222,86.111862,16.176254,-147.081619,,,
729706289.182015,-4.493228,-0.989238,164.79712,0.020554,-0.083679,0.986847,-0.005334,-0.034042,-0.02222,86.111862,16.176254,-147.081619,,,
729706289.185352,-4.493122,-1.000399,164.791106,0.020554,-0.083679,0.986847,-0.005334,-0.034042,-0.02222,86.111862,16.176254,-147.081619,,,
729706289.188676,-4.494627,-1.00979,164.785515,0.020996,-0.085342,0.998993,-0.006629,-0.025617,-0.019511,86.111862,16.176254,-147.081619,,,
729706289.19201,-4.494627,-1.00979,164.785515,0.020996,-0.085342,0.998993,-0.006629,-0.025617,-0.019511,86.111862,16.176254,-147.081619,,,
729706289.195339,-4.494469,-1.017786,164.780594,0.020996,-0.085342,0.998993,-0.006629,-0.025617,-0.019511,86.111862,16.176254,-147.081619,,,
729706289.198631,-4.494831,-1.022128,164.77641,0.019958,-0.087448,1.005127,0.000469,-0.007514,-0.015091,86.111862,16.176254,-147.081619,,,
729706289.202028,-4.494831,-1.022128,164.77641,0.019958,-0.087448,1.005127,0.000469,-0.007514,-0.015091,86.111862,16.176254,-147.081619,,,
729706289.205427,-4.492862,-1.026181,164.772937,0.019958,-0.087448,1.005127,0.000469,-0.007514,-0.015091,86.111862,16.176254,-147.081619,,,
729706289.208672,-4.490197,-1.027615,164.770417,0.02121,-0.089111,1.003464,0.011268,0.000831,-0.009417,86.111862,16.176254,-147.081619,,,
729706289.21203,-4.490197,-1.027615,164.770417,0.02121,-0.089111,1.003464,0.011268,0.000831,-0.009417,86.111862,16.176254,-147.081619,,,
729706289.215385,-4.486146,-1.029584,164.767528,0.02121,-0.089111,1.003464,0.011268,0.000831,-0.009417,86.111862,16.176254,-147.081619,,,
729706289.218677,-4.480345,-1.030259,164.763812,0.021194,-0.084396,0.997406,0.022941,0.001052,-0.016084,86.0784,16.198288,-147.67215,,,
729706289.222021,-4.480345,-1.030259,164.763812,0.021194,-0.084396,0.997406,0.022941,0.001052,-0.016084,86.0784,16.198288,-147.67215,,,
729706289.225373,-4.474293,-1.032567,164.75922,0.021194,-0.084396,0.997406,0.022941,0.001052,-0.016084,86.0784,16.198288,-147.67215,,,
729706289.22868,-4.467577,-1.035414,164.753795,0.021759,-0.082306,0.993454,0.02351,-0.00757,-0.022267,86.0784,16.198288,-147.67215,,,
729706289.232083,-4.467577,-1.035414,164.753795,0.021759,-0.082306,0.993454,0.02351,-0.00757,-0.022267,86.0784,16.198288,-147.67215,,,
729706289.235348,-4.461523,-1.040499,164.747307,0.021759,-0.082306,0.993454,0.02351,-0.00757,-0.022267,86.0784,16.198288,-147.67215,,,
729706289.238676,-4.455598,-1.047107,164.739422,0.014618,-0.084488,0.989456,0.019926,-0.020668,-0.032131,86.0784,16.198288,-147.67215,,,
729706289.242014,-4.455598,-1.047107,164.739422,0.014618,-0.084488,0.989456,0.019926,-0.020668,-0.032131,86.0784,16.198288,-147.67215,,,
729706289.245423,-4.451203,-1.054555,164.730754,0.014618,-0.084488,0.989456,0.019926,-0.020668,-0.032131,86.0784,16.198288,-147.67215,,,
729706289.248671,-4.446458,-1.062063,164.722081,0.01413,-0.083969,0.990555,0.0171,-0.020915,-0.032062,86.0784,16.198288,-147.67215,,,
729706289.252017,-4.446458,-1.062063,164.722081,0.01413,-0.083969,0.990555,0.0171,-0.020915,-0.032062,86.0784,16.198288,-147.67215,,,
729706289.255362,-4.442827,-1.070465,164.713581,0.01413,-0.083969,0.990555,0.0171,-0.020915,-0.032062,86.0784,16.198288,-147.67215,,,
729706289.258681,-4.438489,-1.079125,164.705268,0.01326,-0.087418,0.988235,0.014301,-0.024737,-0.030846,86.0784,16.198288,-147.67215,,,
729706289.262017,-4.438489,-1.079125,164.705268,0.01326,-0.087418,0.988235,0.014301,-0.024737,-0.030846,86.157196,16.142899,-147.486252,,,
729706289.265348,-4.43549,-1.087885,164.697837,0.01326,-0.087418,0.988235,0.014301,-0.024737,-0.030846,86.157196,16.142899,-147.486252,,,
729706289.268698,-4.431148,-1.094968,164.691882,0.012314,-0.088776,0.991714,0.014987,-0.01755,-0.02089,86.157196,16.142899,-147.486252,,,
729706289.272004,-4.431148,-1.094968,164.691882,0.012314,-0.088776,0.991714,0.014987,-0.01755,-0.02089,86.157196,16.142899,-147.486252,,,
729706289.27535,-4.428183,-1.10081,164.686738,0.012314,-0.088776,0.991714,0.014987,-0.01755,-0.02089,86.157196,16.142899,-147.486252,,,
729706289.278683,-4.423788,-1.105524,164.68224,0.009796,-0.08725,0.989243,0.015654,-0.0116,-0.016504,86.157196,16.142899,-147.486252,,,
729706289.282095,-4.423788,-1.105524,164.68224,0.009796,-0.08725,0.989243,0.015654,-0.0116,-0.016504,86.157196,16.142899,-147.486252,,,
729706289.285343,-4.42131,-1.11005,164.677912,0.009796,-0.08725,0.989243,0.015654,-0.0116,-0.016504,86.157196,16.142899,-147.486252,,,
729706289.288673,-4.417306,-1.114109,164.673895,0.009384,-0.084198,0.985901,0.012797,-0.010259,-0.014441,86.157196,16.142899,-147.486252,,,
729706289.292023,-4.417306,-1.114109,164.673895,0.009384,-0.084198,0.985901,0.012797,-0.010259,-0.014441,86.157196,16.142899,-147.486252,,,
729706289.295421,-4.415855,-1.1187,164.67017,0.009384,-0.084198,0.985901,0.012797,-0.010259,-0.014441,86.157196,16.142899,-147.486252,,,
729706289.298669,-4.414121,-1.12361,164.666438,0.007355,-0.084885,0.982025,0.002626,-0.014217,-0.014421,86.157196,16.142899,-147.486252,,,
729706289.302031,-4.414121,-1.12361,164.666438,0.007355,-0.084885,0.982025,0.002626,-0.014217,-0.014421,86.117844,16.267044,-147.374802,,,
729706289.305365,-4.414797,-1.129398,164.662725,0.007355,-0.084885,0.982025,0.002626,-0.014217,-0.014421,86.117844,16.267044,-147.374802,,,
729706289.308674,-4.415105,-1.135135,164.659815,0.003815,-0.084793,0.9776,-0.001201,-0.018653,-0.009121,86.117844,16.267044,-147.374802,,,
729706289.312098,-4.415105,-1.135135,164.659815,0.003815,-0.084793,0.9776,-0.001201,-0.018653,-0.009121,86.117844,16.267044,-147.374802,,,
729706289.315348,-4.416954,-1.141371,164.65781,0.003815,-0.084793,0.9776,-0.001201,-0.018653,-0.009121,86.117844,16.267044,-147.374802,,,
729706289.318676,-4.417931,-1.148268,164.657445,-0.001663,-0.088943,0.979279,-0.004074,-0.02165,0.00253,86.117844,16.267044,-147.374802,,,
729706289.322068,-4.417931,-1.148268,164.657445,-0.001663,-0.088943,0.979279,-0.004074,-0.02165,0.00253,86.117844,16.267044,-147.374802,,,
729706289.325334,-4.420887,-1.154662,164.659033,-0.001663,-0.088943,0.979279,-0.004074,-0.02165,0.00253,86.117844,16.267044,-147.374802,,,
729706289.328674,-4.42251,-1.161931,164.66127,0.002319,-0.087296,0.983398,-0.003886,-0.022192,0.007514,86.117844,16.267044,-147.374802,,,
729706289.332007,-4.42251,-1.161931,164.66127,0.002319,-0.087296,0.983398,-0.003886,-0.022192,0.007514,86.117844,16.267044,-147.374802,,,
729706289.335346,-4.425213,-1.168129,164.66464,0.002319,-0.087296,0.983398,-0.003886,-0.022192,0.007514,86.117844,16.267044,-147.374802,,,
729706289.33867,-4.426702,-1.17597,164.669069,0.002014,-0.086487,0.985901,-0.005149,-0.026539,0.015507,86.117844,16.267044,-147.374802,,,
729706289.342005,-4.426702,-1.17597,164.669069,0.002014,-0.086487,0.985901,-0.005149,-0.026539,0.015507,85.942795,16.15065,-147.633011,,,
729706289.345338,-4.430361,-1.182483,164.67435,0.002014,-0.086487,0.985901,-0.005149,-0.026539,0.015507,85.942795,16.15065,-147.633011,,,
729706289.348672,-4.43225,-1.190191,164.6801,0.001678,-0.084915,0.988907,-0.007035,-0.025291,0.019557,85.942795,16.15065,-147.633011,,,
729706289.352036,-4.43225,-1.190191,164.6801,0.001678,-0.084915,0.988907,-0.007035,-0.025291,0.019557,85.942795,16.15065,-147.633011,,,
729706289.355344,-4.437379,-1.196039,164.686411,0.001678,-0.084915,0.988907,-0.007035,-0.025291,0.019557,85.942795,16.15065,-147.633011,,,
729706289.358679,-4.442035,-1.203855,164.692754,0.004257,-0.080719,0.9888,-0.018235,-0.02633,0.020999,85.942795,16.15065,-147.633011,,,
729706289.362003,-4.442035,-1.203855,164.692754,0.004257,-0.080719,0.9888,-0.018235,-0.02633,0.020999,85.942795,16.15065,-147.633011,,,
729706289.365339,-4.449865,-1.209773,164.699633,0.004257,-0.080719,0.9888,-0.018235,-0.02633,0.020999,85.942795,16.15065,-147.633011,,,
729706289.368671,-4.457612,-1.217224,164.70729,0.008881,-0.082199,0.99057,-0.028264,-0.023978,0.027624,85.942795,16.15065,-147.633011,,,
729706289.372016,-4.457612,-1.217224,164.70729,0.008881,-0.082199,0.99057,-0.028264,-0.023978,0.027624,85.942795,16.15065,-147.633011,,,
729706289.375376,-4.467839,-1.222133,164.716523,0.008881,-0.082199,0.99057,-0.028264,-0.023978,0.027624,85.942795,16.15065,-147.633011,,,
729706289.378669,-4.47751,-1.229213,164.726633,0.006638,-0.087555,0.993622,-0.03332,-0.023729,0.035072,85.942795,16.15065,-147.633011,,,
729706289.382005,-4.47751,-1.229213,164.726633,0.006638,-0.087555,0.993622,-0.03332,-0.023729,0.035072,85.970886,16.175613,-147.59053,,,
729706289.385341,-4.488903,-1.233473,164.738013,0.006638,-0.087555,0.993622,-0.03332,-0.023729,0.035072,85.970886,16.175613,-147.59053,,,
729706289.388672,-4.498617,-1.240071,164.750131,0.011322,-0.089386,0.999191,-0.030632,-0.023069,0.041537,85.970886,16.175613,-147.59053,,,
729706289.392013,-4.498617,-1.240071,164.750131,0.011322,-0.089386,0.999191,-0.030632,-0.023069,0.041537,85.970886,16.175613,-147.59053,,,
729706289.395353,-4.509381,-1.242222,164.763062,0.011322,-0.089386,0.999191,-0.030632,-0.023069,0.041537,85.970886,16.175613,-147.59053,,,
729706289.398674,-4.51742,-1.247155,164.776356,0.018204,-0.090195,1.008896,-0.024798,-0.016047,0.046035,85.970886,16.175613,-147.59053,,,
729706289.402067,-4.51742,-1.247155,164.776356,0.018204,-0.090195,1.008896,-0.024798,-0.016047,0.046035,85.970886,16.175613,-147.59053,,,
729706289.405349,-4.52603,-1.246824,164.790149,0.018204,-0.090195,1.008896,-0.024798,-0.016047,0.046035,85.970886,16.175613,-147.59053,,,
729706289.408673,-4.531686,-1.249663,164.802984,0.023087,-0.085785,1.01358,-0.016892,-0.010385,0.041375,85.970886,16.175613,-147.59053,,,
729706289.412022,-4.531686,-1.249663,164.802984,0.023087,-0.085785,1.01358,-0.016892,-0.010385,0.041375,85.970886,16.175613,-147.59053,,,
729706289.415403,-4.538227,-1.248769,164.815335,0.023087,-0.085785,1.01358,-0.016892,-0.010385,0.041375,85.970886,16.175613,-147.59053,,,
729706289.418666,-4.54207,-1.25147,164.827188,0.025543,-0.083511,1.011063,-0.009393,-0.010828,0.039684,85.970886,16.175613,-147.59053,,,
729706289.422055,-4.54207,-1.25147,164.827188,0.025543,-0.083511,1.011063,-0.009393,-0.010828,0.039684,85.970886,16.175613,-147.59053,,,
729706289.425344,-4.545684,-1.251051,164.839373,0.025543,-0.083511,1.011063,-0.009393,-0.010828,0.039684,85.563126,16.0867,-147.549149,,,
729706289.42867,-4.54736,-1.254372,164.851427,0.02536,-0.084839,1.008789,-0.005208,-0.012628,0.040644,85.563126,16.0867,-147.549149,,,
729706289.432005,-4.54736,-1.254372,164.851427,0.02536,-0.084839,1.008789,-0.005208,-0.012628,0.040644,85.563126,16.0867,-147.549149,,,
729706289.435354,-4.549286,-1.254503,164.864357,0.02536,-0.084839,1.008789,-0.005208,-0.012628,0.040644,85.563126,16.0867,-147.549149,,,
729706289.438672,-4.550486,-1.258395,164.877515,0.029953,-0.08226,1.008148,-0.003936,-0.014982,0.044097,85.563126,16.0867,-147.549149,,,
729706289.442104,-4.550486,-1.258395,164.877515,0.029953,-0.08226,1.008148,-0.003936,-0.014982,0.044097,85.563126,16.0867,-147.549149,,,
729706289.445366,-4.55188,-1.259826,164.890938,0.029953,-0.08226,1.008148,-0.003936,-0.014982,0.044097,85.563126,16.0867,-147.549149,,,
729706289.448699,-4.552483,-1.263969,164.904014,0.031876,-0.084061,1.009781,0.000236,-0.015501,0.043056,85.563126,16.0867,-147.549149,,,
729706289.452024,-4.552483,-1.263969,164.904014,0.031876,-0.084061,1.009781,0.000236,-0.015501,0.043056,85.563126,16.0867,-147.549149,,,
729706289.455412,-4.553495,-1.265557,164.916555,0.031876,-0.084061,1.009781,0.000236,-0.015501,0.043056,85.563126,16.0867,-147.549149,,,
729706289.458698,-4.552395,-1.269698,164.928043,0.037384,-0.084747,1.009384,0.007049,-0.014325,0.037045,85.563126,16.0867,-147.549149,,,
729706289.46206,-4.552395,-1.269698,164.928043,0.037384,-0.084747,1.009384,0.007049,-0.014325,0.037045,85.563126,16.0867,-147.549149,,,
729706289.465359,-4.552057,-1.271088,164.938779,0.037384,-0.084747,1.009384,0.007049,-0.014325,0.037045,85.677155,16.288925,-147.478973,,,
729706289.46868,-4.549507,-1.274241,164.94815,0.04248,-0.082169,1.010147,0.010774,-0.010014,0.028801,85.677155,16.288925,-147.478973,,,
729706289.472036,-4.549507,-1.274241,164.94815,0.04248,-0.082169,1.010147,0.010774,-0.010014,0.028801,85.677155,16.288925,-147.478973,,,
729706289.475346,-4.548281,-1.275793,164.956151,0.04248,-0.082169,1.010147,0.010774,-0.010014,0.028801,85.677155,16.288925,-147.478973,,,
729706289.478752,-4.544126,-1.278246,164.963025,0.043137,-0.079239,1.008408,0.017821,-0.005471,0.021625,85.677155,16.288925,-147.478973,,,
729706289.482053,-4.544126,-1.278246,164.963025,0.043137,-0.079239,1.008408,0.017821,-0.005471,0.021625,85.677155,16.288925,-147.478973,,,
729706289.485339,-4.540613,-1.279664,164.968877,0.043137,-0.079239,1.008408,0.017821,-0.005471,0.021625,85.677155,16.288925,-147.478973,,,
729706289.48869,-4.535688,-1.280611,164.97366,0.03981,-0.077423,1.004486,0.019123,0.000218,0.014287,85.677155,16.288925,-147.478973,,,
729706289.492014,-4.535688,-1.280611,164.97366,0.03981,-0.077423,1.004486,0.019123,0.000218,0.014287,85.677155,16.288925,-147.478973,,,
729706289.49534,-4.53123,-1.280732,164.977813,0.03981,-0.077423,1.004486,0.019123,0.000218,0.014287,85.677155,16.288925,-147.478973,,,
729706289.498667,-4.526296,-1.279891,164.981691,0.035187,-0.078079,1.00206,0.018391,0.005072,0.012227,85.677155,16.288925,-147.478973,,,
729706289.502022,-4.526296,-1.279891,164.981691,0.035187,-0.078079,1.00206,0.018391,0.005072,0.012227,85.677155,16.288925,-147.478973,,,
729706289.505337,-4.521626,-1.27912,164.985822,0.035187,-0.078079,1.00206,0.018391,0.005072,0.012227,85.739532,16.055206,-147.226089,,,
729706289.508685,-4.51561,-1.277812,164.989875,0.030884,-0.079834,1.000519,0.023008,0.005278,0.011313,85.739532,16.055206,-147.226089,,,
729706289.512032,-4.51561,-1.277812,164.989875,0.030884,-0.079834,1.000519,0.023008,0.005278,0.011313,85.739532,16.055206,-147.226089,,,
729706289.515336,-4.509316,-1.278222,164.994014,0.030884,-0.079834,1.000519,0.023008,0.005278,0.011313,85.739532,16.055206,-147.226089,,,
729706289.518695,-4.500874,-1.278521,164.998826,0.026489,-0.079697,0.996567,0.032689,-0.001317,0.01522,85.739532,16.055206,-147.226089,,,
729706289.522068,-4.500874,-1.278521,164.998826,0.026489,-0.079697,0.996567,0.032689,-0.001317,0.01522,85.739532,16.055206,-147.226089,,,
729706289.525334,-4.491709,-1.280728,165.003418,0.026489,-0.079697,0.996567,0.032689,-0.001317,0.01522,85.739532,16.055206,-147.226089,,,
729706289.52872,-4.491709,-1.281532,165.007975,0.026489,-0.079697,0.996567,0.038428,-0.002645,0.013965,85.739532,16.055206,-147.226089,,,
729706289.532041,-4.481124,-1.281532,165.007975,0.023315,-0.07695,0.996964,0.038428,-0.002645,0.013965,85.739532,16.055206,-147.226089,,,
729706289.535341,-4.471256,-1.284732,165.012221,0.023315,-0.07695,0.996964,0.038428,-0.002645,0.013965,85.739532,16.055206,-147.226089,,,
729706289.538701,-4.471256,-1.284732,165.016033,0.023315,-0.07695,0.996964,0.038765,-0.004078,0.009818,85.739532,16.055206,-147.226089,,,
729706289.542029,-4.460302,-1.286136,165.016033,0.021683,-0.072189,0.996246,0.038765,-0.004078,0.009818,85.739532,16.055206,-147.226089,,,
729706289.545342,-4.450494,-1.292177,165.019212,0.021683,-0.072189,0.996246,0.038765,-0.004078,0.009818,85.693893,16.000259,-147.725571,,,
729706289.548729,-4.450494,-1.297096,165.022601,0.021683,-0.072189,0.996246,0.031953,-0.018508,0.009674,85.693893,16.000259,-147.725571,,,
729706289.552043,-4.440727,-1.297096,165.022601,0.019913,-0.068436,0.984848,0.031953,-0.018508,0.009674,85.693893,16.000259,-147.725571,,,
729706289.555337,-4.43339,-1.307567,165.025597,0.019913,-0.068436,0.984848,0.031953,-0.018508,0.009674,85.693893,16.000259,-147.725571,,,
729706289.558692,-4.43339,-1.307567,165.025597,0.019913,-0.068436,0.984848,0.031953,-0.018508,0.009674,85.693893,16.000259,-147.725571,,,
729706289.562069,-4.427839,-1.315089,165.028397,0.022446,-0.06311,0.977615,0.016906,-0.023119,0.00667,85.693893,16.000259,-147.725571,,,
729706289.565329,-4.425329,-1.325442,165.029922,0.022446,-0.06311,0.977615,0.016906,-0.023119,0.00667,85.693893,16.000259,-147.725571,,,
729706289.568733,-4.425329,-1.325442,165.029922,0.022446,-0.06311,0.977615,0.016906,-0.023119,0.00667,85.693893,16.000259,-147.725571,,,
729706289.572019,-4.426841,-1.331491,165.030863,0.027649,-0.057892,0.975555,-0.01158,-0.015676,0.001434,85.693893,16.000259,-147.725571,,,
729706289.575339,-4.432363,-1.338235,165.030895,0.027649,-0.057892,0.975555,-0.01158,-0.015676,0.001434,85.693893,16.000259,-147.725571,,,
729706289.578726,-4.432363,-1.338235,165.030895,0.027649,-0.057892,0.975555,-0.01158,-0.015676,0.001434,85.693893,16.000259,-147.725571,,,
729706289.582014,-4.441439,-1.339918,165.030901,0.028015,-0.058914,0.976166,-0.036349,0.0022,0.00048,85.693893,16.000259,-147.725571,,,
729706289.585157,-4.453572,-1.340273,165.031324,0.028015,-0.058914,0.976166,-0.036349,0.0022,0.00048,85.693893,16.000259,-147.725571,,,
729706289.588753,-4.453572,-1.335685,165.032474,0.028015,-0.058914,0.976166,-0.045812,0.024634,0.004853,85.923401,15.943649,-147.437637,,,
729706289.591998,-4.466796,-1.335685,165.032474,0.027802,-0.067169,0.985123,-0.045812,0.024634,0.004853,85.923401,15.943649,-147.437637,,,
729706289.595342,-4.480489,-1.328205,165.034049,0.027802,-0.067169,0.985123,-0.045812,0.024634,0.004853,85.923401,15.943649,-147.437637,,,
729706289.598743,-4.480489,-1.328205,165.034049,0.027802,-0.067169,0.985123,-0.045812,0.024634,0.004853,85.923401,15.943649,-147.437637,,,
729706289.602095,-4.493304,-1.315645,165.035914,0.029419,-0.076385,1.002884,-0.04185,0.052674,0.006179,85.923401,15.943649,-147.437637,,,
729706289.605343,-4.504697,-1.300093,165.038626,0.029419,-0.076385,1.002884,-0.04185,0.052674,0.006179,85.923401,15.943649,-147.437637,,,
729706289.608752,-4.504697,-1.300093,165.038626,0.029419,-0.076385,1.002884,-0.04185,0.052674,0.006179,85.923401,15.943649,-147.437637,,,
729706289.611999,-4.514156,-1.282216,165.041609,0.029221,-0.078613,1.011734,-0.028082,0.06627,0.007521,85.923401,15.943649,-147.437637,,,
729706289.615348,-4.520417,-1.264035,165.044003,0.029221,-0.078613,1.011734,-0.028082,0.06627,0.007521,85.923401,15.943649,-147.437637,,,
729706289.618723,-4.520417,-1.264035,165.044003,0.029221,-0.078613,1.011734,-0.028082,0.06627,0.007521,85.923401,15.943649,-147.437637,,,
729706289.622006,-4.524969,-1.247269,165.046056,0.025879,-0.0784,1.013397,-0.011593,0.056595,0.004777,85.923401,15.943649,-147.437637,,,
729706289.625344,-4.525765,-1.233948,165.047438,0.025879,-0.0784,1.013397,-0.011593,0.056595,0.004777,85.923401,15.943649,-147.437637,,,
729706289.628706,-4.525765,-1.233948,165.047438,0.025879,-0.0784,1.013397,-0.011593,0.056595,0.004777,85.764954,16.015335,-147.562012,,,
729706289.632025,-4.526074,-1.224739,165.047536,0.020966,-0.077927,1.006882,0.00249,0.029436,-0.004393,85.764954,16.015335,-147.562012,,,
729706289.635357,-4.52269,-1.219467,165.04591,0.020966,-0.077927,1.006882,0.00249,0.029436,-0.004393,85.764954,16.015335,-147.562012,,,
729706289.638809,-4.52269,-1.219467,165.04591,0.020966,-0.077927,1.006882,0.00249,0.029436,-0.004393,85.764954,16.015335,-147.562012,,,
729706289.642008,-4.519782,-1.219189,165.042299,0.019348,-0.077087,1.00119,0.013236,-0.002264,-0.018242,85.764954,16.015335,-147.562012,,,
729706289.645342,-4.512593,-1.224216,165.037039,0.019348,-0.077087,1.00119,0.013236,-0.002264,-0.018242,85.764954,16.015335,-147.562012,,,
729706289.648732,-4.512593,-1.224216,165.037039,0.019348,-0.077087,1.00119,0.013236,-0.002264,-0.018242,85.764954,16.015335,-147.562012,,,
729706289.652059,-4.507846,-1.232196,165.031423,0.017105,-0.073669,0.998001,0.017323,-0.029553,-0.021359,85.764954,16.015335,-147.562012,,,
729706289.655438,-4.499228,-1.244787,165.025568,0.017105,-0.073669,0.998001,0.017323,-0.029553,-0.021359,85.764954,16.015335,-147.562012,,,
729706289.658673,-4.499228,-1.244787,165.025568,0.017105,-0.073669,0.998001,0.017323,-0.029553,-0.021359,85.764954,16.015335,-147.562012,,,
729706289.662029,-4.493717,-1.257824,165.019898,0.019882,-0.075699,0.997543,0.019753,-0.04266,-0.020881,85.764954,16.015335,-147.562012,,,
729706289.665339,-4.485406,-1.272121,165.014735,0.019882,-0.075699,0.997543,0.019753,-0.04266,-0.020881,85.764954,16.015335,-147.562012,,,
729706289.66868,-4.485406,-1.272121,165.014735,0.019882,-0.075699,0.997543,0.019753,-0.04266,-0.020881,85.675507,16.034424,-147.467407,,,
729706289.672017,-4.479003,-1.283242,165.010497,0.024002,-0.07782,0.999557,0.02404,-0.029467,-0.015169,85.675507,16.034424,-147.467407,,,
729706289.675335,-4.47089,-1.29213,165.007177,0.024002,-0.07782,0.999557,0.02404,-0.029467,-0.015169,85.675507,16.034424,-147.467407,,,
729706289.678736,-4.47089,-1.29213,165.007177,0.024002,-0.07782,0.999557,0.02404,-0.029467,-0.015169,85.675507,16.034424,-147.467407,,,
729706289.682025,-4.463738,-1.296322,165.004948,0.023468,-0.075882,1.002594,0.024445,-0.004382,-0.008166,85.675507,16.034424,-147.467407,,,
729706289.685339,-4.456584,-1.29811,165.003479,0.023468,-0.075882,1.002594,0.024445,-0.004382,-0.008166,85.675507,16.034424,-147.467407,,,
729706289.688698,-4.456584,-1.29811,165.003479,0.023468,-0.075882,1.002594,0.024445,-0.004382,-0.008166,85.675507,16.034424,-147.467407,,,
729706289.692065,-4.450078,-1.295253,165.002618,0.026215,-0.073471,0.999298,0.021331,0.019145,-0.004546,85.675507,16.034424,-147.467407,,,
729706289.695335,-4.444088,-1.290315,165.001764,0.026215,-0.073471,0.999298,0.021331,0.019145,-0.004546,85.675507,16.034424,-147.467407,,,
729706289.698686,-4.444088,-1.290315,165.001764,0.026215,-0.073471,0.999298,0.021331,0.019145,-0.004546,85.675507,16.034424,-147.467407,,,
729706289.702027,-4.438461,-1.283101,165.000912,0.027893,-0.074203,0.997589,0.01906,0.029053,-0.004953,85.675507,16.034424,-147.467407,,,
729706289.705339,-4.432628,-1.275378,165.000585,0.027893,-0.074203,0.997589,0.01906,0.029053,-0.004953,85.675507,16.034424,-147.467407,,,
729706289.708627,-4.432628,-1.275378,165.000585,0.027893,-0.074203,0.997589,0.01906,0.029053,-0.004953,85.675507,16.034424,-147.467407,,,
729706289.712031,-4.426337,-1.267595,165.000852,0.02298,-0.076294,0.994919,0.022917,0.028165,-0.00097,85.858185,15.889679,-147.630539,,,
729706289.715332,-4.420005,-1.261544,165.00125,0.02298,-0.076294,0.994919,0.022917,0.028165,-0.00097,85.858185,15.889679,-147.630539,,,
729706289.71876,-4.420005,-1.261544,165.00125,0.02298,-0.076294,0.994919,0.022917,0.028165,-0.00097,85.858185,15.889679,-147.630539,,,
729706289.721998,-4.414009,-1.259057,165.001693,0.015884,-0.078476,0.988358,0.020954,0.004831,-0.000514,85.858185,15.889679,-147.630539,,,
729706289.725347,-4.407531,-1.259307,165.002227,0.015884,-0.078476,0.988358,0.020954,0.004831,-0.000514,85.858185,15.889679,-147.630539,,,
729706289.728696,-4.407531,-1.259307,165.002227,0.015884,-0.078476,0.988358,0.020954,0.004831,-0.000514,85.858185,15.889679,-147.630539,,,
729706289.73207,-4.400958,-1.263351,165.002801,0.014526,-0.075485,0.988007,0.024431,-0.015824,0.00013,85.858185,15.889679,-147.630539,,,
729706289.735362,-4.393108,-1.269599,165.003355,0.014526,-0.075485,0.988007,0.024431,-0.015824,0.00013,85.858185,15.889679,-147.630539,,,
729706289.738699,-4.393108,-1.269599,165.003355,0.014526,-0.075485,0.988007,0.024431,-0.015824,0.00013,85.858185,15.889679,-147.630539,,,
729706289.742107,-4.384862,-1.278928,165.003398,0.015991,-0.073013,0.989944,0.030345,-0.032281,-0.00317,85.858185,15.889679,-147.630539,,,
729706289.745337,-4.376383,-1.289024,165.002942,0.015991,-0.073013,0.989944,0.030345,-0.032281,-0.00317,85.858185,15.889679,-147.630539,,,
729706289.748706,-4.376383,-1.289024,165.002942,0.015991,-0.073013,0.989944,0.030345,-0.032281,-0.00317,85.858185,15.889679,-147.630539,,,
729706289.752031,-4.367436,-1.298793,165.002376,0.018692,-0.074921,0.994293,0.032188,-0.029471,-0.003933,85.601776,15.923294,-147.469528,,,
729706289.755346,-4.357994,-1.307771,165.001855,0.018692,-0.074921,0.994293,0.032188,-0.029471,-0.003933,85.601776,15.923294,-147.469528,,,
729706289.758695,-4.357994,-1.307771,165.001855,0.018692,-0.074921,0.994293,0.032188,-0.029471,-0.003933,85.601776,15.923294,-147.469528,,,
729706289.762027,-4.347478,-1.314568,165.001724,0.022766,-0.073181,0.99707,0.039336,-0.016537,-0.001553,85.601776,15.923294,-147.469528,,,
729706289.765347,-4.336117,-1.319183,165.001625,0.022766,-0.073181,0.99707,0.039336,-0.016537,-0.001553,85.601776,15.923294,-147.469528,,,
729706289.768746,-4.336117,-1.319183,165.001625,0.022766,-0.073181,0.99707,0.039336,-0.016537,-0.001553,85.601776,15.923294,-147.469528,,,
729706289.772011,-4.32526,-1.321105,165.001229,0.030838,-0.072281,0.997238,0.037642,0.001161,-0.003689,85.601776,15.923294,-147.469528,,,
729706289.77535,-4.31461,-1.321544,165.000314,0.030838,-0.072281,0.997238,0.037642,0.001161,-0.003689,85.601776,15.923294,-147.469528,,,
729706289.778676,-4.31461,-1.321544,165.000314,0.030838,-0.072281,0.997238,0.037642,0.001161,-0.003689,85.601776,15.923294,-147.469528,,,
729706289.782089,-4.305732,-1.319145,164.999027,0.032761,-0.070526,0.995026,0.027827,0.01499,-0.006499,85.601776,15.923294,-147.469528,,,
729706289.785336,-4.298679,-1.315688,164.997633,0.032761,-0.070526,0.995026,0.027827,0.01499,-0.006499,85.601776,15.923294,-147.469528,,,
729706289.7887,-4.298679,-1.315688,164.997633,0.032761,-0.070526,0.995026,0.027827,0.01499,-0.006499,85.601776,15.923294,-147.469528,,,
729706289.792031,-4.293106,-1.311248,164.996643,0.026474,-0.073074,0.990051,0.017529,0.018308,-0.003681,85.554626,16.084442,-147.383743,,,
729706289.795344,-4.289474,-1.306387,164.996286,0.026474,-0.073074,0.990051,0.017529,0.018308,-0.003681,85.554626,16.084442,-147.383743,,,
