Time (sec),Pitch (deg),Roll (deg),Yaw(deg),X-Acceleration (g),Y-Acceleration (g),Z-Acceleration (g),Pitch Rate (deg/sec),Roll Rate (deg/sec),Yaw Rate (deg/sec),Magnetic Field in X direction (uT),Magnetic Field in Y direction (uT),Magnetic Field in Z Direction (uT),Latitude (deg),Longitude (deg),Altitude (m)
729706964.670681,0.024244,2.510771,-22.369891,-0.034744,0.002106,1.003799,-0.010442,0.001526,-0.015846,61.548019,30.781189,-146.631302,,,
729706964.673228,0.020852,2.508586,121.534769,-0.034744,0.002106,1.003799,-0.010563,-0.007561,-0.022302,61.548019,30.781189,-146.631302,,,
729706964.675482,0.020842,2.508553,-22.375401,-0.034744,0.002106,1.003799,-0.010563,-0.007561,-0.022302,61.548019,30.781189,-146.631302,,,
729706964.676624,0.017378,2.505166,121.529111,-0.036697,0.001999,1.000565,-0.010563,-0.007561,-0.022302,61.548019,30.781189,-146.631302,,,
729706964.677634,0.017368,2.505132,-22.381061,-0.036697,0.001999,1.000565,-0.010563,-0.007561,-0.022302,61.548019,30.781189,-146.631302,,,
729706964.679893,0.017378,2.505166,121.529111,-0.036697,0.001999,1.000565,-0.010563,-0.007561,-0.022302,61.548019,30.781189,-146.631302,,,
729706964.680682,0.017368,2.505132,-22.381061,-0.036697,0.001999,1.000565,-0.010563,-0.007561,-0.022302,61.548019,30.781189,-146.631302,,,
729706964.683238,0.014162,2.501937,121.523593,-0.036697,0.001999,1.000565,-0.010152,-0.009549,-0.021327,61.548019,30.781189,-146.631302,,,
729706964.684937,0.014152,2.501904,-22.386579,-0.036697,0.001999,1.000565,-0.010152,-0.009549,-0.021327,61.548019,30.781189,-146.631302,,,
729706964.686544,0.01049,2.498439,121.517968,-0.038605,-0.000488,0.998688,-0.010152,-0.009549,-0.021327,61.548019,30.781189,-146.631302,,,
729706964.688572,0.01048,2.498406,-22.392203,-0.038605,-0.000488,0.998688,-0.010152,-0.009549,-0.021327,61.548019,30.781189,-146.631302,,,
729706964.689968,0.01049,2.498439,121.517968,-0.038605,-0.000488,0.998688,-0.010152,-0.009549,-0.021327,61.548019,30.781189,-146.631302,,,
729706964.690684,0.01048,2.498406,-22.392203,-0.038605,-0.000488,0.998688,-0.010152,-0.009549,-0.021327,61.548019,30.781189,-146.631302,,,
729706964.693213,0.006553,2.49633,121.512427,-0.038605,-0.000488,0.998688,-0.009832,-0.008434,-0.020681,61.548019,30.781189,-146.631302,,,
729706964.694315,0.006543,2.496297,-22.397745,-0.038605,-0.000488,0.998688,-0.009832,-0.008434,-0.020681,61.548019,30.781189,-146.631302,,,
729706964.69661,0.002922,2.493338,121.506871,-0.038559,-0.003296,0.994598,-0.009832,-0.008434,-0.020681,61.548019,30.781189,-146.631302,,,
729706964.698212,0.002912,2.493305,-22.403305,-0.038559,-0.003296,0.994598,-0.009832,-0.008434,-0.020681,61.548019,30.781189,-146.631302,,,
729706964.699956,0.002922,2.493338,121.506871,-0.038559,-0.003296,0.994598,-0.009832,-0.008434,-0.020681,61.548019,30.781189,-146.631302,,,
729706964.700684,0.002912,2.493305,-22.403305,-0.038559,-0.003296,0.994598,-0.009832,-0.008434,-0.020681,61.548019,30.781189,-146.631302,,,
729706964.703208,-0.00259,2.491648,121.500993,-0.038559,-0.003296,0.994598,-0.016721,-0.005017,-0.023204,61.548019,30.781189,-146.631302,,,
729706964.704845,-0.0026,2.491615,-22.409175,-0.038559,-0.003296,0.994598,-0.016721,-0.005017,-0.023204,61.548019,30.781189,-146.631302,,,
729706964.706608,-0.00873,2.489801,121.495011,-0.037613,-0.000793,0.994049,-0.016721,-0.005017,-0.023204,61.548019,30.781189,-146.631302,,,
729706964.708042,-0.00874,2.489768,-22.415156,-0.037613,-0.000793,0.994049,-0.016721,-0.005017,-0.023204,61.548019,30.781189,-146.631302,,,
729706964.709884,-0.00873,2.489801,121.495011,-0.037613,-0.000793,0.994049,-0.016721,-0.005017,-0.023204,61.570953,30.787491,-146.460312,,,
729706964.711417,-0.00874,2.489768,-22.415156,-0.037613,-0.000793,0.994049,-0.016721,-0.005017,-0.023204,61.570953,30.787491,-146.460312,,,
729706964.713238,-0.016987,2.489416,121.488997,-0.037613,-0.000793,0.994049,-0.025689,-0.00086,-0.023893,61.570953,30.787491,-146.460312,,,
729706964.714822,-0.016997,2.489382,-22.421187,-0.037613,-0.000793,0.994049,-0.025689,-0.00086,-0.023893,61.570953,30.787491,-146.460312,,,
729706964.716636,-0.025831,2.488326,121.483335,-0.041718,0.003204,0.993942,-0.025689,-0.00086,-0.023893,61.570953,30.787491,-146.460312,,,
729706964.719194,-0.025841,2.488293,-22.42685,-0.041718,0.003204,0.993942,-0.025689,-0.00086,-0.023893,61.570953,30.787491,-146.460312,,,
729706964.719942,-0.025831,2.488326,121.483335,-0.041718,0.003204,0.993942,-0.025689,-0.00086,-0.023893,61.570953,30.787491,-146.460312,,,
729706964.720701,-0.025841,2.488293,-22.42685,-0.041718,0.003204,0.993942,-0.025689,-0.00086,-0.023893,61.570953,30.787491,-146.460312,,,
729706964.723209,-0.03616,2.486458,121.478409,-0.041718,0.003204,0.993942,-0.036563,-0.00626,-0.019167,61.570953,30.787491,-146.460312,,,
729706964.724839,-0.03617,2.486425,-22.431777,-0.041718,0.003204,0.993942,-0.036563,-0.00626,-0.019167,61.570953,30.787491,-146.460312,,,
729706964.726632,-0.04802,2.483182,121.474391,-0.043854,0.002197,0.989746,-0.036563,-0.00626,-0.019167,61.570953,30.787491,-146.460312,,,
729706964.728191,-0.04803,2.483149,-22.435794,-0.043854,0.002197,0.989746,-0.036563,-0.00626,-0.019167,61.570953,30.787491,-146.460312,,,
729706964.729897,-0.04802,2.483182,121.474391,-0.043854,0.002197,0.989746,-0.036563,-0.00626,-0.019167,61.570953,30.787491,-146.460312,,,
729706964.73068,-0.04803,2.483149,-22.435794,-0.043854,0.002197,0.989746,-0.036563,-0.00626,-0.019167,61.570953,30.787491,-146.460312,,,
729706964.733209,-0.060668,2.477174,121.470757,-0.043854,0.002197,0.989746,-0.046701,-0.017388,-0.01682,61.570953,30.787491,-146.460312,,,
729706964.734908,-0.060678,2.477141,-22.439415,-0.043854,0.002197,0.989746,-0.046701,-0.017388,-0.01682,61.570953,30.787491,-146.460312,,,
729706964.736537,-0.060668,2.477174,121.46707,-0.043854,0.002197,0.989746,-0.046701,-0.017388,-0.01682,61.570953,30.787491,-146.460312,,,
729706964.737992,-0.075077,2.470221,-22.4431,-0.044632,0.000809,0.988464,-0.046701,-0.017388,-0.01682,61.570953,30.787491,-146.460312,,,
729706964.739945,-0.075067,2.470254,121.46707,-0.044632,0.000809,0.988464,-0.046701,-0.017388,-0.01682,61.570953,30.787491,-146.460312,,,
729706964.740672,-0.075077,2.470221,-22.4431,-0.044632,0.000809,0.988464,-0.046701,-0.017388,-0.01682,61.570953,30.787491,-146.460312,,,
729706964.743196,-0.09015,2.459914,121.463055,-0.044632,0.000809,0.988464,-0.05607,-0.030709,-0.019471,61.570953,30.787491,-146.460312,,,
729706964.745308,-0.09016,2.459881,-22.447114,-0.044632,0.000809,0.988464,-0.05607,-0.030709,-0.019471,61.570953,30.787491,-146.460312,,,
729706964.746603,-0.107035,2.449211,121.458308,-0.044632,0.000809,0.988464,-0.05607,-0.030709,-0.019471,61.570953,30.787491,-146.460312,,,
729706964.747998,-0.107045,2.449178,-22.451864,-0.040955,3.1e-05,0.99176,-0.05607,-0.030709,-0.019471,61.570953,30.787491,-146.460312,,,
729706964.749946,-0.107035,2.449211,121.458308,-0.040955,3.1e-05,0.99176,-0.05607,-0.030709,-0.019471,61.672974,30.930862,-146.561966,,,
729706964.751423,-0.107045,2.449178,-22.451864,-0.040955,3.1e-05,0.99176,-0.05607,-0.030709,-0.019471,61.672974,30.930862,-146.561966,,,
729706964.753207,-0.124869,2.434458,121.452602,-0.040955,3.1e-05,0.99176,-0.066051,-0.049576,-0.026617,61.672974,30.930862,-146.561966,,,
729706964.755468,-0.124879,2.434425,-22.457581,-0.040955,3.1e-05,0.99176,-0.066051,-0.049576,-0.026617,61.672974,30.930862,-146.561966,,,
729706964.756537,-0.124869,2.434458,121.452602,-0.040955,3.1e-05,0.99176,-0.066051,-0.049576,-0.026617,61.672974,30.930862,-146.561966,,,
729706964.757963,-0.145319,2.41821,-22.46448,-0.039978,0.001236,0.99028,-0.066051,-0.049576,-0.026617,61.672974,30.930862,-146.561966,,,
729706964.759869,-0.145309,2.418243,121.445705,-0.039978,0.001236,0.99028,-0.066051,-0.049576,-0.026617,61.672974,30.930862,-146.561966,,,
729706964.760684,-0.145319,2.41821,-22.46448,-0.039978,0.001236,0.99028,-0.066051,-0.049576,-0.026617,61.672974,30.930862,-146.561966,,,
729706964.763195,-0.16647,2.399905,121.437677,-0.039978,0.001236,0.99028,-0.07438,-0.059258,-0.034772,61.672974,30.930862,-146.561966,,,
729706964.765212,-0.16648,2.399871,-22.472501,-0.039978,0.001236,0.99028,-0.07438,-0.059258,-0.034772,61.672974,30.930862,-146.561966,,,
729706964.766531,-0.16647,2.399905,121.437677,-0.039978,0.001236,0.99028,-0.07438,-0.059258,-0.034772,61.672974,30.930862,-146.561966,,,
729706964.768366,-0.189092,2.382708,-22.481488,-0.036469,0.001694,0.996506,-0.07438,-0.059258,-0.034772,61.672974,30.930862,-146.561966,,,
729706964.769891,-0.189082,2.382741,121.428685,-0.036469,0.001694,0.996506,-0.07438,-0.059258,-0.034772,61.672974,30.930862,-146.561966,,,
729706964.77068,-0.189092,2.382708,-22.481488,-0.036469,0.001694,0.996506,-0.07438,-0.059258,-0.034772,61.672974,30.930862,-146.561966,,,
729706964.773205,-0.212016,2.366871,121.419012,-0.036469,0.001694,0.996506,-0.077651,-0.046272,-0.039678,61.672974,30.930862,-146.561966,,,
729706964.775461,-0.212026,2.366837,-22.491158,-0.036469,0.001694,0.996506,-0.077651,-0.046272,-0.039678,61.672974,30.930862,-146.561966,,,
729706964.776376,-0.212016,2.366871,121.419012,-0.036469,0.001694,0.996506,-0.077651,-0.046272,-0.039678,61.672974,30.930862,-146.561966,,,
729706964.779408,-0.235356,2.354009,-22.500813,-0.035248,-0.000412,1.000076,-0.077651,-0.046272,-0.039678,61.672974,30.930862,-146.561966,,,
729706964.779911,-0.235346,2.354042,121.409357,-0.035248,-0.000412,1.000076,-0.077651,-0.046272,-0.039678,61.672974,30.930862,-146.561966,,,
729706964.780687,-0.235356,2.354009,-22.500813,-0.035248,-0.000412,1.000076,-0.077651,-0.046272,-0.039678,61.672974,30.930862,-146.561966,,,
729706964.783212,-0.258571,2.343561,121.400411,-0.035248,-0.000412,1.000076,-0.078703,-0.024984,-0.034731,61.672974,30.930862,-146.561966,,,
729706964.78537,-0.258581,2.343527,-22.509765,-0.035248,-0.000412,1.000076,-0.078703,-0.024984,-0.034731,61.672974,30.930862,-146.561966,,,
729706964.786537,-0.258571,2.343561,121.400411,-0.035248,-0.000412,1.000076,-0.078703,-0.024984,-0.034731,61.672974,30.930862,-146.561966,,,
729706964.788301,-0.281098,2.336737,-22.517723,-0.038742,-0.00827,1.005661,-0.078703,-0.024984,-0.034731,61.672974,30.930862,-146.561966,,,
729706964.789983,-0.281088,2.33677,121.392452,-0.038742,-0.00827,1.005661,-0.078703,-0.024984,-0.034731,61.672974,30.930862,-146.561966,,,
729706964.791308,-0.281098,2.336737,-22.517723,-0.038742,-0.00827,1.005661,-0.078703,-0.024984,-0.034731,61.283722,31.138123,-146.448883,,,
729706964.793047,-0.301946,2.3317,121.385389,-0.038742,-0.00827,1.005661,-0.074052,-0.011094,-0.028259,61.283722,31.138123,-146.448883,,,
729706964.79512,-0.301956,2.331666,-22.524783,-0.038742,-0.00827,1.005661,-0.074052,-0.011094,-0.028259,61.283722,31.138123,-146.448883,,,
729706964.796563,-0.301946,2.3317,121.385389,-0.038742,-0.00827,1.005661,-0.074052,-0.011094,-0.028259,61.283722,31.138123,-146.448883,,,
729706964.798089,-0.323645,2.328032,-22.530246,-0.039169,-0.010406,1.002319,-0.074052,-0.011094,-0.028259,61.283722,31.138123,-146.448883,,,
729706964.799952,-0.323635,2.328066,121.379931,-0.039169,-0.010406,1.002319,-0.074052,-0.011094,-0.028259,61.283722,31.138123,-146.448883,,,
729706964.800677,-0.323645,2.328032,-22.530246,-0.039169,-0.010406,1.002319,-0.074052,-0.011094,-0.028259,61.283722,31.138123,-146.448883,,,
729706964.803204,-0.344952,2.326041,121.376753,-0.039169,-0.010406,1.002319,-0.081374,-0.003283,-0.012657,61.283722,31.138123,-146.448883,,,
729706964.805017,-0.344961,2.326008,-22.533425,-0.039169,-0.010406,1.002319,-0.081374,-0.003283,-0.012657,61.283722,31.138123,-146.448883,,,
729706964.806645,-0.369269,2.324055,121.375225,-0.039169,-0.010406,1.002319,-0.081374,-0.003283,-0.012657,61.283722,31.138123,-146.448883,,,
729706964.80824,-0.369279,2.324022,-22.534959,-0.045074,-0.010056,0.996445,-0.081374,-0.003283,-0.012657,61.283722,31.138123,-146.448883,,,
729706964.809875,-0.369269,2.324055,121.375225,-0.045074,-0.010056,0.996445,-0.081374,-0.003283,-0.012657,61.283722,31.138123,-146.448883,,,
729706964.810681,-0.369279,2.324022,-22.534959,-0.045074,-0.010056,0.996445,-0.081374,-0.003283,-0.012657,61.283722,31.138123,-146.448883,,,
729706964.813207,-0.394226,2.32365,121.374965,-0.045074,-0.010056,0.996445,-0.09391,0.002357,-0.004338,61.283722,31.138123,-146.448883,,,
729706964.816258,-0.394236,2.323616,-22.535218,-0.045074,-0.010056,0.996445,-0.09391,0.002357,-0.004338,61.283722,31.138123,-146.448883,,,
729706964.816768,-0.42327,2.326939,121.375604,-0.043152,-0.006866,0.999573,-0.09391,0.002357,-0.004338,61.283722,31.138123,-146.448883,,,
729706964.818399,-0.42328,2.326906,-22.534575,-0.043152,-0.006866,0.999573,-0.09391,0.002357,-0.004338,61.283722,31.138123,-146.448883,,,
729706964.819905,-0.42327,2.326939,121.375604,-0.043152,-0.006866,0.999573,-0.09391,0.002357,-0.004338,61.283722,31.138123,-146.448883,,,
729706964.820683,-0.42328,2.326906,-22.534575,-0.043152,-0.006866,0.999573,-0.09391,0.002357,-0.004338,61.283722,31.138123,-146.448883,,,
729706964.823208,-0.455477,2.33655,121.376628,-0.043152,-0.006866,0.999573,-0.123833,0.043152,-0.002877,61.283722,31.138123,-146.448883,,,
729706964.825038,-0.455487,2.336517,-22.533548,-0.043152,-0.006866,0.999573,-0.123833,0.043152,-0.002877,61.283722,31.138123,-146.448883,,,
729706964.82666,-0.455477,2.33655,121.376628,-0.043152,-0.006866,0.999573,-0.123833,0.043152,-0.002877,61.283722,31.138123,-146.448883,,,
729706964.828386,-0.493045,2.349551,-22.53199,-0.034164,-0.001984,0.997955,-0.123833,0.043152,-0.002877,61.283722,31.138123,-146.448883,,,
729706964.829892,-0.493035,2.349584,121.378193,-0.034164,-0.001984,0.997955,-0.123833,0.043152,-0.002877,61.283722,31.138123,-146.448883,,,
729706964.83068,-0.493045,2.349551,-22.53199,-0.034164,-0.001984,0.997955,-0.123833,0.043152,-0.002877,61.283722,31.138123,-146.448883,,,
729706964.833287,-0.531844,2.36353,121.381294,-0.034164,-0.001984,0.997955,-0.143335,0.0504,0.006949,61.471924,31.005936,-146.392868,,,
729706964.836862,-0.531854,2.363497,-22.528883,-0.034164,-0.001984,0.997955,-0.143335,0.0504,0.006949,61.471924,31.005936,-146.392868,,,
729706964.83715,-0.573684,2.37595,121.386236,-0.039398,-0.011108,0.991562,-0.143335,0.0504,0.006949,61.471924,31.005936,-146.392868,,,
729706964.838843,-0.573694,2.375917,-22.523944,-0.039398,-0.011108,0.991562,-0.143335,0.0504,0.006949,61.471924,31.005936,-146.392868,,,
729706964.839944,-0.573684,2.37595,121.386236,-0.039398,-0.011108,0.991562,-0.143335,0.0504,0.006949,61.471924,31.005936,-146.392868,,,
729706964.84068,-0.573694,2.375917,-22.523944,-0.039398,-0.011108,0.991562,-0.143335,0.0504,0.006949,61.471924,31.005936,-146.392868,,,
729706964.843198,-0.614692,2.386001,121.392883,-0.039398,-0.011108,0.991562,-0.149495,0.035965,0.018534,61.471924,31.005936,-146.392868,,,
729706964.845341,-0.614702,2.385968,-22.517295,-0.039398,-0.011108,0.991562,-0.149495,0.035965,0.018534,61.471924,31.005936,-146.392868,,,
729706964.846538,-0.614692,2.386001,121.392883,-0.039398,-0.011108,0.991562,-0.149495,0.035965,0.018534,61.471924,31.005936,-146.392868,,,
729706964.84828,-0.656705,2.39431,-22.509038,-0.050385,-0.018417,0.992462,-0.149495,0.035965,0.018534,61.471924,31.005936,-146.392868,,,
729706964.849945,-0.656695,2.394343,121.401137,-0.050385,-0.018417,0.992462,-0.149495,0.035965,0.018534,61.471924,31.005936,-146.392868,,,
729706964.850722,-0.656705,2.39431,-22.509038,-0.050385,-0.018417,0.992462,-0.149495,0.035965,0.018534,61.471924,31.005936,-146.392868,,,
729706964.853242,-0.695127,2.39928,121.410399,-0.050385,-0.018417,0.992462,-0.139324,0.021163,0.025977,61.471924,31.005936,-146.392868,,,
729706964.855752,-0.695137,2.399247,-22.499779,-0.050385,-0.018417,0.992462,-0.139324,0.021163,0.025977,61.471924,31.005936,-146.392868,,,
729706964.856551,-0.695127,2.39928,121.410399,-0.050385,-0.018417,0.992462,-0.139324,0.021163,0.025977,61.471924,31.005936,-146.392868,,,
729706964.858115,-0.732886,2.403169,-22.489464,-0.046005,-0.018005,0.998291,-0.139324,0.021163,0.025977,61.471924,31.005936,-146.392868,,,
729706964.859738,-0.732876,2.403202,121.42071,-0.046005,-0.018005,0.998291,-0.139324,0.021163,0.025977,61.471924,31.005936,-146.392868,,,
729706964.8607,-0.732886,2.403169,-22.489464,-0.046005,-0.018005,0.998291,-0.139324,0.021163,0.025977,61.471924,31.005936,-146.392868,,,
729706964.863192,-0.765593,2.402878,121.431986,-0.046005,-0.018005,0.998291,-0.114607,-0.000465,0.033808,61.471924,31.005936,-146.392868,,,
729706964.866064,-0.765603,2.402845,-22.478188,-0.046005,-0.018005,0.998291,-0.114607,-0.000465,0.033808,61.471924,31.005936,-146.392868,,,
729706964.866575,-0.765593,2.402878,121.431986,-0.046005,-0.018005,0.998291,-0.114607,-0.000465,0.033808,61.471924,31.005936,-146.392868,,,
729706964.868224,-0.796763,2.400648,-22.467567,-0.044449,-0.017639,1.001694,-0.114607,-0.000465,0.033808,61.471924,31.005936,-146.392868,,,
729706964.869938,-0.796753,2.400681,121.442607,-0.044449,-0.017639,1.001694,-0.114607,-0.000465,0.033808,61.471924,31.005936,-146.392868,,,
729706964.870679,-0.796763,2.400648,-22.467567,-0.044449,-0.017639,1.001694,-0.114607,-0.000465,0.033808,61.471924,31.005936,-146.392868,,,
729706964.873199,-0.825005,2.39647,121.451828,-0.044449,-0.017639,1.001694,-0.097441,-0.009072,0.024882,61.369446,31.49855,-146.448288,,,
729706964.875821,-0.825015,2.396437,-22.458344,-0.044449,-0.017639,1.001694,-0.097441,-0.009072,0.024882,61.369446,31.49855,-146.448288,,,
729706964.876691,-0.825005,2.39647,121.451828,-0.044449,-0.017639,1.001694,-0.097441,-0.009072,0.024882,61.369446,31.49855,-146.448288,,,
729706964.878257,-0.852253,2.393298,-22.450178,-0.03923,-0.016022,0.999359,-0.097441,-0.009072,0.024882,61.369446,31.49855,-146.448288,,,
729706964.879899,-0.852243,2.393331,121.459989,-0.03923,-0.016022,0.999359,-0.097441,-0.009072,0.024882,61.369446,31.49855,-146.448288,,,
729706964.880684,-0.852253,2.393298,-22.450178,-0.03923,-0.016022,0.999359,-0.097441,-0.009072,0.024882,61.369446,31.49855,-146.448288,,,
729706964.883289,-0.878184,2.389879,121.466938,-0.03923,-0.016022,0.999359,-0.093086,-0.011036,0.016443,61.369446,31.49855,-146.448288,,,
729706964.884805,-0.878194,2.389846,-22.443245,-0.03923,-0.016022,0.999359,-0.093086,-0.011036,0.016443,61.369446,31.49855,-146.448288,,,
729706964.88654,-0.878184,2.389879,121.466938,-0.03923,-0.016022,0.999359,-0.093086,-0.011036,0.016443,61.369446,31.49855,-146.448288,,,
729706964.888101,-0.903793,2.386897,-22.437656,-0.034119,-0.013763,0.998291,-0.093086,-0.011036,0.016443,61.369446,31.49855,-146.448288,,,
729706964.889947,-0.903783,2.38693,121.472532,-0.034119,-0.013763,0.998291,-0.093086,-0.011036,0.016443,61.369446,31.49855,-146.448288,,,
729706964.890674,-0.903793,2.386897,-22.437656,-0.034119,-0.013763,0.998291,-0.093086,-0.011036,0.016443,61.369446,31.49855,-146.448288,,,
729706964.893211,-0.926934,2.386988,121.476083,-0.034119,-0.013763,0.998291,-0.082713,0.005447,0.002648,61.369446,31.49855,-146.448288,,,
729706964.896237,-0.926944,2.386955,-22.434089,-0.034119,-0.013763,0.998291,-0.082713,0.005447,0.002648,61.369446,31.49855,-146.448288,,,
729706964.89655,-0.926934,2.386988,121.476083,-0.034119,-0.013763,0.998291,-0.082713,0.005447,0.002648,61.369446,31.49855,-146.448288,,,
729706964.897937,-0.950307,2.389792,-22.43204,-0.027863,-0.014053,1.008759,-0.082713,0.005447,0.002648,61.369446,31.49855,-146.448288,,,
729706964.89988,-0.950297,2.389825,121.478133,-0.027863,-0.014053,1.008759,-0.082713,0.005447,0.002648,61.369446,31.49855,-146.448288,,,
729706964.900682,-0.950307,2.389792,-22.43204,-0.027863,-0.014053,1.008759,-0.082713,0.005447,0.002648,61.369446,31.49855,-146.448288,,,
729706964.903207,-0.971019,2.394738,121.480071,-0.027863,-0.014053,1.008759,-0.078107,0.024547,0.002161,61.369446,31.49855,-146.448288,,,
729706964.904605,-0.971029,2.394705,-22.430098,-0.027863,-0.014053,1.008759,-0.078107,0.024547,0.002161,61.369446,31.49855,-146.448288,,,
729706964.906531,-0.971019,2.394738,121.480071,-0.027863,-0.014053,1.008759,-0.078107,0.024547,0.002161,61.369446,31.49855,-146.448288,,,
729706964.908405,-0.993162,2.400812,-22.42763,-0.033981,-0.015106,1.003876,-0.078107,0.024547,0.002161,61.369446,31.49855,-146.448288,,,
729706964.90987,-0.993151,2.400845,121.482548,-0.033981,-0.015106,1.003876,-0.078107,0.024547,0.002161,61.369446,31.49855,-146.448288,,,
729706964.910681,-0.993162,2.400812,-22.42763,-0.033981,-0.015106,1.003876,-0.078107,0.024547,0.002161,61.369446,31.49855,-146.448288,,,
729706964.913206,-1.013361,2.406451,121.485309,-0.033981,-0.015106,1.003876,-0.077289,0.030752,0.004357,61.389648,31.76915,-146.45752,,,
729706964.915768,-1.013371,2.406418,-22.424876,-0.033981,-0.015106,1.003876,-0.077289,0.030752,0.004357,61.389648,31.76915,-146.45752,,,
729706964.916608,-1.013361,2.406451,121.485309,-0.033981,-0.015106,1.003876,-0.077289,0.030752,0.004357,61.389648,31.76915,-146.45752,,,
729706964.917992,-1.036399,2.416139,-22.422178,-0.033951,-0.017014,0.997086,-0.077289,0.030752,0.004357,61.389648,31.76915,-146.45752,,,
729706964.919898,-1.036389,2.416172,121.488007,-0.033951,-0.017014,0.997086,-0.077289,0.030752,0.004357,61.389648,31.76915,-146.45752,,,
729706964.920681,-1.036399,2.416139,-22.422178,-0.033951,-0.017014,0.997086,-0.077289,0.030752,0.004357,61.389648,31.76915,-146.45752,,,
729706964.923195,-1.060621,2.429687,121.491574,-0.033951,-0.017014,0.997086,-0.088383,0.050797,0.009817,61.389648,31.76915,-146.45752,,,
729706964.925241,-1.060631,2.429654,-22.418611,-0.033951,-0.017014,0.997086,-0.088383,0.050797,0.009817,61.389648,31.76915,-146.45752,,,
729706964.926398,-1.060621,2.429687,121.491574,-0.033951,-0.017014,0.997086,-0.088383,0.050797,0.009817,61.389648,31.76915,-146.45752,,,
729706964.928468,-1.087674,2.443974,-22.413371,-0.038925,-0.016068,0.995972,-0.088383,0.050797,0.009817,61.389648,31.76915,-146.45752,,,
729706964.92989,-1.087664,2.444007,121.496808,-0.038925,-0.016068,0.995972,-0.088383,0.050797,0.009817,61.389648,31.76915,-146.45752,,,
729706964.930682,-1.087674,2.443974,-22.413371,-0.038925,-0.016068,0.995972,-0.088383,0.050797,0.009817,61.389648,31.76915,-146.45752,,,
729706964.933208,-1.118513,2.460483,121.504015,-0.038925,-0.016068,0.995972,-0.115913,0.058623,0.022224,61.389648,31.76915,-146.45752,,,
729706964.935279,-1.118523,2.46045,-22.40616,-0.038925,-0.016068,0.995972,-0.115913,0.058623,0.022224,61.389648,31.76915,-146.45752,,,
729706964.936536,-1.118513,2.460483,121.504015,-0.038925,-0.016068,0.995972,-0.115913,0.058623,0.022224,61.389648,31.76915,-146.45752,,,
729706964.93859,-1.153517,2.477139,-22.396351,-0.049026,-0.015106,0.986465,-0.115913,0.058623,0.022224,61.389648,31.76915,-146.45752,,,
729706964.93987,-1.153506,2.477172,121.513821,-0.049026,-0.015106,0.986465,-0.115913,0.058623,0.022224,61.389648,31.76915,-146.45752,,,
729706964.940681,-1.153517,2.477139,-22.396351,-0.049026,-0.015106,0.986465,-0.115913,0.058623,0.022224,61.389648,31.76915,-146.45752,,,
729706964.943203,-1.192322,2.495562,121.526347,-0.049026,-0.015106,0.986465,-0.146036,0.066889,0.03973,61.389648,31.76915,-146.45752,,,
729706964.945438,-1.192332,2.495529,-22.383826,-0.049026,-0.015106,0.986465,-0.146036,0.066889,0.03973,61.389648,31.76915,-146.45752,,,
729706964.946554,-1.192322,2.495562,121.526347,-0.049026,-0.015106,0.986465,-0.146036,0.066889,0.03973,61.389648,31.76915,-146.45752,,,
729706964.948374,-1.236555,2.514692,-22.368415,-0.053558,-0.016586,0.983826,-0.146036,0.066889,0.03973,61.389648,31.76915,-146.45752,,,
729706964.949873,-1.236545,2.514726,121.541759,-0.053558,-0.016586,0.983826,-0.146036,0.066889,0.03973,61.389648,31.76915,-146.45752,,,
729706964.950681,-1.236555,2.514692,-22.368415,-0.053558,-0.016586,0.983826,-0.146036,0.066889,0.03973,61.389648,31.76915,-146.45752,,,
729706964.953205,-1.285681,2.533394,121.560499,-0.053558,-0.016586,0.983826,-0.185888,0.06462,0.061114,61.389648,31.76915,-146.45752,,,
729706964.956065,-1.285691,2.533361,-22.349674,-0.053558,-0.016586,0.983826,-0.185888,0.06462,0.061114,61.438156,31.895218,-146.400909,,,
729706964.956556,-1.285681,2.533394,121.560499,-0.053558,-0.016586,0.983826,-0.185888,0.06462,0.061114,61.438156,31.895218,-146.400909,,,
729706964.958377,-1.341064,2.551155,-22.327362,-0.058517,-0.020538,0.977356,-0.185888,0.06462,0.061114,61.438156,31.895218,-146.400909,,,
729706964.959654,-1.341054,2.551189,121.582814,-0.058517,-0.020538,0.977356,-0.185888,0.06462,0.061114,61.438156,31.895218,-146.400909,,,
729706964.96071,-1.341064,2.551155,-22.327362,-0.058517,-0.020538,0.977356,-0.185888,0.06462,0.061114,61.438156,31.895218,-146.400909,,,
729706964.963199,-1.400687,2.56606,121.608909,-0.058517,-0.020538,0.977356,-0.225528,0.05468,0.085914,61.438156,31.895218,-146.400909,,,
729706964.965465,-1.400697,2.566027,-22.301269,-0.058517,-0.020538,0.977356,-0.225528,0.05468,0.085914,61.438156,31.895218,-146.400909,,,
729706964.966545,-1.400687,2.56606,121.608909,-0.058517,-0.020538,0.977356,-0.225528,0.05468,0.085914,61.438156,31.895218,-146.400909,,,
729706964.968383,-1.466447,2.580797,-22.272062,-0.061234,-0.02179,0.974686,-0.225528,0.05468,0.085914,61.438156,31.895218,-146.400909,,,
729706964.969905,-1.466437,2.58083,121.638121,-0.061234,-0.02179,0.974686,-0.225528,0.05468,0.085914,61.438156,31.895218,-146.400909,,,
729706964.970678,-1.466447,2.580797,-22.272062,-0.061234,-0.02179,0.974686,-0.225528,0.05468,0.085914,61.438156,31.895218,-146.400909,,,
729706964.973206,-1.534631,2.591308,121.669553,-0.061234,-0.02179,0.974686,-0.255818,0.043484,0.10044,61.438156,31.895218,-146.400909,,,
729706964.975414,-1.534642,2.591275,-22.240625,-0.061234,-0.02179,0.974686,-0.255818,0.043484,0.10044,61.438156,31.895218,-146.400909,,,
729706964.976379,-1.534631,2.591308,121.669553,-0.061234,-0.02179,0.974686,-0.255818,0.043484,0.10044,61.438156,31.895218,-146.400909,,,
729706964.978512,-1.608454,2.60365,-22.20753,-0.060532,-0.022308,0.980911,-0.255818,0.043484,0.10044,61.438156,31.895218,-146.400909,,,
729706964.979896,-1.608444,2.603683,121.70265,-0.060532,-0.022308,0.980911,-0.255818,0.043484,0.10044,61.438156,31.895218,-146.400909,,,
729706964.980683,-1.608454,2.60365,-22.20753,-0.060532,-0.022308,0.980911,-0.255818,0.043484,0.10044,61.438156,31.895218,-146.400909,,,
729706964.983201,-1.683466,2.612123,121.735917,-0.060532,-0.022308,0.980911,-0.278354,0.037001,0.101116,61.438156,31.895218,-146.400909,,,
729706964.985084,-1.683476,2.61209,-22.17426,-0.060532,-0.022308,0.980911,-0.278354,0.037001,0.101116,61.438156,31.895218,-146.400909,,,
729706964.986539,-1.683466,2.612123,121.735917,-0.060532,-0.022308,0.980911,-0.278354,0.037001,0.101116,61.438156,31.895218,-146.400909,,,
729706964.988168,-1.764322,2.623526,-22.141461,-0.056229,-0.023666,0.978973,-0.278354,0.037001,0.101116,61.438156,31.895218,-146.400909,,,
729706964.989948,-1.764311,2.623559,121.768713,-0.056229,-0.023666,0.978973,-0.278354,0.037001,0.101116,61.438156,31.895218,-146.400909,,,
729706964.990672,-1.764322,2.623526,-22.141461,-0.056229,-0.023666,0.978973,-0.278354,0.037001,0.101116,61.438156,31.895218,-146.400909,,,
729706964.993203,-1.844939,2.634384,121.800678,-0.056229,-0.023666,0.978973,-0.292551,0.046272,0.094945,61.438156,31.895218,-146.400909,,,
729706964.996024,-1.844949,2.634351,-22.1095,-0.056229,-0.023666,0.978973,-0.292551,0.046272,0.094945,61.729752,32.585327,-146.367752,,,
729706964.996541,-1.844939,2.634384,121.800678,-0.056229,-0.023666,0.978973,-0.292551,0.046272,0.094945,61.729752,32.585327,-146.367752,,,
729706964.998753,-1.92753,2.647815,-22.078784,-0.052979,-0.028534,0.985001,-0.292551,0.046272,0.094945,61.729752,32.585327,-146.367752,,,
729706964.999883,-1.927519,2.647848,121.831393,-0.052979,-0.028534,0.985001,-0.292551,0.046272,0.094945,61.729752,32.585327,-146.367752,,,
729706965.00073,-1.92753,2.647815,-22.078784,-0.052979,-0.028534,0.985001,-0.292551,0.046272,0.094945,61.729752,32.585327,-146.367752,,,
729706965.003204,-2.006726,2.658133,121.860645,-0.052979,-0.028534,0.985001,-0.287689,0.039615,0.085373,61.729752,32.585327,-146.367752,,,
729706965.005091,-2.006737,2.6581,-22.049526,-0.052979,-0.028534,0.985001,-0.287689,0.039615,0.085373,61.729752,32.585327,-146.367752,,,
729706965.006566,-2.006726,2.658133,121.860645,-0.052979,-0.028534,0.985001,-0.287689,0.039615,0.085373,61.729752,32.585327,-146.367752,,,
729706965.008227,-2.087322,2.669545,-22.022475,-0.047211,-0.033142,0.993408,-0.287689,0.039615,0.085373,61.729752,32.585327,-146.367752,,,
729706965.009675,-2.087312,2.669578,121.88771,-0.047211,-0.033142,0.993408,-0.287689,0.039615,0.085373,61.729752,32.585327,-146.367752,,,
729706965.010713,-2.087322,2.669545,-22.022475,-0.047211,-0.033142,0.993408,-0.287689,0.039615,0.085373,61.729752,32.585327,-146.367752,,,
729706965.013202,-2.163022,2.680651,121.91115,-0.047211,-0.033142,0.993408,-0.275002,0.039394,0.060781,61.729752,32.585327,-146.367752,,,
729706965.015255,-2.163033,2.680618,-21.999037,-0.047211,-0.033142,0.993408,-0.275002,0.039394,0.060781,61.729752,32.585327,-146.367752,,,
729706965.016542,-2.163022,2.680651,121.91115,-0.047211,-0.033142,0.993408,-0.275002,0.039394,0.060781,61.729752,32.585327,-146.367752,,,
729706965.018443,-2.240617,2.691566,-21.978618,-0.042847,-0.034485,0.992676,-0.275002,0.039394,0.060781,61.729752,32.585327,-146.367752,,,
729706965.019891,-2.240607,2.691599,121.931568,-0.042847,-0.034485,0.992676,-0.275002,0.039394,0.060781,61.729752,32.585327,-146.367752,,,
729706965.020682,-2.240617,2.691566,-21.978618,-0.042847,-0.034485,0.992676,-0.275002,0.039394,0.060781,61.729752,32.585327,-146.367752,,,
729706965.023204,-2.313112,2.702634,121.949542,-0.042847,-0.034485,0.992676,-0.26376,0.035023,0.043913,61.729752,32.585327,-146.367752,,,
729706965.02523,-2.313123,2.702601,-21.960645,-0.042847,-0.034485,0.992676,-0.26376,0.035023,0.043913,61.729752,32.585327,-146.367752,,,
729706965.026537,-2.313112,2.702634,121.949542,-0.042847,-0.034485,0.992676,-0.26376,0.035023,0.043913,61.729752,32.585327,-146.367752,,,
729706965.02853,-2.388575,2.71315,-21.945529,-0.04068,-0.035568,0.994263,-0.26376,0.035023,0.043913,61.729752,32.585327,-146.367752,,,
729706965.02993,-2.388565,2.713183,121.964653,-0.04068,-0.035568,0.994263,-0.26376,0.035023,0.043913,61.729752,32.585327,-146.367752,,,
729706965.030672,-2.388575,2.71315,-21.945529,-0.04068,-0.035568,0.994263,-0.26376,0.035023,0.043913,61.729752,32.585327,-146.367752,,,
729706965.033205,-2.460436,2.725716,121.977476,-0.04068,-0.035568,0.994263,-0.262635,0.036359,0.027323,61.729752,32.585327,-146.367752,,,
729706965.035036,-2.460447,2.725682,-21.93271,-0.04068,-0.035568,0.994263,-0.262635,0.036359,0.027323,61.729752,32.585327,-146.367752,,,
729706965.036553,-2.460436,2.725716,121.977476,-0.04068,-0.035568,0.994263,-0.262635,0.036359,0.027323,61.826218,32.88208,-146.479584,,,
729706965.038859,-2.536059,2.73565,-21.921881,-0.040359,-0.036499,0.989822,-0.262635,0.036359,0.027323,61.826218,32.88208,-146.479584,,,
729706965.039898,-2.536049,2.735683,121.988301,-0.040359,-0.036499,0.989822,-0.262635,0.036359,0.027323,61.826218,32.88208,-146.479584,,,
729706965.040687,-2.536059,2.73565,-21.921881,-0.040359,-0.036499,0.989822,-0.262635,0.036359,0.027323,61.826218,32.88208,-146.479584,,,
729706965.043197,-2.609594,2.74818,121.99758,-0.040359,-0.036499,0.989822,-0.271205,0.03553,0.015184,61.826218,32.88208,-146.479584,,,
729706965.045257,-2.609605,2.748147,-21.912599,-0.040359,-0.036499,0.989822,-0.271205,0.03553,0.015184,61.826218,32.88208,-146.479584,,,
729706965.04656,-2.609594,2.74818,121.99758,-0.040359,-0.036499,0.989822,-0.271205,0.03553,0.015184,61.826218,32.88208,-146.479584,,,
729706965.048176,-2.688939,2.757824,-21.904076,-0.042282,-0.036987,0.986404,-0.271205,0.03553,0.015184,61.826218,32.88208,-146.479584,,,
729706965.049871,-2.688929,2.757857,122.006108,-0.042282,-0.036987,0.986404,-0.271205,0.03553,0.015184,61.826218,32.88208,-146.479584,,,
729706965.05068,-2.688939,2.757824,-21.904076,-0.042282,-0.036987,0.986404,-0.271205,0.03553,0.015184,61.826218,32.88208,-146.479584,,,
729706965.053191,-2.767819,2.769906,122.01466,-0.042282,-0.036987,0.986404,-0.294301,0.033692,0.013249,61.826218,32.88208,-146.479584,,,
729706965.055237,-2.767829,2.769873,-21.895521,-0.042282,-0.036987,0.986404,-0.294301,0.033692,0.013249,61.826218,32.88208,-146.479584,,,
729706965.056615,-2.767819,2.769906,122.01466,-0.042282,-0.036987,0.986404,-0.294301,0.033692,0.013249,61.826218,32.88208,-146.479584,,,
729706965.058626,-2.855583,2.77985,-21.887026,-0.045715,-0.042236,0.979431,-0.294301,0.033692,0.013249,61.826218,32.88208,-146.479584,,,
729706965.059857,-2.855572,2.779884,122.023155,-0.045715,-0.042236,0.979431,-0.294301,0.033692,0.013249,61.826218,32.88208,-146.479584,,,
729706965.060687,-2.855583,2.77985,-21.887026,-0.045715,-0.042236,0.979431,-0.294301,0.033692,0.013249,61.826218,32.88208,-146.479584,,,
729706965.063203,-2.946741,2.793007,122.032179,-0.045715,-0.042236,0.979431,-0.341175,0.042913,0.013982,61.826218,32.88208,-146.479584,,,
729706965.065325,-2.946752,2.792974,-21.877997,-0.045715,-0.042236,0.979431,-0.341175,0.042913,0.013982,61.826218,32.88208,-146.479584,,,
729706965.066553,-2.946741,2.793007,122.032179,-0.045715,-0.042236,0.979431,-0.341175,0.042913,0.013982,61.826218,32.88208,-146.479584,,,
729706965.068682,-3.048142,2.805584,-21.868322,-0.046661,-0.046951,0.973526,-0.341175,0.042913,0.013982,61.826218,32.88208,-146.479584,,,
729706965.069936,-3.048131,2.805617,122.041848,-0.046661,-0.046951,0.973526,-0.341175,0.042913,0.013982,61.826218,32.88208,-146.479584,,,
729706965.070713,-3.048142,2.805584,-21.868322,-0.046661,-0.046951,0.973526,-0.341175,0.042913,0.013982,61.826218,32.88208,-146.479584,,,
729706965.073188,-3.152663,2.819974,122.053165,-0.046661,-0.046951,0.973526,-0.38511,0.047229,0.022707,61.826218,32.88208,-146.479584,,,
729706965.075457,-3.152673,2.819941,-21.857004,-0.046661,-0.046951,0.973526,-0.38511,0.047229,0.022707,61.826218,32.88208,-146.479584,,,
729706965.076597,-3.152663,2.819974,122.053165,-0.046661,-0.046951,0.973526,-0.38511,0.047229,0.022707,62.060684,33.644897,-145.971725,,,
729706965.078137,-3.152673,2.819941,-21.857004,-0.046661,-0.046951,0.973526,-0.38511,0.047229,0.022707,62.060684,33.644897,-145.971725,,,
729706965.079919,-3.265098,2.833702,122.066775,-0.049515,-0.052567,0.97171,-0.38511,0.047229,0.022707,62.060684,33.644897,-145.971725,,,
729706965.081658,-3.265109,2.833669,-21.843393,-0.049515,-0.052567,0.97171,-0.38511,0.047229,0.022707,62.060684,33.644897,-145.971725,,,
729706965.083224,-3.381404,2.848403,122.082805,-0.049515,-0.052567,0.97171,-0.412726,0.052547,0.037966,62.060684,33.644897,-145.971725,,,
729706965.085282,-3.381414,2.848369,-21.827363,-0.049515,-0.052567,0.97171,-0.412726,0.052547,0.037966,62.060684,33.644897,-145.971725,,,
729706965.086573,-3.381404,2.848403,122.082805,-0.049515,-0.052567,0.97171,-0.412726,0.052547,0.037966,62.060684,33.644897,-145.971725,,,
729706965.088656,-3.381414,2.863616,-21.808981,-0.057358,-0.062531,0.975082,-0.412726,0.052547,0.037966,62.060684,33.644897,-145.971725,,,
729706965.089903,-3.501373,2.863649,122.101205,-0.057358,-0.062531,0.975082,-0.412726,0.052547,0.037966,62.060684,33.644897,-145.971725,,,
729706965.091038,-3.501383,2.863616,-21.808981,-0.057358,-0.062531,0.975082,-0.412726,0.052547,0.037966,62.060684,33.644897,-145.971725,,,
729706965.093207,-3.623835,2.878472,122.121996,-0.057358,-0.062531,0.975082,-0.430613,0.04799,0.0535,62.060684,33.644897,-145.971725,,,
729706965.095242,-3.623846,2.878439,-21.788194,-0.057358,-0.062531,0.975082,-0.430613,0.04799,0.0535,62.060684,33.644897,-145.971725,,,
729706965.096617,-3.623835,2.878472,122.121996,-0.057358,-0.062531,0.975082,-0.430613,0.04799,0.0535,62.060684,33.644897,-145.971725,,,
729706965.097361,-3.623846,2.878439,-21.788194,-0.057358,-0.062531,0.975082,-0.430613,0.04799,0.0535,62.060684,33.644897,-145.971725,,,
729706965.099893,-3.746761,2.891944,122.144895,-0.051224,-0.070297,0.976135,-0.430613,0.04799,0.0535,62.060684,33.644897,-145.971725,,,
729706965.101903,-3.746772,2.891911,-21.765296,-0.051224,-0.070297,0.976135,-0.430613,0.04799,0.0535,62.060684,33.644897,-145.971725,,,
729706965.103207,-3.869101,2.904004,122.168461,-0.051224,-0.070297,0.976135,-0.426823,0.037237,0.058263,62.060684,33.644897,-145.971725,,,
729706965.105249,-3.869112,2.90397,-21.741714,-0.051224,-0.070297,0.976135,-0.426823,0.037237,0.058263,62.060684,33.644897,-145.971725,,,
729706965.106566,-3.869101,2.904004,122.168461,-0.051224,-0.070297,0.976135,-0.426823,0.037237,0.058263,62.060684,33.644897,-145.971725,,,
729706965.108448,-3.989064,2.916016,-21.718351,-0.047211,-0.078949,0.984344,-0.426823,0.037237,0.058263,62.060684,33.644897,-145.971725,,,
729706965.109868,-3.989053,2.916049,122.191825,-0.047211,-0.078949,0.984344,-0.426823,0.037237,0.058263,62.060684,33.644897,-145.971725,,,
729706965.11068,-3.989064,2.916016,-21.718351,-0.047211,-0.078949,0.984344,-0.426823,0.037237,0.058263,62.060684,33.644897,-145.971725,,,
729706965.113195,-4.105291,2.929248,122.214783,-0.047211,-0.078949,0.984344,-0.400715,0.044851,0.056565,62.060684,33.644897,-145.971725,,,
729706965.115036,-4.105302,2.929215,-21.695392,-0.047211,-0.078949,0.984344,-0.400715,0.044851,0.056565,62.060684,33.644897,-145.971725,,,
729706965.11654,-4.105291,2.929248,122.214783,-0.047211,-0.078949,0.984344,-0.400715,0.044851,0.056565,62.060684,33.644897,-145.971725,,,
729706965.117405,-4.105302,2.929215,-21.695392,-0.047211,-0.078949,0.984344,-0.400715,0.044851,0.056565,62.060684,33.644897,-145.971725,,,
729706965.119877,-4.21706,2.943133,122.236333,-0.043579,-0.08252,1.0,-0.400715,0.044851,0.056565,62.153854,34.580978,-145.797379,,,
729706965.122568,-4.217071,2.9431,-21.673849,-0.043579,-0.08252,1.0,-0.400715,0.044851,0.056565,62.153854,34.580978,-145.797379,,,
729706965.123204,-4.325128,2.957637,122.255769,-0.043579,-0.08252,1.0,-0.373933,0.049673,0.043013,62.153854,34.580978,-145.797379,,,
729706965.125416,-4.325138,2.957604,-21.654415,-0.043579,-0.08252,1.0,-0.373933,0.049673,0.043013,62.153854,34.580978,-145.797379,,,
729706965.126534,-4.325128,2.957637,122.255769,-0.043579,-0.08252,1.0,-0.373933,0.049673,0.043013,62.153854,34.580978,-145.797379,,,
729706965.127389,-4.325138,2.957604,-21.654415,-0.043579,-0.08252,1.0,-0.373933,0.049673,0.043013,62.153854,34.580978,-145.797379,,,
729706965.129877,-4.430203,2.972966,122.273041,-0.042404,-0.083923,0.999634,-0.373933,0.049673,0.043013,62.153854,34.580978,-145.797379,,,
729706965.131493,-4.430214,2.972933,-21.637146,-0.042404,-0.083923,0.999634,-0.373933,0.049673,0.043013,62.153854,34.580978,-145.797379,,,
729706965.133211,-4.532864,2.989822,122.287782,-0.042404,-0.083923,0.999634,-0.356242,0.061212,0.026224,62.153854,34.580978,-145.797379,,,
729706965.135423,-4.532875,2.989789,-21.622391,-0.042404,-0.083923,0.999634,-0.356242,0.061212,0.026224,62.153854,34.580978,-145.797379,,,
729706965.1365,-4.532864,2.989822,122.287782,-0.042404,-0.083923,0.999634,-0.356242,0.061212,0.026224,62.153854,34.580978,-145.797379,,,
729706965.137392,-4.532875,2.989789,-21.622391,-0.042404,-0.083923,0.999634,-0.356242,0.061212,0.026224,62.153854,34.580978,-145.797379,,,
729706965.13988,-4.634687,3.009578,122.29955,-0.037216,-0.083282,0.993912,-0.356242,0.061212,0.026224,62.153854,34.580978,-145.797379,,,
729706965.141691,-4.634698,3.009545,-21.61062,-0.037216,-0.083282,0.993912,-0.356242,0.061212,0.026224,62.153854,34.580978,-145.797379,,,
729706965.143206,-4.737404,3.034701,122.308849,-0.037216,-0.083282,0.993912,-0.361415,0.099578,0.008427,62.153854,34.580978,-145.797379,,,
729706965.14516,-4.737415,3.034668,-21.601324,-0.037216,-0.083282,0.993912,-0.361415,0.099578,0.008427,62.153854,34.580978,-145.797379,,,
729706965.146557,-4.737404,3.034701,122.308849,-0.037216,-0.083282,0.993912,-0.361415,0.099578,0.008427,62.153854,34.580978,-145.797379,,,
729706965.147386,-4.737415,3.034668,-21.601324,-0.037216,-0.083282,0.993912,-0.361415,0.099578,0.008427,62.153854,34.580978,-145.797379,,,
729706965.149866,-4.842951,3.066083,122.316557,-0.034042,-0.084229,0.995789,-0.361415,0.099578,0.008427,62.153854,34.580978,-145.797379,,,
729706965.151877,-4.842962,3.06605,-21.593613,-0.034042,-0.084229,0.995789,-0.361415,0.099578,0.008427,62.153854,34.580978,-145.797379,,,
729706965.153206,-4.952025,3.102208,122.323165,-0.034042,-0.084229,0.995789,-0.385229,0.132847,-0.001036,62.153854,34.580978,-145.797379,,,
729706965.156247,-4.952036,3.102175,-21.587011,-0.034042,-0.084229,0.995789,-0.385229,0.132847,-0.001036,62.153854,34.580978,-145.797379,,,
729706965.156557,-4.952025,3.102208,122.323165,-0.034042,-0.084229,0.995789,-0.385229,0.132847,-0.001036,62.153854,34.580978,-145.797379,,,
729706965.15738,-4.952036,3.102175,-21.587011,-0.034042,-0.084229,0.995789,-0.385229,0.132847,-0.001036,62.153854,34.580978,-145.797379,,,
729706965.159872,-5.065669,3.141612,122.32937,-0.037125,-0.085709,0.987473,-0.385229,0.132847,-0.001036,61.919556,35.082336,-145.427414,,,
729706965.162807,-5.06568,3.141579,-21.580805,-0.037125,-0.085709,0.987473,-0.385229,0.132847,-0.001036,61.919556,35.082336,-145.427414,,,
729706965.163206,-5.185183,3.184648,122.336257,-0.037125,-0.085709,0.987473,-0.426321,0.157423,0.000808,61.919556,35.082336,-145.427414,,,
729706965.166286,-5.185195,3.184615,-21.573922,-0.037125,-0.085709,0.987473,-0.426321,0.157423,0.000808,61.919556,35.082336,-145.427414,,,
729706965.166779,-5.185183,3.184648,122.336257,-0.037125,-0.085709,0.987473,-0.426321,0.157423,0.000808,61.919556,35.082336,-145.427414,,,
729706965.167361,-5.185195,3.184615,-21.573922,-0.037125,-0.085709,0.987473,-0.426321,0.157423,0.000808,61.919556,35.082336,-145.427414,,,
729706965.169898,-5.310658,3.231027,122.344242,-0.040085,-0.086044,0.983292,-0.426321,0.157423,0.000808,61.919556,35.082336,-145.427414,,,
729706965.171572,-5.310669,3.230994,-21.565937,-0.040085,-0.086044,0.983292,-0.426321,0.157423,0.000808,61.919556,35.082336,-145.427414,,,
729706965.173215,-5.442781,3.279236,122.353175,-0.040085,-0.086044,0.983292,-0.472779,0.169163,0.00398,61.919556,35.082336,-145.427414,,,
729706965.175253,-5.442792,3.279203,-21.557004,-0.040085,-0.086044,0.983292,-0.472779,0.169163,0.00398,61.919556,35.082336,-145.427414,,,
729706965.176616,-5.442781,3.279236,122.353175,-0.040085,-0.086044,0.983292,-0.472779,0.169163,0.00398,61.919556,35.082336,-145.427414,,,
729706965.177382,-5.442792,3.279203,-21.557004,-0.040085,-0.086044,0.983292,-0.472779,0.169163,0.00398,61.919556,35.082336,-145.427414,,,
729706965.179876,-5.581481,3.327608,122.363008,-0.045227,-0.087738,0.974136,-0.472779,0.169163,0.00398,61.919556,35.082336,-145.427414,,,
729706965.181912,-5.581492,3.327575,-21.547173,-0.045227,-0.087738,0.974136,-0.472779,0.169163,0.00398,61.919556,35.082336,-145.427414,,,
729706965.183351,-5.727221,3.375402,122.372816,-0.045227,-0.087738,0.974136,-0.52139,0.164654,0.000109,61.919556,35.082336,-145.427414,,,
729706965.185258,-5.727233,3.375368,-21.537362,-0.045227,-0.087738,0.974136,-0.52139,0.164654,0.000109,61.919556,35.082336,-145.427414,,,
729706965.186572,-5.727221,3.375402,122.372816,-0.045227,-0.087738,0.974136,-0.52139,0.164654,0.000109,61.919556,35.082336,-145.427414,,,
729706965.187364,-5.727233,3.375368,-21.537362,-0.045227,-0.087738,0.974136,-0.52139,0.164654,0.000109,61.919556,35.082336,-145.427414,,,
729706965.189958,-5.879851,3.421951,122.381977,-0.04657,-0.092438,0.965393,-0.52139,0.164654,0.000109,61.919556,35.082336,-145.427414,,,
729706965.191559,-5.879862,3.421918,-21.528206,-0.04657,-0.092438,0.965393,-0.52139,0.164654,0.000109,61.919556,35.082336,-145.427414,,,
729706965.193208,-6.038058,3.467415,122.38972,-0.04657,-0.092438,0.965393,-0.559656,0.15775,-0.012898,61.919556,35.082336,-145.427414,,,
729706965.196252,-6.038069,3.467382,-21.520465,-0.04657,-0.092438,0.965393,-0.559656,0.15775,-0.012898,61.919556,35.082336,-145.427414,,,
729706965.196552,-6.038058,3.467415,122.38972,-0.04657,-0.092438,0.965393,-0.559656,0.15775,-0.012898,61.919556,35.082336,-145.427414,,,
729706965.197387,-6.038069,3.467382,-21.520465,-0.04657,-0.092438,0.965393,-0.559656,0.15775,-0.012898,61.919556,35.082336,-145.427414,,,
729706965.199894,-6.200923,3.512344,122.39417,-0.045029,-0.095657,0.969681,-0.559656,0.15775,-0.012898,62.430984,36.309998,-145.406845,,,
729706965.202136,-6.200934,3.512311,-21.516018,-0.045029,-0.095657,0.969681,-0.559656,0.15775,-0.012898,62.430984,36.309998,-145.406845,,,
729706965.203212,-6.3681,3.556397,122.394925,-0.045029,-0.095657,0.969681,-0.587897,0.154125,-0.041145,62.430984,36.309998,-145.406845,,,
729706965.20524,-6.368111,3.556364,-21.515248,-0.045029,-0.095657,0.969681,-0.587897,0.154125,-0.041145,62.430984,36.309998,-145.406845,,,
729706965.20656,-6.3681,3.556397,122.394925,-0.045029,-0.095657,0.969681,-0.587897,0.154125,-0.041145,62.430984,36.309998,-145.406845,,,
729706965.207374,-6.368111,3.556364,-21.515248,-0.045029,-0.095657,0.969681,-0.587897,0.154125,-0.041145,62.430984,36.309998,-145.406845,,,
729706965.209861,-6.539182,3.599615,122.392082,-0.042542,-0.099686,0.970734,-0.587897,0.154125,-0.041145,62.430984,36.309998,-145.406845,,,
729706965.211509,-6.539193,3.599582,-21.518092,-0.042542,-0.099686,0.970734,-0.587897,0.154125,-0.041145,62.430984,36.309998,-145.406845,,,
729706965.213201,-6.712902,3.642646,122.386002,-0.042542,-0.099686,0.970734,-0.604379,0.155175,-0.065562,62.430984,36.309998,-145.406845,,,
729706965.215403,-6.712914,3.642613,-21.524171,-0.042542,-0.099686,0.970734,-0.604379,0.155175,-0.065562,62.430984,36.309998,-145.406845,,,
729706965.216631,-6.712902,3.642646,122.386002,-0.042542,-0.099686,0.970734,-0.604379,0.155175,-0.065562,62.430984,36.309998,-145.406845,,,
729706965.217388,-6.712914,3.642613,-21.524171,-0.042542,-0.099686,0.970734,-0.604379,0.155175,-0.065562,62.430984,36.309998,-145.406845,,,
729706965.219893,-6.887706,3.684839,122.377306,-0.050034,-0.110687,0.974213,-0.604379,0.155175,-0.065562,62.430984,36.309998,-145.406845,,,
729706965.221985,-6.887717,3.684806,-21.532866,-0.050034,-0.110687,0.974213,-0.604379,0.155175,-0.065562,62.430984,36.309998,-145.406845,,,
729706965.223209,-7.063278,3.726475,122.366366,-0.050034,-0.110687,0.974213,-0.608705,0.153195,-0.082385,62.430984,36.309998,-145.406845,,,
729706965.22541,-7.06329,3.726442,-21.543822,-0.050034,-0.110687,0.974213,-0.608705,0.153195,-0.082385,62.430984,36.309998,-145.406845,,,
729706965.226536,-7.063278,3.726475,122.366366,-0.050034,-0.110687,0.974213,-0.608705,0.153195,-0.082385,62.430984,36.309998,-145.406845,,,
729706965.227345,-7.06329,3.726442,-21.543822,-0.050034,-0.110687,0.974213,-0.608705,0.153195,-0.082385,62.430984,36.309998,-145.406845,,,
729706965.229885,-7.240127,3.769462,122.353481,-0.051636,-0.119934,0.977432,-0.608705,0.153195,-0.082385,62.430984,36.309998,-145.406845,,,
729706965.231887,-7.240139,3.769429,-21.556708,-0.051636,-0.119934,0.977432,-0.608705,0.153195,-0.082385,62.430984,36.309998,-145.406845,,,
729706965.233213,-7.418466,3.815254,122.33941,-0.051636,-0.119934,0.977432,-0.618243,0.173821,-0.092166,62.430984,36.309998,-145.406845,,,
729706965.235426,-7.418477,3.815221,-21.570775,-0.051636,-0.119934,0.977432,-0.618243,0.173821,-0.092166,62.430984,36.309998,-145.406845,,,
729706965.236537,-7.418466,3.815254,122.33941,-0.051636,-0.119934,0.977432,-0.618243,0.173821,-0.092166,62.430984,36.309998,-145.406845,,,
729706965.237345,-7.418477,3.815221,-21.570775,-0.051636,-0.119934,0.977432,-0.618243,0.173821,-0.092166,62.430984,36.309998,-145.406845,,,
729706965.239982,-7.599524,3.864495,122.325541,-0.046982,-0.127197,0.981628,-0.618243,0.173821,-0.092166,62.430984,36.309998,-145.406845,,,
729706965.242501,-7.599535,3.864462,-21.584645,-0.046982,-0.127197,0.981628,-0.618243,0.173821,-0.092166,62.694077,37.582504,-145.069992,,,
729706965.242994,-7.78475,3.917224,122.312917,-0.046982,-0.127197,0.981628,-0.647243,0.196961,-0.086634,62.694077,37.582504,-145.069992,,,
729706965.245249,-7.784761,3.917191,-21.59727,-0.046982,-0.127197,0.981628,-0.647243,0.196961,-0.086634,62.694077,37.582504,-145.069992,,,
729706965.246547,-7.78475,3.917224,122.312917,-0.046982,-0.127197,0.981628,-0.647243,0.196961,-0.086634,62.694077,37.582504,-145.069992,,,
729706965.247367,-7.784761,3.917191,-21.59727,-0.046982,-0.127197,0.981628,-0.647243,0.196961,-0.086634,62.694077,37.582504,-145.069992,,,
729706965.249891,-7.974941,3.973032,122.302063,-0.054901,-0.137756,0.97644,-0.647243,0.196961,-0.086634,62.694077,37.582504,-145.069992,,,
729706965.25175,-7.974952,3.972999,-21.608124,-0.054901,-0.137756,0.97644,-0.647243,0.196961,-0.086634,62.694077,37.582504,-145.069992,,,
729706965.253214,-8.171635,4.032087,122.293227,-0.054901,-0.137756,0.97644,-0.693371,0.217702,-0.077289,62.694077,37.582504,-145.069992,,,
729706965.255445,-8.171646,4.032054,-21.616962,-0.054901,-0.137756,0.97644,-0.693371,0.217702,-0.077289,62.694077,37.582504,-145.069992,,,
729706965.256547,-8.171635,4.032087,122.293227,-0.054901,-0.137756,0.97644,-0.693371,0.217702,-0.077289,62.694077,37.582504,-145.069992,,,
729706965.257346,-8.171646,4.032054,-21.616962,-0.054901,-0.137756,0.97644,-0.693371,0.217702,-0.077289,62.694077,37.582504,-145.069992,,,
729706965.259867,-8.375825,4.095676,122.286872,-0.05986,-0.140961,0.973358,-0.693371,0.217702,-0.077289,62.694077,37.582504,-145.069992,,,
729706965.261707,-8.375836,4.095643,-21.623319,-0.05986,-0.140961,0.973358,-0.693371,0.217702,-0.077289,62.694077,37.582504,-145.069992,,,
729706965.263205,-8.588974,4.16502,122.283398,-0.05986,-0.140961,0.973358,-0.756753,0.254755,-0.063606,62.694077,37.582504,-145.069992,,,
729706965.265411,-8.588985,4.164987,-21.626795,-0.05986,-0.140961,0.973358,-0.756753,0.254755,-0.063606,62.694077,37.582504,-145.069992,,,
729706965.266543,-8.588974,4.16502,122.283398,-0.05986,-0.140961,0.973358,-0.756753,0.254755,-0.063606,62.694077,37.582504,-145.069992,,,
729706965.267351,-8.588985,4.164987,-21.626795,-0.05986,-0.140961,0.973358,-0.756753,0.254755,-0.063606,62.694077,37.582504,-145.069992,,,
729706965.269872,-8.81257,4.240237,122.282127,-0.059677,-0.144852,0.973068,-0.756753,0.254755,-0.063606,62.694077,37.582504,-145.069992,,,
729706965.271316,-8.812582,4.240204,-21.62806,-0.059677,-0.144852,0.973068,-0.756753,0.254755,-0.063606,62.694077,37.582504,-145.069992,,,
729706965.273201,-9.047675,4.321618,122.282197,-0.059677,-0.144852,0.973068,-0.836773,0.295944,-0.062526,62.694077,37.582504,-145.069992,,,
729706965.275047,-9.047687,4.321585,-21.627984,-0.059677,-0.144852,0.973068,-0.836773,0.295944,-0.062526,62.694077,37.582504,-145.069992,,,
729706965.276384,-9.047675,4.321618,122.282197,-0.059677,-0.144852,0.973068,-0.836773,0.295944,-0.062526,62.694077,37.582504,-145.069992,,,
729706965.277369,-9.047687,4.321585,-21.627984,-0.059677,-0.144852,0.973068,-0.836773,0.295944,-0.062526,62.694077,37.582504,-145.069992,,,
729706965.279862,-9.294617,4.408453,122.283303,-0.061096,-0.147491,0.969437,-0.836773,0.295944,-0.062526,62.694077,37.582504,-145.069992,,,
729706965.282162,-9.294628,4.408419,-21.626875,-0.061096,-0.147491,0.969437,-0.836773,0.295944,-0.062526,63.297333,39.114883,-144.886765,,,
729706965.283214,-9.553725,4.499977,122.284995,-0.061096,-0.147491,0.969437,-0.921612,0.327829,-0.067871,63.297333,39.114883,-144.886765,,,
729706965.285247,-9.553737,4.499944,-21.625188,-0.061096,-0.147491,0.969437,-0.921612,0.327829,-0.067871,63.297333,39.114883,-144.886765,,,
729706965.286556,-9.553725,4.499977,122.284995,-0.061096,-0.147491,0.969437,-0.921612,0.327829,-0.067871,63.297333,39.114883,-144.886765,,,
729706965.287346,-9.553737,4.499944,-21.625188,-0.061096,-0.147491,0.969437,-0.921612,0.327829,-0.067871,63.297333,39.114883,-144.886765,,,
729706965.289953,-9.825822,4.594776,122.287002,-0.062836,-0.154358,0.963821,-0.921612,0.327829,-0.067871,63.297333,39.114883,-144.886765,,,
729706965.291795,-9.825833,4.594742,-21.623186,-0.062836,-0.154358,0.963821,-0.921612,0.327829,-0.067871,63.297333,39.114883,-144.886765,,,
729706965.292977,-10.111594,4.691064,122.288222,-0.062836,-0.154358,0.963821,-1.015765,0.338871,-0.084165,63.297333,39.114883,-144.886765,,,
729706965.295342,-10.111606,4.691031,-21.621968,-0.062836,-0.154358,0.963821,-1.015765,0.338871,-0.084165,63.297333,39.114883,-144.886765,,,
729706965.296545,-10.111594,4.691064,122.288222,-0.062836,-0.154358,0.963821,-1.015765,0.338871,-0.084165,63.297333,39.114883,-144.886765,,,
729706965.297345,-10.111606,4.691031,-21.621968,-0.062836,-0.154358,0.963821,-1.015765,0.338871,-0.084165,63.297333,39.114883,-144.886765,,,
729706965.299866,-10.411439,4.786679,122.287161,-0.063934,-0.157898,0.951294,-1.015765,0.338871,-0.084165,63.297333,39.114883,-144.886765,,,
729706965.301727,-10.411451,4.786646,-21.62303,-0.063934,-0.157898,0.951294,-1.015765,0.338871,-0.084165,63.297333,39.114883,-144.886765,,,
729706965.303201,-10.725746,4.880862,122.283917,-0.063934,-0.157898,0.951294,-1.114042,0.331386,-0.111002,63.297333,39.114883,-144.886765,,,
729706965.305414,-10.725758,4.880829,-21.626274,-0.063934,-0.157898,0.951294,-1.114042,0.331386,-0.111002,63.297333,39.114883,-144.886765,,,
729706965.306549,-10.725746,4.880862,122.283917,-0.063934,-0.157898,0.951294,-1.114042,0.331386,-0.111002,63.297333,39.114883,-144.886765,,,
729706965.307346,-10.725758,4.880829,-21.626274,-0.063934,-0.157898,0.951294,-1.114042,0.331386,-0.111002,63.297333,39.114883,-144.886765,,,
729706965.309661,-11.055061,4.973187,122.277972,-0.0672,-0.166641,0.942429,-1.114042,0.331386,-0.111002,63.297333,39.114883,-144.886765,,,
729706965.311903,-11.055072,4.973154,-21.632223,-0.0672,-0.166641,0.942429,-1.114042,0.331386,-0.111002,63.297333,39.114883,-144.886765,,,
729706965.313188,-11.39972,5.062368,122.268849,-0.0672,-0.166641,0.942429,-1.218632,0.313938,-0.145532,63.297333,39.114883,-144.886765,,,
729706965.315401,-11.399732,5.062334,-21.64133,-0.0672,-0.166641,0.942429,-1.218632,0.313938,-0.145532,63.297333,39.114883,-144.886765,,,
729706965.316541,-11.39972,5.062368,122.268849,-0.0672,-0.166641,0.942429,-1.218632,0.313938,-0.145532,63.297333,39.114883,-144.886765,,,
729706965.317346,-11.399732,5.062334,-21.64133,-0.0672,-0.166641,0.942429,-1.218632,0.313938,-0.145532,63.297333,39.114883,-144.886765,,,
729706965.319872,-11.761162,5.147341,122.255882,-0.072617,-0.179703,0.937317,-1.218632,0.313938,-0.145532,63.297333,39.114883,-144.886765,,,
729706965.321739,-11.761174,5.147308,-21.654301,-0.072617,-0.179703,0.937317,-1.218632,0.313938,-0.145532,63.297333,39.114883,-144.886765,,,
729706965.323201,-12.140779,5.227653,122.238653,-0.072617,-0.179703,0.937317,-1.341549,0.287984,-0.189381,63.814178,41.444351,-143.933136,,,
729706965.326048,-12.140791,5.22762,-21.671528,-0.072617,-0.179703,0.937317,-1.341549,0.287984,-0.189381,63.814178,41.444351,-143.933136,,,
729706965.326537,-12.140779,5.227653,122.238653,-0.072617,-0.179703,0.937317,-1.341549,0.287984,-0.189381,63.814178,41.444351,-143.933136,,,
729706965.327346,-12.140791,5.22762,-21.671528,-0.072617,-0.179703,0.937317,-1.341549,0.287984,-0.189381,63.814178,41.444351,-143.933136,,,
729706965.329931,-12.53826,5.302993,122.216498,-0.07045,-0.194397,0.927841,-1.341549,0.287984,-0.189381,63.814178,41.444351,-143.933136,,,
729706965.33188,-12.538272,5.302959,-21.693687,-0.07045,-0.194397,0.927841,-1.341549,0.287984,-0.189381,63.814178,41.444351,-143.933136,,,
729706965.333206,-12.955155,5.373281,122.187775,-0.07045,-0.194397,0.927841,-1.470903,0.263649,-0.249561,63.814178,41.444351,-143.933136,,,
729706965.335425,-12.955167,5.373248,-21.722412,-0.07045,-0.194397,0.927841,-1.470903,0.263649,-0.249561,63.814178,41.444351,-143.933136,,,
729706965.336554,-12.955155,5.373281,122.187775,-0.07045,-0.194397,0.927841,-1.470903,0.263649,-0.249561,63.814178,41.444351,-143.933136,,,
729706965.337343,-12.955167,5.373248,-21.722412,-0.07045,-0.194397,0.927841,-1.470903,0.263649,-0.249561,63.814178,41.444351,-143.933136,,,
729706965.339882,-13.392049,5.438925,122.152195,-0.06488,-0.204956,0.926041,-1.470903,0.263649,-0.249561,63.814178,41.444351,-143.933136,,,
729706965.341865,-13.392061,5.438892,-21.757996,-0.06488,-0.204956,0.926041,-1.470903,0.263649,-0.249561,63.814178,41.444351,-143.933136,,,
729706965.343206,-13.847376,5.500834,122.109529,-0.06488,-0.204956,0.926041,-1.594135,0.251033,-0.312591,63.814178,41.444351,-143.933136,,,
729706965.345387,-13.847388,5.5008,-21.800659,-0.06488,-0.204956,0.926041,-1.594135,0.251033,-0.312591,63.814178,41.444351,-143.933136,,,
729706965.34655,-13.847376,5.500834,122.109529,-0.06488,-0.204956,0.926041,-1.594135,0.251033,-0.312591,63.814178,41.444351,-143.933136,,,
729706965.347341,-13.847388,5.5008,-21.800659,-0.06488,-0.204956,0.926041,-1.594135,0.251033,-0.312591,63.814178,41.444351,-143.933136,,,
729706965.349962,-14.319413,5.559468,122.060002,-0.061661,-0.220413,0.927582,-1.594135,0.251033,-0.312591,63.814178,41.444351,-143.933136,,,
729706965.351724,-14.319425,5.559435,-21.850186,-0.061661,-0.220413,0.927582,-1.594135,0.251033,-0.312591,63.814178,41.444351,-143.933136,,,
729706965.353296,-14.805438,5.61494,122.005013,-0.061661,-0.220413,0.927582,-1.686844,0.241184,-0.361307,63.814178,41.444351,-143.933136,,,
729706965.355422,-14.80545,5.614906,-21.905177,-0.061661,-0.220413,0.927582,-1.686844,0.241184,-0.361307,63.814178,41.444351,-143.933136,,,
729706965.356612,-14.805438,5.61494,122.005013,-0.061661,-0.220413,0.927582,-1.686844,0.241184,-0.361307,63.814178,41.444351,-143.933136,,,
729706965.357341,-14.80545,5.614906,-21.905177,-0.061661,-0.220413,0.927582,-1.686844,0.241184,-0.361307,63.814178,41.444351,-143.933136,,,
729706965.35987,-15.302138,5.666802,121.946781,-0.069489,-0.24501,0.933945,-1.686844,0.241184,-0.361307,63.814178,41.444351,-143.933136,,,
729706965.361884,-15.30215,5.666768,-21.963411,-0.069489,-0.24501,0.933945,-1.686844,0.241184,-0.361307,63.814178,41.444351,-143.933136,,,
729706965.363292,-15.806458,5.714767,121.887312,-0.069489,-0.24501,0.933945,-1.737505,0.219509,-0.376768,64.144424,44.211288,-142.999786,,,
729706965.366146,-15.80647,5.714733,-22.022886,-0.069489,-0.24501,0.933945,-1.737505,0.219509,-0.376768,64.144424,44.211288,-142.999786,,,
729706965.36658,-15.806458,5.714767,121.887312,-0.069489,-0.24501,0.933945,-1.737505,0.219509,-0.376768,64.144424,44.211288,-142.999786,,,
729706965.367342,-15.80647,5.714733,-22.022886,-0.069489,-0.24501,0.933945,-1.737505,0.219509,-0.376768,64.144424,44.211288,-142.999786,,,
729706965.369958,-16.316222,5.759178,121.828289,-0.084839,-0.277039,0.940735,-1.737505,0.219509,-0.376768,64.144424,44.211288,-142.999786,,,
729706965.372084,-16.316235,5.759144,-22.081895,-0.084839,-0.277039,0.940735,-1.737505,0.219509,-0.376768,64.144424,44.211288,-142.999786,,,
729706965.37322,-16.82986,5.800542,121.770843,-0.084839,-0.277039,0.940735,-1.765523,0.198605,-0.370906,64.144424,44.211288,-142.999786,,,
729706965.375418,-16.829872,5.800508,-22.139336,-0.084839,-0.277039,0.940735,-1.765523,0.198605,-0.370906,64.144424,44.211288,-142.999786,,,
729706965.376558,-16.82986,5.800542,121.770843,-0.084839,-0.277039,0.940735,-1.765523,0.198605,-0.370906,64.144424,44.211288,-142.999786,,,
729706965.377345,-16.829872,5.800508,-22.139336,-0.084839,-0.277039,0.940735,-1.765523,0.198605,-0.370906,64.144424,44.211288,-142.999786,,,
729706965.379877,-17.344582,5.838752,121.715145,-0.088242,-0.306168,0.949265,-1.765523,0.198605,-0.370906,64.144424,44.211288,-142.999786,,,
729706965.382063,-17.344595,5.838718,-22.195036,-0.088242,-0.306168,0.949265,-1.765523,0.198605,-0.370906,64.144424,44.211288,-142.999786,,,
729706965.383224,-17.857781,5.8742,121.661155,-0.088242,-0.306168,0.949265,-1.75635,0.178997,-0.359982,64.144424,44.211288,-142.999786,,,
729706965.385461,-17.857793,5.874166,-22.249024,-0.088242,-0.306168,0.949265,-1.75635,0.178997,-0.359982,64.144424,44.211288,-142.999786,,,
729706965.386565,-17.857781,5.8742,121.661155,-0.088242,-0.306168,0.949265,-1.75635,0.178997,-0.359982,64.144424,44.211288,-142.999786,,,
729706965.387347,-17.857793,5.874166,-22.249024,-0.088242,-0.306168,0.949265,-1.75635,0.178997,-0.359982,64.144424,44.211288,-142.999786,,,
