Time (sec),Pitch (deg),Roll (deg),Yaw(deg),X-Acceleration (g),Y-Acceleration (g),Z-Acceleration (g),Pitch Rate (deg/sec),Roll Rate (deg/sec),Yaw Rate (deg/sec),Magnetic Field in X direction (uT),Magnetic Field in Y direction (uT),Magnetic Field in Z Direction (uT),Latitude (deg),Longitude (deg),Altitude (m)
729716513.981674,-2.67104,-5.95588,-84.257527,0.101685,-0.050323,0.994797,0.006081,-0.010918,0.010183,60.579559,15.17627,-149.988388,,,
729716513.981897,-2.67104,-5.955882,-81.180649,0.101685,-0.050323,0.994797,0.006081,-0.010918,0.010183,60.579559,15.17627,-149.988388,,,
729716513.984887,-2.669263,-5.959497,-84.254413,0.101685,-0.050323,0.994797,0.006389,-0.006664,0.005669,60.579559,15.17627,-149.988388,,,
729716513.985111,-2.669262,-5.959499,-81.177534,0.101685,-0.050323,0.994797,0.006389,-0.006664,0.005669,60.579559,15.17627,-149.988388,,,
729716513.988587,-2.669263,-5.959497,-84.254413,0.101685,-0.050323,0.994797,0.006389,-0.006664,0.005669,60.617798,15.063889,-149.622192,,,
729716513.988812,-2.669262,-5.959499,-81.177534,0.101685,-0.050323,0.994797,0.006389,-0.006664,0.005669,60.617798,15.063889,-149.622192,,,
729716513.991469,-2.666977,-5.962188,-84.252075,0.111252,-0.047806,0.993164,0.006389,-0.006664,0.005669,60.617798,15.063889,-149.622192,,,
729716513.991675,-2.666976,-5.96219,-81.175196,0.111252,-0.047806,0.993164,0.006389,-0.006664,0.005669,60.617798,15.063889,-149.622192,,,
729716513.99509,-2.665539,-5.964051,-84.25008,0.111252,-0.047806,0.993164,0.011236,-0.000374,0.004649,60.617798,15.063889,-149.622192,,,
729716513.995355,-2.665538,-5.964053,-81.173201,0.111252,-0.047806,0.993164,0.011236,-0.000374,0.004649,60.617798,15.063889,-149.622192,,,
729716513.997882,-2.665539,-5.964051,-84.25008,0.111252,-0.047806,0.993164,0.011236,-0.000374,0.004649,60.617798,15.063889,-149.622192,,,
729716513.998068,-2.665538,-5.964053,-81.173201,0.111252,-0.047806,0.993164,0.011236,-0.000374,0.004649,60.617798,15.063889,-149.622192,,,
729716514.001618,-2.662863,-5.964643,-84.247799,0.114182,-0.046799,0.991638,0.011236,-0.000374,0.004649,60.617798,15.063889,-149.622192,,,
729716514.001827,-2.662863,-5.964645,-81.17092,0.114182,-0.046799,0.991638,0.011236,-0.000374,0.004649,60.617798,15.063889,-149.622192,,,
729716514.006233,-2.659883,-5.963816,-84.244978,0.114182,-0.046799,0.991638,0.01433,0.009762,0.006961,60.617798,15.063889,-149.622192,,,
729716514.006486,-2.659882,-5.963818,-81.168099,0.114182,-0.046799,0.991638,0.01433,0.009762,0.006961,60.617798,15.063889,-149.622192,,,
729716514.007732,-2.659883,-5.963816,-84.244978,0.114182,-0.046799,0.991638,0.01433,0.009762,0.006961,60.617798,15.063889,-149.622192,,,
729716514.008028,-2.659882,-5.963818,-81.168099,0.114182,-0.046799,0.991638,0.01433,0.009762,0.006961,60.617798,15.063889,-149.622192,,,
729716514.011551,-2.656941,-5.96193,-84.24234,0.114761,-0.046799,0.995682,0.01433,0.009762,0.006961,60.617798,15.063889,-149.622192,,,
729716514.011755,-2.656941,-5.961932,-81.165462,0.114761,-0.046799,0.995682,0.01433,0.009762,0.006961,60.617798,15.063889,-149.622192,,,
729716514.015462,-2.652526,-5.959304,-84.2403,0.114761,-0.046799,0.995682,0.019704,0.012505,0.002105,60.617798,15.063889,-149.622192,,,
729716514.015686,-2.652525,-5.959306,-81.163422,0.114761,-0.046799,0.995682,0.019704,0.012505,0.002105,60.617798,15.063889,-149.622192,,,
729716514.017822,-2.652526,-5.959304,-84.2403,0.114761,-0.046799,0.995682,0.019704,0.012505,0.002105,60.617798,15.063889,-149.622192,,,
729716514.018037,-2.652525,-5.959306,-81.163422,0.114761,-0.046799,0.995682,0.019704,0.012505,0.002105,60.617798,15.063889,-149.622192,,,
729716514.021743,-2.647491,-5.955549,-84.238551,0.117279,-0.049927,0.991867,0.019704,0.012505,0.002105,60.617798,15.063889,-149.622192,,,
729716514.021959,-2.647491,-5.955551,-81.161673,0.117279,-0.049927,0.991867,0.019704,0.012505,0.002105,60.617798,15.063889,-149.622192,,,
729716514.026525,-2.642098,-5.95231,-84.237227,0.117279,-0.049927,0.991867,0.019005,0.012228,-0.000208,60.617798,15.063889,-149.622192,,,
729716514.02679,-2.642098,-5.952312,-81.160349,0.117279,-0.049927,0.991867,0.019005,0.012228,-0.000208,60.617798,15.063889,-149.622192,,,
729716514.027801,-2.642098,-5.95231,-84.237227,0.117279,-0.049927,0.991867,0.019005,0.012228,-0.000208,60.617798,15.063889,-149.622192,,,
729716514.028032,-2.642098,-5.952312,-81.160349,0.117279,-0.049927,0.991867,0.019005,0.012228,-0.000208,60.465652,15.037216,-149.526871,,,
729716514.032229,-2.638022,-5.947708,-84.236251,0.113464,-0.046677,0.989838,0.019005,0.012228,-0.000208,60.465652,15.037216,-149.526871,,,
729716514.032458,-2.638022,-5.94771,-81.159372,0.113464,-0.046677,0.989838,0.019005,0.012228,-0.000208,60.465652,15.037216,-149.526871,,,
729716514.035306,-2.634673,-5.945405,-84.236196,0.113464,-0.046677,0.989838,0.007206,0.009903,-0.00555,60.465652,15.037216,-149.526871,,,
729716514.035541,-2.634672,-5.945407,-81.159318,0.113464,-0.046677,0.989838,0.007206,0.009903,-0.00555,60.465652,15.037216,-149.526871,,,
729716514.03787,-2.634673,-5.945405,-84.236196,0.113464,-0.046677,0.989838,0.007206,0.009903,-0.00555,60.465652,15.037216,-149.526871,,,
729716514.038076,-2.634672,-5.945407,-81.159318,0.113464,-0.046677,0.989838,0.007206,0.009903,-0.00555,60.465652,15.037216,-149.526871,,,
729716514.041874,-2.633171,-5.94239,-84.237146,0.113098,-0.043564,0.985397,0.007206,0.009903,-0.00555,60.465652,15.037216,-149.526871,,,
729716514.042088,-2.63317,-5.942392,-81.160267,0.113098,-0.043564,0.985397,0.007206,0.009903,-0.00555,60.465652,15.037216,-149.526871,,,
729716514.045871,-2.631506,-5.941319,-84.239108,0.113098,-0.043564,0.985397,-0.000354,0.008188,-0.010373,60.465652,15.037216,-149.526871,,,
729716514.046121,-2.631506,-5.941321,-81.162229,0.113098,-0.043564,0.985397,-0.000354,0.008188,-0.010373,60.465652,15.037216,-149.526871,,,
729716514.047791,-2.631506,-5.941319,-84.239108,0.113098,-0.043564,0.985397,-0.000354,0.008188,-0.010373,60.465652,15.037216,-149.526871,,,
729716514.04802,-2.631506,-5.941321,-81.162229,0.113098,-0.043564,0.985397,-0.000354,0.008188,-0.010373,60.465652,15.037216,-149.526871,,,
729716514.051559,-2.633048,-5.938848,-84.241382,0.113617,-0.042007,0.984589,-0.000354,0.008188,-0.010373,60.465652,15.037216,-149.526871,,,
729716514.051773,-2.633047,-5.93885,-81.164503,0.113617,-0.042007,0.984589,-0.000354,0.008188,-0.010373,60.465652,15.037216,-149.526871,,,
729716514.054567,-2.634173,-5.937373,-84.244299,0.113617,-0.042007,0.984589,-0.000354,0.008188,-0.010373,60.465652,15.037216,-149.526871,,,
729716514.054752,-2.634172,-5.937375,-81.167421,0.113617,-0.042007,0.984589,-0.00735,0.013305,-0.013607,60.465652,15.037216,-149.526871,,,
729716514.058264,-2.634173,-5.937373,-84.244299,0.113617,-0.042007,0.984589,-0.00735,0.013305,-0.013607,60.465652,15.037216,-149.526871,,,
729716514.058476,-2.634172,-5.937375,-81.167421,0.113617,-0.042007,0.984589,-0.00735,0.013305,-0.013607,60.465652,15.037216,-149.526871,,,
729716514.062357,-2.636113,-5.934919,-84.248233,0.112076,-0.041412,0.991821,-0.00735,0.013305,-0.013607,60.465652,15.037216,-149.526871,,,
729716514.062578,-2.636112,-5.934921,-81.171355,0.112076,-0.041412,0.991821,-0.00735,0.013305,-0.013607,60.465652,15.037216,-149.526871,,,
729716514.064465,-2.636113,-5.934919,-84.248233,0.112076,-0.041412,0.991821,-0.00735,0.013305,-0.013607,60.465652,15.037216,-149.526871,,,
729716514.064716,-2.637271,-5.931736,-81.176135,0.112076,-0.041412,0.991821,-0.002569,0.015502,-0.018914,60.465652,15.037216,-149.526871,,,
729716514.068638,-2.637271,-5.931734,-84.253013,0.112076,-0.041412,0.991821,-0.002569,0.015502,-0.018914,60.465652,15.037216,-149.526871,,,
729716514.06886,-2.637271,-5.931736,-81.176135,0.112076,-0.041412,0.991821,-0.002569,0.015502,-0.018914,60.447311,15.075577,-149.802475,,,
729716514.072212,-2.638059,-5.930796,-84.258431,0.112015,-0.045181,0.992737,-0.002569,0.015502,-0.018914,60.447311,15.075577,-149.802475,,,
729716514.072447,-2.638058,-5.930799,-81.181553,0.112015,-0.045181,0.992737,-0.002569,0.015502,-0.018914,60.447311,15.075577,-149.802475,,,
729716514.074503,-2.638059,-5.930796,-84.258431,0.112015,-0.045181,0.992737,-0.002569,0.015502,-0.018914,60.447311,15.075577,-149.802475,,,
729716514.074692,-2.637138,-5.926682,-81.186813,0.112015,-0.045181,0.992737,0.008011,0.019532,-0.020968,60.447311,15.075577,-149.802475,,,
729716514.079132,-2.637139,-5.92668,-84.263691,0.112015,-0.045181,0.992737,0.008011,0.019532,-0.020968,60.447311,15.075577,-149.802475,,,
729716514.079408,-2.637138,-5.926682,-81.186813,0.112015,-0.045181,0.992737,0.008011,0.019532,-0.020968,60.447311,15.075577,-149.802475,,,
729716514.082197,-2.634925,-5.924852,-84.269073,0.1091,-0.047577,0.999939,0.008011,0.019532,-0.020968,60.447311,15.075577,-149.802475,,,
729716514.082443,-2.634924,-5.924854,-81.192195,0.1091,-0.047577,0.999939,0.008011,0.019532,-0.020968,60.447311,15.075577,-149.802475,,,
729716514.084586,-2.634925,-5.924852,-84.269073,0.1091,-0.047577,0.999939,0.008011,0.019532,-0.020968,60.447311,15.075577,-149.802475,,,
729716514.084789,-2.631306,-5.919952,-81.197228,0.1091,-0.047577,0.999939,0.012537,0.021167,-0.019035,60.447311,15.075577,-149.802475,,,
729716514.087943,-2.631307,-5.91995,-84.274106,0.1091,-0.047577,0.999939,0.012537,0.021167,-0.019035,60.447311,15.075577,-149.802475,,,
729716514.08814,-2.631306,-5.919952,-81.197228,0.1091,-0.047577,0.999939,0.012537,0.021167,-0.019035,60.447311,15.075577,-149.802475,,,
729716514.091934,-2.627465,-5.918851,-84.278996,0.101212,-0.048584,0.998016,0.012537,0.021167,-0.019035,60.447311,15.075577,-149.802475,,,
729716514.092183,-2.627464,-5.918853,-81.202117,0.101212,-0.048584,0.998016,0.012537,0.021167,-0.019035,60.447311,15.075577,-149.802475,,,
729716514.094696,-2.627465,-5.918851,-84.278996,0.101212,-0.048584,0.998016,0.012537,0.021167,-0.019035,60.447311,15.075577,-149.802475,,,
729716514.094956,-2.622034,-5.915354,-81.206335,0.101212,-0.048584,0.998016,0.021769,0.012843,-0.015251,60.447311,15.075577,-149.802475,,,
729716514.098792,-2.622034,-5.915352,-84.283213,0.101212,-0.048584,0.998016,0.021769,0.012843,-0.015251,60.447311,15.075577,-149.802475,,,
729716514.099017,-2.622034,-5.915354,-81.206335,0.101212,-0.048584,0.998016,0.021769,0.012843,-0.015251,60.447311,15.075577,-149.802475,,,
729716514.101627,-2.616602,-5.916885,-84.286966,0.096405,-0.051804,0.994736,0.021769,0.012843,-0.015251,60.447311,15.075577,-149.802475,,,
729716514.101846,-2.616601,-5.916887,-81.210088,0.096405,-0.051804,0.994736,0.021769,0.012843,-0.015251,60.447311,15.075577,-149.802475,,,
729716514.104648,-2.616602,-5.916885,-84.286966,0.096405,-0.051804,0.994736,0.021769,0.012843,-0.015251,60.447311,15.075577,-149.802475,,,
729716514.10484,-2.610092,-5.915623,-81.213184,0.096405,-0.051804,0.994736,0.018994,0.005045,-0.010899,60.447311,15.075577,-149.802475,,,
729716514.108532,-2.610093,-5.915621,-84.290063,0.096405,-0.051804,0.994736,0.018994,0.005045,-0.010899,60.447311,15.075577,-149.802475,,,
729716514.10874,-2.610092,-5.915623,-81.213184,0.096405,-0.051804,0.994736,0.018994,0.005045,-0.010899,60.447311,15.075577,-149.802475,,,
729716514.112413,-2.603941,-5.918414,-84.292433,0.091064,-0.051041,0.989594,0.018994,0.005045,-0.010899,60.688354,15.099945,-149.83345,,,
729716514.112651,-2.603941,-5.918416,-81.215555,0.091064,-0.051041,0.989594,0.018994,0.005045,-0.010899,60.688354,15.099945,-149.83345,,,
729716514.114503,-2.603941,-5.918414,-84.292433,0.091064,-0.051041,0.989594,0.018994,0.005045,-0.010899,60.688354,15.099945,-149.83345,,,
729716514.114728,-2.598644,-5.919604,-81.216927,0.091064,-0.051041,0.989594,0.014572,-0.002035,-0.004812,60.688354,15.099945,-149.83345,,,
729716514.119624,-2.598645,-5.919602,-84.293806,0.091064,-0.051041,0.989594,0.014572,-0.002035,-0.004812,60.688354,15.099945,-149.83345,,,
729716514.119874,-2.593792,-5.924356,-81.218152,0.089249,-0.050842,0.988831,0.014572,-0.002035,-0.004812,60.688354,15.099945,-149.83345,,,
729716514.12166,-2.593792,-5.924354,-84.295031,0.089249,-0.050842,0.988831,0.014572,-0.002035,-0.004812,60.688354,15.099945,-149.83345,,,
729716514.12188,-2.593792,-5.924356,-81.218152,0.089249,-0.050842,0.988831,0.014572,-0.002035,-0.004812,60.688354,15.099945,-149.83345,,,
729716514.124605,-2.593792,-5.924354,-84.295031,0.089249,-0.050842,0.988831,0.014572,-0.002035,-0.004812,60.688354,15.099945,-149.83345,,,
729716514.124823,-2.590457,-5.92524,-81.219011,0.089249,-0.050842,0.988831,0.010947,0.001477,-0.005222,60.688354,15.099945,-149.83345,,,
729716514.129633,-2.590458,-5.925238,-84.295889,0.089249,-0.050842,0.988831,0.010947,0.001477,-0.005222,60.688354,15.099945,-149.83345,,,
729716514.129892,-2.586501,-5.928182,-81.21972,0.091934,-0.053528,0.98851,0.010947,0.001477,-0.005222,60.688354,15.099945,-149.83345,,,
729716514.13105,-2.586502,-5.928179,-84.296598,0.091934,-0.053528,0.98851,0.010947,0.001477,-0.005222,60.688354,15.099945,-149.83345,,,
729716514.13136,-2.586501,-5.928182,-81.21972,0.091934,-0.053528,0.98851,0.010947,0.001477,-0.005222,60.688354,15.099945,-149.83345,,,
729716514.134633,-2.586502,-5.928179,-84.296598,0.091934,-0.053528,0.98851,0.010947,0.001477,-0.005222,60.688354,15.099945,-149.83345,,,
729716514.134816,-2.583398,-5.927367,-81.22017,0.091934,-0.053528,0.98851,0.011961,0.007513,-0.004568,60.688354,15.099945,-149.83345,,,
729716514.138732,-2.583398,-5.927365,-84.297048,0.091934,-0.053528,0.98851,0.011961,0.007513,-0.004568,60.688354,15.099945,-149.83345,,,
729716514.138953,-2.583398,-5.927367,-81.22017,0.091934,-0.053528,0.98851,0.011961,0.007513,-0.004568,60.688354,15.099945,-149.83345,,,
729716514.141176,-2.579738,-5.928388,-84.297617,0.092834,-0.05278,0.993362,0.011961,0.007513,-0.004568,60.688354,15.099945,-149.83345,,,
729716514.141399,-2.579737,-5.92839,-81.220739,0.092834,-0.05278,0.993362,0.011961,0.007513,-0.004568,60.688354,15.099945,-149.83345,,,
729716514.144602,-2.579738,-5.928388,-84.297617,0.092834,-0.05278,0.993362,0.011961,0.007513,-0.004568,60.688354,15.099945,-149.83345,,,
729716514.144835,-2.576829,-5.925781,-81.220403,0.092834,-0.05278,0.993362,0.009429,0.014908,0.00148,60.688354,15.099945,-149.83345,,,
729716514.149213,-2.57683,-5.925779,-84.297281,0.092834,-0.05278,0.993362,0.009429,0.014908,0.00148,60.688354,15.099945,-149.83345,,,
729716514.149503,-2.576829,-5.925781,-81.220403,0.092834,-0.05278,0.993362,0.009429,0.014908,0.00148,60.688354,15.099945,-149.83345,,,
729716514.15248,-2.574691,-5.924777,-84.295807,0.093094,-0.050507,0.993378,0.009429,0.014908,0.00148,60.7724,14.980728,-149.974716,,,
729716514.152725,-2.574691,-5.92478,-81.218928,0.093094,-0.050507,0.993378,0.009429,0.014908,0.00148,60.7724,14.980728,-149.974716,,,
729716514.154501,-2.574691,-5.924777,-84.295807,0.093094,-0.050507,0.993378,0.009429,0.014908,0.00148,60.7724,14.980728,-149.974716,,,
729716514.154722,-2.572856,-5.921318,-81.216779,0.093094,-0.050507,0.993378,0.009429,0.014908,0.00148,60.7724,14.980728,-149.974716,,,
729716514.158868,-2.572856,-5.921316,-84.293657,0.093094,-0.050507,0.993378,0.00424,0.012189,0.007452,60.7724,14.980728,-149.974716,,,
729716514.159112,-2.572856,-5.921318,-81.216779,0.093094,-0.050507,0.993378,0.00424,0.012189,0.007452,60.7724,14.980728,-149.974716,,,
729716514.161252,-2.572235,-5.918876,-84.290991,0.092178,-0.048096,0.98941,0.00424,0.012189,0.007452,60.7724,14.980728,-149.974716,,,
729716514.161455,-2.572234,-5.918878,-81.214113,0.092178,-0.048096,0.98941,0.00424,0.012189,0.007452,60.7724,14.980728,-149.974716,,,
729716514.164638,-2.572235,-5.918876,-84.290991,0.092178,-0.048096,0.98941,0.00424,0.012189,0.007452,60.7724,14.980728,-149.974716,,,
729716514.164828,-2.572539,-5.91574,-81.21065,0.092178,-0.048096,0.98941,0.00424,0.012189,0.007452,60.7724,14.980728,-149.974716,,,
729716514.169231,-2.57254,-5.915738,-84.287529,0.092178,-0.048096,0.98941,-0.004978,0.013793,0.011404,60.7724,14.980728,-149.974716,,,
729716514.169524,-2.572539,-5.91574,-81.21065,0.092178,-0.048096,0.98941,-0.004978,0.013793,0.011404,60.7724,14.980728,-149.974716,,,
729716514.171733,-2.574767,-5.912214,-84.283623,0.091675,-0.045181,0.985596,-0.004978,0.013793,0.011404,60.7724,14.980728,-149.974716,,,
729716514.171948,-2.574766,-5.912216,-81.206745,0.091675,-0.045181,0.985596,-0.004978,0.013793,0.011404,60.7724,14.980728,-149.974716,,,
729716514.174588,-2.574767,-5.912214,-84.283623,0.091675,-0.045181,0.985596,-0.004978,0.013793,0.011404,60.7724,14.980728,-149.974716,,,
729716514.174799,-2.576623,-5.9104,-81.202677,0.091675,-0.045181,0.985596,-0.0078,0.005811,0.012247,60.7724,14.980728,-149.974716,,,
729716514.178541,-2.576624,-5.910398,-84.279555,0.091675,-0.045181,0.985596,-0.0078,0.005811,0.012247,60.7724,14.980728,-149.974716,,,
729716514.178774,-2.576623,-5.9104,-81.202677,0.091675,-0.045181,0.985596,-0.0078,0.005811,0.012247,60.7724,14.980728,-149.974716,,,
729716514.182079,-2.580847,-5.907796,-84.274977,0.095688,-0.040436,0.980347,-0.0078,0.005811,0.012247,60.7724,14.980728,-149.974716,,,
729716514.1823,-2.580846,-5.907798,-81.198098,0.095688,-0.040436,0.980347,-0.0078,0.005811,0.012247,60.7724,14.980728,-149.974716,,,
729716514.184508,-2.580847,-5.907796,-84.274977,0.095688,-0.040436,0.980347,-0.0078,0.005811,0.012247,60.7724,14.980728,-149.974716,,,
729716514.184733,-2.582982,-5.90812,-81.192958,0.095688,-0.040436,0.980347,-0.0078,0.005811,0.012247,60.7724,14.980728,-149.974716,,,
729716514.189712,-2.582983,-5.908118,-84.269837,0.095688,-0.040436,0.980347,-0.004548,-0.002171,0.01596,60.7724,14.980728,-149.974716,,,
729716514.189976,-2.585907,-5.905515,-81.187568,0.097305,-0.040939,0.982925,-0.004548,-0.002171,0.01596,60.7724,14.980728,-149.974716,,,
729716514.192253,-2.585907,-5.905513,-84.264446,0.097305,-0.040939,0.982925,-0.004548,-0.002171,0.01596,60.574219,15.221939,-149.802765,,,
729716514.19249,-2.585907,-5.905515,-81.187568,0.097305,-0.040939,0.982925,-0.004548,-0.002171,0.01596,60.574219,15.221939,-149.802765,,,
729716514.194583,-2.585907,-5.905513,-84.264446,0.097305,-0.040939,0.982925,-0.004548,-0.002171,0.01596,60.574219,15.221939,-149.802765,,,
729716514.194816,-2.587425,-5.906706,-81.182397,0.097305,-0.040939,0.982925,-0.004548,-0.002171,0.01596,60.574219,15.221939,-149.802765,,,
729716514.197952,-2.587426,-5.906704,-84.259275,0.097305,-0.040939,0.982925,-0.003721,-0.003613,0.017701,60.574219,15.221939,-149.802765,,,
729716514.198143,-2.587425,-5.906706,-81.182397,0.097305,-0.040939,0.982925,-0.003721,-0.003613,0.017701,60.574219,15.221939,-149.802765,,,
729716514.201797,-2.590052,-5.905019,-84.254051,0.100174,-0.042755,0.986877,-0.003721,-0.003613,0.017701,60.574219,15.221939,-149.802765,,,
729716514.202013,-2.590051,-5.905022,-81.177172,0.100174,-0.042755,0.986877,-0.003721,-0.003613,0.017701,60.574219,15.221939,-149.802765,,,
729716514.204523,-2.590052,-5.905019,-84.254051,0.100174,-0.042755,0.986877,-0.003721,-0.003613,0.017701,60.574219,15.221939,-149.802765,,,
729716514.204741,-2.590051,-5.905022,-81.172685,0.100174,-0.042755,0.986877,-0.003721,-0.003613,0.017701,60.574219,15.221939,-149.802765,,,
729716514.20863,-2.591542,-5.908059,-84.249564,0.100174,-0.042755,0.986877,-0.00688,-0.012746,0.013599,60.574219,15.221939,-149.802765,,,
729716514.208862,-2.591541,-5.908061,-81.172685,0.100174,-0.042755,0.986877,-0.00688,-0.012746,0.013599,60.574219,15.221939,-149.802765,,,
729716514.211556,-2.595811,-5.909829,-84.24528,0.103531,-0.043945,0.98764,-0.00688,-0.012746,0.013599,60.574219,15.221939,-149.802765,,,
729716514.211769,-2.595811,-5.909831,-81.168402,0.103531,-0.043945,0.98764,-0.00688,-0.012746,0.013599,60.574219,15.221939,-149.802765,,,
729716514.214645,-2.595811,-5.909829,-84.24528,0.103531,-0.043945,0.98764,-0.00688,-0.012746,0.013599,60.574219,15.221939,-149.802765,,,
729716514.214837,-2.598938,-5.915047,-81.164507,0.103531,-0.043945,0.98764,-0.00688,-0.012746,0.010955,60.574219,15.221939,-149.802765,,,
729716514.218485,-2.598939,-5.915045,-84.241386,0.103531,-0.043945,0.98764,-0.009637,-0.018484,0.010955,60.574219,15.221939,-149.802765,,,
729716514.218713,-2.598938,-5.915047,-81.164507,0.103531,-0.043945,0.98764,-0.009637,-0.018484,0.010955,60.574219,15.221939,-149.802765,,,
729716514.221436,-2.604408,-5.918126,-84.238067,0.108459,-0.039673,0.987457,-0.009637,-0.018484,0.010955,60.574219,15.221939,-149.802765,,,
729716514.221641,-2.604408,-5.918128,-81.161189,0.108459,-0.039673,0.987457,-0.009637,-0.018484,0.010955,60.574219,15.221939,-149.802765,,,
729716514.224586,-2.604408,-5.918126,-84.238067,0.108459,-0.039673,0.987457,-0.009637,-0.018484,0.010955,60.574219,15.221939,-149.802765,,,
729716514.224855,-2.60769,-5.92405,-81.158809,0.108459,-0.039673,0.987457,-0.009834,-0.017024,0.005645,60.574219,15.221939,-149.802765,,,
729716514.228308,-2.60769,-5.924047,-84.235687,0.108459,-0.039673,0.987457,-0.009834,-0.017024,0.005645,60.574219,15.221939,-149.802765,,,
729716514.228529,-2.60769,-5.92405,-81.158809,0.108459,-0.039673,0.987457,-0.009834,-0.017024,0.005645,60.574219,15.221939,-149.802765,,,
729716514.231762,-2.611724,-5.927136,-84.233603,0.112091,-0.038803,0.99118,-0.009834,-0.017024,0.005645,60.574219,15.221939,-149.802765,,,
729716514.231969,-2.611723,-5.927138,-81.156724,0.112091,-0.038803,0.99118,-0.009834,-0.017024,0.005645,60.574219,15.221939,-149.802765,,,
729716514.235051,-2.611724,-5.927136,-84.233603,0.112091,-0.038803,0.99118,-0.009834,-0.017024,0.005645,60.444199,15.166565,-149.978058,,,
729716514.235272,-2.614562,-5.932082,-81.155322,0.112091,-0.038803,0.99118,-0.007382,-0.01088,0.002616,60.444199,15.166565,-149.978058,,,
729716514.238333,-2.614562,-5.93208,-84.232201,0.112091,-0.038803,0.99118,-0.007382,-0.01088,0.002616,60.444199,15.166565,-149.978058,,,
729716514.238555,-2.614562,-5.932082,-81.155322,0.112091,-0.038803,0.99118,-0.007382,-0.01088,0.002616,60.444199,15.166565,-149.978058,,,
729716514.241954,-2.617458,-5.932353,-84.231087,0.116562,-0.04155,0.995453,-0.007382,-0.01088,0.002616,60.444199,15.166565,-149.978058,,,
729716514.24217,-2.617458,-5.932355,-81.154208,0.116562,-0.04155,0.995453,-0.007382,-0.01088,0.002616,60.444199,15.166565,-149.978058,,,
729716514.244555,-2.617458,-5.932353,-84.231087,0.116562,-0.04155,0.995453,-0.007382,-0.01088,0.002616,60.444199,15.166565,-149.978058,,,
729716514.244794,-2.617458,-5.932355,-81.154208,0.116562,-0.04155,0.995453,-0.007382,-0.01088,0.002616,60.444199,15.166565,-149.978058,,,
729716514.250406,-2.619291,-5.933716,-84.230561,0.116562,-0.04155,0.995453,-0.002569,0.002331,-0.001103,60.444199,15.166565,-149.978058,,,
729716514.250673,-2.620126,-5.930637,-81.153455,0.114944,-0.045761,0.998611,-0.002569,0.002331,-0.001103,60.444199,15.166565,-149.978058,,,
729716514.251709,-2.620126,-5.930635,-84.230334,0.114944,-0.045761,0.998611,-0.002569,0.002331,-0.001103,60.444199,15.166565,-149.978058,,,
729716514.251932,-2.620126,-5.930637,-81.153455,0.114944,-0.045761,0.998611,-0.002569,0.002331,-0.001103,60.444199,15.166565,-149.978058,,,
729716514.254555,-2.620126,-5.930635,-84.230334,0.114944,-0.045761,0.998611,-0.002569,0.002331,-0.001103,60.444199,15.166565,-149.978058,,,
729716514.254778,-2.620126,-5.930637,-81.153455,0.114944,-0.045761,0.998611,-0.002569,0.002331,-0.001103,60.444199,15.166565,-149.978058,,,
729716514.259472,-2.620134,-5.928036,-84.22989,0.114944,-0.045761,0.998611,0.003879,0.020534,-0.001595,60.444199,15.166565,-149.978058,,,
729716514.25974,-2.620133,-5.928038,-81.153012,0.114944,-0.045761,0.998611,0.003879,0.020534,-0.001595,60.444199,15.166565,-149.978058,,,
729716514.261739,-2.618021,-5.922196,-84.229401,0.114685,-0.044083,0.999695,0.003879,0.020534,-0.001595,60.444199,15.166565,-149.978058,,,
729716514.261968,-2.618021,-5.922198,-81.152523,0.114685,-0.044083,0.999695,0.003879,0.020534,-0.001595,60.444199,15.166565,-149.978058,,,
729716514.264528,-2.618021,-5.922196,-84.229401,0.114685,-0.044083,0.999695,0.003879,0.020534,-0.001595,60.444199,15.166565,-149.978058,,,
729716514.264726,-2.618021,-5.922198,-81.152523,0.114685,-0.044083,0.999695,0.003879,0.020534,-0.001595,60.444199,15.166565,-149.978058,,,
729716514.268052,-2.616369,-5.916926,-84.229327,0.114685,-0.044083,0.999695,0.008169,0.024559,-0.000721,60.444199,15.166565,-149.978058,,,
729716514.268263,-2.616369,-5.916929,-81.152449,0.114685,-0.044083,0.999695,0.008169,0.024559,-0.000721,60.444199,15.166565,-149.978058,,,
729716514.271922,-2.613331,-5.909542,-84.229011,0.112579,-0.043701,1.000229,0.008169,0.024559,-0.000721,60.444199,15.166565,-149.978058,,,
729716514.272136,-2.613331,-5.909544,-81.152133,0.112579,-0.043701,1.000229,0.008169,0.024559,-0.000721,60.444199,15.166565,-149.978058,,,
729716514.275049,-2.613331,-5.909542,-84.229011,0.112579,-0.043701,1.000229,0.008169,0.024559,-0.000721,60.726105,15.126495,-149.721725,,,
729716514.275257,-2.610607,-5.903234,-81.151926,0.112579,-0.043701,1.000229,0.014072,0.02264,-0.003052,60.726105,15.126495,-149.721725,,,
729716514.278332,-2.610608,-5.903232,-84.228804,0.112579,-0.043701,1.000229,0.014072,0.02264,-0.003052,60.726105,15.126495,-149.721725,,,
729716514.278567,-2.610607,-5.903234,-81.151926,0.112579,-0.043701,1.000229,0.014072,0.02264,-0.003052,60.726105,15.126495,-149.721725,,,
729716514.281499,-2.606617,-5.897245,-84.228683,0.107468,-0.048645,0.997986,0.014072,0.02264,-0.003052,60.726105,15.126495,-149.721725,,,
729716514.28171,-2.606616,-5.897247,-81.151804,0.107468,-0.048645,0.997986,0.014072,0.02264,-0.003052,60.726105,15.126495,-149.721725,,,
729716514.284397,-2.606617,-5.897245,-84.228683,0.107468,-0.048645,0.997986,0.014072,0.02264,-0.003052,60.726105,15.126495,-149.721725,,,
729716514.284713,-2.606616,-5.897247,-81.151804,0.107468,-0.048645,0.997986,0.014072,0.02264,-0.003052,60.726105,15.126495,-149.721725,,,
729716514.288843,-2.602112,-5.891855,-84.228837,0.107468,-0.048645,0.997986,0.019894,0.023029,-0.004375,60.726105,15.126495,-149.721725,,,
729716514.289077,-2.602111,-5.891857,-81.151959,0.107468,-0.048645,0.997986,0.019894,0.023029,-0.004375,60.726105,15.126495,-149.721725,,,
729716514.291422,-2.596501,-5.887394,-84.229739,0.1035,-0.047256,0.996063,0.019894,0.023029,-0.004375,60.726105,15.126495,-149.721725,,,
729716514.291632,-2.5965,-5.887396,-81.15286,0.1035,-0.047256,0.996063,0.019894,0.023029,-0.004375,60.726105,15.126495,-149.721725,,,
729716514.294604,-2.596501,-5.887394,-84.229739,0.1035,-0.047256,0.996063,0.019894,0.023029,-0.004375,60.726105,15.126495,-149.721725,,,
729716514.294822,-2.5965,-5.887396,-81.15286,0.1035,-0.047256,0.996063,0.019894,0.023029,-0.004375,60.726105,15.126495,-149.721725,,,
729716514.298996,-2.590848,-5.883657,-84.231199,0.1035,-0.047256,0.996063,0.020725,0.013109,-0.008833,60.726105,15.126495,-149.721725,,,
729716514.29922,-2.590847,-5.883659,-81.15432,0.1035,-0.047256,0.996063,0.020725,0.013109,-0.008833,60.726105,15.126495,-149.721725,,,
729716514.301384,-2.583572,-5.883826,-84.233047,0.102753,-0.046799,0.995453,0.020725,0.013109,-0.008833,60.726105,15.126495,-149.721725,,,
729716514.301607,-2.583572,-5.883828,-81.156168,0.102753,-0.046799,0.995453,0.020725,0.013109,-0.008833,60.726105,15.126495,-149.721725,,,
729716514.304618,-2.583572,-5.883826,-84.233047,0.102753,-0.046799,0.995453,0.020725,0.013109,-0.008833,60.726105,15.126495,-149.721725,,,
729716514.304804,-2.583572,-5.883828,-81.156168,0.102753,-0.046799,0.995453,0.020725,0.013109,-0.008833,60.726105,15.126495,-149.721725,,,
729716514.30921,-2.577369,-5.883656,-84.234668,0.102753,-0.046799,0.995453,0.022121,-0.002515,-0.009867,60.726105,15.126495,-149.721725,,,
729716514.309472,-2.577368,-5.883658,-81.15779,0.102753,-0.046799,0.995453,0.022121,-0.002515,-0.009867,60.726105,15.126495,-149.721725,,,
729716514.312211,-2.569487,-5.887586,-84.23601,0.096146,-0.047287,0.991898,0.022121,-0.002515,-0.009867,60.726105,15.126495,-149.721725,,,
729716514.312447,-2.569486,-5.887589,-81.159132,0.096146,-0.047287,0.991898,0.022121,-0.002515,-0.009867,60.726105,15.126495,-149.721725,,,
729716514.315142,-2.569487,-5.887586,-84.23601,0.096146,-0.047287,0.991898,0.022121,-0.002515,-0.009867,60.737793,14.890533,-149.918182,,,
729716514.315364,-2.563321,-5.890015,-81.15966,0.096146,-0.047287,0.991898,0.020687,-0.006082,-0.004281,60.737793,14.890533,-149.918182,,,
729716514.318581,-2.563322,-5.890012,-84.236539,0.096146,-0.047287,0.991898,0.020687,-0.006082,-0.004281,60.737793,14.890533,-149.918182,,,
729716514.318805,-2.563321,-5.890015,-81.15966,0.096146,-0.047287,0.991898,0.020687,-0.006082,-0.004281,60.737793,14.890533,-149.918182,,,
729716514.321933,-2.557197,-5.896805,-84.236801,0.094666,-0.044037,0.993851,0.020687,-0.006082,-0.004281,60.737793,14.890533,-149.918182,,,
729716514.322146,-2.557196,-5.896807,-81.159922,0.094666,-0.044037,0.993851,0.020687,-0.006082,-0.004281,60.737793,14.890533,-149.918182,,,
729716514.324508,-2.557197,-5.896805,-84.236801,0.094666,-0.044037,0.993851,0.020687,-0.006082,-0.004281,60.737793,14.890533,-149.918182,,,
729716514.324705,-2.557196,-5.896807,-81.159922,0.094666,-0.044037,0.993851,0.020687,-0.006082,-0.004281,60.737793,14.890533,-149.918182,,,
729716514.328411,-2.551896,-5.899382,-84.236782,0.094666,-0.044037,0.993851,0.016381,-0.005871,-0.00422,60.737793,14.890533,-149.918182,,,
729716514.328625,-2.551896,-5.899384,-81.159903,0.094666,-0.044037,0.993851,0.016381,-0.005871,-0.00422,60.737793,14.890533,-149.918182,,,
729716514.331482,-2.547138,-5.904292,-84.23695,0.096954,-0.043304,0.993698,0.016381,-0.005871,-0.00422,60.737793,14.890533,-149.918182,,,
729716514.33169,-2.547138,-5.904294,-81.160071,0.096954,-0.043304,0.993698,0.016381,-0.005871,-0.00422,60.737793,14.890533,-149.918182,,,
729716514.33439,-2.547138,-5.904292,-84.23695,0.096954,-0.043304,0.993698,0.016381,-0.005871,-0.00422,60.737793,14.890533,-149.918182,,,
729716514.334787,-2.547138,-5.904294,-81.160071,0.096954,-0.043304,0.993698,0.016381,-0.005871,-0.00422,60.737793,14.890533,-149.918182,,,
729716514.340416,-2.543053,-5.905806,-84.237338,0.096954,-0.043304,0.993698,0.012861,0.000922,-0.005171,60.737793,14.890533,-149.918182,,,
729716514.340752,-2.539001,-5.909624,-81.161245,0.099976,-0.042358,0.9935,0.012861,0.000922,-0.005171,60.737793,14.890533,-149.918182,,,
729716514.341076,-2.539002,-5.909622,-84.238123,0.099976,-0.042358,0.9935,0.012861,0.000922,-0.005171,60.737793,14.890533,-149.918182,,,
729716514.341344,-2.539001,-5.909624,-81.161245,0.099976,-0.042358,0.9935,0.012861,0.000922,-0.005171,60.737793,14.890533,-149.918182,,,
729716514.344643,-2.539002,-5.909622,-84.238123,0.099976,-0.042358,0.9935,0.012861,0.000922,-0.005171,60.737793,14.890533,-149.918182,,,
729716514.344845,-2.539001,-5.909624,-81.161245,0.099976,-0.042358,0.9935,0.012861,0.000922,-0.005171,60.737793,14.890533,-149.918182,,,
729716514.348436,-2.535626,-5.908977,-84.238441,0.099976,-0.042358,0.9935,0.007229,0.008337,-0.004017,60.737793,14.890533,-149.918182,,,
729716514.34865,-2.535625,-5.908979,-81.161562,0.099976,-0.042358,0.9935,0.007229,0.008337,-0.004017,60.737793,14.890533,-149.918182,,,
729716514.351484,-2.533133,-5.909288,-84.238631,0.101028,-0.043518,0.992188,0.007229,0.008337,-0.004017,60.737793,14.890533,-149.918182,,,
729716514.351728,-2.533133,-5.90929,-81.161752,0.101028,-0.043518,0.992188,0.007229,0.008337,-0.004017,60.737793,14.890533,-149.918182,,,
729716514.354579,-2.533133,-5.909288,-84.238631,0.101028,-0.043518,0.992188,0.007229,0.008337,-0.004017,60.737793,14.890533,-149.918182,,,
729716514.354786,-2.533133,-5.90929,-81.161752,0.101028,-0.043518,0.992188,0.007229,0.008337,-0.004017,60.737793,14.890533,-149.918182,,,
729716514.35863,-2.530439,-5.90635,-84.238447,0.101028,-0.043518,0.992188,0.012441,0.014866,-0.00102,60.493286,15.150223,-150.047104,,,
729716514.358875,-2.530438,-5.906352,-81.161568,0.101028,-0.043518,0.992188,0.012441,0.014866,-0.00102,60.493286,15.150223,-150.047104,,,
729716514.36157,-2.527996,-5.903026,-84.237977,0.100128,-0.044052,0.992172,0.012441,0.014866,-0.00102,60.493286,15.150223,-150.047104,,,
729716514.36178,-2.527995,-5.903029,-81.161099,0.100128,-0.044052,0.992172,0.012441,0.014866,-0.00102,60.493286,15.150223,-150.047104,,,
729716514.364557,-2.527996,-5.903026,-84.237977,0.100128,-0.044052,0.992172,0.012441,0.014866,-0.00102,60.493286,15.150223,-150.047104,,,
729716514.36474,-2.527995,-5.903029,-81.161099,0.100128,-0.044052,0.992172,0.012441,0.014866,-0.00102,60.493286,15.150223,-150.047104,,,
729716514.369428,-2.524105,-5.898698,-84.236733,0.100128,-0.044052,0.992172,0.015113,0.01286,0.006842,60.493286,15.150223,-150.047104,,,
729716514.369686,-2.524105,-5.8987,-81.159854,0.100128,-0.044052,0.992172,0.015113,0.01286,0.006842,60.493286,15.150223,-150.047104,,,
729716514.371585,-2.520408,-5.896104,-84.234149,0.097519,-0.04924,0.991455,0.015113,0.01286,0.006842,60.493286,15.150223,-150.047104,,,
729716514.371807,-2.520407,-5.896106,-81.15727,0.097519,-0.04924,0.991455,0.015113,0.01286,0.006842,60.493286,15.150223,-150.047104,,,
729716514.374548,-2.520408,-5.896104,-84.234149,0.097519,-0.04924,0.991455,0.015113,0.01286,0.006842,60.493286,15.150223,-150.047104,,,
729716514.374732,-2.520407,-5.896106,-81.15727,0.097519,-0.04924,0.991455,0.015113,0.01286,0.006842,60.493286,15.150223,-150.047104,,,
729716514.379027,-2.515068,-5.895241,-84.231074,0.097519,-0.04924,0.991455,0.023728,-0.002135,0.006363,60.493286,15.150223,-150.047104,,,
729716514.379263,-2.515067,-5.895243,-81.154195,0.097519,-0.04924,0.991455,0.023728,-0.002135,0.006363,60.493286,15.150223,-150.047104,,,
729716514.381509,-2.51038,-5.896125,-84.228354,0.097046,-0.05127,0.989883,0.023728,-0.002135,0.006363,60.493286,15.150223,-150.047104,,,
729716514.381712,-2.510379,-5.896127,-81.151476,0.097046,-0.05127,0.989883,0.023728,-0.002135,0.006363,60.493286,15.150223,-150.047104,,,
729716514.38453,-2.51038,-5.896125,-84.228354,0.097046,-0.05127,0.989883,0.023728,-0.002135,0.006363,60.493286,15.150223,-150.047104,,,
729716514.384738,-2.510379,-5.896127,-81.151476,0.097046,-0.05127,0.989883,0.023728,-0.002135,0.006363,60.493286,15.150223,-150.047104,,,
729716514.388414,-2.505295,-5.899074,-84.226351,0.097046,-0.05127,0.989883,0.021025,-0.012955,0.000961,60.493286,15.150223,-150.047104,,,
729716514.388643,-2.505295,-5.899076,-81.149473,0.097046,-0.05127,0.989883,0.021025,-0.012955,0.000961,60.493286,15.150223,-150.047104,,,
729716514.391783,-2.500418,-5.90169,-84.224818,0.098022,-0.04538,0.986588,0.021025,-0.012955,0.000961,60.493286,15.150223,-150.047104,,,
729716514.391999,-2.500418,-5.901692,-81.14794,0.098022,-0.04538,0.986588,0.021025,-0.012955,0.000961,60.493286,15.150223,-150.047104,,,
729716514.394579,-2.500418,-5.90169,-84.224818,0.098022,-0.04538,0.986588,0.021025,-0.012955,0.000961,60.493286,15.150223,-150.047104,,,
729716514.394767,-2.500418,-5.901692,-81.14794,0.098022,-0.04538,0.986588,0.021025,-0.012955,0.000961,60.493286,15.150223,-150.047104,,,
729716514.400685,-2.494764,-5.907061,-84.224162,0.098022,-0.04538,0.986588,0.017199,-0.018573,-0.003071,60.484711,15.155334,-149.874786,,,
729716514.400969,-2.490008,-5.910582,-81.147003,0.098862,-0.041153,0.982071,0.017199,-0.018573,-0.003071,60.484711,15.155334,-149.874786,,,
729716514.401409,-2.490008,-5.910582,-81.147003,0.098862,-0.041153,0.982071,0.017199,-0.018573,-0.003071,60.484711,15.155334,-149.874786,,,
729716514.405113,-2.490008,-5.91058,-84.223882,0.098862,-0.041153,0.982071,0.017199,-0.018573,-0.003071,60.484711,15.155334,-149.874786,,,
729716514.405328,-2.486343,-5.915689,-81.146431,0.098862,-0.041153,0.982071,0.017199,-0.018573,-0.003071,60.484711,15.155334,-149.874786,,,
729716514.408614,-2.486344,-5.915686,-84.22331,0.098862,-0.041153,0.982071,0.010279,-0.010089,-0.000438,60.484711,15.155334,-149.874786,,,
729716514.408842,-2.486343,-5.915689,-81.146431,0.098862,-0.041153,0.982071,0.010279,-0.010089,-0.000438,60.484711,15.155334,-149.874786,,,
729716514.411576,-2.483881,-5.917778,-84.222064,0.102692,-0.039917,0.979904,0.010279,-0.010089,-0.000438,60.484711,15.155334,-149.874786,,,
729716514.411784,-2.483881,-5.917781,-81.145185,0.102692,-0.039917,0.979904,0.010279,-0.010089,-0.000438,60.484711,15.155334,-149.874786,,,
729716514.414564,-2.483881,-5.917778,-84.222064,0.102692,-0.039917,0.979904,0.010279,-0.010089,-0.000438,60.484711,15.155334,-149.874786,,,
729716514.414752,-2.483881,-5.917781,-81.145185,0.102692,-0.039917,0.979904,0.010279,-0.010089,-0.000438,60.484711,15.155334,-149.874786,,,
729716514.419835,-2.481964,-5.918848,-84.219785,0.102692,-0.039917,0.979904,0.011159,0.007203,0.008939,60.484711,15.155334,-149.874786,,,
729716514.420147,-2.481963,-5.91885,-81.142907,0.102692,-0.039917,0.979904,0.011159,0.007203,0.008939,60.484711,15.155334,-149.874786,,,
729716514.421541,-2.479324,-5.91647,-84.216365,0.105072,-0.042709,0.985611,0.011159,0.007203,0.008939,60.484711,15.155334,-149.874786,,,
729716514.421761,-2.479323,-5.916472,-81.139486,0.105072,-0.042709,0.985611,0.011159,0.007203,0.008939,60.484711,15.155334,-149.874786,,,
729716514.424639,-2.479324,-5.91647,-84.216365,0.105072,-0.042709,0.985611,0.011159,0.007203,0.008939,60.484711,15.155334,-149.874786,,,
729716514.424833,-2.479323,-5.916472,-81.139486,0.105072,-0.042709,0.985611,0.011159,0.007203,0.008939,60.484711,15.155334,-149.874786,,,
729716514.428823,-2.47658,-5.91296,-84.212337,0.105072,-0.042709,0.985611,0.009983,0.020545,0.012915,60.484711,15.155334,-149.874786,,,
729716514.429063,-2.476579,-5.912962,-81.135458,0.105072,-0.042709,0.985611,0.009983,0.020545,0.012915,60.484711,15.155334,-149.874786,,,
729716514.431495,-2.473739,-5.907606,-84.208366,0.107712,-0.044159,0.990555,0.009983,0.020545,0.012915,60.484711,15.155334,-149.874786,,,
729716514.431713,-2.473738,-5.907608,-81.131488,0.107712,-0.044159,0.990555,0.009983,0.020545,0.012915,60.484711,15.155334,-149.874786,,,
729716514.434472,-2.473739,-5.907606,-84.208366,0.107712,-0.044159,0.990555,0.009983,0.020545,0.012915,60.484711,15.155334,-149.874786,,,
729716514.434695,-2.473738,-5.907608,-81.131488,0.107712,-0.044159,0.990555,0.009983,0.020545,0.012915,60.484711,15.155334,-149.874786,,,
729716514.439135,-2.470792,-5.902226,-84.204747,0.107712,-0.044159,0.990555,0.011316,0.021956,0.007322,60.599564,14.894806,-150.23465,,,
729716514.439372,-2.470792,-5.902229,-81.127869,0.107712,-0.044159,0.990555,0.011316,0.021956,0.007322,60.599564,14.894806,-150.23465,,,
729716514.44111,-2.468133,-5.896103,-84.201241,0.106171,-0.042801,0.988281,0.011316,0.021956,0.007322,60.599564,14.894806,-150.23465,,,
729716514.441338,-2.468132,-5.896105,-81.124362,0.106171,-0.042801,0.988281,0.011316,0.021956,0.007322,60.599564,14.894806,-150.23465,,,
729716514.4446,-2.468133,-5.896103,-84.201241,0.106171,-0.042801,0.988281,0.011316,0.021956,0.007322,60.599564,14.894806,-150.23465,,,
729716514.444787,-2.468132,-5.896105,-81.124362,0.106171,-0.042801,0.988281,0.011316,0.021956,0.007322,60.599564,14.894806,-150.23465,,,
729716514.448791,-2.465652,-5.89155,-84.198738,0.106171,-0.042801,0.988281,0.008518,0.011374,0.003092,60.599564,14.894806,-150.23465,,,
729716514.449038,-2.465651,-5.891552,-81.12186,0.106171,-0.042801,0.988281,0.008518,0.011374,0.003092,60.599564,14.894806,-150.23465,,,
729716514.451297,-2.465858,-5.887017,-84.197246,0.102905,-0.037643,0.986206,0.008518,0.011374,0.003092,60.599564,14.894806,-150.23465,,,
729716514.451504,-2.465857,-5.887019,-81.120368,0.102905,-0.037643,0.986206,0.008518,0.011374,0.003092,60.599564,14.894806,-150.23465,,,
729716514.454611,-2.465858,-5.887017,-84.197246,0.102905,-0.037643,0.986206,0.008518,0.011374,0.003092,60.599564,14.894806,-150.23465,,,
729716514.454812,-2.465857,-5.887019,-81.120368,0.102905,-0.037643,0.986206,0.008518,0.011374,0.003092,60.599564,14.894806,-150.23465,,,
729716514.46115,-2.465147,-5.8861,-84.196272,0.102905,-0.037643,0.986206,-0.000751,-0.000993,-0.002275,60.599564,14.894806,-150.23465,,,
729716514.461426,-2.466231,-5.886177,-81.118925,0.09993,-0.036743,0.982956,-0.000751,-0.000993,-0.002275,60.599564,14.894806,-150.23465,,,
729716514.464901,-2.466232,-5.886174,-84.195803,0.09993,-0.036743,0.982956,-0.000751,-0.000993,-0.002275,60.599564,14.894806,-150.23465,,,
729716514.465151,-2.466231,-5.886177,-81.118925,0.09993,-0.036743,0.982956,-0.000751,-0.000993,-0.002275,60.599564,14.894806,-150.23465,,,
729716514.469343,-2.465633,-5.888696,-84.196536,0.09993,-0.036743,0.982956,0.00323,-0.006127,-0.006383,60.599564,14.894806,-150.23465,,,
729716514.469581,-2.465632,-5.888698,-81.119657,0.09993,-0.036743,0.982956,0.00323,-0.006127,-0.006383,60.599564,14.894806,-150.23465,,,
729716514.471345,-2.465386,-5.89048,-84.198178,0.103821,-0.0383,0.985611,0.00323,-0.006127,-0.006383,60.599564,14.894806,-150.23465,,,
729716514.471552,-2.465385,-5.890482,-81.1213,0.103821,-0.0383,0.985611,0.00323,-0.006127,-0.006383,60.599564,14.894806,-150.23465,,,
729716514.474577,-2.465386,-5.89048,-84.198178,0.103821,-0.0383,0.985611,0.00323,-0.006127,-0.006383,60.599564,14.894806,-150.23465,,,
729716514.474764,-2.465385,-5.890482,-81.1213,0.103821,-0.0383,0.985611,0.00323,-0.006127,-0.006383,60.599564,14.894806,-150.23465,,,
729716514.479114,-2.464331,-5.893149,-84.200359,0.103821,-0.0383,0.985611,0.00398,-0.000362,-0.010869,60.678848,15.154007,-150.089188,,,
729716514.479374,-2.46433,-5.893151,-81.12348,0.103821,-0.0383,0.985611,0.00398,-0.000362,-0.010869,60.678848,15.154007,-150.089188,,,
729716514.481111,-2.462543,-5.893892,-84.202489,0.104568,-0.039795,0.988541,0.00398,-0.000362,-0.010869,60.678848,15.154007,-150.089188,,,
729716514.481332,-2.462542,-5.893894,-81.125611,0.104568,-0.039795,0.988541,0.00398,-0.000362,-0.010869,60.678848,15.154007,-150.089188,,,
729716514.484441,-2.462543,-5.893892,-84.202489,0.104568,-0.039795,0.988541,0.00398,-0.000362,-0.010869,60.678848,15.154007,-150.089188,,,
729716514.484673,-2.462542,-5.893894,-81.125611,0.104568,-0.039795,0.988541,0.00398,-0.000362,-0.010869,60.678848,15.154007,-150.089188,,,
729716514.489433,-2.460455,-5.892481,-84.204583,0.104568,-0.039795,0.988541,0.009576,0.016779,-0.01001,60.678848,15.154007,-150.089188,,,
729716514.489687,-2.460455,-5.892483,-81.127705,0.104568,-0.039795,0.988541,0.009576,0.016779,-0.01001,60.678848,15.154007,-150.089188,,,
729716514.491398,-2.457661,-5.889168,-84.206658,0.102463,-0.040955,0.99054,0.009576,0.016779,-0.01001,60.678848,15.154007,-150.089188,,,
729716514.491613,-2.457661,-5.88917,-81.12978,0.102463,-0.040955,0.99054,0.009576,0.016779,-0.01001,60.678848,15.154007,-150.089188,,,
729716514.4946,-2.457661,-5.889168,-84.206658,0.102463,-0.040955,0.99054,0.009576,0.016779,-0.01001,60.678848,15.154007,-150.089188,,,
729716514.494785,-2.457661,-5.88917,-81.12978,0.102463,-0.040955,0.99054,0.009576,0.016779,-0.01001,60.678848,15.154007,-150.089188,,,
729716514.498772,-2.455648,-5.883542,-84.207923,0.102463,-0.040955,0.99054,0.009946,0.027641,-0.004012,60.678848,15.154007,-150.089188,,,
729716514.499003,-2.455648,-5.883544,-81.131044,0.102463,-0.040955,0.99054,0.009946,0.027641,-0.004012,60.678848,15.154007,-150.089188,,,
729716514.501478,-2.453948,-5.878277,-84.208702,0.099701,-0.044235,0.98967,0.009946,0.027641,-0.004012,60.678848,15.154007,-150.089188,,,
729716514.501691,-2.453947,-5.878279,-81.131824,0.099701,-0.044235,0.98967,0.009946,0.027641,-0.004012,60.678848,15.154007,-150.089188,,,
729716514.504576,-2.453948,-5.878277,-84.208702,0.099701,-0.044235,0.98967,0.009946,0.027641,-0.004012,60.678848,15.154007,-150.089188,,,
729716514.504761,-2.453947,-5.878279,-81.131824,0.099701,-0.044235,0.98967,0.009946,0.027641,-0.004012,60.678848,15.154007,-150.089188,,,
729716514.508268,-2.452422,-5.871118,-84.209271,0.099701,-0.044235,0.98967,0.006038,0.02932,-0.00011,60.678848,15.154007,-150.089188,,,
729716514.508471,-2.452421,-5.87112,-81.132392,0.099701,-0.044235,0.98967,0.006038,0.02932,-0.00011,60.678848,15.154007,-150.089188,,,
729716514.511723,-2.452651,-5.865096,-84.209568,0.098114,-0.045685,0.983994,0.006038,0.02932,-0.00011,60.678848,15.154007,-150.089188,,,
729716514.511932,-2.45265,-5.865098,-81.13269,0.098114,-0.045685,0.983994,0.006038,0.02932,-0.00011,60.678848,15.154007,-150.089188,,,
729716514.514615,-2.452651,-5.865096,-84.209568,0.098114,-0.045685,0.983994,0.006038,0.02932,-0.00011,60.678848,15.154007,-150.089188,,,
729716514.514802,-2.45265,-5.865098,-81.13269,0.098114,-0.045685,0.983994,0.006038,0.02932,-0.00011,60.678848,15.154007,-150.089188,,,
729716514.520919,-2.453555,-5.857369,-84.209326,0.098114,-0.045685,0.983994,-0.003821,0.027714,0.000559,60.629959,14.983749,-150.003479,,,
729716514.521208,-2.454795,-5.851473,-81.131817,0.092529,-0.044205,0.982635,-0.003821,0.027714,0.000559,60.629959,14.983749,-150.003479,,,
729716514.525581,-2.454796,-5.851471,-84.208696,0.092529,-0.044205,0.982635,-0.003821,0.027714,0.000559,60.629959,14.983749,-150.003479,,,
729716514.525813,-2.457023,-5.844988,-81.13071,0.092529,-0.044205,0.982635,-0.008325,0.022225,0.002058,60.629959,14.983749,-150.003479,,,
729716514.528924,-2.457023,-5.844986,-84.207588,0.092529,-0.044205,0.982635,-0.008325,0.022225,0.002058,60.629959,14.983749,-150.003479,,,
729716514.529146,-2.457023,-5.844988,-81.13071,0.092529,-0.044205,0.982635,-0.008325,0.022225,0.002058,60.629959,14.983749,-150.003479,,,
729716514.531375,-2.4585,-5.839869,-84.206367,0.090622,-0.046844,0.984283,-0.008325,0.022225,0.002058,60.629959,14.983749,-150.003479,,,
729716514.531586,-2.458499,-5.839872,-81.129488,0.090622,-0.046844,0.984283,-0.008325,0.022225,0.002058,60.629959,14.983749,-150.003479,,,
729716514.534454,-2.4585,-5.839869,-84.206367,0.090622,-0.046844,0.984283,-0.008325,0.022225,0.002058,60.629959,14.983749,-150.003479,,,
729716514.534676,-2.458499,-5.839872,-81.129488,0.090622,-0.046844,0.984283,-0.008325,0.022225,0.002058,60.629959,14.983749,-150.003479,,,
729716514.538709,-2.46159,-5.834904,-84.204762,0.090622,-0.046844,0.984283,-0.009931,0.019295,0.005091,60.629959,14.983749,-150.003479,,,
729716514.53893,-2.46159,-5.834906,-81.127884,0.090622,-0.046844,0.984283,-0.009931,0.019295,0.005091,60.629959,14.983749,-150.003479,,,
729716514.54141,-2.46321,-5.829968,-84.202413,0.090714,-0.048767,0.98909,-0.009931,0.019295,0.005091,60.629959,14.983749,-150.003479,,,
729716514.541618,-2.46321,-5.82997,-81.125534,0.090714,-0.048767,0.98909,-0.009931,0.019295,0.005091,60.629959,14.983749,-150.003479,,,
729716514.544598,-2.46321,-5.829968,-84.202413,0.090714,-0.048767,0.98909,-0.009931,0.019295,0.005091,60.629959,14.983749,-150.003479,,,
729716514.544783,-2.46321,-5.82997,-81.125534,0.090714,-0.048767,0.98909,-0.009931,0.019295,0.005091,60.629959,14.983749,-150.003479,,,
729716514.548274,-2.466457,-5.825662,-84.199837,0.090714,-0.048767,0.98909,-0.012746,0.015425,0.011574,60.629959,14.983749,-150.003479,,,
729716514.548483,-2.466456,-5.825664,-81.122958,0.090714,-0.048767,0.98909,-0.012746,0.015425,0.011574,60.629959,14.983749,-150.003479,,,
729716514.551405,-2.469291,-5.822931,-84.19652,0.09137,-0.050613,0.992554,-0.012746,0.015425,0.011574,60.629959,14.983749,-150.003479,,,
729716514.551624,-2.46929,-5.822933,-81.119642,0.09137,-0.050613,0.992554,-0.012746,0.015425,0.011574,60.629959,14.983749,-150.003479,,,
729716514.55467,-2.469291,-5.822931,-84.19652,0.09137,-0.050613,0.992554,-0.012746,0.015425,0.011574,60.629959,14.983749,-150.003479,,,
729716514.554886,-2.46929,-5.822933,-81.119642,0.09137,-0.050613,0.992554,-0.012746,0.015425,0.011574,60.629959,14.983749,-150.003479,,,
729716514.558485,-2.473129,-5.819885,-84.192425,0.09137,-0.050613,0.992554,-0.010191,0.011911,0.013262,60.629959,14.983749,-150.003479,,,
729716514.558731,-2.473128,-5.819887,-81.115547,0.09137,-0.050613,0.992554,-0.010191,0.011911,0.013262,60.629959,14.983749,-150.003479,,,
729716514.562378,-2.475609,-5.818343,-84.188179,0.096207,-0.04982,0.994598,-0.010191,0.011911,0.013262,60.4814,14.894135,-150.166626,,,
729716514.562623,-2.475608,-5.818345,-81.111301,0.096207,-0.04982,0.994598,-0.010191,0.011911,0.013262,60.4814,14.894135,-150.166626,,,
729716514.56447,-2.475609,-5.818343,-84.188179,0.096207,-0.04982,0.994598,-0.010191,0.011911,0.013262,60.4814,14.894135,-150.166626,,,
729716514.56469,-2.475608,-5.818345,-81.111301,0.096207,-0.04982,0.994598,-0.010191,0.011911,0.013262,60.4814,14.894135,-150.166626,,,
729716514.568251,-2.477455,-5.816407,-84.183868,0.096207,-0.04982,0.994598,-0.001841,0.007594,0.011961,60.4814,14.894135,-150.166626,,,
729716514.568472,-2.477454,-5.816409,-81.10699,0.096207,-0.04982,0.994598,-0.001841,0.007594,0.011961,60.4814,14.894135,-150.166626,,,
729716514.571464,-2.477934,-5.81529,-84.179844,0.100357,-0.04953,0.99968,-0.001841,0.007594,0.011961,60.4814,14.894135,-150.166626,,,
729716514.571668,-2.477933,-5.815292,-81.102965,0.100357,-0.04953,0.99968,-0.001841,0.007594,0.011961,60.4814,14.894135,-150.166626,,,
729716514.574564,-2.477934,-5.81529,-84.179844,0.100357,-0.04953,0.99968,-0.001841,0.007594,0.011961,60.4814,14.894135,-150.166626,,,
729716514.574748,-2.477933,-5.815292,-81.102965,0.100357,-0.04953,0.99968,-0.001841,0.007594,0.011961,60.4814,14.894135,-150.166626,,,
729716514.580451,-2.477833,-5.814671,-84.176186,0.100357,-0.04953,0.99968,0.002036,-0.000752,0.008962,60.4814,14.894135,-150.166626,,,
729716514.58073,-2.477564,-5.815007,-81.096429,0.107162,-0.045471,1.000275,0.002036,-0.000752,0.008962,60.4814,14.894135,-150.166626,,,
729716514.581853,-2.477564,-5.815005,-84.173308,0.107162,-0.045471,1.000275,0.002036,-0.000752,0.008962,60.4814,14.894135,-150.166626,,,
729716514.58209,-2.477564,-5.815007,-81.096429,0.107162,-0.045471,1.000275,0.002036,-0.000752,0.008962,60.4814,14.894135,-150.166626,,,
729716514.584476,-2.477564,-5.815005,-84.173308,0.107162,-0.045471,1.000275,0.002036,-0.000752,0.008962,60.4814,14.894135,-150.166626,,,
729716514.584711,-2.477564,-5.815007,-81.096429,0.107162,-0.045471,1.000275,0.002036,-0.000752,0.008962,60.4814,14.894135,-150.166626,,,
729716514.588243,-2.476495,-5.816198,-84.170722,0.107162,-0.045471,1.000275,0.007849,-0.001876,0.006055,60.4814,14.894135,-150.166626,,,
729716514.588463,-2.476494,-5.8162,-81.093844,0.107162,-0.045471,1.000275,0.007849,-0.001876,0.006055,60.4814,14.894135,-150.166626,,,
729716514.591604,-2.476438,-5.815914,-84.168615,0.112244,-0.039383,0.995911,0.007849,-0.001876,0.006055,60.4814,14.894135,-150.166626,,,
729716514.59182,-2.476438,-5.815916,-81.091737,0.112244,-0.039383,0.995911,0.007849,-0.001876,0.006055,60.4814,14.894135,-150.166626,,,
729716514.594672,-2.476438,-5.815914,-84.168615,0.112244,-0.039383,0.995911,0.007849,-0.001876,0.006055,60.4814,14.894135,-150.166626,,,
729716514.594882,-2.476438,-5.815916,-81.091737,0.112244,-0.039383,0.995911,0.007849,-0.001876,0.006055,60.4814,14.894135,-150.166626,,,
729716514.60036,-2.476079,-5.816612,-84.167662,0.112244,-0.039383,0.995911,0.003431,0.000763,-0.001448,60.4814,14.894135,-150.166626,,,
729716514.600637,-2.47575,-5.814875,-81.090305,0.113098,-0.037582,0.993347,0.003431,0.000763,-0.001448,60.691803,15.179932,-150.189713,,,
729716514.602195,-2.475751,-5.814873,-84.167183,0.113098,-0.037582,0.993347,0.003431,0.000763,-0.001448,60.691803,15.179932,-150.189713,,,
729716514.602651,-2.47575,-5.814875,-81.090305,0.113098,-0.037582,0.993347,0.003431,0.000763,-0.001448,60.691803,15.179932,-150.189713,,,
729716514.604452,-2.475751,-5.814873,-84.167183,0.113098,-0.037582,0.993347,0.003431,0.000763,-0.001448,60.691803,15.179932,-150.189713,,,
729716514.604676,-2.47575,-5.814875,-81.090305,0.113098,-0.037582,0.993347,0.003431,0.000763,-0.001448,60.691803,15.179932,-150.189713,,,
729716514.609842,-2.475698,-5.81513,-84.167545,0.113098,-0.037582,0.993347,-0.000437,0.00555,-0.005201,60.691803,15.179932,-150.189713,,,
729716514.61013,-2.475698,-5.815132,-81.090666,0.113098,-0.037582,0.993347,-0.000437,0.00555,-0.005201,60.691803,15.179932,-150.189713,,,
729716514.611461,-2.477228,-5.812064,-84.168481,0.1147,-0.03772,0.993912,-0.000437,0.00555,-0.005201,60.691803,15.179932,-150.189713,,,
729716514.611673,-2.477227,-5.812066,-81.091602,0.1147,-0.03772,0.993912,-0.000437,0.00555,-0.005201,60.691803,15.179932,-150.189713,,,
729716514.614582,-2.477228,-5.812064,-84.168481,0.1147,-0.03772,0.993912,-0.000437,0.00555,-0.005201,60.691803,15.179932,-150.189713,,,
729716514.614772,-2.477227,-5.812066,-81.091602,0.1147,-0.03772,0.993912,-0.000437,0.00555,-0.005201,60.691803,15.179932,-150.189713,,,
729716514.617797,-2.47748,-5.811115,-84.170055,0.1147,-0.03772,0.993912,-0.002078,0.010075,-0.011169,60.691803,15.179932,-150.189713,,,
729716514.618038,-2.477479,-5.811117,-81.093177,0.1147,-0.03772,0.993912,-0.002078,0.010075,-0.011169,60.691803,15.179932,-150.189713,,,
729716514.621535,-2.479298,-5.80603,-84.172251,0.116013,-0.038498,0.992828,-0.002078,0.010075,-0.011169,60.691803,15.179932,-150.189713,,,
729716514.621744,-2.479297,-5.806032,-81.095372,0.116013,-0.038498,0.992828,-0.002078,0.010075,-0.011169,60.691803,15.179932,-150.189713,,,
729716514.624562,-2.479298,-5.80603,-84.172251,0.116013,-0.038498,0.992828,-0.002078,0.010075,-0.011169,60.691803,15.179932,-150.189713,,,
729716514.624748,-2.479297,-5.806032,-81.095372,0.116013,-0.038498,0.992828,-0.002078,0.010075,-0.011169,60.691803,15.179932,-150.189713,,,
729716514.629695,-2.479567,-5.802733,-84.174893,0.116013,-0.038498,0.992828,0.000475,0.017013,-0.012826,60.691803,15.179932,-150.189713,,,
729716514.62996,-2.479566,-5.802735,-81.098015,0.116013,-0.038498,0.992828,0.000475,0.017013,-0.012826,60.691803,15.179932,-150.189713,,,
729716514.631533,-2.481311,-5.79663,-84.177853,0.115753,-0.039795,0.996964,0.000475,0.017013,-0.012826,60.691803,15.179932,-150.189713,,,
729716514.631758,-2.48131,-5.796632,-81.100975,0.115753,-0.039795,0.996964,0.000475,0.017013,-0.012826,60.691803,15.179932,-150.189713,,,
729716514.634512,-2.481311,-5.79663,-84.177853,0.115753,-0.039795,0.996964,0.000475,0.017013,-0.012826,60.691803,15.179932,-150.189713,,,
729716514.634732,-2.48131,-5.796632,-81.100975,0.115753,-0.039795,0.996964,0.000475,0.017013,-0.012826,60.691803,15.179932,-150.189713,,,
729716514.638308,-2.481527,-5.79255,-84.181194,0.115753,-0.039795,0.996964,0.00076,0.016426,-0.014211,60.691803,15.179932,-150.189713,,,
729716514.638515,-2.481526,-5.792552,-81.104316,0.115753,-0.039795,0.996964,0.00076,0.016426,-0.014211,60.691803,15.179932,-150.189713,,,
729716514.642117,-2.48322,-5.787704,-84.184572,0.108627,-0.042633,0.999313,0.00076,0.016426,-0.014211,60.882996,14.885834,-150.002457,,,
729716514.642336,-2.483219,-5.787706,-81.107694,0.108627,-0.042633,0.999313,0.00076,0.016426,-0.014211,60.882996,14.885834,-150.002457,,,
729716514.644487,-2.48322,-5.787704,-84.184572,0.108627,-0.042633,0.999313,0.00076,0.016426,-0.014211,60.882996,14.885834,-150.002457,,,
729716514.644704,-2.483219,-5.787706,-81.107694,0.108627,-0.042633,0.999313,0.00076,0.016426,-0.014211,60.882996,14.885834,-150.002457,,,
729716514.648807,-2.48278,-5.783556,-84.188234,0.108627,-0.042633,0.999313,0.00605,0.017692,-0.01367,60.882996,14.885834,-150.002457,,,
729716514.649046,-2.482779,-5.783558,-81.111356,0.108627,-0.042633,0.999313,0.00605,0.017692,-0.01367,60.882996,14.885834,-150.002457,,,
729716514.651051,-2.482692,-5.77988,-84.192153,0.107971,-0.044556,1.000717,0.00605,0.017692,-0.01367,60.882996,14.885834,-150.002457,,,
729716514.651347,-2.482691,-5.779882,-81.115275,0.107971,-0.044556,1.000717,0.00605,0.017692,-0.01367,60.882996,14.885834,-150.002457,,,
729716514.65462,-2.482692,-5.77988,-84.192153,0.107971,-0.044556,1.000717,0.00605,0.017692,-0.01367,60.882996,14.885834,-150.002457,,,
729716514.654808,-2.482691,-5.779882,-81.115275,0.107971,-0.044556,1.000717,0.00605,0.017692,-0.01367,60.882996,14.885834,-150.002457,,,
729716514.658448,-2.480599,-5.775563,-84.196288,0.107971,-0.044556,1.000717,0.006901,0.020774,-0.015163,60.882996,14.885834,-150.002457,,,
729716514.658699,-2.480599,-5.775565,-81.119409,0.107971,-0.044556,1.000717,0.006901,0.020774,-0.015163,60.882996,14.885834,-150.002457,,,
729716514.661799,-2.478462,-5.772494,-84.200173,0.103775,-0.044037,1.003357,0.006901,0.020774,-0.015163,60.882996,14.885834,-150.002457,,,
729716514.662022,-2.478462,-5.772496,-81.123295,0.103775,-0.044037,1.003357,0.006901,0.020774,-0.015163,60.882996,14.885834,-150.002457,,,
729716514.664533,-2.478462,-5.772494,-84.200173,0.103775,-0.044037,1.003357,0.006901,0.020774,-0.015163,60.882996,14.885834,-150.002457,,,
729716514.66473,-2.478462,-5.772496,-81.123295,0.103775,-0.044037,1.003357,0.006901,0.020774,-0.015163,60.882996,14.885834,-150.002457,,,
729716514.66818,-2.475499,-5.767251,-84.203275,0.103775,-0.044037,1.003357,0.015668,0.020741,-0.008387,60.882996,14.885834,-150.002457,,,
729716514.668394,-2.475498,-5.767254,-81.126396,0.103775,-0.044037,1.003357,0.015668,0.020741,-0.008387,60.882996,14.885834,-150.002457,,,
729716514.671984,-2.469914,-5.765558,-84.205211,0.097244,-0.049072,1.004852,0.015668,0.020741,-0.008387,60.882996,14.885834,-150.002457,,,
729716514.67221,-2.469913,-5.76556,-81.128333,0.097244,-0.049072,1.004852,0.015668,0.020741,-0.008387,60.882996,14.885834,-150.002457,,,
729716514.674523,-2.469914,-5.765558,-84.205211,0.097244,-0.049072,1.004852,0.015668,0.020741,-0.008387,60.882996,14.885834,-150.002457,,,
729716514.674725,-2.469913,-5.76556,-81.128333,0.097244,-0.049072,1.004852,0.015668,0.020741,-0.008387,60.882996,14.885834,-150.002457,,,
729716514.678601,-2.464206,-5.761015,-84.206016,0.097244,-0.049072,1.004852,0.018663,0.016837,-0.005981,60.882996,14.885834,-150.002457,,,
729716514.678821,-2.464205,-5.761018,-81.129137,0.097244,-0.049072,1.004852,0.018663,0.016837,-0.005981,60.882996,14.885834,-150.002457,,,
729716514.681434,-2.456831,-5.760819,-84.206555,0.092224,-0.050827,1.000565,0.018663,0.016837,-0.005981,60.882996,14.885834,-150.002457,,,
729716514.681651,-2.456831,-5.760821,-81.129676,0.092224,-0.050827,1.000565,0.018663,0.016837,-0.005981,60.882996,14.885834,-150.002457,,,
729716514.685113,-2.456831,-5.760819,-84.206555,0.092224,-0.050827,1.000565,0.018663,0.016837,-0.005981,60.970901,14.826172,-150.029877,,,
729716514.685353,-2.456831,-5.760821,-81.129676,0.092224,-0.050827,1.000565,0.018663,0.016837,-0.005981,60.970901,14.826172,-150.029877,,,
729716514.688497,-2.450624,-5.757425,-84.206975,0.092224,-0.050827,1.000565,0.021314,0.011667,-0.007258,60.970901,14.826172,-150.029877,,,
729716514.688715,-2.450624,-5.757427,-81.130097,0.092224,-0.050827,1.000565,0.021314,0.011667,-0.007258,60.970901,14.826172,-150.029877,,,
729716514.691553,-2.443658,-5.758659,-84.207985,0.09169,-0.047241,0.995346,0.021314,0.011667,-0.007258,60.970901,14.826172,-150.029877,,,
729716514.691785,-2.443657,-5.758661,-81.131106,0.09169,-0.047241,0.995346,0.021314,0.011667,-0.007258,60.970901,14.826172,-150.029877,,,
729716514.694599,-2.443658,-5.758659,-84.207985,0.09169,-0.047241,0.995346,0.021314,0.011667,-0.007258,60.970901,14.826172,-150.029877,,,
729716514.6948,-2.443657,-5.758661,-81.131106,0.09169,-0.047241,0.995346,0.021314,0.011667,-0.007258,60.970901,14.826172,-150.029877,,,
729716514.698235,-2.438315,-5.757513,-84.209214,0.09169,-0.047241,0.995346,0.019018,0.002305,-0.008454,60.970901,14.826172,-150.029877,,,
729716514.698449,-2.438315,-5.757516,-81.132336,0.09169,-0.047241,0.995346,0.019018,0.002305,-0.008454,60.970901,14.826172,-150.029877,,,
729716514.701897,-2.432462,-5.762671,-84.211028,0.09201,-0.042786,0.990433,0.019018,0.002305,-0.008454,60.970901,14.826172,-150.029877,,,
729716514.70214,-2.432462,-5.762673,-81.13415,0.09201,-0.042786,0.990433,0.019018,0.002305,-0.008454,60.970901,14.826172,-150.029877,,,
729716514.70452,-2.432462,-5.762671,-84.211028,0.09201,-0.042786,0.990433,0.019018,0.002305,-0.008454,60.970901,14.826172,-150.029877,,,
729716514.704726,-2.432462,-5.762673,-81.13415,0.09201,-0.042786,0.990433,0.019018,0.002305,-0.008454,60.970901,14.826172,-150.029877,,,
729716514.709388,-2.427921,-5.764518,-84.2128,0.09201,-0.042786,0.990433,0.012479,-0.005838,-0.007859,60.970901,14.826172,-150.029877,,,
729716514.709634,-2.42792,-5.76452,-81.135921,0.09201,-0.042786,0.990433,0.012479,-0.005838,-0.007859,60.970901,14.826172,-150.029877,,,
