Time (sec),Pitch (deg),Roll (deg),Yaw(deg),X-Acceleration (g),Y-Acceleration (g),Z-Acceleration (g),Pitch Rate (deg/sec),Roll Rate (deg/sec),Yaw Rate (deg/sec),Magnetic Field in X direction (uT),Magnetic Field in Y direction (uT),Magnetic Field in Z Direction (uT),Latitude (deg),Longitude (deg),Altitude (m)
729706215.705462,-14.646373,-0.992314,168.249802,0.021133,-0.246399,0.965195,-0.274111,-0.162328,-0.032295,84.951889,24.071823,-147.511246,,,
729706215.708807,-14.646373,-0.992314,168.249802,0.021133,-0.246399,0.965195,-0.274111,-0.162328,-0.032295,84.951889,24.071823,-147.511246,,,
729706215.712146,-14.725365,-1.042083,168.238105,0.021133,-0.246399,0.965195,-0.274111,-0.162328,-0.032295,84.951889,24.071823,-147.511246,,,
729706215.715531,-14.804499,-1.091208,168.225162,0.022736,-0.248291,0.965118,-0.275456,-0.155709,-0.040216,84.951889,24.071823,-147.511246,,,
729706215.718798,-14.804499,-1.091208,168.225162,0.022736,-0.248291,0.965118,-0.275456,-0.155709,-0.040216,84.951889,24.071823,-147.511246,,,
729706215.722139,-14.882859,-1.139883,168.211791,0.022736,-0.248291,0.965118,-0.275456,-0.155709,-0.040216,84.951889,24.071823,-147.511246,,,
729706215.725473,-14.9599,-1.18811,168.198197,0.021347,-0.257294,0.962219,-0.266527,-0.152269,-0.041481,84.951889,24.071823,-147.511246,,,
729706215.728866,-14.9599,-1.18811,168.198197,0.021347,-0.257294,0.962219,-0.266527,-0.152269,-0.041481,84.951889,24.071823,-147.511246,,,
729706215.732116,-15.034695,-1.236317,168.184919,0.021347,-0.257294,0.962219,-0.266527,-0.152269,-0.041481,84.951889,24.071823,-147.511246,,,
729706215.735522,-15.106455,-1.284328,168.172776,0.02269,-0.264496,0.97049,-0.24543,-0.153047,-0.033884,84.845917,24.649902,-147.049576,,,
729706215.738798,-15.106455,-1.284328,168.172776,0.02269,-0.264496,0.97049,-0.24543,-0.153047,-0.033884,84.845917,24.649902,-147.049576,,,
729706215.742182,-15.177382,-1.331167,168.162201,0.02269,-0.264496,0.97049,-0.24543,-0.153047,-0.033884,84.845917,24.649902,-147.049576,,,
729706215.745466,-15.248686,-1.375584,168.154045,0.022263,-0.266769,0.964218,-0.247821,-0.140684,-0.017226,84.845917,24.649902,-147.049576,,,
729706215.748783,-15.248686,-1.375584,168.154045,0.022263,-0.266769,0.964218,-0.247821,-0.140684,-0.017226,84.845917,24.649902,-147.049576,,,
729706215.752135,-15.31944,-1.41877,168.148919,0.022263,-0.266769,0.964218,-0.247821,-0.140684,-0.017226,84.845917,24.649902,-147.049576,,,
729706215.755459,-15.389492,-1.462409,168.145755,0.02121,-0.270248,0.958359,-0.242735,-0.147602,-0.003808,84.845917,24.649902,-147.049576,,,
729706215.758867,-15.389492,-1.462409,168.145755,0.02121,-0.270248,0.958359,-0.242735,-0.147602,-0.003808,84.845917,24.649902,-147.049576,,,
729706215.762129,-15.459497,-1.505306,168.144178,0.02121,-0.270248,0.958359,-0.242735,-0.147602,-0.003808,84.845917,24.649902,-147.049576,,,
729706215.765456,-15.531022,-1.544426,168.143789,0.028214,-0.267822,0.961502,-0.25325,-0.123683,0.004775,84.845917,24.649902,-147.049576,,,
729706215.76887,-15.531022,-1.544426,168.143789,0.028214,-0.267822,0.961502,-0.25325,-0.123683,0.004775,84.845917,24.649902,-147.049576,,,
729706215.772135,-15.604751,-1.578826,168.143434,0.028214,-0.267822,0.961502,-0.25325,-0.123683,0.004775,84.845917,24.649902,-147.049576,,,
729706215.775495,-15.679868,-1.609237,168.143119,0.032318,-0.264954,0.959137,-0.263066,-0.096166,0.005608,84.56636,25.072556,-147.419342,,,
729706215.778782,-15.679868,-1.609237,168.143119,0.032318,-0.264954,0.959137,-0.263066,-0.096166,0.005608,84.56636,25.072556,-147.419342,,,
729706215.7822,-15.755893,-1.635991,168.142685,0.032318,-0.264954,0.959137,-0.263066,-0.096166,0.005608,84.56636,25.072556,-147.419342,,,
729706215.785447,-15.83246,-1.658675,168.142065,0.033981,-0.270584,0.962372,-0.267006,-0.067628,0.004676,84.56636,25.072556,-147.419342,,,
729706215.788805,-15.83246,-1.658675,168.142065,0.033981,-0.270584,0.962372,-0.267006,-0.067628,0.004676,84.56636,25.072556,-147.419342,,,
729706215.792134,-15.909581,-1.676701,168.141302,0.033981,-0.270584,0.962372,-0.267006,-0.067628,0.004676,84.56636,25.072556,-147.419342,,,
729706215.795453,-15.98778,-1.689222,168.140637,0.035141,-0.272919,0.967667,-0.274632,-0.029613,0.005673,84.56636,25.072556,-147.419342,,,
729706215.798789,-15.98778,-1.689222,168.140637,0.035141,-0.272919,0.967667,-0.274632,-0.029613,0.005673,84.56636,25.072556,-147.419342,,,
729706215.80213,-16.06729,-1.695753,168.141464,0.035141,-0.272919,0.967667,-0.274632,-0.029613,0.005673,84.56636,25.072556,-147.419342,,,
729706215.805452,-16.148399,-1.697142,168.14383,0.032654,-0.27504,0.966949,-0.285589,0.003107,0.016284,84.56636,25.072556,-147.419342,,,
729706215.808867,-16.148399,-1.697142,168.14383,0.032654,-0.27504,0.966949,-0.285589,0.003107,0.016284,84.56636,25.072556,-147.419342,,,
729706215.812135,-16.230299,-1.694432,168.147855,0.032654,-0.27504,0.966949,-0.285589,0.003107,0.016284,84.56636,25.072556,-147.419342,,,
729706215.815459,-16.31263,-1.687774,168.154684,0.031372,-0.276428,0.966766,-0.288193,0.024962,0.03505,84.480362,25.613419,-147.533188,,,
729706215.81882,-16.31263,-1.687774,168.154684,0.031372,-0.276428,0.966766,-0.288193,0.024962,0.03505,84.480362,25.613419,-147.533188,,,
729706215.822191,-16.395893,-1.678407,168.163668,0.031372,-0.276428,0.966766,-0.288193,0.024962,0.03505,84.480362,25.613419,-147.533188,,,
729706215.825456,-16.479851,-1.667335,168.174155,0.02948,-0.273911,0.961426,-0.29288,0.033649,0.045097,84.480362,25.613419,-147.533188,,,
729706215.828787,-16.479851,-1.667335,168.174155,0.02948,-0.273911,0.961426,-0.29288,0.033649,0.045097,84.480362,25.613419,-147.533188,,,
729706215.832141,-16.565931,-1.653572,168.186603,0.02948,-0.273911,0.961426,-0.29288,0.033649,0.045097,84.480362,25.613419,-147.533188,,,
729706215.835456,-16.654065,-1.637295,168.200575,0.025009,-0.275284,0.956131,-0.307074,0.047881,0.05544,84.480362,25.613419,-147.533188,,,
729706215.838804,-16.654065,-1.637295,168.200575,0.025009,-0.275284,0.956131,-0.307074,0.047881,0.05544,84.480362,25.613419,-147.533188,,,
729706215.842121,-16.743852,-1.62076,168.215746,0.025009,-0.275284,0.956131,-0.307074,0.047881,0.05544,84.480362,25.613419,-147.533188,,,
729706215.84545,-16.836699,-1.605667,168.231872,0.021332,-0.277985,0.94577,-0.328398,0.035631,0.062204,84.480362,25.613419,-147.533188,,,
729706215.84887,-16.836699,-1.605667,168.231872,0.021332,-0.277985,0.94577,-0.328398,0.035631,0.062204,84.480362,25.613419,-147.533188,,,
729706215.852141,-16.934623,-1.593109,168.248916,0.021332,-0.277985,0.94577,-0.328398,0.035631,0.062204,84.480362,25.613419,-147.533188,,,
729706215.855461,-17.03687,-1.582898,168.266982,0.019165,-0.282242,0.930115,-0.358522,0.016875,0.06965,84.480362,25.613419,-147.533188,,,
729706215.858789,-17.03687,-1.582898,168.266982,0.019165,-0.282242,0.930115,-0.358522,0.016875,0.06965,84.594849,26.147293,-147.195786,,,
729706215.86213,-17.140324,-1.574942,168.285761,0.019165,-0.282242,0.930115,-0.358522,0.016875,0.06965,84.594849,26.147293,-147.195786,,,
729706215.865459,-17.243235,-1.569377,168.305063,0.018768,-0.289429,0.93956,-0.354853,-0.001222,0.072894,84.594849,26.147293,-147.195786,,,
729706215.868815,-17.243235,-1.569377,168.305063,0.018768,-0.289429,0.93956,-0.354853,-0.001222,0.072894,84.594849,26.147293,-147.195786,,,
729706215.872141,-17.343715,-1.566616,168.324548,0.018768,-0.289429,0.93956,-0.354853,-0.001222,0.072894,84.594849,26.147293,-147.195786,,,
729706215.875462,-17.438694,-1.566557,168.343694,0.021698,-0.298447,0.954834,-0.316749,-0.019683,0.069483,84.594849,26.147293,-147.195786,,,
729706215.878876,-17.438694,-1.566557,168.343694,0.021698,-0.298447,0.954834,-0.316749,-0.019683,0.069483,84.594849,26.147293,-147.195786,,,
729706215.882133,-17.527112,-1.569092,168.361124,0.021698,-0.298447,0.954834,-0.316749,-0.019683,0.069483,84.594849,26.147293,-147.195786,,,
729706215.885452,-17.608782,-1.575211,168.375913,0.032013,-0.297943,0.963898,-0.270382,-0.039424,0.050668,84.594849,26.147293,-147.195786,,,
729706215.888876,-17.608782,-1.575211,168.375913,0.032013,-0.297943,0.963898,-0.270382,-0.039424,0.050668,84.594849,26.147293,-147.195786,,,
729706215.892137,-17.684128,-1.584384,168.387802,0.032013,-0.297943,0.963898,-0.270382,-0.039424,0.050668,84.594849,26.147293,-147.195786,,,
729706215.895458,-17.753177,-1.595805,168.396549,0.038696,-0.297714,0.968979,-0.22718,-0.048652,0.028612,84.594849,26.147293,-147.195786,,,
729706215.89879,-17.753177,-1.595805,168.396549,0.038696,-0.297714,0.968979,-0.22718,-0.048652,0.028612,84.351395,26.868484,-147.290451,,,
729706215.902193,-17.816637,-1.609506,168.402062,0.038696,-0.297714,0.968979,-0.22718,-0.048652,0.028612,84.351395,26.868484,-147.290451,,,
729706215.905533,-17.875359,-1.625275,168.403861,0.039963,-0.299179,0.968887,-0.194881,-0.055293,0.003108,84.351395,26.868484,-147.290451,,,
729706215.908809,-17.875359,-1.625275,168.403861,0.039963,-0.299179,0.968887,-0.194881,-0.055293,0.003108,84.351395,26.868484,-147.290451,,,
729706215.912129,-17.92924,-1.644048,168.402348,0.039963,-0.299179,0.968887,-0.194881,-0.055293,0.003108,84.351395,26.868484,-147.290451,,,
729706215.915456,-17.979669,-1.666083,168.397771,0.040894,-0.303802,0.963837,-0.171387,-0.071533,-0.01779,84.351395,26.868484,-147.290451,,,
729706215.918815,-17.979669,-1.666083,168.397771,0.040894,-0.303802,0.963837,-0.171387,-0.071533,-0.01779,84.351395,26.868484,-147.290451,,,
729706215.922127,-18.028217,-1.690433,168.390252,0.040894,-0.303802,0.963837,-0.171387,-0.071533,-0.01779,84.351395,26.868484,-147.290451,,,
729706215.925454,-18.076429,-1.716078,168.380577,0.039001,-0.305939,0.958923,-0.169444,-0.075957,-0.032019,84.351395,26.868484,-147.290451,,,
729706215.928883,-18.076429,-1.716078,168.380577,0.039001,-0.305939,0.958923,-0.169444,-0.075957,-0.032019,84.351395,26.868484,-147.290451,,,
729706215.932133,-18.125687,-1.742472,168.369734,0.039001,-0.305939,0.958923,-0.169444,-0.075957,-0.032019,84.351395,26.868484,-147.290451,,,
729706215.935461,-18.175267,-1.769781,168.358654,0.034134,-0.310501,0.954407,-0.171757,-0.081868,-0.033355,84.351395,26.868484,-147.290451,,,
729706215.938793,-18.175267,-1.769781,168.358654,0.034134,-0.310501,0.954407,-0.171757,-0.081868,-0.033355,84.069305,27.071838,-147.239578,,,
729706215.942191,-18.224466,-1.797847,168.348303,0.034134,-0.310501,0.954407,-0.171757,-0.081868,-0.033355,84.069305,27.071838,-147.239578,,,
729706215.945443,-18.272455,-1.825988,168.339689,0.031097,-0.318848,0.959152,-0.162965,-0.086247,-0.021968,84.069305,27.071838,-147.239578,,,
729706215.948805,-18.272455,-1.825988,168.339689,0.031097,-0.318848,0.959152,-0.162965,-0.086247,-0.021968,84.069305,27.071838,-147.239578,,,
729706215.952119,-18.317861,-1.853279,168.332784,0.031097,-0.318848,0.959152,-0.162965,-0.086247,-0.021968,84.069305,27.071838,-147.239578,,,
729706215.955453,-18.360927,-1.878552,168.327574,0.030823,-0.323471,0.973572,-0.146308,-0.075987,-0.01117,84.069305,27.071838,-147.239578,,,
729706215.958817,-18.360927,-1.878552,168.327574,0.030823,-0.323471,0.973572,-0.146308,-0.075987,-0.01117,84.069305,27.071838,-147.239578,,,
729706215.962136,-18.40209,-1.90184,168.323994,0.030823,-0.323471,0.973572,-0.146308,-0.075987,-0.01117,84.069305,27.071838,-147.239578,,,
729706215.965457,-18.442118,-1.923298,168.32226,0.033813,-0.324356,0.966965,-0.137992,-0.06741,0.000846,84.069305,27.071838,-147.239578,,,
729706215.968864,-18.442118,-1.923298,168.32226,0.033813,-0.324356,0.966965,-0.137992,-0.06741,0.000846,84.069305,27.071838,-147.239578,,,
729706215.972138,-18.476802,-1.943785,168.32217,0.033813,-0.324356,0.966965,-0.137992,-0.06741,0.000846,84.069305,27.071838,-147.239578,,,
729706215.975458,-18.512143,-1.962653,168.323291,0.031754,-0.323715,0.965378,-0.119135,-0.062879,0.006921,84.069305,27.071838,-147.239578,,,
729706215.978834,-18.512143,-1.962653,168.323291,0.031754,-0.323715,0.965378,-0.119135,-0.062879,0.006921,84.069305,27.071838,-147.239578,,,
729706215.982191,-18.54199,-1.981071,168.324487,0.031754,-0.323715,0.965378,-0.119135,-0.062879,0.006921,84.161896,27.349854,-147.381104,,,
729706215.985446,-18.575195,-1.996297,168.32654,0.037186,-0.321747,0.962402,-0.113982,-0.049492,0.010124,84.161896,27.349854,-147.381104,,,
729706215.988807,-18.575195,-1.996297,168.32654,0.037186,-0.321747,0.962402,-0.113982,-0.049492,0.010124,84.161896,27.349854,-147.381104,,,
729706215.992141,-18.605244,-2.011422,168.32802,0.037186,-0.321747,0.962402,-0.113982,-0.049492,0.010124,84.161896,27.349854,-147.381104,,,
729706215.995455,-18.640009,-2.024639,168.329107,0.040085,-0.318146,0.953201,-0.120376,-0.044167,0.004814,84.161896,27.349854,-147.381104,,,
729706215.998803,-18.640009,-2.024639,168.329107,0.040085,-0.318146,0.953201,-0.120376,-0.044167,0.004814,84.161896,27.349854,-147.381104,,,
729706216.002131,-18.672748,-2.039505,168.3287,0.040085,-0.318146,0.953201,-0.120376,-0.044167,0.004814,84.161896,27.349854,-147.381104,,,
729706216.005459,-18.710631,-2.054597,168.327238,0.037628,-0.317139,0.942352,-0.135165,-0.051675,-0.00434,84.161896,27.349854,-147.381104,,,
729706216.008855,-18.710631,-2.054597,168.327238,0.037628,-0.317139,0.942352,-0.135165,-0.051675,-0.00434,84.161896,27.349854,-147.381104,,,
729706216.012117,-18.747768,-2.071835,168.324529,0.037628,-0.317139,0.942352,-0.135165,-0.051675,-0.00434,84.161896,27.349854,-147.381104,,,
729706216.015454,-18.790303,-2.090594,168.320863,0.036758,-0.313171,0.934525,-0.154063,-0.062171,-0.010578,84.161896,27.349854,-147.381104,,,
729706216.018802,-18.790303,-2.090594,168.320863,0.036758,-0.313171,0.934525,-0.154063,-0.062171,-0.010578,84.161896,27.349854,-147.381104,,,
729706216.022176,-18.834952,-2.111551,168.315488,0.036758,-0.313171,0.934525,-0.154063,-0.062171,-0.010578,84.109848,27.709717,-147.251572,,,
729706216.025448,-18.884579,-2.135334,168.308278,0.036163,-0.312256,0.926514,-0.178388,-0.074502,-0.020589,84.109848,27.709717,-147.251572,,,
729706216.028805,-18.884579,-2.135334,168.308278,0.036163,-0.312256,0.926514,-0.178388,-0.074502,-0.020589,84.109848,27.709717,-147.251572,,,
729706216.032148,-18.936586,-2.160554,168.300814,0.036163,-0.312256,0.926514,-0.178388,-0.074502,-0.020589,84.109848,27.709717,-147.251572,,,
729706216.03545,-18.994948,-2.18995,168.291788,0.035339,-0.313461,0.920303,-0.212318,-0.093961,-0.027365,84.109848,27.709717,-147.251572,,,
729706216.038809,-18.994948,-2.18995,168.291788,0.035339,-0.313461,0.920303,-0.212318,-0.093961,-0.027365,84.109848,27.709717,-147.251572,,,
729706216.042133,-19.05567,-2.221848,168.281144,0.035339,-0.313461,0.920303,-0.212318,-0.093961,-0.027365,84.109848,27.709717,-147.251572,,,
729706216.045458,-19.121762,-2.257828,168.269478,0.033981,-0.316391,0.91684,-0.23847,-0.115648,-0.031319,84.109848,27.709717,-147.251572,,,
729706216.048877,-19.121762,-2.257828,168.269478,0.033981,-0.316391,0.91684,-0.23847,-0.115648,-0.031319,84.109848,27.709717,-147.251572,,,
729706216.052134,-19.189578,-2.296986,168.257123,0.033981,-0.316391,0.91684,-0.23847,-0.115648,-0.031319,84.109848,27.709717,-147.251572,,,
729706216.055461,-19.262315,-2.34021,168.243351,0.036209,-0.320511,0.916061,-0.261242,-0.135388,-0.037481,84.109848,27.709717,-147.251572,,,
729706216.0588,-19.262315,-2.34021,168.243351,0.036209,-0.320511,0.916061,-0.261242,-0.135388,-0.037481,84.109848,27.709717,-147.251572,,,
729706216.06213,-19.336167,-2.384831,168.22889,0.036209,-0.320511,0.916061,-0.261242,-0.135388,-0.037481,83.737411,28.196701,-147.034973,,,
729706216.065459,-19.415186,-2.433037,168.21257,0.039948,-0.325562,0.918976,-0.281811,-0.149111,-0.045996,83.737411,28.196701,-147.034973,,,
729706216.068856,-19.415186,-2.433037,168.21257,0.039948,-0.325562,0.918976,-0.281811,-0.149111,-0.045996,83.737411,28.196701,-147.034973,,,
729706216.0722,-19.493643,-2.482433,168.195158,0.039948,-0.325562,0.918976,-0.281811,-0.149111,-0.045996,83.737411,28.196701,-147.034973,,,
729706216.075449,-19.576975,-2.532316,168.176827,0.040634,-0.331314,0.929581,-0.295345,-0.149111,-0.050501,83.737411,28.196701,-147.034973,,,
729706216.078816,-19.576975,-2.532316,168.176827,0.040634,-0.331314,0.929581,-0.295345,-0.149111,-0.050501,83.737411,28.196701,-147.034973,,,
729706216.082126,-19.659018,-2.580565,168.157933,0.040634,-0.331314,0.929581,-0.295345,-0.149111,-0.050501,83.737411,28.196701,-147.034973,,,
729706216.085454,-19.745069,-2.626909,168.139335,0.039581,-0.338821,0.933716,-0.301498,-0.133056,-0.046511,83.737411,28.196701,-147.034973,,,
729706216.088799,-19.745069,-2.626909,168.139335,0.039581,-0.338821,0.933716,-0.301498,-0.133056,-0.046511,83.737411,28.196701,-147.034973,,,
729706216.092123,-19.827337,-2.669425,168.122557,0.039581,-0.338821,0.933716,-0.301498,-0.133056,-0.046511,83.737411,28.196701,-147.034973,,,
729706216.095454,-19.912804,-2.709807,168.107335,0.041046,-0.347763,0.940369,-0.298028,-0.115311,-0.033693,83.737411,28.196701,-147.034973,,,
729706216.098872,-19.912804,-2.709807,168.107335,0.041046,-0.347763,0.940369,-0.298028,-0.115311,-0.033693,83.737411,28.196701,-147.034973,,,
729706216.102121,-19.992971,-2.745858,168.095084,0.041046,-0.347763,0.940369,-0.298028,-0.115311,-0.033693,83.395065,28.715256,-147.106934,,,
729706216.105461,-20.075469,-2.780984,168.085087,0.045715,-0.351242,0.940948,-0.285912,-0.105109,-0.015831,83.395065,28.715256,-147.106934,,,
729706216.108788,-20.075469,-2.780984,168.085087,0.045715,-0.351242,0.940948,-0.285912,-0.105109,-0.015831,83.395065,28.715256,-147.106934,,,
729706216.112131,-20.152321,-2.81193,168.078441,0.045715,-0.351242,0.940948,-0.285912,-0.105109,-0.015831,83.395065,28.715256,-147.106934,,,
729706216.115461,-20.232433,-2.841551,168.073788,0.046707,-0.352478,0.940491,-0.278382,-0.090697,0.00079,83.395065,28.715256,-147.106934,,,
729706216.118807,-20.232433,-2.841551,168.073788,0.046707,-0.352478,0.940491,-0.278382,-0.090697,0.00079,83.395065,28.715256,-147.106934,,,
729706216.12214,-20.308753,-2.865537,168.072472,0.046707,-0.352478,0.940491,-0.278382,-0.090697,0.00079,83.395065,28.715256,-147.106934,,,
729706216.125461,-20.389675,-2.888085,168.072813,0.045807,-0.355316,0.93634,-0.28256,-0.071426,0.017015,83.395065,28.715256,-147.106934,,,
729706216.128871,-20.389675,-2.888085,168.072813,0.045807,-0.355316,0.93634,-0.28256,-0.071426,0.017015,83.395065,28.715256,-147.106934,,,
729706216.132136,-20.467284,-2.905717,168.075344,0.045807,-0.355316,0.93634,-0.28256,-0.071426,0.017015,83.395065,28.715256,-147.106934,,,
729706216.13546,-20.549212,-2.922799,168.078483,0.047943,-0.355988,0.935516,-0.28697,-0.055331,0.026562,83.395065,28.715256,-147.106934,,,
729706216.13886,-20.549212,-2.922799,168.078483,0.047943,-0.355988,0.935516,-0.28697,-0.055331,0.026562,83.395065,28.715256,-147.106934,,,
729706216.142133,-20.630527,-2.93447,168.083573,0.047943,-0.355988,0.935516,-0.28697,-0.055331,0.026562,83.395065,28.715256,-147.106934,,,
729706216.145452,-20.718015,-2.943645,168.088962,0.047089,-0.356461,0.929642,-0.308468,-0.029852,0.033044,83.165833,29.232635,-147.295685,,,
729706216.148801,-20.718015,-2.943645,168.088962,0.047089,-0.356461,0.929642,-0.308468,-0.029852,0.033044,83.165833,29.232635,-147.295685,,,
729706216.152201,-20.808205,-2.950046,168.094868,0.047089,-0.356461,0.929642,-0.308468,-0.029852,0.033044,83.165833,29.232635,-147.295685,,,
729706216.15553,-20.899602,-2.953601,168.101945,0.047287,-0.364075,0.925491,-0.316676,-0.013147,0.041103,83.165833,29.232635,-147.295685,,,
729706216.158792,-20.899602,-2.953601,168.101945,0.047287,-0.364075,0.925491,-0.316676,-0.013147,0.041103,83.165833,29.232635,-147.295685,,,
729706216.162134,-20.991534,-2.953801,168.110948,0.047287,-0.364075,0.925491,-0.316676,-0.013147,0.041103,83.165833,29.232635,-147.295685,,,
729706216.165453,-21.083857,-2.950097,168.122279,0.042999,-0.371262,0.93573,-0.318866,0.007992,0.056279,83.165833,29.232635,-147.295685,,,
729706216.168801,-21.083857,-2.950097,168.122279,0.042999,-0.371262,0.93573,-0.318866,0.007992,0.056279,83.165833,29.232635,-147.295685,,,
729706216.172115,-21.175782,-2.941692,168.136464,0.042999,-0.371262,0.93573,-0.318866,0.007992,0.056279,83.165833,29.232635,-147.295685,,,
729706216.175493,-21.26657,-2.928617,168.153527,0.041916,-0.375961,0.939301,-0.310286,0.032981,0.074335,83.165833,29.232635,-147.295685,,,
729706216.178784,-21.26657,-2.928617,168.153527,0.041916,-0.375961,0.939301,-0.310286,0.032981,0.074335,83.165833,29.232635,-147.295685,,,
729706216.182136,-21.356389,-2.912101,168.173727,0.041916,-0.375961,0.939301,-0.310286,0.032981,0.074335,83.165833,29.232635,-147.295685,,,
729706216.185452,-21.444531,-2.89324,168.197463,0.039154,-0.375015,0.932373,-0.297748,0.039987,0.09636,83.24971,29.84993,-146.778,,,
729706216.188881,-21.444531,-2.89324,168.197463,0.039154,-0.375015,0.932373,-0.297748,0.039987,0.09636,83.24971,29.84993,-146.778,,,
729706216.192135,-21.530979,-2.871823,168.224709,0.039154,-0.375015,0.932373,-0.297748,0.039987,0.09636,83.24971,29.84993,-146.778,,,
729706216.195466,-21.61588,-2.848389,168.255128,0.037003,-0.372513,0.929947,-0.286231,0.045532,0.116005,83.24971,29.84993,-146.778,,,
729706216.198804,-21.61588,-2.848389,168.255128,0.037003,-0.372513,0.929947,-0.286231,0.045532,0.116005,83.24971,29.84993,-146.778,,,
729706216.202191,-21.699151,-2.823584,168.288914,0.037003,-0.372513,0.929947,-0.286231,0.045532,0.116005,83.24971,29.84993,-146.778,,,
729706216.205448,-21.781609,-2.797932,168.325643,0.032181,-0.374741,0.923508,-0.280022,0.043379,0.134399,83.24971,29.84993,-146.778,,,
729706216.208828,-21.781609,-2.797932,168.325643,0.032181,-0.374741,0.923508,-0.280022,0.043379,0.134399,83.24971,29.84993,-146.778,,,
729706216.212132,-21.86443,-2.772922,168.364107,0.032181,-0.374741,0.923508,-0.280022,0.043379,0.134399,83.24971,29.84993,-146.778,,,
729706216.215457,-21.948446,-2.749295,168.403267,0.033081,-0.373962,0.911667,-0.288456,0.031434,0.138946,83.24971,29.84993,-146.778,,,
729706216.218815,-21.948446,-2.749295,168.403267,0.033081,-0.373962,0.911667,-0.288456,0.031434,0.138946,83.24971,29.84993,-146.778,,,
729706216.222139,-22.033369,-2.727418,168.442468,0.033081,-0.373962,0.911667,-0.288456,0.031434,0.138946,83.24971,29.84993,-146.778,,,
729706216.225459,-22.117899,-2.708652,168.481516,0.036163,-0.375092,0.903778,-0.286067,0.009651,0.137476,83.32486,30.321152,-146.76947,,,
729706216.228781,-22.117899,-2.708652,168.481516,0.036163,-0.375092,0.903778,-0.286067,0.009651,0.137476,83.32486,30.321152,-146.76947,,,
729706216.23215,-22.200552,-2.694047,168.519919,0.036163,-0.375092,0.903778,-0.286067,0.009651,0.137476,83.32486,30.321152,-146.76947,,,
729706216.235455,-22.281328,-2.682991,168.557224,0.035294,-0.376053,0.908295,-0.273605,-0.012667,0.12951,83.32486,30.321152,-146.76947,,,
729706216.238852,-22.281328,-2.682991,168.557224,0.035294,-0.376053,0.908295,-0.273605,-0.012667,0.12951,83.32486,30.321152,-146.76947,,,
729706216.242135,-22.361754,-2.675392,168.592857,0.035294,-0.376053,0.908295,-0.273605,-0.012667,0.12951,83.32486,30.321152,-146.76947,,,
729706216.245455,-22.44219,-2.670851,168.626529,0.037567,-0.374741,0.909042,-0.274534,-0.029255,0.116738,83.32486,30.321152,-146.76947,,,
729706216.248821,-22.44219,-2.670851,168.626529,0.037567,-0.374741,0.909042,-0.274534,-0.029255,0.116738,83.32486,30.321152,-146.76947,,,
729706216.252177,-22.5228,-2.668895,168.657373,0.037567,-0.374741,0.909042,-0.274534,-0.029255,0.116738,83.32486,30.321152,-146.76947,,,
729706216.255451,-22.603147,-2.669186,168.685205,0.044357,-0.375763,0.909943,-0.27384,-0.037295,0.097178,83.32486,30.321152,-146.76947,,,
729706216.258799,-22.603147,-2.669186,168.685205,0.044357,-0.375763,0.909943,-0.27384,-0.037295,0.097178,83.32486,30.321152,-146.76947,,,
729706216.262132,-22.683132,-2.67223,168.709528,0.044357,-0.375763,0.909943,-0.27384,-0.037295,0.097178,83.32486,30.321152,-146.76947,,,
729706216.265449,-22.761947,-2.678642,168.72928,0.049133,-0.377899,0.914398,-0.267263,-0.04883,0.067373,83.414001,30.995483,-146.893433,,,
729706216.268803,-22.761947,-2.678642,168.72928,0.049133,-0.377899,0.914398,-0.267263,-0.04883,0.067373,83.414001,30.995483,-146.893433,,,
729706216.272127,-22.838731,-2.687485,168.745077,0.049133,-0.377899,0.914398,-0.267263,-0.04883,0.067373,83.414001,30.995483,-146.893433,,,
729706216.275453,-22.913645,-2.698015,168.757828,0.049774,-0.383224,0.918823,-0.255385,-0.052642,0.047255,83.414001,30.995483,-146.893433,,,
729706216.278847,-22.913645,-2.698015,168.757828,0.049774,-0.383224,0.918823,-0.255385,-0.052642,0.047255,83.414001,30.995483,-146.893433,,,
729706216.282119,-22.986784,-2.710171,168.76736,0.049774,-0.383224,0.918823,-0.255385,-0.052642,0.047255,83.414001,30.995483,-146.893433,,,
729706216.285456,-23.057804,-2.7235,168.774207,0.050858,-0.390396,0.917694,-0.241653,-0.053733,0.029409,83.414001,30.995483,-146.893433,,,
729706216.288809,-23.057804,-2.7235,168.774207,0.050858,-0.390396,0.917694,-0.241653,-0.053733,0.029409,83.414001,30.995483,-146.893433,,,
729706216.292164,-23.126719,-2.738643,168.779505,0.050858,-0.390396,0.917694,-0.241653,-0.053733,0.029409,83.414001,30.995483,-146.893433,,,
729706216.295475,-23.192552,-2.756859,168.783904,0.0495,-0.396561,0.91185,-0.220688,-0.072899,0.022746,83.414001,30.995483,-146.893433,,,
729706216.298895,-23.192552,-2.756859,168.783904,0.0495,-0.396561,0.91185,-0.220688,-0.072899,0.022746,83.414001,30.995483,-146.893433,,,
729706216.302135,-23.255416,-2.778328,168.788692,0.0495,-0.396561,0.91185,-0.220688,-0.072899,0.022746,83.414001,30.995483,-146.893433,,,
729706216.305486,-23.316605,-2.802182,168.794795,0.046661,-0.399765,0.910645,-0.208809,-0.093353,0.030729,83.414001,30.995483,-146.893433,,,
729706216.308856,-23.316605,-2.802182,168.794795,0.046661,-0.399765,0.910645,-0.208809,-0.093353,0.030729,83.350815,31.336472,-146.689362,,,
729706216.312261,-23.37702,-2.828071,168.802441,0.046661,-0.399765,0.910645,-0.208809,-0.093353,0.030729,83.350815,31.336472,-146.689362,,,
729706216.315458,-23.438087,-2.854652,168.811485,0.046478,-0.401321,0.907013,-0.213069,-0.102277,0.04002,83.350815,31.336472,-146.689362,,,
729706216.318876,-23.438087,-2.854652,168.811485,0.046478,-0.401321,0.907013,-0.213069,-0.102277,0.04002,83.350815,31.336472,-146.689362,,,
729706216.32208,-23.500891,-2.881479,168.820623,0.046478,-0.401321,0.907013,-0.213069,-0.102277,0.04002,83.350815,31.336472,-146.689362,,,
729706216.325479,-23.564859,-2.908127,168.829647,0.050888,-0.401642,0.908691,-0.221316,-0.100944,0.039841,83.350815,31.336472,-146.689362,,,
729706216.328811,-23.564859,-2.908127,168.829647,0.050888,-0.401642,0.908691,-0.221316,-0.100944,0.039841,83.350815,31.336472,-146.689362,,,
729706216.332122,-23.629385,-2.933226,168.839131,0.050888,-0.401642,0.908691,-0.221316,-0.100944,0.039841,83.350815,31.336472,-146.689362,,,
729706216.335455,-23.694161,-2.955313,168.848613,0.053696,-0.404694,0.917969,-0.223237,-0.0802,0.040036,83.350815,31.336472,-146.689362,,,
729706216.338809,-23.694161,-2.955313,168.848613,0.053696,-0.404694,0.917969,-0.223237,-0.0802,0.040036,83.350815,31.336472,-146.689362,,,
729706216.341928,-23.759449,-2.973324,168.857636,0.053696,-0.404694,0.917969,-0.223237,-0.0802,0.040036,83.350815,31.336472,-146.689362,,,
729706216.345478,-23.825377,-2.987712,168.866097,0.056656,-0.406311,0.921951,-0.227919,-0.053576,0.036723,83.350815,31.336472,-146.689362,,,
729706216.348782,-23.825377,-2.987712,168.866097,0.056656,-0.406311,0.921951,-0.227919,-0.053576,0.036723,83.017426,31.799438,-146.813004,,,
729706216.352123,-23.892143,-2.998909,168.874561,0.056656,-0.406311,0.921951,-0.227919,-0.053576,0.036723,83.017426,31.799438,-146.813004,,,
729706216.355451,-23.959563,-3.007412,168.882819,0.059555,-0.406937,0.918274,-0.232545,-0.034414,0.035631,83.017426,31.799438,-146.813004,,,
729706216.358869,-23.959563,-3.007412,168.882819,0.059555,-0.406937,0.918274,-0.232545,-0.034414,0.035631,83.017426,31.799438,-146.813004,,,
729706216.362122,-24.026746,-3.013635,168.890548,0.059555,-0.406937,0.918274,-0.232545,-0.034414,0.035631,83.017426,31.799438,-146.813004,,,
729706216.365453,-24.093023,-3.016874,168.897814,0.057663,-0.406296,0.919006,-0.226408,-0.012505,0.032317,83.017426,31.799438,-146.813004,,,
729706216.368797,-24.093023,-3.016874,168.897814,0.057663,-0.406296,0.919006,-0.226408,-0.012505,0.032317,83.017426,31.799438,-146.813004,,,
729706216.37219,-24.159012,-3.017624,168.904445,0.057663,-0.406296,0.919006,-0.226408,-0.012505,0.032317,83.017426,31.799438,-146.813004,,,
729706216.375447,-24.225835,-3.016659,168.910474,0.056931,-0.410309,0.915115,-0.232396,0.000965,0.0287,83.017426,31.799438,-146.813004,,,
729706216.378812,-24.225835,-3.016659,168.910474,0.056931,-0.410309,0.915115,-0.232396,0.000965,0.0287,83.017426,31.799438,-146.813004,,,
729706216.382134,-24.291432,-3.015005,168.916202,0.056931,-0.410309,0.915115,-0.232396,0.000965,0.0287,83.017426,31.799438,-146.813004,,,
729706216.385452,-24.358802,-3.012713,168.922475,0.054703,-0.416626,0.911041,-0.233624,0.003226,0.031888,83.017426,31.799438,-146.813004,,,
729706216.38879,-24.358802,-3.012713,168.922475,0.054703,-0.416626,0.911041,-0.233624,0.003226,0.031888,82.885681,32.122513,-146.659134,,,
729706216.392119,-24.425177,-3.009712,168.930452,0.054703,-0.416626,0.911041,-0.233624,0.003226,0.031888,82.885681,32.122513,-146.659134,,,
729706216.395451,-24.49348,-3.007952,168.939933,0.045959,-0.421112,0.908112,-0.235418,-0.008114,0.042308,82.885681,32.122513,-146.659134,,,
729706216.398875,-24.49348,-3.007952,168.939933,0.045959,-0.421112,0.908112,-0.235418,-0.008114,0.042308,82.885681,32.122513,-146.659134,,,
729706216.402136,-24.56027,-3.008211,168.94994,0.045959,-0.421112,0.908112,-0.235418,-0.008114,0.042308,82.885681,32.122513,-146.659134,,,
729706216.405491,-24.628921,-3.010787,168.959963,0.047058,-0.416382,0.905334,-0.23701,-0.025136,0.042109,82.885681,32.122513,-146.659134,,,
729706216.408798,-24.628921,-3.010787,168.959963,0.047058,-0.416382,0.905334,-0.23701,-0.025136,0.042109,82.885681,32.122513,-146.659134,,,
729706216.412216,-24.696199,-3.016422,168.969396,0.047058,-0.416382,0.905334,-0.23701,-0.025136,0.042109,82.885681,32.122513,-146.659134,,,
729706216.415447,-24.768616,-3.022611,168.978605,0.04985,-0.412186,0.902222,-0.255675,-0.032854,0.039597,82.885681,32.122513,-146.659134,,,
729706216.418808,-24.768616,-3.022611,168.978605,0.04985,-0.412186,0.902222,-0.255675,-0.032854,0.039597,82.885681,32.122513,-146.659134,,,
729706216.422148,-24.840497,-3.031222,168.986207,0.04985,-0.412186,0.902222,-0.255675,-0.032854,0.039597,82.885681,32.122513,-146.659134,,,
729706216.425549,-24.916996,-3.039446,168.993898,0.046661,-0.417068,0.902222,-0.267087,-0.037205,0.037676,82.885681,32.122513,-146.659134,,,
729706216.428789,-24.916996,-3.039446,168.993898,0.046661,-0.417068,0.902222,-0.267087,-0.037205,0.037676,83.071411,32.836288,-146.165176,,,
729706216.432157,-24.991339,-3.049504,169.000714,0.046661,-0.417068,0.902222,-0.267087,-0.037205,0.037676,83.071411,32.836288,-146.165176,,,
729706216.435448,-25.070827,-3.056601,169.008174,0.044861,-0.423035,0.9086,-0.280012,-0.029548,0.037347,83.071411,32.836288,-146.165176,,,
729706216.438866,-25.070827,-3.056601,169.008174,0.044861,-0.423035,0.9086,-0.280012,-0.029548,0.037347,83.071411,32.836288,-146.165176,,,
729706216.442125,-25.150081,-3.063301,169.015221,0.044861,-0.423035,0.9086,-0.280012,-0.029548,0.037347,83.071411,32.836288,-146.165176,,,
729706216.445463,-25.236801,-3.066197,169.023471,0.045609,-0.429413,0.901138,-0.307253,-0.017572,0.041303,83.071411,32.836288,-146.165176,,,
729706216.448802,-25.236801,-3.066197,169.023471,0.045609,-0.429413,0.901138,-0.307253,-0.017572,0.041303,83.071411,32.836288,-146.165176,,,
729706216.452184,-25.323163,-3.069799,169.032184,0.045609,-0.429413,0.901138,-0.307253,-0.017572,0.041303,83.071411,32.836288,-146.165176,,,
729706216.455451,-25.416451,-3.070086,169.043089,0.041367,-0.432999,0.895264,-0.326837,-0.009372,0.052221,83.071411,32.836288,-146.165176,,,
729706216.458802,-25.416451,-3.070086,169.043089,0.041367,-0.432999,0.895264,-0.326837,-0.009372,0.052221,83.071411,32.836288,-146.165176,,,
729706216.462131,-25.509109,-3.069283,169.055309,0.041367,-0.432999,0.895264,-0.326837,-0.009372,0.052221,83.071411,32.836288,-146.165176,,,
729706216.465458,-25.605528,-3.065459,169.070812,0.040482,-0.436005,0.894424,-0.332066,-0.005722,0.069481,83.071411,32.836288,-146.165176,,,
729706216.468796,-25.605528,-3.065459,169.070812,0.040482,-0.436005,0.894424,-0.332066,-0.005722,0.069481,83.071411,32.836288,-146.165176,,,
729706216.472123,-25.699019,-3.060822,169.088825,0.040482,-0.436005,0.894424,-0.332066,-0.005722,0.069481,82.84639,33.568619,-146.132156,,,
729706216.47546,-25.699019,-3.055188,169.109554,0.039795,-0.440948,0.898026,-0.320251,-0.008321,0.085203,82.84639,33.568619,-146.132156,,,
729706216.478872,-25.793293,-3.055188,169.109554,0.039795,-0.440948,0.898026,-0.320251,-0.008321,0.085203,82.84639,33.568619,-146.132156,,,
729706216.482134,-25.884578,-3.048378,169.132425,0.039795,-0.440948,0.898026,-0.320251,-0.008321,0.085203,82.84639,33.568619,-146.132156,,,
729706216.485512,-25.884578,-3.0408,169.156501,0.044449,-0.441803,0.900467,-0.29534,-0.006982,0.091168,82.84639,33.568619,-146.132156,,,
729706216.488805,-25.972334,-3.0408,169.156501,0.044449,-0.441803,0.900467,-0.29534,-0.006982,0.091168,82.84639,33.568619,-146.132156,,,
729706216.492126,-26.05654,-3.033039,169.18112,0.044449,-0.441803,0.900467,-0.29534,-0.006982,0.091168,82.84639,33.568619,-146.132156,,,
729706216.495477,-26.05654,-3.025769,169.205962,0.044449,-0.441803,0.900467,-0.256044,-0.011426,0.090279,82.84639,33.568619,-146.132156,,,
729706216.4988,-26.135099,-3.025769,169.205962,0.048065,-0.440796,0.902313,-0.256044,-0.011426,0.090279,82.84639,33.568619,-146.132156,,,
729706216.502201,-26.208058,-3.018302,169.230574,0.048065,-0.440796,0.902313,-0.256044,-0.011426,0.090279,82.84639,33.568619,-146.132156,,,
729706216.505444,-26.208058,-3.018302,169.230574,0.048065,-0.440796,0.902313,-0.256044,-0.011426,0.090279,82.84639,33.568619,-146.132156,,,
729706216.508786,-26.276699,-3.010275,169.2538,0.053024,-0.440231,0.90889,-0.226538,-0.003557,0.079803,82.84639,33.568619,-146.132156,,,
729706216.512124,-26.341936,-3.001934,169.275015,0.053024,-0.440231,0.90889,-0.226538,-0.003557,0.079803,82.902634,34.003555,-146.312378,,,
729706216.515504,-26.341936,-3.001934,169.275015,0.053024,-0.440231,0.90889,-0.213931,0.003966,0.065403,82.902634,34.003555,-146.312378,,,
729706216.518784,-26.405256,-2.993436,169.29407,0.05603,-0.439957,0.903717,-0.213931,0.003966,0.065403,82.902634,34.003555,-146.312378,,,
729706216.522118,-26.466205,-2.984851,169.310846,0.05603,-0.439957,0.903717,-0.213931,0.003966,0.065403,82.902634,34.003555,-146.312378,,,
729706216.525572,-26.466205,-2.975157,169.325641,0.05603,-0.439957,0.903717,-0.195069,0.017585,0.051906,82.902634,34.003555,-146.312378,,,
729706216.528783,-26.524339,-2.975157,169.325641,0.054688,-0.441238,0.899307,-0.195069,0.017585,0.051906,82.902634,34.003555,-146.312378,,,
729706216.53213,-26.580564,-2.964217,169.338557,0.054688,-0.441238,0.899307,-0.195069,0.017585,0.051906,82.902634,34.003555,-146.312378,,,
729706216.535543,-26.580564,-2.964217,169.338557,0.054688,-0.441238,0.899307,-0.195069,0.017585,0.051906,82.902634,34.003555,-146.312378,,,
729706216.538844,-26.636175,-2.951968,169.350827,0.050491,-0.442642,0.89679,-0.191039,0.028502,0.047493,82.902634,34.003555,-146.312378,,,
729706216.542119,-26.691442,-2.939803,169.36314,0.050491,-0.442642,0.89679,-0.191039,0.028502,0.047493,82.902634,34.003555,-146.312378,,,
729706216.545526,-26.691442,-2.939803,169.36314,0.050491,-0.442642,0.89679,-0.191039,0.028502,0.047493,82.902634,34.003555,-146.312378,,,
729706216.548806,-26.747217,-2.928491,169.374541,0.04921,-0.44165,0.887085,-0.195103,0.025228,0.041866,82.902634,34.003555,-146.312378,,,
729706216.552116,-26.805471,-2.917918,169.385047,0.04921,-0.44165,0.887085,-0.195103,0.025228,0.041866,82.86676,34.298889,-146.099136,,,
729706216.555463,-26.805471,-2.917918,169.385047,0.04921,-0.44165,0.887085,-0.195103,0.025228,0.041866,82.86676,34.298889,-146.099136,,,
729706216.558799,-26.866575,-2.908374,169.395145,0.048477,-0.447083,0.876846,-0.215271,0.019164,0.040176,82.86676,34.298889,-146.099136,,,
729706216.562124,-26.928906,-2.900168,169.405582,0.048477,-0.447083,0.876846,-0.215271,0.019164,0.040176,82.86676,34.298889,-146.099136,,,
729706216.565513,-26.928906,-2.900168,169.405582,0.048477,-0.447083,0.876846,-0.215271,0.019164,0.040176,82.86676,34.298889,-146.099136,,,
729706216.568796,-26.99085,-2.894295,169.416721,0.041779,-0.45401,0.877274,-0.212499,0.000511,0.044271,82.86676,34.298889,-146.099136,,,
729706216.572125,-27.052323,-2.890618,169.428296,0.041779,-0.45401,0.877274,-0.212499,0.000511,0.044271,82.86676,34.298889,-146.099136,,,
729706216.575483,-27.052323,-2.890618,169.428296,0.041779,-0.45401,0.877274,-0.212499,0.000511,0.044271,82.86676,34.298889,-146.099136,,,
729706216.578841,-27.113281,-2.888508,169.440328,0.0383,-0.454391,0.88121,-0.208979,-0.01206,0.046821,82.86676,34.298889,-146.099136,,,
729706216.582118,-27.174539,-2.888746,169.452437,0.0383,-0.454391,0.88121,-0.208979,-0.01206,0.046821,82.86676,34.298889,-146.099136,,,
729706216.585471,-27.174539,-2.888746,169.452437,0.0383,-0.454391,0.88121,-0.208979,-0.01206,0.046821,82.86676,34.298889,-146.099136,,,
729706216.588807,-27.235522,-2.891717,169.464085,0.04245,-0.451004,0.877701,-0.207392,-0.029846,0.043823,82.86676,34.298889,-146.099136,,,
729706216.592151,-27.292108,-2.899114,169.474259,0.04245,-0.451004,0.877701,-0.207392,-0.029846,0.043823,82.86676,34.298889,-146.099136,,,
729706216.595449,-27.292108,-2.899114,169.474259,0.04245,-0.451004,0.877701,-0.207392,-0.029846,0.043823,82.637802,34.923996,-146.210297,,,
729706216.598806,-27.352402,-2.907037,169.484413,0.043976,-0.450424,0.874832,-0.208646,-0.042908,0.038934,82.637802,34.923996,-146.210297,,,
729706216.602115,-27.409202,-2.918692,169.492782,0.043976,-0.450424,0.874832,-0.208646,-0.042908,0.038934,82.637802,34.923996,-146.210297,,,
729706216.6056,-27.409202,-2.918692,169.492782,0.043976,-0.450424,0.874832,-0.208646,-0.042908,0.038934,82.637802,34.923996,-146.210297,,,
729706216.608786,-27.468674,-2.930329,169.501363,0.045303,-0.450623,0.874863,-0.202273,-0.053903,0.034621,82.637802,34.923996,-146.210297,,,
729706216.612162,-27.52332,-2.944578,169.508565,0.045303,-0.450623,0.874863,-0.202273,-0.053903,0.034621,82.637802,34.923996,-146.210297,,,
729706216.615461,-27.52332,-2.944578,169.508565,0.045303,-0.450623,0.874863,-0.202273,-0.053903,0.034621,82.637802,34.923996,-146.210297,,,
729706216.618861,-27.581534,-2.958148,169.515744,0.046509,-0.454636,0.87886,-0.200443,-0.056648,0.030544,82.637802,34.923996,-146.210297,,,
729706216.622113,-27.63529,-2.97271,169.521793,0.046509,-0.454636,0.87886,-0.200443,-0.056648,0.030544,82.637802,34.923996,-146.210297,,,
729706216.625469,-27.63529,-2.97271,169.521793,0.046509,-0.454636,0.87886,-0.200443,-0.056648,0.030544,82.637802,34.923996,-146.210297,,,
729706216.628788,-27.693295,-2.986459,169.52731,0.052399,-0.457916,0.880966,-0.201828,-0.053365,0.025265,82.637802,34.923996,-146.210297,,,
729706216.63212,-27.748719,-3.000602,169.531783,0.052399,-0.457916,0.880966,-0.201828,-0.053365,0.025265,82.637802,34.923996,-146.210297,,,
729706216.635452,-27.748719,-3.000602,169.531783,0.052399,-0.457916,0.880966,-0.201828,-0.053365,0.025265,82.842514,35.283798,-146.226624,,,
729706216.638792,-27.80807,-3.013769,169.53548,0.055023,-0.459473,0.878586,-0.207595,-0.04806,0.018724,82.842514,35.283798,-146.226624,,,
729706216.642124,-27.866763,-3.026917,169.538611,0.055023,-0.459473,0.878586,-0.207595,-0.04806,0.018724,82.842514,35.283798,-146.226624,,,
729706216.645569,-27.866763,-3.026917,169.538611,0.055023,-0.459473,0.878586,-0.207595,-0.04806,0.018724,82.842514,35.283798,-146.226624,,,
729706216.648789,-27.928513,-3.040227,169.541714,0.053925,-0.465561,0.874725,-0.216672,-0.049529,0.018938,82.842514,35.283798,-146.226624,,,
729706216.652125,-27.988681,-3.052782,169.545099,0.053925,-0.465561,0.874725,-0.216672,-0.049529,0.018938,82.842514,35.283798,-146.226624,,,
729706216.655498,-27.988681,-3.052782,169.545099,0.053925,-0.465561,0.874725,-0.216672,-0.049529,0.018938,82.842514,35.283798,-146.226624,,,
729706216.658857,-28.050119,-3.066976,169.547459,0.051895,-0.465744,0.877548,-0.21171,-0.048703,0.017233,82.842514,35.283798,-146.226624,,,
729706216.662113,-28.108733,-3.079464,169.550673,0.051895,-0.465744,0.877548,-0.21171,-0.048703,0.017233,82.842514,35.283798,-146.226624,,,
729706216.665632,-28.108733,-3.079464,169.550673,0.051895,-0.465744,0.877548,-0.21171,-0.048703,0.017233,82.842514,35.283798,-146.226624,,,
729706216.668792,-28.170606,-3.094309,169.552793,0.050934,-0.469223,0.87822,-0.216398,-0.053708,0.015002,82.842514,35.283798,-146.226624,,,
729706216.67213,-28.23013,-3.110076,169.554424,0.050934,-0.469223,0.87822,-0.216398,-0.053708,0.015002,82.842514,35.283798,-146.226624,,,
729706216.675465,-28.23013,-3.110076,169.554424,0.050934,-0.469223,0.87822,-0.216398,-0.053708,0.015002,82.577621,35.725525,-145.795883,,,
729706216.678809,-28.292814,-3.128088,169.555329,0.053909,-0.465744,0.871582,-0.217475,-0.063338,0.012693,82.577621,35.725525,-145.795883,,,
729706216.682125,-28.353188,-3.146471,169.555922,0.053909,-0.465744,0.871582,-0.217475,-0.063338,0.012693,82.577621,35.725525,-145.795883,,,
729706216.685537,-28.353188,-3.146471,169.555922,0.053909,-0.465744,0.871582,-0.217475,-0.063338,0.012693,82.577621,35.725525,-145.795883,,,
729706216.688792,-28.417972,-3.165651,169.555604,0.052597,-0.466721,0.873367,-0.226056,-0.063234,0.009193,82.577621,35.725525,-145.795883,,,
729706216.692127,-28.479694,-3.184797,169.555128,0.052597,-0.466721,0.873367,-0.226056,-0.063234,0.009193,82.577621,35.725525,-145.795883,,,
729706216.695456,-28.479694,-3.184797,169.555128,0.052597,-0.466721,0.873367,-0.226056,-0.063234,0.009193,82.577621,35.725525,-145.795883,,,
729706216.698826,-28.545747,-3.204567,169.553896,0.051376,-0.471039,0.874847,-0.230244,-0.061914,0.006682,82.577621,35.725525,-145.795883,,,
729706216.702121,-28.609625,-3.223423,169.552591,0.051376,-0.471039,0.874847,-0.230244,-0.061914,0.006682,82.577621,35.725525,-145.795883,,,
729706216.705459,-28.609625,-3.223423,169.552591,0.051376,-0.471039,0.874847,-0.230244,-0.061914,0.006682,82.577621,35.725525,-145.795883,,,
729706216.708787,-28.678666,-3.241124,169.551972,0.056808,-0.476318,0.873978,-0.242203,-0.056703,0.011421,82.577621,35.725525,-145.795883,,,
729706216.712121,-28.744967,-3.259267,169.551272,0.056808,-0.476318,0.873978,-0.242203,-0.056703,0.011421,82.577621,35.725525,-145.795883,,,
729706216.715447,-28.744967,-3.259267,169.551272,0.056808,-0.476318,0.873978,-0.242203,-0.056703,0.011421,82.388657,36.072739,-145.944046,,,
729706216.7188,-28.81672,-3.27587,169.55122,0.057663,-0.480362,0.870941,-0.253396,-0.053049,0.01347,82.388657,36.072739,-145.944046,,,
729706216.722125,-28.887319,-3.291733,169.552068,0.057663,-0.480362,0.870941,-0.253396,-0.053049,0.01347,82.388657,36.072739,-145.944046,,,
729706216.725519,-28.887319,-3.291733,169.552068,0.057663,-0.480362,0.870941,-0.253396,-0.053049,0.01347,82.388657,36.072739,-145.944046,,,
729706216.728786,-28.962656,-3.304507,169.555436,0.053635,-0.484253,0.871307,-0.26385,-0.045627,0.026457,82.388657,36.072739,-145.944046,,,
729706216.732126,-29.036966,-3.31588,169.560227,0.053635,-0.484253,0.871307,-0.26385,-0.045627,0.026457,82.388657,36.072739,-145.944046,,,
729706216.73553,-29.036966,-3.31588,169.560227,0.053635,-0.484253,0.871307,-0.26385,-0.045627,0.026457,82.388657,36.072739,-145.944046,,,
729706216.738843,-29.116652,-3.324417,169.566179,0.055054,-0.485626,0.868729,-0.279835,-0.033119,0.032728,82.388657,36.072739,-145.944046,,,
729706216.742121,-29.19581,-3.331561,169.572226,0.055054,-0.485626,0.868729,-0.279835,-0.033119,0.032728,82.388657,36.072739,-145.944046,,,
729706216.745475,-29.19581,-3.331561,169.572226,0.055054,-0.485626,0.868729,-0.279835,-0.033119,0.032728,82.388657,36.072739,-145.944046,,,
729706216.748808,-29.282474,-3.337869,169.578841,0.057724,-0.487091,0.860809,-0.307782,-0.028872,0.038087,82.388657,36.072739,-145.944046,,,
729706216.752122,-29.370135,-3.343844,169.585568,0.057724,-0.487091,0.860809,-0.307782,-0.028872,0.038087,82.388657,36.072739,-145.944046,,,
729706216.755469,-29.370135,-3.343844,169.585568,0.057724,-0.487091,0.860809,-0.307782,-0.028872,0.038087,82.388657,36.072739,-145.944046,,,
729706216.758812,-29.465708,-3.348508,169.592685,0.056793,-0.491272,0.853119,-0.336847,-0.023168,0.041007,82.271439,36.873627,-145.327957,,,
729706216.762132,-29.559688,-3.35204,169.601158,0.056793,-0.491272,0.853119,-0.336847,-0.023168,0.041007,82.271439,36.873627,-145.327957,,,
729706216.765508,-29.559688,-3.35204,169.601158,0.056793,-0.491272,0.853119,-0.336847,-0.023168,0.041007,82.271439,36.873627,-145.327957,,,
729706216.768788,-29.659867,-3.353159,169.612983,0.049011,-0.499542,0.859344,-0.348376,-0.02047,0.060594,82.271439,36.873627,-145.327957,,,
729706216.772127,-29.756616,-3.35322,169.62675,0.049011,-0.499542,0.859344,-0.348376,-0.02047,0.060594,82.271439,36.873627,-145.327957,,,
729706216.775469,-29.756616,-3.35322,169.62675,0.049011,-0.499542,0.859344,-0.348376,-0.02047,0.060594,82.271439,36.873627,-145.327957,,,
729706216.778838,-29.857267,-3.353198,169.640812,0.052734,-0.502518,0.8638,-0.346447,-0.021552,0.061898,82.271439,36.873627,-145.327957,,,
729706216.782121,-29.958198,-3.35331,169.654886,0.052734,-0.502518,0.8638,-0.346447,-0.021552,0.061898,82.271439,36.873627,-145.327957,,,
729706216.785466,-29.958198,-3.35331,169.654886,0.052734,-0.502518,0.8638,-0.346447,-0.021552,0.061898,82.271439,36.873627,-145.327957,,,
729706216.788808,-30.05969,-3.353276,169.669469,0.060516,-0.497894,0.858246,-0.350317,-0.022585,0.065026,82.271439,36.873627,-145.327957,,,
729706216.792127,-30.161248,-3.352492,169.685194,0.060516,-0.497894,0.858246,-0.350317,-0.022585,0.065026,82.271439,36.873627,-145.327957,,,
729706216.795453,-30.161248,-3.352492,169.685194,0.060516,-0.497894,0.858246,-0.350317,-0.022585,0.065026,82.271439,36.873627,-145.327957,,,
729706216.798801,-30.26244,-3.350353,169.702671,0.050339,-0.504654,0.859329,-0.347257,-0.019568,0.075194,82.313889,37.273911,-145.904099,,,
729706216.802127,-30.363444,-3.347429,169.72186,0.050339,-0.504654,0.859329,-0.347257,-0.019568,0.075194,82.313889,37.273911,-145.904099,,,
729706216.805517,-30.363444,-3.347429,169.72186,0.050339,-0.504654,0.859329,-0.347257,-0.019568,0.075194,82.313889,37.273911,-145.904099,,,
729706216.808802,-30.464405,-3.34361,169.742552,0.045883,-0.509598,0.862015,-0.346528,-0.018939,0.083952,82.313889,37.273911,-145.904099,,,
729706216.812125,-30.565796,-3.338776,169.764612,0.045883,-0.509598,0.862015,-0.346528,-0.018939,0.083952,82.313889,37.273911,-145.904099,,,
729706216.815466,-30.565796,-3.338776,169.764612,0.045883,-0.509598,0.862015,-0.346528,-0.018939,0.083952,82.313889,37.273911,-145.904099,,,
729706216.81885,-30.668162,-3.332795,169.787264,0.048828,-0.511902,0.859375,-0.353223,-0.013407,0.087606,82.313889,37.273911,-145.904099,,,
729706216.822117,-30.770832,-3.324594,169.810636,0.048828,-0.511902,0.859375,-0.353223,-0.013407,0.087606,82.313889,37.273911,-145.904099,,,
729706216.825468,-30.770832,-3.324594,169.810636,0.048828,-0.511902,0.859375,-0.353223,-0.013407,0.087606,82.313889,37.273911,-145.904099,,,
729706216.828795,-30.873588,-3.313811,169.834982,0.045654,-0.51416,0.86232,-0.353616,0.000727,0.093116,82.313889,37.273911,-145.904099,,,
729706216.832134,-30.977267,-3.300754,169.860764,0.045654,-0.51416,0.86232,-0.353616,0.000727,0.093116,82.313889,37.273911,-145.904099,,,
729706216.835463,-30.977267,-3.300754,169.860764,0.045654,-0.51416,0.86232,-0.353616,0.000727,0.093116,82.313889,37.273911,-145.904099,,,
729706216.838816,-31.08231,-3.28572,169.888451,0.040756,-0.519302,0.857452,-0.362617,0.007247,0.104596,82.52533,37.919357,-145.269119,,,
729706216.842123,-31.188982,-3.269757,169.917338,0.040756,-0.519302,0.857452,-0.362617,0.007247,0.104596,82.52533,37.919357,-145.269119,,,
729706216.845539,-31.188982,-3.269757,169.917338,0.040756,-0.519302,0.857452,-0.362617,0.007247,0.104596,82.52533,37.919357,-145.269119,,,
729706216.848805,-31.29682,-3.252955,169.947656,0.044388,-0.522476,0.845535,-0.370421,0.007461,0.113081,82.52533,37.919357,-145.269119,,,
729706216.85212,-31.405578,-3.235532,169.979925,0.044388,-0.522476,0.845535,-0.370421,0.007461,0.113081,82.52533,37.919357,-145.269119,,,
729706216.855457,-31.405578,-3.235532,169.979925,0.044388,-0.522476,0.845535,-0.370421,0.007461,0.113081,82.52533,37.919357,-145.269119,,,
729706216.858826,-31.515482,-3.217844,170.013883,0.041534,-0.525726,0.843307,-0.378027,0.002663,0.122999,82.52533,37.919357,-145.269119,,,
729706216.862121,-31.625566,-3.200183,170.048881,0.041534,-0.525726,0.843307,-0.378027,0.002663,0.122999,82.52533,37.919357,-145.269119,,,
729706216.865463,-31.625566,-3.200183,170.048881,0.041534,-0.525726,0.843307,-0.378027,0.002663,0.122999,82.52533,37.919357,-145.269119,,,
729706216.868806,-31.734412,-3.182969,170.085144,0.040527,-0.528122,0.844879,-0.36919,-0.005615,0.129458,82.52533,37.919357,-145.269119,,,
729706216.872122,-31.841311,-3.166192,170.122527,0.040527,-0.528122,0.844879,-0.36919,-0.005615,0.129458,82.52533,37.919357,-145.269119,,,
729706216.875453,-31.841311,-3.166192,170.122527,0.040527,-0.528122,0.844879,-0.36919,-0.005615,0.129458,82.52533,37.919357,-145.269119,,,
729706216.878861,-31.944853,-3.149804,170.160634,0.041733,-0.530807,0.84964,-0.34575,-0.011512,0.131892,82.550537,38.700165,-145.225891,,,
729706216.882116,-32.044228,-3.133672,170.199143,0.041733,-0.530807,0.84964,-0.34575,-0.011512,0.131892,82.550537,38.700165,-145.225891,,,
729706216.885526,-32.044228,-3.133672,170.199143,0.041733,-0.530807,0.84964,-0.34575,-0.011512,0.131892,82.550537,38.700165,-145.225891,,,
729706216.88878,-32.139651,-3.117002,170.237131,0.043777,-0.533539,0.857742,-0.318632,-0.006345,0.126785,82.550537,38.700165,-145.225891,,,
729706216.892145,-32.232322,-3.099399,170.274546,0.043777,-0.533539,0.857742,-0.318632,-0.006345,0.126785,82.550537,38.700165,-145.225891,,,
729706216.89551,-32.232322,-3.099399,170.274546,0.043777,-0.533539,0.857742,-0.318632,-0.006345,0.126785,82.550537,38.700165,-145.225891,,,
729706216.898838,-32.32281,-3.082214,170.31066,0.049332,-0.531677,0.850464,-0.304134,-0.004906,0.117826,82.550537,38.700165,-145.225891,,,
729706216.902372,-32.410238,-3.065902,170.344717,0.049332,-0.531677,0.850464,-0.304134,-0.004906,0.117826,82.550537,38.700165,-145.225891,,,
729706216.905542,-32.410238,-3.065902,170.344717,0.049332,-0.531677,0.850464,-0.304134,-0.004906,0.117826,82.550537,38.700165,-145.225891,,,
729706216.908812,-32.493472,-3.051087,170.376827,0.05188,-0.529694,0.844727,-0.275808,-0.008489,0.104394,82.550537,38.700165,-145.225891,,,
729706216.912128,-32.57161,-3.038869,170.407065,0.05188,-0.529694,0.844727,-0.275808,-0.008489,0.104394,82.550537,38.700165,-145.225891,,,
729706216.915478,-32.57161,-3.038869,170.407065,0.05188,-0.529694,0.844727,-0.275808,-0.008489,0.104394,82.550537,38.700165,-145.225891,,,
729706216.918811,-32.644515,-3.02934,170.434972,0.048706,-0.529556,0.845551,-0.240338,-0.018841,0.08849,82.550537,38.700165,-145.225891,,,
729706216.92212,-32.711783,-3.023454,170.459055,0.048706,-0.529556,0.845551,-0.240338,-0.018841,0.08849,82.493347,39.24054,-144.938232,,,
729706216.925548,-32.711783,-3.023454,170.459055,0.048706,-0.529556,0.845551,-0.240338,-0.018841,0.08849,82.493347,39.24054,-144.938232,,,
729706216.928807,-32.773878,-3.020617,170.478862,0.053482,-0.530869,0.847214,-0.205835,-0.024248,0.061357,82.493347,39.24054,-144.938232,,,
729706216.932128,-32.831162,-3.020197,170.493733,0.053482,-0.530869,0.847214,-0.205835,-0.024248,0.061357,82.493347,39.24054,-144.938232,,,
729706216.935469,-32.831162,-3.020197,170.493733,0.053482,-0.530869,0.847214,-0.205835,-0.024248,0.061357,82.493347,39.24054,-144.938232,,,
729706216.938862,-32.883806,-3.023036,170.503044,0.055588,-0.532379,0.84111,-0.175409,-0.026132,0.027063,82.493347,39.24054,-144.938232,,,
729706216.942118,-32.931583,-3.029986,170.507375,0.055588,-0.532379,0.84111,-0.175409,-0.026132,0.027063,82.493347,39.24054,-144.938232,,,
729706216.945473,-32.931583,-3.029986,170.507375,0.055588,-0.532379,0.84111,-0.175409,-0.026132,0.027063,82.493347,39.24054,-144.938232,,,
729706216.948805,-32.972633,-3.041665,170.5078,0.056458,-0.537659,0.839249,-0.130002,-0.044411,0.001761,82.493347,39.24054,-144.938232,,,
729706216.95212,-33.007337,-3.058319,170.505047,0.056458,-0.537659,0.839249,-0.130002,-0.044411,0.001761,82.493347,39.24054,-144.938232,,,
729706216.955464,-33.007337,-3.058319,170.505047,0.056458,-0.537659,0.839249,-0.130002,-0.044411,0.001761,82.493347,39.24054,-144.938232,,,
729706216.958808,-33.037418,-3.078248,170.49986,0.052414,-0.542969,0.843048,-0.098901,-0.058129,-0.014137,82.493347,39.24054,-144.938232,,,
729706216.962122,-33.064165,-3.10066,170.49219,0.052414,-0.542969,0.843048,-0.098901,-0.058129,-0.014137,82.680069,39.225937,-144.816147,,,
729706216.965531,-33.064165,-3.10066,170.49219,0.052414,-0.542969,0.843048,-0.098901,-0.058129,-0.014137,82.680069,39.225937,-144.816147,,,
729706216.9688,-33.088465,-3.125493,170.482125,0.053101,-0.545609,0.840652,-0.082875,-0.065998,-0.029025,82.680069,39.225937,-144.816147,,,
729706216.972126,-33.111885,-3.151481,170.470487,0.053101,-0.545609,0.840652,-0.082875,-0.065998,-0.029025,82.680069,39.225937,-144.816147,,,
729706216.975469,-33.111885,-3.151481,170.470487,0.053101,-0.545609,0.840652,-0.082875,-0.065998,-0.029025,82.680069,39.225937,-144.816147,,,
729706216.978849,-33.135697,-3.178037,170.457919,0.054077,-0.546082,0.833679,-0.086194,-0.066541,-0.034267,82.680069,39.225937,-144.816147,,,
729706216.982121,-33.161373,-3.205388,170.444857,0.054077,-0.546082,0.833679,-0.086194,-0.066541,-0.034267,82.680069,39.225937,-144.816147,,,
729706216.985527,-33.161373,-3.205388,170.444857,0.054077,-0.546082,0.833679,-0.086194,-0.066541,-0.034267,82.680069,39.225937,-144.816147,,,
729706216.988796,-33.190375,-3.232466,170.431809,0.050247,-0.547623,0.82814,-0.109577,-0.0648,-0.032873,82.680069,39.225937,-144.816147,,,
729706216.992121,-33.223421,-3.258346,170.4197,0.050247,-0.547623,0.82814,-0.109577,-0.0648,-0.032873,82.680069,39.225937,-144.816147,,,
729706216.995468,-33.223421,-3.258346,170.4197,0.050247,-0.547623,0.82814,-0.109577,-0.0648,-0.032873,82.680069,39.225937,-144.816147,,,
729706216.998801,-33.260478,-3.282973,170.409234,0.046539,-0.550659,0.821655,-0.1372,-0.06245,-0.021687,82.680069,39.225937,-144.816147,,,
729706217.002126,-33.298386,-3.307274,170.399744,0.046539,-0.550659,0.821655,-0.1372,-0.06245,-0.021687,82.45697,39.661179,-144.518021,,,
729706217.005533,-33.298386,-3.307274,170.399744,0.046539,-0.550659,0.821655,-0.1372,-0.06245,-0.021687,82.45697,39.661179,-144.518021,,,
729706217.008797,-33.344873,-3.330852,170.391165,0.050034,-0.553131,0.819473,-0.170863,-0.062871,-0.015609,82.45697,39.661179,-144.518021,,,
729706217.012126,-33.391728,-3.355458,170.38215,0.050034,-0.553131,0.819473,-0.170863,-0.062871,-0.015609,82.45697,39.661179,-144.518021,,,
729706217.015469,-33.391728,-3.355458,170.38215,0.050034,-0.553131,0.819473,-0.170863,-0.062871,-0.015609,82.45697,39.661179,-144.518021,,,
729706217.018856,-33.446885,-3.377375,170.374312,0.053406,-0.554596,0.819946,-0.201976,-0.055261,-0.01112,82.45697,39.661179,-144.518021,,,
729706217.02212,-33.503234,-3.399932,170.365263,0.053406,-0.554596,0.819946,-0.201976,-0.055261,-0.01112,82.45697,39.661179,-144.518021,,,
729706217.025467,-33.503234,-3.399932,170.365263,0.053406,-0.554596,0.819946,-0.201976,-0.055261,-0.01112,82.45697,39.661179,-144.518021,,,
729706217.028815,-33.565939,-3.419989,170.356278,0.053131,-0.554596,0.824768,-0.224203,-0.046381,-0.014777,82.45697,39.661179,-144.518021,,,
729706217.032125,-33.628731,-3.439857,170.345678,0.053131,-0.554596,0.824768,-0.224203,-0.046381,-0.014777,82.45697,39.661179,-144.518021,,,
729706217.035478,-33.628731,-3.439857,170.345678,0.053131,-0.554596,0.824768,-0.224203,-0.046381,-0.014777,82.45697,39.661179,-144.518021,,,
729706217.038813,-33.69723,-3.459047,170.333586,0.053757,-0.553391,0.826447,-0.245244,-0.040828,-0.025321,82.45697,39.661179,-144.518021,,,
729706217.042032,-33.765638,-3.479213,170.319668,0.053757,-0.553391,0.826447,-0.245244,-0.040828,-0.025321,82.45697,39.661179,-144.518021,,,
729706217.045551,-33.765638,-3.479213,170.319668,0.053757,-0.553391,0.826447,-0.245244,-0.040828,-0.025321,82.339966,39.880753,-144.836349,,,
729706217.048778,-33.839254,-3.499618,170.305162,0.051575,-0.556564,0.82402,-0.261938,-0.040556,-0.027782,82.339966,39.880753,-144.836349,,,
729706217.052123,-33.911891,-3.522382,170.289732,0.051575,-0.556564,0.82402,-0.261938,-0.040556,-0.027782,82.339966,39.880753,-144.836349,,,
729706217.055471,-33.911891,-3.522382,170.289732,0.051575,-0.556564,0.82402,-0.261938,-0.040556,-0.027782,82.339966,39.880753,-144.836349,,,
729706217.058873,-33.987585,-3.546833,170.274259,0.042496,-0.562088,0.819626,-0.266667,-0.054828,-0.029309,82.339966,39.880753,-144.836349,,,
729706217.062116,-34.060496,-3.573058,170.259655,0.042496,-0.562088,0.819626,-0.266667,-0.054828,-0.029309,82.339966,39.880753,-144.836349,,,
729706217.065486,-34.060496,-3.573058,170.259655,0.042496,-0.562088,0.819626,-0.266667,-0.054828,-0.029309,82.339966,39.880753,-144.836349,,,
729706217.0688,-34.13388,-3.600134,170.246937,0.03833,-0.563599,0.823669,-0.253776,-0.069629,-0.019963,82.339966,39.880753,-144.836349,,,
729706217.072137,-34.203145,-3.627263,170.2367,0.03833,-0.563599,0.823669,-0.253776,-0.069629,-0.019963,82.339966,39.880753,-144.836349,,,
729706217.075475,-34.203145,-3.627263,170.2367,0.03833,-0.563599,0.823669,-0.253776,-0.069629,-0.019963,82.339966,39.880753,-144.836349,,,
729706217.078813,-34.271762,-3.656518,170.227383,0.04068,-0.564484,0.82811,-0.238172,-0.082562,-0.011676,82.339966,39.880753,-144.836349,,,
729706217.082123,-34.337956,-3.68444,170.220127,0.04068,-0.564484,0.82811,-0.238172,-0.082562,-0.011676,82.339966,39.880753,-144.836349,,,
729706217.085518,-34.337956,-3.68444,170.220127,0.04068,-0.564484,0.82811,-0.238172,-0.082562,-0.011676,82.201736,40.318985,-144.882614,,,
729706217.088803,-34.403942,-3.711869,170.213892,0.045654,-0.564545,0.822952,-0.227703,-0.078212,-0.00289,82.201736,40.318985,-144.882614,,,
729706217.092116,-34.468248,-3.737187,170.208342,0.045654,-0.564545,0.822952,-0.227703,-0.078212,-0.00289,82.201736,40.318985,-144.882614,,,
729706217.095533,-34.468248,-3.737187,170.208342,0.045654,-0.564545,0.822952,-0.227703,-0.078212,-0.00289,82.201736,40.318985,-144.882614,,,
729706217.098832,-34.534726,-3.760252,170.203786,0.043549,-0.560989,0.823074,-0.233595,-0.064769,0.004608,82.201736,40.318985,-144.882614,,,
729706217.102112,-34.600734,-3.780058,170.200463,0.043549,-0.560989,0.823074,-0.233595,-0.064769,0.004608,82.201736,40.318985,-144.882614,,,
729706217.105475,-34.600734,-3.780058,170.200463,0.043549,-0.560989,0.823074,-0.233595,-0.064769,0.004608,82.201736,40.318985,-144.882614,,,
729706217.108825,-34.670864,-3.79711,170.197484,0.048248,-0.564011,0.821075,-0.248306,-0.046382,0.008171,82.201736,40.318985,-144.882614,,,
729706217.112154,-34.741511,-3.810287,170.195913,0.048248,-0.564011,0.821075,-0.248306,-0.046382,0.008171,82.201736,40.318985,-144.882614,,,
729706217.115472,-34.741511,-3.810287,170.195913,0.048248,-0.564011,0.821075,-0.248306,-0.046382,0.008171,82.201736,40.318985,-144.882614,,,
729706217.118809,-34.819138,-3.819046,170.196088,0.047287,-0.569122,0.816086,-0.276276,-0.020947,0.021285,82.201736,40.318985,-144.882614,,,
729706217.122176,-34.898356,-3.821299,170.199335,0.047287,-0.569122,0.816086,-0.276276,-0.020947,0.021285,82.201736,40.318985,-144.882614,,,
729706217.125451,-34.898356,-3.821299,170.199335,0.047287,-0.569122,0.816086,-0.276276,-0.020947,0.021285,82.080841,40.960632,-144.499298,,,
