Time (sec),Pitch (deg),Roll (deg),Yaw(deg),X-Acceleration (g),Y-Acceleration (g),Z-Acceleration (g),Pitch Rate (deg/sec),Roll Rate (deg/sec),Yaw Rate (deg/sec),Magnetic Field in X direction (uT),Magnetic Field in Y direction (uT),Magnetic Field in Z Direction (uT),Latitude (deg),Longitude (deg),Altitude (m)
729707040.25009,-18.376733,2.053893,115.152981,-0.030243,-0.343521,0.926208,1.548029,-0.256388,0.063045,60.049957,43.783264,-141.387695,,,
729707040.250915,-18.376742,2.053857,-28.757211,-0.030243,-0.343521,0.926208,1.548029,-0.256388,0.063045,60.049957,43.783264,-141.387695,,,
729707040.253415,-17.951535,1.978553,115.149175,-0.030243,-0.343521,0.926208,1.457491,-0.255368,0.03158,60.049957,43.783264,-141.387695,,,
729707040.255278,-17.951544,1.978517,-28.761012,-0.030243,-0.343521,0.926208,1.457491,-0.255368,0.03158,60.049957,43.783264,-141.387695,,,
729707040.25679,-17.951535,1.978553,115.149175,-0.030243,-0.343521,0.926208,1.457491,-0.255368,0.03158,60.049957,43.783264,-141.387695,,,
729707040.259134,-17.539844,1.903414,-28.76637,-0.021866,-0.326416,0.921982,1.457491,-0.255368,0.03158,60.049957,43.783264,-141.387695,,,
729707040.260175,-17.539835,1.903449,115.143809,-0.021866,-0.326416,0.921982,1.457491,-0.255368,0.03158,60.049957,43.783264,-141.387695,,,
729707040.260921,-17.539844,1.903414,-28.76637,-0.021866,-0.326416,0.921982,1.457491,-0.255368,0.03158,60.049957,43.783264,-141.387695,,,
729707040.263422,-17.142133,1.82961,115.138458,-0.021866,-0.326416,0.921982,1.359905,-0.247448,0.024414,60.049957,43.783264,-141.387695,,,
729707040.265624,-17.142141,1.829575,-28.771726,-0.021866,-0.326416,0.921982,1.359905,-0.247448,0.024414,60.049957,43.783264,-141.387695,,,
729707040.266868,-17.142133,1.82961,115.138458,-0.021866,-0.326416,0.921982,1.359905,-0.247448,0.024414,60.049957,43.783264,-141.387695,,,
729707040.268892,-16.758596,1.757756,-28.775775,-0.018066,-0.322388,0.91423,1.359905,-0.247448,0.024414,60.049957,43.783264,-141.387695,,,
729707040.270097,-16.758587,1.757792,115.134408,-0.018066,-0.322388,0.91423,1.359905,-0.247448,0.024414,60.049957,43.783264,-141.387695,,,
729707040.270903,-16.758596,1.757756,-28.775775,-0.018066,-0.322388,0.91423,1.359905,-0.247448,0.024414,60.049957,43.783264,-141.387695,,,
729707040.273459,-16.386986,1.689706,115.133119,-0.018066,-0.322388,0.91423,1.276613,-0.227816,0.036856,60.049957,43.783264,-141.387695,,,
729707040.275665,-16.386995,1.689671,-28.777066,-0.018066,-0.322388,0.91423,1.276613,-0.227816,0.036856,60.049957,43.783264,-141.387695,,,
729707040.276866,-16.386986,1.689706,115.133119,-0.018066,-0.322388,0.91423,1.276613,-0.227816,0.036856,60.049957,43.783264,-141.387695,,,
729707040.278555,-16.02553,1.626143,-28.775089,-0.017609,-0.316376,0.928299,1.276613,-0.227816,0.036856,60.049957,43.783264,-141.387695,,,
729707040.280149,-16.025522,1.626178,115.135096,-0.017609,-0.316376,0.928299,1.276613,-0.227816,0.036856,60.049957,43.783264,-141.387695,,,
729707040.280935,-16.02553,1.626143,-28.775089,-0.017609,-0.316376,0.928299,1.276613,-0.227816,0.036856,60.049957,43.783264,-141.387695,,,
729707040.283405,-15.674057,1.566688,115.140583,-0.017609,-0.316376,0.928299,1.206292,-0.206878,0.055558,60.049957,43.783264,-141.387695,,,
729707040.285763,-15.674065,1.566653,-28.769609,-0.017609,-0.316376,0.928299,1.206292,-0.206878,0.055558,60.049957,43.783264,-141.387695,,,
729707040.286773,-15.674057,1.566688,115.140583,-0.017609,-0.316376,0.928299,1.206292,-0.206878,0.055558,60.049957,43.783264,-141.387695,,,
729707040.289789,-15.332962,1.509696,-28.761199,-0.01384,-0.298248,0.93837,1.206292,-0.206878,0.055558,59.601349,41.366226,-142.221741,,,
729707040.290098,-15.332954,1.509731,115.148991,-0.01384,-0.298248,0.93837,1.206292,-0.206878,0.055558,59.601349,41.366226,-142.221741,,,
729707040.290923,-15.332962,1.509696,-28.761199,-0.01384,-0.298248,0.93837,1.206292,-0.206878,0.055558,59.601349,41.366226,-142.221741,,,
729707040.293444,-15.003045,1.455884,115.159127,-0.01384,-0.298248,0.93837,1.128525,-0.188712,0.062796,59.601349,41.366226,-142.221741,,,
729707040.295616,-15.003053,1.455848,-28.75106,-0.01384,-0.298248,0.93837,1.128525,-0.188712,0.062796,59.601349,41.366226,-142.221741,,,
729707040.296794,-15.003045,1.455884,115.159127,-0.01384,-0.298248,0.93837,1.128525,-0.188712,0.062796,59.601349,41.366226,-142.221741,,,
729707040.298325,-15.003053,1.404856,-28.740353,-0.012939,-0.272522,0.940674,1.128525,-0.188712,0.062796,59.601349,41.366226,-142.221741,,,
729707040.30012,-14.684521,1.404892,115.169834,-0.012939,-0.272522,0.940674,1.128525,-0.188712,0.062796,59.601349,41.366226,-142.221741,,,
729707040.301239,-14.684529,1.404856,-28.740353,-0.012939,-0.272522,0.940674,1.128525,-0.188712,0.062796,59.601349,41.366226,-142.221741,,,
729707040.303435,-14.378223,1.356888,115.181357,-0.012939,-0.272522,0.940674,1.043292,-0.169532,0.064295,59.601349,41.366226,-142.221741,,,
729707040.305624,-14.378231,1.356852,-28.728825,-0.012939,-0.272522,0.940674,1.043292,-0.169532,0.064295,59.601349,41.366226,-142.221741,,,
729707040.306767,-14.378223,1.356888,115.181357,-0.012939,-0.272522,0.940674,1.043292,-0.169532,0.064295,59.601349,41.366226,-142.221741,,,
729707040.308779,-14.08632,1.312568,-28.716886,-0.012573,-0.250168,0.940186,1.043292,-0.169532,0.064295,59.601349,41.366226,-142.221741,,,
729707040.310125,-14.086312,1.312603,115.193295,-0.012573,-0.250168,0.940186,1.043292,-0.169532,0.064295,59.601349,41.366226,-142.221741,,,
729707040.310925,-14.08632,1.312568,-28.716886,-0.012573,-0.250168,0.940186,1.043292,-0.169532,0.064295,59.601349,41.366226,-142.221741,,,
729707040.313446,-13.80996,1.272771,115.205249,-0.012573,-0.250168,0.940186,0.935791,-0.138854,0.060436,59.601349,41.366226,-142.221741,,,
729707040.315546,-13.809968,1.272736,-28.70493,-0.012573,-0.250168,0.940186,0.935791,-0.138854,0.060436,59.601349,41.366226,-142.221741,,,
729707040.316796,-13.80996,1.272771,115.205249,-0.012573,-0.250168,0.940186,0.935791,-0.138854,0.060436,59.601349,41.366226,-142.221741,,,
729707040.318225,-13.809968,1.272736,-28.69265,-0.011566,-0.235825,0.936264,0.935791,-0.138854,0.060436,59.601349,41.366226,-142.221741,,,
729707040.320134,-13.548969,1.237186,115.217529,-0.011566,-0.235825,0.936264,0.935791,-0.138854,0.060436,59.601349,41.366226,-142.221741,,,
729707040.321679,-13.548977,1.237151,-28.69265,-0.011566,-0.235825,0.936264,0.935791,-0.138854,0.060436,59.601349,41.366226,-142.221741,,,
729707040.323445,-13.303252,1.205273,115.230805,-0.011566,-0.235825,0.936264,0.829726,-0.115152,0.063754,59.601349,41.366226,-142.221741,,,
729707040.32547,-13.30326,1.205238,-28.679379,-0.011566,-0.235825,0.936264,0.829726,-0.115152,0.063754,59.601349,41.366226,-142.221741,,,
729707040.326775,-13.303252,1.205273,115.230805,-0.011566,-0.235825,0.936264,0.829726,-0.115152,0.063754,59.601349,41.366226,-142.221741,,,
729707040.327653,-13.30326,1.205238,-28.679379,-0.011566,-0.235825,0.936264,0.829726,-0.115152,0.063754,59.601349,41.366226,-142.221741,,,
729707040.330179,-13.070859,1.177997,115.246069,-0.009918,-0.228683,0.93663,0.829726,-0.115152,0.063754,59.370331,39.626343,-143.382385,,,
729707040.332581,-13.070867,1.177961,-28.664116,-0.009918,-0.228683,0.93663,0.829726,-0.115152,0.063754,59.370331,39.626343,-143.382385,,,
729707040.333445,-12.848935,1.157775,115.264555,-0.009918,-0.228683,0.93663,0.757099,-0.071277,0.083437,59.370331,39.626343,-143.382385,,,
729707040.33565,-12.848943,1.15774,-28.645638,-0.009918,-0.228683,0.93663,0.757099,-0.071277,0.083437,59.370331,39.626343,-143.382385,,,
729707040.336772,-12.848935,1.157775,115.264555,-0.009918,-0.228683,0.93663,0.757099,-0.071277,0.083437,59.370331,39.626343,-143.382385,,,
729707040.337617,-12.848943,1.15774,-28.645638,-0.009918,-0.228683,0.93663,0.757099,-0.071277,0.083437,59.370331,39.626343,-143.382385,,,
729707040.340126,-12.63379,1.143719,115.287726,-0.01886,-0.234421,0.95546,0.757099,-0.071277,0.083437,59.370331,39.626343,-143.382385,,,
729707040.342266,-12.633798,1.143684,-28.622471,-0.01886,-0.234421,0.95546,0.757099,-0.071277,0.083437,59.370331,39.626343,-143.382385,,,
729707040.343519,-12.422773,1.133875,115.316687,-0.01886,-0.234421,0.95546,0.727946,-0.050718,0.122069,59.370331,39.626343,-143.382385,,,
729707040.3457,-12.422781,1.13384,-28.593489,-0.01886,-0.234421,0.95546,0.727946,-0.050718,0.122069,59.370331,39.626343,-143.382385,,,
729707040.346789,-12.422773,1.133875,115.316687,-0.01886,-0.234421,0.95546,0.727946,-0.050718,0.122069,59.370331,39.626343,-143.382385,,,
729707040.34761,-12.422781,1.13384,-28.593489,-0.01886,-0.234421,0.95546,0.727946,-0.050718,0.122069,59.370331,39.626343,-143.382385,,,
729707040.350108,-12.21358,1.125638,115.35203,-0.023453,-0.24353,0.966476,0.727946,-0.050718,0.122069,59.370331,39.626343,-143.382385,,,
729707040.351842,-12.213588,1.125603,-28.558151,-0.023453,-0.24353,0.966476,0.727946,-0.050718,0.122069,59.370331,39.626343,-143.382385,,,
729707040.353451,-12.0043,1.116707,115.392809,-0.023453,-0.24353,0.966476,0.728514,-0.063241,0.159016,59.370331,39.626343,-143.382385,,,
729707040.35546,-12.004308,1.116672,-28.51738,-0.023453,-0.24353,0.966476,0.728514,-0.063241,0.159016,59.370331,39.626343,-143.382385,,,
729707040.356772,-12.0043,1.116707,115.392809,-0.023453,-0.24353,0.966476,0.728514,-0.063241,0.159016,59.370331,39.626343,-143.382385,,,
729707040.357621,-12.004308,1.116672,-28.51738,-0.023453,-0.24353,0.966476,0.728514,-0.063241,0.159016,59.370331,39.626343,-143.382385,,,
729707040.360107,-11.791797,1.105699,115.437705,-0.016602,-0.24231,0.976013,0.728514,-0.063241,0.159016,59.370331,39.626343,-143.382385,,,
729707040.361945,-11.791805,1.105664,-28.472488,-0.016602,-0.24231,0.976013,0.728514,-0.063241,0.159016,59.370331,39.626343,-143.382385,,,
729707040.363448,-11.574529,1.093061,115.484687,-0.016602,-0.24231,0.976013,0.761865,-0.076993,0.173703,59.370331,39.626343,-143.382385,,,
729707040.365657,-11.574537,1.093026,-28.425511,-0.016602,-0.24231,0.976013,0.761865,-0.076993,0.173703,59.370331,39.626343,-143.382385,,,
729707040.366797,-11.574529,1.093061,115.484687,-0.016602,-0.24231,0.976013,0.761865,-0.076993,0.173703,59.370331,39.626343,-143.382385,,,
729707040.36762,-11.574537,1.093026,-28.425511,-0.016602,-0.24231,0.976013,0.761865,-0.076993,0.173703,59.370331,39.626343,-143.382385,,,
729707040.370106,-11.353531,1.077218,115.530289,-0.009094,-0.2285,0.996796,0.761865,-0.076993,0.173703,59.399567,38.212616,-143.997528,,,
729707040.373054,-11.353539,1.077183,-28.379901,-0.009094,-0.2285,0.996796,0.761865,-0.076993,0.173703,59.399567,38.212616,-143.997528,,,
729707040.373441,-11.129902,1.056814,115.572355,-0.009094,-0.2285,0.996796,0.781455,-0.103399,0.149585,59.399567,38.212616,-143.997528,,,
729707040.37568,-11.12991,1.056779,-28.337828,-0.009094,-0.2285,0.996796,0.781455,-0.103399,0.149585,59.399567,38.212616,-143.997528,,,
729707040.376781,-11.129902,1.056814,115.572355,-0.009094,-0.2285,0.996796,0.781455,-0.103399,0.149585,59.399567,38.212616,-143.997528,,,
729707040.377619,-11.12991,1.056779,-28.337828,-0.009094,-0.2285,0.996796,0.781455,-0.103399,0.149585,59.399567,38.212616,-143.997528,,,
729707040.380202,-10.904441,1.031711,115.608841,0.00029,-0.202927,1.001648,0.781455,-0.103399,0.149585,59.399567,38.212616,-143.997528,,,
729707040.384252,-10.904448,1.031676,-28.301336,0.00029,-0.202927,1.001648,0.792551,-0.128635,0.10027,59.399567,38.212616,-143.997528,,,
729707040.384543,-10.677586,1.001597,115.6382,0.00029,-0.202927,1.001648,0.792551,-0.128635,0.10027,59.399567,38.212616,-143.997528,,,
729707040.386718,-10.677586,1.001597,115.6382,0.00029,-0.202927,1.001648,0.792551,-0.128635,0.10027,59.399567,38.212616,-143.997528,,,
729707040.388681,-10.677594,1.001562,-28.271974,0.004715,-0.181107,0.99794,0.792551,-0.128635,0.10027,59.399567,38.212616,-143.997528,,,
729707040.390121,-10.450292,0.966636,115.659878,0.004715,-0.181107,0.99794,0.792551,-0.128635,0.10027,59.399567,38.212616,-143.997528,,,
729707040.391746,-10.4503,0.966601,-28.250302,0.004715,-0.181107,0.99794,0.792551,-0.128635,0.10027,59.399567,38.212616,-143.997528,,,
729707040.393456,-10.225068,0.926917,115.674195,0.004715,-0.181107,0.99794,0.779163,-0.152573,0.048538,59.399567,38.212616,-143.997528,,,
729707040.395661,-10.225076,0.926882,-28.235983,0.004715,-0.181107,0.99794,0.779163,-0.152573,0.048538,59.399567,38.212616,-143.997528,,,
729707040.396798,-10.225068,0.926917,115.674195,0.004715,-0.181107,0.99794,0.779163,-0.152573,0.048538,59.399567,38.212616,-143.997528,,,
729707040.397633,-10.225076,0.926882,-28.235983,0.004715,-0.181107,0.99794,0.779163,-0.152573,0.048538,59.399567,38.212616,-143.997528,,,
729707040.40012,-10.003209,0.882402,115.681488,0.006607,-0.167511,0.988312,0.779163,-0.152573,0.048538,59.399567,38.212616,-143.997528,,,
729707040.402309,-10.003217,0.882367,-28.228686,0.006607,-0.167511,0.988312,0.779163,-0.152573,0.048538,59.399567,38.212616,-143.997528,,,
729707040.40345,-9.785749,0.834365,115.682871,0.006607,-0.167511,0.988312,0.749612,-0.17045,0.006075,59.399567,38.212616,-143.997528,,,
729707040.405451,-9.785757,0.834331,-28.227316,0.006607,-0.167511,0.988312,0.749612,-0.17045,0.006075,59.399567,38.212616,-143.997528,,,
729707040.406858,-9.785749,0.834365,115.682871,0.006607,-0.167511,0.988312,0.749612,-0.17045,0.006075,59.399567,38.212616,-143.997528,,,
729707040.407606,-9.785757,0.834331,-28.227316,0.006607,-0.167511,0.988312,0.749612,-0.17045,0.006075,59.399567,38.212616,-143.997528,,,
729707040.410211,-9.574339,0.784027,115.680478,0.004654,-0.162598,0.978531,0.749612,-0.17045,0.006075,59.223679,36.662064,-144.324951,,,
729707040.412874,-9.574347,0.783992,-28.229715,0.004654,-0.162598,0.978531,0.749612,-0.17045,0.006075,59.223679,36.662064,-144.324951,,,
729707040.413509,-9.369873,0.733686,115.67629,0.004654,-0.162598,0.978531,0.701526,-0.169008,-0.008307,59.223679,36.662064,-144.324951,,,
729707040.416526,-9.369881,0.733652,-28.233902,0.004654,-0.162598,0.978531,0.701526,-0.169008,-0.008307,59.223679,36.662064,-144.324951,,,
729707040.416809,-9.369873,0.733686,115.67629,0.004654,-0.162598,0.978531,0.701526,-0.169008,-0.008307,59.223679,36.662064,-144.324951,,,
729707040.417638,-9.369881,0.733652,-28.233902,0.004654,-0.162598,0.978531,0.701526,-0.169008,-0.008307,59.223679,36.662064,-144.324951,,,
729707040.420112,-9.170726,0.685366,115.672935,-0.00116,-0.164658,0.978302,0.701526,-0.169008,-0.008307,59.223679,36.662064,-144.324951,,,
729707040.424414,-9.170733,0.685331,-28.237254,-0.00116,-0.164658,0.978302,0.682885,-0.146711,0.014717,59.223679,36.662064,-144.324951,,,
729707040.42471,-8.974272,0.640907,115.673148,-0.00116,-0.164658,0.978302,0.682885,-0.146711,0.014717,59.223679,36.662064,-144.324951,,,
729707040.426707,-8.974272,0.640907,115.673148,-0.00116,-0.164658,0.978302,0.682885,-0.146711,0.014717,59.223679,36.662064,-144.324951,,,
729707040.4289,-8.97428,0.640873,-28.23704,-0.010818,-0.172256,0.991776,0.682885,-0.146711,0.014717,59.223679,36.662064,-144.324951,,,
729707040.430149,-8.777963,0.600254,115.678372,-0.010818,-0.172256,0.991776,0.682885,-0.146711,0.014717,59.223679,36.662064,-144.324951,,,
729707040.431763,-8.77797,0.600219,-28.231819,-0.010818,-0.172256,0.991776,0.682885,-0.146711,0.014717,59.223679,36.662064,-144.324951,,,
729707040.433454,-8.580139,0.564222,115.688941,-0.010818,-0.172256,0.991776,0.693237,-0.120563,0.050597,59.223679,36.662064,-144.324951,,,
729707040.435663,-8.580146,0.564187,-28.221249,-0.010818,-0.172256,0.991776,0.693237,-0.120563,0.050597,59.223679,36.662064,-144.324951,,,
729707040.436785,-8.580139,0.564222,115.688941,-0.010818,-0.172256,0.991776,0.693237,-0.120563,0.050597,59.223679,36.662064,-144.324951,,,
729707040.437594,-8.580146,0.564187,-28.221249,-0.010818,-0.172256,0.991776,0.693237,-0.120563,0.050597,59.223679,36.662064,-144.324951,,,
729707040.440132,-8.379408,0.533277,115.704989,-0.013855,-0.174484,1.003281,0.693237,-0.120563,0.050597,59.223679,36.662064,-144.324951,,,
729707040.44194,-8.379416,0.533243,-28.205194,-0.013855,-0.174484,1.003281,0.693237,-0.120563,0.050597,59.223679,36.662064,-144.324951,,,
729707040.443466,-8.175968,0.508197,115.726327,-0.013855,-0.174484,1.003281,0.712266,-0.08524,0.086511,59.223679,36.662064,-144.324951,,,
729707040.445691,-8.175976,0.508162,-28.183855,-0.013855,-0.174484,1.003281,0.712266,-0.08524,0.086511,59.223679,36.662064,-144.324951,,,
729707040.446867,-8.175968,0.508197,115.726327,-0.013855,-0.174484,1.003281,0.712266,-0.08524,0.086511,59.223679,36.662064,-144.324951,,,
729707040.447592,-8.175976,0.508162,-28.183855,-0.013855,-0.174484,1.003281,0.712266,-0.08524,0.086511,59.223679,36.662064,-144.324951,,,
729707040.450124,-7.969438,0.489109,115.752077,-0.016663,-0.162262,1.009827,0.712266,-0.08524,0.086511,59.223679,36.662064,-144.324951,,,
729707040.453026,-7.969445,0.489074,-28.158099,-0.016663,-0.162262,1.009827,0.712266,-0.08524,0.086511,58.971359,35.328094,-144.453934,,,
729707040.453463,-7.759869,0.474872,115.781552,-0.016663,-0.162262,1.009827,0.733428,-0.054936,0.111819,58.971359,35.328094,-144.453934,,,
729707040.455645,-7.759877,0.474838,-28.128639,-0.016663,-0.162262,1.009827,0.733428,-0.054936,0.111819,58.971359,35.328094,-144.453934,,,
729707040.45681,-7.759869,0.474872,115.781552,-0.016663,-0.162262,1.009827,0.733428,-0.054936,0.111819,58.971359,35.328094,-144.453934,,,
729707040.457597,-7.759877,0.474838,-28.128639,-0.016663,-0.162262,1.009827,0.733428,-0.054936,0.111819,58.971359,35.328094,-144.453934,,,
729707040.460124,-7.54905,0.463152,115.813059,-0.017319,-0.144073,1.003174,0.733428,-0.054936,0.111819,58.971359,35.328094,-144.453934,,,
729707040.462128,-7.549058,0.463117,-28.097134,-0.017319,-0.144073,1.003174,0.733428,-0.054936,0.111819,58.971359,35.328094,-144.453934,,,
729707040.463486,-7.339197,0.453045,115.845347,-0.017319,-0.144073,1.003174,0.727421,-0.044281,0.117068,58.971359,35.328094,-144.453934,,,
729707040.465483,-7.339205,0.453011,-28.06483,-0.017319,-0.144073,1.003174,0.727421,-0.044281,0.117068,58.971359,35.328094,-144.453934,,,
729707040.46681,-7.339197,0.453045,115.845347,-0.017319,-0.144073,1.003174,0.727421,-0.044281,0.117068,58.971359,35.328094,-144.453934,,,
729707040.4676,-7.339205,0.453011,-28.06483,-0.017319,-0.144073,1.003174,0.727421,-0.044281,0.117068,58.971359,35.328094,-144.453934,,,
729707040.470127,-7.132388,0.4442,115.877898,-0.012863,-0.12413,0.982193,0.727421,-0.044281,0.117068,58.971359,35.328094,-144.453934,,,
729707040.472349,-7.132396,0.444166,-28.03228,-0.012863,-0.12413,0.982193,0.727421,-0.044281,0.117068,58.971359,35.328094,-144.453934,,,
729707040.47346,-6.931556,0.436266,115.910197,-0.012863,-0.12413,0.982193,0.686289,-0.037569,0.114789,58.971359,35.328094,-144.453934,,,
729707040.4752,-6.931564,0.436231,-27.999985,-0.012863,-0.12413,0.982193,0.686289,-0.037569,0.114789,58.971359,35.328094,-144.453934,,,
729707040.476796,-6.931556,0.436266,115.910197,-0.012863,-0.12413,0.982193,0.686289,-0.037569,0.114789,58.971359,35.328094,-144.453934,,,
729707040.477602,-6.931564,0.436231,-27.999985,-0.012863,-0.12413,0.982193,0.686289,-0.037569,0.114789,58.971359,35.328094,-144.453934,,,
729707040.48014,-6.739372,0.427858,115.9412,-0.011948,-0.107269,0.967316,0.686289,-0.037569,0.114789,58.971359,35.328094,-144.453934,,,
729707040.482161,-6.739379,0.427824,-27.968982,-0.011948,-0.107269,0.967316,0.686289,-0.037569,0.114789,58.971359,35.328094,-144.453934,,,
729707040.483463,-6.557916,0.418636,115.970769,-0.011948,-0.107269,0.967316,0.612354,-0.042053,0.104127,58.971359,35.328094,-144.453934,,,
729707040.485472,-6.557923,0.418601,-27.93941,-0.011948,-0.107269,0.967316,0.612354,-0.042053,0.104127,58.971359,35.328094,-144.453934,,,
729707040.486795,-6.557916,0.418636,115.970769,-0.011948,-0.107269,0.967316,0.612354,-0.042053,0.104127,58.971359,35.328094,-144.453934,,,
729707040.487603,-6.557923,0.418601,-27.93941,-0.011948,-0.107269,0.967316,0.612354,-0.042053,0.104127,58.971359,35.328094,-144.453934,,,
729707040.490129,-6.387528,0.408284,115.999775,-0.011398,-0.095367,0.950623,0.612354,-0.042053,0.104127,58.971359,35.328094,-144.453934,,,
729707040.492769,-6.387535,0.408249,-27.91041,-0.011398,-0.095367,0.950623,0.612354,-0.042053,0.104127,58.878586,34.306,-145.06572,,,
729707040.493469,-6.22734,0.395058,116.028701,-0.011398,-0.095367,0.950623,0.541768,-0.062061,0.102853,58.878586,34.306,-145.06572,,,
729707040.495498,-6.227348,0.395024,-27.881484,-0.011398,-0.095367,0.950623,0.541768,-0.062061,0.102853,58.878586,34.306,-145.06572,,,
729707040.496894,-6.22734,0.395058,116.028701,-0.011398,-0.095367,0.950623,0.541768,-0.062061,0.102853,58.878586,34.306,-145.06572,,,
729707040.49767,-6.227348,0.395024,-27.881484,-0.011398,-0.095367,0.950623,0.541768,-0.062061,0.102853,58.878586,34.306,-145.06572,,,
729707040.500147,-6.075725,0.376834,116.057985,-0.015289,-0.096313,0.948395,0.541768,-0.062061,0.102853,58.878586,34.306,-145.06572,,,
729707040.50209,-6.075732,0.376799,-27.852188,-0.015289,-0.096313,0.948395,0.541768,-0.062061,0.102853,58.878586,34.306,-145.06572,,,
729707040.503238,-5.930189,0.35258,116.087441,-0.015289,-0.096313,0.948395,0.500108,-0.104298,0.103303,58.878586,34.306,-145.06572,,,
729707040.50556,-5.930196,0.352545,-27.822742,-0.015289,-0.096313,0.948395,0.500108,-0.104298,0.103303,58.878586,34.306,-145.06572,,,
729707040.506819,-5.930189,0.35258,116.087441,-0.015289,-0.096313,0.948395,0.500108,-0.104298,0.103303,58.878586,34.306,-145.06572,,,
729707040.507609,-5.930196,0.352545,-27.822742,-0.015289,-0.096313,0.948395,0.500108,-0.104298,0.103303,58.878586,34.306,-145.06572,,,
729707040.510133,-5.786946,0.322473,116.115873,-0.009781,-0.100357,0.956268,0.500108,-0.104298,0.103303,58.878586,34.306,-145.06572,,,
729707040.512194,-5.786954,0.322439,-27.79431,-0.009781,-0.100357,0.956268,0.500108,-0.104298,0.103303,58.878586,34.306,-145.06572,,,
729707040.513504,-5.642321,0.287857,116.142493,-0.009781,-0.100357,0.956268,0.510312,-0.134554,0.090225,58.878586,34.306,-145.06572,,,
729707040.515695,-5.642328,0.287822,-27.767687,-0.009781,-0.100357,0.956268,0.510312,-0.134554,0.090225,58.878586,34.306,-145.06572,,,
729707040.516824,-5.642321,0.287857,116.142493,-0.009781,-0.100357,0.956268,0.510312,-0.134554,0.090225,58.878586,34.306,-145.06572,,,
729707040.51761,-5.642328,0.287822,-27.767687,-0.009781,-0.100357,0.956268,0.510312,-0.134554,0.090225,58.878586,34.306,-145.06572,,,
729707040.520131,-5.492163,0.249082,116.166719,-0.002853,-0.106476,0.984894,0.510312,-0.134554,0.090225,58.878586,34.306,-145.06572,,,
729707040.522343,-5.492171,0.249047,-27.743457,-0.002853,-0.106476,0.984894,0.510312,-0.134554,0.090225,58.878586,34.306,-145.06572,,,
729707040.523492,-5.334921,0.20467,116.188067,-0.002853,-0.106476,0.984894,0.560047,-0.171991,0.069564,58.878586,34.306,-145.06572,,,
729707040.525704,-5.334929,0.204636,-27.722117,-0.002853,-0.106476,0.984894,0.560047,-0.171991,0.069564,58.878586,34.306,-145.06572,,,
729707040.526802,-5.334921,0.20467,116.188067,-0.002853,-0.106476,0.984894,0.560047,-0.171991,0.069564,58.878586,34.306,-145.06572,,,
729707040.527608,-5.334929,0.204636,-27.722117,-0.002853,-0.106476,0.984894,0.560047,-0.171991,0.069564,58.878586,34.306,-145.06572,,,
729707040.53013,-5.170441,0.153263,116.206653,-0.005463,-0.102554,0.998489,0.560047,-0.171991,0.069564,58.878586,34.306,-145.06572,,,
729707040.533038,-5.170448,0.153229,-27.703533,-0.005463,-0.102554,0.998489,0.560047,-0.171991,0.069564,58.649796,33.190887,-145.076294,,,
729707040.533515,-4.998204,0.096791,116.223219,-0.005463,-0.102554,0.998489,0.61463,-0.206228,0.054556,58.649796,33.190887,-145.076294,,,
729707040.535793,-4.998211,0.096757,-27.686968,-0.005463,-0.102554,0.998489,0.61463,-0.206228,0.054556,58.649796,33.190887,-145.076294,,,
729707040.536817,-4.998204,0.096791,116.223219,-0.005463,-0.102554,0.998489,0.61463,-0.206228,0.054556,58.649796,33.190887,-145.076294,,,
729707040.537621,-4.998211,0.096757,-27.686968,-0.005463,-0.102554,0.998489,0.61463,-0.206228,0.054556,58.649796,33.190887,-145.076294,,,
729707040.54015,-4.81992,0.036258,116.238398,-0.009033,-0.089615,0.999283,0.61463,-0.206228,0.054556,58.649796,33.190887,-145.076294,,,
729707040.541977,-4.819927,0.036224,-27.67179,-0.009033,-0.089615,0.999283,0.61463,-0.206228,0.054556,58.649796,33.190887,-145.076294,,,
729707040.543467,-4.638118,-0.028067,116.2526,-0.009033,-0.089615,0.999283,0.639401,-0.232252,0.046382,58.649796,33.190887,-145.076294,,,
729707040.545534,-4.638126,-0.028102,-27.657591,-0.009033,-0.089615,0.999283,0.639401,-0.232252,0.046382,58.649796,33.190887,-145.076294,,,
729707040.546803,-4.638118,-0.028067,116.2526,-0.009033,-0.089615,0.999283,0.639401,-0.232252,0.046382,58.649796,33.190887,-145.076294,,,
729707040.547658,-4.638126,-0.028102,-27.657591,-0.009033,-0.089615,0.999283,0.639401,-0.232252,0.046382,58.649796,33.190887,-145.076294,,,
729707040.550244,-4.45511,-0.095913,116.266303,-0.005875,-0.071777,0.983826,0.639401,-0.232252,0.046382,58.649796,33.190887,-145.076294,,,
729707040.552338,-4.455117,-0.095948,-27.643885,-0.005875,-0.071777,0.983826,0.639401,-0.232252,0.046382,58.649796,33.190887,-145.076294,,,
729707040.553542,-4.273668,-0.165018,116.280125,-0.005875,-0.071777,0.983826,0.628999,-0.241372,0.045694,58.649796,33.190887,-145.076294,,,
729707040.555508,-4.273676,-0.165053,-27.630063,-0.005875,-0.071777,0.983826,0.628999,-0.241372,0.045694,58.649796,33.190887,-145.076294,,,
729707040.556833,-4.273668,-0.165018,116.280125,-0.005875,-0.071777,0.983826,0.628999,-0.241372,0.045694,58.649796,33.190887,-145.076294,,,
729707040.557615,-4.273676,-0.165053,-27.630063,-0.005875,-0.071777,0.983826,0.628999,-0.241372,0.045694,58.649796,33.190887,-145.076294,,,
729707040.560161,-4.09597,-0.232791,116.294865,-0.00502,-0.058289,0.967346,0.628999,-0.241372,0.045694,58.649796,33.190887,-145.076294,,,
729707040.562199,-4.095978,-0.232826,-27.615309,-0.00502,-0.058289,0.967346,0.628999,-0.241372,0.045694,58.649796,33.190887,-145.076294,,,
729707040.563533,-3.925242,-0.297656,116.31086,-0.00502,-0.058289,0.967346,0.580751,-0.221889,0.052989,58.649796,33.190887,-145.076294,,,
729707040.5655,-3.925249,-0.297691,-27.599323,-0.00502,-0.058289,0.967346,0.580751,-0.221889,0.052989,58.649796,33.190887,-145.076294,,,
729707040.566834,-3.925242,-0.297656,116.31086,-0.00502,-0.058289,0.967346,0.580751,-0.221889,0.052989,58.649796,33.190887,-145.076294,,,
729707040.56762,-3.925249,-0.297691,-27.599323,-0.00502,-0.058289,0.967346,0.580751,-0.221889,0.052989,58.649796,33.190887,-145.076294,,,
729707040.570143,-3.764247,-0.357428,116.327962,-0.000534,-0.051697,0.956116,0.580751,-0.221889,0.052989,58.649796,33.190887,-145.076294,,,
729707040.572328,-3.764255,-0.357462,-27.582224,-0.000534,-0.051697,0.956116,0.580751,-0.221889,0.052989,58.649796,33.190887,-145.076294,,,
729707040.573502,-3.615754,-0.409243,116.34661,-0.000534,-0.051697,0.956116,0.494431,-0.167481,0.063274,58.592041,32.005768,-145.460739,,,
729707040.576334,-3.615761,-0.409277,-27.563571,-0.000534,-0.051697,0.956116,0.494431,-0.167481,0.063274,58.592041,32.005768,-145.460739,,,
729707040.576847,-3.615754,-0.409243,116.34661,-0.000534,-0.051697,0.956116,0.494431,-0.167481,0.063274,58.592041,32.005768,-145.460739,,,
729707040.577632,-3.615761,-0.409277,-27.563571,-0.000534,-0.051697,0.956116,0.494431,-0.167481,0.063274,58.592041,32.005768,-145.460739,,,
729707040.580135,-3.481103,-0.451858,116.367619,-0.001648,-0.044724,0.943573,0.494431,-0.167481,0.063274,58.592041,32.005768,-145.460739,,,
729707040.582285,-3.481111,-0.451892,-27.54256,-0.001648,-0.044724,0.943573,0.494431,-0.167481,0.063274,58.592041,32.005768,-145.460739,,,
729707040.583484,-3.361142,-0.485153,116.391006,-0.001648,-0.044724,0.943573,0.392695,-0.103783,0.079984,58.592041,32.005768,-145.460739,,,
729707040.585727,-3.361149,-0.485188,-27.519168,-0.001648,-0.044724,0.943573,0.392695,-0.103783,0.079984,58.592041,32.005768,-145.460739,,,
729707040.586822,-3.361142,-0.485153,116.391006,-0.001648,-0.044724,0.943573,0.392695,-0.103783,0.079984,58.592041,32.005768,-145.460739,,,
729707040.587639,-3.361149,-0.485188,-27.519168,-0.001648,-0.044724,0.943573,0.392695,-0.103783,0.079984,58.592041,32.005768,-145.460739,,,
729707040.590224,-3.255252,-0.509531,116.416838,-0.0047,-0.038773,0.936081,0.392695,-0.103783,0.079984,58.592041,32.005768,-145.460739,,,
729707040.591797,-3.25526,-0.509565,-27.493336,-0.0047,-0.038773,0.936081,0.392695,-0.103783,0.079984,58.592041,32.005768,-145.460739,,,
729707040.593571,-3.16265,-0.523736,116.444821,-0.0047,-0.038773,0.936081,0.300806,-0.034007,0.095528,58.592041,32.005768,-145.460739,,,
729707040.595689,-3.162657,-0.52377,-27.465354,-0.0047,-0.038773,0.936081,0.300806,-0.034007,0.095528,58.592041,32.005768,-145.460739,,,
729707040.596818,-3.16265,-0.523736,116.444821,-0.0047,-0.038773,0.936081,0.300806,-0.034007,0.095528,58.592041,32.005768,-145.460739,,,
729707040.597624,-3.162657,-0.52377,-27.465354,-0.0047,-0.038773,0.936081,0.300806,-0.034007,0.095528,58.592041,32.005768,-145.460739,,,
729707040.600157,-3.081445,-0.527245,116.474436,-0.001648,-0.03334,0.936859,0.300806,-0.034007,0.095528,58.592041,32.005768,-145.460739,,,
729707040.601981,-3.081453,-0.52728,-27.435736,-0.001648,-0.03334,0.936859,0.300806,-0.034007,0.095528,58.592041,32.005768,-145.460739,,,
729707040.603542,-3.009117,-0.520839,116.505138,-0.001648,-0.03334,0.936859,0.239377,0.034427,0.103593,58.592041,32.005768,-145.460739,,,
729707040.606629,-3.009124,-0.520874,-27.405047,-0.001648,-0.03334,0.936859,0.239377,0.034427,0.103593,58.592041,32.005768,-145.460739,,,
729707040.606902,-3.009117,-0.520839,116.505138,-0.001648,-0.03334,0.936859,0.239377,0.034427,0.103593,58.592041,32.005768,-145.460739,,,
729707040.607619,-3.009124,-0.520874,-27.405047,-0.001648,-0.03334,0.936859,0.239377,0.034427,0.103593,58.592041,32.005768,-145.460739,,,
729707040.610231,-2.943974,-0.506878,116.5359,-0.002869,-0.031357,0.940567,0.239377,0.034427,0.103593,58.592041,32.005768,-145.460739,,,
729707040.61177,-2.943981,-0.506912,-27.37429,-0.002869,-0.031357,0.940567,0.239377,0.034427,0.103593,58.592041,32.005768,-145.460739,,,
729707040.613489,-2.883138,-0.486422,116.56617,-0.002869,-0.031357,0.940567,0.209675,0.079602,0.100655,58.592041,32.005768,-145.460739,,,
729707040.616083,-2.883146,-0.486456,-27.344015,-0.002869,-0.031357,0.940567,0.209675,0.079602,0.100655,58.320724,31.353348,-145.348236,,,
729707040.616895,-2.883138,-0.486422,116.56617,-0.002869,-0.031357,0.940567,0.209675,0.079602,0.100655,58.320724,31.353348,-145.348236,,,
729707040.617617,-2.883146,-0.486456,-27.344015,-0.002869,-0.031357,0.940567,0.209675,0.079602,0.100655,58.320724,31.353348,-145.348236,,,
729707040.620142,-2.822859,-0.461075,116.596766,-0.004349,-0.038376,0.948349,0.209675,0.079602,0.100655,58.320724,31.353348,-145.348236,,,
729707040.622277,-2.822866,-0.461109,-27.313424,-0.004349,-0.038376,0.948349,0.209675,0.079602,0.100655,58.320724,31.353348,-145.348236,,,
729707040.623488,-2.760375,-0.433667,116.628423,-0.004349,-0.038376,0.948349,0.225282,0.093334,0.108175,58.320724,31.353348,-145.348236,,,
729707040.625688,-2.760383,-0.433702,-27.281762,-0.004349,-0.038376,0.948349,0.225282,0.093334,0.108175,58.320724,31.353348,-145.348236,,,
729707040.626897,-2.760375,-0.433667,116.628423,-0.004349,-0.038376,0.948349,0.225282,0.093334,0.108175,58.320724,31.353348,-145.348236,,,
729707040.627624,-2.760383,-0.433702,-27.281762,-0.004349,-0.038376,0.948349,0.225282,0.093334,0.108175,58.320724,31.353348,-145.348236,,,
729707040.63015,-2.693627,-0.407582,116.660934,-0.013367,-0.054138,0.959579,0.225282,0.093334,0.108175,58.320724,31.353348,-145.348236,,,
729707040.632396,-2.693635,-0.407616,-27.249249,-0.013367,-0.054138,0.959579,0.225282,0.093334,0.108175,58.320724,31.353348,-145.348236,,,
729707040.633516,-2.620518,-0.386703,116.694702,-0.013367,-0.054138,0.959579,0.269761,0.056418,0.116761,58.320724,31.353348,-145.348236,,,
729707040.635709,-2.620526,-0.386738,-27.215485,-0.013367,-0.054138,0.959579,0.269761,0.056418,0.116761,58.320724,31.353348,-145.348236,,,
729707040.636819,-2.620518,-0.386703,116.694702,-0.013367,-0.054138,0.959579,0.269761,0.056418,0.116761,58.320724,31.353348,-145.348236,,,
729707040.637626,-2.620526,-0.386738,-27.215485,-0.013367,-0.054138,0.959579,0.269761,0.056418,0.116761,58.320724,31.353348,-145.348236,,,
729707040.640147,-2.539361,-0.375097,116.729852,-0.01387,-0.061493,0.962158,0.269761,0.056418,0.116761,58.320724,31.353348,-145.348236,,,
729707040.642078,-2.539369,-0.375131,-27.180331,-0.01387,-0.061493,0.962158,0.269761,0.056418,0.116761,58.320724,31.353348,-145.348236,,,
729707040.643499,-2.450118,-0.374626,116.7657,-0.01387,-0.061493,0.962158,0.326378,-0.021483,0.121303,58.320724,31.353348,-145.348236,,,
729707040.646616,-2.450126,-0.37466,-27.144487,-0.01387,-0.061493,0.962158,0.326378,-0.021483,0.121303,58.320724,31.353348,-145.348236,,,
729707040.646892,-2.450118,-0.374626,116.7657,-0.01387,-0.061493,0.962158,0.326378,-0.021483,0.121303,58.320724,31.353348,-145.348236,,,
729707040.647633,-2.450126,-0.37466,-27.144487,-0.01387,-0.061493,0.962158,0.326378,-0.021483,0.121303,58.320724,31.353348,-145.348236,,,
729707040.650182,-2.353879,-0.384654,116.801411,-0.014343,-0.058197,0.962997,0.326378,-0.021483,0.121303,58.320724,31.353348,-145.348236,,,
729707040.651894,-2.353886,-0.384689,-27.108779,-0.014343,-0.058197,0.962997,0.326378,-0.021483,0.121303,58.320724,31.353348,-145.348236,,,
729707040.653501,-2.252595,-0.403173,116.836164,-0.014343,-0.058197,0.962997,0.361673,-0.080385,0.114162,58.320724,31.353348,-145.348236,,,
729707040.656365,-2.252603,-0.403207,-27.074023,-0.014343,-0.058197,0.962997,0.361673,-0.080385,0.114162,58.27829,31.125961,-145.391769,,,
729707040.656851,-2.252595,-0.403173,116.836164,-0.014343,-0.058197,0.962997,0.361673,-0.080385,0.114162,58.27829,31.125961,-145.391769,,,
729707040.657632,-2.252603,-0.403207,-27.074023,-0.014343,-0.058197,0.962997,0.361673,-0.080385,0.114162,58.27829,31.125961,-145.391769,,,
729707040.660165,-2.148983,-0.428582,116.868851,-0.006546,-0.048004,0.962433,0.361673,-0.080385,0.114162,58.27829,31.125961,-145.391769,,,
729707040.66202,-2.148991,-0.428617,-27.041339,-0.006546,-0.048004,0.962433,0.361673,-0.080385,0.114162,58.27829,31.125961,-145.391769,,,
729707040.663527,-2.0463,-0.459009,116.89862,-0.006546,-0.048004,0.962433,0.35543,-0.114652,0.093589,58.27829,31.125961,-145.391769,,,
729707040.665523,-2.046308,-0.459043,-27.011568,-0.006546,-0.048004,0.962433,0.35543,-0.114652,0.093589,58.27829,31.125961,-145.391769,,,
729707040.666902,-2.0463,-0.459009,116.89862,-0.006546,-0.048004,0.962433,0.35543,-0.114652,0.093589,58.27829,31.125961,-145.391769,,,
729707040.667623,-2.046308,-0.459043,-27.011568,-0.006546,-0.048004,0.962433,0.35543,-0.114652,0.093589,58.27829,31.125961,-145.391769,,,
729707040.67016,-1.947451,-0.492616,116.924812,0.004669,-0.028885,0.953888,0.35543,-0.114652,0.093589,58.27829,31.125961,-145.391769,,,
729707040.673553,-1.947458,-0.49265,-26.985362,0.004669,-0.028885,0.953888,0.35543,-0.114652,0.093589,58.27829,31.125961,-145.391769,,,
729707040.673822,-1.856491,-0.526684,116.947494,0.004669,-0.028885,0.953888,0.300494,-0.117165,0.069067,58.27829,31.125961,-145.391769,,,
729707040.675682,-1.856499,-0.526718,-26.962683,0.004669,-0.028885,0.953888,0.300494,-0.117165,0.069067,58.27829,31.125961,-145.391769,,,
729707040.67691,-1.856491,-0.526684,116.947494,0.004669,-0.028885,0.953888,0.300494,-0.117165,0.069067,58.27829,31.125961,-145.391769,,,
729707040.677628,-1.856499,-0.526718,-26.962683,0.004669,-0.028885,0.953888,0.300494,-0.117165,0.069067,58.27829,31.125961,-145.391769,,,
729707040.680154,-1.775777,-0.559202,116.967465,0.016907,-0.013382,0.945999,0.300494,-0.117165,0.069067,58.27829,31.125961,-145.391769,,,
729707040.682238,-1.775785,-0.559236,-26.942712,0.016907,-0.013382,0.945999,0.300494,-0.117165,0.069067,58.27829,31.125961,-145.391769,,,
729707040.683613,-1.707391,-0.588265,116.985006,0.016907,-0.013382,0.945999,0.214787,-0.092854,0.052764,58.27829,31.125961,-145.391769,,,
729707040.685785,-1.707398,-0.5883,-26.925166,0.016907,-0.013382,0.945999,0.214787,-0.092854,0.052764,58.27829,31.125961,-145.391769,,,
729707040.686835,-1.707391,-0.588265,116.985006,0.016907,-0.013382,0.945999,0.214787,-0.092854,0.052764,58.27829,31.125961,-145.391769,,,
729707040.68764,-1.707398,-0.5883,-26.925166,0.016907,-0.013382,0.945999,0.214787,-0.092854,0.052764,58.27829,31.125961,-145.391769,,,
729707040.690159,-1.652162,-0.613719,116.999995,0.024368,-0.007416,0.941513,0.214787,-0.092854,0.052764,58.27829,31.125961,-145.391769,,,
729707040.692061,-1.65217,-0.613754,-26.910175,0.024368,-0.007416,0.941513,0.214787,-0.092854,0.052764,58.27829,31.125961,-145.391769,,,
729707040.693505,-1.652162,-0.613719,117.013,0.024368,-0.007416,0.941513,0.115454,-0.067241,0.039843,58.27829,31.125961,-145.391769,,,
729707040.695945,-1.611211,-0.635543,-26.89717,0.024368,-0.007416,0.941513,0.115454,-0.067241,0.039843,58.27829,31.125961,-145.391769,,,
729707040.696838,-1.611204,-0.635508,117.013,0.024368,-0.007416,0.941513,0.115454,-0.067241,0.039843,58.242783,30.738159,-145.715744,,,
729707040.698302,-1.611211,-0.635543,-26.89717,0.024368,-0.007416,0.941513,0.115454,-0.067241,0.039843,58.242783,30.738159,-145.715744,,,
729707040.700163,-1.584895,-0.653335,117.024351,0.027863,-0.004227,0.936142,0.115454,-0.067241,0.039843,58.242783,30.738159,-145.715744,,,
729707040.702251,-1.584903,-0.653369,-26.885834,0.027863,-0.004227,0.936142,0.115454,-0.067241,0.039843,58.242783,30.738159,-145.715744,,,
729707040.7035,-1.584895,-0.653335,117.024351,0.027863,-0.004227,0.936142,0.027961,-0.035861,0.0315,58.242783,30.738159,-145.715744,,,
729707040.705728,-1.57118,-0.666668,-26.875832,0.027863,-0.004227,0.936142,0.027961,-0.035861,0.0315,58.242783,30.738159,-145.715744,,,
729707040.706848,-1.571173,-0.666634,117.034357,0.027863,-0.004227,0.936142,0.027961,-0.035861,0.0315,58.242783,30.738159,-145.715744,,,
729707040.707639,-1.57118,-0.666668,-26.875832,0.027863,-0.004227,0.936142,0.027961,-0.035861,0.0315,58.242783,30.738159,-145.715744,,,
729707040.710161,-1.568611,-0.674459,117.043402,0.033066,-0.005875,0.942795,0.027961,-0.035861,0.0315,58.242783,30.738159,-145.715744,,,
729707040.711422,-1.568618,-0.674493,-26.866789,0.033066,-0.005875,0.942795,0.027961,-0.035861,0.0315,58.242783,30.738159,-145.715744,,,
729707040.713542,-1.568611,-0.674459,117.043402,0.033066,-0.005875,0.942795,-0.021093,0.000761,0.028498,58.242783,30.738159,-145.715744,,,
729707040.717201,-1.573126,-0.677017,-26.858252,0.033066,-0.005875,0.942795,-0.021093,0.000761,0.028498,58.242783,30.738159,-145.715744,,,
729707040.71748,-1.573119,-0.676982,117.051936,0.033066,-0.005875,0.942795,-0.021093,0.000761,0.028498,58.242783,30.738159,-145.715744,,,
729707040.717735,-1.573126,-0.677017,-26.858252,0.033066,-0.005875,0.942795,-0.021093,0.000761,0.028498,58.242783,30.738159,-145.715744,,,
729707040.720146,-1.580667,-0.674773,117.061454,0.03299,-0.01828,0.95929,-0.021093,0.000761,0.028498,58.242783,30.738159,-145.715744,,,
729707040.722232,-1.580675,-0.674808,-26.848737,0.03299,-0.01828,0.95929,-0.021093,0.000761,0.028498,58.242783,30.738159,-145.715744,,,
729707040.723502,-1.580667,-0.674773,117.061454,0.03299,-0.01828,0.95929,-0.022977,0.029651,0.041579,58.242783,30.738159,-145.715744,,,
729707040.725255,-1.588545,-0.668343,-26.837342,0.03299,-0.01828,0.95929,-0.022977,0.029651,0.041579,58.242783,30.738159,-145.715744,,,
729707040.726837,-1.588537,-0.668309,117.07283,0.03299,-0.01828,0.95929,-0.022977,0.029651,0.041579,58.242783,30.738159,-145.715744,,,
729707040.727644,-1.588545,-0.668343,-26.837342,0.03299,-0.01828,0.95929,-0.022977,0.029651,0.041579,58.242783,30.738159,-145.715744,,,
729707040.730158,-1.592648,-0.658982,117.086701,0.024796,-0.038055,0.977997,-0.022977,0.029651,0.041579,58.242783,30.738159,-145.715744,,,
729707040.732117,-1.592655,-0.659016,-26.823468,0.024796,-0.038055,0.977997,-0.022977,0.029651,0.041579,58.242783,30.738159,-145.715744,,,
729707040.733519,-1.592648,-0.658982,117.086701,0.024796,-0.038055,0.977997,0.021669,0.03862,0.060123,58.242783,30.738159,-145.715744,,,
729707040.736504,-1.590417,-0.64827,-26.806854,0.024796,-0.038055,0.977997,0.021669,0.03862,0.060123,58.242783,30.738159,-145.715744,,,
729707040.736845,-1.590409,-0.648236,117.103317,0.024796,-0.038055,0.977997,0.021669,0.03862,0.060123,58.097473,30.775269,-145.690475,,,
729707040.738376,-1.590417,-0.64827,-26.806854,0.024796,-0.038055,0.977997,0.021669,0.03862,0.060123,58.097473,30.775269,-145.690475,,,
729707040.740171,-1.579945,-0.638709,117.122139,0.025146,-0.055405,0.993088,0.021669,0.03862,0.060123,58.097473,30.775269,-145.690475,,,
729707040.742449,-1.579953,-0.638743,-26.788041,0.025146,-0.055405,0.993088,0.021669,0.03862,0.060123,58.097473,30.775269,-145.690475,,,
729707040.743584,-1.579945,-0.638709,117.141762,0.025146,-0.055405,0.993088,0.080582,0.022391,0.064961,58.097473,30.775269,-145.690475,,,
729707040.745581,-1.561533,-0.63099,-26.768423,0.025146,-0.055405,0.993088,0.080582,0.022391,0.064961,58.097473,30.775269,-145.690475,,,
729707040.746839,-1.561525,-0.630956,117.141762,0.025146,-0.055405,0.993088,0.080582,0.022391,0.064961,58.097473,30.775269,-145.690475,,,
729707040.747644,-1.561533,-0.63099,-26.768423,0.025146,-0.055405,0.993088,0.080582,0.022391,0.064961,58.097473,30.775269,-145.690475,,,
729707040.750181,-1.53598,-0.626073,117.160761,0.026398,-0.053848,0.994003,0.080582,0.022391,0.064961,58.097473,30.775269,-145.690475,,,
729707040.751715,-1.535987,-0.626108,-26.749425,0.026398,-0.053848,0.994003,0.080582,0.022391,0.064961,58.097473,30.775269,-145.690475,,,
729707040.753504,-1.53598,-0.626073,117.160761,0.026398,-0.053848,0.994003,0.080582,0.022391,0.064961,58.097473,30.775269,-145.690475,,,
729707040.755728,-1.504871,-0.623068,-26.732,0.026398,-0.053848,0.994003,0.117575,0.010233,0.053562,58.097473,30.775269,-145.690475,,,
729707040.756838,-1.504864,-0.623033,117.178178,0.026398,-0.053848,0.994003,0.117575,0.010233,0.053562,58.097473,30.775269,-145.690475,,,
729707040.757649,-1.504871,-0.623068,-26.732,0.026398,-0.053848,0.994003,0.117575,0.010233,0.053562,58.097473,30.775269,-145.690475,,,
729707040.760267,-1.470445,-0.620505,117.191834,0.027206,-0.040909,0.998032,0.117575,0.010233,0.053562,58.097473,30.775269,-145.690475,,,
729707040.76207,-1.470452,-0.62054,-26.71834,0.027206,-0.040909,0.998032,0.117575,0.010233,0.053562,58.097473,30.775269,-145.690475,,,
729707040.763524,-1.470445,-0.620505,117.191834,0.027206,-0.040909,0.998032,0.117575,0.010233,0.053562,58.097473,30.775269,-145.690475,,,
729707040.7651,-1.434819,-0.618658,-26.708963,0.027206,-0.040909,0.998032,0.120195,0.011532,0.023849,58.097473,30.775269,-145.690475,,,
729707040.766923,-1.434811,-0.618624,117.201214,0.027206,-0.040909,0.998032,0.120195,0.011532,0.023849,58.097473,30.775269,-145.690475,,,
729707040.767653,-1.434819,-0.618658,-26.708963,0.027206,-0.040909,0.998032,0.120195,0.011532,0.023849,58.097473,30.775269,-145.690475,,,
729707040.770176,-1.401992,-0.616766,117.206967,0.031937,-0.027618,0.995987,0.120195,0.011532,0.023849,58.097473,30.775269,-145.690475,,,
729707040.771768,-1.401999,-0.616801,-26.703209,0.031937,-0.027618,0.995987,0.120195,0.011532,0.023849,58.097473,30.775269,-145.690475,,,
729707040.773521,-1.401992,-0.616766,117.206967,0.031937,-0.027618,0.995987,0.120195,0.011532,0.023849,58.097473,30.775269,-145.690475,,,
729707040.776265,-1.371579,-0.617916,-26.700539,0.031937,-0.027618,0.995987,0.095692,-0.000123,0.00283,58.097473,30.775269,-145.690475,,,
729707040.77694,-1.371572,-0.617882,117.209634,0.031937,-0.027618,0.995987,0.095692,-0.000123,0.00283,58.097473,30.775269,-145.690475,,,
729707040.77769,-1.371579,-0.617916,-26.700539,0.031937,-0.027618,0.995987,0.095692,-0.000123,0.00283,58.097473,30.775269,-145.690475,,,
729707040.780165,-1.347548,-0.61906,117.210267,0.026245,-0.019348,0.981277,0.095692,-0.000123,0.00283,58.231537,30.645721,-145.390717,,,
729707040.782362,-1.347555,-0.619094,-26.699907,0.026245,-0.019348,0.981277,0.095692,-0.000123,0.00283,58.231537,30.645721,-145.390717,,,
729707040.783515,-1.347548,-0.61906,117.210267,0.026245,-0.019348,0.981277,0.095692,-0.000123,0.00283,58.231537,30.645721,-145.390717,,,
729707040.785996,-1.329256,-0.622514,-26.701196,0.026245,-0.019348,0.981277,0.047167,-0.003584,-0.009768,58.231537,30.645721,-145.390717,,,
729707040.786888,-1.329248,-0.62248,117.208983,0.026245,-0.019348,0.981277,0.047167,-0.003584,-0.009768,58.231537,30.645721,-145.390717,,,
729707040.787661,-1.329256,-0.622514,-26.701196,0.026245,-0.019348,0.981277,0.047167,-0.003584,-0.009768,58.231537,30.645721,-145.390717,,,
729707040.790176,-1.319869,-0.624934,117.20559,0.026581,-0.016647,0.972076,0.047167,-0.003584,-0.009768,58.231537,30.645721,-145.390717,,,
729707040.791676,-1.319877,-0.624968,-26.704591,0.026581,-0.016647,0.972076,0.047167,-0.003584,-0.009768,58.231537,30.645721,-145.390717,,,
729707040.793619,-1.319869,-0.624934,117.20559,0.026581,-0.016647,0.972076,0.047167,-0.003584,-0.009768,58.231537,30.645721,-145.390717,,,
729707040.796583,-1.318422,-0.629866,-26.710478,0.026581,-0.016647,0.972076,-0.013653,-0.006922,-0.026117,58.231537,30.645721,-145.390717,,,
729707040.796922,-1.318414,-0.629832,117.199705,0.026581,-0.016647,0.972076,-0.013653,-0.006922,-0.026117,58.231537,30.645721,-145.390717,,,
729707040.797664,-1.318422,-0.629866,-26.710478,0.026581,-0.016647,0.972076,-0.013653,-0.006922,-0.026117,58.231537,30.645721,-145.390717,,,
729707040.800205,-1.325903,-0.632166,117.191443,0.030609,-0.01445,0.965973,-0.013653,-0.006922,-0.026117,58.231537,30.645721,-145.390717,,,
729707040.801776,-1.325911,-0.632201,-26.71874,0.030609,-0.01445,0.965973,-0.013653,-0.006922,-0.026117,58.231537,30.645721,-145.390717,,,
729707040.803561,-1.325903,-0.632166,117.191443,0.030609,-0.01445,0.965973,-0.013653,-0.006922,-0.026117,58.231537,30.645721,-145.390717,,,
729707040.806509,-1.340696,-0.634486,-26.72904,0.030609,-0.01445,0.965973,-0.061818,0.003911,-0.039494,58.231537,30.645721,-145.390717,,,
729707040.806848,-1.340688,-0.634452,117.18113,0.030609,-0.01445,0.965973,-0.061818,0.003911,-0.039494,58.231537,30.645721,-145.390717,,,
729707040.807681,-1.340696,-0.634486,-26.72904,0.030609,-0.01445,0.965973,-0.061818,0.003911,-0.039494,58.231537,30.645721,-145.390717,,,
729707040.810257,-1.360464,-0.632784,117.169256,0.024948,-0.019196,0.969116,-0.061818,0.003911,-0.039494,58.231537,30.645721,-145.390717,,,
729707040.81196,-1.360471,-0.632819,-26.740922,0.024948,-0.019196,0.969116,-0.061818,0.003911,-0.039494,58.231537,30.645721,-145.390717,,,
729707040.813588,-1.360464,-0.632784,117.169256,0.024948,-0.019196,0.969116,-0.061818,0.003911,-0.039494,58.231537,30.645721,-145.390717,,,
729707040.81536,-1.384093,-0.628745,-26.753224,0.024948,-0.019196,0.969116,-0.077347,0.027468,-0.042066,58.231537,30.645721,-145.390717,,,
729707040.816921,-1.384085,-0.628711,117.156965,0.024948,-0.019196,0.969116,-0.077347,0.027468,-0.042066,58.231537,30.645721,-145.390717,,,
729707040.817655,-1.384093,-0.628745,-26.753224,0.024948,-0.019196,0.969116,-0.077347,0.027468,-0.042066,58.231537,30.645721,-145.390717,,,
729707040.820175,-1.406042,-0.620821,117.145649,0.015549,-0.031052,0.983109,-0.077347,0.027468,-0.042066,58.144592,30.55629,-145.684952,,,
729707040.822912,-1.406049,-0.620856,-26.764541,0.015549,-0.031052,0.983109,-0.077347,0.027468,-0.042066,58.144592,30.55629,-145.684952,,,
729707040.823555,-1.406042,-0.620821,117.145649,0.015549,-0.031052,0.983109,-0.077347,0.027468,-0.042066,58.144592,30.55629,-145.684952,,,
729707040.825744,-1.429335,-0.613195,-26.774281,0.015549,-0.031052,0.983109,-0.070152,0.035358,-0.030947,58.144592,30.55629,-145.684952,,,
729707040.826865,-1.429327,-0.61316,117.13589,0.015549,-0.031052,0.983109,-0.070152,0.035358,-0.030947,58.144592,30.55629,-145.684952,,,
729707040.827657,-1.429335,-0.613195,-26.774281,0.015549,-0.031052,0.983109,-0.070152,0.035358,-0.030947,58.144592,30.55629,-145.684952,,,
729707040.830172,-1.448102,-0.603933,117.128735,0.006989,-0.041672,0.985931,-0.070152,0.035358,-0.030947,58.144592,30.55629,-145.684952,,,
729707040.832454,-1.44811,-0.603968,-26.78144,0.006989,-0.041672,0.985931,-0.070152,0.035358,-0.030947,58.144592,30.55629,-145.684952,,,
729707040.833551,-1.448102,-0.603933,117.128735,0.006989,-0.041672,0.985931,-0.070152,0.035358,-0.030947,58.144592,30.55629,-145.684952,,,
729707040.835459,-1.464849,-0.596859,-26.785483,0.006989,-0.041672,0.985931,-0.042453,0.030528,-0.009294,58.144592,30.55629,-145.684952,,,
729707040.836848,-1.464842,-0.596825,117.124686,0.006989,-0.041672,0.985931,-0.042453,0.030528,-0.009294,58.144592,30.55629,-145.684952,,,
729707040.837654,-1.464849,-0.596859,-26.785483,0.006989,-0.041672,0.985931,-0.042453,0.030528,-0.009294,58.144592,30.55629,-145.684952,,,
729707040.840173,-1.474458,-0.589215,117.123781,0.004486,-0.05307,1.001053,-0.042453,0.030528,-0.009294,58.144592,30.55629,-145.684952,,,
729707040.842389,-1.474465,-0.589249,-26.786395,0.004486,-0.05307,1.001053,-0.042453,0.030528,-0.009294,58.144592,30.55629,-145.684952,,,
729707040.843503,-1.474458,-0.589215,117.123781,0.004486,-0.05307,1.001053,-0.042453,0.030528,-0.009294,58.144592,30.55629,-145.684952,,,
729707040.846253,-1.479958,-0.586134,-26.785009,0.004486,-0.05307,1.001053,-0.008117,0.016294,0.006753,58.144592,30.55629,-145.684952,,,
729707040.846867,-1.47995,-0.5861,117.125166,0.004486,-0.05307,1.001053,-0.008117,0.016294,0.006753,58.144592,30.55629,-145.684952,,,
729707040.847667,-1.479958,-0.586134,-26.785009,0.004486,-0.05307,1.001053,-0.008117,0.016294,0.006753,58.144592,30.55629,-145.684952,,,
729707040.850199,-1.480608,-0.584541,117.12745,0.011612,-0.049454,1.009445,-0.008117,0.016294,0.006753,58.144592,30.55629,-145.684952,,,
729707040.851997,-1.480615,-0.584575,-26.782726,0.011612,-0.049454,1.009445,-0.008117,0.016294,0.006753,58.144592,30.55629,-145.684952,,,
729707040.85352,-1.480608,-0.584541,117.12745,0.011612,-0.049454,1.009445,-0.008117,0.016294,0.006753,58.144592,30.55629,-145.684952,,,
729707040.856908,-1.477639,-0.590967,-26.781074,0.011612,-0.049454,1.009445,0.014858,-0.015528,0.002679,58.144592,30.55629,-145.684952,,,
729707040.857184,-1.477631,-0.590933,117.129104,0.011612,-0.049454,1.009445,0.014858,-0.015528,0.002679,58.144592,30.55629,-145.684952,,,
729707040.857631,-1.477639,-0.590967,-26.781074,0.011612,-0.049454,1.009445,0.014858,-0.015528,0.002679,58.144592,30.55629,-145.684952,,,
729707040.860287,-1.473307,-0.598292,117.129054,0.01915,-0.037094,1.001541,0.014858,-0.015528,0.002679,58.141556,30.796371,-145.79982,,,
729707040.862652,-1.473315,-0.598326,-26.781127,0.01915,-0.037094,1.001541,0.014858,-0.015528,0.002679,58.141556,30.796371,-145.79982,,,
729707040.863555,-1.473307,-0.598292,117.129054,0.01915,-0.037094,1.001541,0.014858,-0.015528,0.002679,58.141556,30.796371,-145.79982,,,
729707040.865959,-1.467681,-0.612297,-26.78454,0.01915,-0.037094,1.001541,0.013284,-0.035856,-0.020099,58.141556,30.796371,-145.79982,,,
729707040.86694,-1.467673,-0.612263,117.125636,0.01915,-0.037094,1.001541,0.013284,-0.035856,-0.020099,58.141556,30.796371,-145.79982,,,
729707040.867658,-1.467681,-0.612297,-26.78454,0.01915,-0.037094,1.001541,0.013284,-0.035856,-0.020099,58.141556,30.796371,-145.79982,,,
729707040.870182,-1.464803,-0.623161,117.11821,0.024414,-0.019699,0.999023,0.013284,-0.035856,-0.020099,58.141556,30.796371,-145.79982,,,
729707040.872078,-1.46481,-0.623195,-26.791969,0.024414,-0.019699,0.999023,0.013284,-0.035856,-0.020099,58.141556,30.796371,-145.79982,,,
729707040.873524,-1.464803,-0.623161,117.11821,0.024414,-0.019699,0.999023,0.013284,-0.035856,-0.020099,58.141556,30.796371,-145.79982,,,
729707040.876368,-1.461918,-0.638761,-26.803765,0.024414,-0.019699,0.999023,-0.004575,-0.024991,-0.0492,58.141556,30.796371,-145.79982,,,
729707040.876904,-1.46191,-0.638726,117.106423,0.024414,-0.019699,0.999023,-0.004575,-0.024991,-0.0492,58.141556,30.796371,-145.79982,,,
729707040.877674,-1.461918,-0.638761,-26.803765,0.024414,-0.019699,0.999023,-0.004575,-0.024991,-0.0492,58.141556,30.796371,-145.79982,,,
729707040.880185,-1.46481,-0.645477,117.090804,0.032028,-0.010925,0.999481,-0.004575,-0.024991,-0.0492,58.141556,30.796371,-145.79982,,,
729707040.882012,-1.464818,-0.645512,-26.819384,0.032028,-0.010925,0.999481,-0.004575,-0.024991,-0.0492,58.141556,30.796371,-145.79982,,,
729707040.883521,-1.46481,-0.645477,117.090804,0.032028,-0.010925,0.999481,-0.004575,-0.024991,-0.0492,58.141556,30.796371,-145.79982,,,
729707040.885773,-1.468893,-0.655373,-26.837973,0.032028,-0.010925,0.999481,-0.029736,-0.004763,-0.068551,58.141556,30.796371,-145.79982,,,
729707040.886878,-1.468886,-0.655339,117.072199,0.032028,-0.010925,0.999481,-0.029736,-0.004763,-0.068551,58.141556,30.796371,-145.79982,,,
729707040.887667,-1.468893,-0.655373,-26.837973,0.032028,-0.010925,0.999481,-0.029736,-0.004763,-0.068551,58.141556,30.796371,-145.79982,,,
729707040.890183,-1.47971,-0.656209,117.052131,0.027176,-0.013626,0.989883,-0.029736,-0.004763,-0.068551,58.141556,30.796371,-145.79982,,,
729707040.891747,-1.479718,-0.656243,-26.858046,0.027176,-0.013626,0.989883,-0.029736,-0.004763,-0.068551,58.141556,30.796371,-145.79982,,,
729707040.893616,-1.47971,-0.656209,117.052131,0.027176,-0.013626,0.989883,-0.029736,-0.004763,-0.068551,58.141556,30.796371,-145.79982,,,
729707040.896496,-1.495144,-0.658012,-26.879513,0.027176,-0.013626,0.989883,-0.061912,0.010549,-0.077284,58.141556,30.796371,-145.79982,,,
729707040.896898,-1.495137,-0.657977,117.03067,0.027176,-0.013626,0.989883,-0.061912,0.010549,-0.077284,58.141556,30.796371,-145.79982,,,
729707040.897679,-1.495144,-0.658012,-26.879513,0.027176,-0.013626,0.989883,-0.061912,0.010549,-0.077284,58.141556,30.796371,-145.79982,,,
729707040.900227,-1.515805,-0.655551,117.008457,0.02684,-0.015717,0.981155,-0.061912,0.010549,-0.077284,58.141556,30.796371,-145.79982,,,
729707040.902366,-1.515813,-0.655586,-26.90172,0.02684,-0.015717,0.981155,-0.061912,0.010549,-0.077284,58.198151,30.783295,-145.804947,,,
729707040.903531,-1.515805,-0.655551,117.008457,0.02684,-0.015717,0.981155,-0.061912,0.010549,-0.077284,58.198151,30.783295,-145.804947,,,
729707040.905559,-1.544637,-0.651764,-26.924192,0.02684,-0.015717,0.981155,-0.099805,0.019266,-0.078745,58.198151,30.783295,-145.804947,,,
729707040.906883,-1.54463,-0.65173,116.98598,0.02684,-0.015717,0.981155,-0.099805,0.019266,-0.078745,58.198151,30.783295,-145.804947,,,
729707040.90767,-1.544637,-0.651764,-26.924192,0.02684,-0.015717,0.981155,-0.099805,0.019266,-0.078745,58.198151,30.783295,-145.804947,,,
729707040.910195,-1.574798,-0.646686,116.962838,0.021713,-0.017059,0.980087,-0.099805,0.019266,-0.078745,58.198151,30.783295,-145.804947,,,
729707040.911765,-1.574806,-0.64672,-26.947333,0.021713,-0.017059,0.980087,-0.099805,0.019266,-0.078745,58.198151,30.783295,-145.804947,,,
729707040.913526,-1.574798,-0.646686,116.962838,0.021713,-0.017059,0.980087,-0.099805,0.019266,-0.078745,58.198151,30.783295,-145.804947,,,
729707040.915711,-1.61191,-0.637304,-26.970979,0.021713,-0.017059,0.980087,-0.113197,0.035509,-0.082518,58.198151,30.783295,-145.804947,,,
729707040.916873,-1.611902,-0.63727,116.939202,0.021713,-0.017059,0.980087,-0.113197,0.035509,-0.082518,58.198151,30.783295,-145.804947,,,
729707040.917673,-1.61191,-0.637304,-26.970979,0.021713,-0.017059,0.980087,-0.113197,0.035509,-0.082518,58.198151,30.783295,-145.804947,,,
729707040.920196,-1.643823,-0.626642,116.915932,0.012787,-0.022659,0.994156,-0.113197,0.035509,-0.082518,58.198151,30.783295,-145.804947,,,
729707040.922244,-1.64383,-0.626676,-26.994243,0.012787,-0.022659,0.994156,-0.113197,0.035509,-0.082518,58.198151,30.783295,-145.804947,,,
729707040.923551,-1.643823,-0.626642,116.915932,0.012787,-0.022659,0.994156,-0.113197,0.035509,-0.082518,58.198151,30.783295,-145.804947,,,
729707040.925803,-1.678916,-0.612275,-27.016014,0.012787,-0.022659,0.994156,-0.092877,0.053228,-0.072559,58.198151,30.783295,-145.804947,,,
729707040.926933,-1.678909,-0.612241,116.894163,0.012787,-0.022659,0.994156,-0.092877,0.053228,-0.072559,58.198151,30.783295,-145.804947,,,
729707040.92767,-1.678916,-0.612275,-27.016014,0.012787,-0.022659,0.994156,-0.092877,0.053228,-0.072559,58.198151,30.783295,-145.804947,,,
729707040.930192,-1.702023,-0.598857,116.875798,0.001343,-0.039154,1.016998,-0.092877,0.053228,-0.072559,58.198151,30.783295,-145.804947,,,
729707040.93239,-1.702031,-0.598891,-27.034379,0.001343,-0.039154,1.016998,-0.092877,0.053228,-0.072559,58.198151,30.783295,-145.804947,,,
729707040.933561,-1.702023,-0.598857,116.875798,0.001343,-0.039154,1.016998,-0.092877,0.053228,-0.072559,58.198151,30.783295,-145.804947,,,
729707040.935725,-1.721745,-0.588694,-27.048651,0.001343,-0.039154,1.016998,-0.041883,0.041513,-0.044269,58.198151,30.783295,-145.804947,,,
729707040.936863,-1.721737,-0.588659,116.861529,0.001343,-0.039154,1.016998,-0.041883,0.041513,-0.044269,58.198151,30.783295,-145.804947,,,
729707040.937673,-1.721745,-0.588694,-27.048651,0.001343,-0.039154,1.016998,-0.041883,0.041513,-0.044269,58.198151,30.783295,-145.804947,,,
729707040.940186,-1.728848,-0.579577,116.851537,-0.003128,-0.05481,1.025467,-0.041883,0.041513,-0.044269,58.198151,30.783295,-145.804947,,,
729707040.944047,-1.728856,-0.579611,-27.058641,-0.003128,-0.05481,1.025467,-0.041883,0.041513,-0.044269,58.170609,30.782593,-145.75174,,,
729707040.944524,-1.72601,-0.576945,116.84577,-0.003128,-0.05481,1.025467,0.023272,0.020531,-0.014705,58.170609,30.782593,-145.75174,,,
729707040.946844,-1.72601,-0.576945,116.84577,-0.003128,-0.05481,1.025467,0.023272,0.020531,-0.014705,58.170609,30.782593,-145.75174,,,
729707040.949312,-1.726018,-0.576979,-27.064404,-0.003128,-0.05481,1.025467,0.023272,0.020531,-0.014705,58.170609,30.782593,-145.75174,,,
729707040.950248,-1.71587,-0.573035,116.843097,-0.003052,-0.054092,1.029434,0.023272,0.020531,-0.014705,58.170609,30.782593,-145.75174,,,
729707040.951896,-1.715877,-0.573069,-27.067078,-0.003052,-0.054092,1.029434,0.023272,0.020531,-0.014705,58.170609,30.782593,-145.75174,,,
729707040.953591,-1.71587,-0.573035,116.843097,-0.003052,-0.054092,1.029434,0.023272,0.020531,-0.014705,58.170609,30.782593,-145.75174,,,
729707040.956665,-1.695217,-0.577237,-27.06738,-0.003052,-0.054092,1.029434,0.06738,0.007197,0.002662,58.170609,30.782593,-145.75174,,,
729707040.95695,-1.69521,-0.577203,116.842802,-0.003052,-0.054092,1.029434,0.06738,0.007197,0.002662,58.170609,30.782593,-145.75174,,,
729707040.957694,-1.695217,-0.577237,-27.06738,-0.003052,-0.054092,1.029434,0.06738,0.007197,0.002662,58.170609,30.782593,-145.75174,,,
729707040.96029,-1.674647,-0.575375,116.843989,-0.0009,-0.041122,1.0289,0.06738,0.007197,0.002662,58.170609,30.782593,-145.75174,,,
729707040.961656,-1.674655,-0.575409,-27.066198,-0.0009,-0.041122,1.0289,0.06738,0.007197,0.002662,58.170609,30.782593,-145.75174,,,
729707040.963565,-1.674647,-0.575375,116.843989,-0.0009,-0.041122,1.0289,0.06738,0.007197,0.002662,58.170609,30.782593,-145.75174,,,
729707040.965187,-1.647741,-0.578652,-27.06524,-0.0009,-0.041122,1.0289,0.078415,0.017828,0.002313,58.170609,30.782593,-145.75174,,,
729707040.966937,-1.647734,-0.578618,116.844933,-0.0009,-0.041122,1.0289,0.078415,0.017828,0.002313,58.170609,30.782593,-145.75174,,,
729707040.967677,-1.647741,-0.578652,-27.06524,-0.0009,-0.041122,1.0289,0.078415,0.017828,0.002313,58.170609,30.782593,-145.75174,,,
729707040.970236,-1.625865,-0.572798,116.845172,0.003265,-0.026962,1.022949,0.078415,0.017828,0.002313,58.170609,30.782593,-145.75174,,,
729707040.973197,-1.625873,-0.572833,-27.065007,0.003265,-0.026962,1.022949,0.078415,0.017828,0.002313,58.170609,30.782593,-145.75174,,,
729707040.973544,-1.625865,-0.572798,116.845172,0.003265,-0.026962,1.022949,0.078415,0.017828,0.002313,58.170609,30.782593,-145.75174,,,
