Time (sec),Pitch (deg),Roll (deg),Yaw(deg),X-Acceleration (g),Y-Acceleration (g),Z-Acceleration (g),Pitch Rate (deg/sec),Roll Rate (deg/sec),Yaw Rate (deg/sec),Magnetic Field in X direction (uT),Magnetic Field in Y direction (uT),Magnetic Field in Z Direction (uT),Latitude (deg),Longitude (deg),Altitude (m)
729716825.645069,-5.556148,3.497548,138.218055,-0.064255,-0.092346,0.988449,-0.033417,-0.035281,-0.036363,91.143616,40.895691,-146.253952,,,
729716825.647576,-5.556149,3.497548,99.604849,-0.064255,-0.092346,0.988449,-0.033417,-0.035281,-0.036363,91.143616,40.895691,-146.253952,,,
729716825.647814,-5.556148,3.49755,102.6817,-0.064255,-0.092346,0.988449,-0.033417,-0.035281,-0.036363,91.143616,40.895691,-146.253952,,,
729716825.648452,-5.556148,3.497548,138.218055,-0.064255,-0.092346,0.988449,-0.033417,-0.035281,-0.036363,91.143616,40.895691,-146.253952,,,
729716825.65178,-5.564335,3.481574,99.594693,-0.064758,-0.094559,0.998444,-0.02269,-0.050121,-0.039078,91.143616,40.895691,-146.253952,,,
729716825.652757,-5.564333,3.481577,102.671544,-0.064758,-0.094559,0.998444,-0.02269,-0.050121,-0.039078,91.143616,40.895691,-146.253952,,,
729716825.652856,-5.564333,3.481574,138.207898,-0.064758,-0.094559,0.998444,-0.02269,-0.050121,-0.039078,91.143616,40.895691,-146.253952,,,
729716825.654455,-5.571141,3.464368,99.583994,-0.064758,-0.094559,0.998444,-0.02269,-0.050121,-0.039078,91.143616,40.895691,-146.253952,,,
729716825.655005,-5.57114,3.464371,102.660845,-0.064758,-0.094559,0.998444,-0.02269,-0.050121,-0.039078,91.143616,40.895691,-146.253952,,,
729716825.655124,-5.57114,3.464368,138.197195,-0.064758,-0.094559,0.998444,-0.02269,-0.050121,-0.039078,91.143616,40.895691,-146.253952,,,
729716825.65756,-5.571141,3.464368,99.583994,-0.064758,-0.094559,0.998444,-0.02269,-0.050121,-0.039078,91.143616,40.895691,-146.253952,,,
729716825.65778,-5.57114,3.464371,102.660845,-0.064758,-0.094559,0.998444,-0.02269,-0.050121,-0.039078,91.143616,40.895691,-146.253952,,,
729716825.658455,-5.57114,3.464368,138.197195,-0.064758,-0.094559,0.998444,-0.02269,-0.050121,-0.039078,91.143616,40.895691,-146.253952,,,
729716825.662086,-5.5762,3.448725,99.573044,-0.065979,-0.100281,1.005356,-0.010374,-0.04664,-0.04074,91.143616,40.895691,-146.253952,,,
729716825.663239,-5.576199,3.448728,102.649895,-0.065979,-0.100281,1.005356,-0.010374,-0.04664,-0.04074,91.143616,40.895691,-146.253952,,,
729716825.663343,-5.576199,3.448726,138.186247,-0.065979,-0.100281,1.005356,-0.010374,-0.04664,-0.04074,91.143616,40.895691,-146.253952,,,
729716825.664227,-5.579291,3.434009,99.562155,-0.065979,-0.100281,1.005356,-0.010374,-0.04664,-0.04074,91.143616,40.895691,-146.253952,,,
729716825.664693,-5.579289,3.434011,102.639006,-0.065979,-0.100281,1.005356,-0.010374,-0.04664,-0.04074,91.143616,40.895691,-146.253952,,,
729716825.66509,-5.579289,3.434009,138.175358,-0.065979,-0.100281,1.005356,-0.010374,-0.04664,-0.04074,91.143616,40.895691,-146.253952,,,
729716825.667564,-5.579291,3.434009,99.562155,-0.065979,-0.100281,1.005356,-0.010374,-0.04664,-0.04074,91.143616,40.895691,-146.253952,,,
729716825.667793,-5.579289,3.434011,102.639006,-0.065979,-0.100281,1.005356,-0.010374,-0.04664,-0.04074,91.143616,40.895691,-146.253952,,,
729716825.668451,-5.579289,3.434009,138.175358,-0.065979,-0.100281,1.005356,-0.010374,-0.04664,-0.04074,91.143616,40.895691,-146.253952,,,
729716825.672022,-5.582018,3.422696,99.552812,-0.06546,-0.104126,1.009384,-0.006009,-0.029597,-0.030334,91.126892,40.797531,-146.236084,,,
729716825.67334,-5.582016,3.422699,102.629663,-0.06546,-0.104126,1.009384,-0.006009,-0.029597,-0.030334,91.126892,40.797531,-146.236084,,,
729716825.673508,-5.582016,3.422696,138.166014,-0.06546,-0.104126,1.009384,-0.006009,-0.029597,-0.030334,91.126892,40.797531,-146.236084,,,
729716825.674211,-5.583681,3.413518,99.545951,-0.06546,-0.104126,1.009384,-0.006009,-0.029597,-0.030334,91.126892,40.797531,-146.236084,,,
729716825.674855,-5.583679,3.413521,102.622802,-0.06546,-0.104126,1.009384,-0.006009,-0.029597,-0.030334,91.126892,40.797531,-146.236084,,,
729716825.675117,-5.583679,3.413519,138.159157,-0.06546,-0.104126,1.009384,-0.006009,-0.029597,-0.030334,91.126892,40.797531,-146.236084,,,
729716825.677607,-5.583681,3.413518,99.545951,-0.06546,-0.104126,1.009384,-0.006009,-0.029597,-0.030334,91.126892,40.797531,-146.236084,,,
729716825.677811,-5.583679,3.413521,102.622802,-0.06546,-0.104126,1.009384,-0.006009,-0.029597,-0.030334,91.126892,40.797531,-146.236084,,,
729716825.678448,-5.583679,3.413519,138.159157,-0.06546,-0.104126,1.009384,-0.006009,-0.029597,-0.030334,91.126892,40.797531,-146.236084,,,
729716825.681765,-5.586048,3.407436,99.5421,-0.069962,-0.107788,1.01059,-0.006813,-0.012282,-0.009816,91.126892,40.797531,-146.236084,,,
729716825.682672,-5.586046,3.407438,102.618951,-0.069962,-0.107788,1.01059,-0.006813,-0.012282,-0.009816,91.126892,40.797531,-146.236084,,,
729716825.682815,-5.586046,3.407436,138.155305,-0.069962,-0.107788,1.01059,-0.006813,-0.012282,-0.009816,91.126892,40.797531,-146.236084,,,
729716825.684346,-5.586404,3.402708,99.541378,-0.069962,-0.107788,1.01059,-0.006813,-0.012282,-0.009816,91.126892,40.797531,-146.236084,,,
729716825.68478,-5.586402,3.402711,102.618229,-0.069962,-0.107788,1.01059,-0.006813,-0.012282,-0.009816,91.126892,40.797531,-146.236084,,,
729716825.685112,-5.586402,3.402708,138.154583,-0.069962,-0.107788,1.01059,-0.006813,-0.012282,-0.009816,91.126892,40.797531,-146.236084,,,
729716825.687564,-5.586404,3.402708,99.541378,-0.069962,-0.107788,1.01059,-0.006813,-0.012282,-0.009816,91.126892,40.797531,-146.236084,,,
729716825.687782,-5.586402,3.402711,102.618229,-0.069962,-0.107788,1.01059,-0.006813,-0.012282,-0.009816,91.126892,40.797531,-146.236084,,,
729716825.688452,-5.586402,3.402708,138.154583,-0.069962,-0.107788,1.01059,-0.006813,-0.012282,-0.009816,91.126892,40.797531,-146.236084,,,
729716825.691924,-5.587885,3.400277,99.543405,-0.071899,-0.111618,1.00824,-0.007172,-0.002133,0.008883,91.126892,40.797531,-146.236084,,,
729716825.693097,-5.587884,3.400279,102.620256,-0.071899,-0.111618,1.00824,-0.007172,-0.002133,0.008883,91.126892,40.797531,-146.236084,,,
729716825.693254,-5.587884,3.400277,138.156611,-0.071899,-0.111618,1.00824,-0.007172,-0.002133,0.008883,91.126892,40.797531,-146.236084,,,
729716825.694213,-5.588017,3.399195,99.547516,-0.071899,-0.111618,1.00824,-0.007172,-0.002133,0.008883,91.126892,40.797531,-146.236084,,,
729716825.694482,-5.588015,3.399198,102.624367,-0.071899,-0.111618,1.00824,-0.007172,-0.002133,0.008883,91.126892,40.797531,-146.236084,,,
729716825.695119,-5.588015,3.399195,138.160721,-0.071899,-0.111618,1.00824,-0.007172,-0.002133,0.008883,91.126892,40.797531,-146.236084,,,
729716825.697661,-5.588017,3.399195,99.547516,-0.071899,-0.111618,1.00824,-0.007172,-0.002133,0.008883,91.126892,40.797531,-146.236084,,,
729716825.697858,-5.588015,3.399198,102.624367,-0.071899,-0.111618,1.00824,-0.007172,-0.002133,0.008883,91.126892,40.797531,-146.236084,,,
729716825.698443,-5.588015,3.399195,138.160721,-0.071899,-0.111618,1.00824,-0.007172,-0.002133,0.008883,91.126892,40.797531,-146.236084,,,
729716825.702373,-5.58865,3.400374,99.552445,-0.068619,-0.107422,1.008972,-0.001034,0.009951,0.014621,91.126892,40.797531,-146.236084,,,
729716825.704179,-5.588649,3.400376,102.629296,-0.068619,-0.107422,1.008972,-0.001034,0.009951,0.014621,91.126892,40.797531,-146.236084,,,
729716825.704388,-5.586586,3.403557,138.170021,-0.068619,-0.107422,1.008972,-0.001034,0.009951,0.014621,91.126892,40.797531,-146.236084,,,
729716825.704776,-5.586588,3.403556,99.556815,-0.068619,-0.107422,1.008972,-0.001034,0.009951,0.014621,91.126892,40.797531,-146.236084,,,
729716825.704957,-5.586586,3.403559,102.633666,-0.068619,-0.107422,1.008972,-0.001034,0.009951,0.014621,91.126892,40.797531,-146.236084,,,
729716825.7051,-5.586586,3.403557,138.170021,-0.068619,-0.107422,1.008972,-0.001034,0.009951,0.014621,91.126892,40.797531,-146.236084,,,
729716825.707555,-5.586588,3.403556,99.556815,-0.068619,-0.107422,1.008972,-0.001034,0.009951,0.014621,91.126892,40.797531,-146.236084,,,
729716825.707784,-5.586586,3.403559,102.633666,-0.068619,-0.107422,1.008972,-0.001034,0.009951,0.014621,91.126892,40.797531,-146.236084,,,
729716825.708457,-5.586586,3.403557,138.170021,-0.068619,-0.107422,1.008972,-0.001034,0.009951,0.014621,91.126892,40.797531,-146.236084,,,
729716825.712849,-5.584189,3.407022,99.560619,-0.069992,-0.102432,1.006989,0.011663,0.014596,0.011667,91.162292,40.738129,-146.081223,,,
729716825.715076,-5.584188,3.407025,102.63747,-0.069992,-0.102432,1.006989,0.011663,0.014596,0.011667,91.162292,40.738129,-146.081223,,,
729716825.715256,-5.579301,3.411312,138.17699,-0.069992,-0.102432,1.006989,0.011663,0.014596,0.011667,91.162292,40.738129,-146.081223,,,
729716825.715672,-5.579303,3.411312,99.563783,-0.069992,-0.102432,1.006989,0.011663,0.014596,0.011667,91.162292,40.738129,-146.081223,,,
729716825.717489,-5.579303,3.411312,99.563783,-0.069992,-0.102432,1.006989,0.011663,0.014596,0.011667,91.162292,40.738129,-146.081223,,,
729716825.717808,-5.579301,3.411315,102.640634,-0.069992,-0.102432,1.006989,0.011663,0.014596,0.011667,91.162292,40.738129,-146.081223,,,
729716825.718451,-5.579301,3.411312,138.17699,-0.069992,-0.102432,1.006989,0.011663,0.014596,0.011667,91.162292,40.738129,-146.081223,,,
729716825.721628,-5.573805,3.413985,99.565503,-0.068451,-0.100067,1.005905,0.021568,0.008663,0.002608,91.162292,40.738129,-146.081223,,,
729716825.722397,-5.573804,3.413988,102.642354,-0.068451,-0.100067,1.005905,0.021568,0.008663,0.002608,91.162292,40.738129,-146.081223,,,
729716825.722536,-5.573804,3.413985,138.178709,-0.068451,-0.100067,1.005905,0.021568,0.008663,0.002608,91.162292,40.738129,-146.081223,,,
729716825.724375,-5.566385,3.415387,99.565934,-0.068451,-0.100067,1.005905,0.021568,0.008663,0.002608,91.162292,40.738129,-146.081223,,,
729716825.724814,-5.566384,3.415389,102.642785,-0.068451,-0.100067,1.005905,0.021568,0.008663,0.002608,91.162292,40.738129,-146.081223,,,
729716825.72514,-5.566384,3.415387,138.179138,-0.068451,-0.100067,1.005905,0.021568,0.008663,0.002608,91.162292,40.738129,-146.081223,,,
729716825.727603,-5.566385,3.415387,99.565934,-0.068451,-0.100067,1.005905,0.021568,0.008663,0.002608,91.162292,40.738129,-146.081223,,,
729716825.727887,-5.566384,3.415389,102.642785,-0.068451,-0.100067,1.005905,0.021568,0.008663,0.002608,91.162292,40.738129,-146.081223,,,
729716825.728472,-5.566384,3.415387,138.179138,-0.068451,-0.100067,1.005905,0.021568,0.008663,0.002608,91.162292,40.738129,-146.081223,,,
729716825.733154,-5.558423,3.413295,99.565904,-0.065903,-0.097687,0.998108,0.029958,-0.009766,0.00043,91.162292,40.738129,-146.081223,,,
729716825.735016,-5.558422,3.413298,102.642755,-0.065903,-0.097687,0.998108,0.029958,-0.009766,0.00043,91.162292,40.738129,-146.081223,,,
729716825.735182,-5.550098,3.409162,138.179026,-0.065903,-0.097687,0.998108,0.029958,-0.009766,0.00043,91.162292,40.738129,-146.081223,,,
729716825.735629,-5.5501,3.409162,99.56582,-0.065903,-0.097687,0.998108,0.029958,-0.009766,0.00043,91.162292,40.738129,-146.081223,,,
729716825.737481,-5.5501,3.409162,99.56582,-0.065903,-0.097687,0.998108,0.029958,-0.009766,0.00043,91.162292,40.738129,-146.081223,,,
729716825.738058,-5.550098,3.409164,102.642671,-0.065903,-0.097687,0.998108,0.029958,-0.009766,0.00043,91.162292,40.738129,-146.081223,,,
729716825.738455,-5.550098,3.409162,138.179026,-0.065903,-0.097687,0.998108,0.029958,-0.009766,0.00043,91.162292,40.738129,-146.081223,,,
729716825.742851,-5.541966,3.401959,99.564807,-0.062454,-0.094513,0.989273,0.028221,-0.024258,-0.005514,91.162292,40.738129,-146.081223,,,
729716825.744866,-5.541964,3.401962,102.641658,-0.062454,-0.094513,0.989273,0.028221,-0.024258,-0.005514,91.162292,40.738129,-146.081223,,,
729716825.745042,-5.535257,3.393981,138.175888,-0.062454,-0.094513,0.989273,0.028221,-0.024258,-0.005514,91.162292,40.738129,-146.081223,,,
729716825.745488,-5.535259,3.393981,99.562683,-0.062454,-0.094513,0.989273,0.028221,-0.024258,-0.005514,91.162292,40.738129,-146.081223,,,
729716825.747513,-5.535259,3.393981,99.562683,-0.062454,-0.094513,0.989273,0.028221,-0.024258,-0.005514,91.162292,40.738129,-146.081223,,,
729716825.748061,-5.535257,3.393984,102.639534,-0.062454,-0.094513,0.989273,0.028221,-0.024258,-0.005514,91.162292,40.738129,-146.081223,,,
729716825.748458,-5.535257,3.393981,138.175888,-0.062454,-0.094513,0.989273,0.028221,-0.024258,-0.005514,91.162292,40.738129,-146.081223,,,
729716825.751678,-5.528893,3.384635,99.559384,-0.059586,-0.089813,0.98761,0.021645,-0.028405,-0.013601,91.162292,40.738129,-146.081223,,,
729716825.753104,-5.528892,3.384638,102.636235,-0.059586,-0.089813,0.98761,0.021645,-0.028405,-0.013601,91.048569,40.821732,-146.311691,,,
729716825.753272,-5.528892,3.384635,138.172589,-0.059586,-0.089813,0.98761,0.021645,-0.028405,-0.013601,91.048569,40.821732,-146.311691,,,
729716825.754483,-5.528893,3.384635,99.559384,-0.059586,-0.089813,0.98761,0.021645,-0.028405,-0.013601,91.048569,40.821732,-146.311691,,,
729716825.754867,-5.525128,3.37654,102.632413,-0.059586,-0.089813,0.98761,0.021645,-0.028405,-0.013601,91.048569,40.821732,-146.311691,,,
729716825.755083,-5.525128,3.376537,138.168765,-0.059586,-0.089813,0.98761,0.021645,-0.028405,-0.013601,91.048569,40.821732,-146.311691,,,
729716825.757566,-5.52513,3.376537,99.555562,-0.059586,-0.089813,0.98761,0.021645,-0.028405,-0.013601,91.048569,40.821732,-146.311691,,,
729716825.757779,-5.525128,3.37654,102.632413,-0.059586,-0.089813,0.98761,0.021645,-0.028405,-0.013601,91.048569,40.821732,-146.311691,,,
729716825.758454,-5.525128,3.376537,138.168765,-0.059586,-0.089813,0.98761,0.021645,-0.028405,-0.013601,91.048569,40.821732,-146.311691,,,
729716825.762078,-5.521747,3.367774,99.551341,-0.056213,-0.087296,0.984253,0.010588,-0.024065,-0.016137,91.048569,40.821732,-146.311691,,,
729716825.763341,-5.521745,3.367777,102.628192,-0.056213,-0.087296,0.984253,0.010588,-0.024065,-0.016137,91.048569,40.821732,-146.311691,,,
729716825.763486,-5.521745,3.367774,138.164544,-0.056213,-0.087296,0.984253,0.010588,-0.024065,-0.016137,91.048569,40.821732,-146.311691,,,
729716825.76399,-5.521747,3.367774,99.551341,-0.056213,-0.087296,0.984253,0.010588,-0.024065,-0.016137,91.048569,40.821732,-146.311691,,,
729716825.764884,-5.521873,3.362016,102.623881,-0.056213,-0.087296,0.984253,0.010588,-0.024065,-0.016137,91.048569,40.821732,-146.311691,,,
729716825.765109,-5.521873,3.362013,138.160233,-0.056213,-0.087296,0.984253,0.010588,-0.024065,-0.016137,91.048569,40.821732,-146.311691,,,
729716825.767805,-5.521875,3.362013,99.547031,-0.056213,-0.087296,0.984253,0.010588,-0.024065,-0.016137,91.048569,40.821732,-146.311691,,,
729716825.768005,-5.521873,3.362016,102.623881,-0.056213,-0.087296,0.984253,0.010588,-0.024065,-0.016137,91.048569,40.821732,-146.311691,,,
729716825.768423,-5.521873,3.362013,138.160233,-0.056213,-0.087296,0.984253,0.010588,-0.024065,-0.016137,91.048569,40.821732,-146.311691,,,
729716825.772466,-5.521521,3.355623,99.543086,-0.052872,-0.084854,0.985916,-9.3e-05,-0.015978,-0.013013,91.048569,40.821732,-146.311691,,,
729716825.774094,-5.521519,3.355626,102.619936,-0.052872,-0.084854,0.985916,-9.3e-05,-0.015978,-0.013013,91.048569,40.821732,-146.311691,,,
729716825.774253,-5.52398,3.352032,138.153562,-0.052872,-0.084854,0.985916,-9.3e-05,-0.015978,-0.013013,91.048569,40.821732,-146.311691,,,
729716825.774707,-5.523982,3.352032,99.540358,-0.052872,-0.084854,0.985916,-9.3e-05,-0.015978,-0.013013,91.048569,40.821732,-146.311691,,,
729716825.775078,-5.52398,3.352035,102.617209,-0.052872,-0.084854,0.985916,-9.3e-05,-0.015978,-0.013013,91.048569,40.821732,-146.311691,,,
729716825.775178,-5.52398,3.352032,138.153562,-0.052872,-0.084854,0.985916,-9.3e-05,-0.015978,-0.013013,91.048569,40.821732,-146.311691,,,
729716825.777525,-5.523982,3.352032,99.540358,-0.052872,-0.084854,0.985916,-9.3e-05,-0.015978,-0.013013,91.048569,40.821732,-146.311691,,,
729716825.777747,-5.52398,3.352035,102.617209,-0.052872,-0.084854,0.985916,-9.3e-05,-0.015978,-0.013013,91.048569,40.821732,-146.311691,,,
729716825.77842,-5.52398,3.352032,138.153562,-0.052872,-0.084854,0.985916,-9.3e-05,-0.015978,-0.013013,91.048569,40.821732,-146.311691,,,
729716825.781605,-5.525987,3.349205,99.538046,-0.048035,-0.089615,0.98587,-0.008138,-0.00068,-0.009631,91.048569,40.821732,-146.311691,,,
729716825.782663,-5.525985,3.349207,102.614897,-0.048035,-0.089615,0.98587,-0.008138,-0.00068,-0.009631,91.048569,40.821732,-146.311691,,,
729716825.782809,-5.525985,3.349205,138.15125,-0.048035,-0.089615,0.98587,-0.008138,-0.00068,-0.009631,91.048569,40.821732,-146.311691,,,
729716825.784048,-5.525987,3.349205,99.538046,-0.048035,-0.089615,0.98587,-0.008138,-0.00068,-0.009631,91.048569,40.821732,-146.311691,,,
729716825.78443,-5.529747,3.350152,102.613533,-0.048035,-0.089615,0.98587,-0.008138,-0.00068,-0.009631,91.048569,40.821732,-146.311691,,,
729716825.785085,-5.529747,3.350149,138.149886,-0.048035,-0.089615,0.98587,-0.008138,-0.00068,-0.009631,91.048569,40.821732,-146.311691,,,
729716825.787558,-5.529748,3.350149,99.536682,-0.048035,-0.089615,0.98587,-0.008138,-0.00068,-0.009631,91.048569,40.821732,-146.311691,,,
729716825.787779,-5.529747,3.350152,102.613533,-0.048035,-0.089615,0.98587,-0.008138,-0.00068,-0.009631,91.048569,40.821732,-146.311691,,,
729716825.78845,-5.529747,3.350149,138.149886,-0.048035,-0.089615,0.98587,-0.008138,-0.00068,-0.009631,91.048569,40.821732,-146.311691,,,
729716825.791889,-5.532891,3.350809,99.536237,-0.050491,-0.092468,0.986008,-0.010306,0.006872,-0.002393,91.048569,40.821732,-146.311691,,,
729716825.792941,-5.532889,3.350811,102.613088,-0.050491,-0.092468,0.986008,-0.010306,0.006872,-0.002393,91.048569,40.821732,-146.311691,,,
729716825.793045,-5.532889,3.350809,138.14944,-0.050491,-0.092468,0.986008,-0.010306,0.006872,-0.002393,91.048569,40.821732,-146.311691,,,
729716825.794345,-5.532891,3.350809,99.536237,-0.050491,-0.092468,0.986008,-0.010306,0.006872,-0.002393,91.150467,40.736572,-146.367325,,,
729716825.794998,-5.536258,3.353481,102.61343,-0.050491,-0.092468,0.986008,-0.010306,0.006872,-0.002393,91.150467,40.736572,-146.367325,,,
729716825.795126,-5.536258,3.353478,138.149782,-0.050491,-0.092468,0.986008,-0.010306,0.006872,-0.002393,91.150467,40.736572,-146.367325,,,
729716825.797861,-5.536259,3.353478,99.536579,-0.050491,-0.092468,0.986008,-0.010306,0.006872,-0.002393,91.150467,40.736572,-146.367325,,,
729716825.798078,-5.536258,3.353481,102.61343,-0.050491,-0.092468,0.986008,-0.010306,0.006872,-0.002393,91.150467,40.736572,-146.367325,,,
729716825.798422,-5.536258,3.353478,138.149782,-0.050491,-0.092468,0.986008,-0.010306,0.006872,-0.002393,91.150467,40.736572,-146.367325,,,
729716825.802221,-5.538305,3.354306,99.538377,-0.050415,-0.096176,0.983032,-0.005165,0.003097,0.00901,91.150467,40.736572,-146.367325,,,
729716825.803849,-5.538303,3.354309,102.615228,-0.050415,-0.096176,0.983032,-0.005165,0.003097,0.00901,91.150467,40.736572,-146.367325,,,
729716825.804013,-5.538303,3.354306,138.15158,-0.050415,-0.096176,0.983032,-0.005165,0.003097,0.00901,91.150467,40.736572,-146.367325,,,
729716825.804483,-5.539327,3.355905,99.541037,-0.050415,-0.096176,0.983032,-0.005165,0.003097,0.00901,91.150467,40.736572,-146.367325,,,
729716825.804797,-5.539325,3.355908,102.617888,-0.050415,-0.096176,0.983032,-0.005165,0.003097,0.00901,91.150467,40.736572,-146.367325,,,
729716825.805066,-5.539325,3.355905,138.154241,-0.050415,-0.096176,0.983032,-0.005165,0.003097,0.00901,91.150467,40.736572,-146.367325,,,
729716825.807565,-5.539327,3.355905,99.541037,-0.050415,-0.096176,0.983032,-0.005165,0.003097,0.00901,91.150467,40.736572,-146.367325,,,
729716825.807781,-5.539325,3.355908,102.617888,-0.050415,-0.096176,0.983032,-0.005165,0.003097,0.00901,91.150467,40.736572,-146.367325,,,
729716825.808458,-5.539325,3.355905,138.154241,-0.050415,-0.096176,0.983032,-0.005165,0.003097,0.00901,91.150467,40.736572,-146.367325,,,
729716825.811389,-5.539695,3.355803,99.542886,-0.054718,-0.097565,0.986542,-0.001197,0.000581,0.004455,91.150467,40.736572,-146.367325,,,
729716825.812079,-5.539693,3.355806,102.619737,-0.054718,-0.097565,0.986542,-0.001197,0.000581,0.004455,91.150467,40.736572,-146.367325,,,
729716825.812248,-5.539693,3.355803,138.15609,-0.054718,-0.097565,0.986542,-0.001197,0.000581,0.004455,91.150467,40.736572,-146.367325,,,
729716825.814191,-5.539695,3.355678,99.544732,-0.054718,-0.097565,0.986542,-0.001197,0.000581,0.004455,91.150467,40.736572,-146.367325,,,
729716825.814453,-5.540208,3.355681,102.621583,-0.054718,-0.097565,0.986542,-0.001197,0.000581,0.004455,91.150467,40.736572,-146.367325,,,
729716825.81512,-5.540208,3.355679,138.157936,-0.054718,-0.097565,0.986542,-0.001197,0.000581,0.004455,91.150467,40.736572,-146.367325,,,
729716825.817556,-5.540209,3.355678,99.544732,-0.054718,-0.097565,0.986542,-0.001197,0.000581,0.004455,91.150467,40.736572,-146.367325,,,
729716825.81778,-5.540208,3.355681,102.621583,-0.054718,-0.097565,0.986542,-0.001197,0.000581,0.004455,91.150467,40.736572,-146.367325,,,
729716825.81845,-5.540208,3.355679,138.157936,-0.054718,-0.097565,0.986542,-0.001197,0.000581,0.004455,91.150467,40.736572,-146.367325,,,
729716825.822397,-5.540728,3.353995,99.546155,-0.055542,-0.095795,0.982193,-0.000108,-0.005223,0.002026,91.150467,40.736572,-146.367325,,,
729716825.823956,-5.540726,3.353998,102.623006,-0.055542,-0.095795,0.982193,-0.000108,-0.005223,0.002026,91.150467,40.736572,-146.367325,,,
729716825.824114,-5.540726,3.353996,138.15936,-0.055542,-0.095795,0.982193,-0.000108,-0.005223,0.002026,91.150467,40.736572,-146.367325,,,
729716825.824319,-5.540059,3.351841,99.546664,-0.055542,-0.095795,0.982193,-0.000108,-0.005223,0.002026,91.150467,40.736572,-146.367325,,,
729716825.824511,-5.540057,3.351844,102.623515,-0.055542,-0.095795,0.982193,-0.000108,-0.005223,0.002026,91.150467,40.736572,-146.367325,,,
729716825.825113,-5.540057,3.351841,138.159867,-0.055542,-0.095795,0.982193,-0.000108,-0.005223,0.002026,91.150467,40.736572,-146.367325,,,
729716825.827565,-5.540059,3.351841,99.546664,-0.055542,-0.095795,0.982193,-0.000108,-0.005223,0.002026,91.150467,40.736572,-146.367325,,,
729716825.827784,-5.540057,3.351844,102.623515,-0.055542,-0.095795,0.982193,-0.000108,-0.005223,0.002026,91.150467,40.736572,-146.367325,,,
729716825.828454,-5.540057,3.351841,138.159867,-0.055542,-0.095795,0.982193,-0.000108,-0.005223,0.002026,91.150467,40.736572,-146.367325,,,
729716825.832678,-5.540056,3.348625,99.546054,-0.054138,-0.090546,0.984085,0.001121,-0.008434,-0.005353,91.150467,40.736572,-146.367325,,,
729716825.834985,-5.540055,3.348627,102.622905,-0.054138,-0.090546,0.984085,0.001121,-0.008434,-0.005353,91.152618,40.90741,-146.290192,,,
729716825.835168,-5.538771,3.345008,138.157777,-0.054138,-0.090546,0.984085,0.001121,-0.008434,-0.005353,91.152618,40.90741,-146.290192,,,
729716825.835883,-5.538773,3.345008,99.544574,-0.054138,-0.090546,0.984085,0.001121,-0.008434,-0.005353,91.152618,40.90741,-146.290192,,,
729716825.837496,-5.538773,3.345008,99.544574,-0.054138,-0.090546,0.984085,0.001121,-0.008434,-0.005353,91.152618,40.90741,-146.290192,,,
729716825.837815,-5.538771,3.34501,102.621425,-0.054138,-0.090546,0.984085,0.001121,-0.008434,-0.005353,91.152618,40.90741,-146.290192,,,
729716825.83849,-5.538771,3.345008,138.157777,-0.054138,-0.090546,0.984085,0.001121,-0.008434,-0.005353,91.152618,40.90741,-146.290192,,,
729716825.841359,-5.53877,3.341053,99.542755,-0.054489,-0.092117,0.985672,0.000874,-0.011806,-0.007771,91.152618,40.90741,-146.290192,,,
729716825.842005,-5.538768,3.341056,102.619606,-0.054489,-0.092117,0.985672,0.000874,-0.011806,-0.007771,91.152618,40.90741,-146.290192,,,
729716825.842174,-5.538768,3.341053,138.155959,-0.054489,-0.092117,0.985672,0.000874,-0.011806,-0.007771,91.152618,40.90741,-146.290192,,,
729716825.844212,-5.53877,3.341053,99.542755,-0.054489,-0.092117,0.985672,0.000874,-0.011806,-0.007771,91.152618,40.90741,-146.290192,,,
729716825.844491,-5.537182,3.335768,102.618198,-0.054489,-0.092117,0.985672,0.000874,-0.011806,-0.007771,91.152618,40.90741,-146.290192,,,
729716825.845116,-5.537182,3.335765,138.154551,-0.054489,-0.092117,0.985672,0.000874,-0.011806,-0.007771,91.152618,40.90741,-146.290192,,,
729716825.847756,-5.537184,3.335765,99.541347,-0.054489,-0.092117,0.985672,0.000874,-0.011806,-0.007771,91.152618,40.90741,-146.290192,,,
729716825.847974,-5.537182,3.335768,102.618198,-0.054489,-0.092117,0.985672,0.000874,-0.011806,-0.007771,91.152618,40.90741,-146.290192,,,
729716825.848446,-5.537182,3.335765,138.154551,-0.054489,-0.092117,0.985672,0.000874,-0.011806,-0.007771,91.152618,40.90741,-146.290192,,,
729716825.85171,-5.536843,3.330166,99.540131,-0.05571,-0.094574,0.983292,0.00211,-0.017112,-0.006648,91.152618,40.90741,-146.290192,,,
729716825.852673,-5.536841,3.330169,102.616981,-0.05571,-0.094574,0.983292,0.00211,-0.017112,-0.006648,91.152618,40.90741,-146.290192,,,
729716825.85282,-5.536841,3.330166,138.153334,-0.05571,-0.094574,0.983292,0.00211,-0.017112,-0.006648,91.152618,40.90741,-146.290192,,,
729716825.854087,-5.536843,3.330166,99.540131,-0.05571,-0.094574,0.983292,0.00211,-0.017112,-0.006648,91.152618,40.90741,-146.290192,,,
729716825.854732,-5.535066,3.323238,102.615639,-0.05571,-0.094574,0.983292,0.00211,-0.017112,-0.006648,91.152618,40.90741,-146.290192,,,
729716825.855122,-5.535066,3.323235,138.151993,-0.05571,-0.094574,0.983292,0.00211,-0.017112,-0.006648,91.152618,40.90741,-146.290192,,,
729716825.857814,-5.535067,3.323235,99.538788,-0.05571,-0.094574,0.983292,0.00211,-0.017112,-0.006648,91.152618,40.90741,-146.290192,,,
729716825.858024,-5.535066,3.323238,102.615639,-0.05571,-0.094574,0.983292,0.00211,-0.017112,-0.006648,91.152618,40.90741,-146.290192,,,
729716825.858435,-5.535066,3.323235,138.151993,-0.05571,-0.094574,0.983292,0.00211,-0.017112,-0.006648,91.152618,40.90741,-146.290192,,,
729716825.861716,-5.534036,3.317831,99.537485,-0.054596,-0.094803,0.987885,0.004466,-0.015024,-0.007087,91.152618,40.90741,-146.290192,,,
729716825.862978,-5.534035,3.317834,102.614336,-0.054596,-0.094803,0.987885,0.004466,-0.015024,-0.007087,91.152618,40.90741,-146.290192,,,
729716825.863169,-5.534035,3.317832,138.15069,-0.054596,-0.094803,0.987885,0.004466,-0.015024,-0.007087,91.152618,40.90741,-146.290192,,,
729716825.864081,-5.534036,3.317831,99.537485,-0.054596,-0.094803,0.987885,0.004466,-0.015024,-0.007087,91.152618,40.90741,-146.290192,,,
729716825.864889,-5.532026,3.311455,102.612519,-0.054596,-0.094803,0.987885,0.004466,-0.015024,-0.007087,91.152618,40.90741,-146.290192,,,
729716825.865151,-5.532026,3.311453,138.148874,-0.054596,-0.094803,0.987885,0.004466,-0.015024,-0.007087,91.152618,40.90741,-146.290192,,,
729716825.867971,-5.532028,3.311452,99.535668,-0.054596,-0.094803,0.987885,0.004466,-0.015024,-0.007087,91.152618,40.90741,-146.290192,,,
729716825.868254,-5.532026,3.311455,102.612519,-0.054596,-0.094803,0.987885,0.004466,-0.015024,-0.007087,91.152618,40.90741,-146.290192,,,
729716825.868465,-5.532026,3.311453,138.148874,-0.054596,-0.094803,0.987885,0.004466,-0.015024,-0.007087,91.152618,40.90741,-146.290192,,,
729716825.872021,-5.530627,3.306623,99.534278,-0.055908,-0.095703,0.989273,0.004004,-0.011471,-0.004842,91.152618,40.90741,-146.290192,,,
729716825.873165,-5.530625,3.306626,102.611128,-0.055908,-0.095703,0.989273,0.004004,-0.011471,-0.004842,91.152618,40.90741,-146.290192,,,
729716825.873356,-5.530625,3.306623,138.147482,-0.055908,-0.095703,0.989273,0.004004,-0.011471,-0.004842,91.152618,40.90741,-146.290192,,,
729716825.874055,-5.530627,3.306623,99.534278,-0.055908,-0.095703,0.989273,0.004004,-0.011471,-0.004842,91.152618,40.90741,-146.290192,,,
729716825.874906,-5.529204,3.301124,102.610368,-0.055908,-0.095703,0.989273,0.004004,-0.011471,-0.004842,91.152618,40.90741,-146.290192,,,
729716825.875143,-5.529204,3.301121,138.146722,-0.055908,-0.095703,0.989273,0.004004,-0.011471,-0.004842,91.048203,40.782669,-146.329178,,,
729716825.878619,-5.529206,3.301121,99.533517,-0.055908,-0.095703,0.989273,0.004004,-0.011471,-0.004842,91.048203,40.782669,-146.329178,,,
729716825.879697,-5.529204,3.301124,102.610368,-0.055908,-0.095703,0.989273,0.004004,-0.011471,-0.004842,91.048203,40.782669,-146.329178,,,
729716825.879895,-5.527079,3.29579,138.146187,-0.056885,-0.094757,0.989929,0.008321,-0.017031,-0.003673,91.048203,40.782669,-146.329178,,,
729716825.88141,-5.527081,3.29579,99.532983,-0.056885,-0.094757,0.989929,0.008321,-0.017031,-0.003673,91.048203,40.782669,-146.329178,,,
729716825.88235,-5.527079,3.295793,102.609834,-0.056885,-0.094757,0.989929,0.008321,-0.017031,-0.003673,91.048203,40.782669,-146.329178,,,
729716825.882563,-5.527079,3.29579,138.146187,-0.056885,-0.094757,0.989929,0.008321,-0.017031,-0.003673,91.048203,40.782669,-146.329178,,,
729716825.884177,-5.527081,3.29579,99.532983,-0.056885,-0.094757,0.989929,0.008321,-0.017031,-0.003673,91.048203,40.782669,-146.329178,,,
729716825.885149,-5.524783,3.288862,102.608782,-0.056885,-0.094757,0.989929,0.008321,-0.017031,-0.003673,91.048203,40.782669,-146.329178,,,
729716825.885361,-5.524783,3.28886,138.145136,-0.056885,-0.094757,0.989929,0.008321,-0.017031,-0.003673,91.048203,40.782669,-146.329178,,,
729716825.888208,-5.524785,3.288859,99.531931,-0.056885,-0.094757,0.989929,0.008321,-0.017031,-0.003673,91.048203,40.782669,-146.329178,,,
729716825.888504,-5.524783,3.288862,102.608782,-0.056885,-0.094757,0.989929,0.008321,-0.017031,-0.003673,91.048203,40.782669,-146.329178,,,
729716825.888656,-5.524783,3.28886,138.145136,-0.056885,-0.094757,0.989929,0.008321,-0.017031,-0.003673,91.048203,40.782669,-146.329178,,,
729716825.891847,-5.522251,3.28083,99.53007,-0.053329,-0.094177,0.98941,0.009221,-0.027392,-0.00955,91.048203,40.782669,-146.329178,,,
729716825.893078,-5.522249,3.280833,102.606921,-0.053329,-0.094177,0.98941,0.009221,-0.027392,-0.00955,91.048203,40.782669,-146.329178,,,
729716825.893269,-5.522249,3.28083,138.143274,-0.053329,-0.094177,0.98941,0.009221,-0.027392,-0.00955,91.048203,40.782669,-146.329178,,,
729716825.894063,-5.522251,3.28083,99.53007,-0.053329,-0.094177,0.98941,0.009221,-0.027392,-0.00955,91.048203,40.782669,-146.329178,,,
729716825.89509,-5.519741,3.271283,102.604039,-0.053329,-0.094177,0.98941,0.009221,-0.027392,-0.00955,91.048203,40.782669,-146.329178,,,
729716825.895296,-5.519741,3.27128,138.140391,-0.053329,-0.094177,0.98941,0.009221,-0.027392,-0.00955,91.048203,40.782669,-146.329178,,,
729716825.897974,-5.519743,3.27128,99.527188,-0.053329,-0.094177,0.98941,0.009221,-0.027392,-0.00955,91.048203,40.782669,-146.329178,,,
729716825.89827,-5.519741,3.271283,102.604039,-0.053329,-0.094177,0.98941,0.009221,-0.027392,-0.00955,91.048203,40.782669,-146.329178,,,
729716825.898491,-5.519741,3.27128,138.140391,-0.053329,-0.094177,0.98941,0.009221,-0.027392,-0.00955,91.048203,40.782669,-146.329178,,,
729716825.90171,-5.517369,3.261574,99.522807,-0.054138,-0.093292,0.990875,0.007955,-0.027995,-0.020086,91.048203,40.782669,-146.329178,,,
729716825.902551,-5.517367,3.261576,102.599658,-0.054138,-0.093292,0.990875,0.007955,-0.027995,-0.020086,91.048203,40.782669,-146.329178,,,
729716825.902739,-5.517367,3.261574,138.13601,-0.054138,-0.093292,0.990875,0.007955,-0.027995,-0.020086,91.048203,40.782669,-146.329178,,,
729716825.904136,-5.517369,3.261574,99.522807,-0.054138,-0.093292,0.990875,0.007955,-0.027995,-0.020086,91.048203,40.782669,-146.329178,,,
729716825.905411,-5.514679,3.251935,102.593572,-0.054138,-0.093292,0.990875,0.007955,-0.027995,-0.020086,91.048203,40.782669,-146.329178,,,
729716825.90563,-5.514679,3.251932,138.129923,-0.054138,-0.093292,0.990875,0.007955,-0.027995,-0.020086,91.048203,40.782669,-146.329178,,,
729716825.908252,-5.51468,3.251932,99.516721,-0.054138,-0.093292,0.990875,0.007955,-0.027995,-0.020086,91.048203,40.782669,-146.329178,,,
729716825.908563,-5.514679,3.251935,102.593572,-0.054138,-0.093292,0.990875,0.007955,-0.027995,-0.020086,91.048203,40.782669,-146.329178,,,
729716825.908725,-5.514679,3.251932,138.129923,-0.054138,-0.093292,0.990875,0.007955,-0.027995,-0.020086,91.048203,40.782669,-146.329178,,,
729716825.9119,-5.512778,3.243338,99.509562,-0.052719,-0.091599,0.994003,0.007053,-0.021989,-0.027646,91.048203,40.782669,-146.329178,,,
729716825.91295,-5.512776,3.243341,102.586413,-0.052719,-0.091599,0.994003,0.007053,-0.021989,-0.027646,91.048203,40.782669,-146.329178,,,
729716825.913141,-5.512776,3.243338,138.122768,-0.052719,-0.091599,0.994003,0.007053,-0.021989,-0.027646,91.048203,40.782669,-146.329178,,,
729716825.914088,-5.512778,3.243338,99.509562,-0.052719,-0.091599,0.994003,0.007053,-0.021989,-0.027646,91.048203,40.782669,-146.329178,,,
729716825.914791,-5.510091,3.235279,102.57875,-0.052719,-0.091599,0.994003,0.007053,-0.021989,-0.027646,91.048203,40.782669,-146.329178,,,
729716825.915232,-5.510091,3.235277,138.115105,-0.052719,-0.091599,0.994003,0.007053,-0.021989,-0.027646,91.048203,40.782669,-146.329178,,,
729716825.918457,-5.510093,3.235276,99.501899,-0.052719,-0.091599,0.994003,0.007053,-0.021989,-0.027646,90.921585,40.769547,-146.511032,,,
729716825.919556,-5.510091,3.235279,102.57875,-0.052719,-0.091599,0.994003,0.007053,-0.021989,-0.027646,90.921585,40.769547,-146.511032,,,
729716825.919768,-5.506921,3.228071,138.107761,-0.056259,-0.098022,0.995239,0.01456,-0.018483,-0.025205,90.921585,40.769547,-146.511032,,,
729716825.921976,-5.506923,3.228071,99.494556,-0.056259,-0.098022,0.995239,0.01456,-0.018483,-0.025205,90.921585,40.769547,-146.511032,,,
729716825.923418,-5.506921,3.228074,102.571407,-0.056259,-0.098022,0.995239,0.01456,-0.018483,-0.025205,90.921585,40.769547,-146.511032,,,
729716825.923616,-5.506921,3.228071,138.107761,-0.056259,-0.098022,0.995239,0.01456,-0.018483,-0.025205,90.921585,40.769547,-146.511032,,,
729716825.92403,-5.506923,3.228071,99.494556,-0.056259,-0.098022,0.995239,0.01456,-0.018483,-0.025205,90.921585,40.769547,-146.511032,,,
729716825.925405,-5.502319,3.221285,102.564981,-0.056259,-0.098022,0.995239,0.01456,-0.018483,-0.025205,90.921585,40.769547,-146.511032,,,
729716825.925621,-5.502319,3.221282,138.101335,-0.056259,-0.098022,0.995239,0.01456,-0.018483,-0.025205,90.921585,40.769547,-146.511032,,,
729716825.928027,-5.50232,3.221282,99.48813,-0.056259,-0.098022,0.995239,0.01456,-0.018483,-0.025205,90.921585,40.769547,-146.511032,,,
729716825.928318,-5.502319,3.221285,102.564981,-0.056259,-0.098022,0.995239,0.01456,-0.018483,-0.025205,90.921585,40.769547,-146.511032,,,
729716825.928509,-5.502319,3.221282,138.101335,-0.056259,-0.098022,0.995239,0.01456,-0.018483,-0.025205,90.921585,40.769547,-146.511032,,,
729716825.931613,-5.495791,3.21507,99.483115,-0.056717,-0.104614,0.99762,0.02823,-0.015385,-0.014613,90.921585,40.769547,-146.511032,,,
729716825.932376,-5.495789,3.215072,102.559965,-0.056717,-0.104614,0.99762,0.02823,-0.015385,-0.014613,90.921585,40.769547,-146.511032,,,
729716825.93256,-5.495789,3.21507,138.09632,-0.056717,-0.104614,0.99762,0.02823,-0.015385,-0.014613,90.921585,40.769547,-146.511032,,,
729716825.934163,-5.495791,3.21507,99.483115,-0.056717,-0.104614,0.99762,0.02823,-0.015385,-0.014613,90.921585,40.769547,-146.511032,,,
729716825.935144,-5.487505,3.210645,102.556749,-0.056717,-0.104614,0.99762,0.02823,-0.015385,-0.014613,90.921585,40.769547,-146.511032,,,
729716825.935349,-5.487505,3.210642,138.093102,-0.056717,-0.104614,0.99762,0.02823,-0.015385,-0.014613,90.921585,40.769547,-146.511032,,,
729716825.938214,-5.487507,3.210642,99.479898,-0.056717,-0.104614,0.99762,0.02823,-0.015385,-0.014613,90.921585,40.769547,-146.511032,,,
729716825.938497,-5.487505,3.210645,102.556749,-0.056717,-0.104614,0.99762,0.02823,-0.015385,-0.014613,90.921585,40.769547,-146.511032,,,
729716825.938664,-5.487505,3.210642,138.093102,-0.056717,-0.104614,0.99762,0.02823,-0.015385,-0.014613,90.921585,40.769547,-146.511032,,,
729716825.941836,-5.478951,3.208502,99.478739,-0.059708,-0.107605,1.001053,0.02975,-0.001235,-0.000284,90.921585,40.769547,-146.511032,,,
729716825.94315,-5.478949,3.208505,102.55559,-0.059708,-0.107605,1.001053,0.02975,-0.001235,-0.000284,90.921585,40.769547,-146.511032,,,
729716825.943339,-5.478949,3.208502,138.091943,-0.059708,-0.107605,1.001053,0.02975,-0.001235,-0.000284,90.921585,40.769547,-146.511032,,,
729716825.944054,-5.478951,3.208502,99.478739,-0.059708,-0.107605,1.001053,0.02975,-0.001235,-0.000284,90.921585,40.769547,-146.511032,,,
729716825.944538,-5.478949,3.208505,102.55559,-0.059708,-0.107605,1.001053,0.02975,-0.001235,-0.000284,90.921585,40.769547,-146.511032,,,
729716825.945146,-5.47076,3.207745,138.092802,-0.059708,-0.107605,1.001053,0.02975,-0.001235,-0.000284,90.921585,40.769547,-146.511032,,,
729716825.947977,-5.470761,3.207745,99.479599,-0.059708,-0.107605,1.001053,0.02975,-0.001235,-0.000284,90.921585,40.769547,-146.511032,,,
729716825.948602,-5.47076,3.207748,102.55645,-0.059708,-0.107605,1.001053,0.02975,-0.001235,-0.000284,90.921585,40.769547,-146.511032,,,
729716825.948802,-5.47076,3.207745,138.092802,-0.059708,-0.107605,1.001053,0.02975,-0.001235,-0.000284,90.921585,40.769547,-146.511032,,,
729716825.953601,-5.462541,3.20909,99.481829,-0.058411,-0.104599,0.995758,0.028279,0.011983,0.009129,90.921585,40.769547,-146.511032,,,
729716825.956446,-5.462539,3.209093,102.55868,-0.058411,-0.104599,0.995758,0.028279,0.011983,0.009129,90.921585,40.769547,-146.511032,,,
729716825.956732,-5.455048,3.212781,138.097721,-0.058411,-0.104599,0.995758,0.028279,0.011983,0.009129,90.921585,40.769547,-146.511032,,,
729716825.957672,-5.45505,3.212781,99.484517,-0.058411,-0.104599,0.995758,0.028279,0.011983,0.009129,90.806198,40.758041,-146.723923,,,
729716825.958626,-5.455048,3.212784,102.561368,-0.058411,-0.104599,0.995758,0.028279,0.011983,0.009129,90.806198,40.758041,-146.723923,,,
729716825.958854,-5.455048,3.212781,138.097721,-0.058411,-0.104599,0.995758,0.028279,0.011983,0.009129,90.806198,40.758041,-146.723923,,,
729716825.962354,-5.448221,3.217468,99.487545,-0.054749,-0.100403,0.998398,0.024193,0.019955,0.011386,90.806198,40.758041,-146.723923,,,
729716825.963726,-5.44822,3.21747,102.564396,-0.054749,-0.100403,0.998398,0.024193,0.019955,0.011386,90.806198,40.758041,-146.723923,,,
729716825.963874,-5.44822,3.217468,138.100748,-0.054749,-0.100403,0.998398,0.024193,0.019955,0.011386,90.806198,40.758041,-146.723923,,,
729716825.964073,-5.448221,3.217468,99.487545,-0.054749,-0.100403,0.998398,0.024193,0.019955,0.011386,90.806198,40.758041,-146.723923,,,
729716825.964478,-5.44822,3.21747,102.564396,-0.054749,-0.100403,0.998398,0.024193,0.019955,0.011386,90.806198,40.758041,-146.723923,,,
729716825.965123,-5.441104,3.222352,138.104176,-0.054749,-0.100403,0.998398,0.024193,0.019955,0.011386,90.806198,40.758041,-146.723923,,,
729716825.967827,-5.441106,3.222352,99.490973,-0.054749,-0.100403,0.998398,0.024193,0.019955,0.011386,90.806198,40.758041,-146.723923,,,
729716825.96844,-5.441104,3.222355,102.567823,-0.054749,-0.100403,0.998398,0.024193,0.019955,0.011386,90.806198,40.758041,-146.723923,,,
729716825.968597,-5.441104,3.222352,138.104176,-0.054749,-0.100403,0.998398,0.024193,0.019955,0.011386,90.806198,40.758041,-146.723923,,,
729716825.971637,-5.434014,3.227118,99.493902,-0.056305,-0.096207,0.993546,0.024293,0.017646,0.007732,90.806198,40.758041,-146.723923,,,
729716825.972602,-5.434012,3.22712,102.570753,-0.056305,-0.096207,0.993546,0.024293,0.017646,0.007732,90.806198,40.758041,-146.723923,,,
729716825.972754,-5.434012,3.227118,138.107106,-0.056305,-0.096207,0.993546,0.024293,0.017646,0.007732,90.806198,40.758041,-146.723923,,,
729716825.974138,-5.434014,3.227118,99.493902,-0.056305,-0.096207,0.993546,0.024293,0.017646,0.007732,90.806198,40.758041,-146.723923,,,
729716825.974529,-5.434012,3.22712,102.570753,-0.056305,-0.096207,0.993546,0.024293,0.017646,0.007732,90.806198,40.758041,-146.723923,,,
729716825.975151,-5.427122,3.23007,138.109101,-0.056305,-0.096207,0.993546,0.024293,0.017646,0.007732,90.806198,40.758041,-146.723923,,,
729716825.977883,-5.427123,3.23007,99.495896,-0.056305,-0.096207,0.993546,0.024293,0.017646,0.007732,90.806198,40.758041,-146.723923,,,
729716825.978179,-5.427122,3.230072,102.572747,-0.056305,-0.096207,0.993546,0.024293,0.017646,0.007732,90.806198,40.758041,-146.723923,,,
729716825.97843,-5.427122,3.23007,138.109101,-0.056305,-0.096207,0.993546,0.024293,0.017646,0.007732,90.806198,40.758041,-146.723923,,,
729716825.982293,-5.419336,3.230748,99.496944,-0.054092,-0.093719,0.98996,0.03078,0.000917,0.0014,90.806198,40.758041,-146.723923,,,
729716825.983911,-5.419334,3.230751,102.573795,-0.054092,-0.093719,0.98996,0.03078,0.000917,0.0014,90.806198,40.758041,-146.723923,,,
729716825.984115,-5.419334,3.230748,138.110149,-0.054092,-0.093719,0.98996,0.03078,0.000917,0.0014,90.806198,40.758041,-146.723923,,,
729716825.984398,-5.419336,3.230748,99.496944,-0.054092,-0.093719,0.98996,0.03078,0.000917,0.0014,90.806198,40.758041,-146.723923,,,
729716825.984983,-5.410468,3.228869,102.573863,-0.054092,-0.093719,0.98996,0.03078,0.000917,0.0014,90.806198,40.758041,-146.723923,,,
729716825.985199,-5.410468,3.228867,138.110215,-0.054092,-0.093719,0.98996,0.03078,0.000917,0.0014,90.806198,40.758041,-146.723923,,,
729716825.987955,-5.410469,3.228867,99.497012,-0.054092,-0.093719,0.98996,0.03078,0.000917,0.0014,90.806198,40.758041,-146.723923,,,
729716825.988248,-5.410468,3.228869,102.573863,-0.054092,-0.093719,0.98996,0.03078,0.000917,0.0014,90.806198,40.758041,-146.723923,,,
729716825.988468,-5.410468,3.228867,138.110215,-0.054092,-0.093719,0.98996,0.03078,0.000917,0.0014,90.806198,40.758041,-146.723923,,,
729716825.993488,-5.402104,3.226137,99.49658,-0.05545,-0.09259,0.990356,0.030491,-0.008383,-0.002408,90.806198,40.758041,-146.723923,,,
729716825.996213,-5.402103,3.226139,102.573431,-0.05545,-0.09259,0.990356,0.030491,-0.008383,-0.002408,90.806198,40.758041,-146.723923,,,
729716825.996381,-5.393813,3.222018,138.108335,-0.05545,-0.09259,0.990356,0.030491,-0.008383,-0.002408,90.806198,40.758041,-146.723923,,,
729716825.997065,-5.393815,3.222018,99.495131,-0.05545,-0.09259,0.990356,0.030491,-0.008383,-0.002408,90.806198,40.758041,-146.723923,,,
729716825.998735,-5.393813,3.22202,102.571981,-0.05545,-0.09259,0.990356,0.030491,-0.008383,-0.002408,90.805222,40.830139,-146.764847,,,
729716825.998909,-5.393813,3.222018,138.108335,-0.05545,-0.09259,0.990356,0.030491,-0.008383,-0.002408,90.805222,40.830139,-146.764847,,,
729716826.001834,-5.384671,3.216329,99.492824,-0.056564,-0.091431,0.989548,0.034423,-0.019775,-0.008227,90.805222,40.830139,-146.764847,,,
729716826.002608,-5.384669,3.216332,102.569675,-0.056564,-0.091431,0.989548,0.034423,-0.019775,-0.008227,90.805222,40.830139,-146.764847,,,
729716826.002744,-5.384669,3.216329,138.106029,-0.056564,-0.091431,0.989548,0.034423,-0.019775,-0.008227,90.805222,40.830139,-146.764847,,,
729716826.004131,-5.384671,3.216329,99.492824,-0.056564,-0.091431,0.989548,0.034423,-0.019775,-0.008227,90.805222,40.830139,-146.764847,,,
729716826.004533,-5.384669,3.216332,102.569675,-0.056564,-0.091431,0.989548,0.034423,-0.019775,-0.008227,90.805222,40.830139,-146.764847,,,
729716826.005146,-5.376546,3.208034,138.103476,-0.056564,-0.091431,0.989548,0.034423,-0.019775,-0.008227,90.805222,40.830139,-146.764847,,,
729716826.007939,-5.376548,3.208034,99.490272,-0.056564,-0.091431,0.989548,0.034423,-0.019775,-0.008227,90.805222,40.830139,-146.764847,,,
729716826.008546,-5.376546,3.208037,102.567122,-0.056564,-0.091431,0.989548,0.034423,-0.019775,-0.008227,90.805222,40.830139,-146.764847,,,
729716826.008748,-5.376546,3.208034,138.103476,-0.056564,-0.091431,0.989548,0.034423,-0.019775,-0.008227,90.805222,40.830139,-146.764847,,,
729716826.011965,-5.366972,3.196596,99.487326,-0.05925,-0.09288,0.990814,0.03538,-0.041015,-0.010871,90.805222,40.830139,-146.764847,,,
729716826.013508,-5.366971,3.196599,102.564177,-0.05925,-0.09288,0.990814,0.03538,-0.041015,-0.010871,90.805222,40.830139,-146.764847,,,
729716826.013703,-5.366971,3.196597,138.100531,-0.05925,-0.09288,0.990814,0.03538,-0.041015,-0.010871,90.805222,40.830139,-146.764847,,,
729716826.013969,-5.366972,3.196596,99.487326,-0.05925,-0.09288,0.990814,0.03538,-0.041015,-0.010871,90.805222,40.830139,-146.764847,,,
729716826.014503,-5.366971,3.196599,102.564177,-0.05925,-0.09288,0.990814,0.03538,-0.041015,-0.010871,90.805222,40.830139,-146.764847,,,
729716826.015111,-5.359635,3.183701,138.097636,-0.05925,-0.09288,0.990814,0.03538,-0.041015,-0.010871,90.805222,40.830139,-146.764847,,,
729716826.018169,-5.359637,3.1837,99.48443,-0.05925,-0.09288,0.990814,0.03538,-0.041015,-0.010871,90.805222,40.830139,-146.764847,,,
729716826.018832,-5.359635,3.183703,102.561281,-0.05925,-0.09288,0.990814,0.03538,-0.041015,-0.010871,90.805222,40.830139,-146.764847,,,
729716826.018981,-5.359635,3.183701,138.097636,-0.05925,-0.09288,0.990814,0.03538,-0.041015,-0.010871,90.805222,40.830139,-146.764847,,,
729716826.022115,-5.351398,3.169418,99.481826,-0.059402,-0.095428,0.989441,0.028619,-0.047745,-0.008958,90.805222,40.830139,-146.764847,,,
729716826.02363,-5.351396,3.169421,102.558677,-0.059402,-0.095428,0.989441,0.028619,-0.047745,-0.008958,90.805222,40.830139,-146.764847,,,
729716826.02383,-5.351396,3.169418,138.095032,-0.059402,-0.095428,0.989441,0.028619,-0.047745,-0.008958,90.805222,40.830139,-146.764847,,,
729716826.02409,-5.351398,3.169418,99.481826,-0.059402,-0.095428,0.989441,0.028619,-0.047745,-0.008958,90.805222,40.830139,-146.764847,,,
729716826.024534,-5.351396,3.169421,102.558677,-0.059402,-0.095428,0.989441,0.028619,-0.047745,-0.008958,90.805222,40.830139,-146.764847,,,
729716826.025142,-5.344896,3.155252,138.09321,-0.059402,-0.095428,0.989441,0.028619,-0.047745,-0.008958,90.805222,40.830139,-146.764847,,,
729716826.02835,-5.344897,3.155252,99.480004,-0.059402,-0.095428,0.989441,0.028619,-0.047745,-0.008958,90.805222,40.830139,-146.764847,,,
729716826.029278,-5.344896,3.155255,102.556854,-0.059402,-0.095428,0.989441,0.028619,-0.047745,-0.008958,90.805222,40.830139,-146.764847,,,
729716826.029508,-5.344896,3.155252,138.09321,-0.059402,-0.095428,0.989441,0.028619,-0.047745,-0.008958,90.805222,40.830139,-146.764847,,,
729716826.031163,-5.335818,3.140525,99.479074,-0.057663,-0.098282,0.993515,0.034602,-0.048051,-0.002103,90.805222,40.830139,-146.764847,,,
729716826.0318,-5.335817,3.140528,102.555925,-0.057663,-0.098282,0.993515,0.034602,-0.048051,-0.002103,90.805222,40.830139,-146.764847,,,
729716826.031954,-5.335817,3.140525,138.092279,-0.057663,-0.098282,0.993515,0.034602,-0.048051,-0.002103,90.805222,40.830139,-146.764847,,,
729716826.034246,-5.335818,3.140525,99.479074,-0.057663,-0.098282,0.993515,0.034602,-0.048051,-0.002103,90.805222,40.830139,-146.764847,,,
729716826.034534,-5.335817,3.140528,102.555925,-0.057663,-0.098282,0.993515,0.034602,-0.048051,-0.002103,90.805222,40.830139,-146.764847,,,
729716826.035151,-5.326809,3.125866,138.091573,-0.057663,-0.098282,0.993515,0.034602,-0.048051,-0.002103,90.805222,40.830139,-146.764847,,,
729716826.038225,-5.326811,3.125866,99.478367,-0.057663,-0.098282,0.993515,0.034602,-0.048051,-0.002103,90.805222,40.830139,-146.764847,,,
729716826.039831,-5.326809,3.125868,102.555218,-0.057663,-0.098282,0.993515,0.034602,-0.048051,-0.002103,90.883072,40.728027,-146.912262,,,
729716826.04,-5.315822,3.112138,138.0908,-0.054672,-0.102661,0.998428,0.040923,-0.041734,-0.002302,90.883072,40.728027,-146.912262,,,
729716826.042141,-5.315824,3.112137,99.477596,-0.054672,-0.102661,0.998428,0.040923,-0.041734,-0.002302,90.883072,40.728027,-146.912262,,,
729716826.043842,-5.315822,3.11214,102.554447,-0.054672,-0.102661,0.998428,0.040923,-0.041734,-0.002302,90.883072,40.728027,-146.912262,,,
729716826.043994,-5.315822,3.112138,138.0908,-0.054672,-0.102661,0.998428,0.040923,-0.041734,-0.002302,90.883072,40.728027,-146.912262,,,
729716826.044185,-5.315824,3.112137,99.477596,-0.054672,-0.102661,0.998428,0.040923,-0.041734,-0.002302,90.883072,40.728027,-146.912262,,,
729716826.044452,-5.315822,3.11214,102.554447,-0.054672,-0.102661,0.998428,0.040923,-0.041734,-0.002302,90.883072,40.728027,-146.912262,,,
729716826.045116,-5.30424,3.10121,138.089907,-0.054672,-0.102661,0.998428,0.040923,-0.041734,-0.002302,90.883072,40.728027,-146.912262,,,
729716826.048014,-5.304241,3.10121,99.476702,-0.054672,-0.102661,0.998428,0.040923,-0.041734,-0.002302,90.883072,40.728027,-146.912262,,,
729716826.048667,-5.30424,3.101212,102.553553,-0.054672,-0.102661,0.998428,0.040923,-0.041734,-0.002302,90.883072,40.728027,-146.912262,,,
729716826.048826,-5.30424,3.10121,138.089907,-0.054672,-0.102661,0.998428,0.040923,-0.041734,-0.002302,90.883072,40.728027,-146.912262,,,
729716826.051772,-5.289957,3.092612,99.475057,-0.048203,-0.100067,1.004288,0.055453,-0.023201,-0.006589,90.883072,40.728027,-146.912262,,,
729716826.052868,-5.289956,3.092615,102.551908,-0.048203,-0.100067,1.004288,0.055453,-0.023201,-0.006589,90.883072,40.728027,-146.912262,,,
729716826.053012,-5.289956,3.092612,138.088261,-0.048203,-0.100067,1.004288,0.055453,-0.023201,-0.006589,90.883072,40.728027,-146.912262,,,
729716826.054188,-5.289957,3.092612,99.475057,-0.048203,-0.100067,1.004288,0.055453,-0.023201,-0.006589,90.883072,40.728027,-146.912262,,,
729716826.054522,-5.289956,3.092615,102.551908,-0.048203,-0.100067,1.004288,0.055453,-0.023201,-0.006589,90.883072,40.728027,-146.912262,,,
729716826.055148,-5.273466,3.086111,138.085729,-0.048203,-0.100067,1.004288,0.055453,-0.023201,-0.006589,90.883072,40.728027,-146.912262,,,
729716826.058141,-5.273468,3.08611,99.472525,-0.048203,-0.100067,1.004288,0.055453,-0.023201,-0.006589,90.883072,40.728027,-146.912262,,,
729716826.058744,-5.273466,3.086113,102.549376,-0.048203,-0.100067,1.004288,0.055453,-0.023201,-0.006589,90.883072,40.728027,-146.912262,,,
729716826.058942,-5.273466,3.086111,138.085729,-0.048203,-0.100067,1.004288,0.055453,-0.023201,-0.006589,90.883072,40.728027,-146.912262,,,
729716826.062106,-5.254009,3.08156,99.470344,-0.047226,-0.098022,1.003036,0.07354,-0.008517,-0.003094,90.883072,40.728027,-146.912262,,,
729716826.063618,-5.254008,3.081562,102.547195,-0.047226,-0.098022,1.003036,0.07354,-0.008517,-0.003094,90.883072,40.728027,-146.912262,,,
729716826.063828,-5.254007,3.08156,138.083546,-0.047226,-0.098022,1.003036,0.07354,-0.008517,-0.003094,90.883072,40.728027,-146.912262,,,
729716826.064085,-5.254009,3.08156,99.470344,-0.047226,-0.098022,1.003036,0.07354,-0.008517,-0.003094,90.883072,40.728027,-146.912262,,,
729716826.064531,-5.254008,3.081562,102.547195,-0.047226,-0.098022,1.003036,0.07354,-0.008517,-0.003094,90.883072,40.728027,-146.912262,,,
729716826.065111,-5.232987,3.079239,138.08231,-0.047226,-0.098022,1.003036,0.07354,-0.008517,-0.003094,90.883072,40.728027,-146.912262,,,
729716826.067937,-5.232989,3.079239,99.469104,-0.047226,-0.098022,1.003036,0.07354,-0.008517,-0.003094,90.883072,40.728027,-146.912262,,,
729716826.06854,-5.232987,3.079241,102.545955,-0.047226,-0.098022,1.003036,0.07354,-0.008517,-0.003094,90.883072,40.728027,-146.912262,,,
729716826.068734,-5.232987,3.079239,138.08231,-0.047226,-0.098022,1.003036,0.07354,-0.008517,-0.003094,90.883072,40.728027,-146.912262,,,
729716826.073679,-5.211317,3.078459,99.468391,-0.048508,-0.094727,0.997589,0.076123,0.002713,0.000664,90.883072,40.728027,-146.912262,,,
729716826.075911,-5.211315,3.078461,102.545242,-0.048508,-0.094727,0.997589,0.076123,0.002713,0.000664,90.883072,40.728027,-146.912262,,,
729716826.076086,-5.190279,3.080605,138.08128,-0.048508,-0.094727,0.997589,0.076123,0.002713,0.000664,90.883072,40.728027,-146.912262,,,
729716826.076536,-5.190281,3.080605,99.468077,-0.048508,-0.094727,0.997589,0.076123,0.002713,0.000664,90.883072,40.728027,-146.912262,,,
729716826.077362,-5.190281,3.080605,99.468077,-0.048508,-0.094727,0.997589,0.076123,0.002713,0.000664,90.883072,40.728027,-146.912262,,,
729716826.078242,-5.190279,3.080608,102.544928,-0.048508,-0.094727,0.997589,0.076123,0.002713,0.000664,90.883072,40.728027,-146.912262,,,
729716826.078441,-5.190279,3.080605,138.08128,-0.048508,-0.094727,0.997589,0.076123,0.002713,0.000664,90.883072,40.728027,-146.912262,,,
729716826.082067,-5.170347,3.084433,99.467887,-0.048203,-0.090958,0.992035,0.067118,0.01829,0.001533,90.808151,40.545746,-146.904724,,,
729716826.083423,-5.170345,3.084436,102.544738,-0.048203,-0.090958,0.992035,0.067118,0.01829,0.001533,90.808151,40.545746,-146.904724,,,
729716826.08359,-5.170345,3.084434,138.081093,-0.048203,-0.090958,0.992035,0.067118,0.01829,0.001533,90.808151,40.545746,-146.904724,,,
729716826.083972,-5.170347,3.084433,99.467887,-0.048203,-0.090958,0.992035,0.067118,0.01829,0.001533,90.808151,40.545746,-146.904724,,,
729716826.08449,-5.170345,3.084436,102.544738,-0.048203,-0.090958,0.992035,0.067118,0.01829,0.001533,90.808151,40.545746,-146.904724,,,
729716826.085113,-5.153027,3.090052,138.080993,-0.048203,-0.090958,0.992035,0.067118,0.01829,0.001533,90.808151,40.545746,-146.904724,,,
729716826.08806,-5.153028,3.090052,99.467788,-0.048203,-0.090958,0.992035,0.067118,0.01829,0.001533,90.808151,40.545746,-146.904724,,,
729716826.088737,-5.153027,3.090055,102.544639,-0.048203,-0.090958,0.992035,0.067118,0.01829,0.001533,90.808151,40.545746,-146.904724,,,
729716826.088894,-5.153027,3.090052,138.080993,-0.048203,-0.090958,0.992035,0.067118,0.01829,0.001533,90.808151,40.545746,-146.904724,,,
729716826.091744,-5.137939,3.09521,99.468102,-0.047333,-0.083206,0.983154,0.048513,0.019249,0.003829,90.808151,40.545746,-146.904724,,,
729716826.092856,-5.137938,3.095213,102.544953,-0.047333,-0.083206,0.983154,0.048513,0.019249,0.003829,90.808151,40.545746,-146.904724,,,
729716826.093,-5.137938,3.09521,138.081308,-0.047333,-0.083206,0.983154,0.048513,0.019249,0.003829,90.808151,40.545746,-146.904724,,,
729716826.09406,-5.137939,3.09521,99.468102,-0.047333,-0.083206,0.983154,0.048513,0.019249,0.003829,90.808151,40.545746,-146.904724,,,
729716826.094477,-5.137938,3.095213,102.544953,-0.047333,-0.083206,0.983154,0.048513,0.019249,0.003829,90.808151,40.545746,-146.904724,,,
729716826.095112,-5.125927,3.100812,138.082188,-0.047333,-0.083206,0.983154,0.048513,0.019249,0.003829,90.808151,40.545746,-146.904724,,,
729716826.097824,-5.125929,3.100812,99.468982,-0.047333,-0.083206,0.983154,0.048513,0.019249,0.003829,90.808151,40.545746,-146.904724,,,
729716826.098442,-5.125927,3.100814,102.545833,-0.047333,-0.083206,0.983154,0.048513,0.019249,0.003829,90.808151,40.545746,-146.904724,,,
729716826.098608,-5.125927,3.100812,138.082188,-0.047333,-0.083206,0.983154,0.048513,0.019249,0.003829,90.808151,40.545746,-146.904724,,,
729716826.102134,-5.114356,3.104893,99.469055,-0.050186,-0.079987,0.977249,0.039773,0.015116,-0.001693,90.808151,40.545746,-146.904724,,,
729716826.103519,-5.114354,3.104896,102.545906,-0.050186,-0.079987,0.977249,0.039773,0.015116,-0.001693,90.808151,40.545746,-146.904724,,,
729716826.103673,-5.114354,3.104894,138.082261,-0.050186,-0.079987,0.977249,0.039773,0.015116,-0.001693,90.808151,40.545746,-146.904724,,,
729716826.103948,-5.114356,3.104893,99.469055,-0.050186,-0.079987,0.977249,0.039773,0.015116,-0.001693,90.808151,40.545746,-146.904724,,,
729716826.104499,-5.114354,3.104896,102.545906,-0.050186,-0.079987,0.977249,0.039773,0.015116,-0.001693,90.808151,40.545746,-146.904724,,,
729716826.105112,-5.104444,3.107527,138.08079,-0.050186,-0.079987,0.977249,0.039773,0.015116,-0.001693,90.808151,40.545746,-146.904724,,,
729716826.108043,-5.104445,3.107527,99.467587,-0.050186,-0.079987,0.977249,0.039773,0.015116,-0.001693,90.808151,40.545746,-146.904724,,,
729716826.108863,-5.104444,3.10753,102.544438,-0.050186,-0.079987,0.977249,0.039773,0.015116,-0.001693,90.808151,40.545746,-146.904724,,,
729716826.10902,-5.104444,3.107527,138.08079,-0.050186,-0.079987,0.977249,0.039773,0.015116,-0.001693,90.808151,40.545746,-146.904724,,,
729716826.111793,-5.092659,3.107815,99.464244,-0.048172,-0.079819,0.972809,0.045982,0.004021,-0.013908,90.808151,40.545746,-146.904724,,,
729716826.112827,-5.092658,3.107818,102.541095,-0.048172,-0.079819,0.972809,0.045982,0.004021,-0.013908,90.808151,40.545746,-146.904724,,,
729716826.112984,-5.092657,3.107815,138.077446,-0.048172,-0.079819,0.972809,0.045982,0.004021,-0.013908,90.808151,40.545746,-146.904724,,,
729716826.11405,-5.092659,3.107815,99.464244,-0.048172,-0.079819,0.972809,0.045982,0.004021,-0.013908,90.808151,40.545746,-146.904724,,,
729716826.114489,-5.092658,3.107818,102.541095,-0.048172,-0.079819,0.972809,0.045982,0.004021,-0.013908,90.808151,40.545746,-146.904724,,,
729716826.115112,-5.080867,3.107518,138.072207,-0.048172,-0.079819,0.972809,0.045982,0.004021,-0.013908,90.808151,40.545746,-146.904724,,,
729716826.117803,-5.080869,3.107517,99.459005,-0.048172,-0.079819,0.972809,0.045982,0.004021,-0.013908,90.808151,40.545746,-146.904724,,,
729716826.118256,-5.080867,3.10752,102.535856,-0.048172,-0.079819,0.972809,0.045982,0.004021,-0.013908,90.808151,40.545746,-146.904724,,,
729716826.118446,-5.080867,3.107518,138.072207,-0.048172,-0.079819,0.972809,0.045982,0.004021,-0.013908,90.808151,40.545746,-146.904724,,,
729716826.12358,-5.066016,3.106065,99.45208,-0.046646,-0.078918,0.979553,0.054245,-0.001474,-0.025075,90.914398,40.41864,-146.621323,,,
729716826.126473,-5.066014,3.106068,102.52893,-0.046646,-0.078918,0.979553,0.054245,-0.001474,-0.025075,90.914398,40.41864,-146.621323,,,
729716826.126719,-5.052425,3.103102,138.057485,-0.046646,-0.078918,0.979553,0.054245,-0.001474,-0.025075,90.914398,40.41864,-146.621323,,,
729716826.127549,-5.052427,3.103102,99.444281,-0.046646,-0.078918,0.979553,0.054245,-0.001474,-0.025075,90.914398,40.41864,-146.621323,,,
729716826.128492,-5.052425,3.103105,102.521131,-0.046646,-0.078918,0.979553,0.054245,-0.001474,-0.025075,90.914398,40.41864,-146.621323,,,
729716826.128652,-5.052425,3.103102,138.057485,-0.046646,-0.078918,0.979553,0.054245,-0.001474,-0.025075,90.914398,40.41864,-146.621323,,,
729716826.131297,-5.037311,3.100138,99.436401,-0.049881,-0.079178,0.97702,0.053219,-0.006085,-0.026201,90.914398,40.41864,-146.621323,,,
729716826.132083,-5.03731,3.100141,102.513252,-0.049881,-0.079178,0.97702,0.053219,-0.006085,-0.026201,90.914398,40.41864,-146.621323,,,
729716826.132239,-5.03731,3.100138,138.049606,-0.049881,-0.079178,0.97702,0.053219,-0.006085,-0.026201,90.914398,40.41864,-146.621323,,,
729716826.134181,-5.037311,3.100138,99.436401,-0.049881,-0.079178,0.97702,0.053219,-0.006085,-0.026201,90.914398,40.41864,-146.621323,,,
729716826.134454,-5.03731,3.100141,102.513252,-0.049881,-0.079178,0.97702,0.053219,-0.006085,-0.026201,90.914398,40.41864,-146.621323,,,
729716826.135123,-5.0244,3.095265,138.041445,-0.049881,-0.079178,0.97702,0.053219,-0.006085,-0.026201,90.914398,40.41864,-146.621323,,,
729716826.138048,-5.024401,3.095265,99.428241,-0.049881,-0.079178,0.97702,0.053219,-0.006085,-0.026201,90.914398,40.41864,-146.621323,,,
729716826.138519,-5.0244,3.095268,102.505092,-0.049881,-0.079178,0.97702,0.053219,-0.006085,-0.026201,90.914398,40.41864,-146.621323,,,
729716826.138671,-5.0244,3.095265,138.041445,-0.049881,-0.079178,0.97702,0.053219,-0.006085,-0.026201,90.914398,40.41864,-146.621323,,,
729716826.141934,-5.011897,3.09082,99.420583,-0.0522,-0.078705,0.973679,0.040948,-0.011038,-0.024057,90.914398,40.41864,-146.621323,,,
729716826.143198,-5.011895,3.090823,102.497434,-0.0522,-0.078705,0.973679,0.040948,-0.011038,-0.024057,90.914398,40.41864,-146.621323,,,
729716826.143347,-5.011895,3.090821,138.033787,-0.0522,-0.078705,0.973679,0.040948,-0.011038,-0.024057,90.914398,40.41864,-146.621323,,,
729716826.144,-5.011897,3.09082,99.420583,-0.0522,-0.078705,0.973679,0.040948,-0.011038,-0.024057,90.914398,40.41864,-146.621323,,,
729716826.144486,-5.011895,3.090823,102.497434,-0.0522,-0.078705,0.973679,0.040948,-0.011038,-0.024057,90.914398,40.41864,-146.621323,,,
729716826.145112,-5.003342,3.085543,138.027278,-0.0522,-0.078705,0.973679,0.040948,-0.011038,-0.024057,90.914398,40.41864,-146.621323,,,
