Time (sec),Pitch (deg),Roll (deg),Yaw(deg),X-Acceleration (g),Y-Acceleration (g),Z-Acceleration (g),Pitch Rate (deg/sec),Roll Rate (deg/sec),Yaw Rate (deg/sec),Magnetic Field in X direction (uT),Magnetic Field in Y direction (uT),Magnetic Field in Z Direction (uT),Latitude (deg),Longitude (deg),Altitude (m)
729716372.942086,-4.570938,-7.282885,-83.70754,0.140213,-0.081192,0.994888,-0.418232,0.16069,0.066328,59.015289,15.845718,-150.160278,,,
729716372.942306,-4.570937,-7.282886,-80.630662,0.140213,-0.081192,0.994888,-0.418232,0.16069,0.066328,59.015289,15.845718,-150.160278,,,
729716372.946974,-4.692946,-7.237307,-83.703238,0.128998,-0.088318,1.00354,-0.418232,0.16069,0.066328,59.015289,15.845718,-150.160278,,,
729716372.947226,-4.692945,-7.237308,-80.62636,0.128998,-0.088318,1.00354,-0.418232,0.16069,0.066328,59.015289,15.845718,-150.160278,,,
729716372.948712,-4.692946,-7.237307,-83.703238,0.128998,-0.088318,1.00354,-0.418232,0.16069,0.066328,59.015289,15.845718,-150.160278,,,
729716372.948938,-4.807665,-7.195605,-80.62269,0.128998,-0.088318,1.00354,-0.418232,0.16069,0.066328,59.015289,15.845718,-150.160278,,,
729716372.953239,-4.807667,-7.195603,-83.699568,0.128998,-0.088318,1.00354,-0.368014,0.133561,0.058121,59.015289,15.845718,-150.160278,,,
729716372.953472,-4.807665,-7.195605,-80.62269,0.128998,-0.088318,1.00354,-0.368014,0.133561,0.058121,59.015289,15.845718,-150.160278,,,
729716372.956438,-4.9154,-7.158423,-83.696465,0.121552,-0.096268,1.001495,-0.368014,0.133561,0.058121,59.015289,15.845718,-150.160278,,,
729716372.956661,-4.915398,-7.158425,-80.619587,0.121552,-0.096268,1.001495,-0.368014,0.133561,0.058121,59.015289,15.845718,-150.160278,,,
729716372.959402,-4.9154,-7.158423,-83.696465,0.121552,-0.096268,1.001495,-0.368014,0.133561,0.058121,59.48378,16.72287,-150.572159,,,
729716372.959623,-5.017887,-7.125693,-80.616705,0.121552,-0.096268,1.001495,-0.340212,0.098799,0.049137,59.48378,16.72287,-150.572159,,,
729716372.963502,-5.017889,-7.125692,-83.693583,0.121552,-0.096268,1.001495,-0.340212,0.098799,0.049137,59.48378,16.72287,-150.572159,,,
729716372.963759,-5.017887,-7.125693,-80.616705,0.121552,-0.096268,1.001495,-0.340212,0.098799,0.049137,59.48378,16.72287,-150.572159,,,
729716372.966187,-5.117311,-7.097364,-83.69128,0.119293,-0.099564,0.994583,-0.340212,0.098799,0.049137,59.48378,16.72287,-150.572159,,,
729716372.966401,-5.117309,-7.097366,-80.614402,0.119293,-0.099564,0.994583,-0.340212,0.098799,0.049137,59.48378,16.72287,-150.572159,,,
729716372.968724,-5.117311,-7.097364,-83.69128,0.119293,-0.099564,0.994583,-0.340212,0.098799,0.049137,59.48378,16.72287,-150.572159,,,
729716372.968938,-5.215233,-7.073772,-80.612841,0.119293,-0.099564,0.994583,-0.33875,0.069807,0.044889,59.48378,16.72287,-150.572159,,,
729716372.973253,-5.215235,-7.07377,-83.689719,0.119293,-0.099564,0.994583,-0.33875,0.069807,0.044889,59.48378,16.72287,-150.572159,,,
729716372.973479,-5.215233,-7.073772,-80.612841,0.119293,-0.099564,0.994583,-0.33875,0.069807,0.044889,59.48378,16.72287,-150.572159,,,
729716372.976017,-5.313712,-7.054279,-83.6884,0.119415,-0.097305,0.986908,-0.33875,0.069807,0.044889,59.48378,16.72287,-150.572159,,,
729716372.976225,-5.313711,-7.054281,-80.611521,0.119415,-0.097305,0.986908,-0.33875,0.069807,0.044889,59.48378,16.72287,-150.572159,,,
729716372.978803,-5.313712,-7.054279,-83.6884,0.119415,-0.097305,0.986908,-0.33875,0.069807,0.044889,59.48378,16.72287,-150.572159,,,
729716372.979008,-5.414091,-7.038148,-80.60979,0.119415,-0.097305,0.986908,-0.357458,0.050641,0.051219,59.48378,16.72287,-150.572159,,,
729716372.983475,-5.414092,-7.038146,-83.686668,0.119415,-0.097305,0.986908,-0.357458,0.050641,0.051219,59.48378,16.72287,-150.572159,,,
729716372.983734,-5.414091,-7.038148,-80.60979,0.119415,-0.097305,0.986908,-0.357458,0.050641,0.051219,59.48378,16.72287,-150.572159,,,
729716372.98638,-5.517891,-7.024465,-83.684549,0.121613,-0.09639,0.978546,-0.357458,0.050641,0.051219,59.48378,16.72287,-150.572159,,,
729716372.986596,-5.51789,-7.024467,-80.607671,0.121613,-0.09639,0.978546,-0.357458,0.050641,0.051219,59.48378,16.72287,-150.572159,,,
729716372.988782,-5.517891,-7.024465,-83.684549,0.121613,-0.09639,0.978546,-0.357458,0.050641,0.051219,59.48378,16.72287,-150.572159,,,
729716372.989094,-5.625589,-7.012211,-80.605234,0.121613,-0.09639,0.978546,-0.378924,0.0408,0.055239,59.48378,16.72287,-150.572159,,,
729716372.993559,-5.62559,-7.01221,-83.682113,0.121613,-0.09639,0.978546,-0.378924,0.0408,0.055239,59.48378,16.72287,-150.572159,,,
729716372.993807,-5.625589,-7.012211,-80.605234,0.121613,-0.09639,0.978546,-0.378924,0.0408,0.055239,59.48378,16.72287,-150.572159,,,
729716372.996072,-5.735722,-7.000733,-83.679368,0.119064,-0.095764,0.975143,-0.378924,0.0408,0.055239,59.48378,16.72287,-150.572159,,,
729716372.996295,-5.735721,-7.000735,-80.60249,0.119064,-0.095764,0.975143,-0.378924,0.0408,0.055239,59.48378,16.72287,-150.572159,,,
729716372.999437,-5.735722,-7.000733,-83.679368,0.119064,-0.095764,0.975143,-0.378924,0.0408,0.055239,59.373642,17.699646,-150.373322,,,
729716372.999663,-5.846059,-6.989516,-80.599408,0.119064,-0.095764,0.975143,-0.375771,0.039832,0.057629,59.373642,17.699646,-150.373322,,,
729716373.002664,-5.84606,-6.989514,-83.676287,0.119064,-0.095764,0.975143,-0.375771,0.039832,0.057629,59.373642,17.699646,-150.373322,,,
729716373.002885,-5.846059,-6.989516,-80.599408,0.119064,-0.095764,0.975143,-0.375771,0.039832,0.057629,59.373642,17.699646,-150.373322,,,
729716373.006867,-5.955082,-6.978428,-83.673405,0.126709,-0.105606,0.983093,-0.375771,0.039832,0.057629,59.373642,17.699646,-150.373322,,,
729716373.00712,-5.95508,-6.97843,-80.596527,0.126709,-0.105606,0.983093,-0.375771,0.039832,0.057629,59.373642,17.699646,-150.373322,,,
729716373.008695,-5.955082,-6.978428,-83.673405,0.126709,-0.105606,0.983093,-0.375771,0.039832,0.057629,59.373642,17.699646,-150.373322,,,
729716373.008946,-6.061293,-6.968218,-80.594259,0.126709,-0.105606,0.983093,-0.351887,0.030183,0.0493,59.373642,17.699646,-150.373322,,,
729716373.013353,-6.061295,-6.968216,-83.671137,0.126709,-0.105606,0.983093,-0.351887,0.030183,0.0493,59.373642,17.699646,-150.373322,,,
729716373.013589,-6.061293,-6.968218,-80.594259,0.126709,-0.105606,0.983093,-0.351887,0.030183,0.0493,59.373642,17.699646,-150.373322,,,
729716373.016226,-6.164056,-6.959239,-83.66958,0.127075,-0.111862,0.991364,-0.351887,0.030183,0.0493,59.373642,17.699646,-150.373322,,,
729716373.016449,-6.164055,-6.959241,-80.592702,0.127075,-0.111862,0.991364,-0.351887,0.030183,0.0493,59.373642,17.699646,-150.373322,,,
729716373.018668,-6.164056,-6.959239,-83.66958,0.127075,-0.111862,0.991364,-0.351887,0.030183,0.0493,59.373642,17.699646,-150.373322,,,
729716373.019042,-6.164055,-6.951247,-80.592668,0.127075,-0.111862,0.991364,-0.351887,0.030183,0.0493,59.373642,17.699646,-150.373322,,,
729716373.023264,-6.263231,-6.951245,-83.669546,0.127075,-0.111862,0.991364,-0.330607,0.033007,0.029687,59.373642,17.699646,-150.373322,,,
729716373.023497,-6.263229,-6.951247,-80.592668,0.127075,-0.111862,0.991364,-0.330607,0.033007,0.029687,59.373642,17.699646,-150.373322,,,
729716373.026016,-6.358809,-6.943244,-83.671453,0.127213,-0.109146,0.992996,-0.330607,0.033007,0.029687,59.373642,17.699646,-150.373322,,,
729716373.026228,-6.358807,-6.943246,-80.594575,0.127213,-0.109146,0.992996,-0.330607,0.033007,0.029687,59.373642,17.699646,-150.373322,,,
729716373.028737,-6.358809,-6.943244,-83.671453,0.127213,-0.109146,0.992996,-0.330607,0.033007,0.029687,59.373642,17.699646,-150.373322,,,
729716373.028957,-6.450811,-6.934585,-80.598626,0.127213,-0.109146,0.992996,-0.330607,0.033007,0.029687,59.373642,17.699646,-150.373322,,,
729716373.033644,-6.450812,-6.934583,-83.675504,0.127213,-0.109146,0.992996,-0.311757,0.036222,0.013739,59.373642,17.699646,-150.373322,,,
729716373.033925,-6.450811,-6.934585,-80.598626,0.127213,-0.109146,0.992996,-0.311757,0.036222,0.013739,59.373642,17.699646,-150.373322,,,
729716373.035893,-6.54065,-6.925665,-83.681326,0.129837,-0.10788,0.995255,-0.311757,0.036222,0.013739,59.373642,17.699646,-150.373322,,,
729716373.036111,-6.540648,-6.925666,-80.604448,0.129837,-0.10788,0.995255,-0.311757,0.036222,0.013739,59.373642,17.699646,-150.373322,,,
729716373.038858,-6.54065,-6.925665,-83.681326,0.129837,-0.10788,0.995255,-0.311757,0.036222,0.013739,59.373642,17.699646,-150.373322,,,
729716373.03905,-6.6306,-6.916629,-80.611073,0.129837,-0.10788,0.995255,-0.311757,0.036222,0.013739,59.373642,17.699646,-150.373322,,,
729716373.044051,-6.630602,-6.916627,-83.687951,0.129837,-0.10788,0.995255,-0.321135,0.034914,0.010892,59.363174,18.708786,-150.991608,,,
729716373.044301,-6.722791,-6.908518,-80.618188,0.126907,-0.109604,0.987259,-0.321135,0.034914,0.010892,59.363174,18.708786,-150.991608,,,
729716373.046362,-6.722793,-6.908516,-83.695066,0.126907,-0.109604,0.987259,-0.321135,0.034914,0.010892,59.363174,18.708786,-150.991608,,,
729716373.046695,-6.722791,-6.908518,-80.618188,0.126907,-0.109604,0.987259,-0.321135,0.034914,0.010892,59.363174,18.708786,-150.991608,,,
729716373.048739,-6.722793,-6.908516,-83.695066,0.126907,-0.109604,0.987259,-0.321135,0.034914,0.010892,59.363174,18.708786,-150.991608,,,
729716373.048996,-6.818431,-6.901977,-80.62575,0.126907,-0.109604,0.987259,-0.321135,0.034914,0.010892,59.363174,18.708786,-150.991608,,,
729716373.05285,-6.818433,-6.901975,-83.702628,0.126907,-0.109604,0.987259,-0.350299,0.02628,0.01375,59.363174,18.708786,-150.991608,,,
729716373.053071,-6.818431,-6.901977,-80.62575,0.126907,-0.109604,0.987259,-0.350299,0.02628,0.01375,59.363174,18.708786,-150.991608,,,
729716373.056564,-6.91866,-6.896424,-83.710114,0.124252,-0.115067,0.971512,-0.350299,0.02628,0.01375,59.363174,18.708786,-150.991608,,,
729716373.056788,-6.918658,-6.896426,-80.633236,0.124252,-0.115067,0.971512,-0.350299,0.02628,0.01375,59.363174,18.708786,-150.991608,,,
729716373.058715,-6.91866,-6.896424,-83.710114,0.124252,-0.115067,0.971512,-0.350299,0.02628,0.01375,59.363174,18.708786,-150.991608,,,
729716373.058932,-6.918658,-6.896426,-80.633236,0.124252,-0.115067,0.971512,-0.350299,0.02628,0.01375,59.363174,18.708786,-150.991608,,,
729716373.063487,-7.024008,-6.891012,-83.717587,0.124252,-0.115067,0.971512,-0.382733,0.024374,0.01597,59.363174,18.708786,-150.991608,,,
729716373.063723,-7.024006,-6.891014,-80.640709,0.124252,-0.115067,0.971512,-0.382733,0.024374,0.01597,59.363174,18.708786,-150.991608,,,
729716373.066135,-7.134498,-6.885193,-83.725589,0.128754,-0.117172,0.966248,-0.382733,0.024374,0.01597,59.363174,18.708786,-150.991608,,,
729716373.066352,-7.134497,-6.885195,-80.648711,0.128754,-0.117172,0.966248,-0.382733,0.024374,0.01597,59.363174,18.708786,-150.991608,,,
729716373.068657,-7.134498,-6.885193,-83.725589,0.128754,-0.117172,0.966248,-0.382733,0.024374,0.01597,59.363174,18.708786,-150.991608,,,
729716373.068993,-7.134497,-6.885195,-80.648711,0.128754,-0.117172,0.966248,-0.382733,0.024374,0.01597,59.363174,18.708786,-150.991608,,,
729716373.073258,-7.251174,-6.879534,-83.734358,0.128754,-0.117172,0.966248,-0.429739,0.024637,0.019102,59.363174,18.708786,-150.991608,,,
729716373.073492,-7.251172,-6.879536,-80.65748,0.128754,-0.117172,0.966248,-0.429739,0.024637,0.019102,59.363174,18.708786,-150.991608,,,
729716373.076437,-7.374882,-6.87483,-83.743771,0.129456,-0.116776,0.963379,-0.429739,0.024637,0.019102,59.363174,18.708786,-150.991608,,,
729716373.07666,-7.37488,-6.874832,-80.666893,0.129456,-0.116776,0.963379,-0.429739,0.024637,0.019102,59.363174,18.708786,-150.991608,,,
729716373.078756,-7.374882,-6.87483,-83.743771,0.129456,-0.116776,0.963379,-0.429739,0.024637,0.019102,59.363174,18.708786,-150.991608,,,
729716373.078974,-7.37488,-6.874832,-80.666893,0.129456,-0.116776,0.963379,-0.429739,0.024637,0.019102,59.363174,18.708786,-150.991608,,,
729716373.083734,-7.506104,-6.870717,-83.754189,0.129456,-0.116776,0.963379,-0.479722,0.024012,0.012798,59.427399,19.465027,-150.715866,,,
729716373.084023,-7.506102,-6.870719,-80.677311,0.129456,-0.116776,0.963379,-0.479722,0.024012,0.012798,59.427399,19.465027,-150.715866,,,
729716373.086082,-7.644488,-6.865789,-83.766512,0.127991,-0.118057,0.95137,-0.479722,0.024012,0.012798,59.427399,19.465027,-150.715866,,,
729716373.086302,-7.644486,-6.865791,-80.689633,0.127991,-0.118057,0.95137,-0.479722,0.024012,0.012798,59.427399,19.465027,-150.715866,,,
729716373.08879,-7.644488,-6.865789,-83.766512,0.127991,-0.118057,0.95137,-0.479722,0.024012,0.012798,59.427399,19.465027,-150.715866,,,
729716373.08899,-7.644486,-6.865791,-80.689633,0.127991,-0.118057,0.95137,-0.479722,0.024012,0.012798,59.427399,19.465027,-150.715866,,,
729716373.093609,-7.789693,-6.859844,-83.781181,0.127991,-0.118057,0.95137,-0.52918,0.029591,0.002009,59.427399,19.465027,-150.715866,,,
729716373.09385,-7.789691,-6.859846,-80.704302,0.127991,-0.118057,0.95137,-0.52918,0.029591,0.002009,59.427399,19.465027,-150.715866,,,
729716373.096261,-7.941243,-6.854431,-83.798613,0.132339,-0.116867,0.953964,-0.52918,0.029591,0.002009,59.427399,19.465027,-150.715866,,,
729716373.096481,-7.941241,-6.854433,-80.721735,0.132339,-0.116867,0.953964,-0.52918,0.029591,0.002009,59.427399,19.465027,-150.715866,,,
729716373.098816,-7.941243,-6.854431,-83.798613,0.132339,-0.116867,0.953964,-0.52918,0.029591,0.002009,59.427399,19.465027,-150.715866,,,
729716373.099027,-7.941241,-6.854433,-80.721735,0.132339,-0.116867,0.953964,-0.52918,0.029591,0.002009,59.427399,19.465027,-150.715866,,,
729716373.104451,-8.098577,-6.850028,-83.818014,0.132339,-0.116867,0.953964,-0.5662,0.022954,-0.004464,59.427399,19.465027,-150.715866,,,
729716373.104723,-8.260391,-6.84667,-80.761165,0.13121,-0.12262,0.948822,-0.5662,0.022954,-0.004464,59.427399,19.465027,-150.715866,,,
729716373.105864,-8.260393,-6.846668,-83.838043,0.13121,-0.12262,0.948822,-0.5662,0.022954,-0.004464,59.427399,19.465027,-150.715866,,,
729716373.106089,-8.260391,-6.84667,-80.761165,0.13121,-0.12262,0.948822,-0.5662,0.022954,-0.004464,59.427399,19.465027,-150.715866,,,
729716373.108834,-8.260393,-6.846668,-83.838043,0.13121,-0.12262,0.948822,-0.5662,0.022954,-0.004464,59.427399,19.465027,-150.715866,,,
729716373.109026,-8.260391,-6.84667,-80.761165,0.13121,-0.12262,0.948822,-0.5662,0.022954,-0.004464,59.427399,19.465027,-150.715866,,,
729716373.114238,-8.42377,-6.84436,-83.857829,0.13121,-0.12262,0.948822,-0.573963,0.01941,0.002976,59.427399,19.465027,-150.715866,,,
729716373.114497,-8.586888,-6.842546,-80.799891,0.123901,-0.136871,0.955658,-0.573963,0.01941,0.002976,59.427399,19.465027,-150.715866,,,
729716373.11647,-8.58689,-6.842544,-83.87677,0.123901,-0.136871,0.955658,-0.573963,0.01941,0.002976,59.427399,19.465027,-150.715866,,,
729716373.116704,-8.586888,-6.842546,-80.799891,0.123901,-0.136871,0.955658,-0.573963,0.01941,0.002976,59.427399,19.465027,-150.715866,,,
729716373.118677,-8.58689,-6.842544,-83.87677,0.123901,-0.136871,0.955658,-0.573963,0.01941,0.002976,59.427399,19.465027,-150.715866,,,
729716373.118946,-8.586888,-6.842546,-80.799891,0.123901,-0.136871,0.955658,-0.573963,0.01941,0.002976,59.427399,19.465027,-150.715866,,,
729716373.123753,-8.747984,-6.840921,-83.894378,0.123901,-0.136871,0.955658,-0.550206,0.015765,0.01118,59.505524,20.492462,-151.06868,,,
729716373.12404,-8.747982,-6.840923,-80.817499,0.123901,-0.136871,0.955658,-0.550206,0.015765,0.01118,59.505524,20.492462,-151.06868,,,
729716373.126274,-8.905684,-6.839367,-83.909991,0.118912,-0.152832,0.969955,-0.550206,0.015765,0.01118,59.505524,20.492462,-151.06868,,,
729716373.126494,-8.905682,-6.839369,-80.833112,0.118912,-0.152832,0.969955,-0.550206,0.015765,0.01118,59.505524,20.492462,-151.06868,,,
729716373.128818,-8.905684,-6.839367,-83.909991,0.118912,-0.152832,0.969955,-0.550206,0.015765,0.01118,59.505524,20.492462,-151.06868,,,
729716373.129002,-8.905682,-6.839369,-80.833112,0.118912,-0.152832,0.969955,-0.550206,0.015765,0.01118,59.505524,20.492462,-151.06868,,,
729716373.133168,-9.059814,-6.837859,-83.923577,0.118912,-0.152832,0.969955,-0.523708,0.015748,0.019623,59.505524,20.492462,-151.06868,,,
729716373.133387,-9.059812,-6.837861,-80.846699,0.118912,-0.152832,0.969955,-0.523708,0.015748,0.019623,59.505524,20.492462,-151.06868,,,
729716373.13609,-9.209981,-6.835769,-83.935035,0.119095,-0.163269,0.974792,-0.523708,0.015748,0.019623,59.505524,20.492462,-151.06868,,,
729716373.136314,-9.209978,-6.835771,-80.858157,0.119095,-0.163269,0.974792,-0.523708,0.015748,0.019623,59.505524,20.492462,-151.06868,,,
729716373.138783,-9.209981,-6.835769,-83.935035,0.119095,-0.163269,0.974792,-0.523708,0.015748,0.019623,59.505524,20.492462,-151.06868,,,
729716373.138991,-9.209978,-6.835771,-80.858157,0.119095,-0.163269,0.974792,-0.523708,0.015748,0.019623,59.505524,20.492462,-151.06868,,,
729716373.143612,-9.357225,-6.832154,-83.945409,0.119095,-0.163269,0.974792,-0.509202,0.029016,0.025999,59.505524,20.492462,-151.06868,,,
729716373.14384,-9.357223,-6.832156,-80.868531,0.119095,-0.163269,0.974792,-0.509202,0.029016,0.025999,59.505524,20.492462,-151.06868,,,
729716373.146178,-9.503351,-6.826735,-83.955776,0.116974,-0.163101,0.975082,-0.509202,0.029016,0.025999,59.505524,20.492462,-151.06868,,,
729716373.146396,-9.503348,-6.826737,-80.878898,0.116974,-0.163101,0.975082,-0.509202,0.029016,0.025999,59.505524,20.492462,-151.06868,,,
729716373.14876,-9.503351,-6.826735,-83.955776,0.116974,-0.163101,0.975082,-0.509202,0.029016,0.025999,59.505524,20.492462,-151.06868,,,
729716373.148954,-9.503348,-6.826737,-80.878898,0.116974,-0.163101,0.975082,-0.509202,0.029016,0.025999,59.505524,20.492462,-151.06868,,,
729716373.153622,-9.65092,-6.820032,-83.966312,0.116974,-0.163101,0.975082,-0.525268,0.036455,0.024669,59.505524,20.492462,-151.06868,,,
729716373.153882,-9.650917,-6.820034,-80.889434,0.116974,-0.163101,0.975082,-0.525268,0.036455,0.024669,59.505524,20.492462,-151.06868,,,
729716373.156611,-9.80212,-6.812331,-83.97789,0.114899,-0.162445,0.961685,-0.525268,0.036455,0.024669,59.505524,20.492462,-151.06868,,,
729716373.156848,-9.802118,-6.812333,-80.901012,0.114899,-0.162445,0.961685,-0.525268,0.036455,0.024669,59.505524,20.492462,-151.06868,,,
729716373.158717,-9.80212,-6.812331,-83.97789,0.114899,-0.162445,0.961685,-0.525268,0.036455,0.024669,59.505524,20.492462,-151.06868,,,
729716373.158934,-9.802118,-6.812333,-80.901012,0.114899,-0.162445,0.961685,-0.525268,0.036455,0.024669,59.505524,20.492462,-151.06868,,,
729716373.164012,-9.958565,-6.802889,-83.990881,0.114899,-0.162445,0.961685,-0.570789,0.051902,0.016497,59.576431,21.762283,-151.014511,,,
729716373.164298,-9.958562,-6.79202,-80.928357,0.114899,-0.162445,0.961685,-0.570789,0.051902,0.016497,59.576431,21.762283,-151.014511,,,
729716373.166512,-10.122096,-6.792018,-84.005236,0.119339,-0.159256,0.946808,-0.570789,0.051902,0.016497,59.576431,21.762283,-151.014511,,,
729716373.166738,-10.122093,-6.79202,-80.928357,0.119339,-0.159256,0.946808,-0.570789,0.051902,0.016497,59.576431,21.762283,-151.014511,,,
729716373.168711,-10.122096,-6.792018,-84.005236,0.119339,-0.159256,0.946808,-0.570789,0.051902,0.016497,59.576431,21.762283,-151.014511,,,
729716373.168958,-10.122093,-6.79202,-80.928357,0.119339,-0.159256,0.946808,-0.570789,0.051902,0.016497,59.576431,21.762283,-151.014511,,,
729716373.173426,-10.295241,-6.781145,-84.020983,0.119339,-0.159256,0.946808,-0.640754,0.049954,0.016601,59.576431,21.762283,-151.014511,,,
729716373.173659,-10.295239,-6.781147,-80.944105,0.119339,-0.159256,0.946808,-0.640754,0.049954,0.016601,59.576431,21.762283,-151.014511,,,
729716373.176828,-10.478486,-6.77098,-84.037627,0.11351,-0.165512,0.935013,-0.640754,0.049954,0.016601,59.576431,21.762283,-151.014511,,,
729716373.177067,-10.478483,-6.770981,-80.960748,0.11351,-0.165512,0.935013,-0.640754,0.049954,0.016601,59.576431,21.762283,-151.014511,,,
729716373.178771,-10.478486,-6.77098,-84.037627,0.11351,-0.165512,0.935013,-0.640754,0.049954,0.016601,59.576431,21.762283,-151.014511,,,
729716373.17904,-10.478483,-6.770981,-80.960748,0.11351,-0.165512,0.935013,-0.640754,0.049954,0.016601,59.576431,21.762283,-151.014511,,,
729716373.183765,-10.671559,-6.761866,-84.053751,0.11351,-0.165512,0.935013,-0.709195,0.038744,0.028063,59.576431,21.762283,-151.014511,,,
729716373.184036,-10.671556,-6.761868,-80.976873,0.11351,-0.165512,0.935013,-0.709195,0.038744,0.028063,59.576431,21.762283,-151.014511,,,
729716373.186396,-10.875468,-6.754926,-84.069472,0.106094,-0.173508,0.927521,-0.709195,0.038744,0.028063,59.576431,21.762283,-151.014511,,,
729716373.186628,-10.875465,-6.754928,-80.992594,0.106094,-0.173508,0.927521,-0.709195,0.038744,0.028063,59.576431,21.762283,-151.014511,,,
729716373.188779,-10.875468,-6.754926,-84.069472,0.106094,-0.173508,0.927521,-0.709195,0.038744,0.028063,59.576431,21.762283,-151.014511,,,
729716373.188997,-10.875465,-6.754928,-80.992594,0.106094,-0.173508,0.927521,-0.709195,0.038744,0.028063,59.576431,21.762283,-151.014511,,,
729716373.193407,-11.090493,-6.750339,-84.08513,0.106094,-0.173508,0.927521,-0.790926,0.022108,0.040273,59.576431,21.762283,-151.014511,,,
729716373.19363,-11.09049,-6.750341,-81.008251,0.106094,-0.173508,0.927521,-0.790926,0.022108,0.040273,59.576431,21.762283,-151.014511,,,
729716373.19638,-11.317453,-6.748185,-84.100853,0.10672,-0.180588,0.91835,-0.790926,0.022108,0.040273,59.576431,21.762283,-151.014511,,,
729716373.196604,-11.31745,-6.748187,-81.023975,0.10672,-0.180588,0.91835,-0.790926,0.022108,0.040273,59.576431,21.762283,-151.014511,,,
729716373.198785,-11.317453,-6.748185,-84.100853,0.10672,-0.180588,0.91835,-0.790926,0.022108,0.040273,59.576431,21.762283,-151.014511,,,
729716373.198988,-11.31745,-6.748187,-81.023975,0.10672,-0.180588,0.91835,-0.790926,0.022108,0.040273,59.576431,21.762283,-151.014511,,,
729716373.202977,-11.55573,-6.748351,-84.117224,0.10672,-0.180588,0.91835,-0.856489,0.003745,0.043056,59.576431,21.762283,-151.014511,,,
729716373.203211,-11.555727,-6.748353,-81.040346,0.10672,-0.180588,0.91835,-0.856489,0.003745,0.043056,59.800171,23.409943,-151.001175,,,
729716373.206774,-11.801181,-6.75129,-84.133821,0.109421,-0.188873,0.915405,-0.856489,0.003745,0.043056,59.800171,23.409943,-151.001175,,,
729716373.207012,-11.801179,-6.751292,-81.056943,0.109421,-0.188873,0.915405,-0.856489,0.003745,0.043056,59.800171,23.409943,-151.001175,,,
729716373.208697,-11.801181,-6.75129,-84.133821,0.109421,-0.188873,0.915405,-0.856489,0.003745,0.043056,59.800171,23.409943,-151.001175,,,
729716373.208935,-11.801179,-6.751292,-81.056943,0.109421,-0.188873,0.915405,-0.856489,0.003745,0.043056,59.800171,23.409943,-151.001175,,,
729716373.214384,-12.049281,-6.757957,-84.150982,0.109421,-0.188873,0.915405,-0.863538,-0.020678,0.036909,59.800171,23.409943,-151.001175,,,
729716373.214678,-12.296431,-6.768742,-81.092608,0.108032,-0.203842,0.932159,-0.863538,-0.020678,0.036909,59.800171,23.409943,-151.001175,,,
729716373.216896,-12.296434,-6.76874,-84.169486,0.108032,-0.203842,0.932159,-0.863538,-0.020678,0.036909,59.800171,23.409943,-151.001175,,,
729716373.217186,-12.296431,-6.768742,-81.092608,0.108032,-0.203842,0.932159,-0.863538,-0.020678,0.036909,59.800171,23.409943,-151.001175,,,
729716373.218766,-12.296434,-6.76874,-84.169486,0.108032,-0.203842,0.932159,-0.863538,-0.020678,0.036909,59.800171,23.409943,-151.001175,,,
729716373.218976,-12.296431,-6.768742,-81.092608,0.108032,-0.203842,0.932159,-0.863538,-0.020678,0.036909,59.800171,23.409943,-151.001175,,,
729716373.223773,-12.539976,-6.783422,-84.189719,0.108032,-0.203842,0.932159,-0.831774,-0.042978,0.020514,59.800171,23.409943,-151.001175,,,
729716373.224014,-12.539973,-6.783424,-81.112841,0.108032,-0.203842,0.932159,-0.831774,-0.042978,0.020514,59.800171,23.409943,-151.001175,,,
729716373.226661,-12.777288,-6.802224,-84.21218,0.110306,-0.214722,0.953842,-0.831774,-0.042978,0.020514,59.800171,23.409943,-151.001175,,,
729716373.226895,-12.777285,-6.802226,-81.135302,0.110306,-0.214722,0.953842,-0.831774,-0.042978,0.020514,59.800171,23.409943,-151.001175,,,
729716373.229005,-12.777288,-6.802224,-84.21218,0.110306,-0.214722,0.953842,-0.831774,-0.042978,0.020514,59.800171,23.409943,-151.001175,,,
729716373.229249,-12.777285,-6.802226,-81.135302,0.110306,-0.214722,0.953842,-0.831774,-0.042978,0.020514,59.800171,23.409943,-151.001175,,,
729716373.234908,-13.003844,-6.825261,-84.237424,0.110306,-0.214722,0.953842,-0.74314,-0.066248,-0.007128,59.800171,23.409943,-151.001175,,,
729716373.235188,-13.215144,-6.850772,-81.188854,0.113449,-0.227722,0.973679,-0.74314,-0.066248,-0.007128,59.800171,23.409943,-151.001175,,,
729716373.235615,-13.215144,-6.850772,-81.188854,0.113449,-0.227722,0.973679,-0.74314,-0.066248,-0.007128,59.800171,23.409943,-151.001175,,,
729716373.240806,-13.215147,-6.85077,-84.265732,0.113449,-0.227722,0.973679,-0.616688,-0.044814,-0.03652,59.800171,23.409943,-151.001175,,,
729716373.241059,-13.408814,-6.875772,-81.219869,0.113449,-0.227722,0.973679,-0.616688,-0.044814,-0.03652,59.800171,23.409943,-151.001175,,,
729716373.242769,-13.408817,-6.87577,-84.296747,0.113449,-0.227722,0.973679,-0.616688,-0.044814,-0.03652,59.800171,23.409943,-151.001175,,,
729716373.242978,-13.408814,-6.875772,-81.219869,0.113449,-0.227722,0.973679,-0.616688,-0.044814,-0.03652,59.800171,23.409943,-151.001175,,,
729716373.247301,-13.58367,-6.897741,-84.329548,0.11322,-0.242584,1.008331,-0.616688,-0.044814,-0.03652,59.664688,25.164841,-150.855087,,,
729716373.247548,-13.583666,-6.897743,-81.25267,0.11322,-0.242584,1.008331,-0.616688,-0.044814,-0.03652,59.664688,25.164841,-150.855087,,,
729716373.248624,-13.58367,-6.897741,-84.329548,0.11322,-0.242584,1.008331,-0.616688,-0.044814,-0.03652,59.664688,25.164841,-150.855087,,,
729716373.248958,-13.583666,-6.897743,-81.25267,0.11322,-0.242584,1.008331,-0.616688,-0.044814,-0.03652,59.664688,25.164841,-150.855087,,,
729716373.253422,-13.740931,-6.915896,-84.363578,0.11322,-0.242584,1.008331,-0.50599,-0.020984,-0.057593,59.664688,25.164841,-150.855087,,,
729716373.253656,-13.740927,-6.915898,-81.2867,0.11322,-0.242584,1.008331,-0.50599,-0.020984,-0.057593,59.664688,25.164841,-150.855087,,,
729716373.256751,-13.883161,-6.93121,-84.39835,0.11261,-0.248459,1.02269,-0.50599,-0.020984,-0.057593,59.664688,25.164841,-150.855087,,,
729716373.256993,-13.883157,-6.931212,-81.321472,0.11261,-0.248459,1.02269,-0.50599,-0.020984,-0.057593,59.664688,25.164841,-150.855087,,,
729716373.258816,-13.883161,-6.93121,-84.39835,0.11261,-0.248459,1.02269,-0.50599,-0.020984,-0.057593,59.664688,25.164841,-150.855087,,,
729716373.25902,-13.883157,-6.931212,-81.321472,0.11261,-0.248459,1.02269,-0.50599,-0.020984,-0.057593,59.664688,25.164841,-150.855087,,,
729716373.26352,-14.012358,-6.94534,-84.432811,0.11261,-0.248459,1.02269,-0.418674,-0.016063,-0.059969,59.664688,25.164841,-150.855087,,,
729716373.263798,-14.012355,-6.945342,-81.355932,0.11261,-0.248459,1.02269,-0.418674,-0.016063,-0.059969,59.664688,25.164841,-150.855087,,,
729716373.266641,-14.129759,-6.958606,-84.465437,0.114365,-0.255737,1.003891,-0.418674,-0.016063,-0.059969,59.664688,25.164841,-150.855087,,,
729716373.26688,-14.129755,-6.958608,-81.388559,0.114365,-0.255737,1.003891,-0.418674,-0.016063,-0.059969,59.664688,25.164841,-150.855087,,,
729716373.268697,-14.129759,-6.958606,-84.465437,0.114365,-0.255737,1.003891,-0.418674,-0.016063,-0.059969,59.664688,25.164841,-150.855087,,,
729716373.268947,-14.129755,-6.958608,-81.388559,0.114365,-0.255737,1.003891,-0.418674,-0.016063,-0.059969,59.664688,25.164841,-150.855087,,,
729716373.273595,-14.236782,-6.971213,-84.495323,0.114365,-0.255737,1.003891,-0.349176,-0.015619,-0.050918,59.664688,25.164841,-150.855087,,,
729716373.273841,-14.236779,-6.971215,-81.418445,0.114365,-0.255737,1.003891,-0.349176,-0.015619,-0.050918,59.664688,25.164841,-150.855087,,,
729716373.276207,-14.335223,-6.982872,-84.52231,0.113129,-0.263565,0.999435,-0.349176,-0.015619,-0.050918,59.664688,25.164841,-150.855087,,,
729716373.276432,-14.335219,-6.982874,-81.445432,0.113129,-0.263565,0.999435,-0.349176,-0.015619,-0.050918,59.664688,25.164841,-150.855087,,,
729716373.278843,-14.335223,-6.982872,-84.52231,0.113129,-0.263565,0.999435,-0.349176,-0.015619,-0.050918,59.664688,25.164841,-150.855087,,,
729716373.279031,-14.335219,-6.982874,-81.445432,0.113129,-0.263565,0.999435,-0.349176,-0.015619,-0.050918,59.664688,25.164841,-150.855087,,,
729716373.283447,-14.42788,-6.993491,-84.546324,0.113129,-0.263565,0.999435,-0.316878,-0.015384,-0.035097,59.664688,25.164841,-150.855087,,,
729716373.283684,-14.427877,-6.993493,-81.469446,0.113129,-0.263565,0.999435,-0.316878,-0.015384,-0.035097,59.664688,25.164841,-150.855087,,,
729716373.287182,-14.517451,-7.003535,-84.567901,0.114334,-0.265808,0.989365,-0.316878,-0.015384,-0.035097,59.509155,26.042801,-150.877502,,,
729716373.287442,-14.517447,-7.003537,-81.491023,0.114334,-0.265808,0.989365,-0.316878,-0.015384,-0.035097,59.509155,26.042801,-150.877502,,,
729716373.288642,-14.517451,-7.003535,-84.567901,0.114334,-0.265808,0.989365,-0.316878,-0.015384,-0.035097,59.509155,26.042801,-150.877502,,,
729716373.289013,-14.517447,-7.003537,-81.491023,0.114334,-0.265808,0.989365,-0.316878,-0.015384,-0.035097,59.509155,26.042801,-150.877502,,,
729716373.293663,-14.604385,-7.011993,-84.58771,0.114334,-0.265808,0.989365,-0.300072,-0.003642,-0.026696,59.509155,26.042801,-150.877502,,,
729716373.2939,-14.604382,-7.011995,-81.510832,0.114334,-0.265808,0.989365,-0.300072,-0.003642,-0.026696,59.509155,26.042801,-150.877502,,,
729716373.296667,-14.689002,-7.018125,-84.60638,0.116699,-0.265274,0.976685,-0.300072,-0.003642,-0.026696,59.509155,26.042801,-150.877502,,,
729716373.296895,-14.688998,-7.018127,-81.529502,0.116699,-0.265274,0.976685,-0.300072,-0.003642,-0.026696,59.509155,26.042801,-150.877502,,,
729716373.298731,-14.689002,-7.018125,-84.60638,0.116699,-0.265274,0.976685,-0.300072,-0.003642,-0.026696,59.509155,26.042801,-150.877502,,,
729716373.298947,-14.688998,-7.018127,-81.529502,0.116699,-0.265274,0.976685,-0.300072,-0.003642,-0.026696,59.509155,26.042801,-150.877502,,,
729716373.304512,-14.772155,-7.022137,-84.623938,0.116699,-0.265274,0.976685,-0.290758,0.009951,-0.022031,59.509155,26.042801,-150.877502,,,
729716373.304791,-14.854709,-7.025004,-81.563586,0.117981,-0.263123,0.980392,-0.290758,0.009951,-0.022031,59.509155,26.042801,-150.877502,,,
729716373.306322,-14.854713,-7.025002,-84.640464,0.117981,-0.263123,0.980392,-0.290758,0.009951,-0.022031,59.509155,26.042801,-150.877502,,,
729716373.306552,-14.854709,-7.025004,-81.563586,0.117981,-0.263123,0.980392,-0.290758,0.009951,-0.022031,59.509155,26.042801,-150.877502,,,
729716373.308789,-14.854713,-7.025002,-84.640464,0.117981,-0.263123,0.980392,-0.290758,0.009951,-0.022031,59.509155,26.042801,-150.877502,,,
729716373.308987,-14.854709,-7.025004,-81.563586,0.117981,-0.263123,0.980392,-0.290758,0.009951,-0.022031,59.509155,26.042801,-150.877502,,,
729716373.31297,-14.938236,-7.027512,-84.656987,0.117981,-0.263123,0.980392,-0.304132,0.008383,-0.021975,59.509155,26.042801,-150.877502,,,
729716373.313206,-14.938232,-7.027514,-81.580109,0.117981,-0.263123,0.980392,-0.304132,0.008383,-0.021975,59.509155,26.042801,-150.877502,,,
729716373.316187,-15.02473,-7.030469,-84.673863,0.118073,-0.262421,0.970276,-0.304132,0.008383,-0.021975,59.509155,26.042801,-150.877502,,,
729716373.316403,-15.024726,-7.030471,-81.596984,0.118073,-0.262421,0.970276,-0.304132,0.008383,-0.021975,59.509155,26.042801,-150.877502,,,
729716373.318677,-15.02473,-7.030469,-84.673863,0.118073,-0.262421,0.970276,-0.304132,0.008383,-0.021975,59.509155,26.042801,-150.877502,,,
729716373.318938,-15.024726,-7.030471,-81.596984,0.118073,-0.262421,0.970276,-0.304132,0.008383,-0.021975,59.509155,26.042801,-150.877502,,,
729716373.324085,-15.114657,-7.034363,-84.690876,0.118073,-0.262421,0.970276,-0.328496,-0.000443,-0.020304,59.509155,26.042801,-150.877502,,,
729716373.324337,-15.114653,-7.034365,-81.613998,0.118073,-0.262421,0.970276,-0.328496,-0.000443,-0.020304,59.509155,26.042801,-150.877502,,,
729716373.327029,-15.207189,-7.039398,-84.708802,0.121506,-0.264008,0.961349,-0.328496,-0.000443,-0.020304,59.547363,26.731384,-150.668182,,,
729716373.32727,-15.207185,-7.0394,-81.631924,0.121506,-0.264008,0.961349,-0.328496,-0.000443,-0.020304,59.547363,26.731384,-150.668182,,,
729716373.328929,-15.207189,-7.039398,-84.708802,0.121506,-0.264008,0.961349,-0.328496,-0.000443,-0.020304,59.547363,26.731384,-150.668182,,,
729716373.329132,-15.207185,-7.0394,-81.631924,0.121506,-0.264008,0.961349,-0.328496,-0.000443,-0.020304,59.547363,26.731384,-150.668182,,,
729716373.334665,-15.301327,-7.045018,-84.727746,0.121506,-0.264008,0.961349,-0.34067,0.005393,-0.026382,59.547363,26.731384,-150.668182,,,
729716373.334943,-15.396687,-7.050075,-81.670514,0.124359,-0.268784,0.968201,-0.34067,0.005393,-0.026382,59.547363,26.731384,-150.668182,,,
729716373.336204,-15.39669,-7.050074,-84.747392,0.124359,-0.268784,0.968201,-0.34067,0.005393,-0.026382,59.547363,26.731384,-150.668182,,,
729716373.336426,-15.396687,-7.050075,-81.670514,0.124359,-0.268784,0.968201,-0.34067,0.005393,-0.026382,59.547363,26.731384,-150.668182,,,
729716373.338777,-15.39669,-7.050074,-84.747392,0.124359,-0.268784,0.968201,-0.34067,0.005393,-0.026382,59.547363,26.731384,-150.668182,,,
729716373.339004,-15.396687,-7.050075,-81.670514,0.124359,-0.268784,0.968201,-0.34067,0.005393,-0.026382,59.547363,26.731384,-150.668182,,,
729716373.343083,-15.494365,-7.054226,-84.767878,0.124359,-0.268784,0.968201,-0.353576,0.008865,-0.02689,59.547363,26.731384,-150.668182,,,
729716373.343324,-15.494361,-7.054228,-81.691,0.124359,-0.268784,0.968201,-0.353576,0.008865,-0.02689,59.547363,26.731384,-150.668182,,,
729716373.346554,-15.594331,-7.058351,-84.788668,0.126785,-0.270462,0.9729,-0.353576,0.008865,-0.02689,59.547363,26.731384,-150.668182,,,
729716373.34678,-15.594327,-7.058352,-81.71179,0.126785,-0.270462,0.9729,-0.353576,0.008865,-0.02689,59.547363,26.731384,-150.668182,,,
729716373.348746,-15.594331,-7.058351,-84.788668,0.126785,-0.270462,0.9729,-0.353576,0.008865,-0.02689,59.547363,26.731384,-150.668182,,,
729716373.348964,-15.594327,-7.058352,-81.71179,0.126785,-0.270462,0.9729,-0.353576,0.008865,-0.02689,59.547363,26.731384,-150.668182,,,
729716373.353189,-15.695283,-7.063117,-84.808968,0.126785,-0.270462,0.9729,-0.356053,0.004564,-0.023833,59.547363,26.731384,-150.668182,,,
729716373.353416,-15.695279,-7.063119,-81.73209,0.126785,-0.270462,0.9729,-0.356053,0.004564,-0.023833,59.547363,26.731384,-150.668182,,,
729716373.35642,-15.796109,-7.068176,-84.828682,0.123795,-0.274216,0.968674,-0.356053,0.004564,-0.023833,59.547363,26.731384,-150.668182,,,
729716373.356667,-15.796105,-7.068178,-81.751804,0.123795,-0.274216,0.968674,-0.356053,0.004564,-0.023833,59.547363,26.731384,-150.668182,,,
729716373.358759,-15.796109,-7.068176,-84.828682,0.123795,-0.274216,0.968674,-0.356053,0.004564,-0.023833,59.547363,26.731384,-150.668182,,,
729716373.358976,-15.796105,-7.068178,-81.751804,0.123795,-0.274216,0.968674,-0.356053,0.004564,-0.023833,59.547363,26.731384,-150.668182,,,
729716373.362875,-15.896314,-7.073356,-84.848118,0.123795,-0.274216,0.968674,-0.35132,6e-06,-0.022927,59.547363,26.731384,-150.668182,,,
729716373.363094,-15.89631,-7.073358,-81.771239,0.123795,-0.274216,0.968674,-0.35132,6e-06,-0.022927,59.547363,26.731384,-150.668182,,,
729716373.3673,-15.995383,-7.079229,-84.867439,0.12558,-0.276978,0.96904,-0.35132,6e-06,-0.022927,59.647156,27.43248,-151.003265,,,
729716373.367542,-15.995379,-7.079231,-81.790561,0.12558,-0.276978,0.96904,-0.35132,6e-06,-0.022927,59.647156,27.43248,-151.003265,,,
729716373.368654,-15.995383,-7.079229,-84.867439,0.12558,-0.276978,0.96904,-0.35132,6e-06,-0.022927,59.647156,27.43248,-151.003265,,,
729716373.368957,-15.995379,-7.079231,-81.790561,0.12558,-0.276978,0.96904,-0.35132,6e-06,-0.022927,59.647156,27.43248,-151.003265,,,
729716373.374403,-16.092708,-7.085608,-84.886919,0.12558,-0.276978,0.96904,-0.334576,-0.000204,-0.022861,59.647156,27.43248,-151.003265,,,
729716373.374715,-16.092704,-7.08561,-81.81004,0.12558,-0.276978,0.96904,-0.334576,-0.000204,-0.022861,59.647156,27.43248,-151.003265,,,
729716373.375838,-16.188154,-7.092046,-84.906234,0.127274,-0.280563,0.967407,-0.334576,-0.000204,-0.022861,59.647156,27.43248,-151.003265,,,
729716373.376053,-16.18815,-7.092047,-81.829356,0.127274,-0.280563,0.967407,-0.334576,-0.000204,-0.022861,59.647156,27.43248,-151.003265,,,
729716373.378937,-16.188154,-7.092046,-84.906234,0.127274,-0.280563,0.967407,-0.334576,-0.000204,-0.022861,59.647156,27.43248,-151.003265,,,
729716373.379143,-16.18815,-7.092047,-81.829356,0.127274,-0.280563,0.967407,-0.334576,-0.000204,-0.022861,59.647156,27.43248,-151.003265,,,
729716373.383547,-16.280891,-7.098603,-84.925151,0.127274,-0.280563,0.967407,-0.314756,-0.00024,-0.027672,59.647156,27.43248,-151.003265,,,
729716373.38381,-16.280887,-7.098605,-81.848273,0.127274,-0.280563,0.967407,-0.314756,-0.00024,-0.027672,59.647156,27.43248,-151.003265,,,
729716373.386067,-16.370012,-7.104609,-84.944622,0.124893,-0.281143,0.965698,-0.314756,-0.00024,-0.027672,59.647156,27.43248,-151.003265,,,
729716373.386282,-16.370008,-7.104611,-81.867744,0.124893,-0.281143,0.965698,-0.314756,-0.00024,-0.027672,59.647156,27.43248,-151.003265,,,
729716373.388782,-16.370012,-7.104609,-84.944622,0.124893,-0.281143,0.965698,-0.314756,-0.00024,-0.027672,59.647156,27.43248,-151.003265,,,
729716373.389021,-16.370008,-7.104611,-81.867744,0.124893,-0.281143,0.965698,-0.314756,-0.00024,-0.027672,59.647156,27.43248,-151.003265,,,
729716373.394391,-16.455795,-7.110299,-84.964524,0.124893,-0.281143,0.965698,-0.294122,0.002113,-0.028216,59.647156,27.43248,-151.003265,,,
729716373.394689,-16.455791,-7.110301,-81.887646,0.124893,-0.281143,0.965698,-0.294122,0.002113,-0.028216,59.647156,27.43248,-151.003265,,,
729716373.396351,-16.539478,-7.115805,-84.983886,0.129333,-0.281357,0.968307,-0.294122,0.002113,-0.028216,59.647156,27.43248,-151.003265,,,
729716373.396779,-16.539474,-7.115807,-81.907008,0.129333,-0.281357,0.968307,-0.294122,0.002113,-0.028216,59.647156,27.43248,-151.003265,,,
729716373.398721,-16.539478,-7.115805,-84.983886,0.129333,-0.281357,0.968307,-0.294122,0.002113,-0.028216,59.647156,27.43248,-151.003265,,,
729716373.398941,-16.539474,-7.115807,-81.907008,0.129333,-0.281357,0.968307,-0.294122,0.002113,-0.028216,59.647156,27.43248,-151.003265,,,
729716373.402656,-16.621718,-7.120986,-85.002348,0.129333,-0.281357,0.968307,-0.288054,0.002612,-0.025161,59.647156,27.43248,-151.003265,,,
729716373.40288,-16.621714,-7.120988,-81.92547,0.129333,-0.281357,0.968307,-0.288054,0.002612,-0.025161,59.647156,27.43248,-151.003265,,,
729716373.406712,-16.703276,-7.126155,-85.020143,0.125549,-0.285248,0.960678,-0.288054,0.002612,-0.025161,59.647156,27.43248,-151.003265,,,
729716373.406936,-16.703272,-7.126157,-81.943265,0.125549,-0.285248,0.960678,-0.288054,0.002612,-0.025161,59.647156,27.43248,-151.003265,,,
729716373.409344,-16.703276,-7.126155,-85.020143,0.125549,-0.285248,0.960678,-0.288054,0.002612,-0.025161,59.622833,28.169876,-150.476227,,,
729716373.409601,-16.703272,-7.126157,-81.943265,0.125549,-0.285248,0.960678,-0.288054,0.002612,-0.025161,59.622833,28.169876,-150.476227,,,
729716373.413067,-16.784465,-7.130788,-85.03718,0.125549,-0.285248,0.960678,-0.286072,0.007335,-0.021062,59.622833,28.169876,-150.476227,,,
729716373.413305,-16.784461,-7.13079,-81.960302,0.125549,-0.285248,0.960678,-0.286072,0.007335,-0.021062,59.622833,28.169876,-150.476227,,,
729716373.41595,-16.865926,-7.134684,-85.053688,0.125595,-0.287964,0.95607,-0.286072,0.007335,-0.021062,59.622833,28.169876,-150.476227,,,
729716373.41616,-16.865922,-7.134686,-81.97681,0.125595,-0.287964,0.95607,-0.286072,0.007335,-0.021062,59.622833,28.169876,-150.476227,,,
729716373.418665,-16.865926,-7.134684,-85.053688,0.125595,-0.287964,0.95607,-0.286072,0.007335,-0.021062,59.622833,28.169876,-150.476227,,,
729716373.418937,-16.865922,-7.134686,-81.97681,0.125595,-0.287964,0.95607,-0.286072,0.007335,-0.021062,59.622833,28.169876,-150.476227,,,
729716373.423433,-16.948843,-7.137482,-85.069586,0.125595,-0.287964,0.95607,-0.305435,0.012245,-0.012247,59.622833,28.169876,-150.476227,,,
729716373.423667,-16.948838,-7.137484,-81.992708,0.125595,-0.287964,0.95607,-0.305435,0.012245,-0.012247,59.622833,28.169876,-150.476227,,,
729716373.426279,-17.036415,-7.139349,-85.084704,0.12355,-0.291336,0.951721,-0.305435,0.012245,-0.012247,59.622833,28.169876,-150.476227,,,
729716373.426504,-17.03641,-7.139351,-82.007826,0.12355,-0.291336,0.951721,-0.305435,0.012245,-0.012247,59.622833,28.169876,-150.476227,,,
729716373.42893,-17.036415,-7.139349,-85.084704,0.12355,-0.291336,0.951721,-0.305435,0.012245,-0.012247,59.622833,28.169876,-150.476227,,,
729716373.429152,-17.03641,-7.139351,-82.007826,0.12355,-0.291336,0.951721,-0.305435,0.012245,-0.012247,59.622833,28.169876,-150.476227,,,
729716373.433339,-17.130208,-7.141051,-85.099893,0.12355,-0.291336,0.951721,-0.348467,0.015716,-0.011086,59.622833,28.169876,-150.476227,,,
729716373.433591,-17.130204,-7.141053,-82.023015,0.12355,-0.291336,0.951721,-0.348467,0.015716,-0.011086,59.622833,28.169876,-150.476227,,,
729716373.436145,-17.229314,-7.142219,-85.116196,0.120544,-0.292389,0.935883,-0.348467,0.015716,-0.011086,59.622833,28.169876,-150.476227,,,
729716373.43638,-17.229309,-7.142221,-82.039318,0.120544,-0.292389,0.935883,-0.348467,0.015716,-0.011086,59.622833,28.169876,-150.476227,,,
729716373.438811,-17.229314,-7.142219,-85.116196,0.120544,-0.292389,0.935883,-0.348467,0.015716,-0.011086,59.622833,28.169876,-150.476227,,,
729716373.439008,-17.229309,-7.142221,-82.039318,0.120544,-0.292389,0.935883,-0.348467,0.015716,-0.011086,59.622833,28.169876,-150.476227,,,
729716373.443335,-17.334776,-7.142042,-85.134131,0.120544,-0.292389,0.935883,-0.396661,0.026523,-0.014337,59.622833,28.169876,-150.476227,,,
729716373.443591,-17.334771,-7.142043,-82.057252,0.120544,-0.292389,0.935883,-0.396661,0.026523,-0.014337,59.622833,28.169876,-150.476227,,,
729716373.446253,-17.447938,-7.14076,-85.153611,0.124527,-0.288284,0.927353,-0.396661,0.026523,-0.014337,59.622833,28.169876,-150.476227,,,
729716373.446481,-17.447934,-7.140762,-82.076733,0.124527,-0.288284,0.927353,-0.396661,0.026523,-0.014337,59.622833,28.169876,-150.476227,,,
729716373.44941,-17.447938,-7.14076,-85.153611,0.124527,-0.288284,0.927353,-0.396661,0.026523,-0.014337,59.581589,29.145172,-150.536896,,,
729716373.449654,-17.447934,-7.140762,-82.076733,0.124527,-0.288284,0.927353,-0.396661,0.026523,-0.014337,59.581589,29.145172,-150.536896,,,
729716373.452958,-17.569168,-7.139093,-85.17499,0.124527,-0.288284,0.927353,-0.455233,0.029697,-0.022144,59.581589,29.145172,-150.536896,,,
729716373.453184,-17.569163,-7.139095,-82.098112,0.124527,-0.288284,0.927353,-0.455233,0.029697,-0.022144,59.581589,29.145172,-150.536896,,,
729716373.45618,-17.698905,-7.137693,-85.198382,0.123413,-0.288467,0.92186,-0.455233,0.029697,-0.022144,59.581589,29.145172,-150.536896,,,
729716373.456396,-17.6989,-7.137694,-82.121504,0.123413,-0.288467,0.92186,-0.455233,0.029697,-0.022144,59.581589,29.145172,-150.536896,,,
729716373.458767,-17.698905,-7.137693,-85.198382,0.123413,-0.288467,0.92186,-0.455233,0.029697,-0.022144,59.581589,29.145172,-150.536896,,,
729716373.458982,-17.6989,-7.137694,-82.121504,0.123413,-0.288467,0.92186,-0.455233,0.029697,-0.022144,59.581589,29.145172,-150.536896,,,
729716373.46286,-17.837886,-7.137569,-85.223521,0.123413,-0.288467,0.92186,-0.518618,0.026433,-0.021629,59.581589,29.145172,-150.536896,,,
729716373.463088,-17.837882,-7.13757,-82.146642,0.123413,-0.288467,0.92186,-0.518618,0.026433,-0.021629,59.581589,29.145172,-150.536896,,,
729716373.466182,-17.985827,-7.139197,-85.249692,0.119095,-0.293472,0.907593,-0.518618,0.026433,-0.021629,59.581589,29.145172,-150.536896,,,
729716373.466396,-17.985823,-7.139199,-82.172814,0.119095,-0.293472,0.907593,-0.518618,0.026433,-0.021629,59.581589,29.145172,-150.536896,,,
729716373.468648,-17.985827,-7.139197,-85.249692,0.119095,-0.293472,0.907593,-0.518618,0.026433,-0.021629,59.581589,29.145172,-150.536896,,,
729716373.468955,-17.985823,-7.139199,-82.172814,0.119095,-0.293472,0.907593,-0.518618,0.026433,-0.021629,59.581589,29.145172,-150.536896,,,
729716373.473355,-18.141286,-7.142446,-85.276563,0.119095,-0.293472,0.907593,-0.572654,0.013214,-0.026037,59.581589,29.145172,-150.536896,,,
729716373.473575,-18.141281,-7.142448,-82.199685,0.119095,-0.293472,0.907593,-0.572654,0.013214,-0.026037,59.581589,29.145172,-150.536896,,,
729716373.47683,-18.303666,-7.148107,-85.304777,0.114548,-0.298599,0.899811,-0.572654,0.013214,-0.026037,59.581589,29.145172,-150.536896,,,
729716373.477121,-18.303661,-7.148109,-82.227899,0.114548,-0.298599,0.899811,-0.572654,0.013214,-0.026037,59.581589,29.145172,-150.536896,,,
729716373.478774,-18.303666,-7.148107,-85.304777,0.114548,-0.298599,0.899811,-0.572654,0.013214,-0.026037,59.581589,29.145172,-150.536896,,,
729716373.478989,-18.303661,-7.148109,-82.227899,0.114548,-0.298599,0.899811,-0.572654,0.013214,-0.026037,59.581589,29.145172,-150.536896,,,
729716373.483473,-18.47153,-7.156781,-85.334826,0.114548,-0.298599,0.899811,-0.607132,0.000859,-0.028977,59.581589,29.145172,-150.536896,,,
729716373.483701,-18.471525,-7.156783,-82.257947,0.114548,-0.298599,0.899811,-0.607132,0.000859,-0.028977,59.581589,29.145172,-150.536896,,,
729716373.486564,-18.64389,-7.167503,-85.36624,0.111649,-0.305405,0.903427,-0.607132,0.000859,-0.028977,59.581589,29.145172,-150.536896,,,
729716373.486792,-18.643885,-7.167505,-82.289362,0.111649,-0.305405,0.903427,-0.607132,0.000859,-0.028977,59.581589,29.145172,-150.536896,,,
729716373.488746,-18.64389,-7.167503,-85.36624,0.111649,-0.305405,0.903427,-0.607132,0.000859,-0.028977,59.581589,29.145172,-150.536896,,,
729716373.488964,-18.643885,-7.167505,-82.289362,0.111649,-0.305405,0.903427,-0.607132,0.000859,-0.028977,59.581589,29.145172,-150.536896,,,
729716373.495393,-18.819741,-7.180739,-85.398893,0.111649,-0.305405,0.903427,-0.631708,-0.01745,-0.03462,59.637955,30.326309,-150.314148,,,
729716373.495693,-18.998228,-7.19754,-82.355967,0.110367,-0.310028,0.904419,-0.631708,-0.01745,-0.03462,59.637955,30.326309,-150.314148,,,
729716373.499816,-18.998233,-7.197538,-85.432845,0.110367,-0.310028,0.904419,-0.631708,-0.01745,-0.03462,59.637955,30.326309,-150.314148,,,
729716373.500044,-19.177812,-7.216819,-82.390714,0.110367,-0.310028,0.904419,-0.631708,-0.01745,-0.03462,59.637955,30.326309,-150.314148,,,
729716373.503566,-19.177817,-7.216817,-85.467592,0.110367,-0.310028,0.904419,-0.636383,-0.03086,-0.039023,59.637955,30.326309,-150.314148,,,
729716373.503801,-19.177812,-7.216819,-82.390714,0.110367,-0.310028,0.904419,-0.636383,-0.03086,-0.039023,59.637955,30.326309,-150.314148,,,
729716373.506578,-19.357478,-7.238132,-85.503016,0.110443,-0.317322,0.906784,-0.636383,-0.03086,-0.039023,59.637955,30.326309,-150.314148,,,
729716373.506806,-19.357473,-7.238134,-82.426138,0.110443,-0.317322,0.906784,-0.636383,-0.03086,-0.039023,59.637955,30.326309,-150.314148,,,
729716373.508754,-19.357478,-7.238132,-85.503016,0.110443,-0.317322,0.906784,-0.636383,-0.03086,-0.039023,59.637955,30.326309,-150.314148,,,
729716373.508966,-19.357473,-7.238134,-82.426138,0.110443,-0.317322,0.906784,-0.636383,-0.03086,-0.039023,59.637955,30.326309,-150.314148,,,
729716373.513227,-19.536028,-7.260414,-85.538945,0.110443,-0.317322,0.906784,-0.625859,-0.030505,-0.042229,59.637955,30.326309,-150.314148,,,
729716373.51345,-19.536023,-7.260416,-82.462067,0.110443,-0.317322,0.906784,-0.625859,-0.030505,-0.042229,59.637955,30.326309,-150.314148,,,
729716373.516411,-19.712988,-7.282598,-85.575272,0.110855,-0.323395,0.919174,-0.625859,-0.030505,-0.042229,59.637955,30.326309,-150.314148,,,
729716373.516624,-19.712983,-7.2826,-82.498394,0.110855,-0.323395,0.919174,-0.625859,-0.030505,-0.042229,59.637955,30.326309,-150.314148,,,
729716373.518732,-19.712988,-7.282598,-85.575272,0.110855,-0.323395,0.919174,-0.625859,-0.030505,-0.042229,59.637955,30.326309,-150.314148,,,
729716373.518941,-19.712983,-7.2826,-82.498394,0.110855,-0.323395,0.919174,-0.625859,-0.030505,-0.042229,59.637955,30.326309,-150.314148,,,
729716373.523218,-19.887496,-7.3041,-85.611879,0.110855,-0.323395,0.919174,-0.607507,-0.026822,-0.041082,59.637955,30.326309,-150.314148,,,
729716373.523438,-19.887491,-7.304102,-82.535001,0.110855,-0.323395,0.919174,-0.607507,-0.026822,-0.041082,59.637955,30.326309,-150.314148,,,
729716373.526408,-20.059213,-7.324189,-85.648157,0.114349,-0.331406,0.920578,-0.607507,-0.026822,-0.041082,59.637955,30.326309,-150.314148,,,
729716373.526624,-20.059207,-7.324191,-82.571279,0.114349,-0.331406,0.920578,-0.607507,-0.026822,-0.041082,59.637955,30.326309,-150.314148,,,
729716373.528839,-20.059213,-7.324189,-85.648157,0.114349,-0.331406,0.920578,-0.607507,-0.026822,-0.041082,59.637955,30.326309,-150.314148,,,
729716373.529027,-20.059207,-7.324191,-82.571279,0.114349,-0.331406,0.920578,-0.607507,-0.026822,-0.041082,59.637955,30.326309,-150.314148,,,
729716373.534054,-20.227387,-7.341256,-85.683294,0.114349,-0.331406,0.920578,-0.57719,-0.001939,-0.037622,59.694397,31.541199,-150.221985,,,
729716373.534304,-20.227382,-7.341258,-82.606415,0.114349,-0.331406,0.920578,-0.57719,-0.001939,-0.037622,59.694397,31.541199,-150.221985,,,
729716373.536715,-20.390802,-7.354613,-85.716827,0.115692,-0.338455,0.926636,-0.57719,-0.001939,-0.037622,59.694397,31.541199,-150.221985,,,
729716373.536945,-20.390797,-7.354615,-82.639948,0.115692,-0.338455,0.926636,-0.57719,-0.001939,-0.037622,59.694397,31.541199,-150.221985,,,
729716373.538724,-20.390802,-7.354613,-85.716827,0.115692,-0.338455,0.926636,-0.57719,-0.001939,-0.037622,59.694397,31.541199,-150.221985,,,
729716373.538939,-20.390797,-7.354615,-82.639948,0.115692,-0.338455,0.926636,-0.57719,-0.001939,-0.037622,59.694397,31.541199,-150.221985,,,
729716373.544602,-20.549801,-7.363805,-85.749249,0.115692,-0.338455,0.926636,-0.550364,0.029487,-0.030647,59.694397,31.541199,-150.221985,,,
729716373.544899,-20.549796,-7.363806,-82.672371,0.115692,-0.338455,0.926636,-0.550364,0.029487,-0.030647,59.694397,31.541199,-150.221985,,,
729716373.5461,-20.705785,-7.367555,-85.780071,0.117447,-0.34343,0.929306,-0.550364,0.029487,-0.030647,59.694397,31.541199,-150.221985,,,
729716373.546487,-20.70578,-7.367557,-82.703193,0.117447,-0.34343,0.929306,-0.550364,0.029487,-0.030647,59.694397,31.541199,-150.221985,,,
729716373.548789,-20.705785,-7.367555,-85.780071,0.117447,-0.34343,0.929306,-0.550364,0.029487,-0.030647,59.694397,31.541199,-150.221985,,,
729716373.548991,-20.70578,-7.367557,-82.703193,0.117447,-0.34343,0.929306,-0.550364,0.029487,-0.030647,59.694397,31.541199,-150.221985,,,
729716373.553401,-20.859325,-7.366108,-85.807783,0.117447,-0.34343,0.929306,-0.534731,0.047759,-0.013846,59.694397,31.541199,-150.221985,,,
729716373.553645,-20.859319,-7.366109,-82.730905,0.117447,-0.34343,0.929306,-0.534731,0.047759,-0.013846,59.694397,31.541199,-150.221985,,,
729716373.556418,-21.011406,-7.362666,-85.832698,0.116348,-0.351669,0.925934,-0.534731,0.047759,-0.013846,59.694397,31.541199,-150.221985,,,
729716373.556659,-21.011401,-7.362668,-82.75582,0.116348,-0.351669,0.925934,-0.534731,0.047759,-0.013846,59.694397,31.541199,-150.221985,,,
729716373.558732,-21.011406,-7.362666,-85.832698,0.116348,-0.351669,0.925934,-0.534731,0.047759,-0.013846,59.694397,31.541199,-150.221985,,,
729716373.558953,-21.011401,-7.362668,-82.75582,0.116348,-0.351669,0.925934,-0.534731,0.047759,-0.013846,59.694397,31.541199,-150.221985,,,
729716373.563253,-21.162944,-7.359982,-85.855931,0.116348,-0.351669,0.925934,-0.532958,0.031913,-0.001738,59.694397,31.541199,-150.221985,,,
729716373.563485,-21.162938,-7.359984,-82.779052,0.116348,-0.351669,0.925934,-0.532958,0.031913,-0.001738,59.694397,31.541199,-150.221985,,,
729716373.566349,-21.314954,-7.359595,-85.878182,0.115112,-0.362305,0.912109,-0.532958,0.031913,-0.001738,59.694397,31.541199,-150.221985,,,
729716373.566576,-21.314948,-7.359597,-82.801303,0.115112,-0.362305,0.912109,-0.532958,0.031913,-0.001738,59.694397,31.541199,-150.221985,,,
729716373.568838,-21.314954,-7.359595,-85.878182,0.115112,-0.362305,0.912109,-0.532958,0.031913,-0.001738,59.694397,31.541199,-150.221985,,,
729716373.569027,-21.314948,-7.359597,-82.801303,0.115112,-0.362305,0.912109,-0.532958,0.031913,-0.001738,59.694397,31.541199,-150.221985,,,
729716373.574054,-21.468621,-7.362898,-85.900415,0.115112,-0.362305,0.912109,-0.546063,0.006958,-0.008021,59.818634,32.955551,-149.679459,,,
729716373.574306,-21.468615,-7.3629,-82.823537,0.115112,-0.362305,0.912109,-0.546063,0.006958,-0.008021,59.818634,32.955551,-149.679459,,,
729716373.576294,-21.468621,-7.371091,-85.924631,0.117126,-0.367279,0.904022,-0.546063,0.006958,-0.008021,59.818634,32.955551,-149.679459,,,
729716373.576515,-21.624462,-7.371093,-82.847753,0.117126,-0.367279,0.904022,-0.546063,0.006958,-0.008021,59.818634,32.955551,-149.679459,,,
729716373.57922,-21.624467,-7.371091,-85.924631,0.117126,-0.367279,0.904022,-0.546063,0.006958,-0.008021,59.818634,32.955551,-149.679459,,,
729716373.579428,-21.624462,-7.371093,-82.847753,0.117126,-0.367279,0.904022,-0.546063,0.006958,-0.008021,59.818634,32.955551,-149.679459,,,
729716373.584545,-21.782987,-7.386115,-85.952349,0.117126,-0.367279,0.904022,-0.571533,-0.031218,-0.029833,59.818634,32.955551,-149.679459,,,
729716373.584814,-21.782981,-7.386117,-82.875471,0.117126,-0.367279,0.904022,-0.571533,-0.031218,-0.029833,59.818634,32.955551,-149.679459,,,
729716373.585493,-21.782987,-7.386115,-85.952349,0.121262,-0.363342,0.895111,-0.571533,-0.031218,-0.029833,59.818634,32.955551,-149.679459,,,
729716373.585699,-21.944991,-7.408149,-82.907101,0.121262,-0.363342,0.895111,-0.571533,-0.031218,-0.029833,59.818634,32.955551,-149.679459,,,
729716373.589732,-21.944997,-7.408147,-85.983979,0.121262,-0.363342,0.895111,-0.571533,-0.031218,-0.029833,59.818634,32.955551,-149.679459,,,
729716373.589992,-21.944991,-7.408149,-82.907101,0.121262,-0.363342,0.895111,-0.571533,-0.031218,-0.029833,59.818634,32.955551,-149.679459,,,
729716373.59351,-22.110856,-7.436022,-86.019633,0.121262,-0.363342,0.895111,-0.605774,-0.056069,-0.052452,59.818634,32.955551,-149.679459,,,
729716373.593732,-22.11085,-7.436023,-82.942754,0.121262,-0.363342,0.895111,-0.605774,-0.056069,-0.052452,59.818634,32.955551,-149.679459,,,
729716373.596638,-22.281842,-7.468301,-86.059646,0.121109,-0.359039,0.886292,-0.605774,-0.056069,-0.052452,59.818634,32.955551,-149.679459,,,
729716373.596865,-22.281837,-7.468303,-82.982768,0.121109,-0.359039,0.886292,-0.605774,-0.056069,-0.052452,59.818634,32.955551,-149.679459,,,
729716373.598754,-22.281842,-7.468301,-86.059646,0.121109,-0.359039,0.886292,-0.605774,-0.056069,-0.052452,59.818634,32.955551,-149.679459,,,
729716373.598971,-22.281837,-7.468303,-82.982768,0.121109,-0.359039,0.886292,-0.605774,-0.056069,-0.052452,59.818634,32.955551,-149.679459,,,
729716373.603451,-22.458283,-7.503089,-86.104286,0.121109,-0.359039,0.886292,-0.645245,-0.061196,-0.072694,59.818634,32.955551,-149.679459,,,
729716373.603679,-22.458277,-7.503091,-83.027408,0.121109,-0.359039,0.886292,-0.645245,-0.061196,-0.072694,59.818634,32.955551,-149.679459,,,
729716373.606186,-22.639164,-7.539816,-86.152683,0.122238,-0.36171,0.888916,-0.645245,-0.061196,-0.072694,59.818634,32.955551,-149.679459,,,
729716373.606413,-22.639157,-7.539818,-83.075805,0.122238,-0.36171,0.888916,-0.645245,-0.061196,-0.072694,59.818634,32.955551,-149.679459,,,
729716373.608864,-22.639164,-7.539816,-86.152683,0.122238,-0.36171,0.888916,-0.645245,-0.061196,-0.072694,59.818634,32.955551,-149.679459,,,
729716373.609064,-22.639157,-7.539818,-83.075805,0.122238,-0.36171,0.888916,-0.645245,-0.061196,-0.072694,59.818634,32.955551,-149.679459,,,
729716373.613988,-22.822394,-7.577384,-86.203443,0.122238,-0.36171,0.888916,-0.654782,-0.051924,-0.082662,59.52742,34.171951,-149.776321,,,
729716373.614247,-22.822388,-7.577386,-83.126565,0.122238,-0.36171,0.888916,-0.654782,-0.051924,-0.082662,59.52742,34.171951,-149.776321,,,
729716373.6153,-22.822394,-7.577384,-86.203443,0.122238,-0.36171,0.888916,-0.654782,-0.051924,-0.082662,59.52742,34.171951,-149.776321,,,
729716373.615627,-23.00525,-7.613176,-83.178501,0.126343,-0.377808,0.894608,-0.654782,-0.051924,-0.082662,59.52742,34.171951,-149.776321,,,
729716373.620284,-23.005256,-7.613174,-86.25538,0.126343,-0.377808,0.894608,-0.654782,-0.051924,-0.082662,59.52742,34.171951,-149.776321,,,
729716373.620515,-23.1854,-7.644686,-83.230511,0.126343,-0.377808,0.894608,-0.637227,-0.016392,-0.080705,59.52742,34.171951,-149.776321,,,
729716373.623231,-23.185407,-7.644685,-86.307389,0.126343,-0.377808,0.894608,-0.637227,-0.016392,-0.080705,59.52742,34.171951,-149.776321,,,
729716373.623465,-23.1854,-7.644686,-83.230511,0.126343,-0.377808,0.894608,-0.637227,-0.016392,-0.080705,59.52742,34.171951,-149.776321,,,
729716373.626719,-23.363057,-7.671021,-86.358362,0.127899,-0.392822,0.92012,-0.637227,-0.016392,-0.080705,59.52742,34.171951,-149.776321,,,
729716373.626968,-23.36305,-7.671023,-83.281483,0.127899,-0.392822,0.92012,-0.637227,-0.016392,-0.080705,59.52742,34.171951,-149.776321,,,
729716373.628783,-23.363057,-7.671021,-86.358362,0.127899,-0.392822,0.92012,-0.637227,-0.016392,-0.080705,59.52742,34.171951,-149.776321,,,
729716373.628995,-23.36305,-7.671023,-83.281483,0.127899,-0.392822,0.92012,-0.637227,-0.016392,-0.080705,59.52742,34.171951,-149.776321,,,
729716373.63454,-23.53858,-7.692683,-86.407731,0.127899,-0.392822,0.92012,-0.619597,0.006165,-0.076913,59.52742,34.171951,-149.776321,,,
729716373.634806,-23.538574,-7.692685,-83.330852,0.127899,-0.392822,0.92012,-0.619597,0.006165,-0.076913,59.52742,34.171951,-149.776321,,,
729716373.635232,-23.53858,-7.692683,-86.407731,0.127899,-0.392822,0.92012,-0.619597,0.006165,-0.076913,59.52742,34.171951,-149.776321,,,
729716373.635637,-23.71229,-7.711321,-83.379676,0.129868,-0.39856,0.921494,-0.619597,0.006165,-0.076913,59.52742,34.171951,-149.776321,,,
729716373.639946,-23.712297,-7.711319,-86.456554,0.129868,-0.39856,0.921494,-0.619597,0.006165,-0.076913,59.52742,34.171951,-149.776321,,,
729716373.640212,-23.71229,-7.727384,-83.427593,0.129868,-0.39856,0.921494,-0.619597,0.006165,-0.076913,59.52742,34.171951,-149.776321,,,
729716373.643472,-23.884118,-7.727382,-86.504471,0.129868,-0.39856,0.921494,-0.605012,0.021175,-0.070607,59.52742,34.171951,-149.776321,,,
729716373.643711,-23.884112,-7.727384,-83.427593,0.129868,-0.39856,0.921494,-0.605012,0.021175,-0.070607,59.52742,34.171951,-149.776321,,,
729716373.64668,-24.053519,-7.741012,-86.551033,0.131363,-0.401581,0.914062,-0.605012,0.021175,-0.070607,59.52742,34.171951,-149.776321,,,
729716373.646912,-24.053513,-7.741014,-83.474154,0.131363,-0.401581,0.914062,-0.605012,0.021175,-0.070607,59.52742,34.171951,-149.776321,,,
729716373.648729,-24.053519,-7.741012,-86.551033,0.131363,-0.401581,0.914062,-0.605012,0.021175,-0.070607,59.52742,34.171951,-149.776321,,,
729716373.648942,-24.053513,-7.741014,-83.474154,0.131363,-0.401581,0.914062,-0.605012,0.021175,-0.070607,59.52742,34.171951,-149.776321,,,
729716373.654114,-24.21949,-7.753623,-86.596789,0.131363,-0.401581,0.914062,-0.580133,0.026807,-0.065646,59.648605,35.61525,-149.471542,,,
729716373.65436,-24.219483,-7.753625,-83.51991,0.131363,-0.401581,0.914062,-0.580133,0.026807,-0.065646,59.648605,35.61525,-149.471542,,,
729716373.655277,-24.21949,-7.753623,-86.596789,0.131363,-0.401581,0.914062,-0.580133,0.026807,-0.065646,59.648605,35.61525,-149.471542,,,
729716373.655624,-24.382056,-7.765262,-83.564388,0.130524,-0.405899,0.919815,-0.580133,0.026807,-0.065646,59.648605,35.61525,-149.471542,,,
729716373.660075,-24.382062,-7.76526,-86.641266,0.130524,-0.405899,0.919815,-0.580133,0.026807,-0.065646,59.648605,35.61525,-149.471542,,,
729716373.660366,-24.541777,-7.775547,-83.607731,0.130524,-0.405899,0.919815,-0.580133,0.026807,-0.065646,59.648605,35.61525,-149.471542,,,
