Time (sec),Pitch (deg),Roll (deg),Yaw(deg),X-Acceleration (g),Y-Acceleration (g),Z-Acceleration (g),Pitch Rate (deg/sec),Roll Rate (deg/sec),Yaw Rate (deg/sec),Magnetic Field in X direction (uT),Magnetic Field in Y direction (uT),Magnetic Field in Z Direction (uT),Latitude (deg),Longitude (deg),Altitude (m)
729705818.533148,0.970021,0.075364,73.292618,-0.010712,0.005051,1.001709,0.024118,0.018661,0.046488,87.237595,34.664108,-149.817383,,,
729705818.536371,0.970021,0.075364,73.292618,-0.010712,0.005051,1.001709,0.024118,0.018661,0.046488,87.237595,34.664108,-149.817383,,,
729705818.539897,0.976519,0.07753,73.306043,-0.010712,0.005051,1.001709,0.024118,0.018661,0.046488,87.237595,34.664108,-149.817383,,,
729705818.543139,0.98096,0.081283,73.319335,-0.003906,0.008667,1.000732,0.014871,0.015321,0.045865,87.237595,34.664108,-149.817383,,,
729705818.546544,0.98096,0.081283,73.319335,-0.003906,0.008667,1.000732,0.014871,0.015321,0.045865,87.237595,34.664108,-149.817383,,,
729705818.549813,0.985075,0.082425,73.333192,-0.003906,0.008667,1.000732,0.014871,0.015321,0.045865,87.237595,34.664108,-149.817383,,,
729705818.553057,0.987405,0.084679,73.347165,0.00473,0.012924,0.998581,0.006544,0.009575,0.046841,87.237595,34.664108,-149.817383,,,
729705818.556574,0.987405,0.084679,73.347165,0.00473,0.012924,0.998581,0.006544,0.009575,0.046841,87.237595,34.664108,-149.817383,,,
729705818.559808,0.989062,0.086679,73.361239,0.00473,0.012924,0.998581,0.006544,0.009575,0.046841,87.237595,34.664108,-149.817383,,,
729705818.563158,0.990778,0.086059,73.375514,0.012115,0.010452,0.998734,0.008349,-0.002796,0.048102,87.237595,34.664108,-149.817383,,,
729705818.566495,0.990778,0.086059,73.375514,0.012115,0.010452,0.998734,0.008349,-0.002796,0.048102,87.237595,34.664108,-149.817383,,,
729705818.569878,0.992009,0.085767,73.389414,0.012115,0.010452,0.998734,0.008349,-0.002796,0.048102,87.336502,34.659195,-149.850922,,,
729705818.573198,0.994116,0.078869,73.401952,0.02034,0.014847,0.994202,0.006434,-0.025282,0.038226,87.336502,34.659195,-149.850922,,,
729705818.576471,0.994116,0.078869,73.401952,0.02034,0.014847,0.994202,0.006434,-0.025282,0.038226,87.336502,34.659195,-149.850922,,,
729705818.579811,0.992138,0.073824,73.412271,0.02034,0.014847,0.994202,0.006434,-0.025282,0.038226,87.336502,34.659195,-149.850922,,,
729705818.583146,0.992071,0.060805,73.42056,0.03038,0.021332,0.992584,-0.00078,-0.046353,0.023474,87.336502,34.659195,-149.850922,,,
729705818.586489,0.992071,0.060805,73.42056,0.03038,0.021332,0.992584,-0.00078,-0.046353,0.023474,87.336502,34.659195,-149.850922,,,
729705818.589866,0.988156,0.049978,73.426475,0.03038,0.021332,0.992584,-0.00078,-0.046353,0.023474,87.336502,34.659195,-149.850922,,,
729705818.593139,0.985176,0.03245,73.429917,0.035309,0.027008,0.993439,-0.013212,-0.060282,0.005703,87.336502,34.659195,-149.850922,,,
729705818.596476,0.985176,0.03245,73.429917,0.035309,0.027008,0.993439,-0.013212,-0.060282,0.005703,87.336502,34.659195,-149.850922,,,
729705818.599813,0.978169,0.019668,73.430325,0.035309,0.027008,0.993439,-0.013212,-0.060282,0.005703,87.336502,34.659195,-149.850922,,,
729705818.603143,0.972175,0.002909,73.428537,0.042465,0.024139,0.995941,-0.022035,-0.055236,-0.010111,87.336502,34.659195,-149.850922,,,
729705818.606566,0.972175,0.002909,73.428537,0.042465,0.024139,0.995941,-0.022035,-0.055236,-0.010111,87.336502,34.659195,-149.850922,,,
729705818.609833,0.961723,-0.008829,73.425293,0.042465,0.024139,0.995941,-0.022035,-0.055236,-0.010111,87.201309,34.608475,-149.707474,,,
729705818.613145,0.952267,-0.022317,73.420977,0.04364,0.019379,0.993744,-0.034597,-0.039154,-0.017987,87.201309,34.608475,-149.707474,,,
729705818.616469,0.952267,-0.022317,73.420977,0.04364,0.019379,0.993744,-0.034597,-0.039154,-0.017987,87.201309,34.608475,-149.707474,,,
729705818.619816,0.938848,-0.031157,73.415834,0.04364,0.019379,0.993744,-0.034597,-0.039154,-0.017987,87.201309,34.608475,-149.707474,,,
729705818.623182,0.925801,-0.038402,73.409927,0.040436,0.017456,0.994247,-0.048612,-0.016957,-0.023486,87.201309,34.608475,-149.707474,,,
729705818.626482,0.925801,-0.038402,73.409927,0.040436,0.017456,0.994247,-0.048612,-0.016957,-0.023486,87.201309,34.608475,-149.707474,,,
729705818.629824,0.910094,-0.041779,73.403689,0.040436,0.017456,0.994247,-0.048612,-0.016957,-0.023486,87.201309,34.608475,-149.707474,,,
729705818.633144,0.894499,-0.042413,73.397747,0.035858,0.015518,0.995804,-0.054132,0.004172,-0.021436,87.201309,34.608475,-149.707474,,,
729705818.636494,0.894499,-0.042413,73.397747,0.035858,0.015518,0.995804,-0.054132,0.004172,-0.021436,87.201309,34.608475,-149.707474,,,
729705818.639912,0.877956,-0.04268,73.391775,0.035858,0.015518,0.995804,-0.054132,0.004172,-0.021436,87.201309,34.608475,-149.707474,,,
729705818.643135,0.862034,-0.039805,73.385791,0.026855,0.011856,0.995544,-0.054264,0.013901,-0.021381,87.201309,34.608475,-149.707474,,,
729705818.646552,0.862034,-0.039805,73.385791,0.026855,0.011856,0.995544,-0.054264,0.013901,-0.021381,87.201309,34.608475,-149.707474,,,
729705818.649811,0.845856,-0.040166,73.379334,0.026855,0.011856,0.995544,-0.054264,0.013901,-0.021381,87.112686,34.841507,-149.696014,,,
729705818.653141,0.829867,-0.037976,73.371438,0.016785,0.015366,0.995361,-0.056878,0.007957,-0.031056,87.112686,34.841507,-149.696014,,,
729705818.656545,0.829867,-0.037976,73.371438,0.016785,0.015366,0.995361,-0.056878,0.007957,-0.031056,87.112686,34.841507,-149.696014,,,
729705818.659802,0.813787,-0.043712,73.362267,0.016785,0.015366,0.995361,-0.056878,0.007957,-0.031056,87.112686,34.841507,-149.696014,,,
729705818.663142,0.796786,-0.044888,73.351531,0.009232,0.015884,0.996582,-0.058026,-0.00623,-0.041337,87.112686,34.841507,-149.696014,,,
729705818.666555,0.796786,-0.044888,73.351531,0.009232,0.015884,0.996582,-0.058026,-0.00623,-0.041337,87.112686,34.841507,-149.696014,,,
729705818.66981,0.78291,-0.058318,73.33938,0.009232,0.015884,0.996582,-0.058026,-0.00623,-0.041337,87.112686,34.841507,-149.696014,,,
729705818.673199,0.767175,-0.066303,73.325819,-0.000198,0.010315,1.001709,-0.051775,-0.031511,-0.050213,87.112686,34.841507,-149.696014,,,
729705818.676488,0.767175,-0.066303,73.325819,-0.000198,0.010315,1.001709,-0.051775,-0.031511,-0.050213,87.112686,34.841507,-149.696014,,,
729705818.679814,0.756268,-0.08824,73.311766,-0.000198,0.010315,1.001709,-0.051775,-0.031511,-0.050213,87.112686,34.841507,-149.696014,,,
729705818.683195,0.744409,-0.103557,73.297506,-0.013016,0.001663,1.010132,-0.035589,-0.058543,-0.050706,87.112686,34.841507,-149.696014,,,
729705818.686544,0.744409,-0.103557,73.297506,-0.013016,0.001663,1.010132,-0.035589,-0.058543,-0.050706,87.112686,34.841507,-149.696014,,,
729705818.689851,0.737597,-0.134034,73.283691,-0.013016,0.001663,1.010132,-0.035589,-0.058543,-0.050706,87.112686,34.841507,-149.696014,,,
729705818.693156,0.731342,-0.154901,73.270639,-0.013016,0.001663,1.010132,-0.016376,-0.071684,-0.044372,87.104767,35.03624,-149.910736,,,
729705818.696484,0.731342,-0.154901,73.270639,-0.01886,0.001572,1.013031,-0.016376,-0.071684,-0.044372,87.104767,35.03624,-149.910736,,,
729705818.699834,0.72833,-0.186781,73.259107,-0.01886,0.001572,1.013031,-0.016376,-0.071684,-0.044372,87.104767,35.03624,-149.910736,,,
729705818.703162,0.724597,-0.205361,73.249078,-0.012146,9.2e-05,1.017776,-0.011884,-0.05543,-0.033042,87.104767,35.03624,-149.910736,,,
729705818.706523,0.724597,-0.205361,73.249078,-0.012146,9.2e-05,1.017776,-0.011884,-0.05543,-0.033042,87.104767,35.03624,-149.910736,,,
729705818.709842,0.722251,-0.230367,73.241534,-0.012146,9.2e-05,1.017776,-0.011884,-0.05543,-0.033042,87.104767,35.03624,-149.910736,,,
729705818.71318,0.718541,-0.242644,73.236451,-0.008942,0.000931,1.017136,-0.013858,-0.03561,-0.014957,87.104767,35.03624,-149.910736,,,
729705818.716484,0.718541,-0.242644,73.236451,-0.008942,0.000931,1.017136,-0.013858,-0.03561,-0.014957,87.104767,35.03624,-149.910736,,,
729705818.719831,0.71411,-0.259819,73.233626,-0.008942,0.000931,1.017136,-0.013858,-0.03561,-0.014957,87.104767,35.03624,-149.910736,,,
729705818.723162,0.708614,-0.266855,73.231988,-0.008041,0.003754,1.011124,-0.019845,-0.0143,-0.006027,87.104767,35.03624,-149.910736,,,
729705818.726484,0.708614,-0.266855,73.231988,-0.008041,0.003754,1.011124,-0.019845,-0.0143,-0.006027,87.104767,35.03624,-149.910736,,,
729705818.72981,0.702689,-0.273726,73.231048,-0.008041,0.003754,1.011124,-0.019845,-0.0143,-0.006027,87.104767,35.03624,-149.910736,,,
729705818.733148,0.702689,-0.273726,73.231048,-0.008041,0.003754,1.011124,-0.016488,0.008503,-0.001001,87.031555,35.158142,-149.862625,,,
729705818.736478,0.697084,-0.273304,73.230781,-0.005264,0.008499,1.011551,-0.016488,0.008503,-0.001001,87.031555,35.158142,-149.862625,,,
729705818.739857,0.6938,-0.2726,73.230995,-0.005264,0.008499,1.011551,-0.016488,0.008503,-0.001001,87.031555,35.158142,-149.862625,,,
729705818.743166,0.6938,-0.2726,73.230995,-0.005264,0.008499,1.011551,-0.005994,0.014945,-0.002778,87.031555,35.158142,-149.862625,,,
729705818.746533,0.691058,-0.269202,73.230939,-0.006531,0.009155,1.006393,-0.005994,0.014945,-0.002778,87.031555,35.158142,-149.862625,,,
729705818.749798,0.690587,-0.265839,73.230546,-0.006531,0.009155,1.006393,-0.005994,0.014945,-0.002778,87.031555,35.158142,-149.862625,,,
729705818.753197,0.690587,-0.265839,73.230546,-0.006531,0.009155,1.006393,0.005434,0.011569,-0.002224,87.031555,35.158142,-149.862625,,,
729705818.756528,0.691137,-0.262733,73.230235,-0.00766,0.011276,0.998627,0.005434,0.011569,-0.002224,87.031555,35.158142,-149.862625,,,
729705818.759804,0.691258,-0.258437,73.230163,-0.00766,0.011276,0.998627,0.005434,0.011569,-0.002224,87.031555,35.158142,-149.862625,,,
729705818.763201,0.691258,-0.258437,73.230163,-0.00766,0.011276,0.998627,0.011656,-0.006428,0.003506,87.031555,35.158142,-149.862625,,,
729705818.766476,0.69385,-0.259823,73.230957,-0.011215,0.014206,0.993118,0.011656,-0.006428,0.003506,87.031555,35.158142,-149.862625,,,
729705818.769803,0.694317,-0.256966,73.233023,-0.011215,0.014206,0.993118,0.011656,-0.006428,0.003506,87.031555,35.158142,-149.862625,,,
729705818.773156,0.694317,-0.256966,73.233023,-0.011215,0.014206,0.993118,0.011656,-0.006428,0.003506,86.846161,35.214676,-149.850647,,,
729705818.776486,0.697506,-0.261177,73.236237,-0.012726,0.015121,0.988022,0.010452,-0.013353,0.010998,86.846161,35.214676,-149.850647,,,
729705818.779803,0.696775,-0.261213,73.239905,-0.012726,0.015121,0.988022,0.010452,-0.013353,0.010998,86.846161,35.214676,-149.850647,,,
729705818.783158,0.696775,-0.261213,73.239905,-0.012726,0.015121,0.988022,0.010452,-0.013353,0.010998,86.846161,35.214676,-149.850647,,,
729705818.786544,0.697944,-0.267749,73.243795,-0.006256,0.018921,0.984329,0.00275,-0.021199,0.012128,86.846161,35.214676,-149.850647,,,
729705818.789839,0.695441,-0.270569,73.247352,-0.006256,0.018921,0.984329,0.00275,-0.021199,0.012128,86.846161,35.214676,-149.850647,,,
729705818.793131,0.695441,-0.270569,73.247352,-0.006256,0.018921,0.984329,0.00275,-0.021199,0.012128,86.846161,35.214676,-149.850647,,,
729705818.796487,0.695357,-0.277267,73.250472,-0.000763,0.023544,0.980576,-0.000461,-0.019174,0.008827,86.846161,35.214676,-149.850647,,,
729705818.799802,0.691979,-0.280145,73.253691,-0.000763,0.023544,0.980576,-0.000461,-0.019174,0.008827,86.846161,35.214676,-149.850647,,,
729705818.803161,0.691979,-0.280145,73.253691,-0.000763,0.023544,0.980576,-0.000461,-0.019174,0.008827,86.846161,35.214676,-149.850647,,,
729705818.806509,0.690777,-0.286642,73.257409,0.00058,0.02002,0.983093,-0.002915,-0.01859,0.012002,86.846161,35.214676,-149.850647,,,
729705818.809821,0.687786,-0.289911,73.261324,0.00058,0.02002,0.983093,-0.002915,-0.01859,0.012002,86.846161,35.214676,-149.850647,,,
729705818.813207,0.687786,-0.289911,73.261324,0.00058,0.02002,0.983093,-0.002915,-0.01859,0.012002,86.846161,35.214676,-149.850647,,,
729705818.816483,0.685632,-0.296437,73.265495,0.003708,0.016861,0.985626,-0.006776,-0.019826,0.013585,87.147781,35.046265,-149.757812,,,
729705818.819812,0.683007,-0.300478,73.269743,0.003708,0.016861,0.985626,-0.006776,-0.019826,0.013585,87.147781,35.046265,-149.757812,,,
729705818.823242,0.683007,-0.300478,73.269743,0.003708,0.016861,0.985626,-0.006776,-0.019826,0.013585,87.147781,35.046265,-149.757812,,,
729705818.826549,0.681349,-0.308763,73.273648,0.009598,0.018372,0.986298,-0.005955,-0.027665,0.010913,87.147781,35.046265,-149.757812,,,
729705818.829807,0.67852,-0.313818,73.276575,0.009598,0.018372,0.986298,-0.005955,-0.027665,0.010913,87.147781,35.046265,-149.757812,,,
729705818.833221,0.67852,-0.313818,73.276575,0.009598,0.018372,0.986298,-0.005955,-0.027665,0.010913,87.147781,35.046265,-149.757812,,,
729705818.836471,0.675098,-0.322052,73.278507,0.012009,0.021133,0.986374,-0.013247,-0.025612,0.003735,87.147781,35.046265,-149.757812,,,
729705818.839856,0.670804,-0.325367,73.279445,0.012009,0.021133,0.986374,-0.013247,-0.025612,0.003735,87.147781,35.046265,-149.757812,,,
729705818.843166,0.670804,-0.325367,73.279445,0.012009,0.021133,0.986374,-0.013247,-0.025612,0.003735,87.147781,35.046265,-149.757812,,,
729705818.846519,0.664616,-0.33132,73.279281,0.011383,0.021072,0.989029,-0.023698,-0.015939,-0.004218,87.147781,35.046265,-149.757812,,,
729705818.84981,0.657554,-0.331332,73.27851,0.011383,0.021072,0.989029,-0.023698,-0.015939,-0.004218,87.147781,35.046265,-149.757812,,,
729705818.853268,0.657554,-0.331332,73.27851,0.011383,0.021072,0.989029,-0.023698,-0.015939,-0.004218,87.147781,35.046265,-149.757812,,,
729705818.856543,0.648438,-0.335936,73.278617,0.008545,0.014282,0.99173,-0.033425,-0.012046,0.001534,87.012756,35.048019,-149.860291,,,
729705818.859847,0.640267,-0.335595,73.279555,0.008545,0.014282,0.99173,-0.033425,-0.012046,0.001534,87.012756,35.048019,-149.860291,,,
729705818.863258,0.640267,-0.335595,73.279555,0.008545,0.014282,0.99173,-0.033425,-0.012046,0.001534,87.012756,35.048019,-149.860291,,,
729705818.866548,0.630754,-0.339064,73.28097,0.007446,0.006012,0.996124,-0.031484,-0.007639,0.004408,87.012756,35.048019,-149.860291,,,
729705818.869798,0.624458,-0.33852,73.282927,0.007446,0.006012,0.996124,-0.031484,-0.007639,0.004408,87.012756,35.048019,-149.860291,,,
729705818.873111,0.624458,-0.33852,73.282927,0.007446,0.006012,0.996124,-0.031484,-0.007639,0.004408,87.012756,35.048019,-149.860291,,,
729705818.876244,0.616569,-0.338904,73.285182,0.011917,0.005035,1.004684,-0.024208,0.005058,0.006201,87.012756,35.048019,-149.860291,,,
729705818.879767,0.612603,-0.336435,73.287484,0.011917,0.005035,1.004684,-0.024208,0.005058,0.006201,87.012756,35.048019,-149.860291,,,
729705818.883071,0.612603,-0.336435,73.287484,0.011917,0.005035,1.004684,-0.024208,0.005058,0.006201,87.012756,35.048019,-149.860291,,,
729705818.886136,0.606139,-0.334471,73.289872,0.015152,0.005478,1.004639,-0.020921,0.012062,0.00666,87.012756,35.048019,-149.860291,,,
729705818.889785,0.602702,-0.329756,73.292259,0.015152,0.005478,1.004639,-0.020921,0.012062,0.00666,87.012756,35.048019,-149.860291,,,
729705818.893155,0.602702,-0.329756,73.292259,0.015152,0.005478,1.004639,-0.020921,0.012062,0.00666,87.012756,35.048019,-149.860291,,,
729705818.89647,0.598687,-0.325037,73.294663,0.013306,0.001709,1.005386,-0.010492,0.020916,0.006647,86.919922,35.133087,-150.078751,,,
729705818.899816,0.59759,-0.320295,73.297653,0.013306,0.001709,1.005386,-0.010492,0.020916,0.006647,86.919922,35.133087,-150.078751,,,
729705818.903262,0.59759,-0.320295,73.297653,0.013306,0.001709,1.005386,-0.010492,0.020916,0.006647,86.919922,35.133087,-150.078751,,,
729705818.906529,0.595892,-0.316061,73.301213,0.011948,0.000519,1.005188,-0.001665,0.015883,0.010616,86.919922,35.133087,-150.078751,,,
729705818.90981,0.598958,-0.315034,73.304942,0.011948,0.000519,1.005188,-0.001665,0.015883,0.010616,86.919922,35.133087,-150.078751,,,
729705818.91316,0.598958,-0.315034,73.304942,0.011948,0.000519,1.005188,-0.001665,0.015883,0.010616,86.919922,35.133087,-150.078751,,,
729705818.916543,0.601867,-0.313677,73.308493,0.008438,0.003632,1.002014,0.014442,0.0055,0.009411,86.919922,35.133087,-150.078751,,,
729705818.919795,0.609501,-0.315466,73.310663,0.008438,0.003632,1.002014,0.014442,0.0055,0.009411,86.919922,35.133087,-150.078751,,,
729705818.923208,0.609501,-0.315466,73.310663,0.008438,0.003632,1.002014,0.014442,0.0055,0.009411,86.919922,35.133087,-150.078751,,,
729705818.926475,0.615149,-0.317191,73.311071,0.006485,0.006958,1.001968,0.020146,-0.005829,-0.002763,86.919922,35.133087,-150.078751,,,
729705818.929806,0.623169,-0.321648,73.309766,0.006485,0.006958,1.001968,0.020146,-0.005829,-0.002763,86.919922,35.133087,-150.078751,,,
729705818.933157,0.623169,-0.321648,73.309766,0.006485,0.006958,1.001968,0.020146,-0.005829,-0.002763,86.919922,35.133087,-150.078751,,,
729705818.936475,0.629616,-0.325536,73.307099,0.007355,0.007431,0.998688,0.022155,-0.010523,-0.012204,87.047607,35.093552,-149.962006,,,
729705818.939849,0.635267,-0.329857,73.303843,0.007355,0.007431,0.998688,0.022155,-0.010523,-0.012204,87.047607,35.093552,-149.962006,,,
729705818.943219,0.635267,-0.329857,73.303843,0.007355,0.007431,0.998688,0.022155,-0.010523,-0.012204,87.047607,35.093552,-149.962006,,,
729705818.946486,0.640125,-0.333509,73.299873,0.006317,0.005096,0.999191,0.014744,-0.009411,-0.017038,87.047607,35.093552,-149.962006,,,
729705818.949829,0.64195,-0.337472,73.295459,0.006317,0.005096,0.999191,0.014744,-0.009411,-0.017038,87.047607,35.093552,-149.962006,,,
729705818.953139,0.64195,-0.337472,73.295459,0.006317,0.005096,0.999191,0.014744,-0.009411,-0.017038,87.047607,35.093552,-149.962006,,,
729705818.956559,0.644558,-0.338234,73.291484,0.009857,0.003815,0.997894,0.00994,0.00465,-0.013863,87.047607,35.093552,-149.962006,,,
729705818.9598,0.645314,-0.338942,73.288644,0.009857,0.003815,0.997894,0.00994,0.00465,-0.013863,87.047607,35.093552,-149.962006,,,
729705818.963152,0.645314,-0.338942,73.288644,0.009857,0.003815,0.997894,0.00994,0.00465,-0.013863,87.047607,35.093552,-149.962006,,,
729705818.966521,0.646954,-0.335253,73.287013,0.009354,0.003983,0.997025,0.005529,0.020218,-0.005201,87.047607,35.093552,-149.962006,,,
729705818.969812,0.64587,-0.331754,73.286425,0.009354,0.003983,0.997025,0.005529,0.020218,-0.005201,87.047607,35.093552,-149.962006,,,
729705818.973225,0.64587,-0.331754,73.286425,0.009354,0.003983,0.997025,0.005529,0.020218,-0.005201,87.047607,35.093552,-149.962006,,,
729705818.976498,0.646048,-0.324029,73.286587,0.007736,0.004013,0.993439,0.000489,0.033211,0.000268,87.047607,35.093552,-149.962006,,,
729705818.979808,0.643105,-0.316424,73.287159,0.007736,0.004013,0.993439,0.000489,0.033211,0.000268,87.009476,34.866165,-150.01416,,,
729705818.983197,0.643105,-0.316424,73.287159,0.007736,0.004013,0.993439,0.000489,0.033211,0.000268,87.009476,34.866165,-150.01416,,,
729705818.986475,0.642638,-0.305991,73.288027,0.00499,0.006714,0.991943,-0.001373,0.040148,0.002498,87.009476,34.866165,-150.01416,,,
729705818.98985,0.639892,-0.297419,73.289928,0.00499,0.006714,0.991943,-0.001373,0.040148,0.002498,87.009476,34.866165,-150.01416,,,
729705818.993132,0.639892,-0.297419,73.289928,0.00499,0.006714,0.991943,-0.001373,0.040148,0.002498,87.009476,34.866165,-150.01416,,,
729705818.996481,0.639387,-0.288904,73.29224,0.001282,0.008011,0.988083,-0.002443,0.029409,0.005408,87.009476,34.866165,-150.01416,,,
729705818.99981,0.636785,-0.28289,73.29493,0.001282,0.008011,0.988083,-0.002443,0.029409,0.005408,87.009476,34.866165,-150.01416,,,
729705819.003162,0.636785,-0.28289,73.29493,0.001282,0.008011,0.988083,-0.002443,0.029409,0.005408,87.009476,34.866165,-150.01416,,,
729705819.006579,0.635613,-0.279126,73.297842,-0.003189,0.010437,0.98555,-0.003566,0.011323,0.007016,87.009476,34.866165,-150.01416,,,
729705819.0098,0.632525,-0.279018,73.300228,-0.003189,0.010437,0.98555,-0.003566,0.011323,0.007016,87.009476,34.866165,-150.01416,,,
729705819.01323,0.632525,-0.279018,73.300228,-0.003189,0.010437,0.98555,-0.003566,0.011323,0.007016,87.009476,34.866165,-150.01416,,,
729705819.016501,0.628596,-0.281198,73.302228,-0.001205,0.012894,0.986298,-0.014913,-0.009877,0.004463,87.009476,34.866165,-150.01416,,,
729705819.019813,0.622538,-0.286378,73.303282,-0.001205,0.012894,0.986298,-0.014913,-0.009877,0.004463,87.085495,35.058075,-150.064514,,,
729705819.02326,0.622538,-0.286378,73.303282,-0.001205,0.012894,0.986298,-0.014913,-0.009877,0.004463,87.085495,35.058075,-150.064514,,,
729705819.026489,0.616971,-0.293375,73.302651,0.002258,0.014557,0.989685,-0.019776,-0.025063,-0.007182,87.085495,35.058075,-150.064514,,,
729705819.029815,0.609274,-0.302356,73.300596,0.002258,0.014557,0.989685,-0.019776,-0.025063,-0.007182,87.085495,35.058075,-150.064514,,,
729705819.033223,0.609274,-0.302356,73.300596,0.002258,0.014557,0.989685,-0.019776,-0.025063,-0.007182,87.085495,35.058075,-150.064514,,,
729705819.036488,0.60296,-0.310636,73.297934,0.006363,0.014679,0.99501,-0.021164,-0.025436,-0.011404,87.085495,35.058075,-150.064514,,,
729705819.039827,0.594842,-0.319694,73.295178,0.006363,0.014679,0.99501,-0.021164,-0.025436,-0.011404,87.085495,35.058075,-150.064514,,,
729705819.043151,0.594842,-0.319694,73.295178,0.006363,0.014679,0.99501,-0.021164,-0.025436,-0.011404,87.085495,35.058075,-150.064514,,,
729705819.046558,0.588276,-0.325955,73.293043,0.004639,0.010849,0.999359,-0.022585,-0.01599,-0.006963,87.085495,35.058075,-150.064514,,,
729705819.049801,0.579999,-0.330519,73.292337,0.004639,0.010849,0.999359,-0.022585,-0.01599,-0.006963,87.085495,35.058075,-150.064514,,,
729705819.053195,0.579999,-0.330519,73.292337,0.004639,0.010849,0.999359,-0.022585,-0.01599,-0.006963,87.085495,35.058075,-150.064514,,,
729705819.056553,0.572928,-0.33146,73.292979,0.005051,0.00647,1.00061,-0.025135,0.004799,0.002466,87.085495,35.058075,-150.064514,,,
729705819.0598,0.564062,-0.330287,73.294601,0.005051,0.00647,1.00061,-0.025135,0.004799,0.002466,87.035522,35.287735,-149.796112,,,
729705819.063146,0.564062,-0.330287,73.294601,0.005051,0.00647,1.00061,-0.025135,0.004799,0.002466,87.035522,35.287735,-149.796112,,,
729705819.066481,0.556393,-0.326135,73.297376,0.008469,0.008163,0.998032,-0.024934,0.022454,0.010521,87.035522,35.287735,-149.796112,,,
729705819.069809,0.547897,-0.318565,73.30139,0.008469,0.008163,0.998032,-0.024934,0.022454,0.010521,87.035522,35.287735,-149.796112,,,
729705819.073185,0.547897,-0.318565,73.30139,0.008469,0.008163,0.998032,-0.024934,0.022454,0.010521,87.035522,35.287735,-149.796112,,,
729705819.076491,0.539428,-0.309747,73.306309,0.00795,0.010788,0.998657,-0.027519,0.036272,0.01679,87.035522,35.287735,-149.796112,,,
729705819.079802,0.531941,-0.298776,73.311031,0.00795,0.010788,0.998657,-0.027519,0.036272,0.01679,87.035522,35.287735,-149.796112,,,
729705819.083225,0.531941,-0.298776,73.311031,0.00795,0.010788,0.998657,-0.027519,0.036272,0.01679,87.035522,35.287735,-149.796112,,,
729705819.086461,0.524911,-0.291188,73.314832,0.007629,0.013794,0.994949,-0.024581,0.025032,0.010259,87.035522,35.287735,-149.796112,,,
729705819.089843,0.518536,-0.28375,73.317982,0.007629,0.013794,0.994949,-0.024581,0.025032,0.010259,87.035522,35.287735,-149.796112,,,
729705819.093134,0.518536,-0.28375,73.317982,0.007629,0.013794,0.994949,-0.024581,0.025032,0.010259,87.035522,35.287735,-149.796112,,,
729705819.096558,0.511421,-0.281056,73.319771,0.00795,0.015045,0.990509,-0.024111,0.006575,0.000615,87.035522,35.287735,-149.796112,,,
729705819.099802,0.506308,-0.280443,73.319835,0.00795,0.015045,0.990509,-0.024111,0.006575,0.000615,87.053146,35.264771,-150.275513,,,
729705819.103151,0.506308,-0.280443,73.319835,0.00795,0.015045,0.990509,-0.024111,0.006575,0.000615,87.053146,35.264771,-150.275513,,,
729705819.106565,0.501309,-0.284506,73.318504,0.009094,0.013016,0.993103,-0.015093,-0.016161,-0.009254,87.053146,35.264771,-150.275513,,,
729705819.1098,0.499097,-0.291263,73.315545,0.009094,0.013016,0.993103,-0.015093,-0.016161,-0.009254,87.053146,35.264771,-150.275513,,,
729705819.113157,0.499097,-0.291263,73.315545,0.009094,0.013016,0.993103,-0.015093,-0.016161,-0.009254,87.053146,35.264771,-150.275513,,,
729705819.116484,0.497474,-0.299623,73.311516,0.010941,0.010941,1.000809,-0.001117,-0.028125,-0.016788,87.053146,35.264771,-150.275513,,,
729705819.119809,0.498012,-0.308795,73.306694,0.010941,0.010941,1.000809,-0.001117,-0.028125,-0.016788,87.053146,35.264771,-150.275513,,,
729705819.123211,0.498012,-0.308795,73.306694,0.010941,0.010941,1.000809,-0.001117,-0.028125,-0.016788,87.053146,35.264771,-150.275513,,,
729705819.126484,0.497172,-0.317221,73.301267,0.010376,0.009094,1.005722,-0.002072,-0.02398,-0.020877,87.053146,35.264771,-150.275513,,,
729705819.129816,0.495407,-0.323842,73.29597,0.010376,0.009094,1.005722,-0.002072,-0.02398,-0.020877,87.053146,35.264771,-150.275513,,,
729705819.13316,0.495407,-0.323842,73.29597,0.010376,0.009094,1.005722,-0.002072,-0.02398,-0.020877,87.053146,35.264771,-150.275513,,,
729705819.136551,0.493067,-0.328823,73.291526,0.007614,0.0103,1.0056,-0.00719,-0.010294,-0.014961,87.053146,35.264771,-150.275513,,,
729705819.139841,0.49015,-0.331551,73.288548,0.007614,0.0103,1.0056,-0.00719,-0.010294,-0.014961,87.053146,35.264771,-150.275513,,,
729705819.143155,0.49015,-0.331551,73.288548,0.007614,0.0103,1.0056,-0.00719,-0.010294,-0.014961,87.161545,35.22847,-150.085037,,,
729705819.146485,0.486604,-0.33186,73.286967,0.004288,0.008881,1.005753,-0.014187,0.005226,-0.005177,87.161545,35.22847,-150.085037,,,
729705819.149807,0.482689,-0.330349,73.286427,0.004288,0.008881,1.005753,-0.014187,0.005226,-0.005177,87.161545,35.22847,-150.085037,,,
729705819.15315,0.482689,-0.330349,73.286427,0.004288,0.008881,1.005753,-0.014187,0.005226,-0.005177,87.161545,35.22847,-150.085037,,,
729705819.156529,0.478109,-0.32612,73.286621,0.00563,0.007706,1.005493,-0.015009,0.019714,-6e-06,87.161545,35.22847,-150.085037,,,
729705819.159803,0.474988,-0.321058,73.287637,0.00563,0.007706,1.005493,-0.015009,0.019714,-6e-06,87.161545,35.22847,-150.085037,,,
729705819.163213,0.474988,-0.321058,73.287637,0.00563,0.007706,1.005493,-0.015009,0.019714,-6e-06,87.161545,35.22847,-150.085037,,,
729705819.166481,0.471844,-0.314842,73.289758,0.000107,0.006866,1.006454,-0.00812,0.02595,0.007667,87.161545,35.22847,-150.085037,,,
729705819.169807,0.471935,-0.30986,73.292365,0.000107,0.006866,1.006454,-0.00812,0.02595,0.007667,87.161545,35.22847,-150.085037,,,
729705819.1732,0.471935,-0.30986,73.292365,0.000107,0.006866,1.006454,-0.00812,0.02595,0.007667,87.161545,35.22847,-150.085037,,,
729705819.176509,0.472124,-0.305187,73.29477,-0.003616,0.006149,1.0065,0.004107,0.018327,0.006204,87.161545,35.22847,-150.085037,,,
729705819.179805,0.47563,-0.302915,73.297402,-0.003616,0.006149,1.0065,0.004107,0.018327,0.006204,87.161545,35.22847,-150.085037,,,
729705819.183177,0.47563,-0.302915,73.297402,-0.003616,0.006149,1.0065,0.004107,0.018327,0.006204,87.035782,35.248505,-150.117371,,,
729705819.186583,0.479263,-0.302263,73.299793,-0.004959,0.002945,1.003662,0.015349,0.002381,0.004523,87.035782,35.248505,-150.117371,,,
729705819.189812,0.484601,-0.305474,73.301631,-0.004959,0.002945,1.003662,0.015349,0.002381,0.004523,87.035782,35.248505,-150.117371,,,
729705819.193133,0.484601,-0.305474,73.301631,-0.004959,0.002945,1.003662,0.015349,0.002381,0.004523,87.035782,35.248505,-150.117371,,,
729705819.196483,0.489478,-0.309099,73.303069,-0.001068,0.002838,0.997772,0.01772,-0.01032,0.00177,87.035782,35.248505,-150.117371,,,
729705819.199824,0.494381,-0.314346,73.30351,-0.001068,0.002838,0.997772,0.01772,-0.01032,0.00177,87.035782,35.248505,-150.117371,,,
729705819.203247,0.494381,-0.314346,73.30351,-0.001068,0.002838,0.997772,0.01772,-0.01032,0.00177,87.035782,35.248505,-150.117371,,,
729705819.206561,0.498709,-0.317753,73.303099,0.003616,0.006149,0.995193,0.014997,-0.007468,-0.004091,87.035782,35.248505,-150.117371,,,
729705819.209805,0.502541,-0.321111,73.302307,0.003616,0.006149,0.995193,0.014997,-0.007468,-0.004091,87.035782,35.248505,-150.117371,,,
729705819.21316,0.502541,-0.321111,73.302307,0.003616,0.006149,0.995193,0.014997,-0.007468,-0.004091,87.035782,35.248505,-150.117371,,,
729705819.216536,0.505155,-0.321813,73.301185,0.009888,0.010239,0.995224,0.00894,0.00347,-0.006271,87.035782,35.248505,-150.117371,,,
729705819.219796,0.507319,-0.320678,73.29951,0.009888,0.010239,0.995224,0.00894,0.00347,-0.006271,87.035782,35.248505,-150.117371,,,
729705819.223191,0.507319,-0.320678,73.29951,0.009888,0.010239,0.995224,0.00894,0.00347,-0.006271,86.891968,35.174957,-150.116852,,,
729705819.226484,0.508042,-0.317724,73.297058,0.011429,0.011215,0.995773,0.000919,0.015858,-0.011622,86.891968,35.174957,-150.116852,,,
729705819.229839,0.508531,-0.312701,73.294407,0.011429,0.011215,0.995773,0.000919,0.015858,-0.011622,86.891968,35.174957,-150.116852,,,
729705819.233152,0.508531,-0.312701,73.294407,0.011429,0.011215,0.995773,0.000919,0.015858,-0.011622,86.891968,35.174957,-150.116852,,,
729705819.236495,0.50944,-0.306579,73.29173,0.009308,0.009613,0.996231,0.00264,0.025511,-0.011817,86.891968,35.174957,-150.116852,,,
729705819.239853,0.51,-0.299662,73.289135,0.009308,0.009613,0.996231,0.00264,0.025511,-0.011817,86.891968,35.174957,-150.116852,,,
729705819.243241,0.51,-0.299662,73.289135,0.009308,0.009613,0.996231,0.00264,0.025511,-0.011817,86.891968,35.174957,-150.116852,,,
729705819.246469,0.511287,-0.293437,73.286776,0.007202,0.008347,0.992401,0.005593,0.023172,-0.010241,86.891968,35.174957,-150.116852,,,
729705819.249807,0.511624,-0.286393,73.284332,0.007202,0.008347,0.992401,0.005593,0.023172,-0.010241,86.891968,35.174957,-150.116852,,,
729705819.253171,0.511624,-0.286393,73.284332,0.007202,0.008347,0.992401,0.005593,0.023172,-0.010241,86.891968,35.174957,-150.116852,,,
729705819.256596,0.512278,-0.283223,73.28219,0.00621,0.005676,0.989487,0.003177,0.009845,-0.008256,86.891968,35.174957,-150.116852,,,
729705819.259796,0.511912,-0.279414,73.280152,0.00621,0.005676,0.989487,0.003177,0.009845,-0.008256,86.891968,35.174957,-150.116852,,,
729705819.263142,0.511912,-0.279414,73.280152,0.00621,0.005676,0.989487,0.003177,0.009845,-0.008256,87.09375,35.104462,-150.102432,,,
729705819.266492,0.512954,-0.27989,73.277966,0.005585,0.006592,0.99057,0.005641,-0.002241,-0.00946,87.09375,35.104462,-150.102432,,,
729705819.269804,0.51256,-0.279492,73.275363,0.005585,0.006592,0.99057,0.005641,-0.002241,-0.00946,87.09375,35.104462,-150.102432,,,
729705819.27319,0.51256,-0.279492,73.275363,0.005585,0.006592,0.99057,0.005641,-0.002241,-0.00946,87.09375,35.104462,-150.102432,,,
729705819.276476,0.513515,-0.28194,73.272538,0.004395,0.006485,0.990494,0.003947,-0.006833,-0.011131,87.09375,35.104462,-150.102432,,,
729705819.279808,0.512945,-0.283496,73.269731,0.004395,0.006485,0.990494,0.003947,-0.006833,-0.011131,87.09375,35.104462,-150.102432,,,
729705819.283217,0.512945,-0.283496,73.269731,0.004395,0.006485,0.990494,0.003947,-0.006833,-0.011131,87.09375,35.104462,-150.102432,,,
729705819.286472,0.51284,-0.285557,73.267045,0.006668,0.006119,0.991257,-0.002436,-0.003191,-0.010326,87.09375,35.104462,-150.102432,,,
729705819.289848,0.511221,-0.287292,73.264147,0.006668,0.006119,0.991257,-0.002436,-0.003191,-0.010326,87.09375,35.104462,-150.102432,,,
729705819.293139,0.511221,-0.287292,73.264147,0.006668,0.006119,0.991257,-0.002436,-0.003191,-0.010326,87.09375,35.104462,-150.102432,,,
729705819.29652,0.508463,-0.287522,73.260822,0.00975,0.011963,0.990417,-0.011915,0.004344,-0.01317,87.09375,35.104462,-150.102432,,,
729705819.299798,0.504389,-0.287835,73.257782,0.00975,0.011963,0.990417,-0.011915,0.004344,-0.01317,87.09375,35.104462,-150.102432,,,
729705819.303143,0.504389,-0.287835,73.257782,0.00975,0.011963,0.990417,-0.011915,0.004344,-0.01317,87.09375,35.104462,-150.102432,,,
729705819.306517,0.498482,-0.2848,73.25516,0.011154,0.014359,0.989334,-0.021569,0.016539,-0.010056,87.017975,35.149933,-149.983231,,,
729705819.309805,0.492105,-0.281441,73.252787,0.011154,0.014359,0.989334,-0.021569,0.016539,-0.010056,87.017975,35.149933,-149.983231,,,
729705819.313146,0.492105,-0.281441,73.252787,0.011154,0.014359,0.989334,-0.021569,0.016539,-0.010056,87.017975,35.149933,-149.983231,,,
729705819.316485,0.484132,-0.276283,73.250768,0.012238,0.013306,0.988586,-0.029417,0.020463,-0.007607,87.017975,35.149933,-149.983231,,,
729705819.319798,0.475726,-0.272358,73.249113,0.012238,0.013306,0.988586,-0.029417,0.020463,-0.007607,87.017975,35.149933,-149.983231,,,
729705819.323299,0.475726,-0.272358,73.249113,0.012238,0.013306,0.988586,-0.029417,0.020463,-0.007607,87.017975,35.149933,-149.983231,,,
729705819.32647,0.467771,-0.267689,73.247164,0.012344,0.012909,0.992676,-0.026444,0.017837,-0.009643,87.017975,35.149933,-149.983231,,,
729705819.329803,0.460017,-0.264904,73.244923,0.012344,0.012909,0.992676,-0.026444,0.017837,-0.009643,87.017975,35.149933,-149.983231,,,
729705819.333163,0.460017,-0.264904,73.244923,0.012344,0.012909,0.992676,-0.026444,0.017837,-0.009643,87.017975,35.149933,-149.983231,,,
729705819.336548,0.452802,-0.262998,73.242505,0.007675,0.01207,0.998138,-0.022989,0.007528,-0.010866,87.017975,35.149933,-149.983231,,,
729705819.339857,0.445539,-0.26297,73.239272,0.007675,0.01207,0.998138,-0.022989,0.007528,-0.010866,87.017975,35.149933,-149.983231,,,
729705819.34315,0.445539,-0.26297,73.239272,0.007675,0.01207,0.998138,-0.022989,0.007528,-0.010866,87.017975,35.149933,-149.983231,,,
729705819.346492,0.438785,-0.264592,73.235334,0.003601,0.012543,1.001648,-0.023346,-0.006079,-0.0158,86.793716,35.395523,-150.030182,,,
729705819.349798,0.431789,-0.267485,73.230922,0.003601,0.012543,1.001648,-0.023346,-0.006079,-0.0158,86.793716,35.395523,-150.030182,,,
729705819.353172,0.431789,-0.267485,73.230922,0.003601,0.012543,1.001648,-0.023346,-0.006079,-0.0158,86.793716,35.395523,-150.030182,,,
729705819.35654,0.425156,-0.27128,73.22587,0.004181,0.009949,1.00412,-0.021975,-0.011051,-0.020235,86.793716,35.395523,-150.030182,,,
729705819.359793,0.418562,-0.275413,73.220515,0.004181,0.009949,1.00412,-0.021975,-0.011051,-0.020235,86.793716,35.395523,-150.030182,,,
729705819.363215,0.418562,-0.275413,73.220515,0.004181,0.009949,1.00412,-0.021975,-0.011051,-0.020235,86.793716,35.395523,-150.030182,,,
729705819.366488,0.413376,-0.279024,73.215378,0.004715,0.005783,1.010574,-0.015507,-0.008529,-0.018731,86.793716,35.395523,-150.030182,,,
729705819.369801,0.409731,-0.28303,73.210751,0.004715,0.005783,1.010574,-0.015507,-0.008529,-0.018731,86.793716,35.395523,-150.030182,,,
729705819.373197,0.409731,-0.28303,73.210751,0.004715,0.005783,1.010574,-0.015507,-0.008529,-0.018731,86.793716,35.395523,-150.030182,,,
729705819.376528,0.407859,-0.285225,73.206821,0.004562,0.004547,1.013214,-0.001898,-0.003524,-0.013876,86.793716,35.395523,-150.030182,,,
729705819.379791,0.410249,-0.287728,73.203744,0.004562,0.004547,1.013214,-0.001898,-0.003524,-0.013876,86.793716,35.395523,-150.030182,,,
729705819.383145,0.410249,-0.287728,73.203744,0.004562,0.004547,1.013214,-0.001898,-0.003524,-0.013876,86.793716,35.395523,-150.030182,,,
729705819.386472,0.413572,-0.287178,73.201914,0.000259,-0.000656,1.018692,0.017096,0.00676,-0.005266,86.872665,35.381363,-150.254333,,,
729705819.389822,0.420341,-0.287775,73.20124,0.000259,-0.000656,1.018692,0.017096,0.00676,-0.005266,86.872665,35.381363,-150.254333,,,
729705819.393151,0.420341,-0.287775,73.20124,0.000259,-0.000656,1.018692,0.017096,0.00676,-0.005266,86.872665,35.381363,-150.254333,,,
729705819.396486,0.427152,-0.286395,73.201473,-0.002472,0.000168,1.01712,0.0272,0.007195,0.001119,86.872665,35.381363,-150.254333,,,
729705819.399807,0.43609,-0.287311,73.201887,-0.002472,0.000168,1.01712,0.0272,0.007195,0.001119,86.872665,35.381363,-150.254333,,,
729705819.403218,0.43609,-0.287311,73.201887,-0.002472,0.000168,1.01712,0.0272,0.007195,0.001119,86.872665,35.381363,-150.254333,,,
729705819.40653,0.442604,-0.285867,73.20159,0.001251,0.004913,1.008362,0.021481,0.009915,-0.003735,86.872665,35.381363,-150.254333,,,
729705819.409807,0.449296,-0.284838,73.200868,0.001251,0.004913,1.008362,0.021481,0.009915,-0.003735,86.872665,35.381363,-150.254333,,,
729705819.413152,0.449296,-0.284838,73.200868,0.001251,0.004913,1.008362,0.021481,0.009915,-0.003735,86.872665,35.381363,-150.254333,,,
729705819.416546,0.453486,-0.28132,73.19983,0.000763,0.008057,1.003296,0.012026,0.018087,-0.005837,86.872665,35.381363,-150.254333,,,
729705819.419878,0.456991,-0.276514,73.199268,0.000763,0.008057,1.003296,0.012026,0.018087,-0.005837,86.872665,35.381363,-150.254333,,,
729705819.423178,0.456991,-0.276514,73.199268,0.000763,0.008057,1.003296,0.012026,0.018087,-0.005837,86.872665,35.381363,-150.254333,,,
729705819.426479,0.457843,-0.271565,73.199638,-0.00061,0.00943,0.99707,0.001038,0.019128,0.000725,86.872665,35.381363,-150.254333,,,
729705819.429862,0.458769,-0.266221,73.200998,-0.00061,0.00943,0.99707,0.001038,0.019128,0.000725,86.914139,35.31012,-149.946289,,,
729705819.433147,0.458769,-0.266221,73.200998,-0.00061,0.00943,0.99707,0.001038,0.019128,0.000725,86.914139,35.31012,-149.946289,,,
729705819.43648,0.458901,-0.260719,73.203245,0.000961,0.009964,0.9944,0.001169,0.022851,0.00692,86.914139,35.31012,-149.946289,,,
729705819.439839,0.459253,-0.254858,73.2059,0.000961,0.009964,0.9944,0.001169,0.022851,0.00692,86.914139,35.31012,-149.946289,,,
729705819.443242,0.459253,-0.254858,73.2059,0.000961,0.009964,0.9944,0.001169,0.022851,0.00692,86.914139,35.31012,-149.946289,,,
729705819.446478,0.459618,-0.249366,73.208728,0.00296,0.010803,0.991104,-0.000257,0.021145,0.008106,86.914139,35.31012,-149.946289,,,
729705819.449843,0.458151,-0.244451,73.211178,0.00296,0.010803,0.991104,-0.000257,0.021145,0.008106,86.914139,35.31012,-149.946289,,,
729705819.45314,0.458151,-0.244451,73.211178,0.00296,0.010803,0.991104,-0.000257,0.021145,0.008106,86.914139,35.31012,-149.946289,,,
729705819.456555,0.456195,-0.240618,73.213522,0.003433,0.016327,0.985168,-0.008078,0.013814,0.007384,86.914139,35.31012,-149.946289,,,
729705819.459802,0.451797,-0.237842,73.215968,0.003433,0.016327,0.985168,-0.008078,0.013814,0.007384,86.914139,35.31012,-149.946289,,,
729705819.463152,0.451797,-0.237842,73.215968,0.003433,0.016327,0.985168,-0.008078,0.013814,0.007384,86.914139,35.31012,-149.946289,,,
729705819.466492,0.448507,-0.237484,73.218194,0.003403,0.018158,0.981262,-0.011393,-0.000168,0.005794,86.914139,35.31012,-149.946289,,,
729705819.469874,0.442701,-0.238135,73.219874,0.003403,0.018158,0.981262,-0.011393,-0.000168,0.005794,86.802368,35.419907,-150.056961,,,
729705819.473166,0.442701,-0.238135,73.219874,0.003403,0.018158,0.981262,-0.011393,-0.000168,0.005794,86.802368,35.419907,-150.056961,,,
729705819.47649,0.439003,-0.242913,73.220702,0.003754,0.014282,0.983887,-0.012891,-0.017812,-0.000204,86.802368,35.419907,-150.056961,,,
729705819.479885,0.433178,-0.248717,73.220575,0.003754,0.014282,0.983887,-0.012891,-0.017812,-0.000204,86.802368,35.419907,-150.056961,,,
729705819.48324,0.433178,-0.248717,73.220575,0.003754,0.014282,0.983887,-0.012891,-0.017812,-0.000204,86.802368,35.419907,-150.056961,,,
729705819.486489,0.427565,-0.257274,73.219243,0.004745,0.011276,0.983551,-0.020924,-0.027997,-0.008697,86.802368,35.419907,-150.056961,,,
729705819.489885,0.420418,-0.265833,73.216941,0.004745,0.011276,0.983551,-0.020924,-0.027997,-0.008697,86.802368,35.419907,-150.056961,,,
729705819.493145,0.420418,-0.265833,73.216941,0.004745,0.011276,0.983551,-0.020924,-0.027997,-0.008697,86.802368,35.419907,-150.056961,,,
729705819.496549,0.410836,-0.274803,73.2145,0.004135,0.012283,0.987198,-0.037661,-0.025956,-0.009591,86.802368,35.419907,-150.056961,,,
729705819.499824,0.398974,-0.281164,73.212804,0.004135,0.012283,0.987198,-0.037661,-0.025956,-0.009591,86.802368,35.419907,-150.056961,,,
729705819.503151,0.398974,-0.281164,73.212804,0.004135,0.012283,0.987198,-0.037661,-0.025956,-0.009591,86.802368,35.419907,-150.056961,,,
729705819.506519,0.383993,-0.28778,73.212169,0.006454,0.008209,0.988724,-0.056678,-0.017936,-0.002215,86.802368,35.419907,-150.056961,,,
729705819.50988,0.366925,-0.291584,73.212438,0.006454,0.008209,0.988724,-0.056678,-0.017936,-0.002215,86.898438,35.441025,-150.124466,,,
729705819.513131,0.366925,-0.291584,73.212438,0.006454,0.008209,0.988724,-0.056678,-0.017936,-0.002215,86.898438,35.441025,-150.124466,,,
729705819.51649,0.346646,-0.294443,73.213383,0.009491,0.003662,0.991104,-0.073263,-0.002657,0.002548,86.898438,35.441025,-150.124466,,,
729705819.519849,0.325854,-0.293842,73.214889,0.009491,0.003662,0.991104,-0.073263,-0.002657,0.002548,86.898438,35.441025,-150.124466,,,
729705819.523196,0.325854,-0.293842,73.214889,0.009491,0.003662,0.991104,-0.073263,-0.002657,0.002548,86.898438,35.441025,-150.124466,,,
729705819.526479,0.303518,-0.291512,73.216717,0.005997,-0.000519,0.999512,-0.076497,0.016298,0.004791,86.898438,35.441025,-150.124466,,,
729705819.529826,0.28368,-0.285938,73.219075,0.005997,-0.000519,0.999512,-0.076497,0.016298,0.004791,86.898438,35.441025,-150.124466,,,
729705819.533146,0.28368,-0.285938,73.219075,0.005997,-0.000519,0.999512,-0.076497,0.016298,0.004791,86.898438,35.441025,-150.124466,,,
729705819.536472,0.262492,-0.278696,73.222186,0.004044,-0.003967,1.005356,-0.071464,0.032128,0.010002,86.898438,35.441025,-150.124466,,,
729705819.539859,0.245112,-0.269944,73.226106,0.004044,-0.003967,1.005356,-0.071464,0.032128,0.010002,86.898438,35.441025,-150.124466,,,
729705819.54313,0.245112,-0.269944,73.226106,0.004044,-0.003967,1.005356,-0.071464,0.032128,0.010002,86.898438,35.441025,-150.124466,,,
729705819.546533,0.224105,-0.261237,73.230375,0.002563,-0.004974,1.003052,-0.073583,0.034407,0.012367,86.898438,35.441025,-150.124466,,,
729705819.549789,0.224105,-0.261237,73.230375,0.002563,-0.004974,1.003052,-0.073583,0.034407,0.012367,86.8349,35.470932,-149.667862,,,
729705819.553161,0.205894,-0.252131,73.234315,0.002563,-0.004974,1.003052,-0.073583,0.034407,0.012367,86.8349,35.470932,-149.667862,,,
729705819.556538,0.183469,-0.24313,73.237758,0.000778,-0.003418,0.997177,-0.078872,0.035481,0.009004,86.8349,35.470932,-149.667862,,,
729705819.55989,0.183469,-0.233394,73.240746,0.000778,-0.003418,0.997177,-0.078872,0.035481,0.009004,86.8349,35.470932,-149.667862,,,
729705819.563137,0.161906,-0.233394,73.240746,0.000778,-0.003418,0.997177,-0.078872,0.035481,0.009004,86.8349,35.470932,-149.667862,,,
729705819.566478,0.136018,-0.223241,73.24351,0.003174,-0.000122,0.995407,-0.09367,0.038293,0.007513,86.8349,35.470932,-149.667862,,,
729705819.569823,0.136018,-0.223241,73.24351,0.003174,-0.000122,0.995407,-0.09367,0.038293,0.007513,86.8349,35.470932,-149.667862,,,
729705819.573259,0.110318,-0.212862,73.245256,0.003174,-0.000122,0.995407,-0.09367,0.038293,0.007513,86.8349,35.470932,-149.667862,,,
729705819.57647,0.079767,-0.20174,73.246182,0.00351,0.00116,0.991852,-0.110521,0.041911,0.001804,86.8349,35.470932,-149.667862,,,
729705819.579808,0.079767,-0.20174,73.246182,0.00351,0.00116,0.991852,-0.110521,0.041911,0.001804,86.8349,35.470932,-149.667862,,,
729705819.583147,0.049177,-0.19135,73.246294,0.00351,0.00116,0.991852,-0.110521,0.041911,0.001804,86.8349,35.470932,-149.667862,,,
729705819.586528,0.01401,-0.180753,73.244003,0.008438,0.004898,0.986572,-0.126378,0.041103,-0.014925,86.8349,35.470932,-149.667862,,,
729705819.589859,0.01401,-0.171591,73.239585,0.008438,0.004898,0.986572,-0.126378,0.041103,-0.014925,86.8349,35.470932,-149.667862,,,
729705819.593122,-0.022372,-0.171591,73.239585,0.008438,0.004898,0.986572,-0.126378,0.041103,-0.014925,87.001129,35.87413,-149.772217,,,
729705819.596474,-0.062444,-0.161583,73.233947,0.008331,0.004517,0.98288,-0.143203,0.036743,-0.023441,87.001129,35.87413,-149.772217,,,
729705819.599905,-0.062444,-0.161583,73.233947,0.008331,0.004517,0.98288,-0.143203,0.036743,-0.023441,87.001129,35.87413,-149.772217,,,
729705819.603149,-0.103992,-0.154752,73.227241,0.008331,0.004517,0.98288,-0.143203,0.036743,-0.023441,87.001129,35.87413,-149.772217,,,
729705819.606533,-0.148999,-0.14814,73.219713,0.005066,0.002487,0.975861,-0.162467,0.024778,-0.029209,87.001129,35.87413,-149.772217,,,
729705819.609803,-0.148999,-0.14814,73.219713,0.005066,0.002487,0.975861,-0.162467,0.024778,-0.029209,87.001129,35.87413,-149.772217,,,
729705819.61322,-0.197356,-0.143452,73.211294,0.005066,0.002487,0.975861,-0.162467,0.024778,-0.029209,87.001129,35.87413,-149.772217,,,
729705819.616462,-0.249431,-0.139013,73.202017,0.002625,0.001465,0.968643,-0.188448,0.01961,-0.035182,87.001129,35.87413,-149.772217,,,
729705819.6198,-0.249431,-0.139013,73.202017,0.002625,0.001465,0.968643,-0.188448,0.01961,-0.035182,87.001129,35.87413,-149.772217,,,
729705819.623204,-0.306509,-0.132173,73.19195,0.002625,0.001465,0.968643,-0.188448,0.01961,-0.035182,87.001129,35.87413,-149.772217,,,
729705819.626534,-0.370291,-0.119756,73.181539,0.003708,0.002289,0.970505,-0.23448,0.056138,-0.037515,87.001129,35.87413,-149.772217,,,
729705819.62983,-0.370291,-0.119756,73.181539,0.003708,0.002289,0.970505,-0.23448,0.056138,-0.037515,87.001129,35.87413,-149.772217,,,
729705819.633172,-0.441744,-0.101435,73.171307,0.003708,0.002289,0.970505,-0.23448,0.056138,-0.037515,87.065887,36.334198,-149.526566,,,
729705819.636475,-0.521954,-0.078571,73.160718,0.005371,0.004135,0.96962,-0.292907,0.09049,-0.04008,87.065887,36.334198,-149.526566,,,
729705819.639893,-0.521954,-0.078571,73.160718,0.005371,0.004135,0.96962,-0.292907,0.09049,-0.04008,87.065887,36.334198,-149.526566,,,
729705819.643143,-0.609496,-0.05145,73.149633,0.005371,0.004135,0.96962,-0.292907,0.09049,-0.04008,87.065887,36.334198,-149.526566,,,
729705819.646469,-0.70752,-0.019583,73.137844,0.004929,0.00087,0.963715,-0.356227,0.123232,-0.045287,87.065887,36.334198,-149.526566,,,
729705819.649811,-0.70752,-0.019583,73.137844,0.004929,0.00087,0.963715,-0.356227,0.123232,-0.045287,87.065887,36.334198,-149.526566,,,
729705819.653193,-0.812771,0.016621,73.12436,0.004929,0.00087,0.963715,-0.356227,0.123232,-0.045287,87.065887,36.334198,-149.526566,,,
729705819.65651,-0.930924,0.056221,73.108489,0.006241,0.002182,0.962769,-0.430858,0.143153,-0.06248,87.065887,36.334198,-149.526566,,,
729705819.659811,-0.930924,0.056221,73.108489,0.006241,0.002182,0.962769,-0.430858,0.143153,-0.06248,87.065887,36.334198,-149.526566,,,
729705819.663146,-1.059436,0.095357,73.088882,0.006241,0.002182,0.962769,-0.430858,0.143153,-0.06248,87.065887,36.334198,-149.526566,,,
729705819.666465,-1.205943,0.136095,73.064287,0.00824,0.007919,0.935272,-0.537632,0.148828,-0.098186,87.065887,36.334198,-149.526566,,,
729705819.669903,-1.205943,0.136095,73.064287,0.00824,0.007919,0.935272,-0.537632,0.148828,-0.098186,87.065887,36.334198,-149.526566,,,
729705819.673135,-1.366288,0.176837,73.034529,0.00824,0.007919,0.935272,-0.537632,0.148828,-0.098186,87.313461,37.193161,-149.239899,,,
729705819.676528,-1.546788,0.220138,72.999658,0.00795,0.01088,0.927567,-0.659338,0.158605,-0.135257,87.313461,37.193161,-149.239899,,,
729705819.679796,-1.546788,0.220138,72.999658,0.00795,0.01088,0.927567,-0.659338,0.158605,-0.135257,87.313461,37.193161,-149.239899,,,
729705819.683154,-1.742965,0.262025,72.959842,0.00795,0.01088,0.927567,-0.659338,0.158605,-0.135257,87.313461,37.193161,-149.239899,,,
729705819.68647,-1.95957,0.301482,72.915878,0.003586,0.005936,0.91893,-0.784153,0.136996,-0.165918,87.313461,37.193161,-149.239899,,,
729705819.689912,-1.95957,0.301482,72.915878,0.003586,0.005936,0.91893,-0.784153,0.136996,-0.165918,87.313461,37.193161,-149.239899,,,
729705819.69314,-2.193731,0.335574,72.869386,0.003586,0.005936,0.91893,-0.784153,0.136996,-0.165918,87.313461,37.193161,-149.239899,,,
729705819.69647,-2.444372,0.364746,72.821987,-0.005173,-0.008591,0.905334,-0.899084,0.10452,-0.173811,87.313461,37.193161,-149.239899,,,
729705819.699918,-2.444372,0.364746,72.821987,-0.005173,-0.008591,0.905334,-0.899084,0.10452,-0.173811,87.313461,37.193161,-149.239899,,,
729705819.703218,-2.711847,0.390617,72.774095,-0.005173,-0.008591,0.905334,-0.899084,0.10452,-0.173811,87.313461,37.193161,-149.239899,,,
729705819.706515,-2.996739,0.413137,72.726227,-0.010712,-0.023727,0.905151,-1.02067,0.082947,-0.175281,87.313461,37.193161,-149.239899,,,
729705819.709792,-2.996739,0.413137,72.726227,-0.010712,-0.023727,0.905151,-1.02067,0.082947,-0.175281,87.313461,37.193161,-149.239899,,,
729705819.713141,-3.298901,0.431468,72.678449,-0.010712,-0.023727,0.905151,-1.02067,0.082947,-0.175281,87.37204,39.372467,-148.850128,,,
729705819.716471,-3.618363,0.444784,72.631031,-0.012955,-0.0354,0.897873,-1.140686,0.049766,-0.174099,87.37204,39.372467,-148.850128,,,
729705819.719818,-3.618363,0.444784,72.631031,-0.012955,-0.0354,0.897873,-1.140686,0.049766,-0.174099,87.37204,39.372467,-148.850128,,,
729705819.723194,-3.955831,0.452188,72.583712,-0.012955,-0.0354,0.897873,-1.140686,0.049766,-0.174099,87.37204,39.372467,-148.850128,,,
729705819.726465,-4.312387,0.453816,72.536583,-0.013306,-0.046555,0.891083,-1.273671,0.011543,-0.173866,87.37204,39.372467,-148.850128,,,
729705819.729889,-4.312387,0.453816,72.536583,-0.013306,-0.046555,0.891083,-1.273671,0.011543,-0.173866,87.37204,39.372467,-148.850128,,,
729705819.733146,-4.689027,0.449222,72.490589,-0.013306,-0.046555,0.891083,-1.273671,0.011543,-0.173866,87.37204,39.372467,-148.850128,,,
729705819.736445,-5.08767,0.436267,72.44708,-0.02449,-0.061295,0.884491,-1.426612,-0.045882,-0.157142,87.37204,39.372467,-148.850128,,,
729705819.739865,-5.08767,0.436267,72.44708,-0.02449,-0.061295,0.884491,-1.426612,-0.045882,-0.157142,87.37204,39.372467,-148.850128,,,
729705819.742905,-5.511014,0.41366,72.406093,-0.02449,-0.061295,0.884491,-1.426612,-0.045882,-0.157142,87.37204,39.372467,-148.850128,,,
729705819.746517,-5.958469,0.386489,72.365937,-0.035431,-0.073242,0.860733,-1.594777,-0.075969,-0.151101,87.37204,39.372467,-148.850128,,,
729705819.749795,-5.958469,0.386489,72.365937,-0.035431,-0.073242,0.860733,-1.594777,-0.075969,-0.151101,87.37204,39.372467,-148.850128,,,
729705819.75307,-6.428864,0.363418,72.326712,-0.035431,-0.073242,0.860733,-1.594777,-0.075969,-0.151101,87.37204,39.372467,-148.850128,,,
729705819.756521,-6.925794,0.346724,72.288728,-0.023651,-0.092331,0.878708,-1.780453,-0.030149,-0.142438,87.326981,42.287109,-147.40387,,,
729705819.759808,-6.925794,0.346724,72.288728,-0.023651,-0.092331,0.878708,-1.780453,-0.030149,-0.142438,87.326981,42.287109,-147.40387,,,
729705819.763143,-7.453936,0.335833,72.250983,-0.023651,-0.092331,0.878708,-1.780453,-0.030149,-0.142438,87.326981,42.287109,-147.40387,,,
729705819.766509,-8.01587,0.333083,72.213433,-0.00087,-0.117752,0.857391,-2.015165,0.028982,-0.141611,87.326981,42.287109,-147.40387,,,
729705819.769816,-8.01587,0.333083,72.213433,-0.00087,-0.117752,0.857391,-2.015165,0.028982,-0.141611,87.326981,42.287109,-147.40387,,,
729705819.773191,-8.613907,0.345522,72.176568,-0.00087,-0.117752,0.857391,-2.015165,0.028982,-0.141611,87.326981,42.287109,-147.40387,,,
729705819.776463,-9.250395,0.377779,72.140888,0.00766,-0.134079,0.856537,-2.283003,0.168627,-0.136357,87.326981,42.287109,-147.40387,,,
729705819.779815,-9.250395,0.377779,72.140888,0.00766,-0.134079,0.856537,-2.283003,0.168627,-0.136357,87.326981,42.287109,-147.40387,,,
729705819.78313,-9.926895,0.425282,72.107158,0.00766,-0.134079,0.856537,-2.283003,0.168627,-0.136357,87.326981,42.287109,-147.40387,,,
729705819.786436,-10.644331,0.47934,72.075618,0.002945,-0.153183,0.820389,-2.569007,0.214582,-0.127354,87.326981,42.287109,-147.40387,,,
729705819.789871,-10.644331,0.47934,72.075618,0.002945,-0.153183,0.820389,-2.569007,0.214582,-0.127354,87.326981,42.287109,-147.40387,,,
729705819.79313,-11.402915,0.533906,72.047275,0.002945,-0.153183,0.820389,-2.569007,0.214582,-0.127354,87.326981,42.287109,-147.40387,,,
729705819.796475,-12.20124,0.590211,72.022765,-0.007156,-0.181641,0.765976,-2.846966,0.224039,-0.108496,87.657761,47.277542,-145.514771,,,
729705819.799839,-12.20124,0.590211,72.022765,-0.007156,-0.181641,0.765976,-2.846966,0.224039,-0.108496,87.657761,47.277542,-145.514771,,,
729705819.80315,-13.037387,0.65609,72.001288,-0.007156,-0.181641,0.765976,-2.846966,0.224039,-0.108496,87.657761,47.277542,-145.514771,,,
729705819.806532,-13.909733,0.738706,71.982795,-0.0121,-0.219574,0.790649,-3.099133,0.338088,-0.098403,87.657761,47.277542,-145.514771,,,
729705819.80979,-13.909733,0.738706,71.982795,-0.0121,-0.219574,0.790649,-3.099133,0.338088,-0.098403,87.657761,47.277542,-145.514771,,,
729705819.813144,-14.81727,0.841114,71.96785,-0.0121,-0.219574,0.790649,-3.099133,0.338088,-0.098403,87.657761,47.277542,-145.514771,,,
729705819.816465,-15.759164,0.961367,71.956493,-0.014969,-0.260483,0.798843,-3.339737,0.457704,-0.089939,87.657761,47.277542,-145.514771,,,
729705819.819857,-15.759164,0.961367,71.956493,-0.014969,-0.260483,0.798843,-3.339737,0.457704,-0.089939,87.657761,47.277542,-145.514771,,,
729705819.823181,-16.734386,1.094092,71.949086,-0.014969,-0.260483,0.798843,-3.339737,0.457704,-0.089939,87.657761,47.277542,-145.514771,,,
729705819.826467,-17.741297,1.233801,71.946136,-0.023514,-0.303055,0.760651,-3.559273,0.497909,-0.080623,87.657761,47.277542,-145.514771,,,
729705819.82982,-17.741297,1.233801,71.946136,-0.023514,-0.303055,0.760651,-3.559273,0.497909,-0.080623,87.657761,47.277542,-145.514771,,,
729705819.83316,-18.778986,1.375732,71.947169,-0.023514,-0.303055,0.760651,-3.559273,0.497909,-0.080623,87.657761,47.277542,-145.514771,,,
729705819.836474,-19.847586,1.518186,71.95194,-0.034561,-0.350113,0.720093,-3.774763,0.492897,-0.079486,88.260025,53.566498,-141.279617,,,
729705819.839867,-19.847586,1.518186,71.95194,-0.034561,-0.350113,0.720093,-3.774763,0.492897,-0.079486,88.260025,53.566498,-141.279617,,,
729705819.843221,-20.947904,1.66305,71.959491,-0.034561,-0.350113,0.720093,-3.774763,0.492897,-0.079486,88.260025,53.566498,-141.279617,,,
729705819.846464,-22.079269,1.814235,71.967248,-0.041046,-0.395935,0.705765,-3.992116,0.535723,-0.104862,88.260025,53.566498,-141.279617,,,
729705819.8498,-22.079269,1.814235,71.967248,-0.041046,-0.395935,0.705765,-3.992116,0.535723,-0.104862,88.260025,53.566498,-141.279617,,,
729705819.853091,-23.241719,1.97631,71.973958,-0.041046,-0.395935,0.705765,-3.992116,0.535723,-0.104862,88.260025,53.566498,-141.279617,,,
729705819.856517,-24.437277,2.152084,71.980506,-0.040298,-0.432114,0.709396,-4.22023,0.630594,-0.138429,88.260025,53.566498,-141.279617,,,
729705819.859798,-24.437277,2.152084,71.980506,-0.040298,-0.432114,0.709396,-4.22023,0.630594,-0.138429,88.260025,53.566498,-141.279617,,,
729705819.863161,-25.667051,2.341786,71.987233,-0.040298,-0.432114,0.709396,-4.22023,0.630594,-0.138429,88.260025,53.566498,-141.279617,,,
729705819.866508,-26.931588,2.543375,71.994395,-0.045563,-0.468689,0.68924,-4.461266,0.711232,-0.175719,88.260025,53.566498,-141.279617,,,
729705819.869838,-26.931588,2.543375,71.994395,-0.045563,-0.468689,0.68924,-4.461266,0.711232,-0.175719,88.260025,53.566498,-141.279617,,,
729705819.873225,-28.231354,2.754524,72.002934,-0.045563,-0.468689,0.68924,-4.461266,0.711232,-0.175719,88.260025,53.566498,-141.279617,,,
729705819.876459,-29.564839,2.971647,72.014122,-0.049164,-0.517685,0.651581,-4.697098,0.743062,-0.205793,89.351318,60.722458,-134.691269,,,
729705819.879818,-29.564839,2.971647,72.014122,-0.049164,-0.517685,0.651581,-4.697098,0.743062,-0.205793,89.351318,60.722458,-134.691269,,,
729705819.883143,-30.928704,3.190725,72.030398,-0.049164,-0.517685,0.651581,-4.697098,0.743062,-0.205793,89.351318,60.722458,-134.691269,,,
729705819.886409,-32.31777,3.411819,72.054261,-0.06192,-0.584015,0.611832,-4.87138,0.726799,-0.208647,89.351318,60.722458,-134.691269,,,
729705819.889872,-32.31777,3.411819,72.054261,-0.06192,-0.584015,0.611832,-4.87138,0.726799,-0.208647,89.351318,60.722458,-134.691269,,,
729705819.893189,-33.726396,3.637285,72.086989,-0.06192,-0.584015,0.611832,-4.87138,0.726799,-0.208647,89.351318,60.722458,-134.691269,,,
729705819.896465,-35.149545,3.866427,72.128026,-0.082626,-0.650009,0.617294,-4.973629,0.715048,-0.209584,89.351318,60.722458,-134.691269,,,
729705819.899838,-35.149545,3.866427,72.128026,-0.082626,-0.650009,0.617294,-4.973629,0.715048,-0.209584,89.351318,60.722458,-134.691269,,,
729705819.903184,-36.582489,4.097046,72.175496,-0.082626,-0.650009,0.617294,-4.973629,0.715048,-0.209584,89.351318,60.722458,-134.691269,,,
729705819.906524,-38.021378,4.328922,72.226729,-0.077698,-0.700531,0.619858,-5.016387,0.701622,-0.237082,89.351318,60.722458,-134.691269,,,
729705819.90979,-38.021378,4.328922,72.226729,-0.077698,-0.700531,0.619858,-5.016387,0.701622,-0.237082,89.351318,60.722458,-134.691269,,,
729705819.91315,-39.465166,4.565617,72.279807,-0.077698,-0.700531,0.619858,-5.016387,0.701622,-0.237082,89.351318,60.722458,-134.691269,,,
729705819.916465,-40.913461,4.811278,72.333708,-0.073425,-0.744522,0.623291,-5.043448,0.752998,-0.283384,89.351318,60.722458,-134.691269,,,
729705819.919742,-40.913461,4.811278,72.333708,-0.073425,-0.744522,0.623291,-5.043448,0.752998,-0.283384,90.526718,67.455124,-125.953308,,,
729705819.923182,-42.362795,5.066977,72.388648,-0.073425,-0.744522,0.623291,-5.043448,0.752998,-0.283384,90.526718,67.455124,-125.953308,,,
729705819.92646,-43.808443,5.331151,72.444622,-0.07666,-0.789398,0.628235,-5.015153,0.79999,-0.327942,90.526718,67.455124,-125.953308,,,
729705819.929894,-43.808443,5.331151,72.444622,-0.07666,-0.789398,0.628235,-5.015153,0.79999,-0.327942,90.526718,67.455124,-125.953308,,,
729705819.933152,-45.246968,5.598488,72.501076,-0.07666,-0.789398,0.628235,-5.015153,0.79999,-0.327942,90.526718,67.455124,-125.953308,,,
729705819.936488,-46.675949,5.865208,72.559726,-0.079041,-0.831223,0.623718,-4.948174,0.778118,-0.364352,90.526718,67.455124,-125.953308,,,
729705819.939886,-46.675949,5.865208,72.559726,-0.079041,-0.831223,0.623718,-4.948174,0.778118,-0.364352,90.526718,67.455124,-125.953308,,,
729705819.943221,-48.091285,6.137664,72.623598,-0.079041,-0.831223,0.623718,-4.948174,0.778118,-0.364352,90.526718,67.455124,-125.953308,,,
729705819.946488,-49.488682,6.423051,72.695405,-0.084305,-0.874222,0.636978,-4.825517,0.819682,-0.370503,90.526718,67.455124,-125.953308,,,
729705819.949856,-49.488682,6.423051,72.695405,-0.084305,-0.874222,0.636978,-4.825517,0.819682,-0.370503,90.526718,67.455124,-125.953308,,,
729705819.953153,-50.867491,6.722984,72.778671,-0.084305,-0.874222,0.636978,-4.825517,0.819682,-0.370503,90.526718,67.455124,-125.953308,,,
729705819.956534,-52.226438,7.039099,72.878995,-0.097382,-0.919678,0.633942,-4.69176,0.830669,-0.342692,90.526718,67.455124,-125.953308,,,
729705819.959804,-52.226438,7.039099,72.878995,-0.097382,-0.919678,0.633942,-4.69176,0.830669,-0.342692,90.663361,72.550674,-116.198929,,,
729705819.96315,-53.564942,7.375079,73.002949,-0.097382,-0.919678,0.633942,-4.69176,0.830669,-0.342692,90.663361,72.550674,-116.198929,,,
729705819.966512,-54.880783,7.734265,73.156005,-0.119064,-0.968597,0.61171,-4.546546,0.816342,-0.276952,90.663361,72.550674,-116.198929,,,
729705819.969855,-54.880783,7.734265,73.156005,-0.119064,-0.968597,0.61171,-4.546546,0.816342,-0.276952,90.663361,72.550674,-116.198929,,,
729705819.973187,-56.172845,8.118972,73.342426,-0.119064,-0.968597,0.61171,-4.546546,0.816342,-0.276952,90.663361,72.550674,-116.198929,,,
729705819.976466,-57.440581,8.529285,73.564614,-0.121841,-1.007828,0.598419,-4.389309,0.770045,-0.203831,90.663361,72.550674,-116.198929,,,
729705819.979814,-57.440581,8.529285,73.564614,-0.121841,-1.007828,0.598419,-4.389309,0.770045,-0.203831,90.663361,72.550674,-116.198929,,,
729705819.983137,-58.68307,8.966466,73.825808,-0.121841,-1.007828,0.598419,-4.389309,0.770045,-0.203831,90.663361,72.550674,-116.198929,,,
729705819.986418,-59.899365,9.434473,74.13037,-0.127182,-1.045197,0.578323,-4.225453,0.704764,-0.123914,90.663361,72.550674,-116.198929,,,
729705819.989868,-59.899365,9.434473,74.13037,-0.127182,-1.045197,0.578323,-4.225453,0.704764,-0.123914,90.663361,72.550674,-116.198929,,,
