Time (sec),Pitch (deg),Roll (deg),Yaw(deg),X-Acceleration (g),Y-Acceleration (g),Z-Acceleration (g),Pitch Rate (deg/sec),Roll Rate (deg/sec),Yaw Rate (deg/sec),Magnetic Field in X direction (uT),Magnetic Field in Y direction (uT),Magnetic Field in Z Direction (uT),Latitude (deg),Longitude (deg),Altitude (m)
729716177.185803,0.037833,-4.453292,-81.606851,0.083435,0.00145,1.003357,-0.00225,0.01337,0.003257,61.60672,12.181641,-150.072723,,,
729716177.18607,0.037833,-4.453294,-78.529973,0.083435,0.00145,1.003357,-0.00225,0.01337,0.003257,61.60672,12.181641,-150.072723,,,
729716177.186518,0.037833,-4.453292,-81.606851,0.083435,0.00145,1.003357,-0.00225,0.01337,0.003257,61.60672,12.181641,-150.072723,,,
729716177.186914,0.037833,-4.453294,-78.529973,0.083435,0.00145,1.003357,-0.00225,0.01337,0.003257,61.60672,12.181641,-150.072723,,,
729716177.190865,0.036401,-4.449792,-81.605275,0.084473,0.000656,0.999725,-0.00225,0.01337,0.003257,61.561493,12.06131,-150.192307,,,
729716177.191095,0.0364,-4.449795,-78.528397,0.084473,0.000656,0.999725,-0.00225,0.01337,0.003257,61.561493,12.06131,-150.192307,,,
729716177.19452,0.034261,-4.446946,-81.602895,0.084473,0.000656,0.999725,-0.010049,0.011428,0.009971,61.561493,12.06131,-150.192307,,,
729716177.19478,0.034261,-4.446948,-78.526016,0.084473,0.000656,0.999725,-0.010049,0.011428,0.009971,61.561493,12.06131,-150.192307,,,
729716177.19668,0.034261,-4.446946,-81.602895,0.084473,0.000656,0.999725,-0.010049,0.011428,0.009971,61.561493,12.06131,-150.192307,,,
729716177.196902,0.034261,-4.446948,-78.526016,0.084473,0.000656,0.999725,-0.010049,0.011428,0.009971,61.561493,12.06131,-150.192307,,,
729716177.200933,0.029807,-4.44331,-81.600242,0.085022,0.00325,0.993484,-0.010049,0.011428,0.009971,61.561493,12.06131,-150.192307,,,
729716177.201157,0.029807,-4.443312,-78.523363,0.085022,0.00325,0.993484,-0.010049,0.011428,0.009971,61.561493,12.06131,-150.192307,,,
729716177.203734,0.026478,-4.440462,-81.598103,0.085022,0.00325,0.993484,-0.009785,0.011495,0.004573,61.561493,12.06131,-150.192307,,,
729716177.203948,0.026478,-4.440465,-78.521225,0.085022,0.00325,0.993484,-0.009785,0.011495,0.004573,61.561493,12.06131,-150.192307,,,
729716177.206787,0.026478,-4.440462,-81.598103,0.085022,0.00325,0.993484,-0.009785,0.011495,0.004573,61.561493,12.06131,-150.192307,,,
729716177.206974,0.026478,-4.440465,-78.521225,0.085022,0.00325,0.993484,-0.009785,0.011495,0.004573,61.561493,12.06131,-150.192307,,,
729716177.210794,0.021,-4.436496,-81.596833,0.084122,0.003143,0.994537,-0.009785,0.011495,0.004573,61.561493,12.06131,-150.192307,,,
729716177.211014,0.020999,-4.436498,-78.519954,0.084122,0.003143,0.994537,-0.009785,0.011495,0.004573,61.561493,12.06131,-150.192307,,,
729716177.215711,0.017769,-4.435466,-81.596349,0.084122,0.003143,0.994537,-0.006589,-0.002754,-0.003882,61.561493,12.06131,-150.192307,,,
729716177.215985,0.017768,-4.435468,-78.519471,0.084122,0.003143,0.994537,-0.006589,-0.002754,-0.003882,61.561493,12.06131,-150.192307,,,
729716177.216533,0.017769,-4.435466,-81.596349,0.084122,0.003143,0.994537,-0.006589,-0.002754,-0.003882,61.561493,12.06131,-150.192307,,,
729716177.216934,0.017768,-4.435468,-78.519471,0.084122,0.003143,0.994537,-0.006589,-0.002754,-0.003882,61.561493,12.06131,-150.192307,,,
729716177.220878,0.012978,-4.435213,-81.597161,0.083496,0.006531,0.992538,-0.006589,-0.002754,-0.003882,61.561493,12.06131,-150.192307,,,
729716177.221099,0.012978,-4.435215,-78.520282,0.083496,0.006531,0.992538,-0.006589,-0.002754,-0.003882,61.561493,12.06131,-150.192307,,,
729716177.223946,0.008923,-4.438896,-81.59958,0.083496,0.006531,0.992538,-0.014712,-0.015318,-0.010837,61.561493,12.06131,-150.192307,,,
729716177.224167,0.008923,-4.438899,-78.522701,0.083496,0.006531,0.992538,-0.014712,-0.015318,-0.010837,61.561493,12.06131,-150.192307,,,
729716177.226782,0.008923,-4.438896,-81.59958,0.083496,0.006531,0.992538,-0.014712,-0.015318,-0.010837,61.561493,12.06131,-150.192307,,,
729716177.226966,0.008923,-4.438899,-78.522701,0.083496,0.006531,0.992538,-0.014712,-0.015318,-0.010837,61.561493,12.06131,-150.192307,,,
729716177.231167,0.004298,-4.443942,-81.602738,0.084534,0.009445,0.988281,-0.014712,-0.015318,-0.010837,61.502777,12.331528,-150.152939,,,
729716177.231412,0.004298,-4.443945,-78.525859,0.084534,0.009445,0.988281,-0.014712,-0.015318,-0.010837,61.502777,12.331528,-150.152939,,,
729716177.234057,0.000161,-4.45032,-81.606079,0.084534,0.009445,0.988281,-0.012563,-0.018943,-0.012368,61.502777,12.331528,-150.152939,,,
729716177.234294,0.000161,-4.450322,-78.5292,0.084534,0.009445,0.988281,-0.012563,-0.018943,-0.012368,61.502777,12.331528,-150.152939,,,
729716177.236731,0.000161,-4.45032,-81.606079,0.084534,0.009445,0.988281,-0.012563,-0.018943,-0.012368,61.502777,12.331528,-150.152939,,,
729716177.236932,0.000161,-4.450322,-78.5292,0.084534,0.009445,0.988281,-0.012563,-0.018943,-0.012368,61.502777,12.331528,-150.152939,,,
729716177.240791,-0.003401,-4.456908,-81.609638,0.084747,0.00621,0.990143,-0.012563,-0.018943,-0.012368,61.502777,12.331528,-150.152939,,,
729716177.241016,-0.003401,-4.45691,-78.532759,0.084747,0.00621,0.990143,-0.012563,-0.018943,-0.012368,61.502777,12.331528,-150.152939,,,
729716177.243948,-0.007342,-4.464668,-81.6136,0.084747,0.00621,0.990143,-0.016176,-0.021483,-0.01473,61.502777,12.331528,-150.152939,,,
729716177.244181,-0.007342,-4.46467,-78.536721,0.084747,0.00621,0.990143,-0.016176,-0.021483,-0.01473,61.502777,12.331528,-150.152939,,,
729716177.24674,-0.007342,-4.464668,-81.6136,0.084747,0.00621,0.990143,-0.016176,-0.021483,-0.01473,61.502777,12.331528,-150.152939,,,
729716177.246941,-0.007342,-4.46467,-78.536721,0.084747,0.00621,0.990143,-0.016176,-0.021483,-0.01473,61.502777,12.331528,-150.152939,,,
729716177.251065,-0.011161,-4.471963,-81.617985,0.082886,0.002686,0.99411,-0.016176,-0.021483,-0.01473,61.502777,12.331528,-150.152939,,,
729716177.251315,-0.011161,-4.471965,-78.541107,0.082886,0.002686,0.99411,-0.016176,-0.021483,-0.01473,61.502777,12.331528,-150.152939,,,
729716177.254248,-0.014874,-4.476917,-81.622285,0.082886,0.002686,0.99411,-0.011818,-0.00684,-0.013972,61.502777,12.331528,-150.152939,,,
729716177.254469,-0.014874,-4.47692,-78.545407,0.082886,0.002686,0.99411,-0.011818,-0.00684,-0.013972,61.502777,12.331528,-150.152939,,,
729716177.256696,-0.014874,-4.476917,-81.622285,0.082886,0.002686,0.99411,-0.011818,-0.00684,-0.013972,61.502777,12.331528,-150.152939,,,
729716177.256929,-0.014874,-4.47692,-78.545407,0.082886,0.002686,0.99411,-0.011818,-0.00684,-0.013972,61.502777,12.331528,-150.152939,,,
729716177.260959,-0.017921,-4.480583,-81.626267,0.082169,0.001068,1.001495,-0.011818,-0.00684,-0.013972,61.502777,12.331528,-150.152939,,,
729716177.261179,-0.017922,-4.480586,-78.549389,0.082169,0.001068,1.001495,-0.011818,-0.00684,-0.013972,61.502777,12.331528,-150.152939,,,
729716177.26501,-0.020174,-4.480914,-81.629381,0.082169,0.001068,1.001495,-0.000106,0.011389,-0.005093,61.502777,12.331528,-150.152939,,,
729716177.265264,-0.020174,-4.480916,-78.552502,0.082169,0.001068,1.001495,-0.000106,0.011389,-0.005093,61.502777,12.331528,-150.152939,,,
729716177.266638,-0.020174,-4.480914,-81.629381,0.082169,0.001068,1.001495,-0.000106,0.011389,-0.005093,61.502777,12.331528,-150.152939,,,
729716177.266986,-0.020174,-4.480916,-78.552502,0.082169,0.001068,1.001495,-0.000106,0.011389,-0.005093,61.502777,12.331528,-150.152939,,,
729716177.272185,-0.020393,-4.481013,-81.630826,0.077972,-0.00293,1.009933,-0.000106,0.011389,-0.005093,61.580048,12.102112,-149.76355,,,
729716177.27246,-0.020393,-4.481015,-78.553947,0.077972,-0.00293,1.009933,-0.000106,0.011389,-0.005093,61.580048,12.102112,-149.76355,,,
729716177.27326,-0.020393,-4.481013,-81.630826,0.077972,-0.00293,1.009933,-0.000106,0.011389,-0.005093,61.580048,12.102112,-149.76355,,,
729716177.273607,-0.019406,-4.478922,-78.554415,0.077972,-0.00293,1.009933,0.009152,0.009927,-0.001767,61.580048,12.102112,-149.76355,,,
729716177.278213,-0.019406,-4.478919,-81.631293,0.077972,-0.00293,1.009933,0.009152,0.009927,-0.001767,61.580048,12.102112,-149.76355,,,
729716177.278449,-0.01677,-4.477786,-78.554507,0.076996,-0.007996,1.011597,0.009152,0.009927,-0.001767,61.580048,12.102112,-149.76355,,,
729716177.280242,-0.016769,-4.477784,-81.631385,0.076996,-0.007996,1.011597,0.009152,0.009927,-0.001767,61.580048,12.102112,-149.76355,,,
729716177.280447,-0.01677,-4.477786,-78.554507,0.076996,-0.007996,1.011597,0.009152,0.009927,-0.001767,61.580048,12.102112,-149.76355,,,
729716177.284429,-0.014524,-4.474706,-81.630937,0.076996,-0.007996,1.011597,0.007851,0.016715,-0.001376,61.580048,12.102112,-149.76355,,,
729716177.28466,-0.014524,-4.474709,-78.554059,0.076996,-0.007996,1.011597,0.007851,0.016715,-0.001376,61.580048,12.102112,-149.76355,,,
729716177.2867,-0.014524,-4.474706,-81.630937,0.076996,-0.007996,1.011597,0.007851,0.016715,-0.001376,61.580048,12.102112,-149.76355,,,
729716177.28692,-0.014524,-4.474709,-78.554059,0.076996,-0.007996,1.011597,0.007851,0.016715,-0.001376,61.580048,12.102112,-149.76355,,,
729716177.29062,-0.01131,-4.472253,-81.630337,0.074417,-0.004364,1.008087,0.007851,0.016715,-0.001376,61.580048,12.102112,-149.76355,,,
729716177.290836,-0.01131,-4.472255,-78.553458,0.074417,-0.004364,1.008087,0.007851,0.016715,-0.001376,61.580048,12.102112,-149.76355,,,
729716177.294784,-0.008902,-4.469059,-81.629911,0.074417,-0.004364,1.008087,0.008608,0.007319,0.000784,61.580048,12.102112,-149.76355,,,
729716177.295029,-0.008903,-4.469062,-78.553032,0.074417,-0.004364,1.008087,0.008608,0.007319,0.000784,61.580048,12.102112,-149.76355,,,
729716177.296631,-0.008902,-4.469059,-81.629911,0.074417,-0.004364,1.008087,0.008608,0.007319,0.000784,61.580048,12.102112,-149.76355,,,
729716177.296884,-0.008903,-4.469062,-78.553032,0.074417,-0.004364,1.008087,0.008608,0.007319,0.000784,61.580048,12.102112,-149.76355,,,
729716177.300159,-0.00531,-4.468783,-81.629585,0.070221,-0.00032,1.005966,0.008608,0.007319,0.000784,61.580048,12.102112,-149.76355,,,
729716177.300355,-0.00531,-4.468786,-78.552706,0.070221,-0.00032,1.005966,0.008608,0.007319,0.000784,61.580048,12.102112,-149.76355,,,
729716177.306123,-0.003244,-4.469619,-81.629482,0.070221,-0.00032,1.005966,0.004549,-0.007443,-0.000689,61.580048,12.102112,-149.76355,,,
729716177.306409,-0.003245,-4.469622,-78.552603,0.070221,-0.00032,1.005966,0.004549,-0.007443,-0.000689,61.580048,12.102112,-149.76355,,,
729716177.306661,-0.003244,-4.469619,-81.629482,0.070221,-0.00032,1.005966,0.004549,-0.007443,-0.000689,61.580048,12.102112,-149.76355,,,
729716177.306857,-0.003245,-4.469622,-78.552603,0.070221,-0.00032,1.005966,0.004549,-0.007443,-0.000689,61.580048,12.102112,-149.76355,,,
729716177.312446,0.000284,-4.474164,-81.629215,0.069153,9.2e-05,0.997253,0.004549,-0.007443,-0.000689,61.543365,12.161636,-150.077362,,,
729716177.312736,0.000284,-4.474167,-78.552337,0.069153,9.2e-05,0.997253,0.004549,-0.007443,-0.000689,61.543365,12.161636,-150.077362,,,
729716177.313271,0.000284,-4.474164,-81.629215,0.069153,9.2e-05,0.997253,0.004549,-0.007443,-0.000689,61.543365,12.161636,-150.077362,,,
729716177.313574,0.00156,-4.478576,-78.55134,0.069153,9.2e-05,0.997253,0.007923,-0.013734,0.001264,61.543365,12.161636,-150.077362,,,
729716177.318478,0.001561,-4.478574,-81.628219,0.069153,9.2e-05,0.997253,0.007923,-0.013734,0.001264,61.543365,12.161636,-150.077362,,,
729716177.318734,0.00387,-4.484681,-78.549548,0.069077,-0.000793,0.997955,0.007923,-0.013734,0.001264,61.543365,12.161636,-150.077362,,,
729716177.321176,0.003871,-4.484678,-81.626427,0.069077,-0.000793,0.997955,0.007923,-0.013734,0.001264,61.543365,12.161636,-150.077362,,,
729716177.321418,0.00387,-4.484681,-78.549548,0.069077,-0.000793,0.997955,0.007923,-0.013734,0.001264,61.543365,12.161636,-150.077362,,,
729716177.323383,0.003871,-4.484678,-81.626427,0.069077,-0.000793,0.997955,0.007923,-0.013734,0.001264,61.543365,12.161636,-150.077362,,,
729716177.323646,0.005585,-4.489176,-78.54747,0.069077,-0.000793,0.997955,0.007766,-0.011752,0.002876,61.543365,12.161636,-150.077362,,,
729716177.327744,0.005586,-4.489173,-81.624349,0.069077,-0.000793,0.997955,0.007766,-0.011752,0.002876,61.543365,12.161636,-150.077362,,,
729716177.327974,0.005585,-4.489176,-78.54747,0.069077,-0.000793,0.997955,0.007766,-0.011752,0.002876,61.543365,12.161636,-150.077362,,,
729716177.330034,0.007649,-4.494536,-81.622362,0.072449,-0.002029,0.999435,0.007766,-0.011752,0.002876,61.543365,12.161636,-150.077362,,,
729716177.330278,0.007648,-4.494538,-78.545483,0.072449,-0.002029,0.999435,0.007766,-0.011752,0.002876,61.543365,12.161636,-150.077362,,,
729716177.333873,0.007649,-4.494536,-81.620134,0.072449,-0.002029,0.999435,0.009672,-0.006414,0.006085,61.543365,12.161636,-150.077362,,,
729716177.334091,0.009271,-4.497798,-78.543255,0.072449,-0.002029,0.999435,0.009672,-0.006414,0.006085,61.543365,12.161636,-150.077362,,,
729716177.337166,0.009271,-4.497795,-81.620134,0.072449,-0.002029,0.999435,0.009672,-0.006414,0.006085,61.543365,12.161636,-150.077362,,,
729716177.337382,0.009271,-4.497798,-78.543255,0.072449,-0.002029,0.999435,0.009672,-0.006414,0.006085,61.543365,12.161636,-150.077362,,,
729716177.340097,0.011468,-4.500129,-81.617843,0.074127,-0.00032,0.996475,0.009672,-0.006414,0.006085,61.543365,12.161636,-150.077362,,,
729716177.340285,0.011468,-4.500132,-78.540965,0.074127,-0.00032,0.996475,0.009672,-0.006414,0.006085,61.543365,12.161636,-150.077362,,,
729716177.345027,0.011468,-4.500129,-81.617843,0.074127,-0.00032,0.996475,0.015556,0.004037,0.004234,61.543365,12.161636,-150.077362,,,
729716177.345281,0.014134,-4.500684,-78.538743,0.074127,-0.00032,0.996475,0.015556,0.004037,0.004234,61.543365,12.161636,-150.077362,,,
729716177.346614,0.014134,-4.500681,-81.615622,0.074127,-0.00032,0.996475,0.015556,0.004037,0.004234,61.543365,12.161636,-150.077362,,,
729716177.346891,0.014134,-4.500684,-78.538743,0.074127,-0.00032,0.996475,0.015556,0.004037,0.004234,61.543365,12.161636,-150.077362,,,
729716177.351975,0.017171,-4.500751,-81.613315,0.075073,0.002899,0.997757,0.015556,0.004037,0.004234,61.543365,12.161636,-150.077362,,,
729716177.352236,0.017171,-4.500754,-78.536436,0.075073,0.002899,0.997757,0.015556,0.004037,0.004234,61.543365,12.161636,-150.077362,,,
729716177.353966,0.017171,-4.500751,-81.613315,0.075073,0.002899,0.997757,0.015556,0.004037,0.004234,61.548248,11.888397,-150.151443,,,
729716177.354191,0.02279,-4.501405,-78.533872,0.075073,0.002899,0.997757,0.025534,-0.003155,0.00866,61.548248,11.888397,-150.151443,,,
729716177.358146,0.022791,-4.501402,-81.610751,0.075073,0.002899,0.997757,0.025534,-0.003155,0.00866,61.548248,11.888397,-150.151443,,,
729716177.358425,0.02279,-4.501405,-78.533872,0.075073,0.002899,0.997757,0.025534,-0.003155,0.00866,61.548248,11.888397,-150.151443,,,
729716177.361542,0.028635,-4.502459,-81.607767,0.07373,-0.000641,0.996582,0.025534,-0.003155,0.00866,61.548248,11.888397,-150.151443,,,
729716177.361796,0.028635,-4.502462,-78.530889,0.07373,-0.000641,0.996582,0.025534,-0.003155,0.00866,61.548248,11.888397,-150.151443,,,
729716177.363334,0.028635,-4.502459,-81.607767,0.07373,-0.000641,0.996582,0.025534,-0.003155,0.00866,61.548248,11.888397,-150.151443,,,
729716177.363559,0.037524,-4.505615,-78.52841,0.07373,-0.000641,0.996582,0.025534,-0.003155,0.00866,61.548248,11.888397,-150.151443,,,
729716177.367922,0.037524,-4.505612,-81.605288,0.07373,-0.000641,0.996582,0.037879,-0.009119,0.005608,61.548248,11.888397,-150.151443,,,
729716177.368149,0.037524,-4.505615,-78.52841,0.07373,-0.000641,0.996582,0.037879,-0.009119,0.005608,61.548248,11.888397,-150.151443,,,
729716177.371125,0.046751,-4.508028,-81.603507,0.077484,-0.000824,0.990891,0.037879,-0.009119,0.005608,61.548248,11.888397,-150.151443,,,
729716177.371362,0.046751,-4.508031,-78.526628,0.077484,-0.000824,0.990891,0.037879,-0.009119,0.005608,61.548248,11.888397,-150.151443,,,
729716177.373373,0.046751,-4.508028,-81.603507,0.077484,-0.000824,0.990891,0.037879,-0.009119,0.005608,61.548248,11.888397,-150.151443,,,
729716177.373569,0.056976,-4.512317,-78.525323,0.077484,-0.000824,0.990891,0.037879,-0.009119,0.005608,61.548248,11.888397,-150.151443,,,
729716177.378535,0.056976,-4.512314,-81.602201,0.077484,-0.000824,0.990891,0.033837,-0.014684,-0.002309,61.548248,11.888397,-150.151443,,,
729716177.378785,0.066628,-4.516163,-78.52438,0.076111,0.002457,0.986267,0.033837,-0.014684,-0.002309,61.548248,11.888397,-150.151443,,,
729716177.381608,0.066628,-4.51616,-81.601258,0.076111,0.002457,0.986267,0.033837,-0.014684,-0.002309,61.548248,11.888397,-150.151443,,,
729716177.381853,0.066628,-4.516163,-78.52438,0.076111,0.002457,0.986267,0.033837,-0.014684,-0.002309,61.548248,11.888397,-150.151443,,,
729716177.383412,0.066628,-4.51616,-81.601258,0.076111,0.002457,0.986267,0.033837,-0.014684,-0.002309,61.548248,11.888397,-150.151443,,,
729716177.383642,0.074738,-4.523825,-78.523669,0.076111,0.002457,0.986267,0.033837,-0.028926,-0.003879,61.548248,11.888397,-150.151443,,,
729716177.38749,0.074738,-4.523823,-81.600548,0.076111,0.002457,0.986267,0.022457,-0.028926,-0.003879,61.548248,11.888397,-150.151443,,,
729716177.387732,0.074738,-4.523825,-78.523669,0.076111,0.002457,0.986267,0.022457,-0.028926,-0.003879,61.548248,11.888397,-150.151443,,,
729716177.39097,0.081123,-4.530687,-81.600242,0.075607,0.003616,0.980179,0.022457,-0.028926,-0.003879,61.548248,11.888397,-150.151443,,,
729716177.391199,0.081122,-4.53069,-78.523363,0.075607,0.003616,0.980179,0.022457,-0.028926,-0.003879,61.548248,11.888397,-150.151443,,,
729716177.394258,0.081123,-4.530687,-81.600242,0.075607,0.003616,0.980179,0.022457,-0.028926,-0.003879,61.171875,12.037155,-149.945282,,,
729716177.394522,0.087157,-4.5396,-78.522686,0.075607,0.003616,0.980179,0.018766,-0.021466,-0.000671,61.171875,12.037155,-149.945282,,,
729716177.397471,0.087158,-4.539598,-81.599564,0.075607,0.003616,0.980179,0.018766,-0.021466,-0.000671,61.171875,12.037155,-149.945282,,,
729716177.397655,0.087157,-4.5396,-78.522686,0.075607,0.003616,0.980179,0.018766,-0.021466,-0.000671,61.171875,12.037155,-149.945282,,,
729716177.40007,0.09181,-4.544773,-81.598728,0.079025,0.001556,0.978821,0.018766,-0.021466,-0.000671,61.171875,12.037155,-149.945282,,,
729716177.400282,0.09181,-4.544775,-78.52185,0.079025,0.001556,0.978821,0.018766,-0.021466,-0.000671,61.171875,12.037155,-149.945282,,,
729716177.403529,0.09181,-4.544773,-81.598728,0.079025,0.001556,0.978821,0.018766,-0.021466,-0.000671,61.171875,12.037155,-149.945282,,,
729716177.403724,0.09628,-4.548983,-78.521123,0.079025,0.001556,0.978821,0.015237,0.001956,-0.001527,61.171875,12.037155,-149.945282,,,
729716177.408755,0.09628,-4.548981,-81.598001,0.079025,0.001556,0.978821,0.015237,0.001956,-0.001527,61.171875,12.037155,-149.945282,,,
729716177.409007,0.09969,-4.548331,-78.520289,0.085327,0.00029,0.985886,0.015237,0.001956,-0.001527,61.171875,12.037155,-149.945282,,,
729716177.410368,0.09969,-4.548329,-81.597167,0.085327,0.00029,0.985886,0.015237,0.001956,-0.001527,61.171875,12.037155,-149.945282,,,
729716177.410591,0.09969,-4.548331,-78.520289,0.085327,0.00029,0.985886,0.015237,0.001956,-0.001527,61.171875,12.037155,-149.945282,,,
729716177.413481,0.09969,-4.548329,-81.597167,0.085327,0.00029,0.985886,0.015237,0.001956,-0.001527,61.171875,12.037155,-149.945282,,,
729716177.413692,0.103797,-4.544499,-78.519356,0.085327,0.00029,0.985886,0.018674,0.029022,0.0014,61.171875,12.037155,-149.945282,,,
729716177.418506,0.103797,-4.544496,-81.596235,0.085327,0.00029,0.985886,0.018674,0.029022,0.0014,61.171875,12.037155,-149.945282,,,
729716177.418752,0.108566,-4.536,-78.517861,0.087173,-0.001083,0.988907,0.018674,0.029022,0.0014,61.171875,12.037155,-149.945282,,,
729716177.421496,0.108566,-4.535997,-81.594739,0.087173,-0.001083,0.988907,0.018674,0.029022,0.0014,61.171875,12.037155,-149.945282,,,
729716177.421753,0.108566,-4.536,-78.517861,0.087173,-0.001083,0.988907,0.018674,0.029022,0.0014,61.171875,12.037155,-149.945282,,,
729716177.423317,0.108566,-4.535997,-81.594739,0.087173,-0.001083,0.988907,0.018674,0.029022,0.0014,61.171875,12.037155,-149.945282,,,
729716177.423688,0.114628,-4.526182,-78.515298,0.087173,-0.001083,0.988907,0.02531,0.041157,0.006574,61.171875,12.037155,-149.945282,,,
729716177.427866,0.114628,-4.526179,-81.592176,0.087173,-0.001083,0.988907,0.02531,0.041157,0.006574,61.171875,12.037155,-149.945282,,,
729716177.428101,0.114628,-4.526182,-78.515298,0.087173,-0.001083,0.988907,0.02531,0.041157,0.006574,61.171875,12.037155,-149.945282,,,
729716177.430896,0.121547,-4.514734,-81.588808,0.083694,-0.001266,0.987076,0.02531,0.041157,0.006574,61.171875,12.037155,-149.945282,,,
729716177.431119,0.121547,-4.514736,-78.511929,0.083694,-0.001266,0.987076,0.02531,0.041157,0.006574,61.171875,12.037155,-149.945282,,,
729716177.433466,0.121547,-4.514734,-81.588808,0.083694,-0.001266,0.987076,0.02531,0.041157,0.006574,61.171875,12.037155,-149.945282,,,
729716177.433696,0.128167,-4.505386,-78.507698,0.083694,-0.001266,0.987076,0.02531,0.041157,0.006574,61.171875,12.037155,-149.945282,,,
729716177.438446,0.128168,-4.505383,-81.584577,0.083694,-0.001266,0.987076,0.026781,0.028631,0.015043,61.374146,11.91629,-149.976395,,,
729716177.438693,0.133868,-4.497016,-78.502984,0.080414,-0.00415,0.981155,0.026781,0.028631,0.015043,61.374146,11.91629,-149.976395,,,
729716177.440505,0.133868,-4.497013,-81.579863,0.080414,-0.00415,0.981155,0.026781,0.028631,0.015043,61.374146,11.91629,-149.976395,,,
729716177.440721,0.133868,-4.497016,-78.502984,0.080414,-0.00415,0.981155,0.026781,0.028631,0.015043,61.374146,11.91629,-149.976395,,,
729716177.443449,0.133868,-4.497013,-81.579863,0.080414,-0.00415,0.981155,0.026781,0.028631,0.015043,61.374146,11.91629,-149.976395,,,
729716177.443642,0.14017,-4.490961,-78.499274,0.080414,-0.00415,0.981155,0.026781,0.028631,0.015043,61.374146,11.91629,-149.976395,,,
729716177.448134,0.14017,-4.490959,-81.576152,0.080414,-0.00415,0.981155,0.021579,0.01592,0.005223,61.374146,11.91629,-149.976395,,,
729716177.448365,0.14017,-4.490961,-78.499274,0.080414,-0.00415,0.981155,0.021579,0.01592,0.005223,61.374146,11.91629,-149.976395,,,
729716177.450524,0.145652,-4.486337,-81.574187,0.078598,-0.000977,0.975815,0.021579,0.01592,0.005223,61.374146,11.91629,-149.976395,,,
729716177.450738,0.145652,-4.486339,-78.497309,0.078598,-0.000977,0.975815,0.021579,0.01592,0.005223,61.374146,11.91629,-149.976395,,,
729716177.453449,0.145652,-4.486337,-81.574187,0.078598,-0.000977,0.975815,0.021579,0.01592,0.005223,61.374146,11.91629,-149.976395,,,
729716177.453659,0.151447,-4.483771,-78.49766,0.078598,-0.000977,0.975815,0.021579,0.01592,0.005223,61.374146,11.91629,-149.976395,,,
729716177.458552,0.151447,-4.483768,-81.574539,0.078598,-0.000977,0.975815,0.018326,0.001258,-0.008621,61.374146,11.91629,-149.976395,,,
729716177.458801,0.157344,-4.483862,-78.50027,0.080399,0.00705,0.977554,0.018326,0.001258,-0.008621,61.374146,11.91629,-149.976395,,,
729716177.461551,0.157345,-4.48386,-81.577148,0.080399,0.00705,0.977554,0.018326,0.001258,-0.008621,61.374146,11.91629,-149.976395,,,
729716177.461791,0.157344,-4.483862,-78.50027,0.080399,0.00705,0.977554,0.018326,0.001258,-0.008621,61.374146,11.91629,-149.976395,,,
729716177.46332,0.157345,-4.48386,-81.577148,0.080399,0.00705,0.977554,0.018326,0.001258,-0.008621,61.374146,11.91629,-149.976395,,,
729716177.463572,0.157344,-4.483862,-78.50027,0.080399,0.00705,0.977554,0.018326,0.001258,-0.008621,61.374146,11.91629,-149.976395,,,
729716177.468687,0.162738,-4.48703,-81.580595,0.080399,0.00705,0.977554,0.014359,-0.012124,-0.018984,61.374146,11.91629,-149.976395,,,
729716177.468947,0.167248,-4.491934,-78.507653,0.075012,0.004013,0.977859,0.014359,-0.012124,-0.018984,61.374146,11.91629,-149.976395,,,
729716177.470472,0.167249,-4.491931,-81.584532,0.075012,0.004013,0.977859,0.014359,-0.012124,-0.018984,61.374146,11.91629,-149.976395,,,
729716177.470689,0.167248,-4.491934,-78.507653,0.075012,0.004013,0.977859,0.014359,-0.012124,-0.018984,61.374146,11.91629,-149.976395,,,
729716177.473428,0.167249,-4.491931,-81.584532,0.075012,0.004013,0.977859,0.014359,-0.012124,-0.018984,61.374146,11.91629,-149.976395,,,
729716177.473638,0.167248,-4.491934,-78.507653,0.075012,0.004013,0.977859,0.014359,-0.012124,-0.018984,61.374146,11.91629,-149.976395,,,
729716177.478383,0.170342,-4.497738,-81.588696,0.075012,0.004013,0.977859,0.004917,-0.015503,-0.016298,61.498474,11.956985,-149.745972,,,
729716177.478641,0.170342,-4.497741,-78.511817,0.075012,0.004013,0.977859,0.004917,-0.015503,-0.016298,61.498474,11.956985,-149.745972,,,
729716177.479942,0.171851,-4.504328,-81.592169,0.076981,0.003006,0.979294,0.004917,-0.015503,-0.016298,61.498474,11.956985,-149.745972,,,
729716177.480222,0.17185,-4.50433,-78.515291,0.076981,0.003006,0.979294,0.004917,-0.015503,-0.016298,61.498474,11.956985,-149.745972,,,
729716177.483609,0.171851,-4.504328,-81.592169,0.076981,0.003006,0.979294,0.004917,-0.015503,-0.016298,61.498474,11.956985,-149.745972,,,
729716177.483812,0.172336,-4.509504,-78.518035,0.076981,0.003006,0.979294,0.004917,-0.015503,-0.016298,61.498474,11.956985,-149.745972,,,
729716177.488778,0.172336,-4.509502,-81.594913,0.076981,0.003006,0.979294,-0.004728,-0.011684,-0.005144,61.498474,11.956985,-149.745972,,,
729716177.489049,0.17082,-4.514843,-78.519746,0.076508,0.004745,0.982651,-0.004728,-0.011684,-0.005144,61.498474,11.956985,-149.745972,,,
729716177.490182,0.17082,-4.514841,-81.596625,0.076508,0.004745,0.982651,-0.004728,-0.011684,-0.005144,61.498474,11.956985,-149.745972,,,
729716177.490398,0.17082,-4.514843,-78.519746,0.076508,0.004745,0.982651,-0.004728,-0.011684,-0.005144,61.498474,11.956985,-149.745972,,,
729716177.493484,0.17082,-4.514841,-81.596625,0.076508,0.004745,0.982651,-0.004728,-0.011684,-0.005144,61.498474,11.956985,-149.745972,,,
729716177.493699,0.17082,-4.51754,-78.520852,0.076508,0.004745,0.982651,-0.004728,-0.011684,-0.005144,61.498474,11.956985,-149.745972,,,
729716177.49875,0.168156,-4.517538,-81.597731,0.076508,0.004745,0.982651,-0.008425,0.003186,-0.001,61.498474,11.956985,-149.745972,,,
729716177.49901,0.164087,-4.519148,-78.521177,0.076126,0.00267,0.989044,-0.008425,0.003186,-0.001,61.498474,11.956985,-149.745972,,,
729716177.500469,0.164088,-4.519145,-81.598056,0.076126,0.00267,0.989044,-0.008425,0.003186,-0.001,61.498474,11.956985,-149.745972,,,
729716177.500698,0.164087,-4.519148,-78.521177,0.076126,0.00267,0.989044,-0.008425,0.003186,-0.001,61.498474,11.956985,-149.745972,,,
729716177.503457,0.164088,-4.519145,-81.598056,0.076126,0.00267,0.989044,-0.008425,0.003186,-0.001,61.498474,11.956985,-149.745972,,,
729716177.50367,0.164087,-4.519148,-78.521177,0.076126,0.00267,0.989044,-0.008425,0.003186,-0.001,61.498474,11.956985,-149.745972,,,
729716177.508067,0.16061,-4.516353,-81.597765,0.076126,0.00267,0.989044,-0.008242,0.017047,0.00126,61.498474,11.956985,-149.745972,,,
729716177.508309,0.16061,-4.516356,-78.520887,0.076126,0.00267,0.989044,-0.008242,0.017047,0.00126,61.498474,11.956985,-149.745972,,,
729716177.511572,0.157,-4.512814,-81.597448,0.077438,-1.5e-05,0.995682,-0.008242,0.017047,0.00126,61.498474,11.956985,-149.745972,,,
729716177.511808,0.156999,-4.512816,-78.52057,0.077438,-1.5e-05,0.995682,-0.008242,0.017047,0.00126,61.498474,11.956985,-149.745972,,,
729716177.513311,0.157,-4.512814,-81.597448,0.077438,-1.5e-05,0.995682,-0.008242,0.017047,0.00126,61.498474,11.956985,-149.745972,,,
729716177.513551,0.156999,-4.512816,-78.52057,0.077438,-1.5e-05,0.995682,-0.008242,0.017047,0.00126,61.498474,11.956985,-149.745972,,,
729716177.518626,0.155182,-4.508491,-81.596821,0.077438,-1.5e-05,0.995682,0.000184,0.016821,0.00187,61.382782,12.117508,-150.139801,,,
729716177.518884,0.153434,-4.505122,-78.519498,0.076187,-0.001709,0.994492,0.000184,0.016821,0.00187,61.382782,12.117508,-150.139801,,,
729716177.520485,0.153434,-4.505119,-81.596376,0.076187,-0.001709,0.994492,0.000184,0.016821,0.00187,61.382782,12.117508,-150.139801,,,
729716177.520707,0.153434,-4.505122,-78.519498,0.076187,-0.001709,0.994492,0.000184,0.016821,0.00187,61.382782,12.117508,-150.139801,,,
729716177.523453,0.153434,-4.505119,-81.596376,0.076187,-0.001709,0.994492,0.000184,0.016821,0.00187,61.382782,12.117508,-150.139801,,,
729716177.523679,0.153434,-4.505122,-78.519498,0.076187,-0.001709,0.994492,0.000184,0.016821,0.00187,61.382782,12.117508,-150.139801,,,
729716177.528409,0.153766,-4.501864,-81.596456,0.076187,-0.001709,0.994492,0.001735,0.010536,-0.002483,61.382782,12.117508,-150.139801,,,
729716177.528706,0.153766,-4.501866,-78.519578,0.076187,-0.001709,0.994492,0.001735,0.010536,-0.002483,61.382782,12.117508,-150.139801,,,
729716177.529941,0.154472,-4.499658,-81.596432,0.077133,-0.00264,0.992752,0.001735,0.010536,-0.002483,61.382782,12.117508,-150.139801,,,
729716177.530222,0.154472,-4.499661,-78.519553,0.077133,-0.00264,0.992752,0.001735,0.010536,-0.002483,61.382782,12.117508,-150.139801,,,
729716177.533555,0.154472,-4.499658,-81.596432,0.077133,-0.00264,0.992752,0.001735,0.010536,-0.002483,61.382782,12.117508,-150.139801,,,
729716177.533806,0.154472,-4.497848,-78.519277,0.077133,-0.00264,0.992752,0.001735,0.010536,-0.002483,61.382782,12.117508,-150.139801,,,
729716177.537175,0.155436,-4.497845,-81.596155,0.077133,-0.00264,0.992752,0.00402,0.009557,-0.004194,61.382782,12.117508,-150.139801,,,
729716177.537376,0.155436,-4.497848,-78.519277,0.077133,-0.00264,0.992752,0.00402,0.009557,-0.004194,61.382782,12.117508,-150.139801,,,
729716177.54056,0.157156,-4.49669,-81.596242,0.07486,-0.001419,0.995026,0.00402,0.009557,-0.004194,61.382782,12.117508,-150.139801,,,
729716177.540774,0.157156,-4.496693,-78.519364,0.07486,-0.001419,0.995026,0.00402,0.009557,-0.004194,61.382782,12.117508,-150.139801,,,
729716177.543495,0.157156,-4.49669,-81.596242,0.07486,-0.001419,0.995026,0.00402,0.009557,-0.004194,61.382782,12.117508,-150.139801,,,
729716177.543729,0.157156,-4.496693,-78.519364,0.07486,-0.001419,0.995026,0.00402,0.009557,-0.004194,61.382782,12.117508,-150.139801,,,
729716177.547231,0.157838,-4.494469,-81.596595,0.07486,-0.001419,0.995026,0.003567,0.014656,-0.003462,61.382782,12.117508,-150.139801,,,
729716177.54748,0.157838,-4.494472,-78.519716,0.07486,-0.001419,0.995026,0.003567,0.014656,-0.003462,61.382782,12.117508,-150.139801,,,
729716177.5514,0.157882,-4.490935,-81.597141,0.075211,0.001343,0.995529,0.003567,0.014656,-0.003462,61.382782,12.117508,-150.139801,,,
729716177.551632,0.157882,-4.490938,-78.520262,0.075211,0.001343,0.995529,0.003567,0.014656,-0.003462,61.382782,12.117508,-150.139801,,,
729716177.553332,0.157882,-4.490935,-81.597141,0.075211,0.001343,0.995529,0.003567,0.014656,-0.003462,61.382782,12.117508,-150.139801,,,
729716177.553555,0.157882,-4.490938,-78.520262,0.075211,0.001343,0.995529,0.003567,0.014656,-0.003462,61.382782,12.117508,-150.139801,,,
729716177.558824,0.157635,-4.486949,-81.597156,0.075211,0.001343,0.995529,0.001646,0.02099,0.002116,61.219635,12.075775,-150.071243,,,
729716177.55907,0.157887,-4.482123,-78.519335,0.077423,0.001526,0.99501,0.001646,0.02099,0.002116,61.219635,12.075775,-150.071243,,,
729716177.560237,0.157887,-4.482121,-81.596214,0.077423,0.001526,0.99501,0.001646,0.02099,0.002116,61.219635,12.075775,-150.071243,,,
729716177.560438,0.157887,-4.482123,-78.519335,0.077423,0.001526,0.99501,0.001646,0.02099,0.002116,61.219635,12.075775,-150.071243,,,
729716177.563516,0.157887,-4.482121,-81.596214,0.077423,0.001526,0.99501,0.001646,0.02099,0.002116,61.219635,12.075775,-150.071243,,,
729716177.563743,0.157887,-4.482123,-78.519335,0.077423,0.001526,0.99501,0.001646,0.02099,0.002116,61.219635,12.075775,-150.071243,,,
729716177.567469,0.158313,-4.476688,-81.594658,0.077423,0.001526,0.99501,0.006984,0.025396,0.001911,61.219635,12.075775,-150.071243,,,
729716177.567692,0.158313,-4.47669,-78.51778,0.077423,0.001526,0.99501,0.006984,0.025396,0.001911,61.219635,12.075775,-150.071243,,,
729716177.570397,0.159731,-4.47136,-81.592811,0.076218,0.002121,0.996918,0.006984,0.025396,0.001911,61.219635,12.075775,-150.071243,,,
729716177.570603,0.159731,-4.471362,-78.515932,0.076218,0.002121,0.996918,0.006984,0.025396,0.001911,61.219635,12.075775,-150.071243,,,
729716177.573432,0.159731,-4.47136,-81.592811,0.076218,0.002121,0.996918,0.006984,0.025396,0.001911,61.219635,12.075775,-150.071243,,,
729716177.573616,0.159731,-4.471362,-78.515932,0.076218,0.002121,0.996918,0.006984,0.025396,0.001911,61.219635,12.075775,-150.071243,,,
729716177.578134,0.161219,-4.467091,-81.591285,0.076218,0.002121,0.996918,0.006211,0.011571,-7.9e-05,61.219635,12.075775,-150.071243,,,
729716177.578372,0.161218,-4.467093,-78.514407,0.076218,0.002121,0.996918,0.006211,0.011571,-7.9e-05,61.219635,12.075775,-150.071243,,,
729716177.580796,0.162893,-4.464195,-81.590591,0.074814,0.002701,0.994949,0.006211,0.011571,-7.9e-05,61.219635,12.075775,-150.071243,,,
729716177.581026,0.162893,-4.464198,-78.513712,0.074814,0.002701,0.994949,0.006211,0.011571,-7.9e-05,61.219635,12.075775,-150.071243,,,
729716177.583471,0.162893,-4.464195,-81.590591,0.074814,0.002701,0.994949,0.006211,0.011571,-7.9e-05,61.219635,12.075775,-150.071243,,,
729716177.583663,0.162893,-4.464198,-78.513712,0.074814,0.002701,0.994949,0.006211,0.011571,-7.9e-05,61.219635,12.075775,-150.071243,,,
729716177.587381,0.164617,-4.462131,-81.590711,0.074814,0.002701,0.994949,0.002875,0.010539,-0.006571,61.219635,12.075775,-150.071243,,,
729716177.587599,0.164617,-4.462133,-78.513832,0.074814,0.002701,0.994949,0.002875,0.010539,-0.006571,61.219635,12.075775,-150.071243,,,
729716177.590322,0.164561,-4.459967,-81.591903,0.075623,0.004547,0.990509,0.002875,0.010539,-0.006571,61.219635,12.075775,-150.071243,,,
729716177.590527,0.16456,-4.45997,-78.515024,0.075623,0.004547,0.990509,0.002875,0.010539,-0.006571,61.219635,12.075775,-150.071243,,,
729716177.593452,0.164561,-4.459967,-81.591903,0.075623,0.004547,0.990509,0.002875,0.010539,-0.006571,61.219635,12.075775,-150.071243,,,
729716177.593638,0.16456,-4.45997,-78.515024,0.075623,0.004547,0.990509,0.002875,0.010539,-0.006571,61.219635,12.075775,-150.071243,,,
729716177.598519,0.163804,-4.458158,-81.593873,0.075623,0.004547,0.990509,-0.005653,0.007109,-0.006739,61.387543,12.08345,-149.92276,,,
729716177.598809,0.163804,-4.458161,-78.516995,0.075623,0.004547,0.990509,-0.005653,0.007109,-0.006739,61.387543,12.08345,-149.92276,,,
729716177.600582,0.161461,-4.456904,-81.595444,0.075882,0.005127,0.990097,-0.005653,0.007109,-0.006739,61.387543,12.08345,-149.92276,,,
729716177.600835,0.16146,-4.456906,-78.518566,0.075882,0.005127,0.990097,-0.005653,0.007109,-0.006739,61.387543,12.08345,-149.92276,,,
729716177.603457,0.161461,-4.456904,-81.595444,0.075882,0.005127,0.990097,-0.005653,0.007109,-0.006739,61.387543,12.08345,-149.92276,,,
729716177.603657,0.16146,-4.456906,-78.518566,0.075882,0.005127,0.990097,-0.005653,0.007109,-0.006739,61.387543,12.08345,-149.92276,,,
729716177.608044,0.158981,-4.457503,-81.596532,0.075882,0.005127,0.990097,-0.011411,-0.004627,-0.00571,61.387543,12.08345,-149.92276,,,
729716177.608276,0.15898,-4.457505,-78.519653,0.075882,0.005127,0.990097,-0.011411,-0.004627,-0.00571,61.387543,12.08345,-149.92276,,,
729716177.610607,0.154453,-4.459706,-81.597575,0.077057,0.003677,0.986893,-0.011411,-0.004627,-0.00571,61.387543,12.08345,-149.92276,,,
729716177.61083,0.154452,-4.459708,-78.520696,0.077057,0.003677,0.986893,-0.011411,-0.004627,-0.00571,61.387543,12.08345,-149.92276,,,
729716177.613435,0.154453,-4.459706,-81.597575,0.077057,0.003677,0.986893,-0.011411,-0.004627,-0.00571,61.387543,12.08345,-149.92276,,,
729716177.61363,0.154452,-4.459708,-78.520696,0.077057,0.003677,0.986893,-0.011411,-0.004627,-0.00571,61.387543,12.08345,-149.92276,,,
729716177.617498,0.149691,-4.462826,-81.59917,0.077057,0.003677,0.986893,-0.01737,-0.009093,-0.004306,61.387543,12.08345,-149.92276,,,
729716177.61773,0.149691,-4.462829,-78.522292,0.077057,0.003677,0.986893,-0.01737,-0.009093,-0.004306,61.387543,12.08345,-149.92276,,,
729716177.620723,0.143857,-4.465304,-81.601022,0.079422,0.002808,0.989487,-0.01737,-0.009093,-0.004306,61.387543,12.08345,-149.92276,,,
729716177.620962,0.143857,-4.465307,-78.524144,0.079422,0.002808,0.989487,-0.01737,-0.009093,-0.004306,61.387543,12.08345,-149.92276,,,
729716177.623377,0.143857,-4.465304,-81.601022,0.079422,0.002808,0.989487,-0.01737,-0.009093,-0.004306,61.387543,12.08345,-149.92276,,,
729716177.623586,0.143857,-4.465307,-78.524144,0.079422,0.002808,0.989487,-0.01737,-0.009093,-0.004306,61.387543,12.08345,-149.92276,,,
729716177.627066,0.139318,-4.468365,-81.601836,0.079422,0.002808,0.989487,-0.01371,-0.00643,-0.00105,61.387543,12.08345,-149.92276,,,
729716177.627281,0.139318,-4.468368,-78.524958,0.079422,0.002808,0.989487,-0.01371,-0.00643,-0.00105,61.387543,12.08345,-149.92276,,,
729716177.63157,0.134673,-4.471051,-81.602246,0.084122,-0.001511,0.993652,-0.01371,-0.00643,-0.00105,61.387543,12.08345,-149.92276,,,
729716177.631812,0.134673,-4.471053,-78.525368,0.084122,-0.001511,0.993652,-0.01371,-0.00643,-0.00105,61.387543,12.08345,-149.92276,,,
729716177.63329,0.134673,-4.471051,-81.602246,0.084122,-0.001511,0.993652,-0.01371,-0.00643,-0.00105,61.387543,12.08345,-149.92276,,,
729716177.633553,0.134673,-4.471053,-78.525368,0.084122,-0.001511,0.993652,-0.01371,-0.00643,-0.00105,61.387543,12.08345,-149.92276,,,
729716177.638158,0.130242,-4.473208,-81.603211,0.084122,-0.001511,0.993652,-0.011486,0.001124,-0.00428,61.387543,12.08345,-149.92276,,,
729716177.638401,0.130242,-4.473211,-78.526332,0.084122,-0.001511,0.993652,-0.011486,0.001124,-0.00428,61.475098,12.19603,-150.05864,,,
729716177.641124,0.126677,-4.473768,-81.604225,0.086288,-0.001236,0.996094,-0.011486,0.001124,-0.00428,61.475098,12.19603,-150.05864,,,
729716177.64136,0.126677,-4.47377,-78.527346,0.086288,-0.001236,0.996094,-0.011486,0.001124,-0.00428,61.475098,12.19603,-150.05864,,,
729716177.643371,0.126677,-4.473768,-81.604225,0.086288,-0.001236,0.996094,-0.011486,0.001124,-0.00428,61.475098,12.19603,-150.05864,,,
729716177.643594,0.126677,-4.47377,-78.527346,0.086288,-0.001236,0.996094,-0.011486,0.001124,-0.00428,61.475098,12.19603,-150.05864,,,
729716177.647974,0.123044,-4.47282,-81.605405,0.086288,-0.001236,0.996094,-0.013491,0.010159,-0.006515,61.475098,12.19603,-150.05864,,,
729716177.648229,0.123044,-4.472822,-78.528527,0.086288,-0.001236,0.996094,-0.013491,0.010159,-0.006515,61.475098,12.19603,-150.05864,,,
729716177.651167,0.118687,-4.470224,-81.607172,0.08638,0.001511,0.996216,-0.013491,0.010159,-0.006515,61.475098,12.19603,-150.05864,,,
729716177.651397,0.118687,-4.470226,-78.530294,0.08638,0.001511,0.996216,-0.013491,0.010159,-0.006515,61.475098,12.19603,-150.05864,,,
729716177.653354,0.118687,-4.470224,-81.607172,0.08638,0.001511,0.996216,-0.013491,0.010159,-0.006515,61.475098,12.19603,-150.05864,,,
729716177.653569,0.118687,-4.470226,-78.530294,0.08638,0.001511,0.996216,-0.013491,0.010159,-0.006515,61.475098,12.19603,-150.05864,,,
729716177.657634,0.113799,-4.46737,-81.609128,0.08638,0.001511,0.996216,-0.015977,0.016013,-0.006926,61.475098,12.19603,-150.05864,,,
729716177.657881,0.113799,-4.467373,-78.53225,0.08638,0.001511,0.996216,-0.015977,0.016013,-0.006926,61.475098,12.19603,-150.05864,,,
729716177.661002,0.109451,-4.463301,-81.61122,0.083206,0.005081,0.993271,-0.015977,0.016013,-0.006926,61.475098,12.19603,-150.05864,,,
729716177.661231,0.109451,-4.463304,-78.534341,0.083206,0.005081,0.993271,-0.015977,0.016013,-0.006926,61.475098,12.19603,-150.05864,,,
729716177.663361,0.109451,-4.463301,-81.61122,0.083206,0.005081,0.993271,-0.015977,0.016013,-0.006926,61.475098,12.19603,-150.05864,,,
729716177.663586,0.109451,-4.463304,-78.534341,0.083206,0.005081,0.993271,-0.015977,0.016013,-0.006926,61.475098,12.19603,-150.05864,,,
729716177.667079,0.105315,-4.459031,-81.613808,0.083206,0.005081,0.993271,-0.011544,0.017196,-0.008333,61.475098,12.19603,-150.05864,,,
729716177.667286,0.105315,-4.459033,-78.536929,0.083206,0.005081,0.993271,-0.011544,0.017196,-0.008333,61.475098,12.19603,-150.05864,,,
729716177.671168,0.102492,-4.454877,-81.616049,0.084686,0.004593,0.994949,-0.011544,0.017196,-0.008333,61.475098,12.19603,-150.05864,,,
729716177.671404,0.102492,-4.45488,-78.539171,0.084686,0.004593,0.994949,-0.011544,0.017196,-0.008333,61.475098,12.19603,-150.05864,,,
729716177.673325,0.102492,-4.454877,-81.616049,0.084686,0.004593,0.994949,-0.011544,0.017196,-0.008333,61.475098,12.19603,-150.05864,,,
729716177.673537,0.102492,-4.45488,-78.539171,0.084686,0.004593,0.994949,-0.011544,0.017196,-0.008333,61.475098,12.19603,-150.05864,,,
729716177.676827,0.09919,-4.451892,-81.617914,0.084686,0.004593,0.994949,-0.012366,0.015154,-0.0098,61.475098,12.19603,-150.05864,,,
729716177.677027,0.09919,-4.451894,-78.541035,0.084686,0.004593,0.994949,-0.012366,0.015154,-0.0098,61.475098,12.19603,-150.05864,,,
729716177.680794,0.096058,-4.449144,-81.619987,0.081665,0.002075,0.992249,-0.012366,0.015154,-0.0098,61.494583,12.068741,-150.281754,,,
729716177.681068,0.096057,-4.449146,-78.543109,0.081665,0.002075,0.992249,-0.012366,0.015154,-0.0098,61.494583,12.068741,-150.281754,,,
729716177.683489,0.096058,-4.449144,-81.619987,0.081665,0.002075,0.992249,-0.012366,0.015154,-0.0098,61.494583,12.068741,-150.281754,,,
729716177.683707,0.096057,-4.449146,-78.543109,0.081665,0.002075,0.992249,-0.012366,0.015154,-0.0098,61.494583,12.068741,-150.281754,,,
729716177.687706,0.091485,-4.446653,-81.621973,0.081665,0.002075,0.992249,-0.019592,0.010027,-0.006903,61.494583,12.068741,-150.281754,,,
729716177.687939,0.091485,-4.446656,-78.545094,0.081665,0.002075,0.992249,-0.019592,0.010027,-0.006903,61.494583,12.068741,-150.281754,,,
729716177.690278,0.0865,-4.445196,-81.623678,0.074692,0.00296,0.989975,-0.019592,0.010027,-0.006903,61.494583,12.068741,-150.281754,,,
729716177.690486,0.0865,-4.445198,-78.546799,0.074692,0.00296,0.989975,-0.019592,0.010027,-0.006903,61.494583,12.068741,-150.281754,,,
729716177.693462,0.0865,-4.445196,-81.623678,0.074692,0.00296,0.989975,-0.019592,0.010027,-0.006903,61.494583,12.068741,-150.281754,,,
729716177.693648,0.0865,-4.445198,-78.546799,0.074692,0.00296,0.989975,-0.019592,0.010027,-0.006903,61.494583,12.068741,-150.281754,,,
729716177.698124,0.079769,-4.444314,-81.624629,0.074692,0.00296,0.989975,-0.029364,0.003178,-0.000314,61.494583,12.068741,-150.281754,,,
729716177.698353,0.079769,-4.444316,-78.54775,0.074692,0.00296,0.989975,-0.029364,0.003178,-0.000314,61.494583,12.068741,-150.281754,,,
729716177.700304,0.071735,-4.444956,-81.624639,0.069321,0.004578,0.987122,-0.029364,0.003178,-0.000314,61.494583,12.068741,-150.281754,,,
729716177.700504,0.071735,-4.444959,-78.547761,0.069321,0.004578,0.987122,-0.029364,0.003178,-0.000314,61.494583,12.068741,-150.281754,,,
729716177.703461,0.071735,-4.444956,-81.624639,0.069321,0.004578,0.987122,-0.029364,0.003178,-0.000314,61.494583,12.068741,-150.281754,,,
729716177.703665,0.071735,-4.444959,-78.547761,0.069321,0.004578,0.987122,-0.029364,0.003178,-0.000314,61.494583,12.068741,-150.281754,,,
729716177.709493,0.063016,-4.446024,-81.623499,0.069321,0.004578,0.987122,-0.028448,-0.002951,0.004829,61.494583,12.068741,-150.281754,,,
729716177.709765,0.054108,-4.449178,-78.544901,0.07077,4.6e-05,0.991425,-0.028448,-0.002951,0.004829,61.494583,12.068741,-150.281754,,,
729716177.710228,0.054108,-4.449178,-78.544901,0.07077,4.6e-05,0.991425,-0.028448,-0.002951,0.004829,61.494583,12.068741,-150.281754,,,
729716177.713916,0.054109,-4.449176,-81.62178,0.07077,4.6e-05,0.991425,-0.028448,-0.002951,0.004829,61.494583,12.068741,-150.281754,,,
729716177.714195,0.054108,-4.451451,-78.543363,0.07077,4.6e-05,0.991425,-0.028448,-0.002951,0.004829,61.494583,12.068741,-150.281754,,,
729716177.717457,0.046825,-4.451449,-81.620242,0.07077,4.6e-05,0.991425,-0.019478,-0.011095,0.006943,61.494583,12.068741,-150.281754,,,
729716177.717715,0.046825,-4.451451,-78.543363,0.07077,4.6e-05,0.991425,-0.019478,-0.011095,0.006943,61.494583,12.068741,-150.281754,,,
729716177.722656,0.04037,-4.456467,-81.618642,0.073502,-0.002243,0.998566,-0.019478,-0.011095,0.006943,61.364822,12.175659,-149.896286,,,
729716177.722935,0.040369,-4.456469,-78.541763,0.073502,-0.002243,0.998566,-0.019478,-0.011095,0.006943,61.364822,12.175659,-149.896286,,,
729716177.723205,0.04037,-4.456467,-81.618642,0.073502,-0.002243,0.998566,-0.019478,-0.011095,0.006943,61.364822,12.175659,-149.896286,,,
729716177.723578,0.040369,-4.456469,-78.541763,0.073502,-0.002243,0.998566,-0.019478,-0.011095,0.006943,61.364822,12.175659,-149.896286,,,
729716177.727406,0.034786,-4.460481,-81.617526,0.073502,-0.002243,0.998566,-0.01734,-0.011225,0.001329,61.364822,12.175659,-149.896286,,,
729716177.727632,0.034786,-4.460483,-78.540648,0.073502,-0.002243,0.998566,-0.01734,-0.011225,0.001329,61.364822,12.175659,-149.896286,,,
729716177.730642,0.029902,-4.466313,-81.617576,0.0793,-0.000259,1.00322,-0.01734,-0.011225,0.001329,61.364822,12.175659,-149.896286,,,
729716177.730865,0.029902,-4.466315,-78.540698,0.0793,-0.000259,1.00322,-0.01734,-0.011225,0.001329,61.364822,12.175659,-149.896286,,,
729716177.73341,0.029902,-4.466313,-81.617576,0.0793,-0.000259,1.00322,-0.01734,-0.011225,0.001329,61.364822,12.175659,-149.896286,,,
729716177.73361,0.029902,-4.466315,-78.540698,0.0793,-0.000259,1.00322,-0.01734,-0.011225,0.001329,61.364822,12.175659,-149.896286,,,
729716177.73832,0.025118,-4.469666,-81.618721,0.0793,-0.000259,1.00322,-0.01335,-0.005637,-0.005834,61.364822,12.175659,-149.896286,,,
729716177.738567,0.025118,-4.469668,-78.541842,0.0793,-0.000259,1.00322,-0.01335,-0.005637,-0.005834,61.364822,12.175659,-149.896286,,,
729716177.741411,0.021854,-4.47289,-81.619994,0.083282,0.008286,1.004395,-0.01335,-0.005637,-0.005834,61.364822,12.175659,-149.896286,,,
729716177.741648,0.021853,-4.472892,-78.543115,0.083282,0.008286,1.004395,-0.01335,-0.005637,-0.005834,61.364822,12.175659,-149.896286,,,
729716177.743319,0.021854,-4.47289,-81.619994,0.083282,0.008286,1.004395,-0.01335,-0.005637,-0.005834,61.364822,12.175659,-149.896286,,,
729716177.743538,0.021853,-4.472892,-78.543115,0.083282,0.008286,1.004395,-0.01335,-0.005637,-0.005834,61.364822,12.175659,-149.896286,,,
729716177.748147,0.018316,-4.473452,-81.621208,0.083282,0.008286,1.004395,-0.01084,0.006839,-0.00168,61.364822,12.175659,-149.896286,,,
729716177.748404,0.018316,-4.473454,-78.54433,0.083282,0.008286,1.004395,-0.01084,0.006839,-0.00168,61.364822,12.175659,-149.896286,,,
729716177.750243,0.016235,-4.47425,-81.621993,0.083298,0.009506,1.007599,-0.01084,0.006839,-0.00168,61.364822,12.175659,-149.896286,,,
729716177.75045,0.016235,-4.474252,-78.545115,0.083298,0.009506,1.007599,-0.01084,0.006839,-0.00168,61.364822,12.175659,-149.896286,,,
729716177.753457,0.016235,-4.47425,-81.621993,0.083298,0.009506,1.007599,-0.01084,0.006839,-0.00168,61.364822,12.175659,-149.896286,,,
729716177.753648,0.016235,-4.474252,-78.545115,0.083298,0.009506,1.007599,-0.01084,0.006839,-0.00168,61.364822,12.175659,-149.896286,,,
729716177.757182,0.013435,-4.472647,-81.622341,0.083298,0.009506,1.007599,-0.012641,0.009095,-7.3e-05,61.364822,12.175659,-149.896286,,,
729716177.757385,0.013435,-4.472649,-78.545463,0.083298,0.009506,1.007599,-0.012641,0.009095,-7.3e-05,61.364822,12.175659,-149.896286,,,
729716177.760092,0.009962,-4.470487,-81.622587,0.084,0.005157,1.005981,-0.012641,0.009095,-7.3e-05,61.364822,12.175659,-149.896286,,,
729716177.760279,0.009962,-4.47049,-78.545709,0.084,0.005157,1.005981,-0.012641,0.009095,-7.3e-05,61.364822,12.175659,-149.896286,,,
729716177.764268,0.009962,-4.470487,-81.622587,0.084,0.005157,1.005981,-0.012641,0.009095,-7.3e-05,61.440796,12.328369,-150.272766,,,
729716177.764497,0.005309,-4.467507,-78.545857,0.084,0.005157,1.005981,-0.013361,0.011353,0.001217,61.440796,12.328369,-150.272766,,,
729716177.767803,0.00531,-4.467505,-81.622735,0.084,0.005157,1.005981,-0.013361,0.011353,0.001217,61.440796,12.328369,-150.272766,,,
729716177.768028,0.005309,-4.467507,-78.545857,0.084,0.005157,1.005981,-0.013361,0.011353,0.001217,61.440796,12.328369,-150.272766,,,
729716177.770895,0.001082,-4.463456,-81.62275,0.083405,0.008072,1.002777,-0.013361,0.011353,0.001217,61.440796,12.328369,-150.272766,,,
729716177.771124,0.001082,-4.463459,-78.545872,0.083405,0.008072,1.002777,-0.013361,0.011353,0.001217,61.440796,12.328369,-150.272766,,,
729716177.773372,0.001082,-4.463456,-81.62275,0.083405,0.008072,1.002777,-0.013361,0.011353,0.001217,61.440796,12.328369,-150.272766,,,
729716177.773583,0.001082,-4.463459,-78.545872,0.083405,0.008072,1.002777,-0.013361,0.011353,0.001217,61.440796,12.328369,-150.272766,,,
729716177.77726,-0.003373,-4.460563,-81.622353,0.083405,0.008072,1.002777,-0.010472,0.008217,0.002905,61.440796,12.328369,-150.272766,,,
729716177.777487,-0.003373,-4.460565,-78.545475,0.083405,0.008072,1.002777,-0.010472,0.008217,0.002905,61.440796,12.328369,-150.272766,,,
729716177.780434,-0.0061,-4.457056,-81.621857,0.075974,0.006485,1.00415,-0.010472,0.008217,0.002905,61.440796,12.328369,-150.272766,,,
729716177.780657,-0.0061,-4.457058,-78.544978,0.075974,0.006485,1.00415,-0.010472,0.008217,0.002905,61.440796,12.328369,-150.272766,,,
729716177.783446,-0.0061,-4.457056,-81.621857,0.075974,0.006485,1.00415,-0.010472,0.008217,0.002905,61.440796,12.328369,-150.272766,,,
729716177.783631,-0.0061,-4.457058,-78.544978,0.075974,0.006485,1.00415,-0.010472,0.008217,0.002905,61.440796,12.328369,-150.272766,,,
729716177.788934,-0.007547,-4.456401,-81.621419,0.075974,0.006485,1.00415,0.003532,0.005556,-0.001365,61.440796,12.328369,-150.272766,,,
729716177.789265,-0.007548,-4.456404,-78.544541,0.075974,0.006485,1.00415,0.003532,0.005556,-0.001365,61.440796,12.328369,-150.272766,,,
729716177.790336,-0.006729,-4.455049,-81.620743,0.077927,0.000458,1.007187,0.003532,0.005556,-0.001365,61.440796,12.328369,-150.272766,,,
729716177.790551,-0.006729,-4.455051,-78.543865,0.077927,0.000458,1.007187,0.003532,0.005556,-0.001365,61.440796,12.328369,-150.272766,,,
729716177.793434,-0.006729,-4.455049,-81.620743,0.077927,0.000458,1.007187,0.003532,0.005556,-0.001365,61.440796,12.328369,-150.272766,,,
729716177.793624,-0.006729,-4.455051,-78.543865,0.077927,0.000458,1.007187,0.003532,0.005556,-0.001365,61.440796,12.328369,-150.272766,,,
729716177.798817,-0.003569,-4.45488,-81.61982,0.077927,0.000458,1.007187,0.016599,0.006709,0.000739,61.440796,12.328369,-150.272766,,,
729716177.799076,-0.003569,-4.454883,-78.542941,0.077927,0.000458,1.007187,0.016599,0.006709,0.000739,61.440796,12.328369,-150.272766,,,
729716177.801265,0.000913,-4.454098,-81.618884,0.076218,-0.003418,1.012894,0.016599,0.006709,0.000739,61.440796,12.328369,-150.272766,,,
729716177.801546,0.000912,-4.454101,-78.542006,0.076218,-0.003418,1.012894,0.016599,0.006709,0.000739,61.440796,12.328369,-150.272766,,,
729716177.803977,0.000913,-4.454098,-81.618884,0.076218,-0.003418,1.012894,0.016599,0.006709,0.000739,61.461884,12.250641,-150.291138,,,
729716177.804239,0.000912,-4.454101,-78.542006,0.076218,-0.003418,1.012894,0.016599,0.006709,0.000739,61.461884,12.250641,-150.291138,,,
729716177.80754,0.006869,-4.454379,-81.61782,0.076218,-0.003418,1.012894,0.028401,0.004336,0.000236,61.461884,12.250641,-150.291138,,,
729716177.807772,0.006869,-4.454381,-78.540941,0.076218,-0.003418,1.012894,0.028401,0.004336,0.000236,61.461884,12.250641,-150.291138,,,
729716177.810043,0.013761,-4.454949,-81.616811,0.07663,-0.003342,1.011124,0.028401,0.004336,0.000236,61.461884,12.250641,-150.291138,,,
729716177.810264,0.013761,-4.454952,-78.539932,0.07663,-0.003342,1.011124,0.028401,0.004336,0.000236,61.461884,12.250641,-150.291138,,,
729716177.813549,0.013761,-4.454949,-81.616811,0.07663,-0.003342,1.011124,0.028401,0.004336,0.000236,61.461884,12.250641,-150.291138,,,
729716177.813737,0.013761,-4.454952,-78.539932,0.07663,-0.003342,1.011124,0.028401,0.004336,0.000236,61.461884,12.250641,-150.291138,,,
729716177.81737,0.020626,-4.454585,-81.615747,0.07663,-0.003342,1.011124,0.025363,0.007735,0.000825,61.461884,12.250641,-150.291138,,,
729716177.817605,0.020625,-4.454587,-78.538869,0.07663,-0.003342,1.011124,0.025363,0.007735,0.000825,61.461884,12.250641,-150.291138,,,
729716177.821696,0.029587,-4.454418,-81.614868,0.078857,0.001404,1.008362,0.025363,0.007735,0.000825,61.461884,12.250641,-150.291138,,,
729716177.821939,0.029587,-4.45442,-78.53799,0.078857,0.001404,1.008362,0.025363,0.007735,0.000825,61.461884,12.250641,-150.291138,,,
729716177.823266,0.029587,-4.454418,-81.614868,0.078857,0.001404,1.008362,0.025363,0.007735,0.000825,61.461884,12.250641,-150.291138,,,
729716177.823561,0.029587,-4.45442,-78.53799,0.078857,0.001404,1.008362,0.025363,0.007735,0.000825,61.461884,12.250641,-150.291138,,,
729716177.828569,0.036486,-4.453304,-81.614366,0.078857,0.001404,1.008362,0.024401,0.006618,-0.002002,61.461884,12.250641,-150.291138,,,
729716177.828827,0.036485,-4.453306,-78.537488,0.078857,0.001404,1.008362,0.024401,0.006618,-0.002002,61.461884,12.250641,-150.291138,,,
729716177.830187,0.044059,-4.453946,-81.614084,0.080643,0.004211,1.003281,0.024401,0.006618,-0.002002,61.461884,12.250641,-150.291138,,,
729716177.830395,0.044058,-4.453948,-78.537205,0.080643,0.004211,1.003281,0.024401,0.006618,-0.002002,61.461884,12.250641,-150.291138,,,
729716177.833494,0.044059,-4.453946,-81.614084,0.080643,0.004211,1.003281,0.024401,0.006618,-0.002002,61.461884,12.250641,-150.291138,,,
729716177.833686,0.044058,-4.453948,-78.537205,0.080643,0.004211,1.003281,0.024401,0.006618,-0.002002,61.461884,12.250641,-150.291138,,,
729716177.837405,0.050118,-4.453418,-81.614638,0.080643,0.004211,1.003281,0.017249,0.005906,-0.008384,61.461884,12.250641,-150.291138,,,
729716177.837618,0.050118,-4.453421,-78.53776,0.080643,0.004211,1.003281,0.017249,0.005906,-0.008384,61.461884,12.250641,-150.291138,,,
729716177.840827,0.056458,-4.454034,-81.616172,0.084229,0.008209,0.999878,0.017249,0.005906,-0.008384,61.461884,12.250641,-150.291138,,,
729716177.841043,0.056458,-4.454036,-78.539294,0.084229,0.008209,0.999878,0.017249,0.005906,-0.008384,61.461884,12.250641,-150.291138,,,
729716177.844026,0.056458,-4.454034,-81.616172,0.084229,0.008209,0.999878,0.017249,0.005906,-0.008384,61.426758,12.20871,-150.422668,,,
729716177.844294,0.056458,-4.454036,-78.539294,0.084229,0.008209,0.999878,0.017249,0.005906,-0.008384,61.426758,12.20871,-150.422668,,,
729716177.847308,0.06129,-4.453931,-81.618755,0.084229,0.008209,0.999878,0.016973,0.004913,-0.015908,61.426758,12.20871,-150.422668,,,
729716177.847523,0.06129,-4.453934,-78.541877,0.084229,0.008209,0.999878,0.016973,0.004913,-0.015908,61.426758,12.20871,-150.422668,,,
729716177.850896,0.067001,-4.454447,-81.622107,0.085388,0.008926,0.994675,0.016973,0.004913,-0.015908,61.426758,12.20871,-150.422668,,,
729716177.851116,0.067001,-4.45445,-78.545229,0.085388,0.008926,0.994675,0.016973,0.004913,-0.015908,61.426758,12.20871,-150.422668,,,
729716177.853367,0.067001,-4.454447,-81.622107,0.085388,0.008926,0.994675,0.016973,0.004913,-0.015908,61.426758,12.20871,-150.422668,,,
729716177.853588,0.067001,-4.45445,-78.545229,0.085388,0.008926,0.994675,0.016973,0.004913,-0.015908,61.426758,12.20871,-150.422668,,,
729716177.857496,0.070801,-4.453286,-81.625431,0.085388,0.008926,0.994675,0.013409,0.012905,-0.015298,61.426758,12.20871,-150.422668,,,
729716177.857737,0.070801,-4.453289,-78.548552,0.085388,0.008926,0.994675,0.013409,0.012905,-0.015298,61.426758,12.20871,-150.422668,,,
729716177.8606,0.075575,-4.450439,-81.628797,0.083954,0.008926,0.991333,0.013409,0.012905,-0.015298,61.426758,12.20871,-150.422668,,,
729716177.86082,0.075575,-4.450442,-78.551919,0.083954,0.008926,0.991333,0.013409,0.012905,-0.015298,61.426758,12.20871,-150.422668,,,
729716177.863493,0.075575,-4.450439,-81.628797,0.083954,0.008926,0.991333,0.013409,0.012905,-0.015298,61.426758,12.20871,-150.422668,,,
729716177.863688,0.075575,-4.450442,-78.551919,0.083954,0.008926,0.991333,0.013409,0.012905,-0.015298,61.426758,12.20871,-150.422668,,,
729716177.867298,0.080762,-4.446678,-81.631971,0.083954,0.008926,0.991333,0.021884,0.013891,-0.010739,61.426758,12.20871,-150.422668,,,
729716177.867516,0.080762,-4.446681,-78.555092,0.083954,0.008926,0.991333,0.021884,0.013891,-0.010739,61.426758,12.20871,-150.422668,,,
729716177.87093,0.08659,-4.442515,-81.63432,0.079254,0.003616,0.992111,0.021884,0.013891,-0.010739,61.426758,12.20871,-150.422668,,,
729716177.871158,0.08659,-4.442517,-78.557442,0.079254,0.003616,0.992111,0.021884,0.013891,-0.010739,61.426758,12.20871,-150.422668,,,
729716177.873355,0.08659,-4.442515,-81.63432,0.079254,0.003616,0.992111,0.021884,0.013891,-0.010739,61.426758,12.20871,-150.422668,,,
729716177.873566,0.08659,-4.442517,-78.557442,0.079254,0.003616,0.992111,0.021884,0.013891,-0.010739,61.426758,12.20871,-150.422668,,,
729716177.877538,0.093863,-4.440023,-81.635493,0.079254,0.003616,0.992111,0.028392,0.006498,-0.003694,61.426758,12.20871,-150.422668,,,
729716177.877782,0.093863,-4.440026,-78.558615,0.079254,0.003616,0.992111,0.028392,0.006498,-0.003694,61.426758,12.20871,-150.422668,,,
729716177.881505,0.10074,-4.438549,-81.635488,0.075272,-0.001694,0.988953,0.028392,0.006498,-0.003694,61.426758,12.20871,-150.422668,,,
729716177.881757,0.10074,-4.438551,-78.55861,0.075272,-0.001694,0.988953,0.028392,0.006498,-0.003694,61.426758,12.20871,-150.422668,,,
729716177.883361,0.10074,-4.438549,-81.635488,0.075272,-0.001694,0.988953,0.028392,0.006498,-0.003694,61.426758,12.20871,-150.422668,,,
729716177.883556,0.10074,-4.438551,-78.55861,0.075272,-0.001694,0.988953,0.028392,0.006498,-0.003694,61.40947,12.025848,-150.105255,,,
729716177.888292,0.108351,-4.438384,-81.635192,0.075272,-0.001694,0.988953,0.022512,0.002501,-0.00328,61.40947,12.025848,-150.105255,,,
729716177.88853,0.108351,-4.438386,-78.558313,0.075272,-0.001694,0.988953,0.022512,0.002501,-0.00328,61.40947,12.025848,-150.105255,,,
729716177.891459,0.113967,-4.438244,-81.635269,0.069931,0.000687,0.984207,0.022512,0.002501,-0.00328,61.40947,12.025848,-150.105255,,,
729716177.8917,0.113967,-4.438247,-78.558391,0.069931,0.000687,0.984207,0.022512,0.002501,-0.00328,61.40947,12.025848,-150.105255,,,
729716177.893295,0.113967,-4.438244,-81.635269,0.069931,0.000687,0.984207,0.022512,0.002501,-0.00328,61.40947,12.025848,-150.105255,,,
729716177.893547,0.113967,-4.438247,-78.558391,0.069931,0.000687,0.984207,0.022512,0.002501,-0.00328,61.40947,12.025848,-150.105255,,,
729716177.897728,0.118921,-4.437975,-81.635701,0.069931,0.000687,0.984207,0.012023,0.006261,-0.003685,61.40947,12.025848,-150.105255,,,
729716177.897967,0.118921,-4.437978,-78.558822,0.069931,0.000687,0.984207,0.012023,0.006261,-0.003685,61.40947,12.025848,-150.105255,,,
729716177.90002,0.122564,-4.437159,-81.635921,0.068771,0.003967,0.983978,0.012023,0.006261,-0.003685,61.40947,12.025848,-150.105255,,,
729716177.900242,0.122564,-4.437162,-78.559042,0.068771,0.003967,0.983978,0.012023,0.006261,-0.003685,61.40947,12.025848,-150.105255,,,
729716177.903553,0.122564,-4.437159,-81.635921,0.068771,0.003967,0.983978,0.012023,0.006261,-0.003685,61.40947,12.025848,-150.105255,,,
729716177.903735,0.122564,-4.437162,-78.559042,0.068771,0.003967,0.983978,0.012023,0.006261,-0.003685,61.40947,12.025848,-150.105255,,,
729716177.90704,0.124868,-4.435795,-81.635538,0.068771,0.003967,0.983978,0.003792,0.009327,-0.00051,61.40947,12.025848,-150.105255,,,
729716177.907242,0.124868,-4.435798,-78.55866,0.068771,0.003967,0.983978,0.003792,0.009327,-0.00051,61.40947,12.025848,-150.105255,,,
729716177.910965,0.126731,-4.434909,-81.634843,0.066864,0.001144,0.983307,0.003792,0.009327,-0.00051,61.40947,12.025848,-150.105255,,,
729716177.911194,0.126731,-4.434912,-78.557964,0.066864,0.001144,0.983307,0.003792,0.009327,-0.00051,61.40947,12.025848,-150.105255,,,
729716177.913375,0.126731,-4.434909,-81.634843,0.066864,0.001144,0.983307,0.003792,0.009327,-0.00051,61.40947,12.025848,-150.105255,,,
