Time (sec),Pitch (deg),Roll (deg),Yaw(deg),X-Acceleration (g),Y-Acceleration (g),Z-Acceleration (g),Pitch Rate (deg/sec),Roll Rate (deg/sec),Yaw Rate (deg/sec),Magnetic Field in X direction (uT),Magnetic Field in Y direction (uT),Magnetic Field in Z Direction (uT),Latitude (deg),Longitude (deg),Altitude (m)
729717161.728498,-0.030396,2.131768,102.774203,-0.046112,-0.000809,1.006683,0.00567,-0.013998,0.003934,90.931854,35.945526,-149.747208,,,
729717161.728936,-0.030396,2.131771,105.851054,-0.046112,-0.000809,1.006683,0.00567,-0.013998,0.003934,90.931854,35.945526,-149.747208,,,
729717161.729629,-0.030395,2.131768,141.387407,-0.046112,-0.000809,1.006683,0.00567,-0.013998,0.003934,90.931854,35.945526,-149.747208,,,
729717161.73274,-0.029281,2.124494,102.775223,-0.046585,-0.002411,1.00882,0.004366,-0.025371,0.002248,90.931854,35.945526,-149.747208,,,
729717161.733512,-0.029281,2.124497,105.852074,-0.046585,-0.002411,1.00882,0.004366,-0.025371,0.002248,90.931854,35.945526,-149.747208,,,
729717161.733651,-0.02928,2.124494,141.388427,-0.046585,-0.002411,1.00882,0.004366,-0.025371,0.002248,90.931854,35.945526,-149.747208,,,
729717161.735238,-0.026927,2.115486,102.776302,-0.046585,-0.002411,1.00882,0.004366,-0.025371,0.002248,90.931854,35.945526,-149.747208,,,
729717161.735591,-0.026926,2.115489,105.853153,-0.046585,-0.002411,1.00882,0.004366,-0.025371,0.002248,90.931854,35.945526,-149.747208,,,
729717161.736229,-0.026925,2.115487,141.389508,-0.046585,-0.002411,1.00882,0.004366,-0.025371,0.002248,90.931854,35.945526,-149.747208,,,
729717161.738683,-0.026927,2.115486,102.776302,-0.046585,-0.002411,1.00882,0.004366,-0.025371,0.002248,90.931854,35.945526,-149.747208,,,
729717161.738897,-0.026926,2.115489,105.853153,-0.046585,-0.002411,1.00882,0.004366,-0.025371,0.002248,90.931854,35.945526,-149.747208,,,
729717161.739596,-0.026925,2.115487,141.389508,-0.046585,-0.002411,1.00882,0.004366,-0.025371,0.002248,90.931854,35.945526,-149.747208,,,
729717161.743855,-0.024513,2.105126,102.776978,-0.04451,-0.00528,1.009293,0.010324,-0.035376,-0.000362,90.931854,35.945526,-149.747208,,,
729717161.745935,-0.024513,2.105129,105.853828,-0.04451,-0.00528,1.009293,0.010324,-0.035376,-0.000362,90.931854,35.945526,-149.747208,,,
729717161.746107,-0.020222,2.092317,141.390715,-0.04451,-0.00528,1.009293,0.010324,-0.035376,-0.000362,90.931854,35.945526,-149.747208,,,
729717161.746568,-0.020223,2.092317,102.777508,-0.04451,-0.00528,1.009293,0.010324,-0.035376,-0.000362,90.931854,35.945526,-149.747208,,,
729717161.748639,-0.020223,2.092317,102.777508,-0.04451,-0.00528,1.009293,0.010324,-0.035376,-0.000362,90.931854,35.945526,-149.747208,,,
729717161.749167,-0.020223,2.09232,105.854358,-0.04451,-0.00528,1.009293,0.010324,-0.035376,-0.000362,90.931854,35.945526,-149.747208,,,
729717161.749647,-0.020222,2.092317,141.390715,-0.04451,-0.00528,1.009293,0.010324,-0.035376,-0.000362,90.931854,35.945526,-149.747208,,,
729717161.753217,-0.015343,2.080565,102.779119,-0.041718,-0.006805,1.011429,0.019674,-0.037195,0.007497,90.931854,35.945526,-149.747208,,,
729717161.754444,-0.015342,2.080568,105.85597,-0.041718,-0.006805,1.011429,0.019674,-0.037195,0.007497,90.931854,35.945526,-149.747208,,,
729717161.75455,-0.015341,2.080565,141.392326,-0.041718,-0.006805,1.011429,0.019674,-0.037195,0.007497,90.931854,35.945526,-149.747208,,,
729717161.755389,-0.009216,2.068746,102.782227,-0.041718,-0.006805,1.011429,0.019674,-0.037195,0.007497,90.931854,35.945526,-149.747208,,,
729717161.755862,-0.009216,2.068749,105.859078,-0.041718,-0.006805,1.011429,0.019674,-0.037195,0.007497,90.931854,35.945526,-149.747208,,,
729717161.756205,-0.009215,2.068746,141.395435,-0.041718,-0.006805,1.011429,0.019674,-0.037195,0.007497,90.931854,35.945526,-149.747208,,,
729717161.75868,-0.009216,2.068746,102.782227,-0.041718,-0.006805,1.011429,0.019674,-0.037195,0.007497,90.931854,35.945526,-149.747208,,,
729717161.758901,-0.009216,2.068749,105.859078,-0.041718,-0.006805,1.011429,0.019674,-0.037195,0.007497,90.931854,35.945526,-149.747208,,,
729717161.759613,-0.009215,2.068746,141.395435,-0.041718,-0.006805,1.011429,0.019674,-0.037195,0.007497,90.931854,35.945526,-149.747208,,,
729717161.763523,-0.002256,2.058291,102.786531,-0.040222,-0.008041,1.013992,0.028397,-0.031622,0.016096,90.752716,36.063065,-149.52626,,,
729717161.765087,-0.002255,2.058294,105.863382,-0.040222,-0.008041,1.013992,0.028397,-0.031622,0.016096,90.752716,36.063065,-149.52626,,,
729717161.765249,0.005768,2.04913,141.404947,-0.040222,-0.008041,1.013992,0.028397,-0.031622,0.016096,90.752716,36.063065,-149.52626,,,
729717161.76581,0.005767,2.04913,102.791742,-0.040222,-0.008041,1.013992,0.028397,-0.031622,0.016096,90.752716,36.063065,-149.52626,,,
729717161.766364,0.005768,2.049133,105.868592,-0.040222,-0.008041,1.013992,0.028397,-0.031622,0.016096,90.752716,36.063065,-149.52626,,,
729717161.766468,0.005768,2.04913,141.404947,-0.040222,-0.008041,1.013992,0.028397,-0.031622,0.016096,90.752716,36.063065,-149.52626,,,
729717161.768647,0.005767,2.04913,102.791742,-0.040222,-0.008041,1.013992,0.028397,-0.031622,0.016096,90.752716,36.063065,-149.52626,,,
729717161.768901,0.005768,2.049133,105.868592,-0.040222,-0.008041,1.013992,0.028397,-0.031622,0.016096,90.752716,36.063065,-149.52626,,,
729717161.769568,0.005768,2.04913,141.404947,-0.040222,-0.008041,1.013992,0.028397,-0.031622,0.016096,90.752716,36.063065,-149.52626,,,
729717161.772426,0.013504,2.040365,102.797891,-0.04213,-0.005157,1.014038,0.026763,-0.027905,0.022576,90.752716,36.063065,-149.52626,,,
729717161.772894,0.013504,2.040369,105.874742,-0.04213,-0.005157,1.014038,0.026763,-0.027905,0.022576,90.752716,36.063065,-149.52626,,,
729717161.773046,0.013505,2.040366,141.411095,-0.04213,-0.005157,1.014038,0.026763,-0.027905,0.022576,90.752716,36.063065,-149.52626,,,
729717161.775836,0.021647,2.032798,102.804668,-0.04213,-0.005157,1.014038,0.026763,-0.027905,0.022576,90.752716,36.063065,-149.52626,,,
729717161.776665,0.021647,2.032801,105.881519,-0.04213,-0.005157,1.014038,0.026763,-0.027905,0.022576,90.752716,36.063065,-149.52626,,,
729717161.77682,0.021648,2.032799,141.417872,-0.04213,-0.005157,1.014038,0.026763,-0.027905,0.022576,90.752716,36.063065,-149.52626,,,
729717161.778605,0.021647,2.032798,102.804668,-0.04213,-0.005157,1.014038,0.026763,-0.027905,0.022576,90.752716,36.063065,-149.52626,,,
729717161.778916,0.021647,2.032801,105.881519,-0.04213,-0.005157,1.014038,0.026763,-0.027905,0.022576,90.752716,36.063065,-149.52626,,,
729717161.779563,0.021648,2.032799,141.417872,-0.04213,-0.005157,1.014038,0.026763,-0.027905,0.022576,90.752716,36.063065,-149.52626,,,
729717161.782899,0.029387,2.026582,102.811395,-0.039413,-0.00415,1.008789,0.024095,-0.015475,0.022101,90.752716,36.063065,-149.52626,,,
729717161.783988,0.029387,2.026585,105.888246,-0.039413,-0.00415,1.008789,0.024095,-0.015475,0.022101,90.752716,36.063065,-149.52626,,,
729717161.784147,0.029388,2.026582,141.424599,-0.039413,-0.00415,1.008789,0.024095,-0.015475,0.022101,90.752716,36.063065,-149.52626,,,
729717161.785783,0.036252,2.022877,102.817788,-0.039413,-0.00415,1.008789,0.024095,-0.015475,0.022101,90.752716,36.063065,-149.52626,,,
729717161.786457,0.036252,2.02288,105.894638,-0.039413,-0.00415,1.008789,0.024095,-0.015475,0.022101,90.752716,36.063065,-149.52626,,,
729717161.786611,0.036253,2.022877,141.43099,-0.039413,-0.00415,1.008789,0.024095,-0.015475,0.022101,90.752716,36.063065,-149.52626,,,
729717161.788634,0.036252,2.022877,102.817788,-0.039413,-0.00415,1.008789,0.024095,-0.015475,0.022101,90.752716,36.063065,-149.52626,,,
729717161.7889,0.036252,2.02288,105.894638,-0.039413,-0.00415,1.008789,0.024095,-0.015475,0.022101,90.752716,36.063065,-149.52626,,,
729717161.789569,0.036253,2.022877,141.43099,-0.039413,-0.00415,1.008789,0.024095,-0.015475,0.022101,90.752716,36.063065,-149.52626,,,
729717161.792374,0.041714,2.019517,102.8243,-0.038925,-0.001175,1.006073,0.014581,-0.006781,0.022593,90.752716,36.063065,-149.52626,,,
729717161.793096,0.041715,2.01952,105.901151,-0.038925,-0.001175,1.006073,0.014581,-0.006781,0.022593,90.752716,36.063065,-149.52626,,,
729717161.79325,0.041716,2.019517,141.437502,-0.038925,-0.001175,1.006073,0.014581,-0.006781,0.022593,90.752716,36.063065,-149.52626,,,
729717161.795915,0.045164,2.019744,102.830635,-0.038925,-0.001175,1.006073,0.014581,-0.006781,0.022593,90.752716,36.063065,-149.52626,,,
729717161.796759,0.045164,2.019747,105.907486,-0.038925,-0.001175,1.006073,0.014581,-0.006781,0.022593,90.752716,36.063065,-149.52626,,,
729717161.79697,0.045165,2.019744,141.443837,-0.038925,-0.001175,1.006073,0.014581,-0.006781,0.022593,90.752716,36.063065,-149.52626,,,
729717161.798655,0.045164,2.019744,102.830635,-0.038925,-0.001175,1.006073,0.014581,-0.006781,0.022593,90.752716,36.063065,-149.52626,,,
729717161.798956,0.045164,2.019747,105.907486,-0.038925,-0.001175,1.006073,0.014581,-0.006781,0.022593,90.752716,36.063065,-149.52626,,,
729717161.799604,0.045165,2.019744,141.443837,-0.038925,-0.001175,1.006073,0.014581,-0.006781,0.022593,90.752716,36.063065,-149.52626,,,
729717161.805311,0.047987,2.018839,102.836523,-0.035049,0.001801,1.001129,0.008852,0.000794,0.019305,90.876633,35.872879,-149.328796,,,
729717161.808739,0.049846,2.020376,105.919053,-0.035049,0.001801,1.001129,0.008852,0.000794,0.019305,90.876633,35.872879,-149.328796,,,
729717161.808982,0.049847,2.020373,141.455405,-0.035049,0.001801,1.001129,0.008852,0.000794,0.019305,90.876633,35.872879,-149.328796,,,
729717161.809206,0.049845,2.020373,102.842203,-0.035049,0.001801,1.001129,0.008852,0.000794,0.019305,90.876633,35.872879,-149.328796,,,
729717161.809541,0.049847,2.020373,141.455405,-0.035049,0.001801,1.001129,0.008852,0.000794,0.019305,90.876633,35.872879,-149.328796,,,
729717161.813753,0.052128,2.018367,102.847342,-0.03653,-0.000961,0.998993,0.00729,-0.006055,0.015466,90.876633,35.872879,-149.328796,,,
729717161.815477,0.052129,2.01837,105.924193,-0.03653,-0.000961,0.998993,0.00729,-0.006055,0.015466,90.876633,35.872879,-149.328796,,,
729717161.815642,0.052712,2.017479,141.464975,-0.03653,-0.000961,0.998993,0.00729,-0.006055,0.015466,90.876633,35.872879,-149.328796,,,
729717161.81585,0.052711,2.017478,102.851771,-0.03653,-0.000961,0.998993,0.00729,-0.006055,0.015466,90.876633,35.872879,-149.328796,,,
729717161.816206,0.052712,2.017479,141.464975,-0.03653,-0.000961,0.998993,0.00729,-0.006055,0.015466,90.876633,35.872879,-149.328796,,,
729717161.818684,0.052711,2.017478,102.851771,-0.03653,-0.000961,0.998993,0.00729,-0.006055,0.015466,90.876633,35.872879,-149.328796,,,
729717161.819089,0.052711,2.017482,105.928622,-0.03653,-0.000961,0.998993,0.00729,-0.006055,0.015466,90.876633,35.872879,-149.328796,,,
729717161.819574,0.052712,2.017479,141.464975,-0.03653,-0.000961,0.998993,0.00729,-0.006055,0.015466,90.876633,35.872879,-149.328796,,,
729717161.822615,0.054835,2.013044,102.855992,-0.035675,-0.002533,0.996399,0.010069,-0.014784,0.014098,90.876633,35.872879,-149.328796,,,
729717161.823253,0.054836,2.013047,105.932842,-0.035675,-0.002533,0.996399,0.010069,-0.014784,0.014098,90.876633,35.872879,-149.328796,,,
729717161.82341,0.054837,2.013044,141.469194,-0.035675,-0.002533,0.996399,0.010069,-0.014784,0.014098,90.876633,35.872879,-149.328796,,,
729717161.825545,0.055562,2.00909,102.85975,-0.035675,-0.002533,0.996399,0.010069,-0.014784,0.014098,90.876633,35.872879,-149.328796,,,
729717161.826171,0.055563,2.009093,105.936601,-0.035675,-0.002533,0.996399,0.010069,-0.014784,0.014098,90.876633,35.872879,-149.328796,,,
729717161.826347,0.055564,2.00909,141.472954,-0.035675,-0.002533,0.996399,0.010069,-0.014784,0.014098,90.876633,35.872879,-149.328796,,,
729717161.828667,0.055562,2.00909,102.85975,-0.035675,-0.002533,0.996399,0.010069,-0.014784,0.014098,90.876633,35.872879,-149.328796,,,
729717161.828898,0.055563,2.009093,105.936601,-0.035675,-0.002533,0.996399,0.010069,-0.014784,0.014098,90.876633,35.872879,-149.328796,,,
729717161.829568,0.055564,2.00909,141.472954,-0.035675,-0.002533,0.996399,0.010069,-0.014784,0.014098,90.876633,35.872879,-149.328796,,,
729717161.832839,0.058072,2.001994,102.863488,-0.038895,-0.003494,0.99498,0.009395,-0.024827,0.013863,90.876633,35.872879,-149.328796,,,
729717161.83392,0.058072,2.001997,105.940339,-0.038895,-0.003494,0.99498,0.009395,-0.024827,0.013863,90.876633,35.872879,-149.328796,,,
729717161.834107,0.058073,2.001994,141.476691,-0.038895,-0.003494,0.99498,0.009395,-0.024827,0.013863,90.876633,35.872879,-149.328796,,,
729717161.835782,0.058698,1.994701,102.867508,-0.038895,-0.003494,0.99498,0.009395,-0.024827,0.013863,90.876633,35.872879,-149.328796,,,
729717161.836415,0.058698,1.994704,105.944358,-0.038895,-0.003494,0.99498,0.009395,-0.024827,0.013863,90.876633,35.872879,-149.328796,,,
729717161.836619,0.058699,1.994701,141.48071,-0.038895,-0.003494,0.99498,0.009395,-0.024827,0.013863,90.876633,35.872879,-149.328796,,,
729717161.838681,0.058698,1.994701,102.867508,-0.038895,-0.003494,0.99498,0.009395,-0.024827,0.013863,90.876633,35.872879,-149.328796,,,
729717161.83899,0.058698,1.994704,105.944358,-0.038895,-0.003494,0.99498,0.009395,-0.024827,0.013863,90.876633,35.872879,-149.328796,,,
729717161.839601,0.058699,1.994701,141.48071,-0.038895,-0.003494,0.99498,0.009395,-0.024827,0.013863,90.876633,35.872879,-149.328796,,,
729717161.842984,0.061321,1.985872,102.871104,-0.036331,-0.003799,0.992477,0.00944,-0.026739,0.010887,90.653748,35.725983,-149.624786,,,
729717161.844331,0.061321,1.985875,105.947955,-0.036331,-0.003799,0.992477,0.00944,-0.026739,0.010887,90.653748,35.725983,-149.624786,,,
729717161.844541,0.061322,1.985872,141.484306,-0.036331,-0.003799,0.992477,0.00944,-0.026739,0.010887,90.653748,35.725983,-149.624786,,,
729717161.845524,0.062304,1.979366,102.874658,-0.036331,-0.003799,0.992477,0.00944,-0.026739,0.010887,90.653748,35.725983,-149.624786,,,
729717161.846136,0.062304,1.979369,105.951509,-0.036331,-0.003799,0.992477,0.00944,-0.026739,0.010887,90.653748,35.725983,-149.624786,,,
729717161.846336,0.062305,1.979367,141.48786,-0.036331,-0.003799,0.992477,0.00944,-0.026739,0.010887,90.653748,35.725983,-149.624786,,,
729717161.848723,0.062304,1.979366,102.874658,-0.036331,-0.003799,0.992477,0.00944,-0.026739,0.010887,90.653748,35.725983,-149.624786,,,
729717161.849011,0.062304,1.979369,105.951509,-0.036331,-0.003799,0.992477,0.00944,-0.026739,0.010887,90.653748,35.725983,-149.624786,,,
729717161.849592,0.062305,1.979367,141.48786,-0.036331,-0.003799,0.992477,0.00944,-0.026739,0.010887,90.653748,35.725983,-149.624786,,,
729717161.853033,0.064159,1.972303,102.877784,-0.027893,-0.003387,0.994431,0.005467,-0.020641,0.007754,90.653748,35.725983,-149.624786,,,
729717161.854065,0.064159,1.972306,105.954634,-0.027893,-0.003387,0.994431,0.005467,-0.020641,0.007754,90.653748,35.725983,-149.624786,,,
729717161.854254,0.06416,1.972303,141.490985,-0.027893,-0.003387,0.994431,0.005467,-0.020641,0.007754,90.653748,35.725983,-149.624786,,,
729717161.855203,0.063796,1.967664,102.879696,-0.027893,-0.003387,0.994431,0.005467,-0.020641,0.007754,90.653748,35.725983,-149.624786,,,
729717161.855901,0.063796,1.967667,105.956547,-0.027893,-0.003387,0.994431,0.005467,-0.020641,0.007754,90.653748,35.725983,-149.624786,,,
729717161.856267,0.063797,1.967664,141.492898,-0.027893,-0.003387,0.994431,0.005467,-0.020641,0.007754,90.653748,35.725983,-149.624786,,,
729717161.858745,0.063796,1.967664,102.879696,-0.027893,-0.003387,0.994431,0.005467,-0.020641,0.007754,90.653748,35.725983,-149.624786,,,
729717161.859033,0.063796,1.967667,105.956547,-0.027893,-0.003387,0.994431,0.005467,-0.020641,0.007754,90.653748,35.725983,-149.624786,,,
729717161.85959,0.063797,1.967664,141.492898,-0.027893,-0.003387,0.994431,0.005467,-0.020641,0.007754,90.653748,35.725983,-149.624786,,,
729717161.863334,0.064507,1.962853,102.88092,-0.024155,-0.001099,0.992523,0.004249,-0.012626,0.002892,90.653748,35.725983,-149.624786,,,
729717161.864783,0.064507,1.962856,105.957771,-0.024155,-0.001099,0.992523,0.004249,-0.012626,0.002892,90.653748,35.725983,-149.624786,,,
729717161.865005,0.064508,1.962853,141.494743,-0.024155,-0.001099,0.992523,0.004249,-0.012626,0.002892,90.653748,35.725983,-149.624786,,,
729717161.865278,0.064967,1.959946,102.881538,-0.024155,-0.001099,0.992523,0.004249,-0.012626,0.002892,90.653748,35.725983,-149.624786,,,
729717161.865622,0.064967,1.959949,105.958389,-0.024155,-0.001099,0.992523,0.004249,-0.012626,0.002892,90.653748,35.725983,-149.624786,,,
729717161.866298,0.064968,1.959947,141.494743,-0.024155,-0.001099,0.992523,0.004249,-0.012626,0.002892,90.653748,35.725983,-149.624786,,,
729717161.868723,0.064967,1.959946,102.881538,-0.024155,-0.001099,0.992523,0.004249,-0.012626,0.002892,90.653748,35.725983,-149.624786,,,
729717161.869024,0.064967,1.959949,105.958389,-0.024155,-0.001099,0.992523,0.004249,-0.012626,0.002892,90.653748,35.725983,-149.624786,,,
729717161.869594,0.064968,1.959947,141.494743,-0.024155,-0.001099,0.992523,0.004249,-0.012626,0.002892,90.653748,35.725983,-149.624786,,,
729717161.875065,0.066173,1.957205,102.880848,-0.028305,0.000305,0.991302,0.003966,-0.004553,-0.006331,90.653748,35.725983,-149.624786,,,
729717161.878476,0.067542,1.954786,105.955263,-0.028305,0.000305,0.991302,0.003966,-0.004553,-0.006331,90.653748,35.725983,-149.624786,,,
729717161.878737,0.067542,1.954783,141.491617,-0.028305,0.000305,0.991302,0.003966,-0.004553,-0.006331,90.653748,35.725983,-149.624786,,,
729717161.879368,0.067541,1.954783,102.878412,-0.028305,0.000305,0.991302,0.003966,-0.004553,-0.006331,90.653748,35.725983,-149.624786,,,
729717161.879637,0.067542,1.954786,105.955263,-0.028305,0.000305,0.991302,0.003966,-0.004553,-0.006331,90.653748,35.725983,-149.624786,,,
729717161.880154,0.069542,1.95156,141.4878,-0.028305,0.000305,0.991302,0.009627,-0.008423,-0.015768,90.653748,35.725983,-149.624786,,,
729717161.884566,0.069541,1.95156,102.874595,-0.031113,-0.003204,0.986847,0.009627,-0.008423,-0.015768,90.554947,35.741241,-149.536102,,,
729717161.886709,0.069541,1.951563,105.951446,-0.031113,-0.003204,0.986847,0.009627,-0.008423,-0.015768,90.554947,35.741241,-149.536102,,,
729717161.886891,0.072555,1.948723,141.483399,-0.031113,-0.003204,0.986847,0.009627,-0.008423,-0.015768,90.554947,35.741241,-149.536102,,,
729717161.887109,0.072553,1.948723,102.870195,-0.031113,-0.003204,0.986847,0.009627,-0.008423,-0.015768,90.554947,35.741241,-149.536102,,,
729717161.88856,0.072553,1.948723,102.870195,-0.031113,-0.003204,0.986847,0.009627,-0.008423,-0.015768,90.554947,35.741241,-149.536102,,,
729717161.888929,0.072554,1.948726,105.947046,-0.031113,-0.003204,0.986847,0.009627,-0.008423,-0.015768,90.554947,35.741241,-149.536102,,,
729717161.889566,0.072555,1.948723,141.483399,-0.031113,-0.003204,0.986847,0.009627,-0.008423,-0.015768,90.554947,35.741241,-149.536102,,,
729717161.892449,0.075871,1.945635,102.865204,-0.031601,-0.001083,0.983337,0.010072,-0.006361,-0.019885,90.554947,35.741241,-149.536102,,,
729717161.89324,0.075871,1.945638,105.942055,-0.031601,-0.001083,0.983337,0.010072,-0.006361,-0.019885,90.554947,35.741241,-149.536102,,,
729717161.893411,0.075872,1.945636,141.478408,-0.031601,-0.001083,0.983337,0.010072,-0.006361,-0.019885,90.554947,35.741241,-149.536102,,,
729717161.895708,0.077158,1.943336,102.860017,-0.031601,-0.001083,0.983337,0.010072,-0.006361,-0.019885,90.554947,35.741241,-149.536102,,,
729717161.896181,0.077159,1.943339,105.936868,-0.031601,-0.001083,0.983337,0.010072,-0.006361,-0.019885,90.554947,35.741241,-149.536102,,,
729717161.896334,0.07716,1.943336,141.47322,-0.031601,-0.001083,0.983337,0.010072,-0.006361,-0.019885,90.554947,35.741241,-149.536102,,,
729717161.898655,0.077158,1.943336,102.860017,-0.031601,-0.001083,0.983337,0.010072,-0.006361,-0.019885,90.554947,35.741241,-149.536102,,,
729717161.898898,0.077159,1.943339,105.936868,-0.031601,-0.001083,0.983337,0.010072,-0.006361,-0.019885,90.554947,35.741241,-149.536102,,,
729717161.899571,0.07716,1.943336,141.47322,-0.031601,-0.001083,0.983337,0.010072,-0.006361,-0.019885,90.554947,35.741241,-149.536102,,,
729717161.902016,0.078906,1.940632,102.855365,-0.032257,-0.000549,0.981339,0.005819,-0.005167,-0.016276,90.554947,35.741241,-149.536102,,,
729717161.90243,0.078907,1.940635,105.932216,-0.032257,-0.000549,0.981339,0.005819,-0.005167,-0.016276,90.554947,35.741241,-149.536102,,,
729717161.902904,0.078908,1.940632,141.468568,-0.032257,-0.000549,0.981339,0.005819,-0.005167,-0.016276,90.554947,35.741241,-149.536102,,,
729717161.90576,0.078365,1.939651,102.851671,-0.032257,-0.000549,0.981339,0.005819,-0.005167,-0.016276,90.554947,35.741241,-149.536102,,,
729717161.90606,0.078365,1.939655,105.928521,-0.032257,-0.000549,0.981339,0.005819,-0.005167,-0.016276,90.554947,35.741241,-149.536102,,,
729717161.906304,0.078366,1.939652,141.464873,-0.032257,-0.000549,0.981339,0.005819,-0.005167,-0.016276,90.554947,35.741241,-149.536102,,,
729717161.908742,0.078365,1.939651,102.851671,-0.032257,-0.000549,0.981339,0.005819,-0.005167,-0.016276,90.554947,35.741241,-149.536102,,,
729717161.909016,0.078365,1.939655,105.928521,-0.032257,-0.000549,0.981339,0.005819,-0.005167,-0.016276,90.554947,35.741241,-149.536102,,,
729717161.90959,0.078366,1.939652,141.464873,-0.032257,-0.000549,0.981339,0.005819,-0.005167,-0.016276,90.554947,35.741241,-149.536102,,,
729717161.914707,0.077033,1.938755,102.849587,-0.035095,-0.002533,0.979568,-0.007324,0.00315,-0.005473,90.554947,35.741241,-149.536102,,,
729717161.917515,0.077033,1.938758,105.926438,-0.035095,-0.002533,0.979568,-0.007324,0.00315,-0.005473,90.554947,35.741241,-149.536102,,,
729717161.917755,0.073215,1.940808,141.462217,-0.035095,-0.002533,0.979568,-0.007324,0.00315,-0.005473,90.554947,35.741241,-149.536102,,,
729717161.918399,0.073214,1.940808,102.849013,-0.035095,-0.002533,0.979568,-0.007324,0.00315,-0.005473,90.554947,35.741241,-149.536102,,,
729717161.919412,0.073214,1.940811,105.925864,-0.035095,-0.002533,0.979568,-0.007324,0.00315,-0.005473,90.554947,35.741241,-149.536102,,,
729717161.919649,0.073215,1.940808,141.462217,-0.035095,-0.002533,0.979568,-0.007324,0.00315,-0.005473,90.554947,35.741241,-149.536102,,,
729717161.923395,0.070098,1.943774,102.849529,-0.035553,-0.004242,0.981705,-0.010839,0.017276,0.001977,90.554947,35.741241,-149.536102,,,
729717161.925601,0.070099,1.943777,105.926379,-0.035553,-0.004242,0.981705,-0.010839,0.017276,0.001977,90.696594,35.709183,-149.668091,,,
729717161.92584,0.065577,1.947846,141.464241,-0.035553,-0.004242,0.981705,-0.010839,0.017276,0.001977,90.696594,35.709183,-149.668091,,,
729717161.926758,0.065576,1.947846,102.851038,-0.035553,-0.004242,0.981705,-0.010839,0.017276,0.001977,90.696594,35.709183,-149.668091,,,
729717161.926923,0.065577,1.947846,141.464241,-0.035553,-0.004242,0.981705,-0.010839,0.017276,0.001977,90.696594,35.709183,-149.668091,,,
729717161.928589,0.065576,1.947846,102.851038,-0.035553,-0.004242,0.981705,-0.010839,0.017276,0.001977,90.696594,35.709183,-149.668091,,,
729717161.929195,0.065576,1.947849,105.927889,-0.035553,-0.004242,0.981705,-0.010839,0.017276,0.001977,90.696594,35.709183,-149.668091,,,
729717161.92957,0.065577,1.947846,141.464241,-0.035553,-0.004242,0.981705,-0.010839,0.017276,0.001977,90.696594,35.709183,-149.668091,,,
729717161.93288,0.061435,1.954074,102.853306,-0.03421,-0.001724,0.983231,-0.015778,0.025778,0.007115,90.696594,35.709183,-149.668091,,,
729717161.933945,0.061435,1.954077,105.930157,-0.03421,-0.001724,0.983231,-0.015778,0.025778,0.007115,90.696594,35.709183,-149.668091,,,
729717161.934092,0.061436,1.954074,141.466509,-0.03421,-0.001724,0.983231,-0.015778,0.025778,0.007115,90.696594,35.709183,-149.668091,,,
729717161.935178,0.061435,1.954074,102.853306,-0.03421,-0.001724,0.983231,-0.015778,0.025778,0.007115,90.696594,35.709183,-149.668091,,,
729717161.935842,0.056247,1.958,105.932937,-0.03421,-0.001724,0.983231,-0.015778,0.025778,0.007115,90.696594,35.709183,-149.668091,,,
729717161.936255,0.056248,1.957997,141.469288,-0.03421,-0.001724,0.983231,-0.015778,0.025778,0.007115,90.696594,35.709183,-149.668091,,,
729717161.939079,0.056247,1.957996,102.856086,-0.03421,-0.001724,0.983231,-0.015778,0.025778,0.007115,90.696594,35.709183,-149.668091,,,
729717161.939302,0.056247,1.958,105.932937,-0.03421,-0.001724,0.983231,-0.015778,0.025778,0.007115,90.696594,35.709183,-149.668091,,,
729717161.939503,0.056248,1.957997,141.469288,-0.03421,-0.001724,0.983231,-0.015778,0.025778,0.007115,90.696594,35.709183,-149.668091,,,
729717161.943555,0.051211,1.963161,102.858253,-0.036896,0.002487,0.980774,-0.019746,0.019248,0.002724,90.696594,35.709183,-149.668091,,,
729717161.945435,0.051211,1.963164,105.935104,-0.036896,0.002487,0.980774,-0.019746,0.019248,0.002724,90.696594,35.709183,-149.668091,,,
729717161.945608,0.044996,1.965868,141.47184,-0.036896,0.002487,0.980774,-0.019746,0.019248,0.002724,90.696594,35.709183,-149.668091,,,
729717161.946282,0.044995,1.965868,102.858639,-0.036896,0.002487,0.980774,-0.019746,0.019248,0.002724,90.696594,35.709183,-149.668091,,,
729717161.946605,0.044996,1.965868,141.47184,-0.036896,0.002487,0.980774,-0.019746,0.019248,0.002724,90.696594,35.709183,-149.668091,,,
729717161.948642,0.044995,1.965868,102.858639,-0.036896,0.002487,0.980774,-0.019746,0.019248,0.002724,90.696594,35.709183,-149.668091,,,
729717161.949373,0.044995,1.965871,105.935489,-0.036896,0.002487,0.980774,-0.019746,0.019248,0.002724,90.696594,35.709183,-149.668091,,,
729717161.9496,0.044996,1.965868,141.47184,-0.036896,0.002487,0.980774,-0.019746,0.019248,0.002724,90.696594,35.709183,-149.668091,,,
729717161.953249,0.038477,1.968735,102.856791,-0.036057,0.011215,0.979477,-0.022326,0.009067,-0.012872,90.696594,35.709183,-149.668091,,,
729717161.954726,0.038477,1.968738,105.933642,-0.036057,0.011215,0.979477,-0.022326,0.009067,-0.012872,90.696594,35.709183,-149.668091,,,
729717161.954896,0.038478,1.968735,141.469994,-0.036057,0.011215,0.979477,-0.022326,0.009067,-0.012872,90.696594,35.709183,-149.668091,,,
729717161.955102,0.038477,1.968735,102.856791,-0.036057,0.011215,0.979477,-0.022326,0.009067,-0.012872,90.696594,35.709183,-149.668091,,,
729717161.955879,0.030902,1.96858,105.929387,-0.036057,0.011215,0.979477,-0.022326,0.009067,-0.012872,90.696594,35.709183,-149.668091,,,
729717161.956235,0.030903,1.968577,141.465739,-0.036057,0.011215,0.979477,-0.022326,0.009067,-0.012872,90.696594,35.709183,-149.668091,,,
729717161.959094,0.030902,1.968577,102.852536,-0.036057,0.011215,0.979477,-0.022326,0.009067,-0.012872,90.696594,35.709183,-149.668091,,,
729717161.959321,0.030902,1.96858,105.929387,-0.036057,0.011215,0.979477,-0.022326,0.009067,-0.012872,90.696594,35.709183,-149.668091,,,
729717161.959506,0.030903,1.968577,141.465739,-0.036057,0.011215,0.979477,-0.022326,0.009067,-0.012872,90.696594,35.709183,-149.668091,,,
729717161.963891,0.023643,1.9665,102.846529,-0.031372,0.011902,0.982132,-0.024184,-0.009078,-0.025195,90.696594,35.709183,-149.668091,,,
729717161.966817,0.023644,1.966504,105.923379,-0.031372,0.011902,0.982132,-0.024184,-0.009078,-0.025195,90.65918,35.823929,-149.723663,,,
729717161.967066,0.015823,1.961314,141.452636,-0.031372,0.011902,0.982132,-0.024184,-0.009078,-0.025195,90.65918,35.823929,-149.723663,,,
729717161.968123,0.015821,1.961314,102.839434,-0.031372,0.011902,0.982132,-0.024184,-0.009078,-0.025195,90.65918,35.823929,-149.723663,,,
729717161.968414,0.015821,1.961314,102.839434,-0.031372,0.011902,0.982132,-0.024184,-0.009078,-0.025195,90.65918,35.823929,-149.723663,,,
729717161.969193,0.015822,1.961317,105.916284,-0.031372,0.011902,0.982132,-0.024184,-0.009078,-0.025195,90.65918,35.823929,-149.723663,,,
729717161.969566,0.015823,1.961314,141.452636,-0.031372,0.011902,0.982132,-0.024184,-0.009078,-0.025195,90.65918,35.823929,-149.723663,,,
729717161.972589,0.008616,1.955198,102.831941,-0.034622,0.007187,0.983795,-0.021913,-0.018235,-0.027912,90.65918,35.823929,-149.723663,,,
729717161.973333,0.008617,1.955201,105.908792,-0.034622,0.007187,0.983795,-0.021913,-0.018235,-0.027912,90.65918,35.823929,-149.723663,,,
729717161.973497,0.008618,1.955198,141.445143,-0.034622,0.007187,0.983795,-0.021913,-0.018235,-0.027912,90.65918,35.823929,-149.723663,,,
729717161.975273,0.008616,1.955198,102.831941,-0.034622,0.007187,0.983795,-0.021913,-0.018235,-0.027912,90.65918,35.823929,-149.723663,,,
729717161.976184,0.001515,1.949681,105.901379,-0.034622,0.007187,0.983795,-0.021913,-0.018235,-0.027912,90.65918,35.823929,-149.723663,,,
729717161.976338,0.001516,1.949678,141.437731,-0.034622,0.007187,0.983795,-0.021913,-0.018235,-0.027912,90.65918,35.823929,-149.723663,,,
729717161.979274,0.001514,1.949678,102.824528,-0.034622,0.007187,0.983795,-0.021913,-0.018235,-0.027912,90.65918,35.823929,-149.723663,,,
729717161.979499,0.001515,1.949681,105.901379,-0.034622,0.007187,0.983795,-0.021913,-0.018235,-0.027912,90.65918,35.823929,-149.723663,,,
729717161.97965,0.001516,1.949678,141.437731,-0.034622,0.007187,0.983795,-0.021913,-0.018235,-0.027912,90.65918,35.823929,-149.723663,,,
729717161.982851,-0.005514,1.945748,102.817432,-0.035385,0.000977,0.990692,-0.022652,-0.00951,-0.025765,90.65918,35.823929,-149.723663,,,
729717161.984067,-0.005514,1.945752,105.894283,-0.035385,0.000977,0.990692,-0.022652,-0.00951,-0.025765,90.65918,35.823929,-149.723663,,,
729717161.984213,-0.005513,1.945749,141.430633,-0.035385,0.000977,0.990692,-0.022652,-0.00951,-0.025765,90.65918,35.823929,-149.723663,,,
729717161.98521,-0.005514,1.945748,102.817432,-0.035385,0.000977,0.990692,-0.022652,-0.00951,-0.025765,90.65918,35.823929,-149.723663,,,
729717161.985983,-0.01308,1.943324,105.888499,-0.035385,0.000977,0.990692,-0.022652,-0.00951,-0.025765,90.65918,35.823929,-149.723663,,,
729717161.986255,-0.013079,1.943321,141.424854,-0.035385,0.000977,0.990692,-0.022652,-0.00951,-0.025765,90.65918,35.823929,-149.723663,,,
729717161.989256,-0.013081,1.943321,102.811648,-0.035385,0.000977,0.990692,-0.022652,-0.00951,-0.025765,90.65918,35.823929,-149.723663,,,
729717161.98955,-0.01308,1.943324,105.888499,-0.035385,0.000977,0.990692,-0.022652,-0.00951,-0.025765,90.65918,35.823929,-149.723663,,,
729717161.989733,-0.013079,1.943321,141.424854,-0.035385,0.000977,0.990692,-0.022652,-0.00951,-0.025765,90.65918,35.823929,-149.723663,,,
729717161.99426,-0.021412,1.943771,102.807515,-0.032516,0.001495,0.993286,-0.030126,0.011343,-0.014613,90.65918,35.823929,-149.723663,,,
729717161.996104,-0.021411,1.943774,105.884366,-0.032516,0.001495,0.993286,-0.030126,0.011343,-0.014613,90.65918,35.823929,-149.723663,,,
729717161.996279,-0.030666,1.948674,141.418282,-0.032516,0.001495,0.993286,-0.030126,0.011343,-0.014613,90.65918,35.823929,-149.723663,,,
729717161.997114,-0.030667,1.948673,102.805076,-0.032516,0.001495,0.993286,-0.030126,0.011343,-0.014613,90.65918,35.823929,-149.723663,,,
729717161.998571,-0.030667,1.948673,102.805076,-0.032516,0.001495,0.993286,-0.030126,0.011343,-0.014613,90.65918,35.823929,-149.723663,,,
729717161.999403,-0.030667,1.948676,105.881927,-0.032516,0.001495,0.993286,-0.030126,0.011343,-0.014613,90.65918,35.823929,-149.723663,,,
729717161.999585,-0.030666,1.948674,141.418282,-0.032516,0.001495,0.993286,-0.030126,0.011343,-0.014613,90.65918,35.823929,-149.723663,,,
729717162.003081,-0.039972,1.95674,102.804187,-0.033798,0.002365,0.996765,-0.034833,0.036424,-0.003974,90.65918,35.823929,-149.723663,,,
729717162.004215,-0.039971,1.956743,105.881038,-0.033798,0.002365,0.996765,-0.034833,0.036424,-0.003974,90.65918,35.823929,-149.723663,,,
729717162.004378,-0.03997,1.95674,141.417394,-0.033798,0.002365,0.996765,-0.034833,0.036424,-0.003974,90.65918,35.823929,-149.723663,,,
729717162.005613,-0.039972,1.95674,102.804187,-0.033798,0.002365,0.996765,-0.034833,0.036424,-0.003974,90.53038,36.0867,-149.815903,,,
729717162.006725,-0.050567,1.968156,105.882147,-0.033798,0.002365,0.996765,-0.034833,0.036424,-0.003974,90.53038,36.0867,-149.815903,,,
729717162.006897,-0.050566,1.968153,141.418499,-0.033798,0.002365,0.996765,-0.034833,0.036424,-0.003974,90.53038,36.0867,-149.815903,,,
729717162.009207,-0.050567,1.968152,102.805296,-0.033798,0.002365,0.996765,-0.034833,0.036424,-0.003974,90.53038,36.0867,-149.815903,,,
729717162.009428,-0.050567,1.968156,105.882147,-0.033798,0.002365,0.996765,-0.034833,0.036424,-0.003974,90.53038,36.0867,-149.815903,,,
729717162.009579,-0.050566,1.968153,141.418499,-0.033798,0.002365,0.996765,-0.034833,0.036424,-0.003974,90.53038,36.0867,-149.815903,,,
729717162.013735,-0.061007,1.981924,102.808268,-0.035843,0.002487,0.996643,-0.036217,0.052685,0.00899,90.53038,36.0867,-149.815903,,,
729717162.015796,-0.061007,1.981928,105.885118,-0.035843,0.002487,0.996643,-0.036217,0.052685,0.00899,90.53038,36.0867,-149.815903,,,
729717162.015971,-0.071424,1.997298,141.424959,-0.035843,0.002487,0.996643,-0.036217,0.052685,0.00899,90.53038,36.0867,-149.815903,,,
729717162.016664,-0.071425,1.997298,102.811753,-0.035843,0.002487,0.996643,-0.036217,0.052685,0.00899,90.53038,36.0867,-149.815903,,,
729717162.016821,-0.071424,1.997298,141.424959,-0.035843,0.002487,0.996643,-0.036217,0.052685,0.00899,90.53038,36.0867,-149.815903,,,
729717162.018616,-0.071425,1.997298,102.811753,-0.035843,0.002487,0.996643,-0.036217,0.052685,0.00899,90.53038,36.0867,-149.815903,,,
729717162.019387,-0.071425,1.997301,105.888603,-0.035843,0.002487,0.996643,-0.036217,0.052685,0.00899,90.53038,36.0867,-149.815903,,,
729717162.019566,-0.071424,1.997298,141.424959,-0.035843,0.002487,0.996643,-0.036217,0.052685,0.00899,90.53038,36.0867,-149.815903,,,
729717162.022792,-0.082811,2.012457,102.815679,-0.03833,0.000153,0.991486,-0.040637,0.053868,0.01181,90.53038,36.0867,-149.815903,,,
729717162.023617,-0.082811,2.01246,105.89253,-0.03833,0.000153,0.991486,-0.040637,0.053868,0.01181,90.53038,36.0867,-149.815903,,,
729717162.023754,-0.08281,2.012458,141.428886,-0.03833,0.000153,0.991486,-0.040637,0.053868,0.01181,90.53038,36.0867,-149.815903,,,
729717162.025219,-0.082811,2.012457,102.815679,-0.03833,0.000153,0.991486,-0.040637,0.053868,0.01181,90.53038,36.0867,-149.815903,,,
729717162.026203,-0.092811,2.026622,105.89656,-0.03833,0.000153,0.991486,-0.040637,0.053868,0.01181,90.53038,36.0867,-149.815903,,,
729717162.026367,-0.09281,2.026619,141.432916,-0.03833,0.000153,0.991486,-0.040637,0.053868,0.01181,90.53038,36.0867,-149.815903,,,
729717162.029135,-0.092811,2.026618,102.819709,-0.03833,0.000153,0.991486,-0.040637,0.053868,0.01181,90.53038,36.0867,-149.815903,,,
729717162.029363,-0.092811,2.026622,105.89656,-0.03833,0.000153,0.991486,-0.040637,0.053868,0.01181,90.53038,36.0867,-149.815903,,,
729717162.029528,-0.09281,2.026619,141.432916,-0.03833,0.000153,0.991486,-0.040637,0.053868,0.01181,90.53038,36.0867,-149.815903,,,
729717162.032801,-0.104255,2.038811,102.822646,-0.040756,0.000687,0.989761,-0.037445,0.042835,0.004317,90.53038,36.0867,-149.815903,,,
729717162.033766,-0.104254,2.038814,105.899496,-0.040756,0.000687,0.989761,-0.037445,0.042835,0.004317,90.53038,36.0867,-149.815903,,,
729717162.033926,-0.104254,2.038812,141.435853,-0.040756,0.000687,0.989761,-0.037445,0.042835,0.004317,90.53038,36.0867,-149.815903,,,
729717162.035223,-0.104255,2.038811,102.822646,-0.040756,0.000687,0.989761,-0.037445,0.042835,0.004317,90.53038,36.0867,-149.815903,,,
729717162.036097,-0.11198,2.048724,105.900918,-0.040756,0.000687,0.989761,-0.037445,0.042835,0.004317,90.53038,36.0867,-149.815903,,,
729717162.036261,-0.111979,2.048721,141.437274,-0.040756,0.000687,0.989761,-0.037445,0.042835,0.004317,90.53038,36.0867,-149.815903,,,
729717162.039157,-0.11198,2.048721,102.824067,-0.040756,0.000687,0.989761,-0.037445,0.042835,0.004317,90.53038,36.0867,-149.815903,,,
729717162.03937,-0.11198,2.048724,105.900918,-0.040756,0.000687,0.989761,-0.037445,0.042835,0.004317,90.53038,36.0867,-149.815903,,,
729717162.039532,-0.111979,2.048721,141.437274,-0.040756,0.000687,0.989761,-0.037445,0.042835,0.004317,90.53038,36.0867,-149.815903,,,
729717162.043752,-0.120975,2.056811,102.823841,-0.036469,0.002579,0.991486,-0.029128,0.027269,-0.006867,90.53038,36.0867,-149.815903,,,
729717162.045644,-0.120975,2.056814,105.900691,-0.036469,0.002579,0.991486,-0.029128,0.027269,-0.006867,90.53038,36.0867,-149.815903,,,
729717162.045861,-0.126423,2.062391,141.434612,-0.036469,0.002579,0.991486,-0.029128,0.027269,-0.006867,90.53038,36.0867,-149.815903,,,
729717162.046781,-0.126425,2.062391,102.821406,-0.036469,0.002579,0.991486,-0.029128,0.027269,-0.006867,90.625488,36.105667,-149.698425,,,
729717162.047129,-0.126423,2.062391,141.434612,-0.036469,0.002579,0.991486,-0.029128,0.027269,-0.006867,90.625488,36.105667,-149.698425,,,
729717162.048583,-0.126425,2.062391,102.821406,-0.036469,0.002579,0.991486,-0.029128,0.027269,-0.006867,90.625488,36.105667,-149.698425,,,
729717162.049639,-0.126424,2.062394,105.898257,-0.036469,0.002579,0.991486,-0.029128,0.027269,-0.006867,90.625488,36.105667,-149.698425,,,
729717162.049808,-0.126423,2.062391,141.434612,-0.036469,0.002579,0.991486,-0.029128,0.027269,-0.006867,90.625488,36.105667,-149.698425,,,
729717162.05282,-0.132577,2.06601,102.81639,-0.033707,0.003235,0.99054,-0.01908,0.011657,-0.024517,90.625488,36.105667,-149.698425,,,
729717162.054021,-0.132577,2.066013,105.893241,-0.033707,0.003235,0.99054,-0.01908,0.011657,-0.024517,90.625488,36.105667,-149.698425,,,
729717162.054174,-0.132576,2.06601,141.429595,-0.033707,0.003235,0.99054,-0.01908,0.011657,-0.024517,90.625488,36.105667,-149.698425,,,
729717162.055206,-0.132577,2.06601,102.81639,-0.033707,0.003235,0.99054,-0.01908,0.011657,-0.024517,90.625488,36.105667,-149.698425,,,
729717162.055903,-0.137765,2.068299,105.886259,-0.033707,0.003235,0.99054,-0.01908,0.011657,-0.024517,90.625488,36.105667,-149.698425,,,
729717162.056239,-0.137764,2.068297,141.422615,-0.033707,0.003235,0.99054,-0.01908,0.011657,-0.024517,90.625488,36.105667,-149.698425,,,
729717162.059113,-0.137766,2.068296,102.809408,-0.033707,0.003235,0.99054,-0.01908,0.011657,-0.024517,90.625488,36.105667,-149.698425,,,
729717162.059332,-0.137765,2.068299,105.886259,-0.033707,0.003235,0.99054,-0.01908,0.011657,-0.024517,90.625488,36.105667,-149.698425,,,
729717162.059502,-0.137764,2.068297,141.422615,-0.033707,0.003235,0.99054,-0.01908,0.011657,-0.024517,90.625488,36.105667,-149.698425,,,
729717162.062377,-0.143724,2.069881,102.801155,-0.03183,0.001785,0.988968,-0.018651,0.007035,-0.033372,90.625488,36.105667,-149.698425,,,
729717162.062937,-0.143724,2.069885,105.878006,-0.03183,0.001785,0.988968,-0.018651,0.007035,-0.033372,90.625488,36.105667,-149.698425,,,
729717162.063091,-0.143723,2.069882,141.414362,-0.03183,0.001785,0.988968,-0.018651,0.007035,-0.033372,90.625488,36.105667,-149.698425,,,
729717162.065301,-0.143724,2.069881,102.801155,-0.03183,0.001785,0.988968,-0.018651,0.007035,-0.033372,90.625488,36.105667,-149.698425,,,
729717162.065972,-0.149181,2.070139,105.868847,-0.03183,0.001785,0.988968,-0.018651,0.007035,-0.033372,90.625488,36.105667,-149.698425,,,
729717162.066267,-0.14918,2.070136,141.405202,-0.03183,0.001785,0.988968,-0.018651,0.007035,-0.033372,90.625488,36.105667,-149.698425,,,
729717162.069261,-0.149182,2.070136,102.791996,-0.03183,0.001785,0.988968,-0.018651,0.007035,-0.033372,90.625488,36.105667,-149.698425,,,
729717162.069549,-0.149181,2.070139,105.868847,-0.03183,0.001785,0.988968,-0.018651,0.007035,-0.033372,90.625488,36.105667,-149.698425,,,
729717162.069743,-0.14918,2.070136,141.405202,-0.03183,0.001785,0.988968,-0.018651,0.007035,-0.033372,90.625488,36.105667,-149.698425,,,
729717162.074229,-0.155985,2.069933,102.78254,-0.029297,-0.002502,0.986008,-0.022143,0.000209,-0.035562,90.625488,36.105667,-149.698425,,,
729717162.076046,-0.155984,2.069936,105.859391,-0.029297,-0.002502,0.986008,-0.022143,0.000209,-0.035562,90.625488,36.105667,-149.698425,,,
729717162.076214,-0.162591,2.068229,141.386344,-0.029297,-0.002502,0.986008,-0.022143,0.000209,-0.035562,90.625488,36.105667,-149.698425,,,
729717162.076585,-0.162592,2.068229,102.773139,-0.029297,-0.002502,0.986008,-0.022143,0.000209,-0.035562,90.625488,36.105667,-149.698425,,,
729717162.078634,-0.162592,2.068229,102.773139,-0.029297,-0.002502,0.986008,-0.022143,0.000209,-0.035562,90.625488,36.105667,-149.698425,,,
729717162.079096,-0.162592,2.068232,105.84999,-0.029297,-0.002502,0.986008,-0.022143,0.000209,-0.035562,90.625488,36.105667,-149.698425,,,
729717162.079571,-0.162591,2.068229,141.386344,-0.029297,-0.002502,0.986008,-0.022143,0.000209,-0.035562,90.625488,36.105667,-149.698425,,,
729717162.083034,-0.170661,2.067293,102.764279,-0.035034,-0.002258,0.983002,-0.026564,0.000398,-0.03195,90.625488,36.105667,-149.698425,,,
729717162.084249,-0.170661,2.067296,105.84113,-0.035034,-0.002258,0.983002,-0.026564,0.000398,-0.03195,90.625488,36.105667,-149.698425,,,
729717162.084398,-0.17066,2.067293,141.377483,-0.035034,-0.002258,0.983002,-0.026564,0.000398,-0.03195,90.625488,36.105667,-149.698425,,,
729717162.085127,-0.170661,2.067293,102.764279,-0.035034,-0.002258,0.983002,-0.026564,0.000398,-0.03195,90.625488,36.105667,-149.698425,,,
729717162.086007,-0.177611,2.06689,105.832914,-0.035034,-0.002258,0.983002,-0.026564,0.000398,-0.03195,90.625488,36.105667,-149.698425,,,
729717162.086224,-0.17761,2.066887,141.369267,-0.035034,-0.002258,0.983002,-0.026564,0.000398,-0.03195,90.625488,36.105667,-149.698425,,,
729717162.089381,-0.177612,2.066887,102.756063,-0.035034,-0.002258,0.983002,-0.026564,0.000398,-0.03195,90.854004,35.947174,-149.855545,,,
729717162.09006,-0.177611,2.06689,105.832914,-0.035034,-0.002258,0.983002,-0.026564,0.000398,-0.03195,90.854004,35.947174,-149.855545,,,
729717162.090202,-0.17761,2.066887,141.369267,-0.035034,-0.002258,0.983002,-0.026564,0.000398,-0.03195,90.854004,35.947174,-149.855545,,,
729717162.092624,-0.186358,2.068204,102.748122,-0.038986,-0.003204,0.98938,-0.030224,0.011345,-0.03019,90.854004,35.947174,-149.855545,,,
729717162.093529,-0.186358,2.068207,105.824973,-0.038986,-0.003204,0.98938,-0.030224,0.011345,-0.03019,90.854004,35.947174,-149.855545,,,
729717162.09369,-0.186357,2.068205,141.361326,-0.038986,-0.003204,0.98938,-0.030224,0.011345,-0.03019,90.854004,35.947174,-149.855545,,,
729717162.0953,-0.186358,2.068204,102.748122,-0.038986,-0.003204,0.98938,-0.030224,0.011345,-0.03019,90.854004,35.947174,-149.855545,,,
729717162.095579,-0.186358,2.068207,105.824973,-0.038986,-0.003204,0.98938,-0.030224,0.011345,-0.03019,90.854004,35.947174,-149.855545,,,
729717162.09626,-0.193811,2.072424,141.354517,-0.038986,-0.003204,0.98938,-0.030224,0.011345,-0.03019,90.854004,35.947174,-149.855545,,,
729717162.098926,-0.193813,2.072423,102.741313,-0.038986,-0.003204,0.98938,-0.030224,0.011345,-0.03019,90.854004,35.947174,-149.855545,,,
729717162.099169,-0.193812,2.072426,105.818164,-0.038986,-0.003204,0.98938,-0.030224,0.011345,-0.03019,90.854004,35.947174,-149.855545,,,
729717162.09958,-0.193811,2.072424,141.354517,-0.038986,-0.003204,0.98938,-0.030224,0.011345,-0.03019,90.854004,35.947174,-149.855545,,,
729717162.104058,-0.201118,2.079579,102.735988,-0.040649,-0.006424,0.998505,-0.023348,0.034735,-0.019562,90.854004,35.947174,-149.855545,,,
729717162.105925,-0.201117,2.079582,105.812839,-0.040649,-0.006424,0.998505,-0.023348,0.034735,-0.019562,90.854004,35.947174,-149.855545,,,
729717162.106082,-0.207365,2.09212,141.345422,-0.040649,-0.006424,0.998505,-0.023348,0.034735,-0.019562,90.854004,35.947174,-149.855545,,,
729717162.106977,-0.207367,2.09212,102.73222,-0.040649,-0.006424,0.998505,-0.023348,0.034735,-0.019562,90.854004,35.947174,-149.855545,,,
729717162.10857,-0.207367,2.09212,102.73222,-0.040649,-0.006424,0.998505,-0.023348,0.034735,-0.019562,90.854004,35.947174,-149.855545,,,
729717162.109445,-0.207366,2.092123,105.809071,-0.040649,-0.006424,0.998505,-0.023348,0.034735,-0.019562,90.854004,35.947174,-149.855545,,,
729717162.109597,-0.207365,2.09212,141.345422,-0.040649,-0.006424,0.998505,-0.023348,0.034735,-0.019562,90.854004,35.947174,-149.855545,,,
729717162.112862,-0.214101,2.107325,102.730898,-0.04361,-0.009811,1.006622,-0.021729,0.060322,-0.002353,90.854004,35.947174,-149.855545,,,
729717162.113891,-0.214101,2.107328,105.807749,-0.04361,-0.009811,1.006622,-0.021729,0.060322,-0.002353,90.854004,35.947174,-149.855545,,,
729717162.114052,-0.2141,2.107325,141.344101,-0.04361,-0.009811,1.006622,-0.021729,0.060322,-0.002353,90.854004,35.947174,-149.855545,,,
729717162.115274,-0.214101,2.107325,102.730898,-0.04361,-0.009811,1.006622,-0.021729,0.060322,-0.002353,90.854004,35.947174,-149.855545,,,
729717162.115591,-0.214101,2.107328,105.807749,-0.04361,-0.009811,1.006622,-0.021729,0.060322,-0.002353,90.854004,35.947174,-149.855545,,,
729717162.116255,-0.219548,2.125514,141.345201,-0.04361,-0.009811,1.006622,-0.021729,0.060322,-0.002353,90.854004,35.947174,-149.855545,,,
729717162.119214,-0.21955,2.125513,102.731998,-0.04361,-0.009811,1.006622,-0.021729,0.060322,-0.002353,90.854004,35.947174,-149.855545,,,
729717162.119966,-0.219549,2.125517,105.808849,-0.04361,-0.009811,1.006622,-0.021729,0.060322,-0.002353,90.854004,35.947174,-149.855545,,,
729717162.120148,-0.219548,2.125514,141.345201,-0.04361,-0.009811,1.006622,-0.021729,0.060322,-0.002353,90.854004,35.947174,-149.855545,,,
729717162.123707,-0.226519,2.145786,102.734977,-0.040146,-0.008865,1.006561,-0.024144,0.076659,0.010609,90.854004,35.947174,-149.855545,,,
729717162.125469,-0.226518,2.145789,105.811828,-0.040146,-0.008865,1.006561,-0.024144,0.076659,0.010609,90.854004,35.947174,-149.855545,,,
729717162.125632,-0.232543,2.166422,141.352808,-0.040146,-0.008865,1.006561,-0.024144,0.076659,0.010609,90.854004,35.947174,-149.855545,,,
729717162.126257,-0.232545,2.166422,102.739605,-0.040146,-0.008865,1.006561,-0.024144,0.076659,0.010609,90.854004,35.947174,-149.855545,,,
729717162.126418,-0.232543,2.166422,141.352808,-0.040146,-0.008865,1.006561,-0.024144,0.076659,0.010609,90.854004,35.947174,-149.855545,,,
729717162.129281,-0.232545,2.166422,102.739605,-0.040146,-0.008865,1.006561,-0.024144,0.076659,0.010609,90.986145,36.143906,-149.564423,,,
729717162.130457,-0.232544,2.166425,105.816456,-0.040146,-0.008865,1.006561,-0.024144,0.076659,0.010609,90.986145,36.143906,-149.564423,,,
729717162.130627,-0.232543,2.18672,141.357767,-0.038239,-0.005981,1.002548,-0.027528,0.069621,0.012727,90.986145,36.143906,-149.564423,,,
729717162.132953,-0.240616,2.18672,102.744566,-0.038239,-0.005981,1.002548,-0.027528,0.069621,0.012727,90.986145,36.143906,-149.564423,,,
729717162.134126,-0.240615,2.186723,105.821416,-0.038239,-0.005981,1.002548,-0.027528,0.069621,0.012727,90.986145,36.143906,-149.564423,,,
729717162.134288,-0.240615,2.18672,141.357767,-0.038239,-0.005981,1.002548,-0.027528,0.069621,0.012727,90.986145,36.143906,-149.564423,,,
729717162.135164,-0.240616,2.18672,102.744566,-0.038239,-0.005981,1.002548,-0.027528,0.069621,0.012727,90.986145,36.143906,-149.564423,,,
729717162.135605,-0.240615,2.186723,105.821416,-0.038239,-0.005981,1.002548,-0.027528,0.069621,0.012727,90.986145,36.143906,-149.564423,,,
729717162.13628,-0.247148,2.203438,141.362213,-0.038239,-0.005981,1.002548,-0.027528,0.069621,0.012727,90.986145,36.143906,-149.564423,,,
729717162.139414,-0.247149,2.203438,102.749007,-0.038239,-0.005981,1.002548,-0.027528,0.069621,0.012727,90.986145,36.143906,-149.564423,,,
729717162.140345,-0.247148,2.203441,105.825857,-0.038239,-0.005981,1.002548,-0.027528,0.069621,0.012727,90.986145,36.143906,-149.564423,,,
729717162.140539,-0.247148,2.203438,141.362213,-0.038239,-0.005981,1.002548,-0.027528,0.069621,0.012727,90.986145,36.143906,-149.564423,,,
729717162.14275,-0.254888,2.218307,102.753442,-0.03952,-0.002441,1.000793,-0.024902,0.048015,0.01263,90.986145,36.143906,-149.564423,,,
729717162.143757,-0.254887,2.21831,105.830293,-0.03952,-0.002441,1.000793,-0.024902,0.048015,0.01263,90.986145,36.143906,-149.564423,,,
729717162.143931,-0.254887,2.218307,141.366647,-0.03952,-0.002441,1.000793,-0.024902,0.048015,0.01263,90.986145,36.143906,-149.564423,,,
729717162.145191,-0.254888,2.218307,102.753442,-0.03952,-0.002441,1.000793,-0.024902,0.048015,0.01263,90.986145,36.143906,-149.564423,,,
729717162.145594,-0.254887,2.21831,105.830293,-0.03952,-0.002441,1.000793,-0.024902,0.048015,0.01263,90.986145,36.143906,-149.564423,,,
729717162.146245,-0.261513,2.226931,141.3704,-0.03952,-0.002441,1.000793,-0.024902,0.048015,0.01263,90.986145,36.143906,-149.564423,,,
729717162.14934,-0.261514,2.22693,102.757194,-0.03952,-0.002441,1.000793,-0.024902,0.048015,0.01263,90.986145,36.143906,-149.564423,,,
729717162.15002,-0.261513,2.226933,105.834045,-0.03952,-0.002441,1.000793,-0.024902,0.048015,0.01263,90.986145,36.143906,-149.564423,,,
729717162.150164,-0.261513,2.226931,141.3704,-0.03952,-0.002441,1.000793,-0.024902,0.048015,0.01263,90.986145,36.143906,-149.564423,,,
729717162.15347,-0.269062,2.232583,102.760344,-0.03775,0.001694,1.000015,-0.026409,0.012871,0.008277,90.986145,36.143906,-149.564423,,,
729717162.15521,-0.269062,2.232586,105.837195,-0.03775,0.001694,1.000015,-0.026409,0.012871,0.008277,90.986145,36.143906,-149.564423,,,
729717162.155373,-0.269061,2.232583,141.37355,-0.03775,0.001694,1.000015,-0.026409,0.012871,0.008277,90.986145,36.143906,-149.564423,,,
729717162.155577,-0.269062,2.232583,102.760344,-0.03775,0.001694,1.000015,-0.026409,0.012871,0.008277,90.986145,36.143906,-149.564423,,,
729717162.155997,-0.276731,2.232134,105.839036,-0.03775,0.001694,1.000015,-0.026409,0.012871,0.008277,90.986145,36.143906,-149.564423,,,
729717162.156146,-0.27673,2.232131,141.375391,-0.03775,0.001694,1.000015,-0.026409,0.012871,0.008277,90.986145,36.143906,-149.564423,,,
729717162.158957,-0.276731,2.232131,102.762185,-0.03775,0.001694,1.000015,-0.026409,0.012871,0.008277,90.986145,36.143906,-149.564423,,,
729717162.159167,-0.276731,2.232134,105.839036,-0.03775,0.001694,1.000015,-0.026409,0.012871,0.008277,90.986145,36.143906,-149.564423,,,
729717162.159536,-0.27673,2.232131,141.375391,-0.03775,0.001694,1.000015,-0.026409,0.012871,0.008277,90.986145,36.143906,-149.564423,,,
729717162.163939,-0.285181,2.229319,102.762504,-0.032761,0.004532,1.000244,-0.029325,-0.012672,-0.002484,90.986145,36.143906,-149.564423,,,
729717162.165999,-0.28518,2.229322,105.839355,-0.032761,0.004532,1.000244,-0.029325,-0.012672,-0.002484,90.986145,36.143906,-149.564423,,,
729717162.166115,-0.293748,2.223741,141.375302,-0.032761,0.004532,1.000244,-0.029325,-0.012672,-0.002484,90.986145,36.143906,-149.564423,,,
729717162.166434,-0.293749,2.223741,102.762096,-0.032761,0.004532,1.000244,-0.029325,-0.012672,-0.002484,90.986145,36.143906,-149.564423,,,
729717162.169055,-0.293749,2.223741,102.762096,-0.032761,0.004532,1.000244,-0.029325,-0.012672,-0.002484,91.027771,36.07225,-149.695557,,,
729717162.16969,-0.293749,2.223744,105.838947,-0.032761,0.004532,1.000244,-0.029325,-0.012672,-0.002484,91.027771,36.07225,-149.695557,,,
729717162.169806,-0.293748,2.223741,141.375302,-0.032761,0.004532,1.000244,-0.029325,-0.012672,-0.002484,91.027771,36.07225,-149.695557,,,
729717162.172594,-0.303929,2.216376,102.76119,-0.029373,0.007889,1.005325,-0.035292,-0.024965,-0.006199,91.027771,36.07225,-149.695557,,,
729717162.173703,-0.303929,2.216379,105.838041,-0.029373,0.007889,1.005325,-0.035292,-0.024965,-0.006199,91.027771,36.07225,-149.695557,,,
729717162.173856,-0.303928,2.216376,141.374395,-0.029373,0.007889,1.005325,-0.035292,-0.024965,-0.006199,91.027771,36.07225,-149.695557,,,
729717162.175188,-0.303929,2.216376,102.76119,-0.029373,0.007889,1.005325,-0.035292,-0.024965,-0.006199,91.027771,36.07225,-149.695557,,,
729717162.175539,-0.303929,2.216379,105.838041,-0.029373,0.007889,1.005325,-0.035292,-0.024965,-0.006199,91.027771,36.07225,-149.695557,,,
729717162.1762,-0.314827,2.208307,141.373669,-0.029373,0.007889,1.005325,-0.035292,-0.024965,-0.006199,91.027771,36.07225,-149.695557,,,
729717162.178967,-0.314828,2.208307,102.760465,-0.029373,0.007889,1.005325,-0.035292,-0.024965,-0.006199,91.027771,36.07225,-149.695557,,,
729717162.17944,-0.314828,2.20831,105.837316,-0.029373,0.007889,1.005325,-0.035292,-0.024965,-0.006199,91.027771,36.07225,-149.695557,,,
729717162.179547,-0.314827,2.208307,141.373669,-0.029373,0.007889,1.005325,-0.035292,-0.024965,-0.006199,91.027771,36.07225,-149.695557,,,
729717162.182792,-0.326074,2.19893,102.759984,-0.026749,0.005539,1.013916,-0.038298,-0.032129,-0.004575,91.027771,36.07225,-149.695557,,,
729717162.183769,-0.326074,2.198933,105.836835,-0.026749,0.005539,1.013916,-0.038298,-0.032129,-0.004575,91.027771,36.07225,-149.695557,,,
729717162.183907,-0.326073,2.19893,141.373187,-0.026749,0.005539,1.013916,-0.038298,-0.032129,-0.004575,91.027771,36.07225,-149.695557,,,
729717162.185196,-0.326074,2.19893,102.759984,-0.026749,0.005539,1.013916,-0.038298,-0.032129,-0.004575,91.027771,36.07225,-149.695557,,,
729717162.185591,-0.326074,2.198933,105.836835,-0.026749,0.005539,1.013916,-0.038298,-0.032129,-0.004575,91.027771,36.07225,-149.695557,,,
729717162.186229,-0.338422,2.191143,141.372828,-0.026749,0.005539,1.013916,-0.038298,-0.032129,-0.004575,91.027771,36.07225,-149.695557,,,
729717162.189137,-0.338424,2.191143,102.759622,-0.026749,0.005539,1.013916,-0.038298,-0.032129,-0.004575,91.027771,36.07225,-149.695557,,,
729717162.1898,-0.338423,2.191146,105.836473,-0.026749,0.005539,1.013916,-0.038298,-0.032129,-0.004575,91.027771,36.07225,-149.695557,,,
729717162.189949,-0.338422,2.191143,141.372828,-0.026749,0.005539,1.013916,-0.038298,-0.032129,-0.004575,91.027771,36.07225,-149.695557,,,
729717162.193012,-0.350825,2.184543,102.759213,-0.028946,0.001175,1.022217,-0.044008,-0.016317,-0.005133,91.027771,36.07225,-149.695557,,,
729717162.194272,-0.350825,2.184546,105.836064,-0.028946,0.001175,1.022217,-0.044008,-0.016317,-0.005133,91.027771,36.07225,-149.695557,,,
729717162.19442,-0.350824,2.184544,141.372417,-0.028946,0.001175,1.022217,-0.044008,-0.016317,-0.005133,91.027771,36.07225,-149.695557,,,
729717162.195125,-0.350825,2.184543,102.759213,-0.028946,0.001175,1.022217,-0.044008,-0.016317,-0.005133,91.027771,36.07225,-149.695557,,,
729717162.195599,-0.350825,2.184546,105.836064,-0.028946,0.001175,1.022217,-0.044008,-0.016317,-0.005133,91.027771,36.07225,-149.695557,,,
729717162.196226,-0.364403,2.179922,141.372316,-0.028946,0.001175,1.022217,-0.044008,-0.016317,-0.005133,91.027771,36.07225,-149.695557,,,
729717162.198925,-0.364404,2.179922,102.759111,-0.028946,0.001175,1.022217,-0.044008,-0.016317,-0.005133,91.027771,36.07225,-149.695557,,,
729717162.199359,-0.364404,2.179925,105.835962,-0.028946,0.001175,1.022217,-0.044008,-0.016317,-0.005133,91.027771,36.07225,-149.695557,,,
729717162.19954,-0.364403,2.179922,141.372316,-0.028946,0.001175,1.022217,-0.044008,-0.016317,-0.005133,91.027771,36.07225,-149.695557,,,
729717162.203576,-0.376956,2.175991,102.759474,-0.031219,-0.000488,1.025864,-0.042257,-0.008378,-0.001787,91.027771,36.07225,-149.695557,,,
729717162.205287,-0.376956,2.175994,105.836325,-0.031219,-0.000488,1.025864,-0.042257,-0.008378,-0.001787,91.027771,36.07225,-149.695557,,,
729717162.205455,-0.376955,2.175991,141.372679,-0.031219,-0.000488,1.025864,-0.042257,-0.008378,-0.001787,91.027771,36.07225,-149.695557,,,
729717162.205665,-0.376956,2.175991,102.759474,-0.031219,-0.000488,1.025864,-0.042257,-0.008378,-0.001787,91.027771,36.07225,-149.695557,,,
729717162.20631,-0.389028,2.173651,105.836754,-0.031219,-0.000488,1.025864,-0.042257,-0.008378,-0.001787,91.027771,36.07225,-149.695557,,,
729717162.206472,-0.389027,2.173648,141.373108,-0.031219,-0.000488,1.025864,-0.042257,-0.008378,-0.001787,91.027771,36.07225,-149.695557,,,
729717162.209116,-0.389029,2.173648,102.759903,-0.031219,-0.000488,1.025864,-0.042257,-0.008378,-0.001787,91.027771,36.07225,-149.695557,,,
729717162.20933,-0.389028,2.173651,105.836754,-0.031219,-0.000488,1.025864,-0.042257,-0.008378,-0.001787,91.027771,36.07225,-149.695557,,,
729717162.209503,-0.389027,2.173648,141.373108,-0.031219,-0.000488,1.025864,-0.042257,-0.008378,-0.001787,91.027771,36.07225,-149.695557,,,
729717162.213985,-0.399454,2.171872,102.761218,-0.032135,-0.00589,1.029846,-0.031382,-0.004253,0.004825,90.952393,36.394699,-149.376251,,,
729717162.216136,-0.399453,2.171875,105.838069,-0.032135,-0.00589,1.029846,-0.031382,-0.004253,0.004825,90.952393,36.394699,-149.376251,,,
729717162.216313,-0.40686,2.169642,141.377035,-0.032135,-0.00589,1.029846,-0.031382,-0.004253,0.004825,90.952393,36.394699,-149.376251,,,
729717162.216761,-0.406862,2.169642,102.763828,-0.032135,-0.00589,1.029846,-0.031382,-0.004253,0.004825,90.952393,36.394699,-149.376251,,,
729717162.218598,-0.406862,2.169642,102.763828,-0.032135,-0.00589,1.029846,-0.031382,-0.004253,0.004825,90.952393,36.394699,-149.376251,,,
729717162.219167,-0.406861,2.169645,105.840679,-0.032135,-0.00589,1.029846,-0.031382,-0.004253,0.004825,90.952393,36.394699,-149.376251,,,
729717162.219566,-0.40686,2.169642,141.377035,-0.032135,-0.00589,1.029846,-0.031382,-0.004253,0.004825,90.952393,36.394699,-149.376251,,,
729717162.222801,-0.412956,2.166072,102.768206,-0.039215,-0.013107,1.029175,-0.016648,-0.011041,0.017693,90.952393,36.394699,-149.376251,,,
729717162.223773,-0.412956,2.166075,105.845057,-0.039215,-0.013107,1.029175,-0.016648,-0.011041,0.017693,90.952393,36.394699,-149.376251,,,
729717162.223916,-0.412955,2.166072,141.381412,-0.039215,-0.013107,1.029175,-0.016648,-0.011041,0.017693,90.952393,36.394699,-149.376251,,,
729717162.2252,-0.412956,2.166072,102.768206,-0.039215,-0.013107,1.029175,-0.016648,-0.011041,0.017693,90.952393,36.394699,-149.376251,,,
729717162.22559,-0.412956,2.166075,105.845057,-0.039215,-0.013107,1.029175,-0.016648,-0.011041,0.017693,90.952393,36.394699,-149.376251,,,
729717162.226227,-0.414395,2.161658,141.387462,-0.039215,-0.013107,1.029175,-0.016648,-0.011041,0.017693,90.952393,36.394699,-149.376251,,,
729717162.22894,-0.414397,2.161657,102.774256,-0.039215,-0.013107,1.029175,-0.016648,-0.011041,0.017693,90.952393,36.394699,-149.376251,,,
729717162.229392,-0.414396,2.16166,105.851107,-0.039215,-0.013107,1.029175,-0.016648,-0.011041,0.017693,90.952393,36.394699,-149.376251,,,
729717162.229558,-0.414395,2.161658,141.387462,-0.039215,-0.013107,1.029175,-0.016648,-0.011041,0.017693,90.952393,36.394699,-149.376251,,,
729717162.233366,-0.415185,2.15638,102.780794,-0.037704,-0.012421,1.029938,0.000139,-0.015954,0.021718,90.952393,36.394699,-149.376251,,,
729717162.234913,-0.415184,2.156383,105.857645,-0.037704,-0.012421,1.029938,0.000139,-0.015954,0.021718,90.952393,36.394699,-149.376251,,,
729717162.235071,-0.415184,2.15638,141.394001,-0.037704,-0.012421,1.029938,0.000139,-0.015954,0.021718,90.952393,36.394699,-149.376251,,,
729717162.23527,-0.415185,2.15638,102.780794,-0.037704,-0.012421,1.029938,0.000139,-0.015954,0.021718,90.952393,36.394699,-149.376251,,,
729717162.235589,-0.415184,2.156383,105.857645,-0.037704,-0.012421,1.029938,0.000139,-0.015954,0.021718,90.952393,36.394699,-149.376251,,,
729717162.236232,-0.412389,2.149346,141.400507,-0.037704,-0.012421,1.029938,0.000139,-0.015954,0.021718,90.952393,36.394699,-149.376251,,,
729717162.2393,-0.41239,2.149345,102.7873,-0.037704,-0.012421,1.029938,0.000139,-0.015954,0.021718,90.952393,36.394699,-149.376251,,,
729717162.24,-0.41239,2.149349,105.864151,-0.037704,-0.012421,1.029938,0.000139,-0.015954,0.021718,90.952393,36.394699,-149.376251,,,
729717162.240169,-0.412389,2.149346,141.400507,-0.037704,-0.012421,1.029938,0.000139,-0.015954,0.021718,90.952393,36.394699,-149.376251,,,
729717162.242647,-0.410378,2.142056,102.793064,-0.034454,-0.007019,1.02301,0.010066,-0.023834,0.016859,90.952393,36.394699,-149.376251,,,
729717162.243687,-0.410378,2.142059,105.869915,-0.034454,-0.007019,1.02301,0.010066,-0.023834,0.016859,90.952393,36.394699,-149.376251,,,
729717162.243835,-0.410377,2.142057,141.40627,-0.034454,-0.007019,1.02301,0.010066,-0.023834,0.016859,90.952393,36.394699,-149.376251,,,
729717162.245201,-0.410378,2.142056,102.793064,-0.034454,-0.007019,1.02301,0.010066,-0.023834,0.016859,90.952393,36.394699,-149.376251,,,
