Time (sec),Pitch (deg),Roll (deg),Yaw(deg),X-Acceleration (g),Y-Acceleration (g),Z-Acceleration (g),Pitch Rate (deg/sec),Roll Rate (deg/sec),Yaw Rate (deg/sec),Magnetic Field in X direction (uT),Magnetic Field in Y direction (uT),Magnetic Field in Z Direction (uT),Latitude (deg),Longitude (deg),Altitude (m)
729717022.352848,-2.693293,0.650775,97.036595,0.003632,-0.051971,1.011459,-0.018821,0.027761,-0.052049,89.06691,38.855957,-147.513168,,,
729717022.353608,-2.693292,0.650779,100.113446,0.003632,-0.051971,1.011459,-0.018821,0.027761,-0.052049,89.06691,38.855957,-147.513168,,,
729717022.353817,-2.693292,0.650776,135.649799,0.003632,-0.051971,1.011459,-0.018821,0.027761,-0.052049,89.06691,38.855957,-147.513168,,,
729717022.358641,-2.698734,0.663188,97.024249,-0.010193,-0.055649,1.00708,-0.019284,0.05307,-0.041363,89.149338,38.946045,-147.56546,,,
729717022.361173,-2.698733,0.663191,100.101099,-0.010193,-0.055649,1.00708,-0.019284,0.05307,-0.041363,89.149338,38.946045,-147.56546,,,
729717022.361369,-2.704106,0.678898,135.626992,-0.010193,-0.055649,1.00708,-0.019284,0.05307,-0.041363,89.149338,38.946045,-147.56546,,,
729717022.361957,-2.704108,0.678897,97.01379,-0.010193,-0.055649,1.00708,-0.019284,0.05307,-0.041363,89.149338,38.946045,-147.56546,,,
729717022.362729,-2.704108,0.678897,97.01379,-0.010193,-0.055649,1.00708,-0.019284,0.05307,-0.041363,89.149338,38.946045,-147.56546,,,
729717022.363589,-2.704107,0.678901,100.09064,-0.010193,-0.055649,1.00708,-0.019284,0.05307,-0.041363,89.149338,38.946045,-147.56546,,,
729717022.363815,-2.704106,0.678898,135.626992,-0.010193,-0.055649,1.00708,-0.019284,0.05307,-0.041363,89.149338,38.946045,-147.56546,,,
729717022.367461,-2.710091,0.695025,97.005387,-0.021225,-0.053741,1.002502,-0.019459,0.061768,-0.026659,89.149338,38.946045,-147.56546,,,
729717022.368994,-2.71009,0.695028,100.082238,-0.021225,-0.053741,1.002502,-0.019459,0.061768,-0.026659,89.149338,38.946045,-147.56546,,,
729717022.369155,-2.716396,0.710338,135.612066,-0.021225,-0.053741,1.002502,-0.019459,0.061768,-0.026659,89.149338,38.946045,-147.56546,,,
729717022.369869,-2.716398,0.710337,96.998861,-0.021225,-0.053741,1.002502,-0.019459,0.061768,-0.026659,89.149338,38.946045,-147.56546,,,
729717022.370449,-2.716397,0.710341,100.075712,-0.021225,-0.053741,1.002502,-0.019459,0.061768,-0.026659,89.149338,38.946045,-147.56546,,,
729717022.370557,-2.716396,0.710338,135.612066,-0.021225,-0.053741,1.002502,-0.019459,0.061768,-0.026659,89.149338,38.946045,-147.56546,,,
729717022.372892,-2.716398,0.710337,96.998861,-0.021225,-0.053741,1.002502,-0.019459,0.061768,-0.026659,89.149338,38.946045,-147.56546,,,
729717022.373114,-2.716397,0.710341,100.075712,-0.021225,-0.053741,1.002502,-0.019459,0.061768,-0.026659,89.149338,38.946045,-147.56546,,,
729717022.373792,-2.716396,0.710338,135.612066,-0.021225,-0.053741,1.002502,-0.019459,0.061768,-0.026659,89.149338,38.946045,-147.56546,,,
729717022.37711,-2.721969,0.725097,96.993154,-0.025757,-0.050003,0.999863,-0.017247,0.052175,-0.021191,89.149338,38.946045,-147.56546,,,
729717022.378178,-2.721968,0.725101,100.070005,-0.025757,-0.050003,0.999863,-0.017247,0.052175,-0.021191,89.149338,38.946045,-147.56546,,,
729717022.378322,-2.721968,0.725098,135.60636,-0.025757,-0.050003,0.999863,-0.017247,0.052175,-0.021191,89.149338,38.946045,-147.56546,,,
729717022.379902,-2.726603,0.735022,96.987923,-0.025757,-0.050003,0.999863,-0.017247,0.052175,-0.021191,89.149338,38.946045,-147.56546,,,
729717022.380718,-2.726602,0.735026,100.064774,-0.025757,-0.050003,0.999863,-0.017247,0.052175,-0.021191,89.149338,38.946045,-147.56546,,,
729717022.380881,-2.726601,0.735023,135.601128,-0.025757,-0.050003,0.999863,-0.017247,0.052175,-0.021191,89.149338,38.946045,-147.56546,,,
729717022.382882,-2.726603,0.735022,96.987923,-0.025757,-0.050003,0.999863,-0.017247,0.052175,-0.021191,89.149338,38.946045,-147.56546,,,
729717022.383155,-2.726602,0.735026,100.064774,-0.025757,-0.050003,0.999863,-0.017247,0.052175,-0.021191,89.149338,38.946045,-147.56546,,,
729717022.383822,-2.726601,0.735023,135.601128,-0.025757,-0.050003,0.999863,-0.017247,0.052175,-0.021191,89.149338,38.946045,-147.56546,,,
729717022.387657,-2.727719,0.746147,96.983371,-0.032639,-0.051636,1.000473,0.000755,0.04059,-0.017157,89.149338,38.946045,-147.56546,,,
729717022.389055,-2.727718,0.74615,100.060222,-0.032639,-0.051636,1.000473,0.000755,0.04059,-0.017157,89.149338,38.946045,-147.56546,,,
729717022.389223,-2.726489,0.750012,135.592348,-0.032639,-0.051636,1.000473,0.000755,0.04059,-0.017157,89.149338,38.946045,-147.56546,,,
729717022.389425,-2.72649,0.750011,96.979143,-0.032639,-0.051636,1.000473,0.000755,0.04059,-0.017157,89.149338,38.946045,-147.56546,,,
729717022.389855,-2.726489,0.750015,100.055993,-0.032639,-0.051636,1.000473,0.000755,0.04059,-0.017157,89.149338,38.946045,-147.56546,,,
729717022.390483,-2.726489,0.750012,135.592348,-0.032639,-0.051636,1.000473,0.000755,0.04059,-0.017157,89.149338,38.946045,-147.56546,,,
729717022.392932,-2.72649,0.750011,96.979143,-0.032639,-0.051636,1.000473,0.000755,0.04059,-0.017157,89.149338,38.946045,-147.56546,,,
729717022.393148,-2.726489,0.750015,100.055993,-0.032639,-0.051636,1.000473,0.000755,0.04059,-0.017157,89.149338,38.946045,-147.56546,,,
729717022.393846,-2.726489,0.750012,135.592348,-0.032639,-0.051636,1.000473,0.000755,0.04059,-0.017157,89.149338,38.946045,-147.56546,,,
729717022.397517,-2.723879,0.756542,96.975448,-0.032242,-0.049545,1.003494,0.012668,0.020755,-0.015068,89.174591,39.088562,-147.483932,,,
729717022.399081,-2.723878,0.756545,100.052299,-0.032242,-0.049545,1.003494,0.012668,0.020755,-0.015068,89.174591,39.088562,-147.483932,,,
729717022.399244,-2.723877,0.756542,135.588654,-0.032242,-0.049545,1.003494,0.012668,0.020755,-0.015068,89.174591,39.088562,-147.483932,,,
729717022.399828,-2.718254,0.753725,96.97126,-0.032242,-0.049545,1.003494,0.012668,0.020755,-0.015068,89.174591,39.088562,-147.483932,,,
729717022.400268,-2.718254,0.753729,100.048111,-0.032242,-0.049545,1.003494,0.012668,0.020755,-0.015068,89.174591,39.088562,-147.483932,,,
729717022.400455,-2.718253,0.753726,135.584465,-0.032242,-0.049545,1.003494,0.012668,0.020755,-0.015068,89.174591,39.088562,-147.483932,,,
729717022.402939,-2.718254,0.753725,96.97126,-0.032242,-0.049545,1.003494,0.012668,0.020755,-0.015068,89.174591,39.088562,-147.483932,,,
729717022.403172,-2.718254,0.753729,100.048111,-0.032242,-0.049545,1.003494,0.012668,0.020755,-0.015068,89.174591,39.088562,-147.483932,,,
729717022.40382,-2.718253,0.753726,135.584465,-0.032242,-0.049545,1.003494,0.012668,0.020755,-0.015068,89.174591,39.088562,-147.483932,,,
729717022.406698,-2.715387,0.757711,96.968521,-0.034027,-0.04715,0.998413,0.007641,0.016025,-0.007516,89.174591,39.088562,-147.483932,,,
729717022.40732,-2.715387,0.757714,100.045372,-0.034027,-0.04715,0.998413,0.007641,0.016025,-0.007516,89.174591,39.088562,-147.483932,,,
729717022.407475,-2.715386,0.757711,135.581727,-0.034027,-0.04715,0.998413,0.007641,0.016025,-0.007516,89.174591,39.088562,-147.483932,,,
729717022.410009,-2.712808,0.754479,96.967139,-0.034027,-0.04715,0.998413,0.007641,0.016025,-0.007516,89.174591,39.088562,-147.483932,,,
729717022.410823,-2.712807,0.754482,100.04399,-0.034027,-0.04715,0.998413,0.007641,0.016025,-0.007516,89.174591,39.088562,-147.483932,,,
729717022.410987,-2.712806,0.754479,135.580346,-0.034027,-0.04715,0.998413,0.007641,0.016025,-0.007516,89.174591,39.088562,-147.483932,,,
729717022.412864,-2.712808,0.754479,96.967139,-0.034027,-0.04715,0.998413,0.007641,0.016025,-0.007516,89.174591,39.088562,-147.483932,,,
729717022.413171,-2.712807,0.754482,100.04399,-0.034027,-0.04715,0.998413,0.007641,0.016025,-0.007516,89.174591,39.088562,-147.483932,,,
729717022.413816,-2.712806,0.754479,135.580346,-0.034027,-0.04715,0.998413,0.007641,0.016025,-0.007516,89.174591,39.088562,-147.483932,,,
729717022.41819,-2.713077,0.757725,96.968004,-0.034332,-0.047684,0.999115,-0.001537,0.012673,0.005677,89.174591,39.088562,-147.483932,,,
729717022.420292,-2.713076,0.757729,100.044855,-0.034332,-0.047684,0.999115,-0.001537,0.012673,0.005677,89.174591,39.088562,-147.483932,,,
729717022.420485,-2.713633,0.756657,135.583916,-0.034332,-0.047684,0.999115,-0.001537,0.012673,0.005677,89.174591,39.088562,-147.483932,,,
729717022.420877,-2.713634,0.756656,96.970712,-0.034332,-0.047684,0.999115,-0.001537,0.012673,0.005677,89.174591,39.088562,-147.483932,,,
729717022.422876,-2.713634,0.756656,96.970712,-0.034332,-0.047684,0.999115,-0.001537,0.012673,0.005677,89.174591,39.088562,-147.483932,,,
729717022.423372,-2.713633,0.75666,100.047562,-0.034332,-0.047684,0.999115,-0.001537,0.012673,0.005677,89.174591,39.088562,-147.483932,,,
729717022.423821,-2.713633,0.756657,135.583916,-0.034332,-0.047684,0.999115,-0.001537,0.012673,0.005677,89.174591,39.088562,-147.483932,,,
729717022.42647,-2.714032,0.760443,96.974954,-0.032211,-0.048111,1.001404,-0.002434,0.016103,0.014987,89.174591,39.088562,-147.483932,,,
729717022.426869,-2.714032,0.760446,100.051805,-0.032211,-0.048111,1.001404,-0.002434,0.016103,0.014987,89.174591,39.088562,-147.483932,,,
729717022.427135,-2.714031,0.760443,135.588158,-0.032211,-0.048111,1.001404,-0.002434,0.016103,0.014987,89.174591,39.088562,-147.483932,,,
729717022.43002,-2.71666,0.763371,96.980081,-0.032211,-0.048111,1.001404,-0.002434,0.016103,0.014987,89.174591,39.088562,-147.483932,,,
729717022.430636,-2.716659,0.763374,100.056931,-0.032211,-0.048111,1.001404,-0.002434,0.016103,0.014987,89.174591,39.088562,-147.483932,,,
729717022.430799,-2.716659,0.763371,135.593283,-0.032211,-0.048111,1.001404,-0.002434,0.016103,0.014987,89.174591,39.088562,-147.483932,,,
729717022.432878,-2.71666,0.763371,96.980081,-0.032211,-0.048111,1.001404,-0.002434,0.016103,0.014987,89.174591,39.088562,-147.483932,,,
729717022.433166,-2.716659,0.763374,100.056931,-0.032211,-0.048111,1.001404,-0.002434,0.016103,0.014987,89.174591,39.088562,-147.483932,,,
729717022.433818,-2.716659,0.763371,135.593283,-0.032211,-0.048111,1.001404,-0.002434,0.016103,0.014987,89.174591,39.088562,-147.483932,,,
729717022.437312,-2.718485,0.767864,96.985254,-0.025894,-0.042618,1.004578,-0.007237,0.017836,0.014814,89.17308,38.947021,-147.416718,,,
729717022.438383,-2.718484,0.767867,100.062104,-0.025894,-0.042618,1.004578,-0.007237,0.017836,0.014814,89.17308,38.947021,-147.416718,,,
729717022.438529,-2.718484,0.767864,135.598457,-0.025894,-0.042618,1.004578,-0.007237,0.017836,0.014814,89.17308,38.947021,-147.416718,,,
729717022.4394,-2.718485,0.767864,96.985254,-0.025894,-0.042618,1.004578,-0.007237,0.017836,0.014814,89.17308,38.947021,-147.416718,,,
729717022.440033,-2.722898,0.772663,100.066385,-0.025894,-0.042618,1.004578,-0.007237,0.017836,0.014814,89.17308,38.947021,-147.416718,,,
729717022.440486,-2.722897,0.77266,135.602738,-0.025894,-0.042618,1.004578,-0.007237,0.017836,0.014814,89.17308,38.947021,-147.416718,,,
729717022.44296,-2.722898,0.77266,96.989534,-0.025894,-0.042618,1.004578,-0.007237,0.017836,0.014814,89.17308,38.947021,-147.416718,,,
729717022.443202,-2.722898,0.772663,100.066385,-0.025894,-0.042618,1.004578,-0.007237,0.017836,0.014814,89.17308,38.947021,-147.416718,,,
729717022.443842,-2.722897,0.77266,135.602738,-0.025894,-0.042618,1.004578,-0.007237,0.017836,0.014814,89.17308,38.947021,-147.416718,,,
729717022.447186,-2.726966,0.774051,96.992563,-0.024353,-0.037384,1.0,-0.014892,0.002749,0.006402,89.17308,38.947021,-147.416718,,,
729717022.448204,-2.726965,0.774055,100.069413,-0.024353,-0.037384,1.0,-0.014892,0.002749,0.006402,89.17308,38.947021,-147.416718,,,
729717022.448358,-2.726964,0.774052,135.605766,-0.024353,-0.037384,1.0,-0.014892,0.002749,0.006402,89.17308,38.947021,-147.416718,,,
729717022.449433,-2.731328,0.774939,96.994143,-0.024353,-0.037384,1.0,-0.014892,0.002749,0.006402,89.17308,38.947021,-147.416718,,,
729717022.449852,-2.731327,0.774943,100.070994,-0.024353,-0.037384,1.0,-0.014892,0.002749,0.006402,89.17308,38.947021,-147.416718,,,
729717022.450485,-2.731326,0.77494,135.607349,-0.024353,-0.037384,1.0,-0.014892,0.002749,0.006402,89.17308,38.947021,-147.416718,,,
729717022.452934,-2.731328,0.774939,96.994143,-0.024353,-0.037384,1.0,-0.014892,0.002749,0.006402,89.17308,38.947021,-147.416718,,,
729717022.453153,-2.731327,0.774943,100.070994,-0.024353,-0.037384,1.0,-0.014892,0.002749,0.006402,89.17308,38.947021,-147.416718,,,
729717022.453821,-2.731326,0.77494,135.607349,-0.024353,-0.037384,1.0,-0.014892,0.002749,0.006402,89.17308,38.947021,-147.416718,,,
729717022.45866,-2.734204,0.769838,96.994193,-0.025116,-0.040085,0.995605,-0.007503,-0.022487,-0.003439,89.17308,38.947021,-147.416718,,,
729717022.461166,-2.734203,0.769842,100.071043,-0.025116,-0.040085,0.995605,-0.007503,-0.022487,-0.003439,89.17308,38.947021,-147.416718,,,
729717022.46141,-2.735985,0.764109,135.606601,-0.025116,-0.040085,0.995605,-0.007503,-0.022487,-0.003439,89.17308,38.947021,-147.416718,,,
729717022.462138,-2.735986,0.764108,96.993394,-0.025116,-0.040085,0.995605,-0.007503,-0.022487,-0.003439,89.17308,38.947021,-147.416718,,,
729717022.462709,-2.735986,0.764108,96.993394,-0.025116,-0.040085,0.995605,-0.007503,-0.022487,-0.003439,89.17308,38.947021,-147.416718,,,
729717022.46367,-2.735986,0.764112,100.070245,-0.025116,-0.040085,0.995605,-0.007503,-0.022487,-0.003439,89.17308,38.947021,-147.416718,,,
729717022.463849,-2.735985,0.764109,135.606601,-0.025116,-0.040085,0.995605,-0.007503,-0.022487,-0.003439,89.17308,38.947021,-147.416718,,,
729717022.467803,-2.734696,0.75085,96.991677,-0.025543,-0.044373,0.995743,0.009191,-0.05023,-0.008449,89.17308,38.947021,-147.416718,,,
729717022.469577,-2.734695,0.750854,100.068527,-0.025543,-0.044373,0.995743,0.009191,-0.05023,-0.008449,89.17308,38.947021,-147.416718,,,
729717022.469743,-2.731672,0.73765,135.603044,-0.025543,-0.044373,0.995743,0.009191,-0.05023,-0.008449,89.17308,38.947021,-147.416718,,,
729717022.470195,-2.731673,0.73765,96.989837,-0.025543,-0.044373,0.995743,0.009191,-0.05023,-0.008449,89.17308,38.947021,-147.416718,,,
729717022.470559,-2.731672,0.73765,135.603044,-0.025543,-0.044373,0.995743,0.009191,-0.05023,-0.008449,89.17308,38.947021,-147.416718,,,
729717022.47293,-2.731673,0.73765,96.989837,-0.025543,-0.044373,0.995743,0.009191,-0.05023,-0.008449,89.17308,38.947021,-147.416718,,,
729717022.473414,-2.731673,0.737653,100.066688,-0.025543,-0.044373,0.995743,0.009191,-0.05023,-0.008449,89.17308,38.947021,-147.416718,,,
729717022.473827,-2.731672,0.73765,135.603044,-0.025543,-0.044373,0.995743,0.009191,-0.05023,-0.008449,89.17308,38.947021,-147.416718,,,
729717022.477125,-2.726191,0.718103,96.987393,-0.024475,-0.045166,0.998032,0.022237,-0.067083,-0.011246,89.17308,38.947021,-147.416718,,,
729717022.478748,-2.726191,0.718107,100.064243,-0.024475,-0.045166,0.998032,0.022237,-0.067083,-0.011246,89.100586,39.231796,-147.464874,,,
729717022.478913,-2.72619,0.718104,135.600597,-0.024475,-0.045166,0.998032,0.022237,-0.067083,-0.011246,89.100586,39.231796,-147.464874,,,
729717022.479809,-2.726191,0.718103,96.987393,-0.024475,-0.045166,0.998032,0.022237,-0.067083,-0.011246,89.100586,39.231796,-147.464874,,,
729717022.480477,-2.719738,0.702541,100.061817,-0.024475,-0.045166,0.998032,0.022237,-0.067083,-0.011246,89.100586,39.231796,-147.464874,,,
729717022.480626,-2.719738,0.702538,135.59817,-0.024475,-0.045166,0.998032,0.022237,-0.067083,-0.011246,89.100586,39.231796,-147.464874,,,
729717022.483522,-2.719739,0.702537,96.984966,-0.024475,-0.045166,0.998032,0.022237,-0.067083,-0.011246,89.100586,39.231796,-147.464874,,,
729717022.48374,-2.719738,0.702541,100.061817,-0.024475,-0.045166,0.998032,0.022237,-0.067083,-0.011246,89.100586,39.231796,-147.464874,,,
729717022.483876,-2.719738,0.702538,135.59817,-0.024475,-0.045166,0.998032,0.022237,-0.067083,-0.011246,89.100586,39.231796,-147.464874,,,
729717022.48719,-2.713963,0.68428,96.983337,-0.023163,-0.043488,1.002472,0.017771,-0.05686,-0.004342,89.100586,39.231796,-147.464874,,,
729717022.48831,-2.713962,0.684283,100.060187,-0.023163,-0.043488,1.002472,0.017771,-0.05686,-0.004342,89.100586,39.231796,-147.464874,,,
729717022.488459,-2.713962,0.68428,135.59654,-0.023163,-0.043488,1.002472,0.017771,-0.05686,-0.004342,89.100586,39.231796,-147.464874,,,
729717022.489409,-2.713963,0.68428,96.983294,-0.023163,-0.043488,1.002472,0.017771,-0.05686,-0.004342,89.100586,39.231796,-147.464874,,,
729717022.49009,-2.709829,0.67473,100.060145,-0.023163,-0.043488,1.002472,0.017771,-0.05686,-0.004342,89.100586,39.231796,-147.464874,,,
729717022.490486,-2.709828,0.674727,135.5965,-0.023163,-0.043488,1.002472,0.017771,-0.05686,-0.004342,89.100586,39.231796,-147.464874,,,
729717022.493175,-2.709829,0.674727,96.983294,-0.023163,-0.043488,1.002472,0.017771,-0.05686,-0.004342,89.100586,39.231796,-147.464874,,,
729717022.493383,-2.709829,0.67473,100.060145,-0.023163,-0.043488,1.002472,0.017771,-0.05686,-0.004342,89.100586,39.231796,-147.464874,,,
729717022.493859,-2.709828,0.674727,135.5965,-0.023163,-0.043488,1.002472,0.017771,-0.05686,-0.004342,89.100586,39.231796,-147.464874,,,
729717022.498247,-2.707408,0.667095,96.984805,-0.015808,-0.044189,1.005539,0.00587,-0.012955,0.007729,89.100586,39.231796,-147.464874,,,
729717022.500256,-2.707408,0.667098,100.061655,-0.015808,-0.044189,1.005539,0.00587,-0.012955,0.007729,89.100586,39.231796,-147.464874,,,
729717022.500481,-2.707039,0.670494,135.601617,-0.015808,-0.044189,1.005539,0.00587,-0.012955,0.007729,89.100586,39.231796,-147.464874,,,
729717022.500997,-2.70704,0.670494,96.988411,-0.015808,-0.044189,1.005539,0.00587,-0.012955,0.007729,89.100586,39.231796,-147.464874,,,
729717022.502861,-2.70704,0.670494,96.988411,-0.015808,-0.044189,1.005539,0.00587,-0.012955,0.007729,89.100586,39.231796,-147.464874,,,
729717022.503362,-2.707039,0.670497,100.065262,-0.015808,-0.044189,1.005539,0.00587,-0.012955,0.007729,89.100586,39.231796,-147.464874,,,
729717022.503849,-2.707039,0.670494,135.601617,-0.015808,-0.044189,1.005539,0.00587,-0.012955,0.007729,89.100586,39.231796,-147.464874,,,
729717022.508183,-2.70879,0.676252,96.992872,-0.006897,-0.044067,1.009415,-0.010594,0.0326,0.01492,89.100586,39.231796,-147.464874,,,
729717022.510238,-2.70879,0.676256,100.069722,-0.006897,-0.044067,1.009415,-0.010594,0.0326,0.01492,89.100586,39.231796,-147.464874,,,
729717022.510408,-2.71099,0.689978,135.611847,-0.006897,-0.044067,1.009415,-0.010594,0.0326,0.01492,89.100586,39.231796,-147.464874,,,
729717022.511053,-2.710991,0.689977,96.998644,-0.006897,-0.044067,1.009415,-0.010594,0.0326,0.01492,89.100586,39.231796,-147.464874,,,
729717022.512849,-2.710991,0.689977,96.998644,-0.006897,-0.044067,1.009415,-0.010594,0.0326,0.01492,89.100586,39.231796,-147.464874,,,
729717022.513591,-2.710991,0.689981,100.075495,-0.006897,-0.044067,1.009415,-0.010594,0.0326,0.01492,89.100586,39.231796,-147.464874,,,
729717022.513815,-2.71099,0.689978,135.611847,-0.006897,-0.044067,1.009415,-0.010594,0.0326,0.01492,89.100586,39.231796,-147.464874,,,
729717022.516836,-2.713311,0.703955,97.004665,-0.006424,-0.043564,1.006821,-0.006942,0.056009,0.017792,89.100586,39.231796,-147.464874,,,
729717022.517598,-2.71331,0.703959,100.081515,-0.006424,-0.043564,1.006821,-0.006942,0.056009,0.017792,89.100586,39.231796,-147.464874,,,
729717022.51776,-2.71331,0.703956,135.617868,-0.006424,-0.043564,1.006821,-0.006942,0.056009,0.017792,89.100586,39.231796,-147.464874,,,
729717022.520001,-2.713311,0.703955,97.004665,-0.006424,-0.043564,1.006821,-0.006942,0.056009,0.017792,89.193619,38.981232,-147.141815,,,
729717022.521099,-2.713241,0.722523,100.087537,-0.006424,-0.043564,1.006821,-0.006942,0.056009,0.017792,89.193619,38.981232,-147.141815,,,
729717022.521267,-2.71324,0.72252,135.623889,-0.006424,-0.043564,1.006821,-0.006942,0.056009,0.017792,89.193619,38.981232,-147.141815,,,
729717022.523235,-2.713242,0.722519,97.010687,-0.006424,-0.043564,1.006821,-0.006942,0.056009,0.017792,89.193619,38.981232,-147.141815,,,
729717022.523444,-2.713241,0.722523,100.087537,-0.006424,-0.043564,1.006821,-0.006942,0.056009,0.017792,89.193619,38.981232,-147.141815,,,
729717022.523785,-2.71324,0.72252,135.623889,-0.006424,-0.043564,1.006821,-0.006942,0.056009,0.017792,89.193619,38.981232,-147.141815,,,
729717022.527499,-2.713222,0.73865,97.016602,-0.010254,-0.0448,1.005859,0.00409,0.05634,0.018013,89.193619,38.981232,-147.141815,,,
729717022.528751,-2.713221,0.738653,100.093453,-0.010254,-0.0448,1.005859,0.00409,0.05634,0.018013,89.193619,38.981232,-147.141815,,,
729717022.528903,-2.71322,0.73865,135.629805,-0.010254,-0.0448,1.005859,0.00409,0.05634,0.018013,89.193619,38.981232,-147.141815,,,
729717022.529356,-2.713222,0.73865,97.016602,-0.010254,-0.0448,1.005859,0.00409,0.05634,0.018013,89.193619,38.981232,-147.141815,,,
729717022.53027,-2.709194,0.755783,100.099223,-0.010254,-0.0448,1.005859,0.00409,0.05634,0.018013,89.193619,38.981232,-147.141815,,,
729717022.530479,-2.709193,0.75578,135.635577,-0.010254,-0.0448,1.005859,0.00409,0.05634,0.018013,89.193619,38.981232,-147.141815,,,
729717022.533178,-2.709195,0.755779,97.022372,-0.010254,-0.0448,1.005859,0.00409,0.05634,0.018013,89.193619,38.981232,-147.141815,,,
729717022.53339,-2.709194,0.755783,100.099223,-0.010254,-0.0448,1.005859,0.00409,0.05634,0.018013,89.193619,38.981232,-147.141815,,,
729717022.533789,-2.709193,0.75578,135.635577,-0.010254,-0.0448,1.005859,0.00409,0.05634,0.018013,89.193619,38.981232,-147.141815,,,
729717022.537857,-2.705262,0.767239,97.028229,-0.018784,-0.047531,1.003403,0.015227,0.034057,0.019528,89.193619,38.981232,-147.141815,,,
729717022.539666,-2.705261,0.767243,100.10508,-0.018784,-0.047531,1.003403,0.015227,0.034057,0.019528,89.193619,38.981232,-147.141815,,,
729717022.539878,-2.700197,0.776893,135.647314,-0.018784,-0.047531,1.003403,0.015227,0.034057,0.019528,89.193619,38.981232,-147.141815,,,
729717022.540707,-2.700199,0.776893,97.034112,-0.018784,-0.047531,1.003403,0.015227,0.034057,0.019528,89.193619,38.981232,-147.141815,,,
729717022.54086,-2.700197,0.776893,135.647314,-0.018784,-0.047531,1.003403,0.015227,0.034057,0.019528,89.193619,38.981232,-147.141815,,,
729717022.542893,-2.700199,0.776893,97.034112,-0.018784,-0.047531,1.003403,0.015227,0.034057,0.019528,89.193619,38.981232,-147.141815,,,
729717022.543616,-2.700198,0.776896,100.110962,-0.018784,-0.047531,1.003403,0.015227,0.034057,0.019528,89.193619,38.981232,-147.141815,,,
729717022.543825,-2.700197,0.776893,135.647314,-0.018784,-0.047531,1.003403,0.015227,0.034057,0.019528,89.193619,38.981232,-147.141815,,,
729717022.547003,-2.694948,0.779783,97.038927,-0.018051,-0.05127,0.996567,0.02159,0.00461,0.013106,89.193619,38.981232,-147.141815,,,
729717022.548185,-2.694948,0.779787,100.115778,-0.018051,-0.05127,0.996567,0.02159,0.00461,0.013106,89.193619,38.981232,-147.141815,,,
729717022.54838,-2.694947,0.779784,135.652131,-0.018051,-0.05127,0.996567,0.02159,0.00461,0.013106,89.193619,38.981232,-147.141815,,,
729717022.549425,-2.694948,0.779783,97.038927,-0.018051,-0.05127,0.996567,0.02159,0.00461,0.013106,89.193619,38.981232,-147.141815,,,
729717022.549855,-2.688277,0.780411,100.119489,-0.018051,-0.05127,0.996567,0.02159,0.00461,0.013106,89.193619,38.981232,-147.141815,,,
729717022.550484,-2.688276,0.780408,135.655843,-0.018051,-0.05127,0.996567,0.02159,0.00461,0.013106,89.193619,38.981232,-147.141815,,,
729717022.552936,-2.688278,0.780408,97.042638,-0.018051,-0.05127,0.996567,0.02159,0.00461,0.013106,89.193619,38.981232,-147.141815,,,
729717022.553197,-2.688277,0.780411,100.119489,-0.018051,-0.05127,0.996567,0.02159,0.00461,0.013106,89.193619,38.981232,-147.141815,,,
729717022.553822,-2.688276,0.780408,135.655843,-0.018051,-0.05127,0.996567,0.02159,0.00461,0.013106,89.193619,38.981232,-147.141815,,,
729717022.558511,-2.682053,0.774914,97.04472,-0.011887,-0.052032,0.999054,0.02153,-0.022119,0.002498,89.193619,38.981232,-147.141815,,,
729717022.560906,-2.682052,0.774917,100.121571,-0.011887,-0.052032,0.999054,0.02153,-0.022119,0.002498,89.054352,39.171707,-147.475937,,,
729717022.56109,-2.675394,0.76783,135.658145,-0.011887,-0.052032,0.999054,0.02153,-0.022119,0.002498,89.054352,39.171707,-147.475937,,,
729717022.561751,-2.675395,0.767829,97.044941,-0.011887,-0.052032,0.999054,0.02153,-0.022119,0.002498,89.054352,39.171707,-147.475937,,,
729717022.562758,-2.675395,0.767829,97.044941,-0.011887,-0.052032,0.999054,0.02153,-0.022119,0.002498,89.054352,39.171707,-147.475937,,,
729717022.563186,-2.675394,0.767833,100.121792,-0.011887,-0.052032,0.999054,0.02153,-0.022119,0.002498,89.054352,39.171707,-147.475937,,,
729717022.563816,-2.675394,0.76783,135.658145,-0.011887,-0.052032,0.999054,0.02153,-0.022119,0.002498,89.054352,39.171707,-147.475937,,,
729717022.567968,-2.668264,0.754132,97.043628,-0.004211,-0.050812,1.00119,0.029046,-0.053367,-0.007409,89.054352,39.171707,-147.475937,,,
729717022.56985,-2.668263,0.754136,100.120479,-0.004211,-0.050812,1.00119,0.029046,-0.053367,-0.007409,89.054352,39.171707,-147.475937,,,
729717022.570017,-2.658502,0.737375,135.654344,-0.004211,-0.050812,1.00119,0.029046,-0.053367,-0.007409,89.054352,39.171707,-147.475937,,,
729717022.570825,-2.658503,0.737375,97.041141,-0.004211,-0.050812,1.00119,0.029046,-0.053367,-0.007409,89.054352,39.171707,-147.475937,,,
729717022.570934,-2.658502,0.737375,135.654344,-0.004211,-0.050812,1.00119,0.029046,-0.053367,-0.007409,89.054352,39.171707,-147.475937,,,
729717022.572875,-2.658503,0.737375,97.041141,-0.004211,-0.050812,1.00119,0.029046,-0.053367,-0.007409,89.054352,39.171707,-147.475937,,,
729717022.573638,-2.658502,0.737378,100.117991,-0.004211,-0.050812,1.00119,0.029046,-0.053367,-0.007409,89.054352,39.171707,-147.475937,,,
729717022.573811,-2.658502,0.737375,135.654344,-0.004211,-0.050812,1.00119,0.029046,-0.053367,-0.007409,89.054352,39.171707,-147.475937,,,
729717022.578002,-2.64745,0.716677,97.036914,0.000916,-0.051682,1.003937,0.042002,-0.072684,-0.019039,89.054352,39.171707,-147.475937,,,
729717022.579506,-2.647449,0.71668,100.113764,0.000916,-0.051682,1.003937,0.042002,-0.072684,-0.019039,89.054352,39.171707,-147.475937,,,
729717022.579627,-2.647448,0.716677,135.650116,0.000916,-0.051682,1.003937,0.042002,-0.072684,-0.019039,89.054352,39.171707,-147.475937,,,
729717022.580173,-2.634511,0.694101,97.030599,0.000916,-0.051682,1.003937,0.042002,-0.072684,-0.019039,89.054352,39.171707,-147.475937,,,
729717022.580614,-2.634511,0.694105,100.10745,0.000916,-0.051682,1.003937,0.042002,-0.072684,-0.019039,89.054352,39.171707,-147.475937,,,
729717022.580722,-2.63451,0.694102,135.643802,0.000916,-0.051682,1.003937,0.042002,-0.072684,-0.019039,89.054352,39.171707,-147.475937,,,
729717022.582872,-2.634511,0.694101,97.030599,0.000916,-0.051682,1.003937,0.042002,-0.072684,-0.019039,89.054352,39.171707,-147.475937,,,
729717022.583117,-2.634511,0.694105,100.10745,0.000916,-0.051682,1.003937,0.042002,-0.072684,-0.019039,89.054352,39.171707,-147.475937,,,
729717022.583788,-2.63451,0.694102,135.643802,0.000916,-0.051682,1.003937,0.042002,-0.072684,-0.019039,89.054352,39.171707,-147.475937,,,
729717022.587032,-2.620908,0.672229,97.02274,0.011063,-0.052231,1.007004,0.050623,-0.072017,-0.029875,89.054352,39.171707,-147.475937,,,
729717022.587972,-2.620908,0.672232,100.09959,0.011063,-0.052231,1.007004,0.050623,-0.072017,-0.029875,89.054352,39.171707,-147.475937,,,
729717022.588073,-2.620907,0.672229,135.635944,0.011063,-0.052231,1.007004,0.050623,-0.072017,-0.029875,89.054352,39.171707,-147.475937,,,
729717022.58943,-2.620908,0.672229,97.02274,0.011063,-0.052231,1.007004,0.050623,-0.072017,-0.029875,89.054352,39.171707,-147.475937,,,
729717022.590206,-2.605484,0.649601,100.090265,0.011063,-0.052231,1.007004,0.050623,-0.072017,-0.029875,89.054352,39.171707,-147.475937,,,
729717022.590457,-2.605483,0.649598,135.626619,0.011063,-0.052231,1.007004,0.050623,-0.072017,-0.029875,89.054352,39.171707,-147.475937,,,
729717022.593298,-2.605485,0.649597,97.013414,0.011063,-0.052231,1.007004,0.050623,-0.072017,-0.029875,89.054352,39.171707,-147.475937,,,
729717022.593442,-2.605484,0.649601,100.090265,0.011063,-0.052231,1.007004,0.050623,-0.072017,-0.029875,89.054352,39.171707,-147.475937,,,
729717022.593749,-2.605483,0.649598,135.626619,0.011063,-0.052231,1.007004,0.050623,-0.072017,-0.029875,89.054352,39.171707,-147.475937,,,
729717022.597002,-2.589329,0.629912,97.002871,0.016174,-0.049896,1.005646,0.059787,-0.05882,-0.038632,89.054352,39.171707,-147.475937,,,
729717022.597948,-2.589328,0.629916,100.079722,0.016174,-0.049896,1.005646,0.059787,-0.05882,-0.038632,89.054352,39.171707,-147.475937,,,
729717022.598049,-2.589327,0.629913,135.616074,0.016174,-0.049896,1.005646,0.059787,-0.05882,-0.038632,89.054352,39.171707,-147.475937,,,
729717022.599431,-2.589329,0.629912,97.002871,0.016174,-0.049896,1.005646,0.059787,-0.05882,-0.038632,89.054352,39.171707,-147.475937,,,
729717022.60053,-2.571864,0.612485,100.068598,0.016174,-0.049896,1.005646,0.059787,-0.05882,-0.038632,88.810867,39.183945,-147.365341,,,
729717022.600662,-2.571863,0.612482,135.60495,0.016174,-0.049896,1.005646,0.059787,-0.05882,-0.038632,88.810867,39.183945,-147.365341,,,
729717022.603578,-2.571865,0.612482,96.991747,0.016174,-0.049896,1.005646,0.059787,-0.05882,-0.038632,88.810867,39.183945,-147.365341,,,
729717022.603737,-2.571864,0.612485,100.068598,0.016174,-0.049896,1.005646,0.059787,-0.05882,-0.038632,88.810867,39.183945,-147.365341,,,
729717022.603815,-2.571863,0.612482,135.60495,0.016174,-0.049896,1.005646,0.059787,-0.05882,-0.038632,88.810867,39.183945,-147.365341,,,
729717022.606935,-2.553735,0.59788,96.980676,0.013916,-0.050858,1.009613,0.06627,-0.041155,-0.038338,88.810867,39.183945,-147.365341,,,
729717022.607786,-2.553734,0.597884,100.057527,0.013916,-0.050858,1.009613,0.06627,-0.041155,-0.038338,88.810867,39.183945,-147.365341,,,
729717022.607888,-2.553734,0.597881,135.593879,0.013916,-0.050858,1.009613,0.06627,-0.041155,-0.038338,88.810867,39.183945,-147.365341,,,
729717022.609452,-2.553735,0.59788,96.980676,0.013916,-0.050858,1.009613,0.06627,-0.041155,-0.038338,88.810867,39.183945,-147.365341,,,
729717022.610194,-2.534644,0.588217,100.04659,0.013916,-0.050858,1.009613,0.06627,-0.041155,-0.038338,88.810867,39.183945,-147.365341,,,
729717022.610473,-2.534643,0.588214,135.582945,0.013916,-0.050858,1.009613,0.06627,-0.041155,-0.038338,88.810867,39.183945,-147.365341,,,
729717022.613304,-2.534644,0.588214,96.969739,0.013916,-0.050858,1.009613,0.06627,-0.041155,-0.038338,88.810867,39.183945,-147.365341,,,
729717022.613448,-2.534644,0.588217,100.04659,0.013916,-0.050858,1.009613,0.06627,-0.041155,-0.038338,88.810867,39.183945,-147.365341,,,
729717022.613747,-2.534643,0.588214,135.582945,0.013916,-0.050858,1.009613,0.06627,-0.041155,-0.038338,88.810867,39.183945,-147.365341,,,
729717022.617305,-2.513353,0.581906,96.95836,0.017548,-0.051926,1.007675,0.079255,-0.008837,-0.041009,88.810867,39.183945,-147.365341,,,
729717022.618578,-2.513352,0.58191,100.03521,0.017548,-0.051926,1.007675,0.079255,-0.008837,-0.041009,88.810867,39.183945,-147.365341,,,
729717022.618724,-2.513352,0.581907,135.571564,0.017548,-0.051926,1.007675,0.079255,-0.008837,-0.041009,88.810867,39.183945,-147.365341,,,
729717022.619368,-2.513353,0.581906,96.95836,0.017548,-0.051926,1.007675,0.079255,-0.008837,-0.041009,88.810867,39.183945,-147.365341,,,
729717022.620253,-2.492402,0.581526,100.023484,0.017548,-0.051926,1.007675,0.079255,-0.008837,-0.041009,88.810867,39.183945,-147.365341,,,
729717022.620475,-2.492401,0.581523,135.559836,0.017548,-0.051926,1.007675,0.079255,-0.008837,-0.041009,88.810867,39.183945,-147.365341,,,
729717022.623321,-2.492403,0.581523,96.946633,0.017548,-0.051926,1.007675,0.079255,-0.008837,-0.041009,88.810867,39.183945,-147.365341,,,
729717022.623527,-2.492402,0.581526,100.023484,0.017548,-0.051926,1.007675,0.079255,-0.008837,-0.041009,88.810867,39.183945,-147.365341,,,
729717022.623785,-2.492401,0.581523,135.559836,0.017548,-0.051926,1.007675,0.079255,-0.008837,-0.041009,88.810867,39.183945,-147.365341,,,
729717022.627645,-2.469907,0.582195,96.934618,0.019745,-0.046249,1.002686,0.08056,0.011051,-0.042417,88.810867,39.183945,-147.365341,,,
729717022.629209,-2.469906,0.582199,100.011469,0.019745,-0.046249,1.002686,0.08056,0.011051,-0.042417,88.810867,39.183945,-147.365341,,,
729717022.629367,-2.469905,0.582195,135.547821,0.019745,-0.046249,1.002686,0.08056,0.011051,-0.042417,88.810867,39.183945,-147.365341,,,
729717022.629565,-2.469907,0.582195,96.934618,0.019745,-0.046249,1.002686,0.08056,0.011051,-0.042417,88.810867,39.183945,-147.365341,,,
729717022.630436,-2.44928,0.586027,99.999567,0.019745,-0.046249,1.002686,0.08056,0.011051,-0.042417,88.810867,39.183945,-147.365341,,,
729717022.630593,-2.449279,0.586024,135.535919,0.019745,-0.046249,1.002686,0.08056,0.011051,-0.042417,88.810867,39.183945,-147.365341,,,
729717022.633528,-2.44928,0.586024,96.922716,0.019745,-0.046249,1.002686,0.08056,0.011051,-0.042417,88.810867,39.183945,-147.365341,,,
729717022.63375,-2.44928,0.586027,99.999567,0.019745,-0.046249,1.002686,0.08056,0.011051,-0.042417,88.810867,39.183945,-147.365341,,,
729717022.633898,-2.449279,0.586024,135.535919,0.019745,-0.046249,1.002686,0.08056,0.011051,-0.042417,88.810867,39.183945,-147.365341,,,
729717022.637279,-2.427961,0.591671,96.910686,0.016052,-0.04126,0.991913,0.072804,0.029236,-0.043098,88.810867,39.183945,-147.365341,,,
729717022.638488,-2.42796,0.591675,99.987536,0.016052,-0.04126,0.991913,0.072804,0.029236,-0.043098,88.810867,39.183945,-147.365341,,,
729717022.638636,-2.42796,0.591672,135.523892,0.016052,-0.04126,0.991913,0.072804,0.029236,-0.043098,88.810867,39.183945,-147.365341,,,
729717022.639382,-2.427961,0.591671,96.910686,0.016052,-0.04126,0.991913,0.072804,0.029236,-0.043098,88.810867,39.183945,-147.365341,,,
729717022.640463,-2.409759,0.598491,99.975073,0.016052,-0.04126,0.991913,0.072804,0.029236,-0.043098,88.810867,39.183945,-147.365341,,,
729717022.64063,-2.409758,0.598488,135.511428,0.016052,-0.04126,0.991913,0.072804,0.029236,-0.043098,88.810867,39.183945,-147.365341,,,
729717022.643992,-2.409759,0.598488,96.898223,0.016052,-0.04126,0.991913,0.072804,0.029236,-0.043098,88.998932,39.023804,-147.878143,,,
729717022.644703,-2.409759,0.598491,99.975073,0.016052,-0.04126,0.991913,0.072804,0.029236,-0.043098,88.998932,39.023804,-147.878143,,,
729717022.64485,-2.391126,0.607656,135.498044,0.012527,-0.038208,0.98761,0.063651,0.039532,-0.049845,88.998932,39.023804,-147.878143,,,
729717022.647469,-2.391128,0.607655,96.884839,0.012527,-0.038208,0.98761,0.063651,0.039532,-0.049845,88.998932,39.023804,-147.878143,,,
729717022.648952,-2.391127,0.607659,99.96169,0.012527,-0.038208,0.98761,0.063651,0.039532,-0.049845,88.998932,39.023804,-147.878143,,,
729717022.649119,-2.391126,0.607656,135.498044,0.012527,-0.038208,0.98761,0.063651,0.039532,-0.049845,88.998932,39.023804,-147.878143,,,
729717022.649327,-2.391128,0.607655,96.884839,0.012527,-0.038208,0.98761,0.063651,0.039532,-0.049845,88.998932,39.023804,-147.878143,,,
729717022.650505,-2.375659,0.615413,99.947306,0.012527,-0.038208,0.98761,0.063651,0.039532,-0.049845,88.998932,39.023804,-147.878143,,,
729717022.650668,-2.375658,0.61541,135.483659,0.012527,-0.038208,0.98761,0.063651,0.039532,-0.049845,88.998932,39.023804,-147.878143,,,
729717022.653553,-2.375659,0.615409,96.870455,0.012527,-0.038208,0.98761,0.063651,0.039532,-0.049845,88.998932,39.023804,-147.878143,,,
729717022.653778,-2.375659,0.615413,99.947306,0.012527,-0.038208,0.98761,0.063651,0.039532,-0.049845,88.998932,39.023804,-147.878143,,,
729717022.653916,-2.375658,0.61541,135.483659,0.012527,-0.038208,0.98761,0.063651,0.039532,-0.049845,88.998932,39.023804,-147.878143,,,
729717022.656954,-2.359623,0.624867,96.855644,0.008667,-0.03389,0.981171,0.055835,0.037911,-0.053432,88.998932,39.023804,-147.878143,,,
729717022.657859,-2.359622,0.62487,99.932494,0.008667,-0.03389,0.981171,0.055835,0.037911,-0.053432,88.998932,39.023804,-147.878143,,,
729717022.658019,-2.359621,0.624867,135.468847,0.008667,-0.03389,0.981171,0.055835,0.037911,-0.053432,88.998932,39.023804,-147.878143,,,
729717022.659474,-2.359623,0.624867,96.855644,0.008667,-0.03389,0.981171,0.055835,0.037911,-0.053432,88.998932,39.023804,-147.878143,,,
729717022.66001,-2.359622,0.62487,99.916438,0.008667,-0.03389,0.981171,0.055835,0.037911,-0.053432,88.998932,39.023804,-147.878143,,,
729717022.660487,-2.347256,0.630708,135.452791,0.008667,-0.03389,0.981171,0.055835,0.037911,-0.053432,88.998932,39.023804,-147.878143,,,
729717022.663532,-2.347258,0.630708,96.839588,0.008667,-0.03389,0.981171,0.055835,0.037911,-0.053432,88.998932,39.023804,-147.878143,,,
729717022.664196,-2.347257,0.630711,99.916438,0.008667,-0.03389,0.981171,0.055835,0.037911,-0.053432,88.998932,39.023804,-147.878143,,,
729717022.664348,-2.347256,0.630708,135.452791,0.008667,-0.03389,0.981171,0.055835,0.037911,-0.053432,88.998932,39.023804,-147.878143,,,
729717022.667221,-2.334447,0.64102,96.823017,0.003418,-0.031052,0.981293,0.045512,0.042163,-0.058267,88.998932,39.023804,-147.878143,,,
729717022.668489,-2.334446,0.641024,99.899868,0.003418,-0.031052,0.981293,0.045512,0.042163,-0.058267,88.998932,39.023804,-147.878143,,,
729717022.668635,-2.334446,0.641021,135.43622,0.003418,-0.031052,0.981293,0.045512,0.042163,-0.058267,88.998932,39.023804,-147.878143,,,
729717022.669381,-2.334447,0.64102,96.823017,0.003418,-0.031052,0.981293,0.045512,0.042163,-0.058267,88.998932,39.023804,-147.878143,,,
729717022.670469,-2.323321,0.646219,99.882709,0.003418,-0.031052,0.981293,0.045512,0.042163,-0.058267,88.998932,39.023804,-147.878143,,,
729717022.670629,-2.323321,0.646216,135.419064,0.003418,-0.031052,0.981293,0.045512,0.042163,-0.058267,88.998932,39.023804,-147.878143,,,
729717022.673517,-2.323322,0.646216,96.805859,0.003418,-0.031052,0.981293,0.045512,0.042163,-0.058267,88.998932,39.023804,-147.878143,,,
729717022.673737,-2.323321,0.646219,99.882709,0.003418,-0.031052,0.981293,0.045512,0.042163,-0.058267,88.998932,39.023804,-147.878143,,,
729717022.673869,-2.323321,0.646216,135.419064,0.003418,-0.031052,0.981293,0.045512,0.042163,-0.058267,88.998932,39.023804,-147.878143,,,
729717022.677784,-2.309652,0.656835,96.789183,-0.003113,-0.032791,0.984131,0.050932,0.041874,-0.056451,88.998932,39.023804,-147.878143,,,
729717022.679421,-2.309651,0.656839,99.866034,-0.003113,-0.032791,0.984131,0.050932,0.041874,-0.056451,88.998932,39.023804,-147.878143,,,
729717022.679579,-2.30965,0.656836,135.402388,-0.003113,-0.032791,0.984131,0.050932,0.041874,-0.056451,88.998932,39.023804,-147.878143,,,
729717022.679779,-2.309652,0.656835,96.789183,-0.003113,-0.032791,0.984131,0.050932,0.041874,-0.056451,88.998932,39.023804,-147.878143,,,
729717022.680362,-2.296794,0.661878,99.850728,-0.003113,-0.032791,0.984131,0.050932,0.041874,-0.056451,88.998932,39.023804,-147.878143,,,
729717022.680519,-2.296793,0.661875,135.387082,-0.003113,-0.032791,0.984131,0.050932,0.041874,-0.056451,88.998932,39.023804,-147.878143,,,
729717022.68374,-2.296794,0.661874,96.773877,-0.003113,-0.032791,0.984131,0.050932,0.041874,-0.056451,88.971588,38.853531,-147.997467,,,
729717022.68444,-2.296794,0.661878,99.850728,-0.003113,-0.032791,0.984131,0.050932,0.041874,-0.056451,88.971588,38.853531,-147.997467,,,
729717022.684603,-2.296793,0.661875,135.387082,-0.003113,-0.032791,0.984131,0.050932,0.041874,-0.056451,88.971588,38.853531,-147.997467,,,
729717022.687501,-2.280697,0.671869,96.7604,-0.010193,-0.039154,0.985825,0.06155,0.04038,-0.045012,88.971588,38.853531,-147.997467,,,
729717022.689053,-2.280696,0.671872,99.837251,-0.010193,-0.039154,0.985825,0.06155,0.04038,-0.045012,88.971588,38.853531,-147.997467,,,
729717022.689226,-2.280695,0.671869,135.373604,-0.010193,-0.039154,0.985825,0.06155,0.04038,-0.045012,88.971588,38.853531,-147.997467,,,
729717022.689419,-2.280697,0.671869,96.7604,-0.010193,-0.039154,0.985825,0.06155,0.04038,-0.045012,88.971588,38.853531,-147.997467,,,
729717022.690247,-2.280696,0.67626,99.824592,-0.010193,-0.039154,0.985825,0.06155,0.04038,-0.045012,88.971588,38.853531,-147.997467,,,
729717022.690476,-2.26593,0.676257,135.360944,-0.010193,-0.039154,0.985825,0.06155,0.04038,-0.045012,88.971588,38.853531,-147.997467,,,
729717022.693574,-2.265932,0.676257,96.747742,-0.010193,-0.039154,0.985825,0.06155,0.04038,-0.045012,88.971588,38.853531,-147.997467,,,
729717022.694032,-2.265931,0.67626,99.824592,-0.010193,-0.039154,0.985825,0.06155,0.04038,-0.045012,88.971588,38.853531,-147.997467,,,
729717022.69417,-2.26593,0.676257,135.360944,-0.010193,-0.039154,0.985825,0.06155,0.04038,-0.045012,88.971588,38.853531,-147.997467,,,
729717022.69698,-2.248713,0.686375,96.736538,-0.011444,-0.036987,0.987259,0.061993,0.040765,-0.036361,88.971588,38.853531,-147.997467,,,
729717022.697955,-2.248712,0.686379,99.813388,-0.011444,-0.036987,0.987259,0.061993,0.040765,-0.036361,88.971588,38.853531,-147.997467,,,
729717022.698095,-2.248712,0.686376,135.349743,-0.011444,-0.036987,0.987259,0.061993,0.040765,-0.036361,88.971588,38.853531,-147.997467,,,
729717022.699459,-2.248713,0.686375,96.736538,-0.011444,-0.036987,0.987259,0.061993,0.040765,-0.036361,88.971588,38.853531,-147.997467,,,
729717022.699845,-2.248712,0.686379,99.813388,-0.011444,-0.036987,0.987259,0.061993,0.040765,-0.036361,88.971588,38.853531,-147.997467,,,
729717022.700483,-2.233508,0.691187,135.33984,-0.011444,-0.036987,0.987259,0.061993,0.040765,-0.036361,88.971588,38.853531,-147.997467,,,
729717022.703332,-2.233509,0.691187,96.726636,-0.011444,-0.036987,0.987259,0.061993,0.040765,-0.036361,88.971588,38.853531,-147.997467,,,
729717022.703936,-2.233509,0.69119,99.803487,-0.011444,-0.036987,0.987259,0.061993,0.040765,-0.036361,88.971588,38.853531,-147.997467,,,
729717022.704087,-2.233508,0.691187,135.33984,-0.011444,-0.036987,0.987259,0.061993,0.040765,-0.036361,88.971588,38.853531,-147.997467,,,
729717022.707561,-2.218527,0.703343,96.717712,-0.014282,-0.030884,0.98465,0.049071,0.048469,-0.031408,88.971588,38.853531,-147.997467,,,
729717022.709124,-2.218527,0.703346,99.794562,-0.014282,-0.030884,0.98465,0.049071,0.048469,-0.031408,88.971588,38.853531,-147.997467,,,
729717022.709279,-2.218526,0.703343,135.330916,-0.014282,-0.030884,0.98465,0.049071,0.048469,-0.031408,88.971588,38.853531,-147.997467,,,
729717022.709481,-2.218527,0.703343,96.717712,-0.014282,-0.030884,0.98465,0.049071,0.048469,-0.031408,88.971588,38.853531,-147.997467,,,
729717022.709843,-2.218527,0.703346,99.794562,-0.014282,-0.030884,0.98465,0.049071,0.048469,-0.031408,88.971588,38.853531,-147.997467,,,
729717022.710507,-2.2059,0.709234,135.322573,-0.014282,-0.030884,0.98465,0.049071,0.048469,-0.031408,88.971588,38.853531,-147.997467,,,
729717022.71353,-2.205902,0.709234,96.70937,-0.014282,-0.030884,0.98465,0.049071,0.048469,-0.031408,88.971588,38.853531,-147.997467,,,
729717022.714195,-2.205901,0.709237,99.786221,-0.014282,-0.030884,0.98465,0.049071,0.048469,-0.031408,88.971588,38.853531,-147.997467,,,
729717022.714348,-2.2059,0.709234,135.322573,-0.014282,-0.030884,0.98465,0.049071,0.048469,-0.031408,88.971588,38.853531,-147.997467,,,
729717022.717286,-2.194875,0.719834,96.702179,-0.023148,-0.030991,0.98439,0.033295,0.039237,-0.025143,88.971588,38.853531,-147.997467,,,
729717022.718598,-2.194875,0.719837,99.77903,-0.023148,-0.030991,0.98439,0.033295,0.039237,-0.025143,88.971588,38.853531,-147.997467,,,
729717022.718754,-2.194874,0.719834,135.315385,-0.023148,-0.030991,0.98439,0.033295,0.039237,-0.025143,88.971588,38.853531,-147.997467,,,
729717022.719375,-2.194875,0.719834,96.702179,-0.023148,-0.030991,0.98439,0.033295,0.039237,-0.025143,88.971588,38.853531,-147.997467,,,
729717022.719854,-2.194875,0.719837,99.77903,-0.023148,-0.030991,0.98439,0.033295,0.039237,-0.025143,88.971588,38.853531,-147.997467,,,
729717022.720478,-2.187127,0.72408,135.30853,-0.023148,-0.030991,0.98439,0.033295,0.039237,-0.025143,88.971588,38.853531,-147.997467,,,
729717022.723281,-2.187129,0.724079,96.695325,-0.023148,-0.030991,0.98439,0.033295,0.039237,-0.025143,88.971588,38.409882,-147.764893,,,
729717022.724123,-2.187128,0.724083,99.772175,-0.023148,-0.030991,0.98439,0.033295,0.039237,-0.025143,89.198776,38.409882,-147.764893,,,
729717022.724286,-2.187127,0.72408,135.30853,-0.023148,-0.030991,0.98439,0.033295,0.039237,-0.025143,89.198776,38.409882,-147.764893,,,
729717022.727411,-2.181947,0.732243,96.688498,-0.028854,-0.032318,0.983337,0.013549,0.030439,-0.026526,89.198776,38.409882,-147.764893,,,
729717022.728547,-2.181947,0.732246,99.765349,-0.028854,-0.032318,0.983337,0.013549,0.030439,-0.026526,89.198776,38.409882,-147.764893,,,
729717022.728704,-2.181946,0.732243,135.301704,-0.028854,-0.032318,0.983337,0.013549,0.030439,-0.026526,89.198776,38.409882,-147.764893,,,
729717022.729374,-2.181947,0.732243,96.688498,-0.028854,-0.032318,0.983337,0.013549,0.030439,-0.026526,89.198776,38.409882,-147.764893,,,
729717022.729852,-2.181947,0.732246,99.765349,-0.028854,-0.032318,0.983337,0.013549,0.030439,-0.026526,89.198776,38.409882,-147.764893,,,
729717022.730482,-2.178836,0.734974,135.294566,-0.028854,-0.032318,0.983337,0.013549,0.030439,-0.026526,89.198776,38.409882,-147.764893,,,
729717022.733111,-2.178838,0.734974,96.68136,-0.028854,-0.032318,0.983337,0.013549,0.030439,-0.026526,89.198776,38.409882,-147.764893,,,
729717022.733489,-2.178837,0.734977,99.758211,-0.028854,-0.032318,0.983337,0.013549,0.030439,-0.026526,89.198776,38.409882,-147.764893,,,
729717022.733804,-2.178836,0.734974,135.294566,-0.028854,-0.032318,0.983337,0.013549,0.030439,-0.026526,89.198776,38.409882,-147.764893,,,
729717022.737917,-2.178827,0.740457,96.674797,-0.030197,-0.030518,0.984512,-0.00544,0.018025,-0.023954,89.198776,38.409882,-147.764893,,,
729717022.739669,-2.178826,0.74046,99.751647,-0.030197,-0.030518,0.984512,-0.00544,0.018025,-0.023954,89.198776,38.409882,-147.764893,,,
729717022.739834,-2.178825,0.740457,135.288003,-0.030197,-0.030518,0.984512,-0.00544,0.018025,-0.023954,89.198776,38.409882,-147.764893,,,
729717022.740038,-2.180364,0.740355,96.668675,-0.030197,-0.030518,0.984512,-0.00544,0.018025,-0.023954,89.198776,38.409882,-147.764893,,,
729717022.740467,-2.180362,0.740355,135.281881,-0.030197,-0.030518,0.984512,-0.00544,0.018025,-0.023954,89.198776,38.409882,-147.764893,,,
729717022.742949,-2.180364,0.740355,96.668675,-0.030197,-0.030518,0.984512,-0.00544,0.018025,-0.023954,89.198776,38.409882,-147.764893,,,
729717022.743163,-2.180363,0.740358,99.745526,-0.030197,-0.030518,0.984512,-0.00544,0.018025,-0.023954,89.198776,38.409882,-147.764893,,,
729717022.743818,-2.180362,0.740355,135.281881,-0.030197,-0.030518,0.984512,-0.00544,0.018025,-0.023954,89.198776,38.409882,-147.764893,,,
729717022.747263,-2.185081,0.742466,96.66347,-0.035889,-0.029556,0.986237,-0.019198,0.00811,-0.018747,89.198776,38.409882,-147.764893,,,
729717022.748456,-2.185081,0.74247,99.740321,-0.035889,-0.029556,0.986237,-0.019198,0.00811,-0.018747,89.198776,38.409882,-147.764893,,,
729717022.748606,-2.18508,0.742467,135.276675,-0.035889,-0.029556,0.986237,-0.019198,0.00811,-0.018747,89.198776,38.409882,-147.764893,,,
729717022.749384,-2.185081,0.742466,96.66347,-0.035889,-0.029556,0.986237,-0.019198,0.00811,-0.018747,89.198776,38.409882,-147.764893,,,
729717022.749852,-2.185081,0.74247,99.740321,-0.035889,-0.029556,0.986237,-0.019198,0.00811,-0.018747,89.198776,38.409882,-147.764893,,,
729717022.750482,-2.190995,0.740857,135.272087,-0.035889,-0.029556,0.986237,-0.019198,0.00811,-0.018747,89.198776,38.409882,-147.764893,,,
729717022.752935,-2.190996,0.740857,96.658882,-0.035889,-0.029556,0.986237,-0.019198,0.00811,-0.018747,89.198776,38.409882,-147.764893,,,
729717022.753169,-2.190996,0.74086,99.735733,-0.035889,-0.029556,0.986237,-0.019198,0.00811,-0.018747,89.198776,38.409882,-147.764893,,,
729717022.753817,-2.190995,0.740857,135.272087,-0.035889,-0.029556,0.986237,-0.019198,0.00811,-0.018747,89.198776,38.409882,-147.764893,,,
729717022.757095,-2.200793,0.740877,96.65514,-0.03656,-0.0345,0.986969,-0.038228,0.002332,-0.013752,89.198776,38.409882,-147.764893,,,
729717022.75818,-2.200792,0.74088,99.73199,-0.03656,-0.0345,0.986969,-0.038228,0.002332,-0.013752,89.198776,38.409882,-147.764893,,,
729717022.758336,-2.200791,0.740877,135.268345,-0.03656,-0.0345,0.986969,-0.038228,0.002332,-0.013752,89.198776,38.409882,-147.764893,,,
729717022.759436,-2.200793,0.740877,96.65514,-0.03656,-0.0345,0.986969,-0.038228,0.002332,-0.013752,89.198776,38.409882,-147.764893,,,
729717022.759852,-2.200792,0.74088,99.73199,-0.03656,-0.0345,0.986969,-0.038228,0.002332,-0.013752,89.198776,38.409882,-147.764893,,,
729717022.760484,-2.212557,0.74008,135.265304,-0.03656,-0.0345,0.986969,-0.038228,0.002332,-0.013752,89.198776,38.409882,-147.764893,,,
729717022.763336,-2.212558,0.740079,96.652099,-0.03656,-0.0345,0.986969,-0.038228,0.002332,-0.013752,89.198776,38.409882,-147.764893,,,
729717022.764249,-2.212557,0.740083,99.728949,-0.03656,-0.0345,0.986969,-0.038228,0.002332,-0.013752,89.187286,38.601776,-148.163239,,,
729717022.764413,-2.212557,0.74008,135.265304,-0.03656,-0.0345,0.986969,-0.038228,0.002332,-0.013752,89.187286,38.601776,-148.163239,,,
729717022.767232,-2.225141,0.741101,96.650092,-0.036148,-0.038208,0.991013,-0.044779,0.009431,-0.006873,89.187286,38.601776,-148.163239,,,
729717022.768016,-2.22514,0.741104,99.726942,-0.036148,-0.038208,0.991013,-0.044779,0.009431,-0.006873,89.187286,38.601776,-148.163239,,,
729717022.768156,-2.225139,0.741101,135.263297,-0.036148,-0.038208,0.991013,-0.044779,0.009431,-0.006873,89.187286,38.601776,-148.163239,,,
729717022.769457,-2.225141,0.741101,96.650092,-0.036148,-0.038208,0.991013,-0.044779,0.009431,-0.006873,89.187286,38.601776,-148.163239,,,
729717022.769847,-2.22514,0.741104,99.726942,-0.036148,-0.038208,0.991013,-0.044779,0.009431,-0.006873,89.187286,38.601776,-148.163239,,,
729717022.770481,-2.238187,0.743743,135.263132,-0.036148,-0.038208,0.991013,-0.044779,0.009431,-0.006873,89.187286,38.601776,-148.163239,,,
729717022.77323,-2.238189,0.743743,96.649926,-0.036148,-0.038208,0.991013,-0.044779,0.009431,-0.006873,89.187286,38.601776,-148.163239,,,
729717022.773676,-2.238188,0.743746,99.726777,-0.036148,-0.038208,0.991013,-0.044779,0.009431,-0.006873,89.187286,38.601776,-148.163239,,,
729717022.77384,-2.238187,0.743743,135.263132,-0.036148,-0.038208,0.991013,-0.044779,0.009431,-0.006873,89.187286,38.601776,-148.163239,,,
729717022.778819,-2.251006,0.74872,96.652348,-0.03447,-0.042999,0.999664,-0.043938,0.023839,0.011084,89.187286,38.601776,-148.163239,,,
729717022.780875,-2.251005,0.748724,99.729199,-0.03447,-0.042999,0.999664,-0.043938,0.023839,0.011084,89.187286,38.601776,-148.163239,,,
729717022.781047,-2.262286,0.756204,135.270866,-0.03447,-0.042999,0.999664,-0.043938,0.023839,0.011084,89.187286,38.601776,-148.163239,,,
729717022.781855,-2.262288,0.756204,96.657661,-0.03447,-0.042999,0.999664,-0.043938,0.023839,0.011084,89.187286,38.601776,-148.163239,,,
729717022.782735,-2.262288,0.756204,96.657661,-0.03447,-0.042999,0.999664,-0.043938,0.023839,0.011084,89.187286,38.601776,-148.163239,,,
729717022.783652,-2.262287,0.756207,99.734512,-0.03447,-0.042999,0.999664,-0.043938,0.023839,0.011084,89.187286,38.601776,-148.163239,,,
729717022.783827,-2.262286,0.756204,135.270866,-0.03447,-0.042999,0.999664,-0.043938,0.023839,0.011084,89.187286,38.601776,-148.163239,,,
729717022.787364,-2.273589,0.765774,96.666054,-0.034317,-0.045105,1.004578,-0.036593,0.037761,0.032595,89.187286,38.601776,-148.163239,,,
729717022.788631,-2.273589,0.765777,99.742905,-0.034317,-0.045105,1.004578,-0.036593,0.037761,0.032595,89.187286,38.601776,-148.163239,,,
729717022.78878,-2.273588,0.765774,135.279258,-0.034317,-0.045105,1.004578,-0.036593,0.037761,0.032595,89.187286,38.601776,-148.163239,,,
729717022.789367,-2.273589,0.765774,96.666054,-0.034317,-0.045105,1.004578,-0.036593,0.037761,0.032595,89.187286,38.601776,-148.163239,,,
729717022.789855,-2.273589,0.765777,99.742905,-0.034317,-0.045105,1.004578,-0.036593,0.037761,0.032595,89.187286,38.601776,-148.163239,,,
729717022.790482,-2.282076,0.778346,135.290285,-0.034317,-0.045105,1.004578,-0.036593,0.037761,0.032595,89.187286,38.601776,-148.163239,,,
729717022.79353,-2.282077,0.778346,96.677082,-0.034317,-0.045105,1.004578,-0.036593,0.037761,0.032595,89.187286,38.601776,-148.163239,,,
729717022.794336,-2.282077,0.778349,99.753933,-0.034317,-0.045105,1.004578,-0.036593,0.037761,0.032595,89.187286,38.601776,-148.163239,,,
729717022.794489,-2.282076,0.778346,135.290285,-0.034317,-0.045105,1.004578,-0.036593,0.037761,0.032595,89.187286,38.601776,-148.163239,,,
729717022.797406,-2.291823,0.791333,96.689979,-0.033112,-0.048691,1.009979,-0.034331,0.050507,0.046043,89.187286,38.601776,-148.163239,,,
729717022.798817,-2.291823,0.791337,99.76683,-0.033112,-0.048691,1.009979,-0.034331,0.050507,0.046043,89.187286,38.601776,-148.163239,,,
729717022.798966,-2.291822,0.791334,135.303182,-0.033112,-0.048691,1.009979,-0.034331,0.050507,0.046043,89.187286,38.601776,-148.163239,,,
729717022.799337,-2.291823,0.791333,96.689979,-0.033112,-0.048691,1.009979,-0.034331,0.050507,0.046043,89.187286,38.601776,-148.163239,,,
729717022.799858,-2.291823,0.791337,99.76683,-0.033112,-0.048691,1.009979,-0.034331,0.050507,0.046043,89.187286,38.601776,-148.163239,,,
729717022.80048,-2.300194,0.808259,135.317894,-0.033112,-0.048691,1.009979,-0.034331,0.050507,0.046043,89.187286,38.601776,-148.163239,,,
729717022.803522,-2.300196,0.808259,96.704689,-0.033112,-0.048691,1.009979,-0.034331,0.050507,0.046043,89.187286,38.601776,-148.163239,,,
729717022.804334,-2.300195,0.808262,99.78154,-0.033112,-0.048691,1.009979,-0.034331,0.050507,0.046043,89.187286,38.601776,-148.163239,,,
729717022.804535,-2.300194,0.808259,135.317894,-0.033112,-0.048691,1.009979,-0.034331,0.050507,0.046043,89.187286,38.601776,-148.163239,,,
729717022.80739,-2.309909,0.821259,96.720266,-0.033157,-0.047684,1.010468,-0.034739,0.043431,0.052818,89.315475,38.758011,-147.698212,,,
729717022.80878,-2.309908,0.821262,99.797117,-0.033157,-0.047684,1.010468,-0.034739,0.043431,0.052818,89.315475,38.758011,-147.698212,,,
729717022.808893,-2.309908,0.821259,135.333471,-0.033157,-0.047684,1.010468,-0.034739,0.043431,0.052818,89.315475,38.758011,-147.698212,,,
729717022.809305,-2.309909,0.821259,96.720266,-0.033157,-0.047684,1.010468,-0.034739,0.043431,0.052818,89.315475,38.758011,-147.698212,,,
729717022.809807,-2.309908,0.821262,99.797117,-0.033157,-0.047684,1.010468,-0.034739,0.043431,0.052818,89.315475,38.758011,-147.698212,,,
729717022.810466,-2.31822,0.835583,135.349895,-0.033157,-0.047684,1.010468,-0.034739,0.043431,0.052818,89.315475,38.758011,-147.698212,,,
729717022.813303,-2.318222,0.835583,96.73669,-0.033157,-0.047684,1.010468,-0.034739,0.043431,0.052818,89.315475,38.758011,-147.698212,,,
729717022.813857,-2.318221,0.835586,99.813541,-0.033157,-0.047684,1.010468,-0.034739,0.043431,0.052818,89.315475,38.758011,-147.698212,,,
729717022.813963,-2.31822,0.835583,135.349895,-0.033157,-0.047684,1.010468,-0.034739,0.043431,0.052818,89.315475,38.758011,-147.698212,,,
729717022.816948,-2.327933,0.844306,96.753854,-0.031769,-0.045609,1.005585,-0.03263,0.025367,0.058825,89.315475,38.758011,-147.698212,,,
729717022.817871,-2.327933,0.844309,99.830705,-0.031769,-0.045609,1.005585,-0.03263,0.025367,0.058825,89.315475,38.758011,-147.698212,,,
729717022.818018,-2.327932,0.844306,135.367058,-0.031769,-0.045609,1.005585,-0.03263,0.025367,0.058825,89.315475,38.758011,-147.698212,,,
729717022.81947,-2.327933,0.844306,96.753854,-0.031769,-0.045609,1.005585,-0.03263,0.025367,0.058825,89.315475,38.758011,-147.698212,,,
729717022.819841,-2.327933,0.844309,99.830705,-0.031769,-0.045609,1.005585,-0.03263,0.025367,0.058825,89.315475,38.758011,-147.698212,,,
729717022.820481,-2.335349,0.854073,135.384398,-0.031769,-0.045609,1.005585,-0.03263,0.025367,0.058825,89.315475,38.758011,-147.698212,,,
729717022.823546,-2.335351,0.854073,96.771194,-0.031769,-0.045609,1.005585,-0.03263,0.025367,0.058825,89.315475,38.758011,-147.698212,,,
729717022.824358,-2.33535,0.854076,99.848045,-0.031769,-0.045609,1.005585,-0.03263,0.025367,0.058825,89.315475,38.758011,-147.698212,,,
729717022.824526,-2.335349,0.854073,135.384398,-0.031769,-0.045609,1.005585,-0.03263,0.025367,0.058825,89.315475,38.758011,-147.698212,,,
729717022.827409,-2.345236,0.856701,96.787464,-0.026733,-0.041016,1.004501,-0.034323,0.004064,0.052531,89.315475,38.758011,-147.698212,,,
729717022.828817,-2.345235,0.856705,99.864314,-0.026733,-0.041016,1.004501,-0.034323,0.004064,0.052531,89.315475,38.758011,-147.698212,,,
729717022.828972,-2.345235,0.856702,135.400667,-0.026733,-0.041016,1.004501,-0.034323,0.004064,0.052531,89.315475,38.758011,-147.698212,,,
729717022.829334,-2.345236,0.856701,96.787464,-0.026733,-0.041016,1.004501,-0.034323,0.004064,0.052531,89.315475,38.758011,-147.698212,,,
729717022.829858,-2.345235,0.856705,99.864314,-0.026733,-0.041016,1.004501,-0.034323,0.004064,0.052531,89.315475,38.758011,-147.698212,,,
729717022.830483,-2.354066,0.860403,135.415648,-0.026733,-0.041016,1.004501,-0.034323,0.004064,0.052531,89.315475,38.758011,-147.698212,,,
729717022.833115,-2.354067,0.860403,96.802445,-0.026733,-0.041016,1.004501,-0.034323,0.004064,0.052531,89.315475,38.758011,-147.698212,,,
729717022.833488,-2.354067,0.860406,99.879296,-0.026733,-0.041016,1.004501,-0.034323,0.004064,0.052531,89.315475,38.758011,-147.698212,,,
729717022.833799,-2.354066,0.860403,135.415648,-0.026733,-0.041016,1.004501,-0.034323,0.004064,0.052531,89.315475,38.758011,-147.698212,,,
729717022.837974,-2.365077,0.85601,96.81578,-0.022614,-0.037659,1.000381,-0.038755,-0.020852,0.042305,89.315475,38.758011,-147.698212,,,
729717022.839842,-2.365076,0.856013,99.892631,-0.022614,-0.037659,1.000381,-0.038755,-0.020852,0.042305,89.315475,38.758011,-147.698212,,,
729717022.840012,-2.365075,0.85601,135.428983,-0.022614,-0.037659,1.000381,-0.038755,-0.020852,0.042305,89.315475,38.758011,-147.698212,,,
729717022.840365,-2.365077,0.85601,96.82822,-0.022614,-0.037659,1.000381,-0.038755,-0.020852,0.042305,89.315475,38.758011,-147.698212,,,
729717022.840467,-2.375365,0.852735,135.441425,-0.022614,-0.037659,1.000381,-0.038755,-0.020852,0.042305,89.315475,38.758011,-147.698212,,,
729717022.843234,-2.375366,0.852735,96.82822,-0.022614,-0.037659,1.000381,-0.038755,-0.020852,0.042305,89.315475,38.758011,-147.698212,,,
729717022.843791,-2.375366,0.852738,99.905071,-0.022614,-0.037659,1.000381,-0.038755,-0.020852,0.042305,89.315475,38.758011,-147.698212,,,
729717022.843899,-2.375365,0.852735,135.441425,-0.022614,-0.037659,1.000381,-0.038755,-0.020852,0.042305,89.315475,38.758011,-147.698212,,,
729717022.847449,-2.386084,0.842863,96.839573,-0.016479,-0.036118,0.999786,-0.036213,-0.036748,0.035934,89.16478,38.870758,-147.689209,,,
729717022.848576,-2.386083,0.842867,99.916423,-0.016479,-0.036118,0.999786,-0.036213,-0.036748,0.035934,89.16478,38.870758,-147.689209,,,
729717022.848681,-2.386083,0.842864,135.452777,-0.016479,-0.036118,0.999786,-0.036213,-0.036748,0.035934,89.16478,38.870758,-147.689209,,,
729717022.849326,-2.386084,0.842863,96.839573,-0.016479,-0.036118,0.999786,-0.036213,-0.036748,0.035934,89.16478,38.870758,-147.689209,,,
729717022.849807,-2.386083,0.842867,99.916423,-0.016479,-0.036118,0.999786,-0.036213,-0.036748,0.035934,89.16478,38.870758,-147.689209,,,
729717022.850451,-2.396415,0.835232,135.463712,-0.016479,-0.036118,0.999786,-0.036213,-0.036748,0.035934,89.16478,38.870758,-147.689209,,,
729717022.85318,-2.396417,0.835231,96.850507,-0.016479,-0.036118,0.999786,-0.036213,-0.036748,0.035934,89.16478,38.870758,-147.689209,,,
729717022.853589,-2.396416,0.835235,99.927358,-0.016479,-0.036118,0.999786,-0.036213,-0.036748,0.035934,89.16478,38.870758,-147.689209,,,
729717022.853757,-2.396415,0.835232,135.463712,-0.016479,-0.036118,0.999786,-0.036213,-0.036748,0.035934,89.16478,38.870758,-147.689209,,,
729717022.857328,-2.406503,0.8224,96.860376,-0.012115,-0.038528,0.999817,-0.034532,-0.044553,0.029729,89.16478,38.870758,-147.689209,,,
