Time (sec),Pitch (deg),Roll (deg),Yaw(deg),X-Acceleration (g),Y-Acceleration (g),Z-Acceleration (g),Pitch Rate (deg/sec),Roll Rate (deg/sec),Yaw Rate (deg/sec),Magnetic Field in X direction (uT),Magnetic Field in Y direction (uT),Magnetic Field in Z Direction (uT),Latitude (deg),Longitude (deg),Altitude (m)
729706674.572935,-43.325372,2.794622,-32.391809,-0.03717,-0.692184,0.764236,-0.294543,0.0482,-0.089172,59.856354,59.342575,-128.904037,,,
729706674.573674,-43.325361,2.794669,111.518397,-0.03717,-0.692184,0.764236,-0.294543,0.0482,-0.089172,59.856354,59.342575,-128.904037,,,
729706674.574488,-43.325372,2.794622,-32.391809,-0.03717,-0.692184,0.764236,-0.294543,0.0482,-0.089172,59.856354,59.342575,-128.904037,,,
729706674.576984,-43.407555,2.788303,111.491235,-0.03717,-0.692184,0.764236,-0.294543,0.0482,-0.089172,59.856354,59.342575,-128.904037,,,
729706674.578338,-43.407566,2.788255,-32.418993,-0.03717,-0.692184,0.764236,-0.294543,0.0482,-0.089172,59.856354,59.342575,-128.904037,,,
729706674.580322,-43.407555,2.788303,111.491235,-0.03717,-0.692184,0.764236,-0.294543,0.0482,-0.089172,59.856354,59.342575,-128.904037,,,
729706674.582517,-43.482009,2.783055,-32.442812,-0.042206,-0.693497,0.759384,-0.241565,0.040417,-0.069373,59.856354,59.342575,-128.904037,,,
729706674.583751,-43.481999,2.783102,111.467421,-0.042206,-0.693497,0.759384,-0.241565,0.040417,-0.069373,59.856354,59.342575,-128.904037,,,
729706674.584472,-43.482009,2.783055,-32.442812,-0.042206,-0.693497,0.759384,-0.241565,0.040417,-0.069373,59.856354,59.342575,-128.904037,,,
729706674.586996,-43.549222,2.779653,111.446856,-0.042206,-0.693497,0.759384,-0.241565,0.040417,-0.069373,59.856354,59.342575,-128.904037,,,
729706674.588442,-43.549233,2.779605,-32.463374,-0.042206,-0.693497,0.759384,-0.241565,0.040417,-0.069373,59.856354,59.342575,-128.904037,,,
729706674.590348,-43.549222,2.779653,111.446856,-0.042206,-0.693497,0.759384,-0.241565,0.040417,-0.069373,59.856354,59.342575,-128.904037,,,
729706674.59275,-43.610391,2.778553,-32.479543,-0.046585,-0.6978,0.752502,-0.200396,0.036134,-0.045022,59.856354,59.342575,-128.904037,,,
729706674.593668,-43.610381,2.7786,111.430685,-0.046585,-0.6978,0.752502,-0.200396,0.036134,-0.045022,59.856354,59.342575,-128.904037,,,
729706674.594467,-43.610391,2.778553,-32.479543,-0.046585,-0.6978,0.752502,-0.200396,0.036134,-0.045022,59.856354,59.342575,-128.904037,,,
729706674.596985,-43.665835,2.780633,111.419805,-0.046585,-0.6978,0.752502,-0.200396,0.036134,-0.045022,59.856354,59.342575,-128.904037,,,
729706674.598336,-43.665846,2.780585,-32.490429,-0.046585,-0.6978,0.752502,-0.200396,0.036134,-0.045022,59.856354,59.342575,-128.904037,,,
729706674.600321,-43.665835,2.780633,111.419805,-0.046585,-0.6978,0.752502,-0.200396,0.036134,-0.045022,59.941605,59.770309,-128.660477,,,
729706674.602858,-43.716118,2.784964,-32.497116,-0.047546,-0.701309,0.749023,-0.165273,0.032315,-0.02213,59.941605,59.770309,-128.660477,,,
729706674.60368,-43.716107,2.785012,111.413111,-0.047546,-0.701309,0.749023,-0.165273,0.032315,-0.02213,59.941605,59.770309,-128.660477,,,
729706674.604467,-43.716118,2.784964,-32.497116,-0.047546,-0.701309,0.749023,-0.165273,0.032315,-0.02213,59.941605,59.770309,-128.660477,,,
729706674.606981,-43.761975,2.791861,111.410636,-0.047546,-0.701309,0.749023,-0.165273,0.032315,-0.02213,59.941605,59.770309,-128.660477,,,
729706674.608426,-43.761986,2.791813,-32.499583,-0.047546,-0.701309,0.749023,-0.165273,0.032315,-0.02213,59.941605,59.770309,-128.660477,,,
729706674.610395,-43.761975,2.791861,111.410636,-0.047546,-0.701309,0.749023,-0.165273,0.032315,-0.02213,59.941605,59.770309,-128.660477,,,
729706674.612268,-43.80461,2.801102,-32.497999,-0.045288,-0.70314,0.745987,-0.143676,0.029752,-0.000667,59.941605,59.770309,-128.660477,,,
729706674.613658,-43.804599,2.801149,111.412231,-0.045288,-0.70314,0.745987,-0.143676,0.029752,-0.000667,59.941605,59.770309,-128.660477,,,
729706674.614467,-43.80461,2.801102,-32.497999,-0.045288,-0.70314,0.745987,-0.143676,0.029752,-0.000667,59.941605,59.770309,-128.660477,,,
729706674.616989,-43.84448,2.812493,111.417326,-0.045288,-0.70314,0.745987,-0.143676,0.029752,-0.000667,59.941605,59.770309,-128.660477,,,
729706674.618652,-43.844491,2.812445,-32.492906,-0.045288,-0.70314,0.745987,-0.143676,0.029752,-0.000667,59.941605,59.770309,-128.660477,,,
729706674.620321,-43.84448,2.812493,111.417326,-0.045288,-0.70314,0.745987,-0.143676,0.029752,-0.000667,59.941605,59.770309,-128.660477,,,
729706674.623859,-43.882757,2.826535,-32.484852,-0.03598,-0.701828,0.743439,-0.133101,0.03458,0.014627,59.941605,59.770309,-128.660477,,,
729706674.624144,-43.882746,2.826583,111.425382,-0.03598,-0.701828,0.743439,-0.133101,0.03458,0.014627,59.941605,59.770309,-128.660477,,,
729706674.624454,-43.882757,2.826535,-32.484852,-0.03598,-0.701828,0.743439,-0.133101,0.03458,0.014627,59.941605,59.770309,-128.660477,,,
729706674.62699,-43.920728,2.844081,111.434865,-0.03598,-0.701828,0.743439,-0.133101,0.03458,0.014627,59.941605,59.770309,-128.660477,,,
729706674.628457,-43.920739,2.844033,-32.475362,-0.03598,-0.701828,0.743439,-0.133101,0.03458,0.014627,59.941605,59.770309,-128.660477,,,
729706674.630322,-43.920728,2.844081,111.434865,-0.03598,-0.701828,0.743439,-0.133101,0.03458,0.014627,59.941605,59.770309,-128.660477,,,
729706674.632715,-43.958914,2.866869,-32.46359,-0.031219,-0.70015,0.743958,-0.134918,0.06067,0.025873,59.941605,59.770309,-128.660477,,,
729706674.63368,-43.958904,2.866917,111.44664,-0.031219,-0.70015,0.743958,-0.134918,0.06067,0.025873,59.941605,59.770309,-128.660477,,,
729706674.63447,-43.958914,2.866869,-32.46359,-0.031219,-0.70015,0.743958,-0.134918,0.06067,0.025873,59.941605,59.770309,-128.660477,,,
729706674.636991,-43.99878,2.895798,111.460767,-0.031219,-0.70015,0.743958,-0.134918,0.06067,0.025873,59.941605,59.770309,-128.660477,,,
729706674.638667,-43.998791,2.89575,-32.449469,-0.031219,-0.70015,0.743958,-0.134918,0.06067,0.025873,59.941605,59.770309,-128.660477,,,
729706674.640325,-43.99878,2.895798,111.460767,-0.031219,-0.70015,0.743958,-0.134918,0.06067,0.025873,60.008606,59.924545,-128.697037,,,
729706674.643047,-44.041581,2.930703,-32.433749,-0.028275,-0.700272,0.740952,-0.15554,0.095182,0.032543,60.008606,59.924545,-128.697037,,,
729706674.643673,-44.04157,2.930751,111.476472,-0.028275,-0.700272,0.740952,-0.15554,0.095182,0.032543,60.008606,59.924545,-128.697037,,,
729706674.644469,-44.041581,2.930703,-32.433749,-0.028275,-0.700272,0.740952,-0.15554,0.095182,0.032543,60.008606,59.924545,-128.697037,,,
729706674.646993,-44.088077,2.971623,111.494305,-0.028275,-0.700272,0.740952,-0.15554,0.095182,0.032543,60.008606,59.924545,-128.697037,,,
729706674.648667,-44.088088,2.971575,-32.415904,-0.028275,-0.700272,0.740952,-0.15554,0.095182,0.032543,60.008606,59.924545,-128.697037,,,
729706674.650318,-44.088077,2.971623,111.494305,-0.028275,-0.700272,0.740952,-0.15554,0.095182,0.032543,60.008606,59.924545,-128.697037,,,
729706674.652973,-44.13912,3.019396,-32.394789,-0.025757,-0.702225,0.731506,-0.187901,0.127691,0.046934,60.008606,59.924545,-128.697037,,,
729706674.653749,-44.139109,3.019444,111.515416,-0.025757,-0.702225,0.731506,-0.187901,0.127691,0.046934,60.008606,59.924545,-128.697037,,,
729706674.654481,-44.13912,3.019396,-32.394789,-0.025757,-0.702225,0.731506,-0.187901,0.127691,0.046934,60.008606,59.924545,-128.697037,,,
729706674.656984,-44.194343,3.07579,111.540633,-0.025757,-0.702225,0.731506,-0.187901,0.127691,0.046934,60.008606,59.924545,-128.697037,,,
729706674.658663,-44.194354,3.075742,-32.369595,-0.025757,-0.702225,0.731506,-0.187901,0.127691,0.046934,60.008606,59.924545,-128.697037,,,
729706674.660408,-44.194343,3.07579,111.540633,-0.025757,-0.702225,0.731506,-0.187901,0.127691,0.046934,60.008606,59.924545,-128.697037,,,
729706674.662643,-44.253524,3.139844,-32.340338,-0.028793,-0.701996,0.729507,-0.21654,0.1619,0.065102,60.008606,59.924545,-128.697037,,,
729706674.663542,-44.253513,3.139892,111.569882,-0.028793,-0.701996,0.729507,-0.21654,0.1619,0.065102,60.008606,59.924545,-128.697037,,,
729706674.66448,-44.253524,3.139844,-32.340338,-0.028793,-0.701996,0.729507,-0.21654,0.1619,0.065102,60.008606,59.924545,-128.697037,,,
729706674.666985,-44.317148,3.210829,111.603566,-0.028793,-0.701996,0.729507,-0.21654,0.1619,0.065102,60.008606,59.924545,-128.697037,,,
729706674.668654,-44.317159,3.210781,-32.306656,-0.028793,-0.701996,0.729507,-0.21654,0.1619,0.065102,60.008606,59.924545,-128.697037,,,
729706674.670323,-44.317148,3.210829,111.603566,-0.028793,-0.701996,0.729507,-0.21654,0.1619,0.065102,60.008606,59.924545,-128.697037,,,
729706674.67284,-44.385475,3.287798,-32.268505,-0.032669,-0.696777,0.722397,-0.250374,0.182233,0.084682,60.008606,59.924545,-128.697037,,,
729706674.673721,-44.385464,3.287846,111.641712,-0.032669,-0.696777,0.722397,-0.250374,0.182233,0.084682,60.008606,59.924545,-128.697037,,,
729706674.674475,-44.385475,3.287798,-32.268505,-0.032669,-0.696777,0.722397,-0.250374,0.182233,0.084682,60.008606,59.924545,-128.697037,,,
729706674.676995,-44.457794,3.369545,111.683631,-0.032669,-0.696777,0.722397,-0.250374,0.182233,0.084682,60.008606,59.924545,-128.697037,,,
729706674.678653,-44.457805,3.369497,-32.226575,-0.032669,-0.696777,0.722397,-0.250374,0.182233,0.084682,60.008606,59.924545,-128.697037,,,
729706674.680322,-44.457794,3.369545,111.683631,-0.032669,-0.696777,0.722397,-0.250374,0.182233,0.084682,60.008606,59.924545,-128.697037,,,
729706674.683579,-44.533088,3.4541,-32.181345,-0.037781,-0.693985,0.717941,-0.271878,0.185977,0.098835,60.423172,60.236282,-128.526611,,,
729706674.683836,-44.533076,3.454148,111.728862,-0.037781,-0.693985,0.717941,-0.271878,0.185977,0.098835,60.423172,60.236282,-128.526611,,,
729706674.68445,-44.533088,3.4541,-32.181345,-0.037781,-0.693985,0.717941,-0.271878,0.185977,0.098835,60.423172,60.236282,-128.526611,,,
729706674.686993,-44.610318,3.539489,111.775771,-0.037781,-0.693985,0.717941,-0.271878,0.185977,0.098835,60.423172,60.236282,-128.526611,,,
729706674.688626,-44.61033,3.53944,-32.134454,-0.037781,-0.693985,0.717941,-0.271878,0.185977,0.098835,60.423172,60.236282,-128.526611,,,
729706674.690339,-44.610318,3.539489,111.775771,-0.037781,-0.693985,0.717941,-0.271878,0.185977,0.098835,60.423172,60.236282,-128.526611,,,
729706674.691152,-44.61033,3.53944,-32.134454,-0.037781,-0.693985,0.717941,-0.271878,0.185977,0.098835,60.423172,60.236282,-128.526611,,,
729706674.693665,-44.688687,3.62425,111.823276,-0.039536,-0.68959,0.715652,-0.280245,0.178779,0.100189,60.423172,60.236282,-128.526611,,,
729706674.695671,-44.688698,3.624202,-32.086957,-0.039536,-0.68959,0.715652,-0.280245,0.178779,0.100189,60.423172,60.236282,-128.526611,,,
729706674.696992,-44.767759,3.706758,111.869715,-0.039536,-0.68959,0.715652,-0.280245,0.178779,0.100189,60.423172,60.236282,-128.526611,,,
729706674.698597,-44.767771,3.70671,-32.040512,-0.039536,-0.68959,0.715652,-0.280245,0.178779,0.100189,60.423172,60.236282,-128.526611,,,
729706674.700319,-44.767759,3.706758,111.869715,-0.039536,-0.68959,0.715652,-0.280245,0.178779,0.100189,60.423172,60.236282,-128.526611,,,
729706674.70118,-44.767771,3.70671,-32.040512,-0.039536,-0.68959,0.715652,-0.280245,0.178779,0.100189,60.423172,60.236282,-128.526611,,,
729706674.703672,-44.846498,3.784925,111.912587,-0.038727,-0.6875,0.713913,-0.276893,0.165764,0.081614,60.423172,60.236282,-128.526611,,,
729706674.705877,-44.84651,3.784876,-31.997649,-0.038727,-0.6875,0.713913,-0.276893,0.165764,0.081614,60.423172,60.236282,-128.526611,,,
729706674.706993,-44.924028,3.857178,111.950698,-0.038727,-0.6875,0.713913,-0.276893,0.165764,0.081614,60.423172,60.236282,-128.526611,,,
729706674.708602,-44.92404,3.857129,-31.959529,-0.038727,-0.6875,0.713913,-0.276893,0.165764,0.081614,60.423172,60.236282,-128.526611,,,
729706674.710393,-44.924028,3.857178,111.950698,-0.038727,-0.6875,0.713913,-0.276893,0.165764,0.081614,60.423172,60.236282,-128.526611,,,
729706674.711126,-44.92404,3.857129,-31.959529,-0.038727,-0.6875,0.713913,-0.276893,0.165764,0.081614,60.423172,60.236282,-128.526611,,,
729706674.713645,-45.000269,3.922511,111.983096,-0.044113,-0.684723,0.711426,-0.266009,0.145358,0.053191,60.423172,60.236282,-128.526611,,,
729706674.716046,-45.000281,3.922463,-31.92712,-0.044113,-0.684723,0.711426,-0.266009,0.145358,0.053191,60.423172,60.236282,-128.526611,,,
729706674.71699,-45.072802,3.977662,112.007588,-0.044113,-0.684723,0.711426,-0.266009,0.145358,0.053191,60.423172,60.236282,-128.526611,,,
729706674.718613,-45.072814,3.977613,-31.902622,-0.044113,-0.684723,0.711426,-0.266009,0.145358,0.053191,60.423172,60.236282,-128.526611,,,
729706674.720324,-45.072802,3.977662,112.007588,-0.044113,-0.684723,0.711426,-0.266009,0.145358,0.053191,60.423172,60.236282,-128.526611,,,
729706674.721131,-45.072814,3.977613,-31.902622,-0.044113,-0.684723,0.711426,-0.266009,0.145358,0.053191,60.423172,60.236282,-128.526611,,,
729706674.723646,-45.145263,4.024698,112.026528,-0.048691,-0.687607,0.710876,-0.249155,0.109462,0.019675,60.546585,60.496445,-127.922302,,,
729706674.726865,-45.145275,4.024649,-31.883691,-0.048691,-0.687607,0.710876,-0.249155,0.109462,0.019675,60.546585,60.496445,-127.922302,,,
729706674.727124,-45.21346,4.057871,112.036925,-0.048691,-0.687607,0.710876,-0.249155,0.109462,0.019675,60.546585,60.496445,-127.922302,,,
729706674.728588,-45.213472,4.057822,-31.873299,-0.048691,-0.687607,0.710876,-0.249155,0.109462,0.019675,60.546585,60.496445,-127.922302,,,
729706674.730322,-45.21346,4.057871,112.036925,-0.048691,-0.687607,0.710876,-0.249155,0.109462,0.019675,60.546585,60.496445,-127.922302,,,
729706674.731193,-45.213472,4.057822,-31.873299,-0.048691,-0.687607,0.710876,-0.249155,0.109462,0.019675,60.546585,60.496445,-127.922302,,,
729706674.733656,-45.282784,4.082695,112.043568,-0.056992,-0.690964,0.699722,-0.239455,0.059716,-0.008626,60.546585,60.496445,-127.922302,,,
729706674.737126,-45.282796,4.082647,-31.86666,-0.056992,-0.690964,0.699722,-0.239455,0.059716,-0.008626,60.546585,60.496445,-127.922302,,,
729706674.737597,-45.349246,4.093848,112.043032,-0.056992,-0.690964,0.699722,-0.239455,0.059716,-0.008626,60.546585,60.496445,-127.922302,,,
729706674.73856,-45.349258,4.0938,-31.86719,-0.056992,-0.690964,0.699722,-0.239455,0.059716,-0.008626,60.546585,60.496445,-127.922302,,,
729706674.740348,-45.349246,4.093848,112.043032,-0.056992,-0.690964,0.699722,-0.239455,0.059716,-0.008626,60.546585,60.496445,-127.922302,,,
729706674.741166,-45.349258,4.0938,-31.86719,-0.056992,-0.690964,0.699722,-0.239455,0.059716,-0.008626,60.546585,60.496445,-127.922302,,,
729706674.743657,-45.418034,4.098462,112.039894,-0.065506,-0.690872,0.688156,-0.23874,0.016252,-0.032449,60.546585,60.496445,-127.922302,,,
729706674.745917,-45.418045,4.098413,-31.870336,-0.065506,-0.690872,0.688156,-0.23874,0.016252,-0.032449,60.546585,60.496445,-127.922302,,,
729706674.746991,-45.484044,4.090815,112.0292,-0.065506,-0.690872,0.688156,-0.23874,0.016252,-0.032449,60.546585,60.496445,-127.922302,,,
729706674.748628,-45.484056,4.090766,-31.881016,-0.065506,-0.690872,0.688156,-0.23874,0.016252,-0.032449,60.546585,60.496445,-127.922302,,,
729706674.750404,-45.484044,4.090815,112.0292,-0.065506,-0.690872,0.688156,-0.23874,0.016252,-0.032449,60.546585,60.496445,-127.922302,,,
729706674.751171,-45.484056,4.090766,-31.881016,-0.065506,-0.690872,0.688156,-0.23874,0.016252,-0.032449,60.546585,60.496445,-127.922302,,,
729706674.753702,-45.551773,4.076216,112.014699,-0.06105,-0.689819,0.691635,-0.231373,-0.022475,-0.059933,60.546585,60.496445,-127.922302,,,
729706674.757226,-45.551784,4.076167,-31.895519,-0.06105,-0.689819,0.691635,-0.231373,-0.022475,-0.059933,60.546585,60.496445,-127.922302,,,
729706674.757516,-45.617029,4.049979,111.993315,-0.06105,-0.689819,0.691635,-0.231373,-0.022475,-0.059933,60.546585,60.496445,-127.922302,,,
729706674.758649,-45.61704,4.049931,-31.916901,-0.06105,-0.689819,0.691635,-0.231373,-0.022475,-0.059933,60.546585,60.496445,-127.922302,,,
729706674.760364,-45.617029,4.049979,111.993315,-0.06105,-0.689819,0.691635,-0.231373,-0.022475,-0.059933,60.546585,60.496445,-127.922302,,,
729706674.761194,-45.61704,4.049931,-31.916901,-0.06105,-0.689819,0.691635,-0.231373,-0.022475,-0.059933,60.546585,60.496445,-127.922302,,,
729706674.76366,-45.686078,4.015992,111.96727,-0.054047,-0.690948,0.68988,-0.23884,-0.060097,-0.08995,60.336243,60.667084,-127.332336,,,
729706674.766672,-45.68609,4.015943,-31.942944,-0.054047,-0.690948,0.68988,-0.23884,-0.060097,-0.08995,60.336243,60.667084,-127.332336,,,
729706674.76698,-45.755468,3.970353,111.93376,-0.054047,-0.690948,0.68988,-0.23884,-0.060097,-0.08995,60.336243,60.667084,-127.332336,,,
729706674.768633,-45.75548,3.970304,-31.976459,-0.054047,-0.690948,0.68988,-0.23884,-0.060097,-0.08995,60.336243,60.667084,-127.332336,,,
729706674.770329,-45.755468,3.970353,111.93376,-0.054047,-0.690948,0.68988,-0.23884,-0.060097,-0.08995,60.336243,60.667084,-127.332336,,,
729706674.771209,-45.75548,3.970304,-31.976459,-0.054047,-0.690948,0.68988,-0.23884,-0.060097,-0.08995,60.336243,60.667084,-127.332336,,,
729706674.773691,-45.831314,3.916458,111.895659,-0.052216,-0.694855,0.683334,-0.264182,-0.098959,-0.117897,60.336243,60.667084,-127.332336,,,
729706674.776082,-45.831326,3.916409,-32.01455,-0.052216,-0.694855,0.683334,-0.264182,-0.098959,-0.117897,60.336243,60.667084,-127.332336,,,
729706674.776995,-45.90943,3.85343,111.85165,-0.052216,-0.694855,0.683334,-0.264182,-0.098959,-0.117897,60.336243,60.667084,-127.332336,,,
729706674.778623,-45.909442,3.853381,-32.058565,-0.052216,-0.694855,0.683334,-0.264182,-0.098959,-0.117897,60.336243,60.667084,-127.332336,,,
729706674.78032,-45.90943,3.85343,111.85165,-0.052216,-0.694855,0.683334,-0.264182,-0.098959,-0.117897,60.336243,60.667084,-127.332336,,,
729706674.781189,-45.909442,3.853381,-32.058565,-0.052216,-0.694855,0.683334,-0.264182,-0.098959,-0.117897,60.336243,60.667084,-127.332336,,,
729706674.783661,-45.994572,3.784984,111.803161,-0.049316,-0.701523,0.684723,-0.293743,-0.117551,-0.144255,60.336243,60.667084,-127.332336,,,
729706674.786042,-45.994584,3.784934,-32.107053,-0.049316,-0.701523,0.684723,-0.293743,-0.117551,-0.144255,60.336243,60.667084,-127.332336,,,
729706674.787001,-46.083316,3.712255,111.750923,-0.049316,-0.701523,0.684723,-0.293743,-0.117551,-0.144255,60.336243,60.667084,-127.332336,,,
729706674.788632,-46.083328,3.712206,-32.159276,-0.049316,-0.701523,0.684723,-0.293743,-0.117551,-0.144255,60.336243,60.667084,-127.332336,,,
729706674.790351,-46.083316,3.712255,111.750923,-0.049316,-0.701523,0.684723,-0.293743,-0.117551,-0.144255,60.336243,60.667084,-127.332336,,,
729706674.79119,-46.083328,3.712206,-32.159276,-0.049316,-0.701523,0.684723,-0.293743,-0.117551,-0.144255,60.336243,60.667084,-127.332336,,,
729706674.793671,-46.176202,3.636905,111.696743,-0.04248,-0.707764,0.6884,-0.322097,-0.125545,-0.154244,60.336243,60.667084,-127.332336,,,
729706674.796481,-46.176214,3.636855,-32.213461,-0.04248,-0.707764,0.6884,-0.322097,-0.125545,-0.154244,60.336243,60.667084,-127.332336,,,
729706674.796989,-46.273297,3.559989,111.641241,-0.04248,-0.707764,0.6884,-0.322097,-0.125545,-0.154244,60.336243,60.667084,-127.332336,,,
729706674.798605,-46.273309,3.559939,-32.268983,-0.04248,-0.707764,0.6884,-0.322097,-0.125545,-0.154244,60.336243,60.667084,-127.332336,,,
729706674.800386,-46.273297,3.559989,111.641241,-0.04248,-0.707764,0.6884,-0.322097,-0.125545,-0.154244,60.336243,60.667084,-127.332336,,,
729706674.801151,-46.273309,3.559939,-32.268983,-0.04248,-0.707764,0.6884,-0.322097,-0.125545,-0.154244,60.336243,60.667084,-127.332336,,,
729706674.803655,-46.374468,3.482771,111.584732,-0.042221,-0.71225,0.683105,-0.350726,-0.12222,-0.159471,60.312958,60.975372,-127.165115,,,
729706674.806656,-46.374479,3.482722,-32.325494,-0.042221,-0.71225,0.683105,-0.350726,-0.12222,-0.159471,60.312958,60.975372,-127.165115,,,
729706674.806974,-46.480328,3.407207,111.52861,-0.042221,-0.71225,0.683105,-0.350726,-0.12222,-0.159471,60.312958,60.975372,-127.165115,,,
729706674.808603,-46.480339,3.407157,-32.381605,-0.042221,-0.71225,0.683105,-0.350726,-0.12222,-0.159471,60.312958,60.975372,-127.165115,,,
729706674.810324,-46.480328,3.407207,111.52861,-0.042221,-0.71225,0.683105,-0.350726,-0.12222,-0.159471,60.312958,60.975372,-127.165115,,,
729706674.811149,-46.480339,3.407157,-32.381605,-0.042221,-0.71225,0.683105,-0.350726,-0.12222,-0.159471,60.312958,60.975372,-127.165115,,,
729706674.813649,-46.590147,3.336236,111.473777,-0.040649,-0.715317,0.676071,-0.379104,-0.096224,-0.15357,60.312958,60.975372,-127.165115,,,
729706674.816036,-46.590159,3.336186,-32.436435,-0.040649,-0.715317,0.676071,-0.379104,-0.096224,-0.15357,60.312958,60.975372,-127.165115,,,
729706674.816993,-46.702646,3.27394,111.420909,-0.040649,-0.715317,0.676071,-0.379104,-0.096224,-0.15357,60.312958,60.975372,-127.165115,,,
729706674.818601,-46.702658,3.27389,-32.489301,-0.040649,-0.715317,0.676071,-0.379104,-0.096224,-0.15357,60.312958,60.975372,-127.165115,,,
729706674.820323,-46.702646,3.27394,111.420909,-0.040649,-0.715317,0.676071,-0.379104,-0.096224,-0.15357,60.312958,60.975372,-127.165115,,,
729706674.821149,-46.702658,3.27389,-32.489301,-0.040649,-0.715317,0.676071,-0.379104,-0.096224,-0.15357,60.312958,60.975372,-127.165115,,,
729706674.823644,-46.817997,3.219749,111.370749,-0.034485,-0.713531,0.686417,-0.399931,-0.052988,-0.140461,60.312958,60.975372,-127.165115,,,
729706674.826494,-46.818009,3.219699,-32.539471,-0.034485,-0.713531,0.686417,-0.399931,-0.052988,-0.140461,60.312958,60.975372,-127.165115,,,
729706674.826987,-46.937172,3.171361,111.324119,-0.034485,-0.713531,0.686417,-0.399931,-0.052988,-0.140461,60.312958,60.975372,-127.165115,,,
729706674.828598,-46.937183,3.171311,-32.586097,-0.034485,-0.713531,0.686417,-0.399931,-0.052988,-0.140461,60.312958,60.975372,-127.165115,,,
729706674.830317,-46.937172,3.171361,111.324119,-0.034485,-0.713531,0.686417,-0.399931,-0.052988,-0.140461,60.312958,60.975372,-127.165115,,,
729706674.831129,-46.937183,3.171311,-32.586097,-0.034485,-0.713531,0.686417,-0.399931,-0.052988,-0.140461,60.312958,60.975372,-127.165115,,,
729706674.833661,-47.059937,3.129705,111.281057,-0.032471,-0.713242,0.668564,-0.425855,-0.023779,-0.123728,60.312958,60.975372,-127.165115,,,
729706674.836056,-47.059948,3.129655,-32.629153,-0.032471,-0.713242,0.668564,-0.425855,-0.023779,-0.123728,60.312958,60.975372,-127.165115,,,
729706674.837014,-47.185385,3.096273,111.242405,-0.032471,-0.713242,0.668564,-0.425855,-0.023779,-0.123728,60.312958,60.975372,-127.165115,,,
729706674.838615,-47.185397,3.096223,-32.667816,-0.032471,-0.713242,0.668564,-0.425855,-0.023779,-0.123728,60.312958,60.975372,-127.165115,,,
729706674.840419,-47.185385,3.096273,111.242405,-0.032471,-0.713242,0.668564,-0.425855,-0.023779,-0.123728,60.312958,60.975372,-127.165115,,,
729706674.841139,-47.185397,3.096223,-32.667816,-0.032471,-0.713242,0.668564,-0.425855,-0.023779,-0.123728,60.312958,60.975372,-127.165115,,,
729706674.843667,-47.314341,3.071203,111.208576,-0.031067,-0.714188,0.672165,-0.451789,0.010166,-0.101397,60.312958,60.975372,-127.165115,,,
729706674.847835,-47.314353,3.071152,-32.701638,-0.031067,-0.714188,0.672165,-0.451789,0.010166,-0.101397,59.812195,61.408173,-126.651657,,,
729706674.848129,-47.446827,3.053736,111.178761,-0.031067,-0.714188,0.672165,-0.451789,0.010166,-0.101397,59.812195,61.408173,-126.651657,,,
729706674.850274,-47.446827,3.053736,111.178761,-0.031067,-0.714188,0.672165,-0.451789,0.010166,-0.101397,59.812195,61.408173,-126.651657,,,
729706674.852807,-47.446838,3.053685,-32.731462,-0.02832,-0.719025,0.666901,-0.476454,0.040662,-0.082024,59.812195,61.408173,-126.651657,,,
729706674.853687,-47.582708,3.04375,111.153216,-0.02832,-0.719025,0.666901,-0.476454,0.040662,-0.082024,59.812195,61.408173,-126.651657,,,
729706674.85531,-47.582719,3.043699,-32.757019,-0.02832,-0.719025,0.666901,-0.476454,0.040662,-0.082024,59.812195,61.408173,-126.651657,,,
729706674.856989,-47.723484,3.040589,111.131465,-0.02832,-0.719025,0.666901,-0.476454,0.040662,-0.082024,59.812195,61.408173,-126.651657,,,
729706674.858338,-47.723495,3.040538,-32.778755,-0.02832,-0.719025,0.666901,-0.476454,0.040662,-0.082024,59.812195,61.408173,-126.651657,,,
729706674.860411,-47.723484,3.040589,111.131465,-0.02832,-0.719025,0.666901,-0.476454,0.040662,-0.082024,59.812195,61.408173,-126.651657,,,
729706674.861167,-47.723495,3.040538,-32.778755,-0.02832,-0.719025,0.666901,-0.476454,0.040662,-0.082024,59.812195,61.408173,-126.651657,,,
729706674.863651,-47.870103,3.042075,111.11175,-0.018845,-0.71904,0.654953,-0.517311,0.062832,-0.074378,59.812195,61.408173,-126.651657,,,
729706674.866192,-47.870114,3.042024,-32.798468,-0.018845,-0.71904,0.654953,-0.517311,0.062832,-0.074378,59.812195,61.408173,-126.651657,,,
729706674.866998,-48.022352,3.047854,111.093832,-0.018845,-0.71904,0.654953,-0.517311,0.062832,-0.074378,59.812195,61.408173,-126.651657,,,
729706674.868633,-48.022364,3.047802,-32.816385,-0.018845,-0.71904,0.654953,-0.517311,0.062832,-0.074378,59.812195,61.408173,-126.651657,,,
729706674.870432,-48.022352,3.047854,111.093832,-0.018845,-0.71904,0.654953,-0.517311,0.062832,-0.074378,59.812195,61.408173,-126.651657,,,
729706674.871133,-48.022364,3.047802,-32.816385,-0.018845,-0.71904,0.654953,-0.517311,0.062832,-0.074378,59.812195,61.408173,-126.651657,,,
729706674.873653,-48.180959,3.058984,111.077152,-0.012619,-0.719009,0.647064,-0.561572,0.093891,-0.070842,59.812195,61.408173,-126.651657,,,
729706674.876,-48.180971,3.058932,-32.833056,-0.012619,-0.719009,0.647064,-0.561572,0.093891,-0.070842,59.812195,61.408173,-126.651657,,,
729706674.876993,-48.34661,3.075081,111.060495,-0.012619,-0.719009,0.647064,-0.561572,0.093891,-0.070842,59.812195,61.408173,-126.651657,,,
729706674.878633,-48.346622,3.075029,-32.849709,-0.012619,-0.719009,0.647064,-0.561572,0.093891,-0.070842,59.812195,61.408173,-126.651657,,,
729706674.880319,-48.34661,3.075081,111.060495,-0.012619,-0.719009,0.647064,-0.561572,0.093891,-0.070842,59.812195,61.408173,-126.651657,,,
729706674.881131,-48.346622,3.075029,-32.849709,-0.012619,-0.719009,0.647064,-0.561572,0.093891,-0.070842,59.812195,61.408173,-126.651657,,,
729706674.883652,-48.519453,3.094281,111.042908,-0.006866,-0.718765,0.642212,-0.611489,0.120628,-0.077911,59.812195,61.408173,-126.651657,,,
729706674.8868,-48.519465,3.094229,-32.867301,-0.006866,-0.718765,0.642212,-0.611489,0.120628,-0.077911,59.787704,61.897049,-125.554871,,,
729706674.887165,-48.700888,3.115088,111.023323,-0.006866,-0.718765,0.642212,-0.611489,0.120628,-0.077911,59.787704,61.897049,-125.554871,,,
729706674.888607,-48.7009,3.115035,-32.886904,-0.006866,-0.718765,0.642212,-0.611489,0.120628,-0.077911,59.787704,61.897049,-125.554871,,,
729706674.890342,-48.700888,3.115088,111.023323,-0.006866,-0.718765,0.642212,-0.611489,0.120628,-0.077911,59.787704,61.897049,-125.554871,,,
729706674.891129,-48.7009,3.115035,-32.886904,-0.006866,-0.718765,0.642212,-0.611489,0.120628,-0.077911,59.787704,61.897049,-125.554871,,,
729706674.893725,-48.891781,3.136446,111.001712,-0.007095,-0.718292,0.626633,-0.67668,0.135376,-0.090865,59.787704,61.897049,-125.554871,,,
729706674.896049,-48.891793,3.136393,-32.908526,-0.007095,-0.718292,0.626633,-0.67668,0.135376,-0.090865,59.787704,61.897049,-125.554871,,,
729706674.896988,-49.092165,3.15741,110.978312,-0.007095,-0.718292,0.626633,-0.67668,0.135376,-0.090865,59.787704,61.897049,-125.554871,,,
729706674.898611,-49.092177,3.157358,-32.931906,-0.007095,-0.718292,0.626633,-0.67668,0.135376,-0.090865,59.787704,61.897049,-125.554871,,,
729706674.900322,-49.092165,3.15741,110.978312,-0.007095,-0.718292,0.626633,-0.67668,0.135376,-0.090865,59.787704,61.897049,-125.554871,,,
729706674.901126,-49.092177,3.157358,-32.931906,-0.007095,-0.718292,0.626633,-0.67668,0.135376,-0.090865,59.787704,61.897049,-125.554871,,,
729706674.90337,-49.30259,3.177118,110.952498,-0.008728,-0.720306,0.616287,-0.745427,0.139752,-0.105779,59.787704,61.897049,-125.554871,,,
729706674.905913,-49.302602,3.177065,-32.957729,-0.008728,-0.720306,0.616287,-0.745427,0.139752,-0.105779,59.787704,61.897049,-125.554871,,,
729706674.906984,-49.522239,3.193762,110.922442,-0.008728,-0.720306,0.616287,-0.745427,0.139752,-0.105779,59.787704,61.897049,-125.554871,,,
729706674.908605,-49.522251,3.193709,-32.987769,-0.008728,-0.720306,0.616287,-0.745427,0.139752,-0.105779,59.787704,61.897049,-125.554871,,,
729706674.910345,-49.522239,3.193762,110.922442,-0.008728,-0.720306,0.616287,-0.745427,0.139752,-0.105779,59.787704,61.897049,-125.554871,,,
729706674.911126,-49.522251,3.193709,-32.987769,-0.008728,-0.720306,0.616287,-0.745427,0.139752,-0.105779,59.787704,61.897049,-125.554871,,,
729706674.913648,-49.749236,3.206439,110.887057,-0.008301,-0.725967,0.611618,-0.794752,0.140953,-0.132434,59.787704,61.897049,-125.554871,,,
729706674.916061,-49.749248,3.206386,-33.023162,-0.008301,-0.725967,0.611618,-0.794752,0.140953,-0.132434,59.787704,61.897049,-125.554871,,,
729706674.916992,-49.981646,3.213575,110.844902,-0.008301,-0.725967,0.611618,-0.794752,0.140953,-0.132434,59.787704,61.897049,-125.554871,,,
729706674.918329,-49.981658,3.213521,-33.065315,-0.008301,-0.725967,0.611618,-0.794752,0.140953,-0.132434,59.787704,61.897049,-125.554871,,,
729706674.920322,-49.981646,3.213575,110.844902,-0.008301,-0.725967,0.611618,-0.794752,0.140953,-0.132434,59.787704,61.897049,-125.554871,,,
729706674.921129,-49.981658,3.213521,-33.065315,-0.008301,-0.725967,0.611618,-0.794752,0.140953,-0.132434,59.787704,61.897049,-125.554871,,,
729706674.92365,-50.218775,3.213163,110.794575,-0.008011,-0.734619,0.612595,-0.825857,0.132906,-0.169996,59.787704,61.897049,-125.554871,,,
729706674.925602,-50.218788,3.213109,-33.115634,-0.008011,-0.734619,0.612595,-0.825857,0.132906,-0.169996,59.787704,61.897049,-125.554871,,,
729706674.926991,-50.460859,3.203436,110.735276,-0.008011,-0.734619,0.612595,-0.825857,0.132906,-0.169996,60.035828,62.727386,-124.256775,,,
729706674.929211,-50.460871,3.203381,-33.174954,-0.008011,-0.734619,0.612595,-0.825857,0.132906,-0.169996,60.035828,62.727386,-124.256775,,,
729706674.930323,-50.460859,3.203436,110.735276,-0.008011,-0.734619,0.612595,-0.825857,0.132906,-0.169996,60.035828,62.727386,-124.256775,,,
729706674.931129,-50.460871,3.203381,-33.174954,-0.008011,-0.734619,0.612595,-0.825857,0.132906,-0.169996,60.035828,62.727386,-124.256775,,,
729706674.93365,-50.707683,3.183653,110.666879,-0.011093,-0.741135,0.609192,-0.856787,0.112889,-0.210206,60.035828,62.727386,-124.256775,,,
729706674.936124,-50.707695,3.183599,-33.243346,-0.011093,-0.741135,0.609192,-0.856787,0.112889,-0.210206,60.035828,62.727386,-124.256775,,,
729706674.936992,-50.958331,3.154573,110.591001,-0.011093,-0.741135,0.609192,-0.856787,0.112889,-0.210206,60.035828,62.727386,-124.256775,,,
729706674.938634,-50.958343,3.154518,-33.31921,-0.011093,-0.741135,0.609192,-0.856787,0.112889,-0.210206,60.035828,62.727386,-124.256775,,,
729706674.940339,-50.958331,3.154573,110.591001,-0.011093,-0.741135,0.609192,-0.856787,0.112889,-0.210206,60.035828,62.727386,-124.256775,,,
729706674.941128,-50.958343,3.154518,-33.31921,-0.011093,-0.741135,0.609192,-0.856787,0.112889,-0.210206,60.035828,62.727386,-124.256775,,,
729706674.943721,-51.211956,3.11715,110.508875,-0.020218,-0.751892,0.605179,-0.875876,0.090129,-0.235789,60.035828,62.727386,-124.256775,,,
729706674.946272,-51.211969,3.117095,-33.401344,-0.020218,-0.751892,0.605179,-0.875876,0.090129,-0.235789,60.035828,62.727386,-124.256775,,,
729706674.947029,-51.467267,3.072271,110.421702,-0.020218,-0.751892,0.605179,-0.875876,0.090129,-0.235789,60.035828,62.727386,-124.256775,,,
729706674.948765,-51.46728,3.072216,-33.488506,-0.020218,-0.751892,0.605179,-0.875876,0.090129,-0.235789,60.035828,62.727386,-124.256775,,,
729706674.950354,-51.467267,3.072271,110.421702,-0.020218,-0.751892,0.605179,-0.875876,0.090129,-0.235789,60.035828,62.727386,-124.256775,,,
729706674.951134,-51.46728,3.072216,-33.488506,-0.020218,-0.751892,0.605179,-0.875876,0.090129,-0.235789,60.035828,62.727386,-124.256775,,,
729706674.953658,-51.723506,3.020476,110.330902,-0.028915,-0.763336,0.606491,-0.881498,0.063516,-0.248219,60.035828,62.727386,-124.256775,,,
729706674.956119,-51.723518,3.020421,-33.579332,-0.028915,-0.763336,0.606491,-0.881498,0.063516,-0.248219,60.035828,62.727386,-124.256775,,,
729706674.957085,-51.979475,2.962256,110.237374,-0.028915,-0.763336,0.606491,-0.881498,0.063516,-0.248219,60.035828,62.727386,-124.256775,,,
729706674.958702,-51.979488,2.9622,-33.672855,-0.028915,-0.763336,0.606491,-0.881498,0.063516,-0.248219,60.035828,62.727386,-124.256775,,,
729706674.960344,-51.979475,2.962256,110.237374,-0.028915,-0.763336,0.606491,-0.881498,0.063516,-0.248219,60.035828,62.727386,-124.256775,,,
729706674.961134,-51.979488,2.9622,-33.672855,-0.028915,-0.763336,0.606491,-0.881498,0.063516,-0.248219,60.035828,62.727386,-124.256775,,,
729706674.963645,-52.232754,2.898855,110.142636,-0.032898,-0.776535,0.608612,-0.863464,0.035884,-0.248372,60.035828,62.727386,-124.256775,,,
729706674.965919,-52.232767,2.898798,-33.767588,-0.032898,-0.776535,0.608612,-0.863464,0.035884,-0.248372,60.035828,62.727386,-124.256775,,,
729706674.967019,-52.48252,2.831793,110.047172,-0.032898,-0.776535,0.608612,-0.863464,0.035884,-0.248372,60.035828,62.727386,-124.256775,,,
729706674.969223,-52.482532,2.831737,-33.863057,-0.032898,-0.776535,0.608612,-0.863464,0.035884,-0.248372,59.513,63.492676,-123.12999,,,
729706674.970329,-52.48252,2.831793,110.047172,-0.032898,-0.776535,0.608612,-0.863464,0.035884,-0.248372,59.513,63.492676,-123.12999,,,
729706674.971132,-52.482532,2.831737,-33.863057,-0.032898,-0.776535,0.608612,-0.863464,0.035884,-0.248372,59.513,63.492676,-123.12999,,,
729706674.973646,-52.729106,2.761591,109.950424,-0.034515,-0.785049,0.613083,-0.841749,0.022893,-0.24835,59.513,63.492676,-123.12999,,,
729706674.97591,-52.729118,2.761534,-33.959804,-0.034515,-0.785049,0.613083,-0.841749,0.022893,-0.24835,59.513,63.492676,-123.12999,,,
729706674.977023,-52.971449,2.688945,109.852475,-0.034515,-0.785049,0.613083,-0.841749,0.022893,-0.24835,59.513,63.492676,-123.12999,,,
729706674.978672,-52.971461,2.688888,-34.057737,-0.034515,-0.785049,0.613083,-0.841749,0.022893,-0.24835,59.513,63.492676,-123.12999,,,
729706674.980321,-52.971449,2.688945,109.852475,-0.034515,-0.785049,0.613083,-0.841749,0.022893,-0.24835,59.513,63.492676,-123.12999,,,
729706674.981131,-52.971461,2.688888,-34.057737,-0.034515,-0.785049,0.613083,-0.841749,0.022893,-0.24835,59.513,63.492676,-123.12999,,,
729706674.983645,-53.208457,2.615935,109.754548,-0.033371,-0.791916,0.616394,-0.804932,0.02198,-0.242046,59.513,63.492676,-123.12999,,,
729706674.985872,-53.20847,2.615877,-34.155661,-0.033371,-0.791916,0.616394,-0.804932,0.02198,-0.242046,59.513,63.492676,-123.12999,,,
729706674.987021,-53.439196,2.543309,109.656591,-0.033371,-0.791916,0.616394,-0.804932,0.02198,-0.242046,59.513,63.492676,-123.12999,,,
729706674.988623,-53.439208,2.543251,-34.253632,-0.033371,-0.791916,0.616394,-0.804932,0.02198,-0.242046,59.513,63.492676,-123.12999,,,
729706674.990333,-53.439196,2.543309,109.656591,-0.033371,-0.791916,0.616394,-0.804932,0.02198,-0.242046,59.513,63.492676,-123.12999,,,
729706674.99113,-53.439208,2.543251,-34.253632,-0.033371,-0.791916,0.616394,-0.804932,0.02198,-0.242046,59.513,63.492676,-123.12999,,,
729706674.993747,-53.662352,2.472407,109.559077,-0.029419,-0.800095,0.621033,-0.753213,0.033117,-0.233841,59.513,63.492676,-123.12999,,,
729706674.996103,-53.662365,2.472348,-34.351158,-0.029419,-0.800095,0.621033,-0.753213,0.033117,-0.233841,59.513,63.492676,-123.12999,,,
729706674.997,-53.877324,2.403173,109.461593,-0.029419,-0.800095,0.621033,-0.753213,0.033117,-0.233841,59.513,63.492676,-123.12999,,,
729706674.998607,-53.877336,2.403114,-34.448626,-0.029419,-0.800095,0.621033,-0.753213,0.033117,-0.233841,59.513,63.492676,-123.12999,,,
729706675.000332,-53.877324,2.403173,109.461593,-0.029419,-0.800095,0.621033,-0.753213,0.033117,-0.233841,59.513,63.492676,-123.12999,,,
729706675.001131,-53.877336,2.403114,-34.448626,-0.029419,-0.800095,0.621033,-0.753213,0.033117,-0.233841,59.513,63.492676,-123.12999,,,
729706675.003664,-54.083448,2.33391,109.36362,-0.027069,-0.810059,0.623535,-0.692331,0.037244,-0.229664,59.513,63.492676,-123.12999,,,
729706675.00589,-54.083461,2.333851,-34.546608,-0.027069,-0.810059,0.623535,-0.692331,0.037244,-0.229664,59.513,63.492676,-123.12999,,,
729706675.007048,-54.279668,2.264828,109.266633,-0.027069,-0.810059,0.623535,-0.692331,0.037244,-0.229664,59.513,63.492676,-123.12999,,,
729706675.00921,-54.27968,2.264769,-34.643606,-0.027069,-0.810059,0.623535,-0.692331,0.037244,-0.229664,58.96022,64.177155,-121.665359,,,
729706675.010342,-54.279668,2.264828,109.266633,-0.027069,-0.810059,0.623535,-0.692331,0.037244,-0.229664,58.96022,64.177155,-121.665359,,,
729706675.011142,-54.27968,2.264769,-34.643606,-0.027069,-0.810059,0.623535,-0.692331,0.037244,-0.229664,58.96022,64.177155,-121.665359,,,
729706675.013662,-54.465079,2.195249,109.170772,-0.028976,-0.818298,0.621643,-0.617899,0.028711,-0.218662,58.96022,64.177155,-121.665359,,,
729706675.016059,-54.465092,2.19519,-34.739464,-0.028976,-0.818298,0.621643,-0.617899,0.028711,-0.218662,58.96022,64.177155,-121.665359,,,
729706675.016993,-54.638423,2.124358,109.075123,-0.028976,-0.818298,0.621643,-0.617899,0.028711,-0.218662,58.96022,64.177155,-121.665359,,,
729706675.018615,-54.638436,2.124299,-34.835108,-0.028976,-0.818298,0.621643,-0.617899,0.028711,-0.218662,58.96022,64.177155,-121.665359,,,
729706675.020319,-54.638423,2.124358,109.075123,-0.028976,-0.818298,0.621643,-0.617899,0.028711,-0.218662,58.96022,64.177155,-121.665359,,,
729706675.021124,-54.638436,2.124299,-34.835108,-0.028976,-0.818298,0.621643,-0.617899,0.028711,-0.218662,58.96022,64.177155,-121.665359,,,
729706675.023653,-54.799064,2.052426,108.980243,-0.031082,-0.826599,0.620483,-0.529884,0.018223,-0.209179,58.96022,64.177155,-121.665359,,,
729706675.026315,-54.799077,2.052366,-34.929994,-0.031082,-0.826599,0.620483,-0.529884,0.018223,-0.209179,58.96022,64.177155,-121.665359,,,
729706675.027069,-54.947134,1.979033,108.886736,-0.031082,-0.826599,0.620483,-0.529884,0.018223,-0.209179,58.96022,64.177155,-121.665359,,,
729706675.028629,-54.947147,1.978972,-35.023487,-0.031082,-0.826599,0.620483,-0.529884,0.018223,-0.209179,58.96022,64.177155,-121.665359,,,
729706675.030318,-54.947134,1.979033,108.886736,-0.031082,-0.826599,0.620483,-0.529884,0.018223,-0.209179,58.96022,64.177155,-121.665359,,,
729706675.031127,-54.947147,1.978972,-35.023487,-0.031082,-0.826599,0.620483,-0.529884,0.018223,-0.209179,58.96022,64.177155,-121.665359,,,
729706675.033644,-55.083294,1.903269,108.793995,-0.03006,-0.831253,0.61853,-0.447757,-0.001702,-0.20076,58.96022,64.177155,-121.665359,,,
729706675.037009,-55.083307,1.903208,-35.116221,-0.03006,-0.831253,0.61853,-0.447757,-0.001702,-0.20076,58.96022,64.177155,-121.665359,,,
729706675.037472,-55.207939,1.824631,108.70217,-0.03006,-0.831253,0.61853,-0.447757,-0.001702,-0.20076,58.96022,64.177155,-121.665359,,,
729706675.038653,-55.207951,1.82457,-35.208047,-0.03006,-0.831253,0.61853,-0.447757,-0.001702,-0.20076,58.96022,64.177155,-121.665359,,,
729706675.040365,-55.207939,1.824631,108.70217,-0.03006,-0.831253,0.61853,-0.447757,-0.001702,-0.20076,58.96022,64.177155,-121.665359,,,
729706675.041134,-55.207951,1.82457,-35.208047,-0.03006,-0.831253,0.61853,-0.447757,-0.001702,-0.20076,58.96022,64.177155,-121.665359,,,
729706675.043749,-55.320857,1.743895,108.611752,-0.030624,-0.834915,0.613693,-0.366951,-0.023668,-0.190375,58.96022,64.177155,-121.665359,,,
729706675.046159,-55.32087,1.743834,-35.298465,-0.030624,-0.834915,0.613693,-0.366951,-0.023668,-0.190375,58.96022,64.177155,-121.665359,,,
729706675.047003,-55.42263,1.662163,108.523186,-0.030624,-0.834915,0.613693,-0.366951,-0.023668,-0.190375,58.96022,64.177155,-121.665359,,,
729706675.04867,-55.422643,1.662102,-35.387042,-0.030624,-0.834915,0.613693,-0.366951,-0.023668,-0.190375,58.96022,64.177155,-121.665359,,,
729706675.050322,-55.42263,1.662163,108.523186,-0.030624,-0.834915,0.613693,-0.366951,-0.023668,-0.190375,58.706024,64.485474,-120.79277,,,
729706675.051839,-55.422643,1.662102,-35.387042,-0.030624,-0.834915,0.613693,-0.366951,-0.023668,-0.190375,58.706024,64.485474,-120.79277,,,
729706675.053761,-55.51425,1.579691,108.436762,-0.032394,-0.841492,0.611237,-0.296975,-0.040593,-0.178056,58.706024,64.485474,-120.79277,,,
729706675.056223,-55.514263,1.579629,-35.473471,-0.032394,-0.841492,0.611237,-0.296975,-0.040593,-0.178056,58.706024,64.485474,-120.79277,,,
729706675.057085,-55.596609,1.496286,108.352218,-0.032394,-0.841492,0.611237,-0.296975,-0.040593,-0.178056,58.706024,64.485474,-120.79277,,,
729706675.058672,-55.596622,1.496224,-35.55802,-0.032394,-0.841492,0.611237,-0.296975,-0.040593,-0.178056,58.706024,64.485474,-120.79277,,,
729706675.060347,-55.596609,1.496286,108.352218,-0.032394,-0.841492,0.611237,-0.296975,-0.040593,-0.178056,58.706024,64.485474,-120.79277,,,
729706675.061132,-55.596622,1.496224,-35.55802,-0.032394,-0.841492,0.611237,-0.296975,-0.040593,-0.178056,58.706024,64.485474,-120.79277,,,
729706675.063657,-55.67108,1.413755,108.271237,-0.031708,-0.846176,0.60379,-0.24273,-0.054535,-0.161117,58.706024,64.485474,-120.79277,,,
729706675.066316,-55.671092,1.413693,-35.639007,-0.031708,-0.846176,0.60379,-0.24273,-0.054535,-0.161117,58.706024,64.485474,-120.79277,,,
729706675.067048,-55.738789,1.333729,108.194482,-0.031708,-0.846176,0.60379,-0.24273,-0.054535,-0.161117,58.706024,64.485474,-120.79277,,,
729706675.068731,-55.738802,1.333668,-35.715766,-0.031708,-0.846176,0.60379,-0.24273,-0.054535,-0.161117,58.706024,64.485474,-120.79277,,,
729706675.070317,-55.738789,1.333729,108.194482,-0.031708,-0.846176,0.60379,-0.24273,-0.054535,-0.161117,58.706024,64.485474,-120.79277,,,
729706675.071131,-55.738802,1.333668,-35.715766,-0.031708,-0.846176,0.60379,-0.24273,-0.054535,-0.161117,58.706024,64.485474,-120.79277,,,
729706675.073654,-55.80118,1.256908,108.121038,-0.027084,-0.843475,0.595703,-0.20643,-0.050937,-0.146219,58.706024,64.485474,-120.79277,,,
729706675.075913,-55.801193,1.256846,-35.789215,-0.027084,-0.843475,0.595703,-0.20643,-0.050937,-0.146219,58.706024,64.485474,-120.79277,,,
729706675.077032,-55.859576,1.184141,108.050885,-0.027084,-0.843475,0.595703,-0.20643,-0.050937,-0.146219,58.706024,64.485474,-120.79277,,,
729706675.078618,-55.859588,1.184079,-35.859378,-0.027084,-0.843475,0.595703,-0.20643,-0.050937,-0.146219,58.706024,64.485474,-120.79277,,,
729706675.080318,-55.859576,1.184141,108.050885,-0.027084,-0.843475,0.595703,-0.20643,-0.050937,-0.146219,58.706024,64.485474,-120.79277,,,
729706675.081232,-55.859588,1.184079,-35.859378,-0.027084,-0.843475,0.595703,-0.20643,-0.050937,-0.146219,58.706024,64.485474,-120.79277,,,
729706675.083644,-55.914392,1.116486,107.98495,-0.022614,-0.836014,0.588684,-0.182227,-0.039478,-0.128371,58.706024,64.485474,-120.79277,,,
729706675.086303,-55.914405,1.116424,-35.92531,-0.022614,-0.836014,0.588684,-0.182227,-0.039478,-0.128371,58.706024,64.485474,-120.79277,,,
729706675.087038,-55.966497,1.055527,107.923708,-0.022614,-0.836014,0.588684,-0.182227,-0.039478,-0.128371,58.706024,64.485474,-120.79277,,,
729706675.088628,-55.966509,1.055465,-35.986545,-0.022614,-0.836014,0.588684,-0.182227,-0.039478,-0.128371,58.706024,64.485474,-120.79277,,,
729706675.09032,-55.966497,1.055527,107.923708,-0.022614,-0.836014,0.588684,-0.182227,-0.039478,-0.128371,58.405762,64.621628,-120.686844,,,
729706675.09182,-55.966509,1.055465,-35.986545,-0.022614,-0.836014,0.588684,-0.182227,-0.039478,-0.128371,58.405762,64.621628,-120.686844,,,
729706675.093653,-56.017644,1.000625,107.866205,-0.022293,-0.83429,0.582413,-0.175929,-0.018597,-0.113063,58.405762,64.621628,-120.686844,,,
729706675.096195,-56.017656,1.000563,-36.044052,-0.022293,-0.83429,0.582413,-0.175929,-0.018597,-0.113063,58.405762,64.621628,-120.686844,,,
729706675.096979,-56.017644,1.000625,107.866205,-0.022293,-0.83429,0.582413,-0.175929,-0.018597,-0.113063,58.405762,64.621628,-120.686844,,,
729706675.098625,-56.068883,0.951188,-36.09766,-0.022293,-0.83429,0.582413,-0.175929,-0.018597,-0.113063,58.405762,64.621628,-120.686844,,,
729706675.100339,-56.068871,0.95125,107.812581,-0.022293,-0.83429,0.582413,-0.175929,-0.018597,-0.113063,58.405762,64.621628,-120.686844,,,
729706675.101127,-56.068883,0.951188,-36.09766,-0.022293,-0.83429,0.582413,-0.175929,-0.018597,-0.113063,58.405762,64.621628,-120.686844,,,
729706675.103654,-56.120547,0.90804,107.763179,-0.017654,-0.834702,0.569763,-0.17924,0.000193,-0.096146,58.405762,64.621628,-120.686844,,,
729706675.10689,-56.12056,0.907978,-36.147071,-0.017654,-0.834702,0.569763,-0.17924,0.000193,-0.096146,58.405762,64.621628,-120.686844,,,
729706675.107194,-56.173878,0.871645,107.718254,-0.017654,-0.834702,0.569763,-0.17924,0.000193,-0.096146,58.405762,64.621628,-120.686844,,,
729706675.108677,-56.17389,0.871582,-36.192008,-0.017654,-0.834702,0.569763,-0.17924,0.000193,-0.096146,58.405762,64.621628,-120.686844,,,
729706675.110362,-56.173878,0.871645,107.718254,-0.017654,-0.834702,0.569763,-0.17924,0.000193,-0.096146,58.405762,64.621628,-120.686844,,,
729706675.111138,-56.17389,0.871582,-36.192008,-0.017654,-0.834702,0.569763,-0.17924,0.000193,-0.096146,58.405762,64.621628,-120.686844,,,
729706675.113655,-56.229858,0.841181,107.677578,-0.01593,-0.832336,0.559174,-0.198139,0.016998,-0.079451,58.405762,64.621628,-120.686844,,,
729706675.116129,-56.22987,0.841118,-36.232665,-0.01593,-0.832336,0.559174,-0.198139,0.016998,-0.079451,58.405762,64.621628,-120.686844,,,
729706675.117005,-56.229858,0.841181,107.677578,-0.01593,-0.832336,0.559174,-0.198139,0.016998,-0.079451,58.405762,64.621628,-120.686844,,,
729706675.118637,-56.289978,0.81644,-36.269317,-0.01593,-0.832336,0.559174,-0.198139,0.016998,-0.079451,58.405762,64.621628,-120.686844,,,
729706675.120325,-56.289966,0.816503,107.640928,-0.01593,-0.832336,0.559174,-0.198139,0.016998,-0.079451,58.405762,64.621628,-120.686844,,,
729706675.121127,-56.289978,0.81644,-36.269317,-0.01593,-0.832336,0.559174,-0.198139,0.016998,-0.079451,58.405762,64.621628,-120.686844,,,
729706675.123647,-56.354887,0.798805,107.608996,-0.016388,-0.827835,0.551056,-0.231892,0.038409,-0.061338,58.405762,64.621628,-120.686844,,,
729706675.126077,-56.354899,0.798742,-36.301248,-0.016388,-0.827835,0.551056,-0.231892,0.038409,-0.061338,58.405762,64.621628,-120.686844,,,
729706675.127044,-56.354887,0.798805,107.608996,-0.016388,-0.827835,0.551056,-0.231892,0.038409,-0.061338,58.405762,64.621628,-120.686844,,,
729706675.128621,-56.42404,0.787446,-36.328248,-0.016388,-0.827835,0.551056,-0.231892,0.038409,-0.061338,58.405762,64.621628,-120.686844,,,
729706675.130319,-56.424028,0.787509,107.581996,-0.016388,-0.827835,0.551056,-0.231892,0.038409,-0.061338,58.405762,64.621628,-120.686844,,,
729706675.131754,-56.42404,0.787446,-36.328248,-0.016388,-0.827835,0.551056,-0.231892,0.038409,-0.061338,58.289978,64.735718,-119.991333,,,
729706675.133651,-56.498895,0.782248,107.559747,-0.016129,-0.824081,0.544922,-0.27183,0.052977,-0.043312,58.289978,64.735718,-119.991333,,,
729706675.136269,-56.498908,0.782185,-36.350502,-0.016129,-0.824081,0.544922,-0.27183,0.052977,-0.043312,58.289978,64.735718,-119.991333,,,
729706675.136999,-56.498895,0.782248,107.559747,-0.016129,-0.824081,0.544922,-0.27183,0.052977,-0.043312,58.289978,64.735718,-119.991333,,,
729706675.138348,-56.581233,0.781752,-36.369105,-0.016129,-0.824081,0.544922,-0.27183,0.052977,-0.043312,58.289978,64.735718,-119.991333,,,
729706675.140346,-56.58122,0.781816,107.541134,-0.016129,-0.824081,0.544922,-0.27183,0.052977,-0.043312,58.289978,64.735718,-119.991333,,,
729706675.141124,-56.581233,0.781752,-36.369105,-0.016129,-0.824081,0.544922,-0.27183,0.052977,-0.043312,58.289978,64.735718,-119.991333,,,
729706675.143654,-56.671114,0.78452,107.524902,-0.008514,-0.819916,0.53479,-0.32438,0.06114,-0.034808,58.289978,64.735718,-119.991333,,,
729706675.14618,-56.671127,0.784456,-36.385346,-0.008514,-0.819916,0.53479,-0.32438,0.06114,-0.034808,58.289978,64.735718,-119.991333,,,
729706675.146989,-56.671114,0.78452,107.524902,-0.008514,-0.819916,0.53479,-0.32438,0.06114,-0.034808,58.289978,64.735718,-119.991333,,,
729706675.148632,-56.769065,0.790117,-36.399043,-0.008514,-0.819916,0.53479,-0.32438,0.06114,-0.034808,58.289978,64.735718,-119.991333,,,
729706675.150347,-56.769053,0.79018,107.511194,-0.008514,-0.819916,0.53479,-0.32438,0.06114,-0.034808,58.289978,64.735718,-119.991333,,,
729706675.15113,-56.769065,0.790117,-36.399043,-0.008514,-0.819916,0.53479,-0.32438,0.06114,-0.034808,58.289978,64.735718,-119.991333,,,
729706675.153655,-56.875746,0.797615,107.498601,-0.006424,-0.81752,0.525787,-0.385456,0.067111,-0.031338,58.289978,64.735718,-119.991333,,,
729706675.155708,-56.875759,0.797551,-36.411624,-0.006424,-0.81752,0.525787,-0.385456,0.067111,-0.031338,58.289978,64.735718,-119.991333,,,
729706675.157063,-56.875746,0.797615,107.498601,-0.006424,-0.81752,0.525787,-0.385456,0.067111,-0.031338,58.289978,64.735718,-119.991333,,,
729706675.158628,-56.991283,0.805691,-36.424712,-0.006424,-0.81752,0.525787,-0.385456,0.067111,-0.031338,58.289978,64.735718,-119.991333,,,
729706675.160337,-56.991271,0.805755,107.485525,-0.006424,-0.81752,0.525787,-0.385456,0.067111,-0.031338,58.289978,64.735718,-119.991333,,,
729706675.161126,-56.991283,0.805691,-36.424712,-0.006424,-0.81752,0.525787,-0.385456,0.067111,-0.031338,58.289978,64.735718,-119.991333,,,
729706675.163649,-57.114871,0.81476,107.472038,-0.000732,-0.820328,0.522202,-0.441606,0.075646,-0.033617,58.289978,64.735718,-119.991333,,,
729706675.165845,-57.114884,0.814695,-36.43821,-0.000732,-0.820328,0.522202,-0.441606,0.075646,-0.033617,58.289978,64.735718,-119.991333,,,
729706675.166981,-57.114871,0.81476,107.472038,-0.000732,-0.820328,0.522202,-0.441606,0.075646,-0.033617,58.289978,64.735718,-119.991333,,,
729706675.168617,-57.245514,0.822893,-36.453803,-0.000732,-0.820328,0.522202,-0.441606,0.075646,-0.033617,58.289978,64.735718,-119.991333,,,
729706675.170325,-57.245502,0.822958,107.456432,-0.000732,-0.820328,0.522202,-0.441606,0.075646,-0.033617,58.289978,64.735718,-119.991333,,,
729706675.17113,-57.245514,0.822893,-36.453803,-0.000732,-0.820328,0.522202,-0.441606,0.075646,-0.033617,58.289978,64.735718,-119.991333,,,
729706675.173678,-57.382654,0.829401,107.437275,0.005142,-0.822952,0.523056,-0.486446,0.084455,-0.047558,58.222794,65.227158,-119.485458,,,
729706675.177615,-57.382667,0.829336,-36.472977,0.005142,-0.822952,0.523056,-0.486446,0.084455,-0.047558,58.222794,65.227158,-119.485458,,,
729706675.177906,-57.52544,0.832474,107.413335,0.005142,-0.822952,0.523056,-0.486446,0.084455,-0.047558,58.222794,65.227158,-119.485458,,,
729706675.18028,-57.52544,0.832474,107.413335,0.005142,-0.822952,0.523056,-0.486446,0.084455,-0.047558,58.222794,65.227158,-119.485458,,,
729706675.181714,-57.525453,0.832409,-36.496929,0.005142,-0.822952,0.523056,-0.486446,0.084455,-0.047558,58.222794,65.227158,-119.485458,,,
729706675.183666,-57.672679,0.83093,107.383931,0.004364,-0.82515,0.522598,-0.516986,0.084493,-0.067983,58.222794,65.227158,-119.485458,,,
729706675.185805,-57.672691,0.830865,-36.526312,0.004364,-0.82515,0.522598,-0.516986,0.084493,-0.067983,58.222794,65.227158,-119.485458,,,
729706675.187064,-57.672679,0.83093,107.383931,0.004364,-0.82515,0.522598,-0.516986,0.084493,-0.067983,58.222794,65.227158,-119.485458,,,
729706675.188352,-57.821359,0.827065,-36.560318,0.004364,-0.82515,0.522598,-0.516986,0.084493,-0.067983,58.222794,65.227158,-119.485458,,,
729706675.190337,-57.821346,0.82713,107.349938,0.004364,-0.82515,0.522598,-0.516986,0.084493,-0.067983,58.222794,65.227158,-119.485458,,,
729706675.191129,-57.821359,0.827065,-36.560318,0.004364,-0.82515,0.522598,-0.516986,0.084493,-0.067983,58.222794,65.227158,-119.485458,,,
729706675.193653,-57.970776,0.818618,107.311522,0.004776,-0.824295,0.535385,-0.522275,0.078074,-0.083828,58.222794,65.227158,-119.485458,,,
729706675.195961,-57.970789,0.818552,-36.598731,0.004776,-0.824295,0.535385,-0.522275,0.078074,-0.083828,58.222794,65.227158,-119.485458,,,
729706675.19698,-57.970776,0.818618,107.311522,0.004776,-0.824295,0.535385,-0.522275,0.078074,-0.083828,58.222794,65.227158,-119.485458,,,
729706675.198631,-58.121181,0.801111,-36.641823,0.004776,-0.824295,0.535385,-0.522275,0.078074,-0.083828,58.222794,65.227158,-119.485458,,,
729706675.200319,-58.121168,0.801177,107.268429,0.004776,-0.824295,0.535385,-0.522275,0.078074,-0.083828,58.222794,65.227158,-119.485458,,,
729706675.20113,-58.121181,0.801111,-36.641823,0.004776,-0.824295,0.535385,-0.522275,0.078074,-0.083828,58.222794,65.227158,-119.485458,,,
729706675.203687,-58.271099,0.77584,107.221061,0.002304,-0.829697,0.522675,-0.518828,0.048776,-0.098435,58.222794,65.227158,-119.485458,,,
729706675.20621,-58.271112,0.775773,-36.689189,0.002304,-0.829697,0.522675,-0.518828,0.048776,-0.098435,58.222794,65.227158,-119.485458,,,
729706675.207026,-58.271099,0.77584,107.221061,0.002304,-0.829697,0.522675,-0.518828,0.048776,-0.098435,58.222794,65.227158,-119.485458,,,
729706675.208637,-58.419236,0.744925,-36.740169,0.002304,-0.829697,0.522675,-0.518828,0.048776,-0.098435,58.222794,65.227158,-119.485458,,,
729706675.210336,-58.419223,0.744992,107.170073,0.002304,-0.829697,0.522675,-0.518828,0.048776,-0.098435,58.222794,65.227158,-119.485458,,,
729706675.211129,-58.419236,0.744925,-36.740169,0.002304,-0.829697,0.522675,-0.518828,0.048776,-0.098435,58.222794,65.227158,-119.485458,,,
729706675.213655,-58.563748,0.708627,107.114672,0.003448,-0.839279,0.536758,-0.493328,0.037049,-0.112817,58.082153,65.415359,-118.262695,,,
729706675.216882,-58.563761,0.70856,-36.795573,0.003448,-0.839279,0.536758,-0.493328,0.037049,-0.112817,58.082153,65.415359,-118.262695,,,
729706675.217144,-58.563748,0.708627,107.114672,0.003448,-0.839279,0.536758,-0.493328,0.037049,-0.112817,58.082153,65.415359,-118.262695,,,
729706675.218601,-58.7036,0.665637,-36.855873,0.003448,-0.839279,0.536758,-0.493328,0.037049,-0.112817,58.082153,65.415359,-118.262695,,,
729706675.220327,-58.703587,0.665704,107.054395,0.003448,-0.839279,0.536758,-0.493328,0.037049,-0.112817,58.082153,65.415359,-118.262695,,,
729706675.221129,-58.7036,0.665637,-36.855873,0.003448,-0.839279,0.536758,-0.493328,0.037049,-0.112817,58.082153,65.415359,-118.262695,,,
729706675.223646,-58.838839,0.616335,106.989752,0.005661,-0.846222,0.538559,-0.46129,0.018445,-0.126438,58.082153,65.415359,-118.262695,,,
729706675.226285,-58.838853,0.616268,-36.920486,0.005661,-0.846222,0.538559,-0.46129,0.018445,-0.126438,58.082153,65.415359,-118.262695,,,
729706675.226981,-58.838839,0.616335,106.989752,0.005661,-0.846222,0.538559,-0.46129,0.018445,-0.126438,58.082153,65.415359,-118.262695,,,
729706675.228614,-58.968609,0.56051,-36.988467,0.005661,-0.846222,0.538559,-0.46129,0.018445,-0.126438,58.082153,65.415359,-118.262695,,,
729706675.230318,-58.968596,0.560577,106.92178,0.005661,-0.846222,0.538559,-0.46129,0.018445,-0.126438,58.082153,65.415359,-118.262695,,,
729706675.231129,-58.968609,0.56051,-36.988467,0.005661,-0.846222,0.538559,-0.46129,0.018445,-0.126438,58.082153,65.415359,-118.262695,,,
729706675.233647,-59.092521,0.498381,106.850647,0.010757,-0.848679,0.53479,-0.420946,-0.006992,-0.135611,58.082153,65.415359,-118.262695,,,
729706675.237077,-59.092534,0.498313,-37.059591,0.010757,-0.848679,0.53479,-0.420946,-0.006992,-0.135611,58.082153,65.415359,-118.262695,,,
729706675.237563,-59.210611,0.431004,106.776074,0.010757,-0.848679,0.53479,-0.420946,-0.006992,-0.135611,58.082153,65.415359,-118.262695,,,
729706675.238737,-59.210624,0.430936,-37.134167,0.010757,-0.848679,0.53479,-0.420946,-0.006992,-0.135611,58.082153,65.415359,-118.262695,,,
729706675.240346,-59.210611,0.431004,106.776074,0.010757,-0.848679,0.53479,-0.420946,-0.006992,-0.135611,58.082153,65.415359,-118.262695,,,
729706675.241139,-59.210624,0.430936,-37.134167,0.010757,-0.848679,0.53479,-0.420946,-0.006992,-0.135611,58.082153,65.415359,-118.262695,,,
729706675.243653,-59.32222,0.359007,106.697268,0.016479,-0.849747,0.539932,-0.375912,-0.013316,-0.148454,58.082153,65.415359,-118.262695,,,
729706675.246116,-59.322233,0.358938,-37.212972,0.016479,-0.849747,0.539932,-0.375912,-0.013316,-0.148454,58.082153,65.415359,-118.262695,,,
729706675.246992,-59.32222,0.359007,106.697268,0.016479,-0.849747,0.539932,-0.375912,-0.013316,-0.148454,58.082153,65.415359,-118.262695,,,
729706675.248652,-59.427658,0.280488,-37.298025,0.016479,-0.849747,0.539932,-0.375912,-0.013316,-0.148454,58.082153,65.415359,-118.262695,,,
729706675.250338,-59.427644,0.280557,106.612236,0.016479,-0.849747,0.539932,-0.375912,-0.013316,-0.148454,58.082153,65.415359,-118.262695,,,
729706675.25113,-59.427658,0.280488,-37.298025,0.016479,-0.849747,0.539932,-0.375912,-0.013316,-0.148454,58.082153,65.415359,-118.262695,,,
729706675.25372,-59.52743,0.194139,106.519752,0.025055,-0.852676,0.541473,-0.336823,-0.023632,-0.172582,58.069748,65.420135,-117.704712,,,
729706675.256568,-59.527443,0.19407,-37.3905,0.025055,-0.852676,0.541473,-0.336823,-0.023632,-0.172582,58.069748,65.420135,-117.704712,,,
729706675.257033,-59.52743,0.194139,106.519752,0.025055,-0.852676,0.541473,-0.336823,-0.023632,-0.172582,58.069748,65.420135,-117.704712,,,
729706675.258631,-59.622298,0.099667,-37.490696,0.025055,-0.852676,0.541473,-0.336823,-0.023632,-0.172582,58.069748,65.420135,-117.704712,,,
729706675.260342,-59.622285,0.099736,106.419573,0.025055,-0.852676,0.541473,-0.336823,-0.023632,-0.172582,58.069748,65.420135,-117.704712,,,
729706675.261129,-59.622298,0.099667,-37.490696,0.025055,-0.852676,0.541473,-0.336823,-0.023632,-0.172582,58.069748,65.420135,-117.704712,,,
729706675.263647,-59.712058,-0.003557,106.311301,0.0327,-0.85788,0.538818,-0.302086,-0.036362,-0.198926,58.069748,65.420135,-117.704712,,,
729706675.266096,-59.712071,-0.003626,-37.598975,0.0327,-0.85788,0.538818,-0.302086,-0.036362,-0.198926,58.069748,65.420135,-117.704712,,,
729706675.266979,-59.712058,-0.003557,106.311301,0.0327,-0.85788,0.538818,-0.302086,-0.036362,-0.198926,58.069748,65.420135,-117.704712,,,
729706675.268652,-59.796641,-0.115369,-37.714778,0.0327,-0.85788,0.538818,-0.302086,-0.036362,-0.198926,58.069748,65.420135,-117.704712,,,
729706675.270323,-59.796628,-0.1153,106.195465,0.0327,-0.85788,0.538818,-0.302086,-0.036362,-0.198926,58.069748,65.420135,-117.704712,,,
729706675.271134,-59.796641,-0.115369,-37.714778,0.0327,-0.85788,0.538818,-0.302086,-0.036362,-0.198926,58.069748,65.420135,-117.704712,,,
729706675.273652,-59.877246,-0.234918,106.071756,0.039062,-0.863663,0.534409,-0.275307,-0.043094,-0.224527,58.069748,65.420135,-117.704712,,,
729706675.276092,-59.877259,-0.234987,-37.838481,0.039062,-0.863663,0.534409,-0.275307,-0.043094,-0.224527,58.069748,65.420135,-117.704712,,,
729706675.276982,-59.877246,-0.234918,106.071756,0.039062,-0.863663,0.534409,-0.275307,-0.043094,-0.224527,58.069748,65.420135,-117.704712,,,
729706675.278656,-59.954498,-0.363182,-37.970358,0.039062,-0.863663,0.534409,-0.275307,-0.043094,-0.224527,58.069748,65.420135,-117.704712,,,
729706675.28033,-59.954485,-0.363112,105.939873,0.039062,-0.863663,0.534409,-0.275307,-0.043094,-0.224527,58.069748,65.420135,-117.704712,,,
729706675.28113,-59.954498,-0.363182,-37.970358,0.039062,-0.863663,0.534409,-0.275307,-0.043094,-0.224527,58.069748,65.420135,-117.704712,,,
729706675.283654,-60.028133,-0.498325,105.800669,0.042572,-0.869812,0.528564,-0.251441,-0.047224,-0.247931,58.069748,65.420135,-117.704712,,,
729706675.286125,-60.028146,-0.498395,-38.109553,0.042572,-0.869812,0.528564,-0.251441,-0.047224,-0.247931,58.069748,65.420135,-117.704712,,,
729706675.286992,-60.028133,-0.498325,105.800669,0.042572,-0.869812,0.528564,-0.251441,-0.047224,-0.247931,58.069748,65.420135,-117.704712,,,
