Time (sec),Pitch (deg),Roll (deg),Yaw(deg),X-Acceleration (g),Y-Acceleration (g),Z-Acceleration (g),Pitch Rate (deg/sec),Roll Rate (deg/sec),Yaw Rate (deg/sec),Magnetic Field in X direction (uT),Magnetic Field in Y direction (uT),Magnetic Field in Z Direction (uT),Latitude (deg),Longitude (deg),Altitude (m)
729705622.524736,0.02234,-5.490917,69.291053,0.101791,0.004288,0.987823,0.000951,0.003717,-0.011761,81.090927,36.598175,-150.607101,,,
729705622.528109,0.022955,-5.494398,69.288235,0.101791,0.004288,0.987823,0.000951,0.003717,-0.011761,81.090927,36.598175,-150.607101,,,
729705622.531365,0.022955,-5.494398,69.288235,0.101791,0.004288,0.987823,0.000951,0.003717,-0.011761,81.090927,36.598175,-150.607101,,,
729705622.534693,0.023922,-5.493829,69.286309,0.098969,0.005676,0.989746,0.005049,0.004866,-0.005772,81.090927,36.598175,-150.607101,,,
729705622.538011,0.025866,-5.497662,69.285362,0.098969,0.005676,0.989746,0.005049,0.004866,-0.005772,81.090927,36.598175,-150.607101,,,
729705622.541442,0.025866,-5.497662,69.285362,0.098969,0.005676,0.989746,0.005049,0.004866,-0.005772,81.090927,36.598175,-150.607101,,,
729705622.544753,0.027452,-5.499005,69.285596,0.096802,0.002487,0.987564,0.010303,-0.005614,0.001506,81.132797,36.79512,-150.465973,,,
729705622.548015,0.031995,-5.505589,69.286714,0.096802,0.002487,0.987564,0.010303,-0.005614,0.001506,81.132797,36.79512,-150.465973,,,
729705622.551365,0.031995,-5.505589,69.286714,0.096802,0.002487,0.987564,0.010303,-0.005614,0.001506,81.132797,36.79512,-150.465973,,,
729705622.55469,0.035549,-5.50924,69.287636,0.095337,0.002136,0.98735,0.015175,-0.012662,0.001117,81.132797,36.79512,-150.465973,,,
729705622.558018,0.042132,-5.517904,69.287771,0.095337,0.002136,0.98735,0.015175,-0.012662,0.001117,81.132797,36.79512,-150.465973,,,
729705622.561441,0.042132,-5.517904,69.287771,0.095337,0.002136,0.98735,0.015175,-0.012662,0.001117,81.132797,36.79512,-150.465973,,,
729705622.564676,0.044896,-5.522364,69.287124,0.095047,0.005554,0.988724,0.010618,-0.0164,-0.005684,81.132797,36.79512,-150.465973,,,
729705622.568008,0.050717,-5.532707,69.285635,0.095047,0.005554,0.988724,0.010618,-0.0164,-0.005684,81.132797,36.79512,-150.465973,,,
729705622.571351,0.050717,-5.532707,69.285635,0.095047,0.005554,0.988724,0.010618,-0.0164,-0.005684,81.132797,36.79512,-150.465973,,,
729705622.574673,0.053058,-5.540032,69.283343,0.097916,0.007278,0.987289,0.01,-0.025331,-0.013312,81.132797,36.79512,-150.465973,,,
729705622.578109,0.059164,-5.551929,69.28065,0.097916,0.007278,0.987289,0.01,-0.025331,-0.013312,81.132797,36.79512,-150.465973,,,
729705622.581378,0.059164,-5.551929,69.28065,0.097916,0.007278,0.987289,0.01,-0.025331,-0.013312,81.132797,36.79512,-150.465973,,,
729705622.584692,0.063064,-5.561597,69.27755,0.100754,0.004135,0.985687,0.013691,-0.032768,-0.014082,81.181519,36.427582,-150.63588,,,
729705622.588016,0.068646,-5.573725,69.27426,0.100754,0.004135,0.985687,0.013691,-0.032768,-0.014082,81.181519,36.427582,-150.63588,,,
729705622.591411,0.068646,-5.573725,69.27426,0.100754,0.004135,0.985687,0.013691,-0.032768,-0.014082,81.181519,36.427582,-150.63588,,,
729705622.594773,0.07309,-5.584362,69.271234,0.103851,-0.001892,0.984833,0.015459,-0.040318,-0.014379,81.181519,36.427582,-150.63588,,,
729705622.59803,0.078401,-5.597625,69.268095,0.103851,-0.001892,0.984833,0.015459,-0.040318,-0.014379,81.181519,36.427582,-150.63588,,,
729705622.60141,0.078401,-5.597625,69.268095,0.103851,-0.001892,0.984833,0.015459,-0.040318,-0.014379,81.181519,36.427582,-150.63588,,,
729705622.604683,0.082059,-5.609622,69.264934,0.10408,-0.005783,0.978745,0.009635,-0.041647,-0.012871,81.181519,36.427582,-150.63588,,,
729705622.608095,0.086251,-5.622128,69.262259,0.10408,-0.005783,0.978745,0.009635,-0.041647,-0.012871,81.181519,36.427582,-150.63588,,,
729705622.611343,0.086251,-5.622128,69.262259,0.10408,-0.005783,0.978745,0.009635,-0.041647,-0.012871,81.181519,36.427582,-150.63588,,,
729705622.614689,0.089292,-5.633405,69.260549,0.107971,-0.008881,0.982468,0.008871,-0.033927,-0.007482,81.181519,36.427582,-150.63588,,,
729705622.61803,0.092107,-5.644092,69.259364,0.107971,-0.008881,0.982468,0.008871,-0.033927,-0.007482,81.181519,36.427582,-150.63588,,,
729705622.62135,0.092107,-5.644092,69.259364,0.107971,-0.008881,0.982468,0.008871,-0.033927,-0.007482,81.181519,36.427582,-150.63588,,,
729705622.624683,0.093593,-5.654228,69.257902,0.11142,-0.009811,0.979523,0.003838,-0.032523,-0.005946,81.047668,36.650909,-150.426697,,,
729705622.628074,0.0939,-5.663347,69.256143,0.11142,-0.009811,0.979523,0.003838,-0.032523,-0.005946,81.047668,36.650909,-150.426697,,,
729705622.63136,0.0939,-5.663347,69.256143,0.11142,-0.009811,0.979523,0.003838,-0.032523,-0.005946,81.047668,36.650909,-150.426697,,,
729705622.634772,0.092982,-5.671257,69.253546,0.111313,-0.009811,0.979172,-0.006711,-0.018709,-0.012856,81.047668,36.650909,-150.426697,,,
729705622.638002,0.091656,-5.67759,69.24971,0.111313,-0.009811,0.979172,-0.006711,-0.018709,-0.012856,81.047668,36.650909,-150.426697,,,
729705622.641365,0.091656,-5.67759,69.24971,0.111313,-0.009811,0.979172,-0.006711,-0.018709,-0.012856,81.047668,36.650909,-150.426697,,,
729705622.644699,0.088925,-5.684816,69.24492,0.107697,-0.010788,0.980682,-0.0127,-0.02624,-0.017226,81.047668,36.650909,-150.426697,,,
729705622.648109,0.085725,-5.693018,69.240007,0.107697,-0.010788,0.980682,-0.0127,-0.02624,-0.017226,81.047668,36.650909,-150.426697,,,
729705622.651359,0.085725,-5.693018,69.240007,0.107697,-0.010788,0.980682,-0.0127,-0.02624,-0.017226,81.047668,36.650909,-150.426697,,,
729705622.654688,0.079313,-5.704366,69.235329,0.092255,-0.010818,0.980377,-0.024538,-0.040313,-0.016542,81.047668,36.650909,-150.426697,,,
729705622.658056,0.072905,-5.717481,69.230356,0.092255,-0.010818,0.980377,-0.024538,-0.040313,-0.016542,81.047668,36.650909,-150.426697,,,
729705622.661375,0.072905,-5.717481,69.230356,0.092255,-0.010818,0.980377,-0.024538,-0.040313,-0.016542,81.047668,36.650909,-150.426697,,,
729705622.664762,0.065264,-5.730058,69.224232,0.089249,-0.011826,0.989273,-0.027686,-0.042517,-0.02325,80.794342,36.770142,-150.341202,,,
729705622.668066,0.057828,-5.743561,69.216987,0.089249,-0.011826,0.989273,-0.027686,-0.042517,-0.02325,80.794342,36.770142,-150.341202,,,
729705622.67138,0.057828,-5.743561,69.216987,0.089249,-0.011826,0.989273,-0.027686,-0.042517,-0.02325,80.794342,36.770142,-150.341202,,,
729705622.674681,0.051646,-5.756162,69.209228,0.092484,-0.014008,1.000259,-0.019703,-0.039869,-0.028601,80.794342,36.770142,-150.341202,,,
729705622.678012,0.045775,-5.768938,69.200475,0.092484,-0.014008,1.000259,-0.019703,-0.039869,-0.028601,80.794342,36.770142,-150.341202,,,
729705622.681341,0.045775,-5.768938,69.200475,0.092484,-0.014008,1.000259,-0.019703,-0.039869,-0.028601,80.794342,36.770142,-150.341202,,,
729705622.684755,0.042539,-5.779115,69.190966,0.09166,-0.01889,1.007126,-0.007398,-0.031311,-0.032655,80.794342,36.770142,-150.341202,,,
729705622.68801,0.039291,-5.789626,69.181287,0.09166,-0.01889,1.007126,-0.007398,-0.031311,-0.032655,80.794342,36.770142,-150.341202,,,
729705622.691356,0.039291,-5.789626,69.181287,0.09166,-0.01889,1.007126,-0.007398,-0.031311,-0.032655,80.794342,36.770142,-150.341202,,,
729705622.694802,0.040513,-5.79772,69.172216,0.086502,-0.027451,1.007233,0.010657,-0.023498,-0.031473,80.794342,36.770142,-150.341202,,,
729705622.698099,0.042024,-5.806854,69.164623,0.086502,-0.027451,1.007233,0.010657,-0.023498,-0.031473,80.794342,36.770142,-150.341202,,,
729705622.701345,0.042024,-5.806854,69.164623,0.086502,-0.027451,1.007233,0.010657,-0.023498,-0.031473,80.794342,36.770142,-150.341202,,,
729705622.704666,0.048431,-5.810928,69.158964,0.081406,-0.035873,1.010452,0.022425,-0.004989,-0.015577,80.794342,36.770142,-150.341202,,,
729705622.708062,0.053696,-5.815031,69.155714,0.081406,-0.035873,1.010452,0.022425,-0.004989,-0.015577,80.976227,36.514282,-150.578629,,,
729705622.711349,0.053696,-5.815031,69.155714,0.081406,-0.035873,1.010452,0.022425,-0.004989,-0.015577,80.976227,36.514282,-150.578629,,,
729705622.714683,0.062011,-5.813521,69.154981,0.081604,-0.032715,1.012665,0.030321,0.01706,-0.000979,80.976227,36.514282,-150.578629,,,
729705622.71804,0.068135,-5.811883,69.156411,0.081604,-0.032715,1.012665,0.030321,0.01706,-0.000979,80.976227,36.514282,-150.578629,,,
729705622.721343,0.068135,-5.811883,69.156411,0.081604,-0.032715,1.012665,0.030321,0.01706,-0.000979,80.976227,36.514282,-150.578629,,,
729705622.724678,0.076426,-5.804525,69.158926,0.086731,-0.022903,1.01001,0.026725,0.036837,0.003889,80.976227,36.514282,-150.578629,,,
729705622.727871,0.076426,-5.804525,69.158926,0.086731,-0.022903,1.01001,0.026725,0.036837,0.003889,80.976227,36.514282,-150.578629,,,
729705622.731417,0.081158,-5.793856,69.16141,0.086731,-0.022903,1.01001,0.026725,0.036837,0.003889,80.976227,36.514282,-150.578629,,,
729705622.734757,0.089469,-5.780025,69.163712,0.090759,-0.014526,1.010559,0.034485,0.061524,0.00296,80.976227,36.514282,-150.578629,,,
729705622.738017,0.089469,-5.780025,69.165803,0.090759,-0.014526,1.010559,0.034485,0.061524,0.00296,80.976227,36.514282,-150.578629,,,
729705622.741353,0.096291,-5.761411,69.165803,0.090759,-0.014526,1.010559,0.034485,0.061524,0.00296,80.976227,36.514282,-150.578629,,,
729705622.744689,0.108725,-5.744325,69.167869,0.095886,-0.010895,1.00882,0.052821,0.064532,0.002481,80.976227,36.514282,-150.578629,,,
729705622.748022,0.108725,-5.744325,69.167869,0.095886,-0.010895,1.00882,0.052821,0.064532,0.002481,81.126572,36.681564,-150.544296,,,
729705622.75137,0.11984,-5.724773,69.170235,0.095886,-0.010895,1.00882,0.052821,0.064532,0.002481,81.126572,36.681564,-150.544296,,,
729705622.75468,0.136341,-5.707159,69.172594,0.103424,-0.006363,1.003006,0.062914,0.059999,-0.001224,81.126572,36.681564,-150.544296,,,
729705622.758008,0.136341,-5.707159,69.172594,0.103424,-0.006363,1.003006,0.062914,0.059999,-0.001224,81.126572,36.681564,-150.544296,,,
729705622.761341,0.149646,-5.689147,69.174496,0.103424,-0.006363,1.003006,0.062914,0.059999,-0.001224,81.126572,36.681564,-150.544296,,,
729705622.764682,0.166822,-5.674158,69.175686,0.105972,0.004272,0.992188,0.056065,0.052323,-0.006967,81.126572,36.681564,-150.544296,,,
729705622.768019,0.166822,-5.674158,69.175686,0.105972,0.004272,0.992188,0.056065,0.052323,-0.006967,81.126572,36.681564,-150.544296,,,
729705622.771319,0.175583,-5.657486,69.175992,0.105972,0.004272,0.992188,0.056065,0.052323,-0.006967,81.126572,36.681564,-150.544296,,,
729705622.774681,0.187053,-5.643847,69.174992,0.108276,0.014862,0.979828,0.029747,0.050664,-0.010922,81.126572,36.681564,-150.544296,,,
729705622.778006,0.187053,-5.643847,69.174992,0.108276,0.014862,0.979828,0.029747,0.050664,-0.010922,81.126572,36.681564,-150.544296,,,
729705622.78136,0.186157,-5.626574,69.173038,0.108276,0.014862,0.979828,0.029747,0.050664,-0.010922,81.126572,36.681564,-150.544296,,,
729705622.784739,0.188604,-5.613954,69.170087,0.111038,0.026672,0.974274,-0.004585,0.049699,-0.013232,81.126572,36.681564,-150.544296,,,
729705622.788008,0.188604,-5.613954,69.170087,0.111038,0.026672,0.974274,-0.004585,0.049699,-0.013232,81.151276,36.53653,-150.616028,,,
729705622.791342,0.177009,-5.597973,69.166388,0.111038,0.026672,0.974274,-0.004585,0.049699,-0.013232,81.151276,36.53653,-150.616028,,,
729705622.794684,0.17116,-5.587262,69.161995,0.114685,0.029541,0.973419,-0.027581,0.038763,-0.019332,81.151276,36.53653,-150.616028,,,
729705622.798029,0.17116,-5.587262,69.161995,0.114685,0.029541,0.973419,-0.027581,0.038763,-0.019332,81.151276,36.53653,-150.616028,,,
729705622.801339,0.156073,-5.574192,69.156055,0.114685,0.029541,0.973419,-0.027581,0.038763,-0.019332,81.151276,36.53653,-150.616028,,,
729705622.804682,0.145837,-5.565913,69.148329,0.112015,0.030441,0.977966,-0.041966,0.02808,-0.02872,81.151276,36.53653,-150.616028,,,
729705622.808028,0.145837,-5.565913,69.148329,0.112015,0.030441,0.977966,-0.041966,0.02808,-0.02872,81.151276,36.53653,-150.616028,,,
729705622.81134,0.129362,-5.557562,69.138601,0.112015,0.030441,0.977966,-0.041966,0.02808,-0.02872,81.151276,36.53653,-150.616028,,,
729705622.814674,0.115998,-5.553154,69.127099,0.111176,0.029175,0.983917,-0.054572,0.014344,-0.041731,81.151276,36.53653,-150.616028,,,
729705622.818018,0.115998,-5.553154,69.127099,0.111176,0.029175,0.983917,-0.054572,0.014344,-0.041731,81.151276,36.53653,-150.616028,,,
729705622.821342,0.099382,-5.549485,69.113982,0.111176,0.029175,0.983917,-0.054572,0.014344,-0.041731,81.151276,36.53653,-150.616028,,,
729705622.824674,0.08445,-5.547199,69.098773,0.114517,0.031418,0.984467,-0.058702,0.010007,-0.053477,81.151276,36.53653,-150.616028,,,
729705622.828051,0.08445,-5.547199,69.098773,0.114517,0.031418,0.984467,-0.058702,0.010007,-0.053477,81.176483,36.592667,-150.830048,,,
729705622.83137,0.066969,-5.544863,69.081801,0.114517,0.031418,0.984467,-0.058702,0.010007,-0.053477,81.176483,36.592667,-150.830048,,,
729705622.834676,0.050615,-5.542028,69.064201,0.114517,0.030945,0.990311,-0.06355,0.011967,-0.058119,81.176483,36.592667,-150.830048,,,
729705622.838041,0.050615,-5.542028,69.064201,0.114517,0.030945,0.990311,-0.06355,0.011967,-0.058119,81.176483,36.592667,-150.830048,,,
729705622.841352,0.033244,-5.541159,69.046218,0.114517,0.030945,0.990311,-0.06355,0.011967,-0.058119,81.176483,36.592667,-150.830048,,,
729705622.844676,0.01626,-5.53947,69.027845,0.112701,0.027512,0.989731,-0.061697,0.009337,-0.059748,81.176483,36.592667,-150.830048,,,
729705622.848027,0.01626,-5.53947,69.027845,0.112701,0.027512,0.989731,-0.061697,0.009337,-0.059748,81.176483,36.592667,-150.830048,,,
729705622.851445,0.002324,-5.539276,69.009665,0.112701,0.027512,0.989731,-0.061697,0.009337,-0.059748,81.176483,36.592667,-150.830048,,,
729705622.854709,-0.01122,-5.537791,68.992768,0.103958,0.019394,0.992371,-0.045586,0.007311,-0.050193,81.176483,36.592667,-150.830048,,,
729705622.858022,-0.01122,-5.537791,68.992768,0.103958,0.019394,0.992371,-0.045586,0.007311,-0.050193,81.176483,36.592667,-150.830048,,,
729705622.861338,-0.017913,-5.540698,68.977668,0.103958,0.019394,0.992371,-0.045586,0.007311,-0.050193,81.176483,36.592667,-150.830048,,,
729705622.864673,-0.02585,-5.543571,68.965019,0.094223,0.008698,0.993622,-0.026266,-0.013676,-0.036373,81.176483,36.592667,-150.830048,,,
729705622.86802,-0.02585,-5.543571,68.965019,0.094223,0.008698,0.993622,-0.026266,-0.013676,-0.036373,81.176483,36.592667,-150.830048,,,
729705622.87134,-0.025193,-5.553138,68.955367,0.094223,0.008698,0.993622,-0.026266,-0.013676,-0.036373,81.139542,36.815109,-150.201752,,,
729705622.87467,-0.030881,-5.558887,68.947858,0.08902,0.008682,0.989151,-0.021092,-0.017867,-0.020471,81.139542,36.815109,-150.201752,,,
729705622.878095,-0.030881,-5.558887,68.947858,0.08902,0.008682,0.989151,-0.021092,-0.017867,-0.020471,81.139542,36.815109,-150.201752,,,
729705622.881369,-0.029435,-5.568909,68.941694,0.08902,0.008682,0.989151,-0.021092,-0.017867,-0.020471,81.139542,36.815109,-150.201752,,,
729705622.884683,-0.038094,-5.574667,68.936156,0.088837,0.01236,0.983063,-0.042229,-0.018703,-0.015197,81.139542,36.815109,-150.201752,,,
729705622.888017,-0.038094,-5.574667,68.936156,0.088837,0.01236,0.983063,-0.042229,-0.018703,-0.015197,81.139542,36.815109,-150.201752,,,
729705622.891446,-0.043225,-5.584554,68.930183,0.088837,0.01236,0.983063,-0.042229,-0.018703,-0.015197,81.139542,36.815109,-150.201752,,,
729705622.89467,-0.060011,-5.592034,68.923331,0.089005,0.021378,0.969925,-0.075123,-0.024782,-0.02142,81.139542,36.815109,-150.201752,,,
729705622.89801,-0.060011,-5.592034,68.923331,0.089005,0.021378,0.969925,-0.075123,-0.024782,-0.02142,81.139542,36.815109,-150.201752,,,
729705622.901362,-0.074707,-5.604929,68.915404,0.089005,0.021378,0.969925,-0.075123,-0.024782,-0.02142,81.139542,36.815109,-150.201752,,,
729705622.904677,-0.102951,-5.614996,68.906368,0.087143,0.024582,0.961838,-0.116198,-0.034344,-0.023256,81.139542,36.815109,-150.201752,,,
729705622.908022,-0.102951,-5.614996,68.906368,0.087143,0.024582,0.961838,-0.116198,-0.034344,-0.023256,81.139542,36.815109,-150.201752,,,
729705622.911357,-0.129825,-5.630139,68.89699,0.087143,0.024582,0.961838,-0.116198,-0.034344,-0.023256,81.168442,36.95488,-150.34581,,,
729705622.91467,-0.166302,-5.644113,68.888145,0.080811,0.015915,0.962021,-0.134724,-0.051555,-0.014053,81.168442,36.95488,-150.34581,,,
729705622.91809,-0.166302,-5.644113,68.888145,0.080811,0.015915,0.962021,-0.134724,-0.051555,-0.014053,81.168442,36.95488,-150.34581,,,
729705622.921333,-0.19858,-5.663331,68.880852,0.080811,0.015915,0.962021,-0.134724,-0.051555,-0.014053,81.168442,36.95488,-150.34581,,,
729705622.924675,-0.236297,-5.683434,68.875717,0.077194,0.001221,0.967499,-0.130787,-0.080797,-0.001885,81.168442,36.95488,-150.34581,,,
729705622.928024,-0.236297,-5.683434,68.875717,0.077194,0.001221,0.967499,-0.130787,-0.080797,-0.001885,81.168442,36.95488,-150.34581,,,
729705622.931418,-0.269839,-5.709532,68.871996,0.077194,0.001221,0.967499,-0.130787,-0.080797,-0.001885,81.168442,36.95488,-150.34581,,,
729705622.934671,-0.307403,-5.737648,68.8689,0.080536,-0.000931,0.967941,-0.130771,-0.099006,0.001062,81.168442,36.95488,-150.34581,,,
729705622.938036,-0.307403,-5.737648,68.8689,0.080536,-0.000931,0.967941,-0.130771,-0.099006,0.001062,81.168442,36.95488,-150.34581,,,
729705622.94136,-0.342171,-5.767479,68.865855,0.080536,-0.000931,0.967941,-0.130771,-0.099006,0.001062,81.168442,36.95488,-150.34581,,,
729705622.944674,-0.379894,-5.799027,68.862658,0.083588,0.003296,0.973709,-0.134214,-0.108685,-0.00025,81.168442,36.95488,-150.34581,,,
729705622.948027,-0.379894,-5.799027,68.862658,0.083588,0.003296,0.973709,-0.134214,-0.108685,-0.00025,81.168442,36.95488,-150.34581,,,
729705622.951346,-0.417188,-5.830377,68.85911,0.083588,0.003296,0.973709,-0.134214,-0.108685,-0.00025,80.977539,37.325363,-150.817551,,,
729705622.954676,-0.458093,-5.863273,68.855436,0.089935,0.00705,0.973862,-0.148152,-0.109491,-0.000317,80.977539,37.325363,-150.817551,,,
729705622.958091,-0.458093,-5.863273,68.855436,0.089935,0.00705,0.973862,-0.148152,-0.109491,-0.000317,80.977539,37.325363,-150.817551,,,
729705622.961354,-0.498105,-5.893693,68.851555,0.089935,0.00705,0.973862,-0.148152,-0.109491,-0.000317,80.977539,37.325363,-150.817551,,,
729705622.96467,-0.541585,-5.924536,68.84766,0.101654,0.002045,0.980179,-0.154422,-0.099154,0.001251,80.977539,37.325363,-150.817551,,,
729705622.968016,-0.541585,-5.924536,68.84766,0.101654,0.002045,0.980179,-0.154422,-0.099154,0.001251,80.977539,37.325363,-150.817551,,,
729705622.971341,-0.581383,-5.951477,68.844394,0.101654,0.002045,0.980179,-0.154422,-0.099154,0.001251,80.977539,37.325363,-150.817551,,,
729705622.974678,-0.624895,-5.977986,68.841448,0.107513,-0.003754,0.990616,-0.15156,-0.08301,0.003396,80.977539,37.325363,-150.817551,,,
729705622.978003,-0.624895,-5.977986,68.841448,0.107513,-0.003754,0.990616,-0.15156,-0.08301,0.003396,80.977539,37.325363,-150.817551,,,
729705622.981365,-0.662284,-6.000556,68.838648,0.107513,-0.003754,0.990616,-0.15156,-0.08301,0.003396,80.977539,37.325363,-150.817551,,,
729705622.984712,-0.703554,-6.023146,68.83628,0.107788,-0.003601,1.000153,-0.140489,-0.069333,0.006553,80.977539,37.325363,-150.817551,,,
729705622.988002,-0.703554,-6.023146,68.83628,0.107788,-0.003601,1.000153,-0.140489,-0.069333,0.006553,80.977539,37.325363,-150.817551,,,
729705622.991378,-0.738484,-6.040942,68.834606,0.107788,-0.003601,1.000153,-0.140489,-0.069333,0.006553,80.977539,37.325363,-150.817551,,,
729705622.994679,-0.777739,-6.05853,68.833125,0.098755,-0.003143,1.004913,-0.133174,-0.048675,0.008049,80.678085,37.499313,-150.524475,,,
729705622.998011,-0.777739,-6.05853,68.833125,0.098755,-0.003143,1.004913,-0.133174,-0.048675,0.008049,80.678085,37.499313,-150.524475,,,
729705623.001368,-0.811539,-6.068428,68.831878,0.098755,-0.003143,1.004913,-0.133174,-0.048675,0.008049,80.678085,37.499313,-150.524475,,,
729705623.004673,-0.8478,-6.080616,68.830727,0.102295,-0.003372,1.009216,-0.122803,-0.037702,0.008439,80.678085,37.499313,-150.524475,,,
729705623.008114,-0.8478,-6.080616,68.830727,0.102295,-0.003372,1.009216,-0.122803,-0.037702,0.008439,80.678085,37.499313,-150.524475,,,
729705623.011122,-0.880417,-6.086253,68.829289,0.102295,-0.003372,1.009216,-0.122803,-0.037702,0.008439,80.678085,37.499313,-150.524475,,,
729705623.014716,-0.914657,-6.094813,68.827177,0.102753,-0.006836,1.007111,-0.118631,-0.021486,0.003138,80.678085,37.499313,-150.524475,,,
729705623.018069,-0.914657,-6.094813,68.827177,0.102753,-0.006836,1.007111,-0.118631,-0.021486,0.003138,80.678085,37.499313,-150.524475,,,
729705623.021351,-0.94437,-6.096628,68.824867,0.102753,-0.006836,1.007111,-0.118631,-0.021486,0.003138,80.678085,37.499313,-150.524475,,,
729705623.024683,-0.976957,-6.100491,68.821542,0.104462,-0.009094,1.007874,-0.111795,-0.00526,-0.004581,80.678085,37.499313,-150.524475,,,
729705623.028017,-0.976957,-6.100491,68.821542,0.104462,-0.009094,1.007874,-0.111795,-0.00526,-0.004581,80.678085,37.499313,-150.524475,,,
729705623.031358,-1.003865,-6.098693,68.817383,0.104462,-0.009094,1.007874,-0.111795,-0.00526,-0.004581,80.678085,37.499313,-150.524475,,,
729705623.03468,-1.035044,-6.099931,68.813366,0.108475,-0.008087,1.007263,-0.105737,0.001376,-0.001294,80.726257,37.588852,-150.740875,,,
729705623.038007,-1.035044,-6.099931,68.813366,0.108475,-0.008087,1.007263,-0.105737,0.001376,-0.001294,80.726257,37.588852,-150.740875,,,
729705623.04136,-1.059305,-6.098312,68.81014,0.108475,-0.008087,1.007263,-0.105737,0.001376,-0.001294,80.726257,37.588852,-150.740875,,,
729705623.044676,-1.087033,-6.097812,68.807853,0.106293,-0.009445,1.009064,-0.092141,0.010492,0.004439,80.726257,37.588852,-150.740875,,,
729705623.048079,-1.087033,-6.097812,68.807853,0.106293,-0.009445,1.009064,-0.092141,0.010492,0.004439,80.726257,37.588852,-150.740875,,,
729705623.051334,-1.108571,-6.095499,68.806736,0.106293,-0.009445,1.009064,-0.092141,0.010492,0.004439,80.726257,37.588852,-150.740875,,,
729705623.054674,-1.131819,-6.090961,68.806834,0.103668,-0.018265,1.015045,-0.070858,0.025409,0.007837,80.726257,37.588852,-150.740875,,,
729705623.058056,-1.131819,-6.090961,68.806834,0.103668,-0.018265,1.015045,-0.070858,0.025409,0.007837,80.726257,37.588852,-150.740875,,,
729705623.061332,-1.14756,-6.084801,68.807911,0.103668,-0.018265,1.015045,-0.070858,0.025409,0.007837,80.726257,37.588852,-150.740875,,,
729705623.064671,-1.162476,-6.076418,68.809834,0.105225,-0.019836,1.022629,-0.040261,0.032821,0.00974,80.726257,37.588852,-150.740875,,,
729705623.068017,-1.162476,-6.076418,68.809834,0.105225,-0.019836,1.022629,-0.040261,0.032821,0.00974,80.726257,37.588852,-150.740875,,,
729705623.071338,-1.169245,-6.066609,68.811641,0.105225,-0.019836,1.022629,-0.040261,0.032821,0.00974,80.726257,37.588852,-150.740875,,,
729705623.07467,-1.176453,-6.058056,68.812166,0.110138,-0.014023,1.021576,-0.017576,0.030905,-0.000978,80.91539,37.757339,-150.648361,,,
729705623.078005,-1.176453,-6.058056,68.812166,0.110138,-0.014023,1.021576,-0.017576,0.030905,-0.000978,80.91539,37.757339,-150.648361,,,
729705623.081336,-1.176605,-6.048628,68.811188,0.110138,-0.014023,1.021576,-0.017576,0.030905,-0.000978,80.91539,37.757339,-150.648361,,,
729705623.084668,-1.178266,-6.042204,68.809124,0.106155,-0.006409,1.020538,3e-05,0.021194,-0.012771,80.91539,37.757339,-150.648361,,,
729705623.088004,-1.178266,-6.042204,68.809124,0.106155,-0.006409,1.020538,3e-05,0.021194,-0.012771,80.91539,37.757339,-150.648361,,,
729705623.091342,-1.174061,-6.036647,68.806452,0.106155,-0.006409,1.020538,3e-05,0.021194,-0.012771,80.91539,37.757339,-150.648361,,,
729705623.094678,-1.172981,-6.033748,68.803578,0.097855,-0.006912,1.015213,0.007983,0.008634,-0.010982,80.91539,37.757339,-150.648361,,,
729705623.098013,-1.172981,-6.033748,68.803578,0.097855,-0.006912,1.015213,0.007983,0.008634,-0.010982,80.91539,37.757339,-150.648361,,,
729705623.101385,-1.168284,-6.031044,68.801095,0.097855,-0.006912,1.015213,0.007983,0.008634,-0.010982,80.91539,37.757339,-150.648361,,,
729705623.104693,-1.165111,-6.029367,68.79944,0.099518,-0.011032,1.015091,0.014135,0.007744,-0.005628,80.91539,37.757339,-150.648361,,,
729705623.108014,-1.165111,-6.029367,68.79944,0.099518,-0.011032,1.015091,0.014135,0.007744,-0.005628,80.91539,37.757339,-150.648361,,,
729705623.111343,-1.159248,-6.028476,68.799444,0.099518,-0.011032,1.015091,0.014135,0.007744,-0.005628,80.91539,37.757339,-150.648361,,,
729705623.114692,-1.155248,-6.027809,68.801189,0.100967,-0.013733,1.015137,0.017938,0.002544,0.00488,81.068863,37.680664,-150.532059,,,
729705623.118015,-1.155248,-6.027809,68.801189,0.100967,-0.013733,1.015137,0.017938,0.002544,0.00488,81.068863,37.680664,-150.532059,,,
729705623.121377,-1.14953,-6.028205,68.803765,0.100967,-0.013733,1.015137,0.017938,0.002544,0.00488,81.068863,37.680664,-150.532059,,,
729705623.124713,-1.145858,-6.02826,68.806737,0.095901,-0.012634,1.010956,0.013711,0.006023,0.009471,81.068863,37.680664,-150.532059,,,
729705623.128092,-1.145858,-6.02826,68.806737,0.095901,-0.012634,1.010956,0.013711,0.006023,0.009471,81.068863,37.680664,-150.532059,,,
729705623.131333,-1.141629,-6.027103,68.810453,0.095901,-0.012634,1.010956,0.013711,0.006023,0.009471,81.068863,37.680664,-150.532059,,,
729705623.13468,-1.138541,-6.025156,68.814612,0.097412,-0.012924,1.011169,0.010004,0.01236,0.008061,81.068863,37.680664,-150.532059,,,
729705623.138003,-1.138541,-6.025156,68.814612,0.097412,-0.012924,1.011169,0.010004,0.01236,0.008061,81.068863,37.680664,-150.532059,,,
729705623.141408,-1.135629,-6.0219,68.818394,0.097412,-0.012924,1.011169,0.010004,0.01236,0.008061,81.068863,37.680664,-150.532059,,,
729705623.144663,-1.131826,-6.019334,68.821957,0.101227,-0.019562,1.014297,0.021895,0.007208,0.011678,81.068863,37.680664,-150.532059,,,
729705623.14802,-1.131826,-6.019334,68.821957,0.101227,-0.019562,1.014297,0.021895,0.007208,0.011678,81.068863,37.680664,-150.532059,,,
729705623.15135,-1.124964,-6.017938,68.826376,0.101227,-0.019562,1.014297,0.021895,0.007208,0.011678,81.068863,37.680664,-150.532059,,,
729705623.154676,-1.115632,-6.018158,68.831927,0.097855,-0.023315,1.01387,0.037006,-0.001316,0.013696,81.068863,37.680664,-150.532059,,,
729705623.158003,-1.115632,-6.018158,68.831927,0.097855,-0.023315,1.01387,0.037006,-0.001316,0.013696,80.963013,37.646713,-150.256104,,,
729705623.161365,-1.10348,-6.019611,68.838126,0.097855,-0.023315,1.01387,0.037006,-0.001316,0.013696,80.963013,37.646713,-150.256104,,,
729705623.164667,-1.091222,-6.021024,68.845186,0.097885,-0.020523,1.013184,0.048571,-0.002664,0.020681,80.963013,37.646713,-150.256104,,,
729705623.1681,-1.091222,-6.021024,68.845186,0.097885,-0.020523,1.013184,0.048571,-0.002664,0.020681,80.963013,37.646713,-150.256104,,,
729705623.171329,-1.076578,-6.021582,68.85339,0.097885,-0.020523,1.013184,0.048571,-0.002664,0.020681,80.963013,37.646713,-150.256104,,,
729705623.174669,-1.062988,-6.022256,68.86253,0.098969,-0.019867,1.008881,0.052921,0.000616,0.029049,80.963013,37.646713,-150.256104,,,
729705623.178014,-1.062988,-6.022256,68.86253,0.098969,-0.019867,1.008881,0.052921,0.000616,0.029049,80.963013,37.646713,-150.256104,,,
729705623.181402,-1.047758,-6.02134,68.872918,0.098969,-0.019867,1.008881,0.052921,0.000616,0.029049,80.963013,37.646713,-150.256104,,,
729705623.184671,-1.033049,-6.020975,68.884512,0.101959,-0.020538,1.00563,0.0577,0.006008,0.037056,80.963013,37.646713,-150.256104,,,
729705623.188067,-1.033049,-6.020975,68.884512,0.101959,-0.020538,1.00563,0.0577,0.006008,0.037056,80.963013,37.646713,-150.256104,,,
729705623.191342,-1.017146,-6.018869,68.89705,0.101959,-0.020538,1.00563,0.0577,0.006008,0.037056,80.963013,37.646713,-150.256104,,,
729705623.194672,-1.002063,-6.017024,68.90996,0.103928,-0.018738,1.003632,0.05439,0.008515,0.035943,80.963013,37.646713,-150.256104,,,
729705623.198007,-1.002063,-6.017024,68.90996,0.103928,-0.018738,1.003632,0.05439,0.008515,0.035943,80.934982,37.594055,-150.280258,,,
729705623.201349,-0.987219,-6.014548,68.921963,0.103928,-0.018738,1.003632,0.05439,0.008515,0.035943,80.934982,37.594055,-150.280258,,,
729705623.204704,-0.974159,-6.012939,68.932136,0.100037,-0.017426,0.99559,0.048094,0.008146,0.025845,80.934982,37.594055,-150.280258,,,
729705623.208087,-0.974159,-6.012939,68.932136,0.100037,-0.017426,0.99559,0.048094,0.008146,0.025845,80.934982,37.594055,-150.280258,,,
729705623.211355,-0.961163,-6.010147,68.940915,0.100037,-0.017426,0.99559,0.048094,0.008146,0.025845,80.934982,37.594055,-150.280258,,,
729705623.214677,-0.949468,-6.009937,68.949309,0.098404,-0.018387,0.993759,0.04014,0.000461,0.022329,80.934982,37.594055,-150.280258,,,
729705623.218037,-0.949468,-6.009937,68.949309,0.098404,-0.018387,0.993759,0.04014,0.000461,0.022329,80.934982,37.594055,-150.280258,,,
729705623.221345,-0.938888,-6.00943,68.957482,0.098404,-0.018387,0.993759,0.04014,0.000461,0.022329,80.934982,37.594055,-150.280258,,,
729705623.224679,-0.92945,-6.010348,68.965723,0.09726,-0.021042,0.986816,0.035602,-0.001138,0.027023,80.934982,37.594055,-150.280258,,,
729705623.228023,-0.92945,-6.010348,68.965723,0.09726,-0.021042,0.986816,0.035602,-0.001138,0.027023,80.934982,37.594055,-150.280258,,,
729705623.231409,-0.92185,-6.010272,68.974579,0.09726,-0.021042,0.986816,0.035602,-0.001138,0.027023,80.934982,37.594055,-150.280258,,,
729705623.23471,-0.914071,-6.010473,68.983365,0.104065,-0.021255,0.985504,0.028865,0.00439,0.025922,80.934982,37.594055,-150.280258,,,
729705623.238,-0.914071,-6.010473,68.983365,0.104065,-0.021255,0.985504,0.028865,0.00439,0.025922,80.792023,37.678833,-150.342606,,,
729705623.241362,-0.908691,-6.00778,68.991266,0.104065,-0.021255,0.985504,0.028865,0.00439,0.025922,80.792023,37.678833,-150.342606,,,
729705623.244676,-0.903275,-6.006338,68.997373,0.111252,-0.015045,0.983856,0.017857,0.012398,0.014395,80.792023,37.678833,-150.342606,,,
729705623.248022,-0.903275,-6.006338,68.997373,0.111252,-0.015045,0.983856,0.017857,0.012398,0.014395,80.792023,37.678833,-150.342606,,,
729705623.251351,-0.900265,-6.00171,69.001096,0.111252,-0.015045,0.983856,0.017857,0.012398,0.014395,80.792023,37.678833,-150.342606,,,
729705623.254672,-0.898013,-5.998397,69.002526,0.111847,-0.012573,0.979553,0.003632,0.013341,-0.004206,80.792023,37.678833,-150.342606,,,
729705623.258073,-0.898013,-5.998397,69.002526,0.111847,-0.012573,0.979553,0.003632,0.013341,-0.004206,80.792023,37.678833,-150.342606,,,
729705623.261331,-0.898024,-5.994396,69.001573,0.111847,-0.012573,0.979553,0.003632,0.013341,-0.004206,80.792023,37.678833,-150.342606,,,
729705623.264739,-0.898162,-5.993005,68.999057,0.106659,-0.016174,0.976013,-0.002839,0.00243,-0.011808,80.792023,37.678833,-150.342606,,,
729705623.268104,-0.898162,-5.993005,68.999057,0.106659,-0.016174,0.976013,-0.002839,0.00243,-0.011808,80.792023,37.678833,-150.342606,,,
729705623.271371,-0.901266,-5.992808,68.996001,0.106659,-0.016174,0.976013,-0.002839,0.00243,-0.011808,80.792023,37.678833,-150.342606,,,
729705623.274679,-0.905338,-5.994624,68.992618,0.103043,-0.022903,0.971832,-0.015913,-0.005338,-0.009137,80.792023,37.678833,-150.342606,,,
729705623.278012,-0.905338,-5.994624,68.992618,0.103043,-0.022903,0.971832,-0.015913,-0.005338,-0.009137,80.874268,37.326843,-150.108795,,,
729705623.281421,-0.911457,-5.995939,68.989527,0.103043,-0.022903,0.971832,-0.015913,-0.005338,-0.009137,80.874268,37.326843,-150.108795,,,
729705623.284671,-0.91817,-5.99655,68.986966,0.101379,-0.024933,0.975739,-0.025183,0.007857,-0.006954,80.874268,37.326843,-150.108795,,,
729705623.28801,-0.91817,-5.99655,68.986966,0.101379,-0.024933,0.975739,-0.025183,0.007857,-0.006954,80.874268,37.326843,-150.108795,,,
729705623.291346,-0.925503,-5.994336,68.985008,0.101379,-0.024933,0.975739,-0.025183,0.007857,-0.006954,80.874268,37.326843,-150.108795,,,
729705623.294678,-0.932978,-5.991707,68.98393,0.103989,-0.026764,0.978912,-0.025628,0.019201,0.00056,80.874268,37.326843,-150.108795,,,
729705623.298018,-0.932978,-5.991707,68.98393,0.103989,-0.026764,0.978912,-0.025628,0.019201,0.00056,80.874268,37.326843,-150.108795,,,
729705623.301361,-0.941802,-5.985681,68.984081,0.103989,-0.026764,0.978912,-0.025628,0.019201,0.00056,80.874268,37.326843,-150.108795,,,
729705623.304684,-0.949533,-5.98081,68.985011,0.10347,-0.0298,0.978134,-0.027749,0.019535,0.003325,80.874268,37.326843,-150.108795,,,
729705623.308086,-0.949533,-5.98081,68.985011,0.10347,-0.0298,0.978134,-0.027749,0.019535,0.003325,80.874268,37.326843,-150.108795,,,
729705623.311397,-0.95881,-5.975318,68.985804,0.10347,-0.0298,0.978134,-0.027749,0.019535,0.003325,80.874268,37.326843,-150.108795,,,
729705623.314672,-0.968341,-5.970363,68.986394,0.104904,-0.027328,0.976089,-0.037123,0.026508,0.004504,80.874268,37.326843,-150.108795,,,
729705623.318024,-0.968341,-5.970363,68.986394,0.104904,-0.027328,0.976089,-0.037123,0.026508,0.004504,80.874268,37.326843,-150.108795,,,
729705623.321349,-0.980443,-5.965766,68.987083,0.104904,-0.027328,0.976089,-0.037123,0.026508,0.004504,80.779755,37.604797,-150.215347,,,
729705623.324675,-0.993667,-5.958837,68.987426,0.104599,-0.023819,0.976456,-0.049244,0.029085,0.005759,80.779755,37.604797,-150.215347,,,
729705623.328029,-0.993667,-5.958837,68.987426,0.104599,-0.023819,0.976456,-0.049244,0.029085,0.005759,80.779755,37.604797,-150.215347,,,
729705623.331366,-1.007054,-5.954755,68.986905,0.104599,-0.023819,0.976456,-0.049244,0.029085,0.005759,80.779755,37.604797,-150.215347,,,
729705623.334674,-1.022634,-5.94858,68.985445,0.112366,-0.017853,0.973709,-0.055362,0.02518,-0.001944,80.779755,37.604797,-150.215347,,,
729705623.338008,-1.022634,-5.94858,68.985445,0.112366,-0.017853,0.973709,-0.055362,0.02518,-0.001944,80.779755,37.604797,-150.215347,,,
729705623.341345,-1.038516,-5.944432,68.982969,0.112366,-0.017853,0.973709,-0.055362,0.02518,-0.001944,80.779755,37.604797,-150.215347,,,
729705623.344675,-1.055897,-5.940142,68.978886,0.115601,-0.011017,0.970718,-0.063407,0.013461,-0.012816,80.779755,37.604797,-150.215347,,,
729705623.348098,-1.055897,-5.940142,68.978886,0.115601,-0.011017,0.970718,-0.063407,0.013461,-0.012816,80.779755,37.604797,-150.215347,,,
729705623.351349,-1.074105,-5.938548,68.973121,0.115601,-0.011017,0.970718,-0.063407,0.013461,-0.012816,80.779755,37.604797,-150.215347,,,
729705623.354753,-1.092489,-5.939026,68.966329,0.117157,-0.006699,0.969131,-0.066445,-0.00458,-0.021938,80.779755,37.604797,-150.215347,,,
729705623.358009,-1.092489,-5.939026,68.966329,0.117157,-0.006699,0.969131,-0.066445,-0.00458,-0.021938,80.779755,37.604797,-150.215347,,,
729705623.361347,-1.112102,-5.942925,68.95865,0.117157,-0.006699,0.969131,-0.066445,-0.00458,-0.021938,80.723251,37.766174,-150.535553,,,
729705623.364674,-1.131468,-5.950018,68.949664,0.112579,-0.010574,0.970261,-0.070276,-0.028667,-0.0302,80.723251,37.766174,-150.535553,,,
729705623.368016,-1.131468,-5.950018,68.949664,0.112579,-0.010574,0.970261,-0.070276,-0.028667,-0.0302,80.723251,37.766174,-150.535553,,,
729705623.371347,-1.151582,-5.960002,68.939157,0.112579,-0.010574,0.970261,-0.070276,-0.028667,-0.0302,80.723251,37.766174,-150.535553,,,
729705623.374676,-1.170266,-5.972912,68.928013,0.111267,-0.011093,0.974289,-0.066933,-0.048087,-0.033352,80.723251,37.766174,-150.535553,,,
729705623.378027,-1.170266,-5.972912,68.928013,0.111267,-0.011093,0.974289,-0.066933,-0.048087,-0.033352,80.723251,37.766174,-150.535553,,,
729705623.381438,-1.190214,-5.98854,68.916848,0.111267,-0.011093,0.974289,-0.066933,-0.048087,-0.033352,80.723251,37.766174,-150.535553,,,
729705623.384666,-1.209375,-6.005617,68.90608,0.10466,-0.013199,0.975204,-0.071232,-0.057013,-0.032822,80.723251,37.766174,-150.535553,,,
729705623.388004,-1.209375,-6.005617,68.90608,0.10466,-0.013199,0.975204,-0.071232,-0.057013,-0.032822,80.723251,37.766174,-150.535553,,,
729705623.391343,-1.230889,-6.023071,68.895565,0.10466,-0.013199,0.975204,-0.071232,-0.057013,-0.032822,80.723251,37.766174,-150.535553,,,
729705623.394677,-1.253181,-6.039331,68.884937,0.105713,-0.018265,0.982681,-0.083445,-0.049728,-0.027143,80.723251,37.766174,-150.535553,,,
729705623.398092,-1.253181,-6.039331,68.884937,0.105713,-0.018265,0.982681,-0.083445,-0.049728,-0.027143,80.723251,37.766174,-150.535553,,,
729705623.401328,-1.277194,-6.053835,68.874817,0.105713,-0.018265,0.982681,-0.083445,-0.049728,-0.027143,80.667831,37.867401,-150.324173,,,
729705623.404669,-1.301659,-6.064828,68.865608,0.103271,-0.021973,0.990372,-0.088845,-0.02371,-0.021536,80.667831,37.867401,-150.324173,,,
729705623.408024,-1.301659,-6.064828,68.865608,0.103271,-0.021973,0.990372,-0.088845,-0.02371,-0.021536,80.667831,37.867401,-150.324173,,,
729705623.41134,-1.325676,-6.072689,68.857105,0.103271,-0.021973,0.990372,-0.088845,-0.02371,-0.021536,80.667831,37.867401,-150.324173,,,
729705623.414672,-1.348266,-6.076516,68.849738,0.104553,-0.02417,1.000946,-0.073709,-0.003358,-0.016574,80.667831,37.867401,-150.324173,,,
729705623.418027,-1.348266,-6.076516,68.849738,0.104553,-0.02417,1.000946,-0.073709,-0.003358,-0.016574,80.667831,37.867401,-150.324173,,,
729705623.421337,-1.367369,-6.079224,68.844021,0.104553,-0.02417,1.000946,-0.073709,-0.003358,-0.016574,80.667831,37.867401,-150.324173,,,
729705623.424672,-1.385376,-6.077672,68.840396,0.094406,-0.028702,1.005325,-0.054629,0.013314,-0.002933,80.667831,37.867401,-150.324173,,,
729705623.428032,-1.385376,-6.077672,68.840396,0.094406,-0.028702,1.005325,-0.054629,0.013314,-0.002933,80.667831,37.867401,-150.324173,,,
729705623.431359,-1.397658,-6.076406,68.838813,0.094406,-0.028702,1.005325,-0.054629,0.013314,-0.002933,80.667831,37.867401,-150.324173,,,
729705623.43467,-1.409245,-6.072228,68.838519,0.091644,-0.030792,1.004501,-0.030092,0.015353,0.000782,80.667831,37.867401,-150.324173,,,
729705623.438008,-1.409245,-6.072228,68.838519,0.091644,-0.030792,1.004501,-0.030092,0.015353,0.000782,80.667831,37.867401,-150.324173,,,
729705623.441333,-1.415019,-6.071955,68.838591,0.091644,-0.030792,1.004501,-0.030092,0.015353,0.000782,80.76796,37.943253,-150.309097,,,
729705623.44467,-1.421679,-6.070888,68.838801,0.092712,-0.028122,1.001114,-0.017158,0.00072,0.002399,80.76796,37.943253,-150.309097,,,
729705623.448024,-1.421679,-6.070888,68.838801,0.092712,-0.028122,1.001114,-0.017158,0.00072,0.002399,80.76796,37.943253,-150.309097,,,
729705623.451393,-1.423609,-6.073857,68.839261,0.092712,-0.028122,1.001114,-0.017158,0.00072,0.002399,80.76796,37.943253,-150.309097,,,
729705623.454654,-1.427932,-6.07759,68.839997,0.087875,-0.023636,0.993622,-0.014569,-0.016019,0.002403,80.76796,37.943253,-150.309097,,,
729705623.458012,-1.427932,-6.07759,68.839997,0.087875,-0.023636,0.993622,-0.014569,-0.016019,0.002403,80.76796,37.943253,-150.309097,,,
729705623.461348,-1.428217,-6.084498,68.840876,0.087875,-0.023636,0.993622,-0.014569,-0.016019,0.002403,80.76796,37.943253,-150.309097,,,
729705623.464663,-1.430715,-6.091985,68.842352,0.090652,-0.021317,0.992126,-0.007826,-0.02971,0.008083,80.76796,37.943253,-150.309097,,,
729705623.468001,-1.430715,-6.091985,68.842352,0.090652,-0.021317,0.992126,-0.007826,-0.02971,0.008083,80.76796,37.943253,-150.309097,,,
729705623.471347,-1.430598,-6.101786,68.844189,0.090652,-0.021317,0.992126,-0.007826,-0.02971,0.008083,80.76796,37.943253,-150.309097,,,
729705623.474655,-1.433,-6.112837,68.846574,0.09407,-0.023682,0.992615,-0.009934,-0.037114,0.008015,80.76796,37.943253,-150.309097,,,
729705623.478092,-1.433,-6.112837,68.846574,0.09407,-0.023682,0.992615,-0.009934,-0.037114,0.008015,80.76796,37.943253,-150.309097,,,
729705623.481353,-1.435208,-6.124168,68.849744,0.09407,-0.023682,0.992615,-0.009934,-0.037114,0.008015,80.76796,37.943253,-150.309097,,,
729705623.484667,-1.439698,-6.135035,68.852583,0.100815,-0.016891,0.992813,-0.015989,-0.03231,0.01069,80.683212,37.911224,-150.223129,,,
729705623.488031,-1.439698,-6.135035,68.852583,0.100815,-0.016891,0.992813,-0.015989,-0.03231,0.01069,80.683212,37.911224,-150.223129,,,
729705623.491339,-1.44419,-6.143633,68.855353,0.100815,-0.016891,0.992813,-0.015989,-0.03231,0.01069,80.683212,37.911224,-150.223129,,,
729705623.494773,-1.450005,-6.150598,68.85894,0.105927,-0.015701,0.996475,-0.019881,-0.017659,0.015491,80.683212,37.911224,-150.223129,,,
729705623.498009,-1.450005,-6.150598,68.85894,0.105927,-0.015701,0.996475,-0.019881,-0.017659,0.015491,80.683212,37.911224,-150.223129,,,
729705623.501425,-1.456976,-6.153256,68.863382,0.105927,-0.015701,0.996475,-0.019881,-0.017659,0.015491,80.683212,37.911224,-150.223129,,,
729705623.504703,-1.463074,-6.155357,68.869249,0.105545,-0.023926,0.996811,-0.015476,0.004384,0.026656,80.683212,37.911224,-150.223129,,,
729705623.50801,-1.463074,-6.155357,68.869249,0.105545,-0.023926,0.996811,-0.015476,0.004384,0.026656,80.683212,37.911224,-150.223129,,,
729705623.511336,-1.46886,-6.150346,68.876852,0.105545,-0.023926,0.996811,-0.015476,0.004384,0.026656,80.683212,37.911224,-150.223129,,,
729705623.514666,-1.471496,-6.147503,68.886227,0.105545,-0.023926,0.996811,-0.015476,0.004384,0.026656,80.683212,37.911224,-150.223129,,,
729705623.518011,-1.471496,-6.147503,68.886227,0.109589,-0.032013,1.002075,0.001785,0.011922,0.037765,80.683212,37.911224,-150.223129,,,
729705623.521332,-1.472425,-6.141396,68.898182,0.109589,-0.032013,1.002075,0.001785,0.011922,0.037765,80.683212,37.911224,-150.223129,,,
729705623.524689,-1.470177,-6.13933,68.912259,0.109589,-0.032013,1.002075,0.018234,0.009162,0.048733,80.912643,37.877197,-150.212982,,,
729705623.528038,-1.470177,-6.13933,68.912259,0.104919,-0.03624,1.00296,0.018234,0.009162,0.048733,80.912643,37.877197,-150.212982,,,
729705623.531357,-1.466206,-6.132897,68.927492,0.104919,-0.03624,1.00296,0.018234,0.009162,0.048733,80.912643,37.877197,-150.212982,,,
729705623.534693,-1.466206,-6.13122,68.9426,0.104919,-0.03624,1.00296,0.030335,0.003119,0.048744,80.912643,37.877197,-150.212982,,,
729705623.538027,-1.460611,-6.13122,68.9426,0.099045,-0.034698,1.006195,0.030335,0.003119,0.048744,80.912643,37.877197,-150.212982,,,
729705623.541332,-1.453133,-6.126528,68.957538,0.099045,-0.034698,1.006195,0.030335,0.003119,0.048744,80.912643,37.877197,-150.212982,,,
729705623.544697,-1.453133,-6.127266,68.971781,0.099045,-0.034698,1.006195,0.030335,0.003119,0.048744,80.912643,37.877197,-150.212982,,,
729705623.548015,-1.445475,-6.127266,68.971781,0.100204,-0.029205,1.003418,0.031264,-0.00314,0.043087,80.912643,37.877197,-150.212982,,,
729705623.551332,-1.436997,-6.125509,68.985402,0.100204,-0.029205,1.003418,0.031264,-0.00314,0.043087,80.912643,37.877197,-150.212982,,,
729705623.554671,-1.436997,-6.125509,68.985402,0.100204,-0.029205,1.003418,0.031264,-0.00314,0.043087,80.912643,37.877197,-150.212982,,,
729705623.558026,-1.428704,-6.127693,68.99845,0.100235,-0.029892,1.005005,0.037773,-0.00762,0.042114,80.912643,37.877197,-150.212982,,,
729705623.561329,-1.418395,-6.127877,69.011122,0.100235,-0.029892,1.005005,0.037773,-0.00762,0.042114,80.912643,37.877197,-150.212982,,,
729705623.564672,-1.418395,-6.127877,69.011122,0.100235,-0.029892,1.005005,0.037773,-0.00762,0.042114,80.763596,37.846848,-150.200958,,,
729705623.568061,-1.407651,-6.130564,69.024095,0.105988,-0.032806,1.008102,0.046395,-0.007193,0.041759,80.763596,37.846848,-150.200958,,,
729705623.571335,-1.39355,-6.132861,69.037615,0.105988,-0.032806,1.008102,0.046395,-0.007193,0.041759,80.763596,37.846848,-150.200958,,,
729705623.574745,-1.39355,-6.132861,69.05184,0.105988,-0.032806,1.008102,0.046395,-0.007193,0.041759,80.763596,37.846848,-150.200958,,,
729705623.578014,-1.382346,-6.135853,69.05184,0.10437,-0.036438,1.004059,0.04175,-0.009818,0.04747,80.763596,37.846848,-150.200958,,,
729705623.58134,-1.370568,-6.138801,69.067125,0.10437,-0.036438,1.004059,0.04175,-0.009818,0.04747,80.763596,37.846848,-150.200958,,,
729705623.584743,-1.370568,-6.142042,69.083371,0.10437,-0.036438,1.004059,0.038182,-0.011883,0.051992,80.763596,37.846848,-150.200958,,,
729705623.588,-1.360854,-6.142042,69.083371,0.100922,-0.03685,0.999054,0.038182,-0.011883,0.051992,80.763596,37.846848,-150.200958,,,
729705623.591344,-1.353309,-6.145542,69.0998,0.100922,-0.03685,0.999054,0.038182,-0.011883,0.051992,80.763596,37.846848,-150.200958,,,
729705623.594764,-1.345713,-6.148391,69.115414,0.100922,-0.03685,0.999054,0.030708,-0.006161,0.048857,80.763596,37.846848,-150.200958,,,
729705623.597996,-1.345713,-6.148391,69.115414,0.104477,-0.032333,0.994064,0.030708,-0.006161,0.048857,80.763596,37.846848,-150.200958,,,
729705623.60134,-1.342106,-6.150623,69.130255,0.104477,-0.032333,0.994064,0.030708,-0.006161,0.048857,80.763596,37.846848,-150.200958,,,
729705623.604687,-1.342106,-6.150623,69.130255,0.104477,-0.032333,0.994064,0.030708,-0.006161,0.048857,80.763596,37.846848,-150.200958,,,
729705623.608076,-1.337098,-6.151594,69.14371,0.113754,-0.028198,0.992218,0.020224,0.00199,0.036903,80.856262,37.601227,-150.142441,,,
729705623.611327,-1.335907,-6.14935,69.155005,0.113754,-0.028198,0.992218,0.020224,0.00199,0.036903,80.856262,37.601227,-150.142441,,,
729705623.614747,-1.335907,-6.14935,69.155005,0.113754,-0.028198,0.992218,0.020224,0.00199,0.036903,80.856262,37.601227,-150.142441,,,
729705623.618022,-1.331597,-6.148067,69.16471,0.121613,-0.023376,0.996231,0.020022,0.008269,0.028385,80.856262,37.601227,-150.142441,,,
729705623.621335,-1.329015,-6.144816,69.173939,0.121613,-0.023376,0.996231,0.020022,0.008269,0.028385,80.856262,37.601227,-150.142441,,,
729705623.62473,-1.329015,-6.144816,69.173939,0.121613,-0.023376,0.996231,0.020022,0.008269,0.028385,80.856262,37.601227,-150.142441,,,
729705623.628029,-1.32422,-6.144265,69.182278,0.124908,-0.022949,0.994064,0.020272,0.002135,0.023268,80.856262,37.601227,-150.142441,,,
729705623.631331,-1.320751,-6.141949,69.189662,0.124908,-0.022949,0.994064,0.020272,0.002135,0.023268,80.856262,37.601227,-150.142441,,,
729705623.634744,-1.320751,-6.141949,69.189662,0.124908,-0.022949,0.994064,0.020272,0.002135,0.023268,80.856262,37.601227,-150.142441,,,
729705623.637993,-1.315447,-6.141753,69.195492,0.127609,-0.023941,0.995743,0.022974,0.001578,0.01063,80.856262,37.601227,-150.142441,,,
729705623.641333,-1.311753,-6.141,69.198731,0.127609,-0.023941,0.995743,0.022974,0.001578,0.01063,80.856262,37.601227,-150.142441,,,
729705623.64471,-1.311753,-6.141,69.198731,0.127609,-0.023941,0.995743,0.022974,0.001578,0.01063,80.856262,37.601227,-150.142441,,,
729705623.648076,-1.306055,-6.142689,69.198875,0.132202,-0.018616,0.991745,0.019362,-0.008551,-0.01189,80.701523,37.711853,-150.356308,,,
729705623.651333,-1.303168,-6.14557,69.195687,0.132202,-0.018616,0.991745,0.019362,-0.008551,-0.01189,80.701523,37.711853,-150.356308,,,
729705623.654687,-1.303168,-6.14557,69.195687,0.132202,-0.018616,0.991745,0.019362,-0.008551,-0.01189,80.701523,37.711853,-150.356308,,,
729705623.658016,-1.298421,-6.150514,69.189657,0.129822,-0.015015,0.98642,0.008577,-0.015025,-0.029594,80.701523,37.711853,-150.356308,,,
729705623.661338,-1.298615,-6.154399,69.181261,0.129822,-0.015015,0.98642,0.008577,-0.015025,-0.029594,80.701523,37.711853,-150.356308,,,
729705623.664662,-1.298615,-6.154399,69.181261,0.129822,-0.015015,0.98642,0.008577,-0.015025,-0.029594,80.701523,37.711853,-150.356308,,,
729705623.668019,-1.296102,-6.15927,69.170941,0.127502,-0.018234,0.98645,0.00174,-0.014857,-0.040368,80.701523,37.711853,-150.356308,,,
729705623.67134,-1.297196,-6.162947,69.159983,0.127502,-0.018234,0.98645,0.00174,-0.014857,-0.040368,80.701523,37.711853,-150.356308,,,
729705623.674768,-1.297196,-6.162947,69.159983,0.127502,-0.018234,0.98645,0.00174,-0.014857,-0.040368,80.701523,37.711853,-150.356308,,,
729705623.678003,-1.296294,-6.168324,69.148711,0.12468,-0.025879,0.990234,-9.6e-05,-0.015291,-0.043012,80.701523,37.711853,-150.356308,,,
729705623.681336,-1.297708,-6.174014,69.136756,0.12468,-0.025879,0.990234,-9.6e-05,-0.015291,-0.043012,80.701523,37.711853,-150.356308,,,
729705623.684677,-1.297708,-6.174014,69.136756,0.12468,-0.025879,0.990234,-9.6e-05,-0.015291,-0.043012,80.701523,37.711853,-150.356308,,,
729705623.687997,-1.296995,-6.178627,69.123573,0.119431,-0.02948,0.991348,-0.001606,-0.0067,-0.050583,80.717758,37.741608,-150.016663,,,
729705623.69133,-1.296063,-6.184053,69.109433,0.119431,-0.02948,0.991348,-0.001606,-0.0067,-0.050583,80.717758,37.741608,-150.016663,,,
729705623.694676,-1.296063,-6.184053,69.109433,0.119431,-0.02948,0.991348,-0.001606,-0.0067,-0.050583,80.717758,37.741608,-150.016663,,,
729705623.698007,-1.293281,-6.185005,69.095209,0.113419,-0.030502,0.99852,0.006469,0.002483,-0.051,80.717758,37.741608,-150.016663,,,
729705623.701333,-1.288887,-6.189481,69.081581,0.113419,-0.030502,0.99852,0.006469,0.002483,-0.051,80.717758,37.741608,-150.016663,,,
729705623.704675,-1.288887,-6.189481,69.081581,0.113419,-0.030502,0.99852,0.006469,0.002483,-0.051,80.717758,37.741608,-150.016663,,,
729705623.708044,-1.283785,-6.190685,69.068758,0.108398,-0.034378,0.993744,0.012875,-0.000421,-0.046354,80.717758,37.741608,-150.016663,,,
729705623.711358,-1.27875,-6.195886,69.056245,0.108398,-0.034378,0.993744,0.012875,-0.000421,-0.046354,80.717758,37.741608,-150.016663,,,
729705623.714741,-1.27875,-6.195886,69.056245,0.108398,-0.034378,0.993744,0.012875,-0.000421,-0.046354,80.717758,37.741608,-150.016663,,,
729705623.718003,-1.272128,-6.195942,69.045052,0.108948,-0.03363,0.993484,0.021612,0.008478,-0.040444,80.717758,37.741608,-150.016663,,,
729705623.721336,-1.264432,-6.200404,69.034541,0.108948,-0.03363,0.993484,0.021612,0.008478,-0.040444,80.717758,37.741608,-150.016663,,,
729705623.724681,-1.264432,-6.200404,69.034541,0.108948,-0.03363,0.993484,0.021612,0.008478,-0.040444,80.717758,37.741608,-150.016663,,,
729705623.728006,-1.256904,-6.199123,69.023839,0.108688,-0.027039,0.988983,0.0212,0.01066,-0.042313,80.648468,37.712189,-150.126801,,,
729705623.731331,-1.248303,-6.202854,69.012132,0.108688,-0.027039,0.988983,0.0212,0.01066,-0.042313,80.648468,37.712189,-150.126801,,,
729705623.73472,-1.248303,-6.202854,69.012132,0.108688,-0.027039,0.988983,0.0212,0.01066,-0.042313,80.648468,37.712189,-150.126801,,,
729705623.738032,-1.241057,-6.200311,68.999494,0.106277,-0.01593,0.981384,0.018552,0.015269,-0.049256,80.648468,37.712189,-150.126801,,,
729705623.741333,-1.233028,-6.202949,68.986328,0.106277,-0.01593,0.981384,0.018552,0.015269,-0.049256,80.648468,37.712189,-150.126801,,,
729705623.744688,-1.233028,-6.202949,68.986328,0.106277,-0.01593,0.981384,0.018552,0.015269,-0.049256,80.648468,37.712189,-150.126801,,,
729705623.748015,-1.228046,-6.201466,68.972628,0.101013,-0.009109,0.979401,0.003779,0.007069,-0.050705,80.648468,37.712189,-150.126801,,,
729705623.751337,-1.226089,-6.205534,68.957763,0.101013,-0.009109,0.979401,0.003779,0.007069,-0.050705,80.648468,37.712189,-150.126801,,,
729705623.75467,-1.226089,-6.205534,68.957763,0.101013,-0.009109,0.979401,0.003779,0.007069,-0.050705,80.648468,37.712189,-150.126801,,,
729705623.758011,-1.227134,-6.206688,68.942766,0.096085,-0.004196,0.96817,-0.016782,-0.005837,-0.049817,80.648468,37.712189,-150.126801,,,
729705623.761305,-1.232693,-6.213067,68.928262,0.096085,-0.004196,0.96817,-0.016782,-0.005837,-0.049817,80.648468,37.712189,-150.126801,,,
729705623.764693,-1.232693,-6.213067,68.928262,0.096085,-0.004196,0.96817,-0.016782,-0.005837,-0.049817,80.648468,37.712189,-150.126801,,,
729705623.768089,-1.239341,-6.218054,68.914383,0.091339,-0.005142,0.95993,-0.035914,-0.015856,-0.045078,80.648468,37.712189,-150.126801,,,
729705623.771333,-1.250689,-6.226581,68.901183,0.091339,-0.005142,0.95993,-0.035914,-0.015856,-0.045078,80.690781,37.501755,-149.826355,,,
729705623.774687,-1.250689,-6.226581,68.901183,0.091339,-0.005142,0.95993,-0.035914,-0.015856,-0.045078,80.690781,37.501755,-149.826355,,,
729705623.778025,-1.264059,-6.233721,68.889028,0.085236,-0.008148,0.956726,-0.059317,-0.021033,-0.035133,80.690781,37.501755,-149.826355,,,
729705623.781339,-1.283877,-6.242038,68.877931,0.085236,-0.008148,0.956726,-0.059317,-0.021033,-0.035133,80.690781,37.501755,-149.826355,,,
729705623.784685,-1.283877,-6.242038,68.877931,0.085236,-0.008148,0.956726,-0.059317,-0.021033,-0.035133,80.690781,37.501755,-149.826355,,,
729705623.788004,-1.304427,-6.251798,68.868192,0.083862,-0.01207,0.95134,-0.082641,-0.034555,-0.020862,80.690781,37.501755,-149.826355,,,
729705623.7914,-1.330597,-6.263142,68.859947,0.083862,-0.01207,0.95134,-0.082641,-0.034555,-0.020862,80.690781,37.501755,-149.826355,,,
729705623.794742,-1.330597,-6.263142,68.859947,0.083862,-0.01207,0.95134,-0.082641,-0.034555,-0.020862,80.690781,37.501755,-149.826355,,,
729705623.798009,-1.35848,-6.274172,68.853233,0.086884,-0.015274,0.954865,-0.106414,-0.034504,-0.008235,80.690781,37.501755,-149.826355,,,
729705623.801339,-1.390477,-6.283602,68.84763,0.086884,-0.015274,0.954865,-0.106414,-0.034504,-0.008235,80.690781,37.501755,-149.826355,,,
729705623.804667,-1.390477,-6.283602,68.84763,0.086884,-0.015274,0.954865,-0.106414,-0.034504,-0.008235,80.690781,37.501755,-149.826355,,,
729705623.808067,-1.423828,-6.29133,68.843329,0.092865,-0.014389,0.967239,-0.123654,-0.014806,0.002384,80.690781,37.501755,-149.826355,,,
729705623.811342,-1.458595,-6.296371,68.840851,0.092865,-0.014389,0.967239,-0.123654,-0.014806,0.002384,80.564575,37.735748,-150.033829,,,
729705623.814687,-1.458595,-6.296371,68.840851,0.092865,-0.014389,0.967239,-0.123654,-0.014806,0.002384,80.564575,37.735748,-150.033829,,,
729705623.818017,-1.494358,-6.298469,68.839723,0.098465,-0.014786,0.974701,-0.122051,0.003767,0.008921,80.564575,37.735748,-150.033829,,,
729705623.821361,-1.528227,-6.296873,68.83952,0.098465,-0.014786,0.974701,-0.122051,0.003767,0.008921,80.564575,37.735748,-150.033829,,,
729705623.824663,-1.528227,-6.296873,68.83952,0.098465,-0.014786,0.974701,-0.122051,0.003767,0.008921,80.564575,37.735748,-150.033829,,,
729705623.82804,-1.563693,-6.293003,68.840505,0.10704,-0.016632,0.983627,-0.121092,0.024298,0.018545,80.564575,37.735748,-150.033829,,,
729705623.831327,-1.596484,-6.285636,68.842946,0.10704,-0.016632,0.983627,-0.121092,0.024298,0.018545,80.564575,37.735748,-150.033829,,,
729705623.834732,-1.596484,-6.285636,68.842946,0.10704,-0.016632,0.983627,-0.121092,0.024298,0.018545,80.564575,37.735748,-150.033829,,,
729705623.837995,-1.631683,-6.277112,68.846991,0.111862,-0.015213,0.985123,-0.118485,0.037225,0.02882,80.564575,37.735748,-150.033829,,,
729705623.84133,-1.663109,-6.265182,68.852454,0.111862,-0.015213,0.985123,-0.118485,0.037225,0.02882,80.564575,37.735748,-150.033829,,,
729705623.844681,-1.663109,-6.265182,68.852454,0.111862,-0.015213,0.985123,-0.118485,0.037225,0.02882,80.564575,37.735748,-150.033829,,,
729705623.848096,-1.697262,-6.253188,68.857586,0.122543,-0.014481,0.986526,-0.113887,0.049238,0.02521,80.564575,37.735748,-150.033829,,,
729705623.851332,-1.728586,-6.237629,68.861097,0.122543,-0.014481,0.986526,-0.113887,0.049238,0.02521,80.616165,38.227448,-150.047714,,,
729705623.854471,-1.728586,-6.237629,68.861097,0.122543,-0.014481,0.986526,-0.113887,0.049238,0.02521,80.616165,38.227448,-150.047714,,,
729705623.858085,-1.762078,-6.224032,68.862938,0.132172,-0.010544,0.989197,-0.113643,0.048068,0.014077,80.616165,38.227448,-150.047714,,,
729705623.861335,-1.793198,-6.208664,68.862787,0.132172,-0.010544,0.989197,-0.113643,0.048068,0.014077,80.616165,38.227448,-150.047714,,,
729705623.864692,-1.793198,-6.208664,68.862787,0.132172,-0.010544,0.989197,-0.113643,0.048068,0.014077,80.616165,38.227448,-150.047714,,,
729705623.868021,-1.82683,-6.195872,68.860703,0.127502,-0.013916,0.984985,-0.114406,0.047091,0.001339,80.616165,38.227448,-150.047714,,,
729705623.871341,-1.858564,-6.181096,68.857832,0.127502,-0.013916,0.984985,-0.114406,0.047091,0.001339,80.616165,38.227448,-150.047714,,,
729705623.87477,-1.858564,-6.181096,68.857832,0.127502,-0.013916,0.984985,-0.114406,0.047091,0.001339,80.616165,38.227448,-150.047714,,,
729705623.878011,-1.893197,-6.169573,68.853929,0.122375,-0.023666,0.991058,-0.120563,0.039828,-0.004957,80.616165,38.227448,-150.047714,,,
729705623.881339,-1.926214,-6.158389,68.84993,0.122375,-0.023666,0.991058,-0.120563,0.039828,-0.004957,80.616165,38.227448,-150.047714,,,
729705623.884722,-1.926214,-6.158389,68.84993,0.122375,-0.023666,0.991058,-0.120563,0.039828,-0.004957,80.616165,38.227448,-150.047714,,,
729705623.888,-1.960163,-6.152191,68.846076,0.119644,-0.031693,0.995972,-0.116629,0.016544,-0.000605,80.616165,38.227448,-150.047714,,,
729705623.891331,-1.989845,-6.147987,68.842632,0.119644,-0.031693,0.995972,-0.116629,0.016544,-0.000605,80.87854,38.236191,-150.013702,,,
729705623.894692,-1.989845,-6.147987,68.842632,0.119644,-0.031693,0.995972,-0.116629,0.016544,-0.000605,80.87854,38.236191,-150.013702,,,
729705623.898006,-2.018893,-6.146799,68.839915,0.115341,-0.037292,1.004791,-0.091449,0.002275,0.000712,80.87854,38.236191,-150.013702,,,
729705623.901332,-2.041828,-6.147077,68.837423,0.115341,-0.037292,1.004791,-0.091449,0.002275,0.000712,80.87854,38.236191,-150.013702,,,
729705623.904664,-2.041828,-6.147077,68.837423,0.115341,-0.037292,1.004791,-0.091449,0.002275,0.000712,80.87854,38.236191,-150.013702,,,
729705623.908016,-2.064314,-6.149734,68.834694,0.114075,-0.042526,1.017105,-0.069274,-0.010725,-0.006196,80.87854,38.236191,-150.013702,,,
729705623.911331,-2.079774,-6.154146,68.831592,0.114075,-0.042526,1.017105,-0.069274,-0.010725,-0.006196,80.87854,38.236191,-150.013702,,,
729705623.914759,-2.079774,-6.154146,68.831592,0.114075,-0.042526,1.017105,-0.069274,-0.010725,-0.006196,80.87854,38.236191,-150.013702,,,
729705623.918016,-2.095475,-6.157839,68.828357,0.114792,-0.046158,1.020798,-0.04992,-0.007008,-0.007464,80.87854,38.236191,-150.013702,,,
729705623.921341,-2.104294,-6.162766,68.824891,0.114792,-0.046158,1.020798,-0.04992,-0.007008,-0.007464,80.87854,38.236191,-150.013702,,,
729705623.924681,-2.104294,-6.162766,68.824891,0.114792,-0.046158,1.020798,-0.04992,-0.007008,-0.007464,80.87854,38.236191,-150.013702,,,
729705623.928068,-2.115757,-6.164668,68.82161,0.115387,-0.049271,1.021851,-0.034629,0.000644,-0.00751,80.87854,38.236191,-150.013702,,,
729705623.93133,-2.120083,-6.170516,68.8188,0.115387,-0.049271,1.021851,-0.034629,0.000644,-0.00751,80.87854,38.236191,-150.013702,,,
729705623.934681,-2.120083,-6.170516,68.8188,0.115387,-0.049271,1.021851,-0.034629,0.000644,-0.00751,80.778732,38.150345,-149.607788,,,
729705623.937999,-2.127579,-6.170134,68.817217,0.115143,-0.053467,1.01796,-0.018506,0.003952,-0.001504,80.778732,38.150345,-149.607788,,,
729705623.941331,-2.12626,-6.174605,68.816671,0.115143,-0.053467,1.01796,-0.018506,0.003952,-0.001504,80.778732,38.150345,-149.607788,,,
729705623.944679,-2.12626,-6.174605,68.816671,0.115143,-0.053467,1.01796,-0.018506,0.003952,-0.001504,80.778732,38.150345,-149.607788,,,
729705623.948032,-2.130273,-6.17331,68.816203,0.115921,-0.050919,1.014206,-0.014046,0.006209,-0.003862,80.778732,38.150345,-149.607788,,,
729705623.951327,-2.13002,-6.176475,68.814269,0.115921,-0.050919,1.014206,-0.014046,0.006209,-0.003862,80.778732,38.150345,-149.607788,,,
729705623.954668,-2.13002,-6.176475,68.814269,0.115921,-0.050919,1.014206,-0.014046,0.006209,-0.003862,80.778732,38.150345,-149.607788,,,
729705623.95801,-2.13419,-6.176288,68.811478,0.112564,-0.047165,1.008804,-0.011832,0.002618,-0.013969,80.778732,38.150345,-149.607788,,,
729705623.961337,-2.135754,-6.181435,68.806981,0.112564,-0.047165,1.008804,-0.011832,0.002618,-0.013969,80.778732,38.150345,-149.607788,,,
729705623.964675,-2.135754,-6.181435,68.806981,0.112564,-0.047165,1.008804,-0.011832,0.002618,-0.013969,80.778732,38.150345,-149.607788,,,
729705623.968077,-2.139106,-6.186424,68.800494,0.10495,-0.04509,1.003189,-0.010683,-0.018584,-0.024994,80.778732,38.150345,-149.607788,,,
729705623.971333,-2.140573,-6.197375,68.792342,0.10495,-0.04509,1.003189,-0.010683,-0.018584,-0.024994,80.778732,38.150345,-149.607788,,,
729705623.974675,-2.140573,-6.197375,68.792342,0.10495,-0.04509,1.003189,-0.010683,-0.018584,-0.024994,80.723938,38.508575,-149.644073,,,
