Time (sec),Pitch (deg),Roll (deg),Yaw(deg),X-Acceleration (g),Y-Acceleration (g),Z-Acceleration (g),Pitch Rate (deg/sec),Roll Rate (deg/sec),Yaw Rate (deg/sec),Magnetic Field in X direction (uT),Magnetic Field in Y direction (uT),Magnetic Field in Z Direction (uT),Latitude (deg),Longitude (deg),Altitude (m)
729705386.786499,-5.572578,-0.646698,72.099068,0.035248,-0.106216,0.980652,-0.001763,0.089321,-0.004983,84.990219,41.635498,-147.749908,,,
729705386.789836,-5.576473,-0.623769,72.096436,0.033722,-0.103226,0.965332,-0.021546,0.079765,-0.012363,84.990219,41.635498,-147.749908,,,
729705386.793178,-5.576473,-0.623769,72.096436,0.033722,-0.103226,0.965332,-0.021546,0.079765,-0.012363,84.990219,41.635498,-147.749908,,,
729705386.796494,-5.584356,-0.603211,72.092835,0.033722,-0.103226,0.965332,-0.021546,0.079765,-0.012363,84.990219,41.635498,-147.749908,,,
729705386.799836,-5.596219,-0.585069,72.088405,0.032852,-0.100281,0.960892,-0.054628,0.061477,-0.01919,85.186142,41.746918,-147.81073,,,
729705386.803196,-5.596219,-0.585069,72.088405,0.032852,-0.100281,0.960892,-0.054628,0.061477,-0.01919,85.186142,41.746918,-147.81073,,,
729705386.806538,-5.613267,-0.570749,72.082755,0.032852,-0.100281,0.960892,-0.054628,0.061477,-0.01919,85.186142,41.746918,-147.81073,,,
729705386.809918,-5.632939,-0.557728,72.075836,0.028641,-0.102264,0.962906,-0.074649,0.047518,-0.027028,85.186142,41.746918,-147.81073,,,
729705386.813167,-5.632939,-0.557728,72.075836,0.028641,-0.102264,0.962906,-0.074649,0.047518,-0.027028,85.186142,41.746918,-147.81073,,,
729705386.816616,-5.653899,-0.545624,72.067432,0.028641,-0.102264,0.962906,-0.074649,0.047518,-0.027028,85.186142,41.746918,-147.81073,,,
729705386.81983,-5.674317,-0.529953,72.058177,0.028442,-0.108063,0.982635,-0.068781,0.071264,-0.035585,85.186142,41.746918,-147.81073,,,
729705386.823192,-5.674317,-0.529953,72.058177,0.028442,-0.108063,0.982635,-0.068781,0.071264,-0.035585,85.186142,41.746918,-147.81073,,,
729705386.826534,-5.69325,-0.513723,72.047726,0.028442,-0.108063,0.982635,-0.068781,0.071264,-0.035585,85.186142,41.746918,-147.81073,,,
729705386.829905,-5.710501,-0.491838,72.036641,0.024445,-0.115204,0.997833,-0.054249,0.089362,-0.041448,85.186142,41.746918,-147.81073,,,
729705386.833181,-5.710501,-0.491838,72.036641,0.024445,-0.115204,0.997833,-0.054249,0.089362,-0.041448,85.186142,41.746918,-147.81073,,,
729705386.836525,-5.725197,-0.47182,72.024399,0.024445,-0.115204,0.997833,-0.054249,0.089362,-0.041448,85.186142,41.746918,-147.81073,,,
729705386.839835,-5.738296,-0.446927,72.012195,0.013107,-0.119339,0.994537,-0.042865,0.09413,-0.04249,85.186142,41.746918,-147.81073,,,
729705386.843311,-5.738296,-0.446927,72.012195,0.013107,-0.119339,0.994537,-0.042865,0.09413,-0.04249,85.406906,41.825058,-147.930923,,,
729705386.846501,-5.750834,-0.426892,71.999823,0.013107,-0.119339,0.994537,-0.042865,0.09413,-0.04249,85.406906,41.825058,-147.930923,,,
729705386.849847,-5.760973,-0.402664,71.987899,0.007553,-0.116608,0.993713,-0.031317,0.090824,-0.04347,85.406906,41.825058,-147.930923,,,
729705386.853277,-5.760973,-0.402664,71.987899,0.007553,-0.116608,0.993713,-0.031317,0.090824,-0.04347,85.406906,41.825058,-147.930923,,,
729705386.856545,-5.770669,-0.384142,71.975554,0.007553,-0.116608,0.993713,-0.031317,0.090824,-0.04347,85.406906,41.825058,-147.930923,,,
729705386.859864,-5.778666,-0.360527,71.964517,0.000336,-0.111145,0.997437,-0.022612,0.086797,-0.036624,85.406906,41.825058,-147.930923,,,
729705386.863173,-5.778666,-0.360527,71.964517,0.000336,-0.111145,0.997437,-0.022612,0.086797,-0.036624,85.406906,41.825058,-147.930923,,,
729705386.8666,-5.786914,-0.343295,71.953558,0.000336,-0.111145,0.997437,-0.022612,0.086797,-0.036624,85.406906,41.825058,-147.930923,,,
729705386.869906,-5.792683,-0.323142,71.943119,0.002151,-0.111526,1.001816,-0.016833,0.070441,-0.037021,85.406906,41.825058,-147.930923,,,
729705386.873208,-5.792683,-0.323142,71.943119,0.002151,-0.111526,1.001816,-0.016833,0.070441,-0.037021,85.406906,41.825058,-147.930923,,,
729705386.876567,-5.798021,-0.310612,71.93182,0.002151,-0.111526,1.001816,-0.016833,0.070441,-0.037021,85.406906,41.825058,-147.930923,,,
729705386.879832,-5.802703,-0.295824,71.920528,0.004852,-0.110352,1.002365,-0.021273,0.049154,-0.042802,85.406906,41.825058,-147.930923,,,
729705386.883165,-5.802703,-0.295824,71.920528,0.004852,-0.110352,1.002365,-0.021273,0.049154,-0.042802,85.380493,41.973831,-147.624054,,,
729705386.886499,-5.809418,-0.289009,71.907506,0.004852,-0.110352,1.002365,-0.021273,0.049154,-0.042802,85.380493,41.973831,-147.624054,,,
729705386.88984,-5.818004,-0.280659,71.89337,-0.000443,-0.106323,1.002823,-0.037837,0.030807,-0.055461,85.380493,41.973831,-147.624054,,,
729705386.89323,-5.818004,-0.280659,71.89337,-0.000443,-0.106323,1.002823,-0.037837,0.030807,-0.055461,85.380493,41.973831,-147.624054,,,
729705386.896497,-5.830333,-0.278852,71.87679,-0.000443,-0.106323,1.002823,-0.037837,0.030807,-0.055461,85.380493,41.973831,-147.624054,,,
729705386.899834,-5.84421,-0.275071,71.858384,-0.001312,-0.100922,1.003723,-0.054677,0.01614,-0.071187,85.380493,41.973831,-147.624054,,,
729705386.903215,-5.84421,-0.275071,71.858384,-0.001312,-0.100922,1.003723,-0.054677,0.01614,-0.071187,85.380493,41.973831,-147.624054,,,
729705386.906504,-5.862128,-0.277871,71.837405,-0.001312,-0.100922,1.003723,-0.054677,0.01614,-0.071187,85.380493,41.973831,-147.624054,,,
729705386.9099,-5.88029,-0.278287,71.814297,-0.001633,-0.096558,1.004211,-0.066646,0.006887,-0.086448,85.380493,41.973831,-147.624054,,,
729705386.913167,-5.88029,-0.278287,71.814297,-0.001633,-0.096558,1.004211,-0.066646,0.006887,-0.086448,85.380493,41.973831,-147.624054,,,
729705386.91651,-5.902465,-0.283255,71.789494,-0.001633,-0.096558,1.004211,-0.066646,0.006887,-0.086448,85.380493,41.973831,-147.624054,,,
729705386.919834,-5.922758,-0.288016,71.764381,-0.003876,-0.095673,1.002945,-0.073342,-0.006415,-0.091614,85.380493,41.973831,-147.624054,,,
729705386.923164,-5.922758,-0.288016,71.764381,-0.003876,-0.095673,1.002945,-0.073342,-0.006415,-0.091614,85.50235,42.260803,-147.693695,,,
729705386.926527,-5.946127,-0.294563,71.73874,-0.003876,-0.095673,1.002945,-0.073342,-0.006415,-0.091614,85.50235,42.260803,-147.693695,,,
729705386.929835,-5.964703,-0.29925,71.713488,0.000824,-0.097672,1.005722,-0.057049,0.002075,-0.087364,85.50235,42.260803,-147.693695,,,
729705386.933231,-5.964703,-0.29925,71.713488,0.000824,-0.097672,1.005722,-0.057049,0.002075,-0.087364,85.50235,42.260803,-147.693695,,,
729705386.936546,-5.981717,-0.301653,71.689713,0.000824,-0.097672,1.005722,-0.057049,0.002075,-0.087364,85.50235,42.260803,-147.693695,,,
729705386.93985,-5.992693,-0.303029,71.668788,-0.000443,-0.105957,1.013275,-0.02353,0.009069,-0.066487,85.50235,42.260803,-147.693695,,,
729705386.943187,-5.992693,-0.303029,71.668788,-0.000443,-0.105957,1.013275,-0.02353,0.009069,-0.066487,85.50235,42.260803,-147.693695,,,
729705386.946558,-5.999108,-0.301546,71.651351,-0.000443,-0.105957,1.013275,-0.02353,0.009069,-0.066487,85.50235,42.260803,-147.693695,,,
729705386.949835,-5.997865,-0.297038,71.637305,-0.003571,-0.107086,1.019287,0.021303,0.034259,-0.042263,85.50235,42.260803,-147.693695,,,
729705386.953171,-5.997865,-0.297038,71.637305,-0.003571,-0.107086,1.019287,0.021303,0.034259,-0.042263,85.50235,42.260803,-147.693695,,,
729705386.956504,-5.992496,-0.287751,71.626352,-0.003571,-0.107086,1.019287,0.021303,0.034259,-0.042263,85.50235,42.260803,-147.693695,,,
729705386.959866,-5.982825,-0.276022,71.618536,-0.005493,-0.105301,1.024658,0.039873,0.047952,-0.020266,85.50235,42.260803,-147.693695,,,
729705386.963191,-5.982825,-0.276022,71.618536,-0.005493,-0.105301,1.024658,0.039873,0.047952,-0.020266,85.50235,42.260803,-147.693695,,,
729705386.968155,-5.97269,-0.26372,71.613996,-0.005493,-0.105301,1.024658,0.039873,0.047952,-0.020266,85.516724,42.126846,-147.256699,,,
729705386.969654,-5.962731,-0.252875,71.612015,-0.01384,-0.100708,1.006241,0.029194,0.034327,-0.003854,85.516724,42.126846,-147.256699,,,
729705386.973213,-5.962731,-0.252875,71.612015,-0.01384,-0.100708,1.006241,0.029194,0.034327,-0.003854,85.516724,42.126846,-147.256699,,,
729705386.976513,-5.955066,-0.243415,71.611771,-0.01384,-0.100708,1.006241,0.029194,0.034327,-0.003854,85.516724,42.126846,-147.256699,,,
729705386.979833,-5.952222,-0.237479,71.61169,-0.011566,-0.090317,0.992996,-0.003526,0.01792,-0.004529,85.516724,42.126846,-147.256699,,,
729705386.983279,-5.952222,-0.237479,71.61169,-0.011566,-0.090317,0.992996,-0.003526,0.01792,-0.004529,85.516724,42.126846,-147.256699,,,
729705386.986483,-5.954159,-0.233845,71.61071,-0.011566,-0.090317,0.992996,-0.003526,0.01792,-0.004529,85.516724,42.126846,-147.256699,,,
729705386.989834,-5.963208,-0.234916,71.607937,-0.01683,-0.084488,0.983749,-0.046408,-0.008581,-0.016352,85.516724,42.126846,-147.256699,,,
729705386.993232,-5.963208,-0.234916,71.607937,-0.01683,-0.084488,0.983749,-0.046408,-0.008581,-0.016352,85.516724,42.126846,-147.256699,,,
729705386.996493,-5.976257,-0.238481,71.60347,-0.01683,-0.084488,0.983749,-0.046408,-0.008581,-0.016352,85.516724,42.126846,-147.256699,,,
729705386.999832,-5.996558,-0.247314,71.596887,-0.01683,-0.083786,0.980698,-0.083745,-0.034291,-0.029224,85.516724,42.126846,-147.256699,,,
729705387.00339,-5.996558,-0.247314,71.596887,-0.01683,-0.083786,0.980698,-0.083745,-0.034291,-0.029224,85.516724,42.126846,-147.256699,,,
729705387.006498,-6.019538,-0.258808,71.588287,-0.01683,-0.083786,0.980698,-0.083745,-0.034291,-0.029224,85.556931,42.259628,-147.300934,,,
729705387.009857,-6.046115,-0.274249,71.57731,-0.011124,-0.086578,0.985168,-0.093071,-0.053987,-0.043569,85.556931,42.259628,-147.300934,,,
729705387.013188,-6.046115,-0.274249,71.57731,-0.011124,-0.086578,0.985168,-0.093071,-0.053987,-0.043569,85.556931,42.259628,-147.300934,,,
729705387.016521,-6.071756,-0.291333,71.564692,-0.011124,-0.086578,0.985168,-0.093071,-0.053987,-0.043569,85.556931,42.259628,-147.300934,,,
729705387.01984,-6.09674,-0.310374,71.551782,-0.009262,-0.096649,0.992035,-0.07653,-0.058172,-0.042551,85.556931,42.259628,-147.300934,,,
729705387.023222,-6.09674,-0.310374,71.551782,-0.009262,-0.096649,0.992035,-0.07653,-0.058172,-0.042551,85.556931,42.259628,-147.300934,,,
729705387.026521,-6.117655,-0.327084,71.539847,-0.009262,-0.096649,0.992035,-0.07653,-0.058172,-0.042551,85.556931,42.259628,-147.300934,,,
729705387.029835,-6.132054,-0.342346,71.529472,-0.005127,-0.106537,1.006607,-0.026777,-0.035894,-0.031012,85.556931,42.259628,-147.300934,,,
729705387.033166,-6.132054,-0.342346,71.529472,-0.005127,-0.106537,1.006607,-0.026777,-0.035894,-0.031012,85.556931,42.259628,-147.300934,,,
729705387.036624,-6.137679,-0.352427,71.521907,-0.005127,-0.106537,1.006607,-0.026777,-0.035894,-0.031012,85.556931,42.259628,-147.300934,,,
729705387.039836,-6.136258,-0.360896,71.517368,-0.001282,-0.113144,1.018784,0.025502,-0.021375,-0.00601,85.556931,42.259628,-147.300934,,,
729705387.043182,-6.136258,-0.360896,71.517368,-0.001282,-0.113144,1.018784,0.025502,-0.021375,-0.00601,85.556931,42.259628,-147.300934,,,
729705387.046509,-6.127371,-0.365216,71.51654,-0.001282,-0.113144,1.018784,0.025502,-0.021375,-0.00601,85.726105,42.19574,-147.562195,,,
729705387.049833,-6.114519,-0.37261,71.519016,-0.00325,-0.111252,1.010071,0.050376,-0.026632,0.015738,85.726105,42.19574,-147.562195,,,
729705387.053166,-6.114519,-0.37261,71.519016,-0.00325,-0.111252,1.010071,0.050376,-0.026632,0.015738,85.726105,42.19574,-147.562195,,,
729705387.056498,-6.097848,-0.376501,71.524954,-0.00325,-0.111252,1.010071,0.050376,-0.026632,0.015738,85.726105,42.19574,-147.562195,,,
729705387.059832,-6.08312,-0.382766,71.532621,-0.000671,-0.105942,0.999435,0.048079,-0.01814,0.029394,85.726105,42.19574,-147.562195,,,
729705387.063181,-6.08312,-0.382766,71.532621,-0.000671,-0.105942,0.999435,0.048079,-0.01814,0.029394,85.726105,42.19574,-147.562195,,,
729705387.066512,-6.066369,-0.383659,71.542084,-0.000671,-0.105942,0.999435,0.048079,-0.01814,0.029394,85.726105,42.19574,-147.562195,,,
729705387.06985,-6.055242,-0.386919,71.551407,0.002777,-0.103119,0.996597,0.032068,-0.011927,0.027847,85.726105,42.19574,-147.562195,,,
729705387.073273,-6.055242,-0.386919,71.551407,0.002777,-0.103119,0.996597,0.032068,-0.011927,0.027847,85.726105,42.19574,-147.562195,,,
729705387.076538,-6.044082,-0.386065,71.560729,0.002777,-0.103119,0.996597,0.032068,-0.011927,0.027847,85.726105,42.19574,-147.562195,,,
729705387.07983,-6.039983,-0.390409,71.568248,0.007126,-0.102097,0.988419,0.005065,-0.016782,0.017869,85.726105,42.19574,-147.562195,,,
729705387.083181,-6.039983,-0.390409,71.568248,0.007126,-0.102097,0.988419,0.005065,-0.016782,0.017869,85.726105,42.19574,-147.562195,,,
729705387.086505,-6.035603,-0.391443,71.573455,0.007126,-0.102097,0.988419,0.005065,-0.016782,0.017869,85.413437,42.130112,-147.490173,,,
729705387.089834,-6.036453,-0.395483,71.575455,0.011154,-0.098145,0.987991,-0.004355,-0.004513,0.000492,85.413437,42.130112,-147.490173,,,
729705387.093184,-6.036453,-0.395483,71.575455,0.011154,-0.098145,0.987991,-0.004355,-0.004513,0.000492,85.413437,42.130112,-147.490173,,,
729705387.096505,-6.035064,-0.394203,71.575698,0.011154,-0.098145,0.987991,-0.004355,-0.004513,0.000492,85.413437,42.130112,-147.490173,,,
729705387.099831,-6.035244,-0.393251,71.574021,0.011414,-0.097855,1.00209,0.002843,0.009804,-0.00862,85.413437,42.130112,-147.490173,,,
729705387.103254,-6.035244,-0.393251,71.574021,0.011414,-0.097855,1.00209,0.002843,0.009804,-0.00862,85.413437,42.130112,-147.490173,,,
729705387.106512,-6.033832,-0.389006,71.572279,0.011414,-0.097855,1.00209,0.002843,0.009804,-0.00862,85.413437,42.130112,-147.490173,,,
729705387.109882,-6.032071,-0.38814,71.571206,0.008591,-0.103134,0.99617,0.008632,0.002909,-0.001846,85.413437,42.130112,-147.490173,,,
729705387.113165,-6.032071,-0.38814,71.571206,0.008591,-0.103134,0.99617,0.008632,0.002909,-0.001846,85.413437,42.130112,-147.490173,,,
729705387.116498,-6.029578,-0.387033,71.571662,0.008591,-0.103134,0.99617,0.008632,0.002909,-0.001846,85.413437,42.130112,-147.490173,,,
729705387.11983,-6.024475,-0.388512,71.57343,0.0103,-0.103973,0.98996,0.022929,-0.000192,0.010698,85.413437,42.130112,-147.490173,,,
729705387.123181,-6.024475,-0.388512,71.57343,0.0103,-0.103973,0.98996,0.022929,-0.000192,0.010698,85.413437,42.130112,-147.490173,,,
729705387.126598,-6.018191,-0.387954,71.577191,0.0103,-0.103973,0.98996,0.022929,-0.000192,0.010698,85.413437,42.130112,-147.490173,,,
729705387.129828,-6.00767,-0.387301,71.582657,0.013718,-0.106369,0.991943,0.047727,0.008175,0.020243,85.447632,42.307693,-147.669998,,,
729705387.133182,-6.00767,-0.387301,71.582657,0.013718,-0.106369,0.991943,0.047727,0.008175,0.020243,85.447632,42.307693,-147.669998,,,
729705387.136627,-5.994201,-0.383295,71.58939,0.013718,-0.106369,0.991943,0.047727,0.008175,0.020243,85.447632,42.307693,-147.669998,,,
729705387.139891,-5.976944,-0.380331,71.596373,0.021423,-0.111145,0.995392,0.067901,0.012663,0.021344,85.447632,42.307693,-147.669998,,,
729705387.143174,-5.976944,-0.380331,71.596373,0.021423,-0.111145,0.995392,0.067901,0.012663,0.021344,85.447632,42.307693,-147.669998,,,
729705387.146498,-5.956793,-0.376427,71.603386,0.021423,-0.111145,0.995392,0.067901,0.012663,0.021344,85.447632,42.307693,-147.669998,,,
729705387.149878,-5.935546,-0.373047,71.609661,0.023056,-0.108734,0.986633,0.077258,0.013778,0.014949,85.447632,42.307693,-147.669998,,,
729705387.15316,-5.935546,-0.373047,71.609661,0.023056,-0.108734,0.986633,0.077258,0.013778,0.014949,85.447632,42.307693,-147.669998,,,
729705387.156497,-5.914482,-0.368746,71.614305,0.023056,-0.108734,0.986633,0.077258,0.013778,0.014949,85.447632,42.307693,-147.669998,,,
729705387.159832,-5.894521,-0.364726,71.617071,0.019272,-0.105835,0.991013,0.068444,0.015607,0.002956,85.447632,42.307693,-147.669998,,,
729705387.16322,-5.894521,-0.364726,71.617071,0.019272,-0.105835,0.991013,0.068444,0.015607,0.002956,85.447632,42.307693,-147.669998,,,
729705387.166508,-5.875902,-0.362037,71.618094,0.019272,-0.105835,0.991013,0.068444,0.015607,0.002956,85.447632,42.307693,-147.669998,,,
729705387.169976,-5.859409,-0.360412,71.61725,0.017395,-0.103119,0.984024,0.049848,0.005648,-0.01077,85.350555,42.103882,-147.555161,,,
729705387.1732,-5.859409,-0.360412,71.61725,0.017395,-0.103119,0.984024,0.049848,0.005648,-0.01077,85.350555,42.103882,-147.555161,,,
729705387.176515,-5.84461,-0.361137,71.614316,0.017395,-0.103119,0.984024,0.049848,0.005648,-0.01077,85.350555,42.103882,-147.555161,,,
729705387.17983,-5.834054,-0.361897,71.609633,0.017395,-0.103119,0.984024,0.049848,0.005648,-0.01077,85.350555,42.103882,-147.555161,,,
729705387.183178,-5.834054,-0.361897,71.609633,0.017242,-0.102692,0.982452,0.028865,0.000921,-0.023698,85.350555,42.103882,-147.555161,,,
729705387.186502,-5.826059,-0.364435,71.603418,0.017242,-0.102692,0.982452,0.028865,0.000921,-0.023698,85.350555,42.103882,-147.555161,,,
729705387.189974,-5.820788,-0.367051,71.595783,0.016281,-0.097778,0.978485,0.012185,-0.00182,-0.030511,85.350555,42.103882,-147.555161,,,
729705387.19321,-5.820788,-0.367051,71.595783,0.016281,-0.097778,0.978485,0.012185,-0.00182,-0.030511,85.350555,42.103882,-147.555161,,,
729705387.196504,-5.818048,-0.369425,71.587189,0.016281,-0.097778,0.978485,0.012185,-0.00182,-0.030511,85.350555,42.103882,-147.555161,,,
729705387.199843,-5.81626,-0.369684,71.578534,0.019119,-0.098267,0.977295,0.001304,0.00919,-0.031026,85.350555,42.103882,-147.555161,,,
729705387.203322,-5.81626,-0.369684,71.578534,0.019119,-0.098267,0.977295,0.001304,0.00919,-0.031026,85.350555,42.103882,-147.555161,,,
729705387.206499,-5.817127,-0.369352,71.570009,0.019119,-0.098267,0.977295,0.001304,0.00919,-0.031026,85.350555,42.103882,-147.555161,,,
729705387.209985,-5.818368,-0.366166,71.562626,0.014572,-0.100647,0.978806,-0.004503,0.022061,-0.024449,85.330505,42.104843,-147.49205,,,
729705387.21318,-5.818368,-0.366166,71.562626,0.014572,-0.100647,0.978806,-0.004503,0.022061,-0.024449,85.330505,42.104843,-147.49205,,,
729705387.216507,-5.821571,-0.363253,71.556444,0.014572,-0.100647,0.978806,-0.004503,0.022061,-0.024449,85.330505,42.104843,-147.49205,,,
729705387.219937,-5.823479,-0.357756,71.552065,0.009155,-0.104248,0.976074,-0.002951,0.022961,-0.012498,85.330505,42.104843,-147.49205,,,
729705387.223159,-5.823479,-0.357756,71.552065,0.009155,-0.104248,0.976074,-0.002951,0.022961,-0.012498,85.330505,42.104843,-147.49205,,,
729705387.226544,-5.826085,-0.355471,71.549353,0.009155,-0.104248,0.976074,-0.002951,0.022961,-0.012498,85.330505,42.104843,-147.49205,,,
729705387.229846,-5.826085,-0.355471,71.548098,0.009155,-0.104248,0.976074,-0.002951,0.022961,-0.012498,85.330505,42.104843,-147.49205,,,
729705387.233188,-5.826573,-0.350723,71.548098,0.008606,-0.106094,0.975006,-0.003703,0.018464,-0.0045,85.330505,42.104843,-147.49205,,,
729705387.236583,-5.828985,-0.349722,71.547179,0.008606,-0.106094,0.975006,-0.003703,0.018464,-0.0045,85.330505,42.104843,-147.49205,,,
729705387.239902,-5.828985,-0.347617,71.546921,0.008606,-0.106094,0.975006,-0.003703,0.018464,-0.0045,85.330505,42.104843,-147.49205,,,
729705387.243173,-5.831831,-0.347617,71.546921,0.005402,-0.103363,0.972824,-0.011486,0.006039,-0.003688,85.330505,42.104843,-147.49205,,,
729705387.246496,-5.837195,-0.349223,71.546068,0.005402,-0.103363,0.972824,-0.011486,0.006039,-0.003688,85.330505,42.104843,-147.49205,,,
729705387.249835,-5.837195,-0.349223,71.546068,0.005402,-0.103363,0.972824,-0.011486,0.006039,-0.003688,85.345901,41.964035,-147.213745,,,
729705387.253163,-5.844045,-0.350113,71.54527,0.001755,-0.101624,0.979019,-0.026531,-0.001365,-0.001834,85.345901,41.964035,-147.213745,,,
729705387.256494,-5.853521,-0.353531,71.544507,0.001755,-0.101624,0.979019,-0.026531,-0.001365,-0.001834,85.345901,41.964035,-147.213745,,,
729705387.259872,-5.853521,-0.353531,71.544507,0.001755,-0.101624,0.979019,-0.026531,-0.001365,-0.001834,85.345901,41.964035,-147.213745,,,
729705387.263176,-5.865466,-0.356197,71.543593,0.001495,-0.101746,0.981934,-0.049771,-0.007571,-0.008246,85.345901,41.964035,-147.213745,,,
729705387.266496,-5.88037,-0.361666,71.541464,0.001495,-0.101746,0.981934,-0.049771,-0.007571,-0.008246,85.345901,41.964035,-147.213745,,,
729705387.269957,-5.897743,-0.366605,71.538397,0.005112,-0.103287,0.982651,-0.062216,-0.015989,-0.012029,85.345901,41.964035,-147.213745,,,
729705387.273195,-5.897743,-0.366605,71.538397,0.005112,-0.103287,0.982651,-0.062216,-0.015989,-0.012029,85.345901,41.964035,-147.213745,,,
729705387.276505,-5.915523,-0.374414,71.534652,0.005112,-0.103287,0.982651,-0.062216,-0.015989,-0.012029,85.345901,41.964035,-147.213745,,,
729705387.279842,-5.915523,-0.374414,71.534652,0.005112,-0.103287,0.982651,-0.062216,-0.015989,-0.012029,85.345901,41.964035,-147.213745,,,
729705387.2832,-5.934343,-0.381652,71.531272,0.001938,-0.111679,0.989075,-0.066918,-0.022789,-0.013811,85.345901,41.964035,-147.213745,,,
729705387.286494,-5.953636,-0.391335,71.527968,0.001938,-0.111679,0.989075,-0.066918,-0.022789,-0.013811,85.345901,41.964035,-147.213745,,,
729705387.289927,-5.953636,-0.391335,71.527968,0.001938,-0.111679,0.989075,-0.066918,-0.022789,-0.013811,85.345901,41.964035,-147.213745,,,
729705387.293165,-5.972591,-0.399434,71.525071,0.002686,-0.112091,0.99118,-0.0595,-0.024072,-0.011378,85.304108,42.07338,-147.27095,,,
729705387.296496,-5.989991,-0.408182,71.522344,0.002686,-0.112091,0.99118,-0.0595,-0.024072,-0.011378,85.304108,42.07338,-147.27095,,,
729705387.300007,-5.989991,-0.408182,71.52015,0.002686,-0.112091,0.99118,-0.0595,-0.024072,-0.011378,85.304108,42.07338,-147.27095,,,
729705387.303171,-6.005236,-0.415065,71.52015,0.00766,-0.108963,1.000183,-0.046466,-0.015198,-0.005693,85.304108,42.07338,-147.27095,,,
729705387.306523,-6.018129,-0.420022,71.519295,0.00766,-0.108963,1.000183,-0.046466,-0.015198,-0.005693,85.304108,42.07338,-147.27095,,,
729705387.309892,-6.018129,-0.420022,71.519295,0.00766,-0.108963,1.000183,-0.046466,-0.015198,-0.005693,85.304108,42.07338,-147.27095,,,
729705387.313195,-6.027523,-0.422527,71.519632,0.006409,-0.112198,1.004929,-0.026452,-0.000414,0.002675,85.304108,42.07338,-147.27095,,,
729705387.316497,-6.034964,-0.423253,71.520892,0.006409,-0.112198,1.004929,-0.026452,-0.000414,0.002675,85.304108,42.07338,-147.27095,,,
729705387.319942,-6.034964,-0.423253,71.520892,0.006409,-0.112198,1.004929,-0.026452,-0.000414,0.002675,85.304108,42.07338,-147.27095,,,
729705387.323167,-6.041077,-0.423021,71.522773,0.00827,-0.112366,1.000244,-0.023178,0.006301,0.005319,85.304108,42.07338,-147.27095,,,
729705387.326496,-6.048367,-0.421242,71.524474,0.00827,-0.112366,1.000244,-0.023178,0.006301,0.005319,85.304108,42.07338,-147.27095,,,
729705387.329969,-6.048367,-0.421242,71.524474,0.00827,-0.112366,1.000244,-0.023178,0.006301,0.005319,85.304108,42.07338,-147.27095,,,
729705387.333181,-6.058522,-0.419372,71.525699,0.009689,-0.110855,0.988892,-0.039913,0.009045,0.000393,85.267548,42.251129,-147.646774,,,
729705387.336668,-6.070915,-0.415467,71.52689,0.009689,-0.110855,0.988892,-0.039913,0.009045,0.000393,85.267548,42.251129,-147.646774,,,
729705387.339887,-6.070915,-0.415467,71.52689,0.009689,-0.110855,0.988892,-0.039913,0.009045,0.000393,85.267548,42.251129,-147.646774,,,
729705387.343176,-6.085942,-0.41176,71.527877,0.009415,-0.109833,0.981842,-0.059414,0.015976,0.000627,85.267548,42.251129,-147.646774,,,
729705387.346502,-6.102939,-0.406832,71.527968,0.009415,-0.109833,0.981842,-0.059414,0.015976,0.000627,85.267548,42.251129,-147.646774,,,
729705387.349869,-6.102939,-0.406832,71.527968,0.009415,-0.109833,0.981842,-0.059414,0.015976,0.000627,85.267548,42.251129,-147.646774,,,
729705387.353155,-6.122442,-0.401862,71.52678,0.008408,-0.110764,0.982635,-0.068364,0.021205,-0.006513,85.267548,42.251129,-147.646774,,,
729705387.356498,-6.142092,-0.395835,71.524749,0.008408,-0.110764,0.982635,-0.068364,0.021205,-0.006513,85.267548,42.251129,-147.646774,,,
729705387.359868,-6.142092,-0.395835,71.524749,0.008408,-0.110764,0.982635,-0.068364,0.021205,-0.006513,85.267548,42.251129,-147.646774,,,
729705387.363153,-6.159978,-0.38995,71.521532,0.007385,-0.114014,0.987473,-0.056355,0.023865,-0.014384,85.267548,42.251129,-147.646774,,,
729705387.366491,-6.175965,-0.382361,71.517951,0.007385,-0.114014,0.987473,-0.056355,0.023865,-0.014384,85.267548,42.251129,-147.646774,,,
729705387.369912,-6.175965,-0.382361,71.517951,0.007385,-0.114014,0.987473,-0.056355,0.023865,-0.014384,85.267548,42.251129,-147.646774,,,
729705387.373195,-6.186186,-0.374393,71.513653,0.007751,-0.115326,0.998764,-0.021009,0.03833,-0.018138,85.329727,42.405197,-147.262833,,,
729705387.376536,-6.192172,-0.364784,71.508928,0.007751,-0.115326,0.998764,-0.021009,0.03833,-0.018138,85.329727,42.405197,-147.262833,,,
729705387.379848,-6.192172,-0.364784,71.508928,0.007751,-0.115326,0.998764,-0.021009,0.03833,-0.018138,85.329727,42.405197,-147.262833,,,
729705387.383262,-6.194081,-0.354975,71.504978,0.005264,-0.113678,1.002228,-0.000596,0.034088,-0.012288,85.329727,42.405197,-147.262833,,,
729705387.386486,-6.194023,-0.347339,71.502409,0.005264,-0.113678,1.002228,-0.000596,0.034088,-0.012288,85.329727,42.405197,-147.262833,,,
729705387.389853,-6.194023,-0.347339,71.502409,0.005264,-0.113678,1.002228,-0.000596,0.034088,-0.012288,85.329727,42.405197,-147.262833,,,
729705387.393156,-6.193078,-0.342476,71.501327,-0.001404,-0.108551,0.990082,0.005882,0.011498,-0.000778,85.329727,42.405197,-147.262833,,,
729705387.396497,-6.193285,-0.341085,71.501555,-0.001404,-0.108551,0.990082,0.005882,0.011498,-0.000778,85.329727,42.405197,-147.262833,,,
729705387.399837,-6.193285,-0.341085,71.501555,-0.001404,-0.108551,0.990082,0.005882,0.011498,-0.000778,85.329727,42.405197,-147.262833,,,
729705387.403298,-6.194613,-0.343145,71.503106,0.004517,-0.102524,0.98111,-0.010954,-0.010609,0.003111,85.329727,42.405197,-147.262833,,,
729705387.406498,-6.199169,-0.348618,71.505115,0.004517,-0.102524,0.98111,-0.010954,-0.010609,0.003111,85.329727,42.405197,-147.262833,,,
729705387.409856,-6.199169,-0.348618,71.505115,0.004517,-0.102524,0.98111,-0.010954,-0.010609,0.003111,85.329727,42.405197,-147.262833,,,
729705387.413169,-6.205962,-0.353768,71.506962,0.005096,-0.099106,0.978851,-0.033674,-0.009543,0.00259,85.295807,42.486725,-147.163086,,,
729705387.416493,-6.21678,-0.358006,71.507545,0.005096,-0.099106,0.978851,-0.033674,-0.009543,0.00259,85.295807,42.486725,-147.163086,,,
729705387.419832,-6.21678,-0.358006,71.507545,0.005096,-0.099106,0.978851,-0.033674,-0.009543,0.00259,85.295807,42.486725,-147.163086,,,
729705387.423163,-6.23072,-0.359347,71.506457,0.008942,-0.097183,0.985947,-0.059424,0.007011,-0.010666,85.295807,42.486725,-147.163086,,,
729705387.426502,-6.248665,-0.35851,71.503281,0.008942,-0.097183,0.985947,-0.059424,0.007011,-0.010666,85.295807,42.486725,-147.163086,,,
729705387.429826,-6.248665,-0.35851,71.503281,0.008942,-0.097183,0.985947,-0.059424,0.007011,-0.010666,85.295807,42.486725,-147.163086,,,
729705387.433219,-6.269266,-0.354748,71.498505,0.0112,-0.097687,0.988663,-0.076528,0.022993,-0.016069,85.295807,42.486725,-147.163086,,,
729705387.436668,-6.292782,-0.349553,71.493959,0.0112,-0.097687,0.988663,-0.076528,0.022993,-0.016069,85.295807,42.486725,-147.163086,,,
729705387.439858,-6.292782,-0.349553,71.493959,0.0112,-0.097687,0.988663,-0.076528,0.022993,-0.016069,85.295807,42.486725,-147.163086,,,
729705387.443166,-6.317001,-0.343192,71.490676,0.001495,-0.103836,0.992569,-0.08643,0.027819,-0.009872,85.295807,42.486725,-147.163086,,,
729705387.446496,-6.343143,-0.336664,71.488978,0.001495,-0.103836,0.992569,-0.08643,0.027819,-0.009872,85.295807,42.486725,-147.163086,,,
729705387.449846,-6.343143,-0.336664,71.488978,0.001495,-0.103836,0.992569,-0.08643,0.027819,-0.009872,85.295807,42.486725,-147.163086,,,
729705387.453161,-6.368464,-0.331135,71.489167,-0.004196,-0.110092,0.99231,-0.083849,0.014135,0.005089,85.295807,42.486725,-147.163086,,,
729705387.456499,-6.393622,-0.329185,71.491286,-0.004196,-0.110092,0.99231,-0.083849,0.014135,0.005089,85.343872,42.536301,-147.271164,,,
729705387.459881,-6.393622,-0.329185,71.491286,-0.004196,-0.110092,0.99231,-0.083849,0.014135,0.005089,85.343872,42.536301,-147.271164,,,
729705387.463164,-6.416821,-0.33036,71.495577,-0.003891,-0.11525,0.990662,-0.073148,-0.011585,0.019752,85.343872,42.536301,-147.271164,,,
729705387.466501,-6.437439,-0.33356,71.501487,-0.003891,-0.11525,0.990662,-0.073148,-0.011585,0.019752,85.343872,42.536301,-147.271164,,,
729705387.469955,-6.437439,-0.33356,71.501487,-0.003891,-0.11525,0.990662,-0.073148,-0.011585,0.019752,85.343872,42.536301,-147.271164,,,
729705387.473184,-6.456162,-0.338369,71.508302,-0.000961,-0.11911,0.994354,-0.058542,-0.014055,0.024463,85.343872,42.536301,-147.271164,,,
729705387.476518,-6.471489,-0.341364,71.515593,-0.000961,-0.11911,0.994354,-0.058542,-0.014055,0.024463,85.343872,42.536301,-147.271164,,,
729705387.479854,-6.471489,-0.341364,71.515593,-0.000961,-0.11911,0.994354,-0.058542,-0.014055,0.024463,85.343872,42.536301,-147.271164,,,
729705387.483261,-6.485915,-0.344834,71.522622,0.006271,-0.116684,1.005356,-0.044394,-0.014467,0.020866,85.343872,42.536301,-147.271164,,,
729705387.486496,-6.496833,-0.348877,71.528666,0.006271,-0.116684,1.005356,-0.044394,-0.014467,0.020866,85.343872,42.536301,-147.271164,,,
729705387.489851,-6.496833,-0.348877,71.528666,0.006271,-0.116684,1.005356,-0.044394,-0.014467,0.020866,85.343872,42.536301,-147.271164,,,
729705387.493186,-6.50753,-0.352698,71.533493,0.015671,-0.109436,1.004135,-0.032402,-0.0098,0.014451,85.343872,42.536301,-147.271164,,,
729705387.496505,-6.514356,-0.356033,71.537294,0.015671,-0.109436,1.004135,-0.032402,-0.0098,0.014451,85.183167,42.856537,-147.389572,,,
729705387.499846,-6.514356,-0.356033,71.537294,0.015671,-0.109436,1.004135,-0.032402,-0.0098,0.014451,85.183167,42.856537,-147.389572,,,
729705387.503284,-6.522642,-0.360442,71.5399,0.021576,-0.104843,1.00798,-0.029159,-0.0157,0.004462,85.183167,42.856537,-147.389572,,,
729705387.506493,-6.527508,-0.367165,71.541334,0.021576,-0.104843,1.00798,-0.029159,-0.0157,0.004462,85.183167,42.856537,-147.389572,,,
729705387.50985,-6.527508,-0.367165,71.541334,0.021576,-0.104843,1.00798,-0.029159,-0.0157,0.004462,85.183167,42.856537,-147.389572,,,
729705387.513169,-6.535403,-0.372923,71.541695,0.023331,-0.102051,1.002274,-0.027356,-0.015549,-0.001925,85.183167,42.856537,-147.389572,,,
729705387.516498,-6.540551,-0.377806,71.541309,0.023331,-0.102051,1.002274,-0.027356,-0.015549,-0.001925,85.183167,42.856537,-147.389572,,,
729705387.519831,-6.540551,-0.377806,71.541309,0.023331,-0.102051,1.002274,-0.027356,-0.015549,-0.001925,85.183167,42.856537,-147.389572,,,
729705387.523266,-6.54769,-0.381655,71.540717,0.024704,-0.106506,1.005356,-0.023298,-0.007429,-0.006656,85.183167,42.856537,-147.389572,,,
729705387.526486,-6.553612,-0.383805,71.539824,0.024704,-0.106506,1.005356,-0.023298,-0.007429,-0.006656,85.183167,42.856537,-147.389572,,,
729705387.529846,-6.553612,-0.383805,71.539824,0.024704,-0.106506,1.005356,-0.023298,-0.007429,-0.006656,85.183167,42.856537,-147.389572,,,
729705387.533181,-6.560637,-0.387796,71.538484,0.024246,-0.108795,0.997742,-0.026293,-0.009113,-0.006054,85.183167,42.856537,-147.389572,,,
729705387.536545,-6.56821,-0.389732,71.537384,0.024246,-0.108795,0.997742,-0.026293,-0.009113,-0.006054,84.988327,42.781845,-147.396378,,,
729705387.539887,-6.56821,-0.389732,71.537384,0.024246,-0.108795,0.997742,-0.026293,-0.009113,-0.006054,84.988327,42.781845,-147.396378,,,
729705387.543174,-6.576424,-0.392229,71.536466,0.019516,-0.109436,0.992874,-0.02798,9.6e-05,-0.005718,84.988327,42.781845,-147.396378,,,
729705387.546508,-6.585454,-0.392263,71.536111,0.019516,-0.109436,0.992874,-0.02798,9.6e-05,-0.005718,84.988327,42.781845,-147.396378,,,
729705387.549926,-6.585454,-0.392263,71.536111,0.019516,-0.109436,0.992874,-0.02798,9.6e-05,-0.005718,84.988327,42.781845,-147.396378,,,
729705387.553153,-6.593847,-0.394235,71.535022,0.016327,-0.110672,0.990204,-0.02726,-0.005453,-0.006448,84.988327,42.781845,-147.396378,,,
729705387.556494,-6.60244,-0.395792,71.533563,0.016327,-0.110672,0.990204,-0.02726,-0.005453,-0.006448,84.988327,42.781845,-147.396378,,,
729705387.559871,-6.60244,-0.395792,71.533563,0.016327,-0.110672,0.990204,-0.02726,-0.005453,-0.006448,84.988327,42.781845,-147.396378,,,
729705387.563248,-6.611696,-0.398136,71.531434,0.013092,-0.109772,0.983887,-0.034473,-0.007356,-0.011893,84.988327,42.781845,-147.396378,,,
729705387.566493,-6.622126,-0.401623,71.528472,0.013092,-0.109772,0.983887,-0.034473,-0.007356,-0.011893,84.988327,42.781845,-147.396378,,,
729705387.569946,-6.622126,-0.401623,71.528472,0.013092,-0.109772,0.983887,-0.034473,-0.007356,-0.011893,84.988327,42.781845,-147.396378,,,
729705387.573131,-6.634498,-0.404951,71.52547,0.004044,-0.110901,0.976212,-0.046609,-0.007201,-0.012244,84.988327,42.781845,-147.396378,,,
729705387.57653,-6.646338,-0.41068,71.522302,0.004044,-0.110901,0.976212,-0.046609,-0.007201,-0.012244,85.064941,42.972198,-147.336212,,,
729705387.579856,-6.646338,-0.41068,71.522302,0.004044,-0.110901,0.976212,-0.046609,-0.007201,-0.012244,85.064941,42.972198,-147.336212,,,
729705387.583175,-6.661899,-0.414029,71.5189,0.003952,-0.112656,0.976868,-0.058909,-0.004068,-0.010472,85.064941,42.972198,-147.336212,,,
729705387.58651,-6.677285,-0.419476,71.515514,0.003952,-0.112656,0.976868,-0.058909,-0.004068,-0.010472,85.064941,42.972198,-147.336212,,,
729705387.589925,-6.677285,-0.419476,71.515514,0.003952,-0.112656,0.976868,-0.058909,-0.004068,-0.010472,85.064941,42.972198,-147.336212,,,
729705387.593174,-6.696239,-0.423181,71.514396,0.001205,-0.11853,0.979126,-0.06774,-0.016251,-0.000656,85.064941,42.972198,-147.336212,,,
729705387.596497,-6.713966,-0.432654,71.514576,0.001205,-0.11853,0.979126,-0.06774,-0.016251,-0.000656,85.064941,42.972198,-147.336212,,,
729705387.599828,-6.713966,-0.432654,71.514576,0.001205,-0.11853,0.979126,-0.06774,-0.016251,-0.000656,85.064941,42.972198,-147.336212,,,
729705387.603284,-6.734909,-0.443105,71.515242,-0.002777,-0.119614,0.975327,-0.07569,-0.03649,0.000709,85.064941,42.972198,-147.336212,,,
729705387.606497,-6.754383,-0.457758,71.515088,-0.002777,-0.119614,0.975327,-0.07569,-0.03649,0.000709,85.064941,42.972198,-147.336212,,,
729705387.609845,-6.754383,-0.457758,71.515088,-0.002777,-0.119614,0.975327,-0.07569,-0.03649,0.000709,85.064941,42.972198,-147.336212,,,
729705387.61317,-6.776028,-0.468735,71.515354,0.002045,-0.118225,0.982315,-0.075205,-0.030973,0.003092,85.064941,42.972198,-147.336212,,,
729705387.616508,-6.795944,-0.480323,71.516107,0.002045,-0.118225,0.982315,-0.075205,-0.030973,0.003092,85.064941,42.972198,-147.336212,,,
729705387.619833,-6.795944,-0.480323,71.516107,0.002045,-0.118225,0.982315,-0.075205,-0.030973,0.003092,85.328522,42.976227,-146.953262,,,
729705387.623177,-6.816732,-0.487794,71.518182,-0.00148,-0.125519,0.989838,-0.069672,-0.021677,0.009292,85.328522,42.976227,-146.953262,,,
729705387.626498,-6.834952,-0.495604,71.522056,-0.00148,-0.125519,0.989838,-0.069672,-0.021677,0.009292,85.328522,42.976227,-146.953262,,,
729705387.629881,-6.834952,-0.495604,71.522056,-0.00148,-0.125519,0.989838,-0.069672,-0.021677,0.009292,85.328522,42.976227,-146.953262,,,
729705387.633183,-6.853276,-0.499896,71.527777,-0.003601,-0.131424,0.994141,-0.05903,-0.005548,0.021066,85.328522,42.976227,-146.953262,,,
729705387.636671,-6.868423,-0.502309,71.534797,-0.003601,-0.131424,0.994141,-0.05903,-0.005548,0.021066,85.328522,42.976227,-146.953262,,,
729705387.639869,-6.868423,-0.502309,71.534797,-0.003601,-0.131424,0.994141,-0.05903,-0.005548,0.021066,85.328522,42.976227,-146.953262,,,
729705387.643178,-6.883857,-0.501464,71.544182,-0.001999,-0.12883,1.00592,-0.049401,-0.000741,0.036684,85.328522,42.976227,-146.953262,,,
729705387.646493,-6.897014,-0.500911,71.555831,-0.001999,-0.12883,1.00592,-0.049401,-0.000741,0.036684,85.328522,42.976227,-146.953262,,,
729705387.64984,-6.897014,-0.500911,71.555831,-0.001999,-0.12883,1.00592,-0.049401,-0.000741,0.036684,85.328522,42.976227,-146.953262,,,
729705387.653161,-6.909803,-0.500155,71.569608,-0.004822,-0.12886,1.000687,-0.037597,0.001993,0.048907,85.328522,42.976227,-146.953262,,,
729705387.656492,-6.91961,-0.496694,71.584393,-0.004822,-0.12886,1.000687,-0.037597,0.001993,0.048907,85.328522,42.976227,-146.953262,,,
729705387.659829,-6.91961,-0.496694,71.584393,-0.004822,-0.12886,1.000687,-0.037597,0.001993,0.048907,85.531189,42.932236,-147.523758,,,
729705387.663172,-6.928953,-0.491715,71.599773,0.003235,-0.124283,1.010254,-0.030964,0.016574,0.053363,85.531189,42.932236,-147.523758,,,
729705387.666494,-6.937443,-0.485146,71.615656,0.003235,-0.124283,1.010254,-0.030964,0.016574,0.053363,85.531189,42.932236,-147.523758,,,
729705387.669973,-6.937443,-0.485146,71.615656,0.003235,-0.124283,1.010254,-0.030964,0.016574,0.053363,85.531189,42.932236,-147.523758,,,
729705387.673155,-6.947157,-0.481223,71.630898,0.006287,-0.115921,1.001526,-0.036548,0.005275,0.050574,85.531189,42.932236,-147.523758,,,
729705387.676515,-6.958748,-0.478283,71.645644,0.006287,-0.115921,1.001526,-0.036548,0.005275,0.050574,85.531189,42.932236,-147.523758,,,
729705387.679853,-6.958748,-0.478283,71.645644,0.006287,-0.115921,1.001526,-0.036548,0.005275,0.050574,85.531189,42.932236,-147.523758,,,
729705387.683161,-6.972938,-0.479595,71.658936,0.006516,-0.114044,0.988083,-0.054053,-0.013815,0.041303,85.531189,42.932236,-147.523758,,,
729705387.686499,-6.989661,-0.482042,71.671248,0.006516,-0.114044,0.988083,-0.054053,-0.013815,0.041303,85.531189,42.932236,-147.523758,,,
729705387.689852,-6.989661,-0.482042,71.671248,0.006516,-0.114044,0.988083,-0.054053,-0.013815,0.041303,85.531189,42.932236,-147.523758,,,
729705387.693167,-7.009108,-0.488072,71.682448,0.009354,-0.113449,0.98497,-0.071146,-0.025572,0.033491,85.531189,42.932236,-147.523758,,,
729705387.696495,-7.030333,-0.494481,71.691964,0.009354,-0.113449,0.98497,-0.071146,-0.025572,0.033491,85.531189,42.932236,-147.523758,,,
729705387.699826,-7.030333,-0.494481,71.691964,0.009354,-0.113449,0.98497,-0.071146,-0.025572,0.033491,85.247757,43.122879,-147.069504,,,
729705387.703279,-7.053287,-0.503515,71.699568,0.013443,-0.112335,0.98114,-0.079671,-0.034255,0.023846,85.247757,43.122879,-147.069504,,,
729705387.706489,-7.078469,-0.512162,71.706214,0.013443,-0.112335,0.98114,-0.079671,-0.034255,0.023846,85.247757,43.122879,-147.069504,,,
729705387.709848,-7.078469,-0.512162,71.706214,0.013443,-0.112335,0.98114,-0.079671,-0.034255,0.023846,85.247757,43.122879,-147.069504,,,
729705387.713185,-7.102939,-0.524349,71.711335,0.014084,-0.116806,0.978561,-0.088108,-0.042032,0.014912,85.247757,43.122879,-147.069504,,,
729705387.71653,-7.129473,-0.534064,71.715553,0.014084,-0.116806,0.978561,-0.088108,-0.042032,0.014912,85.247757,43.122879,-147.069504,,,
729705387.719829,-7.129473,-0.534064,71.715553,0.014084,-0.116806,0.978561,-0.088108,-0.042032,0.014912,85.247757,43.122879,-147.069504,,,
729705387.723209,-7.155661,-0.543372,71.719506,0.017883,-0.119339,0.981552,-0.090397,-0.022277,0.016885,85.247757,43.122879,-147.069504,,,
729705387.726494,-7.181871,-0.547006,71.725233,0.017883,-0.119339,0.981552,-0.090397,-0.022277,0.016885,85.247757,43.122879,-147.069504,,,
729705387.729835,-7.181871,-0.547006,71.725233,0.017883,-0.119339,0.981552,-0.090397,-0.022277,0.016885,85.247757,43.122879,-147.069504,,,
729705387.733271,-7.206463,-0.54855,71.732683,0.014313,-0.12854,0.989639,-0.079036,0.006849,0.028159,85.247757,43.122879,-147.069504,,,
729705387.736497,-7.228246,-0.544309,71.742269,0.014313,-0.12854,0.989639,-0.079036,0.006849,0.028159,85.247757,43.122879,-147.069504,,,
729705387.739883,-7.228246,-0.544309,71.742269,0.014313,-0.12854,0.989639,-0.079036,0.006849,0.028159,85.247757,43.122879,-147.069504,,,
729705387.74317,-7.246106,-0.53955,71.753079,0.020721,-0.13298,0.99559,-0.052692,0.019903,0.040736,85.263779,42.941498,-147.174271,,,
729705387.746494,-7.259224,-0.532144,71.765247,0.020721,-0.13298,0.99559,-0.052692,0.019903,0.040736,85.263779,42.941498,-147.174271,,,
729705387.749846,-7.259224,-0.532144,71.765247,0.020721,-0.13298,0.99559,-0.052692,0.019903,0.040736,85.263779,42.941498,-147.174271,,,
729705387.75316,-7.270458,-0.522523,71.778212,0.026566,-0.130829,0.990387,-0.02819,0.041671,0.042892,85.263779,42.941498,-147.174271,,,
729705387.756492,-7.27683,-0.508962,71.790632,0.026566,-0.130829,0.990387,-0.02819,0.041671,0.042892,85.263779,42.941498,-147.174271,,,
729705387.75993,-7.27683,-0.508962,71.790632,0.026566,-0.130829,0.990387,-0.02819,0.041671,0.042892,85.263779,42.941498,-147.174271,,,
729705387.763175,-7.28321,-0.492576,71.801771,0.027679,-0.131271,0.992889,-0.018337,0.061715,0.033736,85.263779,42.941498,-147.174271,,,
729705387.766508,-7.286697,-0.474872,71.811896,0.027679,-0.131271,0.992889,-0.018337,0.061715,0.033736,85.263779,42.941498,-147.174271,,,
729705387.769945,-7.286697,-0.474872,71.811896,0.027679,-0.131271,0.992889,-0.018337,0.061715,0.033736,85.263779,42.941498,-147.174271,,,
729705387.77316,-7.292637,-0.458699,71.820495,0.023239,-0.127075,0.981506,-0.023806,0.048157,0.025607,85.263779,42.941498,-147.174271,,,
729705387.776515,-7.298138,-0.446923,71.827439,0.023239,-0.127075,0.981506,-0.023806,0.048157,0.025607,85.263779,42.941498,-147.174271,,,
729705387.779883,-7.298138,-0.446923,71.827439,0.023239,-0.127075,0.981506,-0.023806,0.048157,0.025607,85.263779,42.941498,-147.174271,,,
729705387.783263,-7.308805,-0.439465,71.833382,0.01767,-0.123581,0.966476,-0.047982,0.013277,0.0163,85.244431,43.2061,-147.12233,,,
729705387.786493,-7.32155,-0.437943,71.83738,0.01767,-0.123581,0.966476,-0.047982,0.013277,0.0163,85.244431,43.2061,-147.12233,,,
729705387.789842,-7.32155,-0.437943,71.83738,0.01767,-0.123581,0.966476,-0.047982,0.013277,0.0163,85.244431,43.2061,-147.12233,,,
729705387.793173,-7.340381,-0.43853,71.838588,0.019516,-0.121628,0.961029,-0.074692,-0.003317,-0.005374,85.244431,43.2061,-147.12233,,,
729705387.796502,-7.361702,-0.442175,71.836365,0.019516,-0.121628,0.961029,-0.074692,-0.003317,-0.005374,85.244431,43.2061,-147.12233,,,
729705387.799849,-7.361702,-0.442175,71.836365,0.019516,-0.121628,0.961029,-0.074692,-0.003317,-0.005374,85.244431,43.2061,-147.12233,,,
729705387.803313,-7.388589,-0.444347,71.831762,0.020126,-0.125717,0.963303,-0.101342,0.002761,-0.021837,85.244431,43.2061,-147.12233,,,
729705387.806495,-7.417767,-0.446941,71.824997,0.020126,-0.125717,0.963303,-0.101342,0.002761,-0.021837,85.244431,43.2061,-147.12233,,,
729705387.80985,-7.417767,-0.446941,71.824997,0.020126,-0.125717,0.963303,-0.101342,0.002761,-0.021837,85.244431,43.2061,-147.12233,,,
729705387.813163,-7.45055,-0.44718,71.817149,0.01561,-0.128571,0.964432,-0.116525,0.006761,-0.029521,85.244431,43.2061,-147.12233,,,
729705387.816499,-7.485883,-0.44717,71.80858,0.01561,-0.128571,0.964432,-0.116525,0.006761,-0.029521,85.244431,43.2061,-147.12233,,,
729705387.819828,-7.485883,-0.44717,71.80858,0.01561,-0.128571,0.964432,-0.116525,0.006761,-0.029521,85.244431,43.2061,-147.12233,,,
729705387.823155,-7.521565,-0.442819,71.800521,0.014404,-0.131927,0.967087,-0.122136,0.033512,-0.027561,85.362259,43.248993,-147.03508,,,
729705387.826496,-7.557252,-0.436417,71.794017,0.014404,-0.131927,0.967087,-0.122136,0.033512,-0.027561,85.362259,43.248993,-147.03508,,,
729705387.829896,-7.557252,-0.436417,71.794017,0.014404,-0.131927,0.967087,-0.122136,0.033512,-0.027561,85.362259,43.248993,-147.03508,,,
729705387.833226,-7.591931,-0.424203,71.790253,0.010483,-0.138565,0.976303,-0.114167,0.051399,-0.00805,85.362259,43.248993,-147.03508,,,
729705387.836511,-7.624573,-0.413058,71.78876,0.010483,-0.138565,0.976303,-0.114167,0.051399,-0.00805,85.362259,43.248993,-147.03508,,,
729705387.839877,-7.624573,-0.413058,71.78876,0.010483,-0.138565,0.976303,-0.114167,0.051399,-0.00805,85.362259,43.248993,-147.03508,,,
729705387.843168,-7.655752,-0.399569,71.789945,0.008698,-0.145691,0.975739,-0.103974,0.043618,0.01055,85.362259,43.248993,-147.03508,,,
729705387.846492,-7.685376,-0.389836,71.792098,0.008698,-0.145691,0.975739,-0.103974,0.043618,0.01055,85.362259,43.248993,-147.03508,,,
729705387.849858,-7.685376,-0.389836,71.792098,0.008698,-0.145691,0.975739,-0.103974,0.043618,0.01055,85.362259,43.248993,-147.03508,,,
729705387.853157,-7.713734,-0.378071,71.794901,0.01149,-0.14209,0.974045,-0.09156,0.0458,0.011684,85.362259,43.248993,-147.03508,,,
729705387.856493,-7.738393,-0.3652,71.797842,0.01149,-0.14209,0.974045,-0.09156,0.0458,0.011684,85.362259,43.248993,-147.03508,,,
729705387.85993,-7.738393,-0.3652,71.797842,0.01149,-0.14209,0.974045,-0.09156,0.0458,0.011684,85.362259,43.248993,-147.03508,,,
729705387.863164,-7.760964,-0.346195,71.800695,0.008987,-0.140518,0.989914,-0.070625,0.080329,0.005121,85.529831,43.648743,-146.651642,,,
729705387.866497,-7.780914,-0.325051,71.802289,0.008987,-0.140518,0.989914,-0.070625,0.080329,0.005121,85.529831,43.648743,-146.651642,,,
729705387.869951,-7.780914,-0.325051,71.802289,0.008987,-0.140518,0.989914,-0.070625,0.080329,0.005121,85.529831,43.648743,-146.651642,,,
729705387.87316,-7.801562,-0.300006,71.803248,0.010818,-0.140289,0.990952,-0.070629,0.094159,0.000593,85.529831,43.648743,-146.651642,,,
729705387.876507,-7.821387,-0.276548,71.80323,0.010818,-0.140289,0.990952,-0.070629,0.094159,0.000593,85.529831,43.648743,-146.651642,,,
729705387.87987,-7.821387,-0.276548,71.80323,0.010818,-0.140289,0.990952,-0.070629,0.094159,0.000593,85.529831,43.648743,-146.651642,,,
729705387.883259,-7.845352,-0.250693,71.802833,0.004852,-0.134918,0.972855,-0.093494,0.094584,-0.005617,85.529831,43.648743,-146.651642,,,
729705387.886496,-7.872649,-0.225915,71.801382,0.004852,-0.134918,0.972855,-0.093494,0.094584,-0.005617,85.529831,43.648743,-146.651642,,,
729705387.889849,-7.872649,-0.225915,71.801382,0.004852,-0.134918,0.972855,-0.093494,0.094584,-0.005617,85.529831,43.648743,-146.651642,,,
729705387.893169,-7.905697,-0.198259,71.799792,0.000885,-0.134689,0.97049,-0.128921,0.102762,-0.006107,85.529831,43.648743,-146.651642,,,
729705387.896491,-7.944486,-0.171342,71.798308,0.000885,-0.134689,0.97049,-0.128921,0.102762,-0.006107,85.529831,43.648743,-146.651642,,,
729705387.899849,-7.944486,-0.171342,71.798308,0.000885,-0.134689,0.97049,-0.128921,0.102762,-0.006107,85.529831,43.648743,-146.651642,,,
729705387.903279,-7.989943,-0.145195,71.797682,-0.003479,-0.139511,0.971619,-0.172734,0.086659,0.000216,85.819916,43.872116,-146.702591,,,
729705387.906505,-8.040811,-0.123323,71.79787,-0.003479,-0.139511,0.971619,-0.172734,0.086659,0.000216,85.819916,43.872116,-146.702591,,,
729705387.909872,-8.040811,-0.123323,71.79787,-0.003479,-0.139511,0.971619,-0.172734,0.086659,0.000216,85.819916,43.872116,-146.702591,,,
729705387.91317,-8.09679,-0.102829,71.798951,-0.011002,-0.141129,0.970566,-0.208099,0.068266,0.002103,85.819916,43.872116,-146.702591,,,
729705387.916557,-8.157602,-0.085116,71.800089,-0.011002,-0.141129,0.970566,-0.208099,0.068266,0.002103,85.819916,43.872116,-146.702591,,,
729705387.919826,-8.157602,-0.085116,71.800089,-0.011002,-0.141129,0.970566,-0.208099,0.068266,0.002103,85.819916,43.872116,-146.702591,,,
729705387.923172,-8.221515,-0.067072,71.800673,-0.008408,-0.138611,0.98381,-0.232137,0.071781,-0.001303,85.819916,43.872116,-146.702591,,,
729705387.926556,-8.288796,-0.047221,71.800375,-0.008408,-0.138611,0.98381,-0.232137,0.071781,-0.001303,85.819916,43.872116,-146.702591,,,
729705387.929838,-8.288796,-0.047221,71.800375,-0.008408,-0.138611,0.98381,-0.232137,0.071781,-0.001303,85.819916,43.872116,-146.702591,,,
729705387.933235,-8.357678,-0.022165,71.800006,-0.008545,-0.14151,0.993759,-0.243067,0.10203,-0.003316,85.819916,43.872116,-146.702591,,,
729705387.936612,-8.427629,0.005715,71.79951,-0.008545,-0.14151,0.993759,-0.243067,0.10203,-0.003316,85.819916,43.872116,-146.702591,,,
729705387.939876,-8.427629,0.005715,71.79951,-0.008545,-0.14151,0.993759,-0.243067,0.10203,-0.003316,85.819916,43.872116,-146.702591,,,
729705387.94317,-8.499501,0.037493,71.799761,-0.004379,-0.145569,0.997833,-0.249899,0.118246,0.000818,85.819916,43.872116,-146.702591,,,
729705387.946582,-8.570662,0.069432,71.801148,-0.004379,-0.145569,0.997833,-0.249899,0.118246,0.000818,86.014008,44.307709,-146.509247,,,
729705387.949839,-8.570662,0.069432,71.801148,-0.004379,-0.145569,0.997833,-0.249899,0.118246,0.000818,86.014008,44.307709,-146.509247,,,
729705387.953168,-8.641467,0.102498,71.804869,-0.005234,-0.155472,0.996536,-0.243472,0.114436,0.015028,86.014008,44.307709,-146.509247,,,
729705387.956537,-8.708943,0.132624,71.810658,-0.005234,-0.155472,0.996536,-0.243472,0.114436,0.015028,86.014008,44.307709,-146.509247,,,
729705387.959894,-8.708943,0.132624,71.810658,-0.005234,-0.155472,0.996536,-0.243472,0.114436,0.015028,86.014008,44.307709,-146.509247,,,
729705387.963171,-8.776285,0.163867,71.81927,-0.00885,-0.163223,0.998795,-0.227457,0.105142,0.033331,86.014008,44.307709,-146.509247,,,
729705387.966498,-8.837974,0.195021,71.830573,-0.00885,-0.163223,0.998795,-0.227457,0.105142,0.033331,86.014008,44.307709,-146.509247,,,
729705387.969947,-8.837974,0.195021,71.830573,-0.00885,-0.163223,0.998795,-0.227457,0.105142,0.033331,86.014008,44.307709,-146.509247,,,
729705387.973164,-8.897981,0.228549,71.84402,-0.009247,-0.169479,1.014145,-0.194726,0.112818,0.046767,86.014008,44.307709,-146.509247,,,
729705387.976513,-8.950046,0.261682,71.858238,-0.009247,-0.169479,1.014145,-0.194726,0.112818,0.046767,86.014008,44.307709,-146.509247,,,
729705387.979838,-8.950046,0.261682,71.858238,-0.009247,-0.169479,1.014145,-0.194726,0.112818,0.046767,86.014008,44.307709,-146.509247,,,
729705387.983225,-8.999749,0.294772,71.872486,-0.012115,-0.169693,1.016724,-0.161382,0.107022,0.049297,86.014008,44.307709,-146.509247,,,
729705387.986522,-9.042969,0.327336,71.886264,-0.012115,-0.169693,1.016724,-0.161382,0.107022,0.049297,86.373947,44.679871,-146.151077,,,
729705387.989818,-9.042969,0.327336,71.886264,-0.012115,-0.169693,1.016724,-0.161382,0.107022,0.049297,86.373947,44.679871,-146.151077,,,
729705387.993173,-9.084035,0.35725,71.898539,-0.006012,-0.161209,1.013397,-0.133432,0.096487,0.034375,86.373947,44.679871,-146.151077,,,
729705387.996398,-9.084035,0.35725,71.908875,-0.006012,-0.161209,1.013397,-0.133432,0.096487,0.034375,86.373947,44.679871,-146.151077,,,
729705387.999503,-9.118773,0.385753,71.908875,-0.006012,-0.161209,1.013397,-0.133432,0.096487,0.034375,86.373947,44.679871,-146.151077,,,
729705388.003309,-9.154189,0.411871,71.917226,-0.009705,-0.160446,1.00647,-0.118924,0.089402,0.020416,86.373947,44.679871,-146.151077,,,
729705388.006557,-9.184579,0.437379,71.924063,-0.009705,-0.160446,1.00647,-0.118924,0.089402,0.020416,86.373947,44.679871,-146.151077,,,
729705388.009844,-9.184579,0.437379,71.924063,-0.009705,-0.160446,1.00647,-0.118924,0.089402,0.020416,86.373947,44.679871,-146.151077,,,
729705388.01316,-9.217643,0.46218,71.929115,-0.009811,-0.159317,0.997711,-0.117456,0.08363,0.010232,86.373947,44.679871,-146.151077,,,
729705388.016542,-9.248271,0.485242,71.932537,-0.009811,-0.159317,0.997711,-0.117456,0.08363,0.010232,86.373947,44.679871,-146.151077,,,
729705388.01982,-9.248271,0.485242,71.932537,-0.009811,-0.159317,0.997711,-0.117456,0.08363,0.010232,86.373947,44.679871,-146.151077,,,
729705388.023169,-9.283722,0.505103,71.934896,-0.003647,-0.156281,0.985626,-0.127976,0.059775,0.003907,86.373947,44.679871,-146.151077,,,
729705388.02654,-9.319291,0.520925,71.935931,-0.003647,-0.156281,0.985626,-0.127976,0.059775,0.003907,86.360535,45.099213,-145.832672,,,
729705388.029843,-9.319291,0.520925,71.935931,-0.003647,-0.156281,0.985626,-0.127976,0.059775,0.003907,86.360535,45.099213,-145.832672,,,
729705388.033237,-9.359724,0.535689,71.936254,-0.001648,-0.153641,0.974869,-0.148067,0.053577,-0.001509,86.360535,45.099213,-145.832672,,,
729705388.036661,-9.403213,0.549234,71.9364,-0.001648,-0.153641,0.974869,-0.148067,0.053577,-0.001509,86.360535,45.099213,-145.832672,,,
729705388.039885,-9.403213,0.549234,71.9364,-0.001648,-0.153641,0.974869,-0.148067,0.053577,-0.001509,86.360535,45.099213,-145.832672,,,
729705388.043196,-9.451006,0.563077,71.936653,-0.003311,-0.159576,0.973053,-0.174858,0.051286,-0.003951,86.360535,45.099213,-145.832672,,,
729705388.046643,-9.501449,0.576784,71.936557,-0.003311,-0.159576,0.973053,-0.174858,0.051286,-0.003951,86.360535,45.099213,-145.832672,,,
729705388.04985,-9.501449,0.576784,71.936557,-0.003311,-0.159576,0.973053,-0.174858,0.051286,-0.003951,86.360535,45.099213,-145.832672,,,
729705388.053201,-9.554638,0.59032,71.936725,0.000504,-0.167603,0.971848,-0.190657,0.047831,-0.003872,86.360535,45.099213,-145.832672,,,
729705388.05654,-9.554638,0.59032,71.93692,0.000504,-0.167603,0.971848,-0.190657,0.047831,-0.003872,86.360535,45.099213,-145.832672,,,
729705388.059929,-9.610399,0.602843,71.93692,0.000504,-0.167603,0.971848,-0.190657,0.047831,-0.003872,86.360535,45.099213,-145.832672,,,
729705388.063189,-9.668186,0.613916,71.936737,0.000946,-0.169113,0.967239,-0.206399,0.039644,-0.000948,86.360535,45.099213,-145.832672,,,
729705388.066492,-9.668186,0.613916,71.936737,0.000946,-0.169113,0.967239,-0.206399,0.039644,-0.000948,86.360535,45.099213,-145.832672,,,
729705388.070015,-9.727599,0.623839,71.937103,0.000946,-0.169113,0.967239,-0.206399,0.039644,-0.000948,86.429199,45.494263,-145.834671,,,
729705388.073159,-9.792069,0.632646,71.937931,-0.001526,-0.169632,0.965881,-0.232697,0.03083,-0.000748,86.429199,45.494263,-145.834671,,,
729705388.076554,-9.792069,0.639226,71.938577,-0.001526,-0.169632,0.965881,-0.232697,0.03083,-0.000748,86.429199,45.494263,-145.834671,,,
729705388.079843,-9.857488,0.639226,71.938577,-0.001526,-0.169632,0.965881,-0.232697,0.03083,-0.000748,86.429199,45.494263,-145.834671,,,
729705388.083253,-9.929116,0.646562,71.93884,-0.003265,-0.16954,0.96167,-0.260573,0.031022,-0.004893,86.429199,45.494263,-145.834671,,,
729705388.086487,-9.929116,0.646562,71.93884,-0.003265,-0.16954,0.96167,-0.260573,0.031022,-0.004893,86.429199,45.494263,-145.834671,,,
729705388.089848,-10.001875,0.65411,71.938437,-0.003265,-0.16954,0.96167,-0.260573,0.031022,-0.004893,86.429199,45.494263,-145.834671,,,
729705388.093174,-10.079431,0.661406,71.936627,0.004028,-0.171356,0.96701,-0.272383,0.028226,-0.019222,86.429199,45.494263,-145.834671,,,
729705388.096561,-10.079431,0.666521,71.932325,0.004028,-0.171356,0.96701,-0.272383,0.028226,-0.019222,86.429199,45.494263,-145.834671,,,
729705388.099829,-10.154485,0.666521,71.932325,0.004028,-0.171356,0.96701,-0.272383,0.028226,-0.019222,86.429199,45.494263,-145.834671,,,
729705388.103341,-10.231634,0.67035,71.926183,0.00708,-0.176468,0.972916,-0.25802,0.017807,-0.03101,86.429199,45.494263,-145.834671,,,
729705388.106528,-10.231634,0.67035,71.926183,0.00708,-0.176468,0.972916,-0.25802,0.017807,-0.03101,86.429199,45.494263,-145.834671,,,
729705388.109855,-10.301778,0.670919,71.917953,0.00708,-0.176468,0.972916,-0.25802,0.017807,-0.03101,86.521927,45.782333,-146.009537,,,
729705388.113165,-10.371849,0.670537,71.907502,0.007324,-0.182327,0.979675,-0.235324,0.002183,-0.051817,86.521927,45.782333,-146.009537,,,
729705388.116509,-10.371849,0.670537,71.907502,0.007324,-0.182327,0.979675,-0.235324,0.002183,-0.051817,86.521927,45.782333,-146.009537,,,
729705388.119828,-10.43463,0.665786,71.89328,0.007324,-0.182327,0.979675,-0.235324,0.002183,-0.051817,86.521927,45.782333,-146.009537,,,
729705388.123159,-10.496503,0.660729,71.876259,0.007095,-0.183411,0.981216,-0.200895,-0.00507,-0.067511,86.521927,45.782333,-146.009537,,,
729705388.126516,-10.496503,0.660729,71.876259,0.007095,-0.183411,0.981216,-0.200895,-0.00507,-0.067511,86.521927,45.782333,-146.009537,,,
729705388.129843,-10.551143,0.652896,71.856825,0.007095,-0.183411,0.981216,-0.200895,-0.00507,-0.067511,86.521927,45.782333,-146.009537,,,
729705388.133219,-10.605256,0.644939,71.836501,-0.00177,-0.185135,0.985245,-0.18267,-0.013429,-0.075369,86.521927,45.782333,-146.009537,,,
729705388.136661,-10.605256,0.633219,71.815619,-0.00177,-0.185135,0.985245,-0.18267,-0.013429,-0.075369,86.521927,45.782333,-146.009537,,,
729705388.139864,-10.65529,0.633219,71.815619,-0.00177,-0.185135,0.985245,-0.18267,-0.013429,-0.075369,86.521927,45.782333,-146.009537,,,
729705388.143175,-10.706739,0.622394,71.795204,-0.006851,-0.186646,0.977219,-0.175932,-0.021146,-0.072012,86.521927,45.782333,-146.009537,,,
729705388.146546,-10.706739,0.622394,71.795204,-0.006851,-0.186646,0.977219,-0.175932,-0.021146,-0.072012,86.521927,45.782333,-146.009537,,,
729705388.149818,-10.755913,0.609148,71.77499,-0.006851,-0.186646,0.977219,-0.175932,-0.021146,-0.072012,86.459717,46.340469,-145.930466,,,
729705388.153161,-10.80829,0.596679,71.756013,-0.011627,-0.18602,0.974335,-0.186585,-0.033875,-0.063752,86.459717,46.340469,-145.930466,,,
729705388.156503,-10.80829,0.596679,71.756013,-0.011627,-0.18602,0.974335,-0.186585,-0.033875,-0.063752,86.459717,46.340469,-145.930466,,,
729705388.159874,-10.860716,0.581094,71.737975,-0.011627,-0.18602,0.974335,-0.186585,-0.033875,-0.063752,86.459717,46.340469,-145.930466,,,
729705388.163152,-10.919322,0.564754,71.721541,-0.008896,-0.189407,0.971497,-0.211025,-0.04597,-0.051708,86.459717,46.340469,-145.930466,,,
729705388.166488,-10.919322,0.564754,71.721541,-0.008896,-0.189407,0.971497,-0.211025,-0.04597,-0.051708,86.459717,46.340469,-145.930466,,,
729705388.170006,-10.978633,0.546209,71.707148,-0.008896,-0.189407,0.971497,-0.211025,-0.04597,-0.051708,86.459717,46.340469,-145.930466,,,
729705388.173151,-11.042802,0.531007,71.695128,-0.012009,-0.198074,0.974945,-0.223794,-0.02919,-0.03995,86.459717,46.340469,-145.930466,,,
729705388.176512,-11.042802,0.531007,71.695128,-0.012009,-0.198074,0.974945,-0.223794,-0.02919,-0.03995,86.459717,46.340469,-145.930466,,,
729705388.179853,-11.104699,0.517891,71.683752,-0.012009,-0.198074,0.974945,-0.223794,-0.02919,-0.03995,86.459717,46.340469,-145.930466,,,
729705388.183158,-11.168438,0.512611,71.673304,-0.010498,-0.203201,0.998856,-0.219251,0.000421,-0.036369,86.459717,46.340469,-145.930466,,,
729705388.186491,-11.168438,0.512611,71.673304,-0.010498,-0.203201,0.998856,-0.219251,0.000421,-0.036369,86.459717,46.340469,-145.930466,,,
729705388.189825,-11.230071,0.506984,71.663077,-0.010498,-0.203201,0.998856,-0.219251,0.000421,-0.036369,86.491974,46.597275,-145.091751,,,
729705388.193226,-11.294029,0.503641,71.654376,-0.008804,-0.199265,0.99411,-0.221261,-0.005101,-0.029837,86.491974,46.597275,-145.091751,,,
729705388.196481,-11.294029,0.503641,71.654376,-0.008804,-0.199265,0.99411,-0.221261,-0.005101,-0.029837,86.491974,46.597275,-145.091751,,,
729705388.1999,-11.355142,0.497585,71.645736,-0.008804,-0.199265,0.99411,-0.221261,-0.005101,-0.029837,86.491974,46.597275,-145.091751,,,
729705388.203307,-11.417262,0.496167,71.638523,-0.012329,-0.198898,0.994873,-0.213014,0.011005,-0.028458,86.491974,46.597275,-145.091751,,,
729705388.206522,-11.417262,0.496167,71.638523,-0.012329,-0.198898,0.994873,-0.213014,0.011005,-0.028458,86.491974,46.597275,-145.091751,,,
729705388.209844,-11.475957,0.495274,71.631381,-0.012329,-0.198898,0.994873,-0.213014,0.011005,-0.028458,86.491974,46.597275,-145.091751,,,
729705388.213165,-11.535795,0.49883,71.625443,-0.013535,-0.198532,0.998825,-0.202812,0.023169,-0.024323,86.491974,46.597275,-145.091751,,,
729705388.216503,-11.535795,0.49883,71.625443,-0.013535,-0.198532,0.998825,-0.202812,0.023169,-0.024323,86.491974,46.597275,-145.091751,,,
729705388.219855,-11.591931,0.503637,71.619497,-0.013535,-0.198532,0.998825,-0.202812,0.023169,-0.024323,86.491974,46.597275,-145.091751,,,
729705388.223159,-11.648388,0.510663,71.613098,-0.012421,-0.199326,0.988831,-0.192551,0.03791,-0.022866,86.491974,46.597275,-145.091751,,,
729705388.226519,-11.648388,0.510663,71.613098,-0.012421,-0.199326,0.988831,-0.192551,0.03791,-0.022866,86.491974,46.597275,-145.091751,,,
