Time (sec),Pitch (deg),Roll (deg),Yaw(deg),X-Acceleration (g),Y-Acceleration (g),Z-Acceleration (g),Pitch Rate (deg/sec),Roll Rate (deg/sec),Yaw Rate (deg/sec),Magnetic Field in X direction (uT),Magnetic Field in Y direction (uT),Magnetic Field in Z Direction (uT),Latitude (deg),Longitude (deg),Altitude (m)
729706462.145074,-1.023314,-1.236187,165.414433,0.003693,-0.01738,0.980881,0.018033,-0.019984,0.00362,86.272614,13.016693,-146.557907,,,
729706462.148432,-1.020551,-1.243998,165.415925,0.003693,-0.01738,0.980881,0.018033,-0.019984,0.00362,86.272614,13.016693,-146.557907,,,
729706462.151768,-1.017384,-1.251769,165.416983,0.005447,-0.009262,0.971786,0.008345,-0.023825,0.000785,86.272614,13.016693,-146.557907,,,
729706462.155084,-1.017384,-1.251769,165.416983,0.005447,-0.009262,0.971786,0.008345,-0.023825,0.000785,86.272614,13.016693,-146.557907,,,
729706462.158416,-1.016768,-1.260709,165.418165,0.005447,-0.009262,0.971786,0.008345,-0.023825,0.000785,86.272614,13.016693,-146.557907,,,
729706462.161803,-1.016605,-1.269363,165.420312,0.005707,-0.008102,0.963882,-0.003395,-0.027558,0.007705,86.272614,13.016693,-146.557907,,,
729706462.165065,-1.016605,-1.269363,165.420312,0.005707,-0.008102,0.963882,-0.003395,-0.027558,0.007705,86.475555,13.229004,-146.970627,,,
729706462.168402,-1.01992,-1.27806,165.423291,0.005707,-0.008102,0.963882,-0.003395,-0.027558,0.007705,86.475555,13.229004,-146.970627,,,
729706462.171885,-1.02538,-1.286807,165.426849,0.011597,-0.007233,0.960526,-0.023309,-0.027945,0.012196,86.475555,13.229004,-146.970627,,,
729706462.175075,-1.02538,-1.286807,165.426849,0.011597,-0.007233,0.960526,-0.023309,-0.027945,0.012196,86.475555,13.229004,-146.970627,,,
729706462.178404,-1.035014,-1.293873,165.430552,0.011597,-0.007233,0.960526,-0.023309,-0.027945,0.012196,86.475555,13.229004,-146.970627,,,
729706462.181765,-1.035014,-1.299629,165.434071,0.011597,-0.007233,0.960526,-0.039686,-0.013656,0.011441,86.475555,13.229004,-146.970627,,,
729706462.185087,-1.045791,-1.299629,165.434071,0.019089,-0.004364,0.961548,-0.039686,-0.013656,0.011441,86.475555,13.229004,-146.970627,,,
729706462.188472,-1.060272,-1.300474,165.437583,0.019089,-0.004364,0.961548,-0.039686,-0.013656,0.011441,86.475555,13.229004,-146.970627,,,
729706462.191739,-1.060272,-1.30064,165.440741,0.019089,-0.004364,0.961548,-0.039686,-0.013656,0.011441,86.475555,13.229004,-146.970627,,,
729706462.195166,-1.076143,-1.30064,165.440741,0.02272,-0.005157,0.970764,-0.057559,0.006053,0.009669,86.475555,13.229004,-146.970627,,,
729706462.198495,-1.094088,-1.29691,165.443778,0.02272,-0.005157,0.970764,-0.057559,0.006053,0.009669,86.475555,13.229004,-146.970627,,,
729706462.201759,-1.094088,-1.29691,165.447344,0.02272,-0.005157,0.970764,-0.06132,0.009701,0.013744,86.475555,13.229004,-146.970627,,,
729706462.205099,-1.111708,-1.294827,165.447344,0.024567,-0.011765,0.976013,-0.06132,0.009701,0.013744,86.507507,13.223892,-146.740936,,,
729706462.208446,-1.129858,-1.290814,165.452016,0.024567,-0.011765,0.976013,-0.06132,0.009701,0.013744,86.507507,13.223892,-146.740936,,,
729706462.211742,-1.129858,-1.290814,165.452016,0.024567,-0.011765,0.976013,-0.06132,0.009701,0.013744,86.507507,13.223892,-146.740936,,,
729706462.215085,-1.147373,-1.290465,165.457371,0.027481,-0.01889,0.981369,-0.060662,0.001662,0.018822,86.507507,13.223892,-146.740936,,,
729706462.218401,-1.164719,-1.288913,165.463011,0.027481,-0.01889,0.981369,-0.060662,0.001662,0.018822,86.507507,13.223892,-146.740936,,,
729706462.221783,-1.164719,-1.288913,165.468244,0.027481,-0.01889,0.981369,-0.054133,-0.004087,0.016189,86.507507,13.223892,-146.740936,,,
729706462.225086,-1.180912,-1.290574,165.468244,0.031784,-0.023911,0.9879,-0.054133,-0.004087,0.016189,86.507507,13.223892,-146.740936,,,
729706462.228398,-1.194629,-1.291397,165.472558,0.031784,-0.023911,0.9879,-0.054133,-0.004087,0.016189,86.507507,13.223892,-146.740936,,,
729706462.231789,-1.194629,-1.291397,165.472558,0.031784,-0.023911,0.9879,-0.054133,-0.004087,0.016189,86.507507,13.223892,-146.740936,,,
729706462.235123,-1.206267,-1.296026,165.47566,0.035965,-0.025253,0.999725,-0.035813,-0.016541,0.007622,86.507507,13.223892,-146.740936,,,
729706462.238414,-1.214473,-1.299617,165.47739,0.035965,-0.025253,0.999725,-0.035813,-0.016541,0.007622,86.507507,13.223892,-146.740936,,,
729706462.241741,-1.214473,-1.299617,165.47739,0.035965,-0.025253,0.999725,-0.035813,-0.016541,0.007622,86.507507,13.223892,-146.740936,,,
729706462.245069,-1.221795,-1.30472,165.478258,0.0401,-0.025848,1.00914,-0.022236,-0.013385,0.001612,86.578995,13.313736,-146.860077,,,
729706462.248401,-1.226531,-1.307089,165.479212,0.0401,-0.025848,1.00914,-0.022236,-0.013385,0.001612,86.578995,13.313736,-146.860077,,,
729706462.251822,-1.226531,-1.307089,165.479212,0.0401,-0.025848,1.00914,-0.022236,-0.013385,0.001612,86.578995,13.313736,-146.860077,,,
729706462.255063,-1.231777,-1.309977,165.480013,0.034454,-0.021866,1.012436,-0.017969,-0.005588,0.000681,86.578995,13.313736,-146.860077,,,
729706462.258405,-1.235814,-1.311268,165.480396,0.034454,-0.021866,1.012436,-0.017969,-0.005588,0.000681,86.578995,13.313736,-146.860077,,,
729706462.26175,-1.235814,-1.311268,165.480396,0.034454,-0.021866,1.012436,-0.017969,-0.005588,0.000681,86.578995,13.313736,-146.860077,,,
729706462.265073,-1.240921,-1.314202,165.481205,0.028992,-0.023712,1.012604,-0.015073,-0.011317,0.003697,86.578995,13.313736,-146.860077,,,
729706462.268405,-1.243644,-1.319305,165.483208,0.028992,-0.023712,1.012604,-0.015073,-0.011317,0.003697,86.578995,13.313736,-146.860077,,,
729706462.271822,-1.243644,-1.319305,165.483208,0.028992,-0.023712,1.012604,-0.015073,-0.011317,0.003697,86.578995,13.313736,-146.860077,,,
729706462.2751,-1.247336,-1.326997,165.486593,0.027405,-0.031296,1.002457,-0.009539,-0.028056,0.013234,86.578995,13.313736,-146.860077,,,
729706462.278399,-1.247914,-1.335764,165.490652,0.027405,-0.031296,1.002457,-0.009539,-0.028056,0.013234,86.578995,13.313736,-146.860077,,,
729706462.281796,-1.247914,-1.335764,165.490652,0.027405,-0.031296,1.002457,-0.009539,-0.028056,0.013234,86.578995,13.313736,-146.860077,,,
729706462.285062,-1.248391,-1.342335,165.493583,0.026733,-0.027054,1.011032,0.000661,-0.014166,0.005085,86.519897,13.32811,-146.596573,,,
729706462.288411,-1.247159,-1.345872,165.495134,0.026733,-0.027054,1.011032,0.000661,-0.014166,0.005085,86.519897,13.32811,-146.596573,,,
729706462.29179,-1.247159,-1.345872,165.495134,0.026733,-0.027054,1.011032,0.000661,-0.014166,0.005085,86.519897,13.32811,-146.596573,,,
729706462.295152,-1.245531,-1.346656,165.496343,0.022949,-0.022507,1.017899,0.007795,0.001982,0.002448,86.519897,13.32811,-146.596573,,,
729706462.298395,-1.243771,-1.349405,165.497702,0.022949,-0.022507,1.017899,0.007795,0.001982,0.002448,86.519897,13.32811,-146.596573,,,
729706462.301812,-1.243771,-1.349405,165.497702,0.022949,-0.022507,1.017899,0.007795,0.001982,0.002448,86.519897,13.32811,-146.596573,,,
729706462.305108,-1.243135,-1.353152,165.500323,0.020111,-0.033173,1.004822,0.000367,-0.014075,0.011231,86.519897,13.32811,-146.596573,,,
729706462.308465,-1.243391,-1.361512,165.504548,0.020111,-0.033173,1.004822,0.000367,-0.014075,0.011231,86.519897,13.32811,-146.596573,,,
729706462.311816,-1.243391,-1.361512,165.504548,0.020111,-0.033173,1.004822,0.000367,-0.014075,0.011231,86.519897,13.32811,-146.596573,,,
729706462.315083,-1.241922,-1.369079,165.508986,0.024963,-0.036026,1.003113,0.008169,-0.023546,0.012211,86.519897,13.32811,-146.596573,,,
729706462.318406,-1.239683,-1.379446,165.512222,0.024963,-0.036026,1.003113,0.008169,-0.023546,0.012211,86.519897,13.32811,-146.596573,,,
729706462.321796,-1.239683,-1.379446,165.512222,0.024963,-0.036026,1.003113,0.008169,-0.023546,0.012211,86.519897,13.32811,-146.596573,,,
729706462.325062,-1.235544,-1.387342,165.514032,0.028732,-0.031204,1.014877,0.017204,-0.025592,0.001632,86.519897,13.32811,-146.596573,,,
729706462.328413,-1.230495,-1.398215,165.513753,0.028732,-0.031204,1.014877,0.017204,-0.025592,0.001632,86.527756,13.382309,-146.987961,,,
729706462.331764,-1.230495,-1.398215,165.513753,0.028732,-0.031204,1.014877,0.017204,-0.025592,0.001632,86.527756,13.382309,-146.987961,,,
729706462.335061,-1.223852,-1.405551,165.511648,0.031555,-0.031967,1.016571,0.026134,-0.018941,-0.011706,86.527756,13.382309,-146.987961,,,
729706462.338514,-1.216798,-1.41171,165.508379,0.031555,-0.031967,1.016571,0.026134,-0.018941,-0.011706,86.527756,13.382309,-146.987961,,,
729706462.341791,-1.216798,-1.41171,165.508379,0.031555,-0.031967,1.016571,0.026134,-0.018941,-0.011706,86.527756,13.382309,-146.987961,,,
729706462.345152,-1.210272,-1.413807,165.505113,0.030243,-0.029251,1.020203,0.022675,0.001497,-0.011762,86.527756,13.382309,-146.987961,,,
729706462.348394,-1.20503,-1.414263,165.50257,0.030243,-0.029251,1.020203,0.022675,0.001497,-0.011762,86.527756,13.382309,-146.987961,,,
729706462.35176,-1.20503,-1.414263,165.50257,0.030243,-0.029251,1.020203,0.022675,0.001497,-0.011762,86.527756,13.382309,-146.987961,,,
729706462.355159,-1.200031,-1.411362,165.500602,0.028915,-0.028091,1.014069,0.014382,0.019286,-0.007657,86.527756,13.382309,-146.987961,,,
729706462.358402,-1.198724,-1.406246,165.499229,0.028915,-0.028091,1.014069,0.014382,0.019286,-0.007657,86.527756,13.382309,-146.987961,,,
729706462.361733,-1.198724,-1.406246,165.499229,0.028915,-0.028091,1.014069,0.014382,0.019286,-0.007657,86.527756,13.382309,-146.987961,,,
729706462.365086,-1.198429,-1.399586,165.498323,0.023041,-0.027908,1.007233,-0.002063,0.027064,-0.004102,86.527756,13.382309,-146.987961,,,
729706462.368404,-1.199942,-1.391851,165.497359,0.023041,-0.027908,1.007233,-0.002063,0.027064,-0.004102,86.429703,13.444321,-146.684525,,,
729706462.371735,-1.199942,-1.391851,165.497359,0.023041,-0.027908,1.007233,-0.002063,0.027064,-0.004102,86.429703,13.444321,-146.684525,,,
729706462.375097,-1.202015,-1.382741,165.496458,0.020554,-0.027344,1.005875,-0.007236,0.036334,-0.003555,86.429703,13.444321,-146.684525,,,
729706462.378486,-1.205752,-1.372493,165.496232,0.020554,-0.027344,1.005875,-0.007236,0.036334,-0.003555,86.429703,13.444321,-146.684525,,,
729706462.381792,-1.205752,-1.372493,165.496232,0.020554,-0.027344,1.005875,-0.007236,0.036334,-0.003555,86.429703,13.444321,-146.684525,,,
729706462.385082,-1.208936,-1.362541,165.496216,0.014023,-0.028076,1.004669,-0.009593,0.038003,-0.0019,86.429703,13.444321,-146.684525,,,
729706462.388403,-1.213955,-1.352269,165.496399,0.014023,-0.028076,1.004669,-0.009593,0.038003,-0.0019,86.429703,13.444321,-146.684525,,,
729706462.391761,-1.213955,-1.352269,165.496399,0.014023,-0.028076,1.004669,-0.009593,0.038003,-0.0019,86.429703,13.444321,-146.684525,,,
729706462.395163,-1.216609,-1.342886,165.497054,0.012344,-0.025101,1.002487,-0.006753,0.034332,0.00134,86.429703,13.444321,-146.684525,,,
729706462.3984,-1.220414,-1.334569,165.497558,0.012344,-0.025101,1.002487,-0.006753,0.034332,0.00134,86.429703,13.444321,-146.684525,,,
729706462.401762,-1.220414,-1.334569,165.497558,0.012344,-0.025101,1.002487,-0.006753,0.034332,0.00134,86.429703,13.444321,-146.684525,,,
729706462.405149,-1.222624,-1.326331,165.498271,0.010101,-0.022263,0.997269,-0.006307,0.029363,0.002645,86.429703,13.444321,-146.684525,,,
729706462.408476,-1.226257,-1.320787,165.49917,0.010101,-0.022263,0.997269,-0.006307,0.029363,0.002645,86.443497,13.401535,-146.646988,,,
729706462.411751,-1.226257,-1.320787,165.49917,0.010101,-0.022263,0.997269,-0.006307,0.029363,0.002645,86.443497,13.401535,-146.646988,,,
729706462.415098,-1.229079,-1.314878,165.499769,0.011429,-0.019104,0.994324,-0.011064,0.022653,0.000447,86.443497,13.401535,-146.646988,,,
729706462.418409,-1.233269,-1.310524,165.50051,0.011429,-0.019104,0.994324,-0.011064,0.022653,0.000447,86.443497,13.401535,-146.646988,,,
729706462.421741,-1.233269,-1.310524,165.50051,0.011429,-0.019104,0.994324,-0.011064,0.022653,0.000447,86.443497,13.401535,-146.646988,,,
729706462.425088,-1.236539,-1.303749,165.501945,0.008286,-0.01384,0.994324,-0.01308,0.028927,0.005076,86.443497,13.401535,-146.646988,,,
729706462.428503,-1.241722,-1.297513,165.503955,0.008286,-0.01384,0.994324,-0.01308,0.028927,0.005076,86.443497,13.401535,-146.646988,,,
729706462.43173,-1.241722,-1.297513,165.503955,0.008286,-0.01384,0.994324,-0.01308,0.028927,0.005076,86.443497,13.401535,-146.646988,,,
729706462.435103,-1.246995,-1.289751,165.506402,0.008057,-0.014908,0.994217,-0.020377,0.02993,0.008089,86.443497,13.401535,-146.646988,,,
729706462.438439,-1.254672,-1.281928,165.509893,0.008057,-0.014908,0.994217,-0.020377,0.02993,0.008089,86.443497,13.401535,-146.646988,,,
729706462.441736,-1.254672,-1.281928,165.509893,0.008057,-0.014908,0.994217,-0.020377,0.02993,0.008089,86.443497,13.401535,-146.646988,,,
729706462.445175,-1.263179,-1.273044,165.514903,0.008209,-0.01474,0.993134,-0.031455,0.033542,0.018854,86.443497,13.401535,-146.646988,,,
729706462.448452,-1.274294,-1.263873,165.52075,0.008209,-0.01474,0.993134,-0.031455,0.033542,0.018854,86.605774,13.347122,-146.779297,,,
729706462.451744,-1.274294,-1.263873,165.52075,0.008209,-0.01474,0.993134,-0.031455,0.033542,0.018854,86.605774,13.347122,-146.779297,,,
729706462.455012,-1.286615,-1.253994,165.527206,0.006271,-0.015427,0.989868,-0.044883,0.038422,0.023408,86.605774,13.347122,-146.779297,,,
729706462.458419,-1.300655,-1.243074,165.534444,0.006271,-0.015427,0.989868,-0.044883,0.038422,0.023408,86.605774,13.347122,-146.779297,,,
729706462.461755,-1.300655,-1.243074,165.534444,0.006271,-0.015427,0.989868,-0.044883,0.038422,0.023408,86.605774,13.347122,-146.779297,,,
729706462.465085,-1.314136,-1.233625,165.541677,0.007523,-0.015671,0.990448,-0.046832,0.034571,0.023567,86.605774,13.347122,-146.779297,,,
729706462.468406,-1.328357,-1.223436,165.548306,0.007523,-0.015671,0.990448,-0.046832,0.034571,0.023567,86.605774,13.347122,-146.779297,,,
729706462.47181,-1.328357,-1.223436,165.548306,0.007523,-0.015671,0.990448,-0.046832,0.034571,0.023567,86.605774,13.347122,-146.779297,,,
729706462.475072,-1.34149,-1.216942,165.554764,0.012054,-0.019333,0.989807,-0.043382,0.02117,0.022601,86.605774,13.347122,-146.779297,,,
729706462.478404,-1.353519,-1.211416,165.561273,0.012054,-0.019333,0.989807,-0.043382,0.02117,0.022601,86.605774,13.347122,-146.779297,,,
729706462.481761,-1.353519,-1.211416,165.561273,0.012054,-0.019333,0.989807,-0.043382,0.02117,0.022601,86.605774,13.347122,-146.779297,,,
729706462.485135,-1.363563,-1.211285,165.567398,0.009689,-0.021729,0.987946,-0.029119,-0.002651,0.019967,86.605774,13.347122,-146.779297,,,
729706462.488393,-1.370296,-1.212439,165.57343,0.009689,-0.021729,0.987946,-0.029119,-0.002651,0.019967,86.605774,13.347122,-146.779297,,,
729706462.491456,-1.370296,-1.212439,165.57343,0.009689,-0.021729,0.987946,-0.029119,-0.002651,0.019967,86.677185,13.372589,-147.120682,,,
729706462.495155,-1.375494,-1.218537,165.579282,0.013275,-0.024185,0.986816,-0.01601,-0.022971,0.018754,86.677185,13.372589,-147.120682,,,
729706462.498392,-1.378044,-1.224436,165.584587,0.013275,-0.024185,0.986816,-0.01601,-0.022971,0.018754,86.677185,13.372589,-147.120682,,,
729706462.501763,-1.378044,-1.224436,165.584587,0.013275,-0.024185,0.986816,-0.01601,-0.022971,0.018754,86.677185,13.372589,-147.120682,,,
729706462.505076,-1.38062,-1.23407,165.589687,0.020233,-0.02536,0.985138,-0.008739,-0.032653,0.017566,86.677185,13.372589,-147.120682,,,
729706462.508406,-1.382304,-1.241356,165.595187,0.020233,-0.02536,0.985138,-0.008739,-0.032653,0.017566,86.677185,13.372589,-147.120682,,,
729706462.511818,-1.382304,-1.241356,165.595187,0.020233,-0.02536,0.985138,-0.008739,-0.032653,0.017566,86.677185,13.372589,-147.120682,,,
729706462.515065,-1.386144,-1.250328,165.600958,0.023468,-0.022278,0.986465,-0.013948,-0.025187,0.020057,86.677185,13.372589,-147.120682,,,
729706462.518408,-1.390304,-1.254851,165.60724,0.023468,-0.022278,0.986465,-0.013948,-0.025187,0.020057,86.677185,13.372589,-147.120682,,,
729706462.521742,-1.390304,-1.254851,165.60724,0.023468,-0.022278,0.986465,-0.013948,-0.025187,0.020057,86.677185,13.372589,-147.120682,,,
729706462.525081,-1.398056,-1.259143,165.614249,0.028976,-0.020981,0.987228,-0.030312,-0.007098,0.025879,86.677185,13.372589,-147.120682,,,
729706462.528406,-1.406736,-1.258374,165.621824,0.028976,-0.020981,0.987228,-0.030312,-0.007098,0.025879,86.677185,13.372589,-147.120682,,,
729706462.531737,-1.406736,-1.258374,165.621824,0.028976,-0.020981,0.987228,-0.030312,-0.007098,0.025879,86.534958,13.354416,-147.0867,,,
729706462.535068,-1.418455,-1.259158,165.629344,0.031387,-0.024658,0.984283,-0.042916,0.001442,0.026186,86.534958,13.354416,-147.0867,,,
729706462.538463,-1.43124,-1.256106,165.63707,0.031387,-0.024658,0.984283,-0.042916,0.001442,0.026186,86.534958,13.354416,-147.0867,,,
729706462.541741,-1.43124,-1.256106,165.63707,0.031387,-0.024658,0.984283,-0.042916,0.001442,0.026186,86.534958,13.354416,-147.0867,,,
729706462.545084,-1.446934,-1.255658,165.644369,0.034393,-0.025314,0.981049,-0.054162,0.003439,0.023959,86.534958,13.354416,-147.0867,,,
729706462.5484,-1.462248,-1.253496,165.651277,0.034393,-0.025314,0.981049,-0.054162,0.003439,0.023959,86.534958,13.354416,-147.0867,,,
729706462.551817,-1.462248,-1.253496,165.651277,0.034393,-0.025314,0.981049,-0.054162,0.003439,0.023959,86.534958,13.354416,-147.0867,,,
729706462.555085,-1.480249,-1.25485,165.657493,0.036224,-0.026535,0.980331,-0.065164,-0.004982,0.019749,86.534958,13.354416,-147.0867,,,
729706462.558433,-1.498982,-1.256118,165.662666,0.036224,-0.026535,0.980331,-0.065164,-0.004982,0.019749,86.534958,13.354416,-147.0867,,,
729706462.561831,-1.498982,-1.256118,165.662666,0.036224,-0.026535,0.980331,-0.065164,-0.004982,0.019749,86.534958,13.354416,-147.0867,,,
729706462.565118,-1.519735,-1.260003,165.665691,0.039658,-0.024643,0.977173,-0.075479,-0.009411,0.005398,86.534958,13.354416,-147.0867,,,
729706462.568413,-1.541543,-1.262019,165.666498,0.039658,-0.024643,0.977173,-0.075479,-0.009411,0.005398,86.534958,13.354416,-147.0867,,,
729706462.571779,-1.541543,-1.262019,165.666498,0.039658,-0.024643,0.977173,-0.075479,-0.009411,0.005398,86.494598,13.308441,-146.91246,,,
729706462.575097,-1.565269,-1.26563,165.665789,0.042252,-0.02417,0.979935,-0.085905,-0.008157,-0.004621,86.494598,13.308441,-146.91246,,,
729706462.578447,-1.590502,-1.268211,165.663745,0.042252,-0.02417,0.979935,-0.085905,-0.008157,-0.004621,86.494598,13.308441,-146.91246,,,
729706462.581772,-1.590502,-1.268211,165.663745,0.042252,-0.02417,0.979935,-0.085905,-0.008157,-0.004621,86.494598,13.308441,-146.91246,,,
729706462.585069,-1.617281,-1.270963,165.660446,0.039795,-0.027466,0.982681,-0.095842,-0.004543,-0.012971,86.494598,13.308441,-146.91246,,,
729706462.588405,-1.644583,-1.274005,165.656388,0.039795,-0.027466,0.982681,-0.095842,-0.004543,-0.012971,86.494598,13.308441,-146.91246,,,
729706462.591787,-1.644583,-1.274005,165.656388,0.039795,-0.027466,0.982681,-0.095842,-0.004543,-0.012971,86.494598,13.308441,-146.91246,,,
729706462.595063,-1.672993,-1.278212,165.651886,0.041519,-0.033066,0.986832,-0.100194,-0.012311,-0.015967,86.494598,13.308441,-146.91246,,,
729706462.598398,-1.701601,-1.283592,165.646476,0.041519,-0.033066,0.986832,-0.100194,-0.012311,-0.015967,86.494598,13.308441,-146.91246,,,
729706462.601734,-1.701601,-1.283592,165.646476,0.041519,-0.033066,0.986832,-0.100194,-0.012311,-0.015967,86.494598,13.308441,-146.91246,,,
729706462.605108,-1.732685,-1.288564,165.640235,0.038162,-0.031143,0.989685,-0.112159,-0.014749,-0.021613,86.494598,13.308441,-146.91246,,,
729706462.608397,-1.765659,-1.295675,165.633141,0.038162,-0.031143,0.989685,-0.112159,-0.014749,-0.021613,86.494598,13.308441,-146.91246,,,
729706462.611733,-1.765659,-1.295675,165.633141,0.038162,-0.031143,0.989685,-0.112159,-0.014749,-0.021613,86.494598,13.308441,-146.91246,,,
729706462.615066,-1.802868,-1.302624,165.624929,0.03447,-0.025421,0.985245,-0.136381,-0.021127,-0.029073,86.502289,13.816315,-147.207321,,,
729706462.618403,-1.843788,-1.311358,165.615879,0.03447,-0.025421,0.985245,-0.136381,-0.021127,-0.029073,86.502289,13.816315,-147.207321,,,
729706462.621733,-1.843788,-1.311358,165.615879,0.03447,-0.025421,0.985245,-0.136381,-0.021127,-0.029073,86.502289,13.816315,-147.207321,,,
729706462.625068,-1.890248,-1.318378,165.605815,0.033829,-0.02475,0.981415,-0.171575,-0.018981,-0.035593,86.502289,13.816315,-147.207321,,,
729706462.628402,-1.94136,-1.325835,165.594778,0.033829,-0.02475,0.981415,-0.171575,-0.018981,-0.035593,86.502289,13.816315,-147.207321,,,
729706462.631767,-1.94136,-1.325835,165.594778,0.033829,-0.02475,0.981415,-0.171575,-0.018981,-0.035593,86.502289,13.816315,-147.207321,,,
729706462.63506,-1.998819,-1.329699,165.583507,0.032257,-0.025131,0.982208,-0.212007,-0.005789,-0.036674,86.502289,13.816315,-147.207321,,,
729706462.638401,-2.061503,-1.333798,165.571253,0.032257,-0.025131,0.982208,-0.212007,-0.005789,-0.036674,86.502289,13.816315,-147.207321,,,
729706462.641745,-2.061503,-1.333798,165.571253,0.032257,-0.025131,0.982208,-0.212007,-0.005789,-0.036674,86.502289,13.816315,-147.207321,,,
729706462.64512,-2.130863,-1.334861,165.557717,0.033768,-0.024307,0.976608,-0.254145,0.002523,-0.04509,86.502289,13.816315,-147.207321,,,
729706462.648394,-2.205926,-1.336797,165.542755,0.033768,-0.024307,0.976608,-0.254145,0.002523,-0.04509,86.502289,13.816315,-147.207321,,,
729706462.651755,-2.205926,-1.336797,165.542755,0.033768,-0.024307,0.976608,-0.254145,0.002523,-0.04509,86.502289,13.816315,-147.207321,,,
729706462.655079,-2.288192,-1.334728,165.527107,0.028839,-0.022797,0.970963,-0.29714,0.014658,-0.049499,86.611526,14.248947,-147.352829,,,
729706462.658399,-2.375923,-1.332448,165.511004,0.028839,-0.022797,0.970963,-0.29714,0.014658,-0.049499,86.611526,14.248947,-147.352829,,,
729706462.661757,-2.375923,-1.332448,165.511004,0.028839,-0.022797,0.970963,-0.29714,0.014658,-0.049499,86.611526,14.248947,-147.352829,,,
729706462.665082,-2.47451,-1.325012,165.494613,0.022171,-0.022705,0.977173,-0.365222,0.037423,-0.050533,86.611526,14.248947,-147.352829,,,
729706462.668398,-2.584178,-1.317796,165.478131,0.022171,-0.022705,0.977173,-0.365222,0.037423,-0.050533,86.611526,14.248947,-147.352829,,,
729706462.67184,-2.584178,-1.317796,165.478131,0.022171,-0.022705,0.977173,-0.365222,0.037423,-0.050533,86.611526,14.248947,-147.352829,,,
729706462.675086,-2.705969,-1.309442,165.461616,0.021667,-0.026993,0.959579,-0.443759,0.032923,-0.049631,86.611526,14.248947,-147.352829,,,
729706462.678449,-2.837397,-1.302726,165.445884,0.021667,-0.026993,0.959579,-0.443759,0.032923,-0.049631,86.611526,14.248947,-147.352829,,,
729706462.681755,-2.837397,-1.302726,165.445884,0.021667,-0.026993,0.959579,-0.443759,0.032923,-0.049631,86.611526,14.248947,-147.352829,,,
729706462.685117,-2.981045,-1.292531,165.432344,0.018585,-0.033112,0.966736,-0.522317,0.045772,-0.033235,86.611526,14.248947,-147.352829,,,
729706462.688396,-3.13637,-1.281619,165.421137,0.018585,-0.033112,0.966736,-0.522317,0.045772,-0.033235,86.611526,14.248947,-147.352829,,,
729706462.691763,-3.13637,-1.281619,165.421137,0.018585,-0.033112,0.966736,-0.522317,0.045772,-0.033235,86.611526,14.248947,-147.352829,,,
729706462.695063,-3.306684,-1.270405,165.412324,0.011307,-0.041916,0.950882,-0.61636,0.039674,-0.015089,86.501953,15.274887,-147.391388,,,
729706462.698398,-3.486937,-1.26285,165.405443,0.011307,-0.041916,0.950882,-0.61636,0.039674,-0.015089,86.501953,15.274887,-147.391388,,,
729706462.701758,-3.486937,-1.26285,165.405443,0.011307,-0.041916,0.950882,-0.61636,0.039674,-0.015089,86.501953,15.274887,-147.391388,,,
729706462.705058,-3.680501,-1.257164,165.400208,0.013443,-0.050751,0.936523,-0.697122,0.020424,-0.002287,86.501953,15.274887,-147.391388,,,
729706462.708339,-3.884967,-1.253407,165.39678,0.013443,-0.050751,0.936523,-0.697122,0.020424,-0.002287,86.501953,15.274887,-147.391388,,,
729706462.711804,-3.884967,-1.253407,165.39678,0.013443,-0.050751,0.936523,-0.697122,0.020424,-0.002287,86.501953,15.274887,-147.391388,,,
729706462.715065,-4.102678,-1.251083,165.395948,0.009201,-0.062912,0.930786,-0.777227,0.004583,0.017146,86.501953,15.274887,-147.391388,,,
729706462.7184,-4.331363,-1.252964,165.396997,0.009201,-0.062912,0.930786,-0.777227,0.004583,0.017146,86.501953,15.274887,-147.391388,,,
729706462.721766,-4.331363,-1.252964,165.396997,0.009201,-0.062912,0.930786,-0.777227,0.004583,0.017146,86.501953,15.274887,-147.391388,,,
729706462.725127,-4.570642,-1.258162,165.399045,0.009232,-0.078384,0.920639,-0.850395,-0.019173,0.025759,86.501953,15.274887,-147.391388,,,
729706462.728393,-4.819466,-1.263246,165.401848,0.009232,-0.078384,0.920639,-0.850395,-0.019173,0.025759,86.501953,15.274887,-147.391388,,,
729706462.731731,-4.819466,-1.263246,165.401848,0.009232,-0.078384,0.920639,-0.850395,-0.019173,0.025759,86.501953,15.274887,-147.391388,,,
729706462.735084,-5.075586,-1.266892,165.404659,0.018875,-0.084381,0.928925,-0.901425,-0.009335,0.027067,86.354507,16.727966,-147.388214,,,
729706462.738394,-5.336082,-1.269868,165.406732,0.018875,-0.084381,0.928925,-0.901425,-0.009335,0.027067,86.354507,16.727966,-147.388214,,,
729706462.741754,-5.336082,-1.269868,165.406732,0.018875,-0.084381,0.928925,-0.901425,-0.009335,0.027067,86.354507,16.727966,-147.388214,,,
729706462.745075,-5.597649,-1.272211,165.407585,0.022934,-0.090439,0.940308,-0.909312,-0.004274,0.018906,86.354507,16.727966,-147.388214,,,
729706462.748398,-5.855773,-1.27336,165.407269,0.022934,-0.090439,0.940308,-0.909312,-0.004274,0.018906,86.354507,16.727966,-147.388214,,,
729706462.751808,-5.855773,-1.27336,165.407269,0.022934,-0.090439,0.940308,-0.909312,-0.004274,0.018906,86.354507,16.727966,-147.388214,,,
729706462.755064,-6.106625,-1.272394,165.405782,0.033783,-0.106552,0.962662,-0.859053,0.011259,0.009666,86.354507,16.727966,-147.388214,,,
729706462.7584,-6.348461,-1.268617,165.403253,0.033783,-0.106552,0.962662,-0.859053,0.011259,0.009666,86.354507,16.727966,-147.388214,,,
729706462.761739,-6.348461,-1.268617,165.403253,0.033783,-0.106552,0.962662,-0.859053,0.011259,0.009666,86.354507,16.727966,-147.388214,,,
729706462.765136,-6.580084,-1.261893,165.399742,0.03566,-0.124969,0.981125,-0.788299,0.032554,0.00118,86.354507,16.727966,-147.388214,,,
729706462.768391,-6.801205,-1.254218,165.394298,0.03566,-0.124969,0.981125,-0.788299,0.032554,0.00118,86.354507,16.727966,-147.388214,,,
729706462.771736,-6.801205,-1.254218,165.394298,0.03566,-0.124969,0.981125,-0.788299,0.032554,0.00118,86.354507,16.727966,-147.388214,,,
729706462.775076,-7.012508,-1.24877,165.386423,0.04039,-0.132111,0.98642,-0.720171,0.019138,-0.017297,86.354507,16.727966,-147.388214,,,
729706462.778403,-7.214645,-1.248531,165.375613,0.04039,-0.132111,0.98642,-0.720171,0.019138,-0.017297,86.568466,18.315628,-147.103806,,,
729706462.781732,-7.214645,-1.248531,165.375613,0.04039,-0.132111,0.98642,-0.720171,0.019138,-0.017297,86.568466,18.315628,-147.103806,,,
729706462.785084,-7.410115,-1.255245,165.361426,0.042206,-0.134338,0.973953,-0.673858,-0.026109,-0.041516,86.568466,18.315628,-147.103806,,,
729706462.788396,-7.602068,-1.269783,165.344368,0.042206,-0.134338,0.973953,-0.673858,-0.026109,-0.041516,86.568466,18.315628,-147.103806,,,
729706462.791792,-7.602068,-1.269783,165.344368,0.042206,-0.134338,0.973953,-0.673858,-0.026109,-0.041516,86.568466,18.315628,-147.103806,,,
729706462.795059,-7.792607,-1.292552,165.325307,0.026413,-0.139389,0.958496,-0.663936,-0.081243,-0.055049,86.568466,18.315628,-147.103806,,,
729706462.798397,-7.984054,-1.32283,165.304305,0.026413,-0.139389,0.958496,-0.663936,-0.081243,-0.055049,86.568466,18.315628,-147.103806,,,
729706462.801742,-7.984054,-1.32283,165.304305,0.026413,-0.139389,0.958496,-0.663936,-0.081243,-0.055049,86.568466,18.315628,-147.103806,,,
729706462.805117,-8.177879,-1.360544,165.281152,0.018707,-0.143478,0.959091,-0.680514,-0.130484,-0.068636,86.568466,18.315628,-147.103806,,,
729706462.808397,-8.375576,-1.405929,165.256573,0.018707,-0.143478,0.959091,-0.680514,-0.130484,-0.068636,86.568466,18.315628,-147.103806,,,
729706462.811757,-8.375576,-1.405929,165.256573,0.018707,-0.143478,0.959091,-0.680514,-0.130484,-0.068636,86.568466,18.315628,-147.103806,,,
729706462.815082,-8.579483,-1.457897,165.231857,0.016556,-0.144745,0.958679,-0.723519,-0.175636,-0.067189,86.568466,18.315628,-147.103806,,,
729706462.818399,-8.790938,-1.515423,165.208564,0.016556,-0.144745,0.958679,-0.723519,-0.175636,-0.067189,86.154648,19.708969,-147.783981,,,
729706462.821726,-8.790938,-1.515423,165.208564,0.016556,-0.144745,0.958679,-0.723519,-0.175636,-0.067189,86.154648,19.708969,-147.783981,,,
729706462.825066,-9.012034,-1.577424,165.18785,0.00473,-0.153732,0.954651,-0.790491,-0.209164,-0.045971,86.154648,19.708969,-147.783981,,,
729706462.828398,-9.245093,-1.642356,165.171095,0.00473,-0.153732,0.954651,-0.790491,-0.209164,-0.045971,86.154648,19.708969,-147.783981,,,
729706462.831834,-9.245093,-1.642356,165.171095,0.00473,-0.153732,0.954651,-0.790491,-0.209164,-0.045971,86.154648,19.708969,-147.783981,,,
729706462.83509,-9.490929,-1.709112,165.159088,-0.003128,-0.163788,0.946274,-0.878803,-0.226948,-0.008812,86.154648,19.708969,-147.783981,,,
729706462.8384,-9.750184,-1.776952,165.151803,-0.003128,-0.163788,0.946274,-0.878803,-0.226948,-0.008812,86.154648,19.708969,-147.783981,,,
729706462.841866,-9.750184,-1.776952,165.151803,-0.003128,-0.163788,0.946274,-0.878803,-0.226948,-0.008812,86.154648,19.708969,-147.783981,,,
729706462.845132,-10.022935,-1.844655,165.149635,0.000107,-0.174316,0.943665,-0.971927,-0.232049,0.031445,86.154648,19.708969,-147.783981,,,
729706462.848402,-10.308568,-1.912271,165.152254,0.000107,-0.174316,0.943665,-0.971927,-0.232049,0.031445,86.154648,19.708969,-147.783981,,,
729706462.851751,-10.308568,-1.912271,165.152254,0.000107,-0.174316,0.943665,-0.971927,-0.232049,0.031445,86.154648,19.708969,-147.783981,,,
729706462.855063,-10.607333,-1.97987,165.158158,0.009567,-0.185364,0.942184,-1.062783,-0.236346,0.059394,86.154648,19.708969,-147.783981,,,
729706462.858399,-10.91939,-2.046461,165.166618,0.009567,-0.185364,0.942184,-1.062783,-0.236346,0.059394,85.651459,21.802841,-147.761749,,,
729706462.861729,-10.91939,-2.046461,165.166618,0.009567,-0.185364,0.942184,-1.062783,-0.236346,0.059394,85.651459,21.802841,-147.761749,,,
729706462.865066,-11.243583,-2.111202,165.176783,0.019226,-0.191193,0.94104,-1.147023,-0.226232,0.076559,85.651459,21.802841,-147.761749,,,
729706462.86846,-11.57823,-2.175259,165.186233,0.019226,-0.191193,0.94104,-1.147023,-0.226232,0.076559,85.651459,21.802841,-147.761749,,,
729706462.871731,-11.57823,-2.175259,165.186233,0.019226,-0.191193,0.94104,-1.147023,-0.226232,0.076559,85.651459,21.802841,-147.761749,,,
729706462.87506,-11.922089,-2.239017,165.193286,0.036575,-0.195526,0.944595,-1.211485,-0.221193,0.065182,85.651459,21.802841,-147.761749,,,
729706462.878395,-12.27408,-2.302054,165.196966,0.036575,-0.195526,0.944595,-1.211485,-0.221193,0.065182,85.651459,21.802841,-147.761749,,,
729706462.881823,-12.27408,-2.302054,165.196966,0.036575,-0.195526,0.944595,-1.211485,-0.221193,0.065182,85.651459,21.802841,-147.761749,,,
729706462.885083,-12.633158,-2.365421,165.195608,0.053192,-0.203262,0.943954,-1.261468,-0.216055,0.03558,85.651459,21.802841,-147.761749,,,
729706462.888451,-12.998145,-2.429824,165.188395,0.053192,-0.203262,0.943954,-1.261468,-0.216055,0.03558,85.651459,21.802841,-147.761749,,,
729706462.891736,-12.998145,-2.429824,165.188395,0.053192,-0.203262,0.943954,-1.261468,-0.216055,0.03558,85.651459,21.802841,-147.761749,,,
729706462.89513,-13.367734,-2.494727,165.176289,0.051208,-0.221161,0.947739,-1.294213,-0.211409,0.00667,85.651459,21.802841,-147.761749,,,
729706462.898413,-13.73987,-2.55933,165.160337,0.051208,-0.221161,0.947739,-1.294213,-0.211409,0.00667,85.179688,24.500549,-147.531525,,,
729706462.901751,-13.73987,-2.55933,165.160337,0.051208,-0.221161,0.947739,-1.294213,-0.211409,0.00667,85.179688,24.500549,-147.531525,,,
729706462.90507,-14.113104,-2.623085,165.141622,0.048737,-0.248001,0.956802,-1.302036,-0.200137,-0.008617,85.179688,24.500549,-147.531525,,,
729706462.908445,-14.486023,-2.686166,165.121127,0.048737,-0.248001,0.956802,-1.302036,-0.200137,-0.008617,85.179688,24.500549,-147.531525,,,
729706462.911724,-14.486023,-2.686166,165.121127,0.048737,-0.248001,0.956802,-1.302036,-0.200137,-0.008617,85.179688,24.500549,-147.531525,,,
729706462.91507,-14.856539,-2.74963,165.100339,0.043625,-0.272491,0.960983,-1.284813,-0.20139,-0.008286,85.179688,24.500549,-147.531525,,,
729706462.918438,-15.22407,-2.813706,165.08118,0.043625,-0.272491,0.960983,-1.284813,-0.20139,-0.008286,85.179688,24.500549,-147.531525,,,
729706462.921818,-15.22407,-2.813706,165.08118,0.043625,-0.272491,0.960983,-1.284813,-0.20139,-0.008286,85.179688,24.500549,-147.531525,,,
729706462.925085,-15.589971,-2.876901,165.06589,0.033768,-0.286407,0.960022,-1.272557,-0.201728,0.020111,85.179688,24.500549,-147.531525,,,
729706462.92847,-15.953775,-2.938161,165.055696,0.033768,-0.286407,0.960022,-1.272557,-0.201728,0.020111,85.179688,24.500549,-147.531525,,,
729706462.931749,-15.953775,-2.938161,165.055696,0.033768,-0.286407,0.960022,-1.272557,-0.201728,0.020111,85.179688,24.500549,-147.531525,,,
729706462.935144,-16.314638,-2.997779,165.050321,0.026764,-0.289825,0.957336,-1.250739,-0.199338,0.05407,85.179688,24.500549,-147.531525,,,
729706462.938407,-16.672291,-3.056541,165.049458,0.026764,-0.289825,0.957336,-1.250739,-0.199338,0.05407,85.179688,24.500549,-147.531525,,,
729706462.941748,-16.672291,-3.056541,165.049458,0.026764,-0.289825,0.957336,-1.250739,-0.199338,0.05407,84.7491,26.589218,-147.616745,,,
729706462.945088,-17.0273,-3.114845,165.052271,0.033752,-0.294052,0.958511,-1.23127,-0.203691,0.080095,84.7491,26.589218,-147.616745,,,
729706462.948474,-17.380983,-3.172262,165.057006,0.033752,-0.294052,0.958511,-1.23127,-0.203691,0.080095,84.7491,26.589218,-147.616745,,,
729706462.951798,-17.380983,-3.172262,165.057006,0.033752,-0.294052,0.958511,-1.23127,-0.203691,0.080095,84.7491,26.589218,-147.616745,,,
729706462.955086,-17.735148,-3.227575,165.061314,0.042679,-0.301895,0.956787,-1.234995,-0.188456,0.079798,84.7491,26.589218,-147.616745,,,
729706462.958453,-18.09198,-3.280477,165.063678,0.042679,-0.301895,0.956787,-1.234995,-0.188456,0.079798,84.7491,26.589218,-147.616745,,,
729706462.961735,-18.09198,-3.280477,165.063678,0.042679,-0.301895,0.956787,-1.234995,-0.188456,0.079798,84.7491,26.589218,-147.616745,,,
729706462.965094,-18.452425,-3.33111,165.063455,0.0448,-0.312378,0.957123,-1.260856,-0.16714,0.066338,84.7491,26.589218,-147.616745,,,
729706462.968486,-18.816235,-3.379,165.061206,0.0448,-0.312378,0.957123,-1.260856,-0.16714,0.066338,84.7491,26.589218,-147.616745,,,
729706462.971732,-18.816235,-3.379,165.061206,0.0448,-0.312378,0.957123,-1.260856,-0.16714,0.066338,84.7491,26.589218,-147.616745,,,
729706462.975174,-19.181246,-3.4234,165.058303,0.047073,-0.32724,0.963562,-1.268799,-0.141262,0.064577,84.7491,26.589218,-147.616745,,,
729706462.978445,-19.544853,-3.463626,165.05586,0.047073,-0.32724,0.963562,-1.268799,-0.141262,0.064577,84.7491,26.589218,-147.616745,,,
729706462.981747,-19.544853,-3.463626,165.05586,0.047073,-0.32724,0.963562,-1.268799,-0.141262,0.064577,84.390579,29.304276,-147.054047,,,
729706462.98508,-19.906005,-3.500388,165.055127,0.039505,-0.353271,0.979477,-1.250332,-0.121052,0.076412,84.390579,29.304276,-147.054047,,,
729706462.988406,-19.906005,-3.500388,165.058345,0.039505,-0.353271,0.979477,-1.250332,-0.121052,0.076412,84.390579,29.304276,-147.054047,,,
729706462.991738,-20.26352,-3.535295,165.058345,0.039505,-0.353271,0.979477,-1.250332,-0.121052,0.076412,84.390579,29.304276,-147.054047,,,
729706462.995087,-20.616891,-3.568448,165.067443,0.037018,-0.372101,0.969559,-1.218446,-0.123275,0.114296,84.390579,29.304276,-147.054047,,,
729706462.998411,-20.616891,-3.600087,165.083627,0.037018,-0.372101,0.969559,-1.218446,-0.123275,0.114296,84.390579,29.304276,-147.054047,,,
729706463.00183,-20.96584,-3.600087,165.083627,0.037018,-0.372101,0.969559,-1.218446,-0.123275,0.114296,84.390579,29.304276,-147.054047,,,
729706463.005077,-21.311162,-3.630896,165.107616,0.031448,-0.385895,0.956238,-1.189277,-0.137725,0.164296,84.390579,29.304276,-147.054047,,,
729706463.008403,-21.311162,-3.630896,165.107616,0.031448,-0.385895,0.956238,-1.189277,-0.137725,0.164296,84.390579,29.304276,-147.054047,,,
729706463.011748,-21.654086,-3.660817,165.139583,0.031448,-0.385895,0.956238,-1.189277,-0.137725,0.164296,84.390579,29.304276,-147.054047,,,
729706463.015127,-21.995094,-3.690496,165.179169,0.028412,-0.394577,0.945709,-1.172996,-0.157123,0.21341,84.390579,29.304276,-147.054047,,,
729706463.01839,-21.995094,-3.690496,165.179169,0.028412,-0.394577,0.945709,-1.172996,-0.157123,0.21341,84.390579,29.304276,-147.054047,,,
729706463.021739,-22.335248,-3.72092,165.224992,0.028412,-0.394577,0.945709,-1.172996,-0.157123,0.21341,84.126907,31.661407,-147.088882,,,
729706463.02507,-22.674486,-3.753165,165.275028,0.035278,-0.397827,0.930695,-1.165002,-0.182913,0.240677,84.126907,31.661407,-147.088882,,,
729706463.028536,-22.674486,-3.788145,165.32637,0.035278,-0.397827,0.930695,-1.165002,-0.182913,0.240677,84.126907,31.661407,-147.088882,,,
729706463.031737,-23.013201,-3.788145,165.32637,0.035278,-0.397827,0.930695,-1.165002,-0.182913,0.240677,84.126907,31.661407,-147.088882,,,
729706463.035098,-23.351953,-3.825942,165.376255,0.050308,-0.399796,0.924362,-1.165955,-0.200604,0.232106,84.126907,31.661407,-147.088882,,,
729706463.038417,-23.351953,-3.825942,165.376255,0.050308,-0.399796,0.924362,-1.165955,-0.200604,0.232106,84.126907,31.661407,-147.088882,,,
729706463.041807,-23.688779,-3.865794,165.422563,0.050308,-0.399796,0.924362,-1.165955,-0.200604,0.232106,84.126907,31.661407,-147.088882,,,
729706463.045089,-24.021088,-3.906344,165.463397,0.065277,-0.404373,0.934555,-1.136992,-0.191891,0.196121,84.126907,31.661407,-147.088882,,,
729706463.048419,-24.021088,-3.906344,165.463397,0.065277,-0.404373,0.934555,-1.136992,-0.191891,0.196121,84.126907,31.661407,-147.088882,,,
729706463.051758,-24.348682,-3.946923,165.498425,0.065277,-0.404373,0.934555,-1.136992,-0.191891,0.196121,84.126907,31.661407,-147.088882,,,
729706463.055161,-24.671223,-3.987875,165.528143,0.072906,-0.41481,0.942352,-1.103825,-0.180437,0.161096,84.126907,31.661407,-147.088882,,,
729706463.058414,-24.671223,-3.987875,165.528143,0.072906,-0.41481,0.942352,-1.103825,-0.180437,0.161096,84.126907,31.661407,-147.088882,,,
729706463.061755,-24.989279,-4.029244,165.554095,0.072906,-0.41481,0.942352,-1.103825,-0.180437,0.161096,84.126907,31.661407,-147.088882,,,
729706463.065072,-25.305328,-4.070995,165.578959,0.066772,-0.430649,0.928894,-1.089594,-0.180773,0.154387,83.926331,33.737991,-146.663147,,,
729706463.068396,-25.305328,-4.070995,165.578959,0.066772,-0.430649,0.928894,-1.089594,-0.180773,0.154387,83.926331,33.737991,-146.663147,,,
729706463.071772,-25.620322,-4.114464,165.60464,0.066772,-0.430649,0.928894,-1.089594,-0.180773,0.154387,83.926331,33.737991,-146.663147,,,
729706463.07507,-25.935331,-4.160351,165.633623,0.054031,-0.445236,0.909775,-1.087421,-0.208474,0.17624,83.926331,33.737991,-146.663147,,,
729706463.078424,-25.935331,-4.160351,165.633623,0.054031,-0.445236,0.909775,-1.087421,-0.208474,0.17624,83.926331,33.737991,-146.663147,,,
729706463.081799,-26.252146,-4.207965,165.668139,0.054031,-0.445236,0.909775,-1.087421,-0.208474,0.17624,83.926331,33.737991,-146.663147,,,
729706463.085076,-26.573117,-4.256963,165.709528,0.046539,-0.452301,0.888611,-1.112331,-0.240603,0.222329,83.926331,33.737991,-146.663147,,,
729706463.08842,-26.573117,-4.256963,165.709528,0.046539,-0.452301,0.888611,-1.112331,-0.240603,0.222329,83.926331,33.737991,-146.663147,,,
729706463.091811,-26.899424,-4.306559,165.758616,0.046539,-0.452301,0.888611,-1.112331,-0.240603,0.222329,83.926331,33.737991,-146.663147,,,
729706463.095063,-27.233446,-4.356459,165.815145,0.040878,-0.460495,0.871017,-1.161464,-0.268,0.273363,83.926331,33.737991,-146.663147,,,
729706463.098412,-27.233446,-4.356459,165.815145,0.040878,-0.460495,0.871017,-1.161464,-0.268,0.273363,83.926331,33.737991,-146.663147,,,
729706463.101758,-27.5776,-4.407219,165.878936,0.040878,-0.460495,0.871017,-1.161464,-0.268,0.273363,83.926331,33.737991,-146.663147,,,
729706463.10507,-27.934528,-4.459608,165.949011,0.040909,-0.466919,0.849976,-1.246126,-0.30206,0.319589,83.383392,35.831848,-145.904495,,,
729706463.10842,-27.934528,-4.459608,165.949011,0.040909,-0.466919,0.849976,-1.246126,-0.30206,0.319589,83.383392,35.831848,-145.904495,,,
729706463.11174,-28.307478,-4.515193,166.022893,0.040909,-0.466919,0.849976,-1.246126,-0.30206,0.319589,83.383392,35.831848,-145.904495,,,
729706463.11507,-28.698577,-4.574752,166.09831,0.050156,-0.473236,0.822601,-1.371266,-0.338036,0.340023,83.383392,35.831848,-145.904495,,,
729706463.118501,-28.698577,-4.574752,166.09831,0.050156,-0.473236,0.822601,-1.371266,-0.338036,0.340023,83.383392,35.831848,-145.904495,,,
729706463.121727,-29.109147,-4.639399,166.173044,0.050156,-0.473236,0.822601,-1.371266,-0.338036,0.340023,83.383392,35.831848,-145.904495,,,
729706463.125068,-29.539307,-4.709966,166.245088,0.061462,-0.479904,0.803635,-1.508398,-0.373615,0.336436,83.383392,35.831848,-145.904495,,,
729706463.128413,-29.539307,-4.709966,166.245088,0.061462,-0.479904,0.803635,-1.508398,-0.373615,0.336436,83.383392,35.831848,-145.904495,,,
729706463.131811,-29.987103,-4.785901,166.312212,0.061462,-0.479904,0.803635,-1.508398,-0.373615,0.336436,83.383392,35.831848,-145.904495,,,
729706463.135064,-30.449597,-4.86614,166.371646,0.078766,-0.486969,0.803345,-1.614061,-0.380035,0.301363,83.383392,35.831848,-145.904495,,,
729706463.13842,-30.449597,-4.86614,166.371646,0.078766,-0.486969,0.803345,-1.614061,-0.380035,0.301363,83.383392,35.831848,-145.904495,,,
729706463.141747,-30.922942,-4.950687,166.420835,0.078766,-0.486969,0.803345,-1.614061,-0.380035,0.301363,83.383392,35.831848,-145.904495,,,
729706463.145156,-31.402174,-5.040359,166.458623,0.096085,-0.498611,0.818527,-1.660643,-0.377272,0.240789,82.933411,38.789459,-145.277115,,,
729706463.148389,-31.402174,-5.040359,166.458623,0.096085,-0.498611,0.818527,-1.660643,-0.377272,0.240789,82.933411,38.789459,-145.277115,,,
729706463.151746,-31.883808,-5.135618,166.484661,0.096085,-0.498611,0.818527,-1.660643,-0.377272,0.240789,82.933411,38.789459,-145.277115,,,
729706463.155066,-32.364908,-5.235686,166.498817,0.105057,-0.514526,0.834045,-1.662374,-0.368055,0.175472,82.933411,38.789459,-145.277115,,,
729706463.158397,-32.364908,-5.235686,166.498817,0.105057,-0.514526,0.834045,-1.662374,-0.368055,0.175472,82.933411,38.789459,-145.277115,,,
729706463.161745,-32.84277,-5.340056,166.503159,0.105057,-0.514526,0.834045,-1.662374,-0.368055,0.175472,82.933411,38.789459,-145.277115,,,
729706463.165066,-33.31545,-5.448962,166.499888,0.100815,-0.536499,0.836197,-1.629222,-0.370823,0.1338,82.933411,38.789459,-145.277115,,,
729706463.16846,-33.31545,-5.448962,166.499888,0.100815,-0.536499,0.836197,-1.629222,-0.370823,0.1338,82.933411,38.789459,-145.277115,,,
729706463.171727,-33.781441,-5.562401,166.49047,0.100815,-0.536499,0.836197,-1.629222,-0.370823,0.1338,82.933411,38.789459,-145.277115,,,
729706463.175067,-34.240768,-5.680553,166.477842,0.091187,-0.555939,0.831085,-1.583526,-0.390596,0.117554,82.933411,38.789459,-145.277115,,,
729706463.178416,-34.240768,-5.680553,166.477842,0.091187,-0.555939,0.831085,-1.583526,-0.390596,0.117554,82.933411,38.789459,-145.277115,,,
729706463.181795,-34.692521,-5.804265,166.463954,0.091187,-0.555939,0.831085,-1.583526,-0.390596,0.117554,82.933411,38.789459,-145.277115,,,
729706463.185078,-35.136174,-5.933778,166.44933,0.087646,-0.571915,0.821991,-1.526559,-0.427363,0.114912,82.257111,41.614838,-144.103333,,,
729706463.188425,-35.136174,-5.933778,166.44933,0.087646,-0.571915,0.821991,-1.526559,-0.427363,0.114912,82.257111,41.614838,-144.103333,,,
729706463.19175,-35.571074,-6.06725,166.434421,0.087646,-0.571915,0.821991,-1.526559,-0.427363,0.114912,82.257111,41.614838,-144.103333,,,
729706463.195066,-35.996532,-6.202413,166.419347,0.091537,-0.58728,0.823212,-1.459848,-0.437674,0.11438,82.257111,41.614838,-144.103333,,,
729706463.198431,-35.996532,-6.202413,166.419347,0.091537,-0.58728,0.823212,-1.459848,-0.437674,0.11438,82.257111,41.614838,-144.103333,,,
729706463.201749,-36.412615,-6.337847,166.404105,0.091537,-0.58728,0.823212,-1.459848,-0.437674,0.11438,82.257111,41.614838,-144.103333,,,
729706463.205063,-36.820553,-6.473276,166.388896,0.096344,-0.603836,0.821182,-1.403265,-0.437378,0.115553,82.257111,41.614838,-144.103333,,,
729706463.208399,-36.820553,-6.473276,166.388896,0.096344,-0.603836,0.821182,-1.403265,-0.437378,0.115553,82.257111,41.614838,-144.103333,,,
729706463.211752,-37.221077,-6.607972,166.374287,0.096344,-0.603836,0.821182,-1.403265,-0.437378,0.115553,82.257111,41.614838,-144.103333,,,
729706463.215126,-37.61418,-6.740169,166.360736,0.097,-0.617966,0.810684,-1.351025,-0.424075,0.122245,82.257111,41.614838,-144.103333,,,
729706463.218436,-37.61418,-6.740169,166.360736,0.097,-0.617966,0.810684,-1.351025,-0.424075,0.122245,82.257111,41.614838,-144.103333,,,
729706463.221833,-38.001213,-6.868176,166.349128,0.097,-0.617966,0.810684,-1.351025,-0.424075,0.122245,82.257111,41.614838,-144.103333,,,
729706463.225068,-38.38262,-6.990469,166.340101,0.095688,-0.625839,0.805191,-1.310273,-0.39518,0.137762,82.257111,41.614838,-144.103333,,,
729706463.228415,-38.38262,-6.990469,166.340101,0.095688,-0.625839,0.805191,-1.310273,-0.39518,0.137762,81.377792,44.195114,-143.124054,,,
729706463.23175,-38.758719,-7.106236,166.333531,0.095688,-0.625839,0.805191,-1.310273,-0.39518,0.137762,81.377792,44.195114,-143.124054,,,
729706463.235133,-39.131296,-7.215543,166.329099,0.101242,-0.630432,0.79422,-1.284237,-0.359488,0.151512,81.377792,44.195114,-143.124054,,,
729706463.238416,-39.131296,-7.215543,166.329099,0.101242,-0.630432,0.79422,-1.284237,-0.359488,0.151512,81.377792,44.195114,-143.124054,,,
729706463.241748,-39.501213,-7.3183,166.326507,0.101242,-0.630432,0.79422,-1.284237,-0.359488,0.151512,81.377792,44.195114,-143.124054,,,
729706463.245066,-39.868385,-7.413581,166.326511,0.104843,-0.636902,0.780334,-1.262857,-0.318936,0.167347,81.377792,44.195114,-143.124054,,,
729706463.248463,-39.868385,-7.413581,166.326511,0.104843,-0.636902,0.780334,-1.262857,-0.318936,0.167347,81.377792,44.195114,-143.124054,,,
729706463.25175,-40.232863,-7.500829,166.330255,0.104843,-0.636902,0.780334,-1.262857,-0.318936,0.167347,81.377792,44.195114,-143.124054,,,
729706463.255103,-40.594938,-7.579527,166.337901,0.098663,-0.643967,0.76918,-1.242331,-0.277002,0.189051,81.377792,44.195114,-143.124054,,,
729706463.258417,-40.594938,-7.579527,166.337901,0.098663,-0.643967,0.76918,-1.242331,-0.277002,0.189051,81.377792,44.195114,-143.124054,,,
729706463.261732,-40.954436,-7.648831,166.35033,0.098663,-0.643967,0.76918,-1.242331,-0.277002,0.189051,81.377792,44.195114,-143.124054,,,
729706463.265082,-41.311518,-7.708594,166.368045,0.10051,-0.650269,0.760513,-1.22096,-0.235133,0.216612,81.377792,44.195114,-143.124054,,,
729706463.268406,-41.311518,-7.708594,166.368045,0.10051,-0.650269,0.760513,-1.22096,-0.235133,0.216612,80.901199,46.353195,-141.977142,,,
729706463.271829,-41.665982,-7.759966,166.390293,0.10051,-0.650269,0.760513,-1.22096,-0.235133,0.216612,80.901199,46.353195,-141.977142,,,
729706463.27507,-42.018253,-7.804963,166.416262,0.107742,-0.655624,0.742599,-1.202283,-0.208687,0.234971,80.901199,46.353195,-141.977142,,,
729706463.278432,-42.018253,-7.804963,166.416262,0.107742,-0.655624,0.742599,-1.202283,-0.208687,0.234971,80.901199,46.353195,-141.977142,,,
729706463.281756,-42.368775,-7.845474,166.444466,0.107742,-0.655624,0.742599,-1.202283,-0.208687,0.234971,80.901199,46.353195,-141.977142,,,
729706463.285073,-42.718667,-7.884202,166.473558,0.113419,-0.661301,0.718933,-1.196463,-0.201289,0.239596,80.901199,46.353195,-141.977142,,,
729706463.288417,-42.718667,-7.884202,166.473558,0.113419,-0.661301,0.718933,-1.196463,-0.201289,0.239596,80.901199,46.353195,-141.977142,,,
729706463.291753,-43.068245,-7.924082,166.501749,0.113419,-0.661301,0.718933,-1.196463,-0.201289,0.239596,80.901199,46.353195,-141.977142,,,
729706463.295075,-43.417991,-7.966321,166.526623,0.11998,-0.661697,0.697815,-1.199089,-0.202736,0.223859,80.901199,46.353195,-141.977142,,,
729706463.298498,-43.417991,-7.966321,166.526623,0.11998,-0.661697,0.697815,-1.199089,-0.202736,0.223859,80.901199,46.353195,-141.977142,,,
729706463.301745,-43.768477,-8.012675,166.545589,0.11998,-0.661697,0.697815,-1.199089,-0.202736,0.223859,80.901199,46.353195,-141.977142,,,
729706463.305069,-44.119667,-8.065315,166.556065,0.128967,-0.661621,0.687088,-1.209926,-0.206194,0.18395,80.901199,46.353195,-141.977142,,,
729706463.308405,-44.119667,-8.065315,166.556065,0.128967,-0.661621,0.687088,-1.209926,-0.206194,0.18395,80.649994,48.326141,-140.603241,,,
729706463.311811,-44.472866,-8.127282,166.554194,0.128967,-0.661621,0.687088,-1.209926,-0.206194,0.18395,80.649994,48.326141,-140.603241,,,
729706463.315063,-44.828102,-8.200173,166.538356,0.136902,-0.66391,0.676422,-1.23374,-0.213968,0.120353,80.649994,48.326141,-140.603241,,,
729706463.318416,-44.828102,-8.200173,166.538356,0.136902,-0.66391,0.676422,-1.23374,-0.213968,0.120353,80.649994,48.326141,-140.603241,,,
729706463.321732,-45.18532,-8.284357,166.508363,0.136902,-0.66391,0.676422,-1.23374,-0.213968,0.120353,80.649994,48.326141,-140.603241,,,
729706463.325067,-45.545709,-8.381148,166.463492,0.138809,-0.673309,0.666901,-1.266067,-0.227258,0.056328,80.649994,48.326141,-140.603241,,,
729706463.328396,-45.545709,-8.381148,166.463492,0.138809,-0.673309,0.666901,-1.266067,-0.227258,0.056328,80.649994,48.326141,-140.603241,,,
729706463.331741,-45.909419,-8.490501,166.404365,0.138809,-0.673309,0.666901,-1.266067,-0.227258,0.056328,80.649994,48.326141,-140.603241,,,
729706463.335064,-46.276049,-8.612163,166.331919,0.13298,-0.691727,0.654343,-1.295704,-0.244498,0.002691,80.649994,48.326141,-140.603241,,,
729706463.3385,-46.276049,-8.612163,166.331919,0.13298,-0.691727,0.654343,-1.295704,-0.244498,0.002691,80.649994,48.326141,-140.603241,,,
729706463.341752,-46.645684,-8.74607,166.248026,0.13298,-0.691727,0.654343,-1.295704,-0.244498,0.002691,80.649994,48.326141,-140.603241,,,
729706463.345074,-47.018717,-8.891121,166.154806,0.124161,-0.711136,0.646835,-1.32537,-0.272185,-0.028611,80.649994,48.326141,-140.603241,,,
729706463.34842,-47.018717,-8.891121,166.154806,0.124161,-0.711136,0.646835,-1.32537,-0.272185,-0.028611,80.386795,50.676468,-139.157822,,,
729706463.351745,-47.394005,-9.046845,166.053584,0.124161,-0.711136,0.646835,-1.32537,-0.272185,-0.028611,80.386795,50.676468,-139.157822,,,
729706463.355166,-47.770972,-9.21266,165.945313,0.118683,-0.726822,0.641373,-1.341174,-0.303058,-0.048702,80.386795,50.676468,-139.157822,,,
729706463.35839,-47.770972,-9.21266,165.945313,0.118683,-0.726822,0.641373,-1.341174,-0.303058,-0.048702,80.386795,50.676468,-139.157822,,,
729706463.36181,-48.149611,-9.386594,165.83186,0.118683,-0.726822,0.641373,-1.341174,-0.303058,-0.048702,80.386795,50.676468,-139.157822,,,
729706463.365064,-48.529633,-9.567891,165.714726,0.116837,-0.744781,0.638321,-1.352459,-0.331614,-0.051822,80.386795,50.676468,-139.157822,,,
729706463.368433,-48.529633,-9.567891,165.714726,0.116837,-0.744781,0.638321,-1.352459,-0.331614,-0.051822,80.386795,50.676468,-139.157822,,,
729706463.371738,-48.910089,-9.7565,165.594715,0.116837,-0.744781,0.638321,-1.352459,-0.331614,-0.051822,80.386795,50.676468,-139.157822,,,
729706463.375066,-49.290484,-9.950934,165.473515,0.116501,-0.76355,0.636932,-1.351848,-0.362165,-0.044179,80.386795,50.676468,-139.157822,,,
729706463.378415,-49.290484,-9.950934,165.473515,0.116501,-0.76355,0.636932,-1.351848,-0.362165,-0.044179,80.386795,50.676468,-139.157822,,,
729706463.381739,-49.670702,-10.148852,165.352572,0.116501,-0.76355,0.636932,-1.351848,-0.362165,-0.044179,80.386795,50.676468,-139.157822,,,
729706463.385072,-50.05095,-10.347561,165.233883,0.11087,-0.783249,0.629883,-1.349116,-0.375994,-0.020655,80.386795,50.676468,-139.157822,,,
729706463.388484,-50.05095,-10.347561,165.233883,0.11087,-0.783249,0.629883,-1.349116,-0.375994,-0.020655,80.386795,50.676468,-139.157822,,,
729706463.391755,-50.432109,-10.545492,165.119123,0.11087,-0.783249,0.629883,-1.349116,-0.375994,-0.020655,79.718124,52.676849,-137.314453,,,
729706463.39507,-50.813782,-10.740273,165.011063,0.105728,-0.801666,0.62442,-1.34692,-0.386972,0.022372,79.718124,52.676849,-137.314453,,,
729706463.398418,-50.813782,-10.740273,165.011063,0.105728,-0.801666,0.62442,-1.34692,-0.386972,0.022372,79.718124,52.676849,-137.314453,,,
729706463.401805,-51.195049,-10.930135,164.910586,0.105728,-0.801666,0.62442,-1.34692,-0.386972,0.022372,79.718124,52.676849,-137.314453,,,
729706463.405064,-51.575587,-11.113579,164.817665,0.107803,-0.817856,0.625656,-1.335059,-0.380603,0.065859,79.718124,52.676849,-137.314453,,,
729706463.408426,-51.575587,-11.113579,164.817665,0.107803,-0.817856,0.625656,-1.335059,-0.380603,0.065859,79.718124,52.676849,-137.314453,,,
729706463.411758,-51.953719,-11.287753,164.733255,0.107803,-0.817856,0.625656,-1.335059,-0.380603,0.065859,79.718124,52.676849,-137.314453,,,
729706463.415069,-52.32686,-11.449462,164.657338,0.118713,-0.828644,0.64006,-1.293162,-0.338299,0.105323,79.718124,52.676849,-137.314453,,,
729706463.41842,-52.32686,-11.449462,164.657338,0.118713,-0.828644,0.64006,-1.293162,-0.338299,0.105323,79.718124,52.676849,-137.314453,,,
729706463.421751,-52.691914,-11.597043,164.588811,0.118713,-0.828644,0.64006,-1.293162,-0.338299,0.105323,79.718124,52.676849,-137.314453,,,
729706463.425071,-53.045962,-11.730655,164.525267,0.135727,-0.831604,0.657242,-1.213106,-0.266984,0.118885,79.718124,52.676849,-137.314453,,,
729706463.428475,-53.045962,-11.730655,164.525267,0.135727,-0.831604,0.657242,-1.213106,-0.266984,0.118885,79.718124,52.676849,-137.314453,,,
729706463.431739,-53.387426,-11.851144,164.4651,0.135727,-0.831604,0.657242,-1.213106,-0.266984,0.118885,79.27211,54.766205,-135.8508,,,
729706463.435065,-53.714549,-11.958801,164.40787,0.154495,-0.830826,0.663773,-1.111952,-0.192697,0.116784,79.27211,54.766205,-135.8508,,,
729706463.438419,-53.714549,-11.958801,164.40787,0.154495,-0.830826,0.663773,-1.111952,-0.192697,0.116784,79.27211,54.766205,-135.8508,,,
729706463.441796,-54.025432,-12.053561,164.353327,0.154495,-0.830826,0.663773,-1.111952,-0.192697,0.116784,79.27211,54.766205,-135.8508,,,
729706463.445066,-54.318984,-12.136499,164.301403,0.163788,-0.83078,0.662598,-0.99042,-0.12394,0.106737,79.27211,54.766205,-135.8508,,,
729706463.448437,-54.318984,-12.136499,164.301403,0.163788,-0.83078,0.662598,-0.99042,-0.12394,0.106737,79.27211,54.766205,-135.8508,,,
729706463.45175,-54.59513,-12.209291,164.251685,0.163788,-0.83078,0.662598,-0.99042,-0.12394,0.106737,79.27211,54.766205,-135.8508,,,
729706463.455066,-54.855276,-12.272944,164.204871,0.158813,-0.834259,0.651642,-0.878079,-0.075915,0.098015,79.27211,54.766205,-135.8508,,,
729706463.45841,-54.855276,-12.272944,164.204871,0.158813,-0.834259,0.651642,-0.878079,-0.075915,0.098015,79.27211,54.766205,-135.8508,,,
729706463.461739,-55.100895,-12.329256,164.161628,0.158813,-0.834259,0.651642,-0.878079,-0.075915,0.098015,79.27211,54.766205,-135.8508,,,
729706463.465066,-55.334244,-12.381149,164.121522,0.144714,-0.835693,0.626038,-0.790967,-0.062343,0.094362,79.27211,54.766205,-135.8508,,,
729706463.468483,-55.334244,-12.381149,164.121522,0.144714,-0.835693,0.626038,-0.790967,-0.062343,0.094362,79.27211,54.766205,-135.8508,,,
729706463.471731,-55.557193,-12.431598,164.084505,0.144714,-0.835693,0.626038,-0.790967,-0.062343,0.094362,79.443207,56.110962,-134.801239,,,
729706463.475069,-55.771372,-12.484379,164.048456,0.13472,-0.832581,0.598297,-0.729725,-0.083645,0.086981,79.443207,56.110962,-134.801239,,,
729706463.478417,-55.771372,-12.484379,164.048456,0.13472,-0.832581,0.598297,-0.729725,-0.083645,0.086981,79.443207,56.110962,-134.801239,,,
729706463.481802,-55.979379,-12.542807,164.011446,0.13472,-0.832581,0.598297,-0.729725,-0.083645,0.086981,79.443207,56.110962,-134.801239,,,
729706463.485063,-56.184053,-12.608722,163.973122,0.12674,-0.834793,0.563553,-0.707965,-0.127785,0.079205,79.443207,56.110962,-134.801239,,,
729706463.488419,-56.184053,-12.608722,163.973122,0.12674,-0.834793,0.563553,-0.707965,-0.127785,0.079205,79.443207,56.110962,-134.801239,,,
729706463.491746,-56.388332,-12.685043,163.930734,0.12674,-0.834793,0.563553,-0.707965,-0.127785,0.079205,79.443207,56.110962,-134.801239,,,
729706463.495069,-56.594682,-12.773751,163.880933,0.121078,-0.839142,0.534058,-0.728066,-0.170554,0.057419,79.443207,56.110962,-134.801239,,,
729706463.498418,-56.594682,-12.773751,163.880933,0.121078,-0.839142,0.534058,-0.728066,-0.170554,0.057419,79.443207,56.110962,-134.801239,,,
729706463.501751,-56.804094,-12.875624,163.822188,0.121078,-0.839142,0.534058,-0.728066,-0.170554,0.057419,79.443207,56.110962,-134.801239,,,
729706463.505069,-57.018013,-12.991409,163.754465,0.117996,-0.839035,0.515884,-0.766094,-0.214476,0.035189,79.443207,56.110962,-134.801239,,,
729706463.508475,-57.018013,-12.991409,163.754465,0.117996,-0.839035,0.515884,-0.766094,-0.214476,0.035189,79.443207,56.110962,-134.801239,,,
729706463.511735,-57.237111,-13.121502,163.677385,0.117996,-0.839035,0.515884,-0.766094,-0.214476,0.035189,79.34816,57.129623,-133.638336,,,
729706463.515072,-57.461755,-13.263915,163.590959,0.115784,-0.841263,0.506088,-0.811244,-0.244433,0.015036,79.34816,57.129623,-133.638336,,,
729706463.518413,-57.461755,-13.263915,163.590959,0.115784,-0.841263,0.506088,-0.811244,-0.244433,0.015036,79.34816,57.129623,-133.638336,,,
729706463.521814,-57.693039,-13.415852,163.496907,0.115784,-0.841263,0.506088,-0.811244,-0.244433,0.015036,79.34816,57.129623,-133.638336,,,
729706463.525062,-57.931252,-13.575122,163.398077,0.114471,-0.847183,0.502884,-0.861899,-0.266084,0.015653,79.34816,57.129623,-133.638336,,,
729706463.528245,-57.931252,-13.575122,163.398077,0.114471,-0.847183,0.502884,-0.861899,-0.266084,0.015653,79.34816,57.129623,-133.638336,,,
729706463.531763,-58.176611,-13.740262,163.29618,0.114471,-0.847183,0.502884,-0.861899,-0.266084,0.015653,79.34816,57.129623,-133.638336,,,
729706463.535074,-58.429425,-13.908159,163.193447,0.112015,-0.856247,0.495468,-0.91194,-0.278624,0.032488,79.34816,57.129623,-133.638336,,,
729706463.538419,-58.429425,-13.908159,163.193447,0.112015,-0.856247,0.495468,-0.91194,-0.278624,0.032488,79.34816,57.129623,-133.638336,,,
729706463.541805,-58.690703,-14.074436,163.093955,0.112015,-0.856247,0.495468,-0.91194,-0.278624,0.032488,79.34816,57.129623,-133.638336,,,
729706463.545064,-58.9616,-14.234692,163.001718,0.099686,-0.870377,0.489304,-0.969085,-0.278196,0.08208,79.34816,57.129623,-133.638336,,,
729706463.548452,-58.9616,-14.234692,163.001718,0.099686,-0.870377,0.489304,-0.969085,-0.278196,0.08208,79.34816,57.129623,-133.638336,,,
729706463.551785,-59.241794,-14.385047,162.919669,0.099686,-0.870377,0.489304,-0.969085,-0.278196,0.08208,79.34816,57.129623,-133.638336,,,
729706463.555059,-59.532004,-14.523596,162.849158,0.088028,-0.877396,0.483658,-1.024874,-0.263668,0.14633,78.760406,58.412613,-132.2565,,,
729706463.558428,-59.532004,-14.523596,162.849158,0.088028,-0.877396,0.483658,-1.024874,-0.263668,0.14633,78.760406,58.412613,-132.2565,,,
729706463.561744,-59.831329,-14.648993,162.790434,0.088028,-0.877396,0.483658,-1.024874,-0.263668,0.14633,78.760406,58.412613,-132.2565,,,
729706463.56507,-60.138444,-14.760933,162.744039,0.08873,-0.881119,0.478607,-1.06487,-0.243222,0.20765,78.760406,58.412613,-132.2565,,,
729706463.568413,-60.138444,-14.760933,162.744039,0.08873,-0.881119,0.478607,-1.06487,-0.243222,0.20765,78.760406,58.412613,-132.2565,,,
