Time (sec),Pitch (deg),Roll (deg),Yaw(deg),X-Acceleration (g),Y-Acceleration (g),Z-Acceleration (g),Pitch Rate (deg/sec),Roll Rate (deg/sec),Yaw Rate (deg/sec),Magnetic Field in X direction (uT),Magnetic Field in Y direction (uT),Magnetic Field in Z Direction (uT),Latitude (deg),Longitude (deg),Altitude (m)
729706882.526713,1.136323,1.902693,121.375673,-0.012726,0.006287,1.000656,0.165406,0.026437,0.115881,60.863434,29.893188,-147.162674,,,
729706882.5283,1.183673,1.909476,-22.503485,-0.012726,0.006287,1.000656,0.165406,0.026437,0.115881,60.863434,29.893188,-147.162674,,,
729706882.530012,1.183683,1.909509,121.406701,-0.012726,0.006287,1.000656,0.165406,0.026437,0.115881,60.863434,29.893188,-147.162674,,,
729706882.530812,1.183673,1.909476,-22.503485,-0.012726,0.006287,1.000656,0.165406,0.026437,0.115881,60.863434,29.893188,-147.162674,,,
729706882.533334,1.229944,1.917514,121.434991,-0.011261,0.010971,1.000458,0.158189,0.034882,0.096555,60.863434,29.893188,-147.162674,,,
729706882.535435,1.229934,1.917481,-22.475197,-0.011261,0.010971,1.000458,0.158189,0.034882,0.096555,60.863434,29.893188,-147.162674,,,
729706882.53666,1.229944,1.917514,121.434991,-0.011261,0.010971,1.000458,0.158189,0.034882,0.096555,60.863434,29.893188,-147.162674,,,
729706882.538306,1.275077,1.926383,-22.449509,-0.011261,0.010971,1.000458,0.158189,0.034882,0.096555,60.863434,29.893188,-147.162674,,,
729706882.540009,1.275087,1.926416,121.460678,-0.011261,0.010971,1.000458,0.158189,0.034882,0.096555,60.863434,29.893188,-147.162674,,,
729706882.54081,1.275077,1.926383,-22.449509,-0.011261,0.010971,1.000458,0.158189,0.034882,0.096555,60.863434,29.893188,-147.162674,,,
729706882.543333,1.319018,1.935334,121.483566,-0.012405,0.016769,1.002228,0.150326,0.035107,0.076902,60.863434,29.893188,-147.162674,,,
729706882.545787,1.319008,1.9353,-22.426615,-0.012405,0.016769,1.002228,0.150326,0.035107,0.076902,60.863434,29.893188,-147.162674,,,
729706882.546662,1.319018,1.935334,121.483566,-0.012405,0.016769,1.002228,0.150326,0.035107,0.076902,60.863434,29.893188,-147.162674,,,
729706882.548623,1.361068,1.943563,-22.406787,-0.012405,0.016769,1.002228,0.150326,0.035107,0.076902,60.912613,29.632019,-147.108231,,,
729706882.550008,1.361078,1.943596,121.503396,-0.012405,0.016769,1.002228,0.150326,0.035107,0.076902,60.912613,29.632019,-147.108231,,,
729706882.550808,1.361068,1.943563,-22.406787,-0.012405,0.016769,1.002228,0.150326,0.035107,0.076902,60.912613,29.632019,-147.108231,,,
729706882.553331,1.399957,1.950002,121.52031,-0.01149,0.019135,0.995438,0.128788,0.022183,0.055878,60.912613,29.632019,-147.108231,,,
729706882.555585,1.399947,1.949968,-22.389873,-0.01149,0.019135,0.995438,0.128788,0.022183,0.055878,60.912613,29.632019,-147.108231,,,
729706882.556665,1.399957,1.950002,121.52031,-0.01149,0.019135,0.995438,0.128788,0.022183,0.055878,60.912613,29.632019,-147.108231,,,
729706882.558023,1.43532,1.953447,-22.375856,-0.01149,0.019135,0.995438,0.128788,0.022183,0.055878,60.912613,29.632019,-147.108231,,,
729706882.560024,1.43533,1.953481,121.534329,-0.01149,0.019135,0.995438,0.128788,0.022183,0.055878,60.912613,29.632019,-147.108231,,,
729706882.560808,1.43532,1.953447,-22.375856,-0.01149,0.019135,0.995438,0.128788,0.022183,0.055878,60.912613,29.632019,-147.108231,,,
729706882.563336,1.46788,1.954715,121.545673,-0.009888,0.022125,0.990173,0.109651,0.006529,0.03663,60.912613,29.632019,-147.108231,,,
729706882.565566,1.46787,1.954682,-22.364511,-0.009888,0.022125,0.990173,0.109651,0.006529,0.03663,60.912613,29.632019,-147.108231,,,
729706882.566665,1.46788,1.954715,121.545673,-0.009888,0.022125,0.990173,0.109651,0.006529,0.03663,60.912613,29.632019,-147.108231,,,
729706882.568104,1.498319,1.955221,-22.356071,-0.009888,0.022125,0.990173,0.109651,0.006529,0.03663,60.912613,29.632019,-147.108231,,,
729706882.570022,1.498329,1.955254,121.554109,-0.009888,0.022125,0.990173,0.109651,0.006529,0.03663,60.912613,29.632019,-147.108231,,,
729706882.570903,1.498319,1.955221,-22.356071,-0.009888,0.022125,0.990173,0.109651,0.006529,0.03663,60.912613,29.632019,-147.108231,,,
729706882.57333,1.526563,1.955776,121.559969,-0.008591,0.023453,0.998322,0.094689,0.006352,0.018157,60.912613,29.632019,-147.108231,,,
729706882.575273,1.526554,1.955743,-22.350206,-0.008591,0.023453,0.998322,0.094689,0.006352,0.018157,60.912613,29.632019,-147.108231,,,
729706882.576703,1.526563,1.955776,121.559969,-0.008591,0.023453,0.998322,0.094689,0.006352,0.018157,60.912613,29.632019,-147.108231,,,
729706882.577808,1.553144,1.956903,-22.346641,-0.008591,0.023453,0.998322,0.094689,0.006352,0.018157,60.912613,29.632019,-147.108231,,,
729706882.580019,1.553154,1.956936,121.563538,-0.008591,0.023453,0.998322,0.094689,0.006352,0.018157,60.912613,29.632019,-147.108231,,,
729706882.580808,1.553144,1.956903,-22.346641,-0.008591,0.023453,0.998322,0.094689,0.006352,0.018157,60.912613,29.632019,-147.108231,,,
729706882.583333,1.579235,1.958371,121.565241,-0.009033,0.022491,1.002213,0.091509,0.008304,0.005034,60.912613,29.632019,-147.108231,,,
729706882.584888,1.579225,1.958337,-22.344947,-0.009033,0.022491,1.002213,0.091509,0.008304,0.005034,60.912613,29.632019,-147.108231,,,
729706882.586666,1.579235,1.958371,121.565241,-0.009033,0.022491,1.002213,0.091509,0.008304,0.005034,60.912613,29.632019,-147.108231,,,
729706882.587799,1.605733,1.959898,-22.344437,-0.009033,0.022491,1.002213,0.091509,0.008304,0.005034,60.912613,29.632019,-147.108231,,,
729706882.590001,1.605743,1.959932,121.565739,-0.009033,0.022491,1.002213,0.091509,0.008304,0.005034,60.987747,29.462158,-146.794876,,,
729706882.591466,1.605733,1.959898,-22.344437,-0.009033,0.022491,1.002213,0.091509,0.008304,0.005034,60.987747,29.462158,-146.794876,,,
729706882.593336,1.631786,1.961602,121.565391,-0.012558,0.021973,1.004395,0.088355,0.009272,-0.001061,60.987747,29.462158,-146.794876,,,
729706882.59584,1.631776,1.961569,-22.344788,-0.012558,0.021973,1.004395,0.088355,0.009272,-0.001061,60.987747,29.462158,-146.794876,,,
729706882.596689,1.631786,1.961602,121.565391,-0.012558,0.021973,1.004395,0.088355,0.009272,-0.001061,60.987747,29.462158,-146.794876,,,
729706882.598079,1.652318,1.959018,-22.346213,-0.012558,0.021973,1.004395,0.088355,0.009272,-0.001061,60.987747,29.462158,-146.794876,,,
729706882.600002,1.652328,1.959051,121.56397,-0.012558,0.021973,1.004395,0.088355,0.009272,-0.001061,60.987747,29.462158,-146.794876,,,
729706882.600808,1.652318,1.959018,-22.346213,-0.012558,0.021973,1.004395,0.088355,0.009272,-0.001061,60.987747,29.462158,-146.794876,,,
729706882.603328,1.677092,1.96072,121.56049,-0.012955,0.023239,1.000702,0.086719,0.010715,-0.014541,60.987747,29.462158,-146.794876,,,
729706882.604737,1.677082,1.960687,-22.34968,-0.012955,0.023239,1.000702,0.086719,0.010715,-0.014541,60.987747,29.462158,-146.794876,,,
729706882.606666,1.677092,1.96072,121.56049,-0.012955,0.023239,1.000702,0.086719,0.010715,-0.014541,60.987747,29.462158,-146.794876,,,
729706882.60782,1.695449,1.95866,-22.354377,-0.012955,0.023239,1.000702,0.086719,0.010715,-0.014541,60.987747,29.462158,-146.794876,,,
729706882.610041,1.695459,1.958694,121.555799,-0.012955,0.023239,1.000702,0.086719,0.010715,-0.014541,60.987747,29.462158,-146.794876,,,
729706882.61082,1.695449,1.95866,-22.354377,-0.012955,0.023239,1.000702,0.086719,0.010715,-0.014541,60.987747,29.462158,-146.794876,,,
729706882.613334,1.714788,1.964088,121.550101,-0.012543,0.030014,0.99675,0.062028,0.025373,-0.021289,60.987747,29.462158,-146.794876,,,
729706882.615587,1.714778,1.964055,-22.360083,-0.012543,0.030014,0.99675,0.062028,0.025373,-0.021289,60.987747,29.462158,-146.794876,,,
729706882.616656,1.714788,1.964088,121.550101,-0.012543,0.030014,0.99675,0.062028,0.025373,-0.021289,60.987747,29.462158,-146.794876,,,
729706882.618432,1.726498,1.96645,-22.366835,-0.012543,0.030014,0.99675,0.062028,0.025373,-0.021289,60.987747,29.462158,-146.794876,,,
729706882.620028,1.726508,1.966483,121.543352,-0.012543,0.030014,0.99675,0.062028,0.025373,-0.021289,60.987747,29.462158,-146.794876,,,
729706882.62081,1.726498,1.96645,-22.366835,-0.012543,0.030014,0.99675,0.062028,0.025373,-0.021289,60.987747,29.462158,-146.794876,,,
729706882.623373,1.737442,1.976159,121.535154,-0.014709,0.036102,0.987793,0.03301,0.038959,-0.03121,60.987747,29.462158,-146.794876,,,
729706882.626069,1.737432,1.976125,-22.375018,-0.014709,0.036102,0.987793,0.03301,0.038959,-0.03121,60.987747,29.462158,-146.794876,,,
729706882.626697,1.737442,1.976159,121.535154,-0.014709,0.036102,0.987793,0.03301,0.038959,-0.03121,60.987747,29.462158,-146.794876,,,
729706882.627572,1.741253,1.982398,-22.383998,-0.014709,0.036102,0.987793,0.03301,0.038959,-0.03121,60.987747,29.462158,-146.794876,,,
729706882.629986,1.741263,1.982432,121.526173,-0.014709,0.036102,0.987793,0.03301,0.038959,-0.03121,60.998352,29.412521,-147.092712,,,
729706882.631465,1.741253,1.982398,-22.383998,-0.014709,0.036102,0.987793,0.03301,0.038959,-0.03121,60.998352,29.412521,-147.092712,,,
729706882.633337,1.743835,1.994249,121.516883,-0.016907,0.036972,0.982498,0.00446,0.04359,-0.033298,60.998352,29.412521,-147.092712,,,
729706882.635283,1.743826,1.994216,-22.393284,-0.016907,0.036972,0.982498,0.00446,0.04359,-0.033298,60.998352,29.412521,-147.092712,,,
729706882.636686,1.743835,1.994249,121.516883,-0.016907,0.036972,0.982498,0.00446,0.04359,-0.033298,60.998352,29.412521,-147.092712,,,
729706882.638026,1.740045,2.000336,-22.402377,-0.016907,0.036972,0.982498,0.00446,0.04359,-0.033298,60.998352,29.412521,-147.092712,,,
729706882.640025,1.740054,2.00037,121.507793,-0.016907,0.036972,0.982498,0.00446,0.04359,-0.033298,60.998352,29.412521,-147.092712,,,
729706882.640807,1.740045,2.000336,-22.402377,-0.016907,0.036972,0.982498,0.00446,0.04359,-0.033298,60.998352,29.412521,-147.092712,,,
729706882.643331,1.734292,2.010847,121.498589,-0.027328,0.036041,0.97435,-0.023609,0.03566,-0.033891,60.998352,29.412521,-147.092712,,,
729706882.646739,1.734282,2.010813,-22.411585,-0.027328,0.036041,0.97435,-0.023609,0.03566,-0.033891,60.998352,29.412521,-147.092712,,,
729706882.647011,1.734292,2.010847,121.498589,-0.027328,0.036041,0.97435,-0.023609,0.03566,-0.033891,60.998352,29.412521,-147.092712,,,
729706882.64809,1.723762,2.014917,-22.420316,-0.027328,0.036041,0.97435,-0.023609,0.03566,-0.033891,60.998352,29.412521,-147.092712,,,
729706882.650026,1.723772,2.01495,121.489856,-0.027328,0.036041,0.97435,-0.023609,0.03566,-0.033891,60.998352,29.412521,-147.092712,,,
729706882.650894,1.723762,2.014917,-22.420316,-0.027328,0.036041,0.97435,-0.023609,0.03566,-0.033891,60.998352,29.412521,-147.092712,,,
729706882.653339,1.711908,2.024529,121.481387,-0.034943,0.034409,0.973907,-0.043788,0.03405,-0.031644,60.998352,29.412521,-147.092712,,,
729706882.655869,1.711898,2.024496,-22.428786,-0.034943,0.034409,0.973907,-0.043788,0.03405,-0.031644,60.998352,29.412521,-147.092712,,,
729706882.656778,1.711908,2.024529,121.481387,-0.034943,0.034409,0.973907,-0.043788,0.03405,-0.031644,60.998352,29.412521,-147.092712,,,
729706882.658452,1.696393,2.02716,-22.436787,-0.034943,0.034409,0.973907,-0.043788,0.03405,-0.031644,60.998352,29.412521,-147.092712,,,
729706882.660021,1.696403,2.027194,121.473395,-0.034943,0.034409,0.973907,-0.043788,0.03405,-0.031644,60.998352,29.412521,-147.092712,,,
729706882.660818,1.696393,2.02716,-22.436787,-0.034943,0.034409,0.973907,-0.043788,0.03405,-0.031644,60.998352,29.412521,-147.092712,,,
729706882.663418,1.681009,2.034995,121.465151,-0.035049,0.030685,0.980911,-0.053108,0.026197,-0.032325,60.998352,29.412521,-147.092712,,,
729706882.665359,1.680999,2.034961,-22.445019,-0.035049,0.030685,0.980911,-0.053108,0.026197,-0.032325,60.998352,29.412521,-147.092712,,,
729706882.666679,1.681009,2.034995,121.465151,-0.035049,0.030685,0.980911,-0.053108,0.026197,-0.032325,60.998352,29.412521,-147.092712,,,
729706882.66811,1.663904,2.035444,-22.452823,-0.035049,0.030685,0.980911,-0.053108,0.026197,-0.032325,60.998352,29.412521,-147.092712,,,
729706882.669992,1.663914,2.035477,121.457347,-0.035049,0.030685,0.980911,-0.053108,0.026197,-0.032325,61.232422,29.201065,-146.874466,,,
729706882.67144,1.663904,2.035444,-22.452823,-0.035049,0.030685,0.980911,-0.053108,0.026197,-0.032325,61.232422,29.201065,-146.874466,,,
729706882.673422,1.649009,2.039591,121.448725,-0.038986,0.029144,0.986862,-0.049113,0.012707,-0.036789,61.232422,29.201065,-146.874466,,,
729706882.675341,1.648999,2.039558,-22.461448,-0.038986,0.029144,0.986862,-0.049113,0.012707,-0.036789,61.232422,29.201065,-146.874466,,,
729706882.676741,1.649009,2.039591,121.448725,-0.038986,0.029144,0.986862,-0.049113,0.012707,-0.036789,61.232422,29.201065,-146.874466,,,
729706882.678015,1.632928,2.036805,-22.47061,-0.038986,0.029144,0.986862,-0.049113,0.012707,-0.036789,61.232422,29.201065,-146.874466,,,
729706882.680009,1.632938,2.036838,121.439568,-0.038986,0.029144,0.986862,-0.049113,0.012707,-0.036789,61.232422,29.201065,-146.874466,,,
729706882.68081,1.632928,2.036805,-22.47061,-0.038986,0.029144,0.986862,-0.049113,0.012707,-0.036789,61.232422,29.201065,-146.874466,,,
729706882.683335,1.619935,2.038512,121.430835,-0.045227,0.027161,0.992142,-0.038019,0.00743,-0.0324,61.232422,29.201065,-146.874466,,,
729706882.685284,1.619925,2.038479,-22.479345,-0.045227,0.027161,0.992142,-0.038019,0.00743,-0.0324,61.232422,29.201065,-146.874466,,,
729706882.686673,1.619935,2.038512,121.430835,-0.045227,0.027161,0.992142,-0.038019,0.00743,-0.0324,61.232422,29.201065,-146.874466,,,
729706882.688194,1.609294,2.035081,-22.487599,-0.045227,0.027161,0.992142,-0.038019,0.00743,-0.0324,61.232422,29.201065,-146.874466,,,
729706882.689996,1.609303,2.035114,121.422589,-0.045227,0.027161,0.992142,-0.038019,0.00743,-0.0324,61.232422,29.201065,-146.874466,,,
729706882.690814,1.609294,2.035081,-22.487599,-0.045227,0.027161,0.992142,-0.038019,0.00743,-0.0324,61.232422,29.201065,-146.874466,,,
729706882.693334,1.601818,2.037389,121.414937,-0.046234,0.021164,1.000092,-0.019957,0.010467,-0.026455,61.232422,29.201065,-146.874466,,,
729706882.695317,1.601808,2.037356,-22.495233,-0.046234,0.021164,1.000092,-0.019957,0.010467,-0.026455,61.232422,29.201065,-146.874466,,,
729706882.696681,1.601818,2.037389,121.414937,-0.046234,0.021164,1.000092,-0.019957,0.010467,-0.026455,61.232422,29.201065,-146.874466,,,
729706882.697511,1.597595,2.035092,-22.501492,-0.046234,0.021164,1.000092,-0.019957,0.010467,-0.026455,61.232422,29.201065,-146.874466,,,
729706882.700001,1.597604,2.035125,121.40868,-0.046234,0.021164,1.000092,-0.019957,0.010467,-0.026455,61.232422,29.201065,-146.874466,,,
729706882.700817,1.597595,2.035092,-22.501492,-0.046234,0.021164,1.000092,-0.019957,0.010467,-0.026455,61.232422,29.201065,-146.874466,,,
729706882.703329,1.594229,2.038306,121.403743,-0.050827,0.019745,1.003113,-0.006439,0.014306,-0.015761,61.232422,29.201065,-146.874466,,,
729706882.705146,1.594219,2.038273,-22.506427,-0.050827,0.019745,1.003113,-0.006439,0.014306,-0.015761,61.232422,29.201065,-146.874466,,,
729706882.706672,1.594229,2.038306,121.403743,-0.050827,0.019745,1.003113,-0.006439,0.014306,-0.015761,61.232422,29.201065,-146.874466,,,
729706882.70748,1.594478,2.038264,-22.509463,-0.050827,0.019745,1.003113,-0.006439,0.014306,-0.015761,61.232422,29.201065,-146.874466,,,
729706882.709993,1.594488,2.038297,121.400708,-0.050827,0.019745,1.003113,-0.006439,0.014306,-0.015761,61.232422,29.201065,-146.874466,,,
729706882.711508,1.594478,2.038264,-22.509463,-0.050827,0.019745,1.003113,-0.006439,0.014306,-0.015761,61.081268,29.413239,-147.173889,,,
729706882.713359,1.593004,2.044233,121.39889,-0.05014,0.022003,1.004486,-0.005061,0.024515,-0.006285,61.081268,29.413239,-147.173889,,,
729706882.714594,1.592994,2.044199,-22.511279,-0.05014,0.022003,1.004486,-0.005061,0.024515,-0.006285,61.081268,29.413239,-147.173889,,,
729706882.716667,1.593004,2.044233,121.39889,-0.05014,0.022003,1.004486,-0.005061,0.024515,-0.006285,61.081268,29.413239,-147.173889,,,
729706882.717836,1.592304,2.048172,-22.51286,-0.05014,0.022003,1.004486,-0.005061,0.024515,-0.006285,61.081268,29.413239,-147.173889,,,
729706882.720019,1.592314,2.048205,121.397311,-0.05014,0.022003,1.004486,-0.005061,0.024515,-0.006285,61.081268,29.413239,-147.173889,,,
729706882.720816,1.592304,2.048172,-22.51286,-0.05014,0.022003,1.004486,-0.005061,0.024515,-0.006285,61.081268,29.413239,-147.173889,,,
729706882.723356,1.587137,2.056371,121.395657,-0.047958,0.029297,0.998535,-0.023044,0.03263,-0.006865,61.081268,29.413239,-147.173889,,,
729706882.725183,1.587128,2.056338,-22.514515,-0.047958,0.029297,0.998535,-0.023044,0.03263,-0.006865,61.081268,29.413239,-147.173889,,,
729706882.726673,1.587137,2.056371,121.395657,-0.047958,0.029297,0.998535,-0.023044,0.03263,-0.006865,61.081268,29.413239,-147.173889,,,
729706882.72814,1.580244,2.064838,-22.515809,-0.047958,0.029297,0.998535,-0.023044,0.03263,-0.006865,61.081268,29.413239,-147.173889,,,
729706882.730004,1.580254,2.064872,121.394357,-0.047958,0.029297,0.998535,-0.023044,0.03263,-0.006865,61.081268,29.413239,-147.173889,,,
729706882.730818,1.580244,2.064838,-22.515809,-0.047958,0.029297,0.998535,-0.023044,0.03263,-0.006865,61.081268,29.413239,-147.173889,,,
729706882.733329,1.567278,2.074463,121.393397,-0.052048,0.034424,0.992294,-0.051987,0.036523,-0.005527,61.081268,29.413239,-147.173889,,,
729706882.735419,1.567269,2.07443,-22.516785,-0.052048,0.034424,0.992294,-0.051987,0.036523,-0.005527,61.081268,29.413239,-147.173889,,,
729706882.73667,1.567278,2.074463,121.393397,-0.052048,0.034424,0.992294,-0.051987,0.036523,-0.005527,61.081268,29.413239,-147.173889,,,
729706882.738139,1.551869,2.083599,-22.517374,-0.052048,0.034424,0.992294,-0.051987,0.036523,-0.005527,61.081268,29.413239,-147.173889,,,
729706882.740102,1.551878,2.083633,121.392796,-0.052048,0.034424,0.992294,-0.051987,0.036523,-0.005527,61.081268,29.413239,-147.173889,,,
729706882.74082,1.551869,2.083599,-22.517374,-0.052048,0.034424,0.992294,-0.051987,0.036523,-0.005527,61.081268,29.413239,-147.173889,,,
729706882.74334,1.532894,2.091264,121.392431,-0.053635,0.029816,0.990433,-0.067595,0.025839,-0.004605,61.081268,29.413239,-147.173889,,,
729706882.745494,1.532885,2.091231,-22.517743,-0.053635,0.029816,0.990433,-0.067595,0.025839,-0.004605,61.081268,29.413239,-147.173889,,,
729706882.746694,1.532894,2.091264,121.392431,-0.053635,0.029816,0.990433,-0.067595,0.025839,-0.004605,61.081268,29.413239,-147.173889,,,
729706882.748343,1.514255,2.096697,-22.517056,-0.053635,0.029816,0.990433,-0.067595,0.025839,-0.004605,61.081268,29.413239,-147.173889,,,
729706882.750068,1.514264,2.09673,121.393121,-0.053635,0.029816,0.990433,-0.067595,0.025839,-0.004605,61.081268,29.413239,-147.173889,,,
729706882.750815,1.514255,2.096697,-22.517056,-0.053635,0.029816,0.990433,-0.067595,0.025839,-0.004605,61.081268,29.413239,-147.173889,,,
729706882.753333,1.495975,2.099974,121.394985,-0.055588,0.021317,0.994095,-0.059862,0.009733,0.003932,61.18425,29.427841,-147.117676,,,
729706882.757257,1.495965,2.09994,-22.515194,-0.055588,0.021317,0.994095,-0.059862,0.009733,0.003932,61.18425,29.427841,-147.117676,,,
729706882.757756,1.481109,2.101442,121.397539,-0.055588,0.021317,0.994095,-0.059862,0.009733,0.003932,61.18425,29.427841,-147.117676,,,
729706882.759962,1.481109,2.101442,121.397539,-0.055588,0.021317,0.994095,-0.059862,0.009733,0.003932,61.18425,29.427841,-147.117676,,,
729706882.761423,1.4811,2.101409,-22.512643,-0.055588,0.021317,0.994095,-0.059862,0.009733,0.003932,61.18425,29.427841,-147.117676,,,
729706882.763435,1.468998,2.09765,121.400659,-0.051422,0.014313,1.001083,-0.036661,-0.015832,0.008486,61.18425,29.427841,-147.117676,,,
729706882.766836,1.468988,2.097617,-22.509527,-0.051422,0.014313,1.001083,-0.036661,-0.015832,0.008486,61.18425,29.427841,-147.117676,,,
729706882.767127,1.468998,2.09765,121.400659,-0.051422,0.014313,1.001083,-0.036661,-0.015832,0.008486,61.18425,29.427841,-147.117676,,,
729706882.767468,1.468988,2.097617,-22.509527,-0.051422,0.014313,1.001083,-0.036661,-0.015832,0.008486,61.18425,29.427841,-147.117676,,,
729706882.770031,1.459253,2.093074,121.403234,-0.051422,0.014313,1.001083,-0.036661,-0.015832,0.008486,61.18425,29.427841,-147.117676,,,
729706882.771484,1.459244,2.093041,-22.506932,-0.051422,0.014313,1.001083,-0.036661,-0.015832,0.008486,61.18425,29.427841,-147.117676,,,
729706882.773348,1.452164,2.084594,121.404352,-0.045273,0.019394,1.002747,-0.020645,-0.029508,-0.001548,61.18425,29.427841,-147.117676,,,
729706882.776516,1.452155,2.08456,-22.505816,-0.045273,0.019394,1.002747,-0.020645,-0.029508,-0.001548,61.18425,29.427841,-147.117676,,,
729706882.77678,1.452164,2.084594,121.404352,-0.045273,0.019394,1.002747,-0.020645,-0.029508,-0.001548,61.18425,29.427841,-147.117676,,,
729706882.777501,1.452155,2.08456,-22.505816,-0.045273,0.019394,1.002747,-0.020645,-0.029508,-0.001548,61.18425,29.427841,-147.117676,,,
729706882.780094,1.445148,2.077453,121.403765,-0.045273,0.019394,1.002747,-0.020645,-0.029508,-0.001548,61.18425,29.427841,-147.117676,,,
729706882.780814,1.445138,2.077419,-22.506418,-0.045273,0.019394,1.002747,-0.020645,-0.029508,-0.001548,61.18425,29.427841,-147.117676,,,
729706882.783333,1.440232,2.066481,121.401511,-0.038071,0.028076,1.00235,-0.0145,-0.037442,-0.013248,61.18425,29.427841,-147.117676,,,
729706882.785828,1.440222,2.066448,-22.50866,-0.038071,0.028076,1.00235,-0.0145,-0.037442,-0.013248,61.18425,29.427841,-147.117676,,,
729706882.78669,1.440232,2.066481,121.401511,-0.038071,0.028076,1.00235,-0.0145,-0.037442,-0.013248,61.18425,29.427841,-147.117676,,,
729706882.78751,1.440222,2.066448,-22.50866,-0.038071,0.028076,1.00235,-0.0145,-0.037442,-0.013248,61.18425,29.427841,-147.117676,,,
729706882.790002,1.435233,2.059394,121.397811,-0.038071,0.028076,1.00235,-0.0145,-0.037442,-0.013248,61.18425,29.427841,-147.117676,,,
729706882.79118,1.435224,2.05936,-22.512364,-0.038071,0.028076,1.00235,-0.0145,-0.037442,-0.013248,61.18425,29.427841,-147.117676,,,
729706882.793351,1.431445,2.050552,121.393368,-0.028381,0.029465,1.001495,-0.012212,-0.025958,-0.018964,61.218933,29.558624,-146.958481,,,
729706882.796154,1.431435,2.050519,-22.516812,-0.028381,0.029465,1.001495,-0.012212,-0.025958,-0.018964,61.218933,29.558624,-146.958481,,,
729706882.796689,1.431445,2.050552,121.393368,-0.028381,0.029465,1.001495,-0.012212,-0.025958,-0.018964,61.218933,29.558624,-146.958481,,,
729706882.797478,1.431435,2.050519,-22.516812,-0.028381,0.029465,1.001495,-0.012212,-0.025958,-0.018964,61.218933,29.558624,-146.958481,,,
729706882.799993,1.428106,2.045869,121.388165,-0.028381,0.029465,1.001495,-0.012212,-0.025958,-0.018964,61.218933,29.558624,-146.958481,,,
729706882.800809,1.428096,2.045835,-22.522017,-0.028381,0.029465,1.001495,-0.012212,-0.025958,-0.018964,61.218933,29.558624,-146.958481,,,
729706882.803325,1.425672,2.040174,121.383067,-0.021713,0.027878,1.005951,-0.006067,-0.014097,-0.018544,61.218933,29.558624,-146.958481,,,
729706882.805273,1.425662,2.040141,-22.527118,-0.021713,0.027878,1.005951,-0.006067,-0.014097,-0.018544,61.218933,29.558624,-146.958481,,,
729706882.806687,1.425672,2.040174,121.383067,-0.021713,0.027878,1.005951,-0.006067,-0.014097,-0.018544,61.218933,29.558624,-146.958481,,,
729706882.807513,1.425662,2.040141,-22.527118,-0.021713,0.027878,1.005951,-0.006067,-0.014097,-0.018544,61.218933,29.558624,-146.958481,,,
729706882.810016,1.425593,2.039334,121.378041,-0.021713,0.027878,1.005951,-0.006067,-0.014097,-0.018544,61.218933,29.558624,-146.958481,,,
729706882.810806,1.425584,2.039301,-22.532145,-0.021713,0.027878,1.005951,-0.006067,-0.014097,-0.018544,61.218933,29.558624,-146.958481,,,
729706882.813334,1.423784,2.036308,121.372917,-0.020874,0.028305,1.004669,-0.005654,-0.006953,-0.019767,61.218933,29.558624,-146.958481,,,
729706882.814957,1.423774,2.036274,-22.537269,-0.020874,0.028305,1.004669,-0.005654,-0.006953,-0.019767,61.218933,29.558624,-146.958481,,,
729706882.816673,1.423784,2.036308,121.372917,-0.020874,0.028305,1.004669,-0.005654,-0.006953,-0.019767,61.218933,29.558624,-146.958481,,,
729706882.817476,1.423774,2.036274,-22.537269,-0.020874,0.028305,1.004669,-0.005654,-0.006953,-0.019767,61.218933,29.558624,-146.958481,,,
729706882.820004,1.422665,2.038464,121.36748,-0.020874,0.028305,1.004669,-0.005654,-0.006953,-0.019767,61.218933,29.558624,-146.958481,,,
729706882.820833,1.422655,2.038431,-22.54269,-0.020874,0.028305,1.004669,-0.005654,-0.006953,-0.019767,61.218933,29.558624,-146.958481,,,
729706882.823331,1.418402,2.038184,121.362085,-0.025131,0.030899,0.999374,-0.015985,0.003607,-0.020606,61.218933,29.558624,-146.958481,,,
729706882.826043,1.418392,2.03815,-22.548084,-0.025131,0.030899,0.999374,-0.015985,0.003607,-0.020606,61.218933,29.558624,-146.958481,,,
729706882.82671,1.418402,2.038184,121.362085,-0.025131,0.030899,0.999374,-0.015985,0.003607,-0.020606,61.218933,29.558624,-146.958481,,,
729706882.827477,1.418392,2.03815,-22.548084,-0.025131,0.030899,0.999374,-0.015985,0.003607,-0.020606,61.218933,29.558624,-146.958481,,,
729706882.830073,1.412715,2.043548,121.356806,-0.025131,0.030899,0.999374,-0.015985,0.003607,-0.020606,61.218933,29.558624,-146.958481,,,
729706882.83118,1.412706,2.043515,-22.553379,-0.025131,0.030899,0.999374,-0.015985,0.003607,-0.020606,61.218933,29.558624,-146.958481,,,
729706882.833379,1.404783,2.045661,121.351932,-0.026703,0.032852,0.994812,-0.028737,0.010706,-0.018881,61.218933,29.558624,-146.958481,,,
729706882.83619,1.404774,2.045627,-22.558254,-0.026703,0.032852,0.994812,-0.028737,0.010706,-0.018881,61.336212,29.456924,-146.936722,,,
729706882.836693,1.404783,2.045661,121.351932,-0.026703,0.032852,0.994812,-0.028737,0.010706,-0.018881,61.336212,29.456924,-146.936722,,,
729706882.837476,1.404774,2.045627,-22.558254,-0.026703,0.032852,0.994812,-0.028737,0.010706,-0.018881,61.336212,29.456924,-146.936722,,,
729706882.84,1.394051,2.053676,121.347106,-0.026703,0.032852,0.994812,-0.028737,0.010706,-0.018881,61.336212,29.456924,-146.936722,,,
729706882.841155,1.394041,2.053643,-22.563081,-0.026703,0.032852,0.994812,-0.028737,0.010706,-0.018881,61.336212,29.456924,-146.936722,,,
729706882.843333,1.384565,2.06027,121.342315,-0.02829,0.03302,0.993073,-0.031012,0.029664,-0.019339,61.336212,29.456924,-146.936722,,,
729706882.845182,1.384555,2.060237,-22.567855,-0.02829,0.03302,0.993073,-0.031012,0.029664,-0.019339,61.336212,29.456924,-146.936722,,,
729706882.846702,1.384565,2.06027,121.342315,-0.02829,0.03302,0.993073,-0.031012,0.029664,-0.019339,61.336212,29.456924,-146.936722,,,
729706882.847491,1.384555,2.060237,-22.567855,-0.02829,0.03302,0.993073,-0.031012,0.029664,-0.019339,61.336212,29.456924,-146.936722,,,
729706882.849999,1.373103,2.07202,121.337943,-0.02829,0.03302,0.993073,-0.031012,0.029664,-0.019339,61.336212,29.456924,-146.936722,,,
729706882.851491,1.373094,2.071987,-22.572233,-0.02829,0.03302,0.993073,-0.031012,0.029664,-0.019339,61.336212,29.456924,-146.936722,,,
729706882.853337,1.363058,2.082973,121.334394,-0.033051,0.027908,0.996201,-0.033432,0.043372,-0.014105,61.336212,29.456924,-146.936722,,,
729706882.855583,1.363048,2.08294,-22.575781,-0.033051,0.027908,0.996201,-0.033432,0.043372,-0.014105,61.336212,29.456924,-146.936722,,,
729706882.856683,1.363058,2.082973,121.334394,-0.033051,0.027908,0.996201,-0.033432,0.043372,-0.014105,61.336212,29.456924,-146.936722,,,
729706882.857472,1.363048,2.08294,-22.575781,-0.033051,0.027908,0.996201,-0.033432,0.043372,-0.014105,61.336212,29.456924,-146.936722,,,
729706882.860042,1.353834,2.095866,121.33146,-0.033051,0.027908,0.996201,-0.033432,0.043372,-0.014105,61.336212,29.456924,-146.936722,,,
729706882.861528,1.353825,2.095833,-22.578713,-0.033051,0.027908,0.996201,-0.033432,0.043372,-0.014105,61.336212,29.456924,-146.936722,,,
729706882.863342,1.345775,2.10709,121.328878,-0.037247,0.023071,0.993469,-0.025587,0.04089,-0.011565,61.336212,29.456924,-146.936722,,,
729706882.865114,1.345765,2.107057,-22.581295,-0.037247,0.023071,0.993469,-0.025587,0.04089,-0.011565,61.336212,29.456924,-146.936722,,,
729706882.866669,1.345775,2.10709,121.328878,-0.037247,0.023071,0.993469,-0.025587,0.04089,-0.011565,61.336212,29.456924,-146.936722,,,
729706882.867479,1.345765,2.107057,-22.581295,-0.037247,0.023071,0.993469,-0.025587,0.04089,-0.011565,61.336212,29.456924,-146.936722,,,
729706882.870076,1.340008,2.116695,121.326715,-0.037247,0.023071,0.993469,-0.025587,0.04089,-0.011565,61.336212,29.456924,-146.936722,,,
729706882.871435,1.339998,2.116662,-22.583462,-0.037247,0.023071,0.993469,-0.025587,0.04089,-0.011565,61.336212,29.456924,-146.936722,,,
729706882.873338,1.334295,2.126116,121.325636,-0.042587,0.021423,0.998032,-0.016953,0.03368,-0.003519,61.336212,29.456924,-146.936722,,,
729706882.876179,1.334286,2.126082,-22.584542,-0.042587,0.021423,0.998032,-0.016953,0.03368,-0.003519,61.254639,29.589417,-147.037704,,,
729706882.876667,1.334295,2.126116,121.325636,-0.042587,0.021423,0.998032,-0.016953,0.03368,-0.003519,61.254639,29.589417,-147.037704,,,
729706882.877477,1.334286,2.126082,-22.584542,-0.042587,0.021423,0.998032,-0.016953,0.03368,-0.003519,61.254639,29.589417,-147.037704,,,
729706882.880014,1.330087,2.131496,121.325679,-0.042587,0.021423,0.998032,-0.016953,0.03368,-0.003519,61.254639,29.589417,-147.037704,,,
729706882.880802,1.330077,2.131463,-22.584507,-0.042587,0.021423,0.998032,-0.016953,0.03368,-0.003519,61.254639,29.589417,-147.037704,,,
729706882.883326,1.325333,2.138126,121.326147,-0.047119,0.021973,0.997253,-0.013831,0.022775,5.3e-05,61.254639,29.589417,-147.037704,,,
729706882.886249,1.325323,2.138092,-22.584037,-0.047119,0.021973,0.997253,-0.013831,0.022775,5.3e-05,61.254639,29.589417,-147.037704,,,
729706882.88671,1.325333,2.138126,121.326147,-0.047119,0.021973,0.997253,-0.013831,0.022775,5.3e-05,61.254639,29.589417,-147.037704,,,
729706882.887476,1.325323,2.138092,-22.584037,-0.047119,0.021973,0.997253,-0.013831,0.022775,5.3e-05,61.254639,29.589417,-147.037704,,,
729706882.890003,1.321472,2.138699,121.326832,-0.047119,0.021973,0.997253,-0.013831,0.022775,5.3e-05,61.254639,29.589417,-147.037704,,,
729706882.891192,1.321462,2.138666,-22.583351,-0.047119,0.021973,0.997253,-0.013831,0.022775,5.3e-05,61.254639,29.589417,-147.037704,,,
729706882.893335,1.315405,2.140385,121.327513,-0.047699,0.024078,0.993774,-0.021579,0.004544,0.000336,61.254639,29.589417,-147.037704,,,
729706882.894813,1.315395,2.140351,-22.582665,-0.047699,0.024078,0.993774,-0.021579,0.004544,0.000336,61.254639,29.589417,-147.037704,,,
729706882.896745,1.315405,2.140385,121.327513,-0.047699,0.024078,0.993774,-0.021579,0.004544,0.000336,61.254639,29.589417,-147.037704,,,
729706882.897471,1.315395,2.140351,-22.582665,-0.047699,0.024078,0.993774,-0.021579,0.004544,0.000336,61.254639,29.589417,-147.037704,,,
729706882.900002,1.309958,2.13736,121.327827,-0.047699,0.024078,0.993774,-0.021579,0.004544,0.000336,61.254639,29.589417,-147.037704,,,
729706882.901164,1.309949,2.137326,-22.582349,-0.047699,0.024078,0.993774,-0.021579,0.004544,0.000336,61.254639,29.589417,-147.037704,,,
729706882.903335,1.302448,2.136307,121.327257,-0.045609,0.023071,0.992935,-0.027202,-0.002657,-0.005562,61.254639,29.589417,-147.037704,,,
729706882.906774,1.302438,2.136274,-22.582919,-0.045609,0.023071,0.992935,-0.027202,-0.002657,-0.005562,61.254639,29.589417,-147.037704,,,
729706882.907292,1.302448,2.136307,121.327257,-0.045609,0.023071,0.992935,-0.027202,-0.002657,-0.005562,61.254639,29.589417,-147.037704,,,
729706882.907578,1.302438,2.136274,-22.582919,-0.045609,0.023071,0.992935,-0.027202,-0.002657,-0.005562,61.254639,29.589417,-147.037704,,,
729706882.910024,1.296195,2.131686,121.326493,-0.045609,0.023071,0.992935,-0.027202,-0.002657,-0.005562,61.254639,29.589417,-147.037704,,,
729706882.911204,1.296185,2.131653,-22.583687,-0.045609,0.023071,0.992935,-0.027202,-0.002657,-0.005562,61.254639,29.589417,-147.037704,,,
729706882.913342,1.287039,2.128264,121.325648,-0.048431,0.02356,0.992752,-0.03406,-0.01104,-0.005984,61.254639,29.589417,-147.037704,,,
729706882.914735,1.287029,2.12823,-22.584528,-0.048431,0.02356,0.992752,-0.03406,-0.01104,-0.005984,61.254639,29.589417,-147.037704,,,
729706882.916678,1.287039,2.128264,121.325648,-0.048431,0.02356,0.992752,-0.03406,-0.01104,-0.005984,61.230957,29.695908,-147.024521,,,
729706882.918167,1.287029,2.12823,-22.584528,-0.048431,0.02356,0.992752,-0.03406,-0.01104,-0.005984,61.230957,29.695908,-147.024521,,,
729706882.92006,1.278682,2.121472,121.32473,-0.048431,0.02356,0.992752,-0.03406,-0.01104,-0.005984,61.230957,29.695908,-147.024521,,,
729706882.921637,1.278672,2.121439,-22.58545,-0.048431,0.02356,0.992752,-0.03406,-0.01104,-0.005984,61.230957,29.695908,-147.024521,,,
729706882.923389,1.26642,2.115103,121.324365,-0.049454,0.024063,0.991837,-0.045632,-0.023289,-0.002179,61.230957,29.695908,-147.024521,,,
729706882.925152,1.266411,2.11507,-22.585812,-0.049454,0.024063,0.991837,-0.045632,-0.023289,-0.002179,61.230957,29.695908,-147.024521,,,
729706882.926693,1.26642,2.115103,121.324365,-0.049454,0.024063,0.991837,-0.045632,-0.023289,-0.002179,61.230957,29.695908,-147.024521,,,
729706882.927479,1.266411,2.11507,-22.585812,-0.049454,0.024063,0.991837,-0.045632,-0.023289,-0.002179,61.230957,29.695908,-147.024521,,,
729706882.930015,1.254311,2.106165,121.324785,-0.049454,0.024063,0.991837,-0.045632,-0.023289,-0.002179,61.230957,29.695908,-147.024521,,,
729706882.931446,1.254301,2.106132,-22.585395,-0.049454,0.024063,0.991837,-0.045632,-0.023289,-0.002179,61.230957,29.695908,-147.024521,,,
729706882.933335,1.239252,2.098225,121.325566,-0.05014,0.019272,0.992493,-0.053402,-0.025967,0.000242,61.230957,29.695908,-147.024521,,,
729706882.936355,1.239243,2.098191,-22.584614,-0.05014,0.019272,0.992493,-0.053402,-0.025967,0.000242,61.230957,29.695908,-147.024521,,,
729706882.936672,1.239252,2.098225,121.325566,-0.05014,0.019272,0.992493,-0.053402,-0.025967,0.000242,61.230957,29.695908,-147.024521,,,
729706882.937488,1.239243,2.098191,-22.584614,-0.05014,0.019272,0.992493,-0.053402,-0.025967,0.000242,61.230957,29.695908,-147.024521,,,
729706882.940008,1.224388,2.089866,121.327124,-0.05014,0.019272,0.992493,-0.053402,-0.025967,0.000242,61.230957,29.695908,-147.024521,,,
729706882.941496,1.224378,2.089832,-22.583057,-0.05014,0.019272,0.992493,-0.053402,-0.025967,0.000242,61.230957,29.695908,-147.024521,,,
729706882.943338,1.209309,2.082193,121.328861,-0.046677,0.018845,0.994461,-0.051043,-0.022601,0.001629,61.230957,29.695908,-147.024521,,,
729706882.945006,1.209299,2.08216,-22.581322,-0.046677,0.018845,0.994461,-0.051043,-0.022601,0.001629,61.230957,29.695908,-147.024521,,,
729706882.946745,1.209309,2.082193,121.328861,-0.046677,0.018845,0.994461,-0.051043,-0.022601,0.001629,61.230957,29.695908,-147.024521,,,
729706882.947472,1.209299,2.08216,-22.581322,-0.046677,0.018845,0.994461,-0.051043,-0.022601,0.001629,61.230957,29.695908,-147.024521,,,
729706882.950003,1.195615,2.076914,121.33019,-0.046677,0.018845,0.994461,-0.051043,-0.022601,0.001629,61.230957,29.695908,-147.024521,,,
729706882.95115,1.195605,2.076881,-22.579991,-0.046677,0.018845,0.994461,-0.051043,-0.022601,0.001629,61.230957,29.695908,-147.024521,,,
729706882.953334,1.183503,2.072997,121.331304,-0.039642,0.014694,1.001312,-0.039074,-0.008211,0.000449,61.230957,29.695908,-147.024521,,,
729706882.955768,1.183494,2.072963,-22.57888,-0.039642,0.014694,1.001312,-0.039074,-0.008211,0.000449,61.230957,29.695908,-147.024521,,,
729706882.95668,1.183503,2.072997,121.331304,-0.039642,0.014694,1.001312,-0.039074,-0.008211,0.000449,61.085541,29.67482,-147.173553,,,
729706882.958153,1.183494,2.072963,-22.57888,-0.039642,0.014694,1.001312,-0.039074,-0.008211,0.000449,61.085541,29.67482,-147.173553,,,
729706882.960001,1.174219,2.072348,121.332545,-0.039642,0.014694,1.001312,-0.039074,-0.008211,0.000449,61.085541,29.67482,-147.173553,,,
729706882.961168,1.174209,2.072315,-22.577631,-0.039642,0.014694,1.001312,-0.039074,-0.008211,0.000449,61.085541,29.67482,-147.173553,,,
729706882.963333,1.167985,2.070697,121.334098,-0.037323,0.011139,1.007477,-0.016437,-0.002185,0.003153,61.085541,29.67482,-147.173553,,,
729706882.964775,1.167976,2.070664,-22.576077,-0.037323,0.011139,1.007477,-0.016437,-0.002185,0.003153,61.085541,29.67482,-147.173553,,,
729706882.966666,1.167985,2.070697,121.334098,-0.037323,0.011139,1.007477,-0.016437,-0.002185,0.003153,61.085541,29.67482,-147.173553,,,
729706882.967475,1.167976,2.070664,-22.576077,-0.037323,0.011139,1.007477,-0.016437,-0.002185,0.003153,61.085541,29.67482,-147.173553,,,
729706882.970098,1.164698,2.071992,121.335951,-0.037323,0.011139,1.007477,-0.016437,-0.002185,0.003153,61.085541,29.67482,-147.173553,,,
729706882.971465,1.164688,2.071959,-22.574228,-0.037323,0.011139,1.007477,-0.016437,-0.002185,0.003153,61.085541,29.67482,-147.173553,,,
729706882.973342,1.162821,2.070615,121.338834,-0.03743,0.011078,1.003372,-0.003255,-0.00189,0.010408,61.085541,29.67482,-147.173553,,,
729706882.974838,1.162812,2.070581,-22.571345,-0.03743,0.011078,1.003372,-0.003255,-0.00189,0.010408,61.085541,29.67482,-147.173553,,,
729706882.976686,1.162821,2.070615,121.338834,-0.03743,0.011078,1.003372,-0.003255,-0.00189,0.010408,61.085541,29.67482,-147.173553,,,
729706882.977475,1.162812,2.070581,-22.571345,-0.03743,0.011078,1.003372,-0.003255,-0.00189,0.010408,61.085541,29.67482,-147.173553,,,
729706882.980012,1.163013,2.072212,121.342303,-0.03743,0.011078,1.003372,-0.003255,-0.00189,0.010408,61.085541,29.67482,-147.173553,,,
729706882.980803,1.163004,2.072179,-22.567876,-0.03743,0.011078,1.003372,-0.003255,-0.00189,0.010408,61.085541,29.67482,-147.173553,,,
729706882.983333,1.162874,2.073292,121.346181,-0.034592,0.015274,0.998291,-0.000778,0.010436,0.012989,61.085541,29.67482,-147.173553,,,
729706882.986095,1.162865,2.073258,-22.564001,-0.034592,0.015274,0.998291,-0.000778,0.010436,0.012989,61.085541,29.67482,-147.173553,,,
729706882.986699,1.162874,2.073292,121.346181,-0.034592,0.015274,0.998291,-0.000778,0.010436,0.012989,61.085541,29.67482,-147.173553,,,
729706882.987484,1.162865,2.073258,-22.564001,-0.034592,0.015274,0.998291,-0.000778,0.010436,0.012989,61.085541,29.67482,-147.173553,,,
729706882.990004,1.162756,2.078688,121.350638,-0.034592,0.015274,0.998291,-0.000778,0.010436,0.012989,61.085541,29.67482,-147.173553,,,
729706882.991203,1.162746,2.078655,-22.559544,-0.034592,0.015274,0.998291,-0.000778,0.010436,0.012989,61.085541,29.67482,-147.173553,,,
729706882.993338,1.160829,2.084326,121.355441,-0.033188,0.019638,0.998169,-0.008624,0.028326,0.014822,61.085541,29.67482,-147.173553,,,
729706882.99484,1.160819,2.084293,-22.55474,-0.033188,0.019638,0.998169,-0.008624,0.028326,0.014822,61.085541,29.67482,-147.173553,,,
729706882.996743,1.160829,2.084326,121.355441,-0.033188,0.019638,0.998169,-0.008624,0.028326,0.014822,61.085541,29.67482,-147.173553,,,
729706882.998126,1.160819,2.084293,-22.55474,-0.033188,0.019638,0.998169,-0.008624,0.028326,0.014822,61.456573,29.529724,-146.986359,,,
729706883.000002,1.158472,2.095668,121.360184,-0.033188,0.019638,0.998169,-0.008624,0.028326,0.014822,61.456573,29.529724,-146.986359,,,
729706883.001141,1.158462,2.095635,-22.550003,-0.033188,0.019638,0.998169,-0.008624,0.028326,0.014822,61.456573,29.529724,-146.986359,,,
729706883.003336,1.153875,2.105753,121.364691,-0.031296,0.023346,0.992691,-0.018517,0.038983,0.012563,61.456573,29.529724,-146.986359,,,
729706883.005346,1.153865,2.10572,-22.545483,-0.031296,0.023346,0.992691,-0.018517,0.038983,0.012563,61.456573,29.529724,-146.986359,,,
729706883.006687,1.153875,2.105753,121.364691,-0.031296,0.023346,0.992691,-0.018517,0.038983,0.012563,61.456573,29.529724,-146.986359,,,
729706883.007486,1.153865,2.10572,-22.545483,-0.031296,0.023346,0.992691,-0.018517,0.038983,0.012563,61.456573,29.529724,-146.986359,,,
729706883.009995,1.147706,2.119853,121.368547,-0.031296,0.023346,0.992691,-0.018517,0.038983,0.012563,61.456573,29.529724,-146.986359,,,
729706883.011416,1.147696,2.11982,-22.541629,-0.031296,0.023346,0.992691,-0.018517,0.038983,0.012563,61.456573,29.529724,-146.986359,,,
729706883.013337,1.139416,2.132205,121.372643,-0.033722,0.025787,0.985718,-0.031909,0.047862,0.013327,61.456573,29.529724,-146.986359,,,
729706883.015436,1.139406,2.132172,-22.537537,-0.033722,0.025787,0.985718,-0.031909,0.047862,0.013327,61.456573,29.529724,-146.986359,,,
729706883.016684,1.139416,2.132205,121.372643,-0.033722,0.025787,0.985718,-0.031909,0.047862,0.013327,61.456573,29.529724,-146.986359,,,
729706883.017472,1.139406,2.132172,-22.537537,-0.033722,0.025787,0.985718,-0.031909,0.047862,0.013327,61.456573,29.529724,-146.986359,,,
729706883.019995,1.129128,2.147501,121.376923,-0.033722,0.025787,0.985718,-0.031909,0.047862,0.013327,61.456573,29.529724,-146.986359,,,
729706883.021775,1.129118,2.147468,-22.53326,-0.033722,0.025787,0.985718,-0.031909,0.047862,0.013327,61.456573,29.529724,-146.986359,,,
729706883.023332,1.116959,2.160602,121.380816,-0.039612,0.022125,0.98613,-0.044402,0.050008,0.009801,61.456573,29.529724,-146.986359,,,
729706883.025384,1.116949,2.160569,-22.529364,-0.039612,0.022125,0.98613,-0.044402,0.050008,0.009801,61.456573,29.529724,-146.986359,,,
729706883.026692,1.116959,2.160602,121.380816,-0.039612,0.022125,0.98613,-0.044402,0.050008,0.009801,61.456573,29.529724,-146.986359,,,
729706883.027475,1.116949,2.160569,-22.529364,-0.039612,0.022125,0.98613,-0.044402,0.050008,0.009801,61.456573,29.529724,-146.986359,,,
729706883.030019,1.103871,2.176099,121.384951,-0.039612,0.022125,0.98613,-0.044402,0.050008,0.009801,61.456573,29.529724,-146.986359,,,
729706883.031429,1.103861,2.176066,-22.525226,-0.039612,0.022125,0.98613,-0.044402,0.050008,0.009801,61.456573,29.529724,-146.986359,,,
729706883.033336,1.091366,2.190463,121.389565,-0.045547,0.015808,0.989929,-0.043745,0.051293,0.012995,61.456573,29.529724,-146.986359,,,
729706883.035171,1.091356,2.19043,-22.520618,-0.045547,0.015808,0.989929,-0.043745,0.051293,0.012995,61.456573,29.529724,-146.986359,,,
729706883.036685,1.091366,2.190463,121.389565,-0.045547,0.015808,0.989929,-0.043745,0.051293,0.012995,61.456573,29.529724,-146.986359,,,
729706883.037471,1.091356,2.19043,-22.520618,-0.045547,0.015808,0.989929,-0.043745,0.051293,0.012995,61.456573,29.529724,-146.986359,,,
729706883.040011,1.078312,2.202942,121.394837,-0.045547,0.015808,0.989929,-0.043745,0.051293,0.012995,61.308075,29.931274,-147.307266,,,
729706883.042027,1.078302,2.202909,-22.515347,-0.045547,0.015808,0.989929,-0.043745,0.051293,0.012995,61.308075,29.931274,-147.307266,,,
729706883.043336,1.068323,2.21283,121.401265,-0.045197,0.010788,0.989777,-0.031808,0.030923,0.021525,61.308075,29.931274,-147.307266,,,
729706883.045728,1.068313,2.212797,-22.508918,-0.045197,0.010788,0.989777,-0.031808,0.030923,0.021525,61.308075,29.931274,-147.307266,,,
729706883.046743,1.068323,2.21283,121.401265,-0.045197,0.010788,0.989777,-0.031808,0.030923,0.021525,61.308075,29.931274,-147.307266,,,
729706883.047468,1.068313,2.212797,-22.508918,-0.045197,0.010788,0.989777,-0.031808,0.030923,0.021525,61.308075,29.931274,-147.307266,,,
729706883.049991,1.058974,2.219426,121.408903,-0.045197,0.010788,0.989777,-0.031808,0.030923,0.021525,61.308075,29.931274,-147.307266,,,
729706883.051658,1.058964,2.219392,-22.501282,-0.045197,0.010788,0.989777,-0.031808,0.030923,0.021525,61.308075,29.931274,-147.307266,,,
729706883.053333,1.053186,2.223929,121.417334,-0.047211,0.012543,0.991135,-0.018157,0.016034,0.027583,61.308075,29.931274,-147.307266,,,
729706883.055272,1.053176,2.223896,-22.492853,-0.047211,0.012543,0.991135,-0.018157,0.016034,0.027583,61.308075,29.931274,-147.307266,,,
729706883.05667,1.053186,2.223929,121.417334,-0.047211,0.012543,0.991135,-0.018157,0.016034,0.027583,61.308075,29.931274,-147.307266,,,
729706883.057475,1.053176,2.223896,-22.492853,-0.047211,0.012543,0.991135,-0.018157,0.016034,0.027583,61.308075,29.931274,-147.307266,,,
729706883.059992,1.046878,2.226267,121.425851,-0.047211,0.012543,0.991135,-0.018157,0.016034,0.027583,61.308075,29.931274,-147.307266,,,
729706883.06138,1.046868,2.226234,-22.484321,-0.047211,0.012543,0.991135,-0.018157,0.016034,0.027583,61.308075,29.931274,-147.307266,,,
729706883.063333,1.040772,2.228598,121.434373,-0.040695,0.017868,0.993729,-0.024121,0.011448,0.027349,61.308075,29.931274,-147.307266,,,
729706883.065093,1.040762,2.228565,-22.475801,-0.040695,0.017868,0.993729,-0.024121,0.011448,0.027349,61.308075,29.931274,-147.307266,,,
729706883.066668,1.040772,2.228598,121.434373,-0.040695,0.017868,0.993729,-0.024121,0.011448,0.027349,61.308075,29.931274,-147.307266,,,
729706883.067474,1.040762,2.228565,-22.475801,-0.040695,0.017868,0.993729,-0.024121,0.011448,0.027349,61.308075,29.931274,-147.307266,,,
729706883.069998,1.033339,2.229472,121.441722,-0.040695,0.017868,0.993729,-0.024121,0.011448,0.027349,61.308075,29.931274,-147.307266,,,
729706883.071467,1.033329,2.229439,-22.468459,-0.040695,0.017868,0.993729,-0.024121,0.011448,0.027349,61.308075,29.931274,-147.307266,,,
729706883.073318,1.023429,2.231385,121.44731,-0.033783,0.025482,0.990646,-0.04167,0.010163,0.014582,61.308075,29.931274,-147.307266,,,
729706883.075475,1.023419,2.231352,-22.462873,-0.033783,0.025482,0.990646,-0.04167,0.010163,0.014582,61.308075,29.931274,-147.307266,,,
729706883.076685,1.023429,2.231385,121.44731,-0.033783,0.025482,0.990646,-0.04167,0.010163,0.014582,61.308075,29.931274,-147.307266,,,
729706883.077476,1.023419,2.231352,-22.462873,-0.033783,0.025482,0.990646,-0.04167,0.010163,0.014582,61.308075,29.931274,-147.307266,,,
729706883.080001,1.010433,2.231497,121.451826,-0.033783,0.025482,0.990646,-0.04167,0.010163,0.014582,61.181808,29.758926,-147.073029,,,
729706883.081748,1.010423,2.231464,-22.458342,-0.033783,0.025482,0.990646,-0.04167,0.010163,0.014582,61.181808,29.758926,-147.073029,,,
729706883.083333,0.993569,2.233565,121.454705,-0.032578,0.027634,0.986633,-0.063675,0.01172,0.002457,61.181808,29.758926,-147.073029,,,
729706883.084885,0.993559,2.233532,-22.455461,-0.032578,0.027634,0.986633,-0.063675,0.01172,0.002457,61.181808,29.758926,-147.073029,,,
729706883.086681,0.993569,2.233565,121.454705,-0.032578,0.027634,0.986633,-0.063675,0.01172,0.002457,61.181808,29.758926,-147.073029,,,
729706883.087479,0.993559,2.233532,-22.455461,-0.032578,0.027634,0.986633,-0.063675,0.01172,0.002457,61.181808,29.758926,-147.073029,,,
729706883.089998,0.976291,2.235268,121.455883,-0.032578,0.027634,0.986633,-0.063675,0.01172,0.002457,61.181808,29.758926,-147.073029,,,
729706883.09164,0.976281,2.235234,-22.454288,-0.032578,0.027634,0.986633,-0.063675,0.01172,0.002457,61.181808,29.758926,-147.073029,,,
729706883.093334,0.956801,2.238457,121.455857,-0.025391,0.026123,0.990875,-0.067088,0.012758,-0.005913,61.181808,29.758926,-147.073029,,,
729706883.095959,0.956791,2.238424,-22.454317,-0.025391,0.026123,0.990875,-0.067088,0.012758,-0.005913,61.181808,29.758926,-147.073029,,,
729706883.096689,0.956801,2.238457,121.455857,-0.025391,0.026123,0.990875,-0.067088,0.012758,-0.005913,61.181808,29.758926,-147.073029,,,
729706883.097484,0.956791,2.238424,-22.454317,-0.025391,0.026123,0.990875,-0.067088,0.012758,-0.005913,61.181808,29.758926,-147.073029,,,
729706883.099993,0.938601,2.241404,121.45546,-0.025391,0.026123,0.990875,-0.067088,0.012758,-0.005913,61.181808,29.758926,-147.073029,,,
729706883.101196,0.938591,2.241371,-22.454715,-0.025391,0.026123,0.990875,-0.067088,0.012758,-0.005913,61.181808,29.758926,-147.073029,,,
729706883.103335,0.919431,2.244733,121.455274,-0.02829,0.019821,0.993774,-0.06348,0.012341,-0.004275,61.181808,29.758926,-147.073029,,,
729706883.105136,0.919421,2.244699,-22.454899,-0.02829,0.019821,0.993774,-0.06348,0.012341,-0.004275,61.181808,29.758926,-147.073029,,,
729706883.106693,0.919431,2.244733,121.455274,-0.02829,0.019821,0.993774,-0.06348,0.012341,-0.004275,61.181808,29.758926,-147.073029,,,
729706883.107475,0.919421,2.244699,-22.454899,-0.02829,0.019821,0.993774,-0.06348,0.012341,-0.004275,61.181808,29.758926,-147.073029,,,
729706883.110067,0.901075,2.247973,121.455672,-0.02829,0.019821,0.993774,-0.06348,0.012341,-0.004275,61.181808,29.758926,-147.073029,,,
729706883.111451,0.901065,2.24794,-22.454501,-0.02829,0.019821,0.993774,-0.06348,0.012341,-0.004275,61.181808,29.758926,-147.073029,,,
729706883.113325,0.882696,2.248439,121.457274,-0.038055,0.011276,0.993988,-0.060746,0.000195,0.004055,61.181808,29.758926,-147.073029,,,
729706883.11624,0.882686,2.248406,-22.452903,-0.038055,0.011276,0.993988,-0.060746,0.000195,0.004055,61.181808,29.758926,-147.073029,,,
729706883.116683,0.882696,2.248439,121.457274,-0.038055,0.011276,0.993988,-0.060746,0.000195,0.004055,61.181808,29.758926,-147.073029,,,
729706883.117488,0.882686,2.248406,-22.452903,-0.038055,0.011276,0.993988,-0.060746,0.000195,0.004055,61.181808,29.758926,-147.073029,,,
729706883.11999,0.865183,2.248069,121.460453,-0.038055,0.011276,0.993988,-0.060746,0.000195,0.004055,61.02803,30.168427,-146.698608,,,
729706883.121939,0.865173,2.248036,-22.449729,-0.038055,0.011276,0.993988,-0.060746,0.000195,0.004055,61.02803,30.168427,-146.698608,,,
729706883.123368,0.848641,2.244287,121.465509,-0.039459,0.008652,0.993225,-0.05779,-0.013974,0.017177,61.02803,30.168427,-146.698608,,,
729706883.126664,0.848631,2.244254,-22.444673,-0.039459,0.008652,0.993225,-0.05779,-0.013974,0.017177,61.02803,30.168427,-146.698608,,,
729706883.126958,0.848641,2.244287,121.465509,-0.039459,0.008652,0.993225,-0.05779,-0.013974,0.017177,61.02803,30.168427,-146.698608,,,
729706883.127461,0.848631,2.244254,-22.444673,-0.039459,0.008652,0.993225,-0.05779,-0.013974,0.017177,61.02803,30.168427,-146.698608,,,
729706883.130035,0.831544,2.240687,121.471904,-0.039459,0.008652,0.993225,-0.05779,-0.013974,0.017177,61.02803,30.168427,-146.698608,,,
729706883.131168,0.831535,2.240654,-22.438281,-0.039459,0.008652,0.993225,-0.05779,-0.013974,0.017177,61.02803,30.168427,-146.698608,,,
729706883.133343,0.815423,2.235351,121.479225,-0.037796,0.008072,0.997177,-0.05668,-0.014745,0.023682,61.02803,30.168427,-146.698608,,,
729706883.135081,0.815414,2.235318,-22.430945,-0.037796,0.008072,0.997177,-0.05668,-0.014745,0.023682,61.02803,30.168427,-146.698608,,,
729706883.136675,0.815423,2.235351,121.479225,-0.037796,0.008072,0.997177,-0.05668,-0.014745,0.023682,61.02803,30.168427,-146.698608,,,
729706883.13749,0.815414,2.235318,-22.430945,-0.037796,0.008072,0.997177,-0.05668,-0.014745,0.023682,61.02803,30.168427,-146.698608,,,
729706883.140023,0.799601,2.232764,121.486534,-0.037796,0.008072,0.997177,-0.05668,-0.014745,0.023682,61.02803,30.168427,-146.698608,,,
729706883.141738,0.799591,2.232731,-22.423649,-0.037796,0.008072,0.997177,-0.05668,-0.014745,0.023682,61.02803,30.168427,-146.698608,,,
729706883.143338,0.785047,2.231277,121.492394,-0.030197,0.010742,1.00737,-0.047015,0.001813,0.013898,61.02803,30.168427,-146.698608,,,
729706883.146641,0.785038,2.231244,-22.417791,-0.030197,0.010742,1.00737,-0.047015,0.001813,0.013898,61.02803,30.168427,-146.698608,,,
729706883.146912,0.785047,2.231277,121.492394,-0.030197,0.010742,1.00737,-0.047015,0.001813,0.013898,61.02803,30.168427,-146.698608,,,
729706883.147456,0.785038,2.231244,-22.417791,-0.030197,0.010742,1.00737,-0.047015,0.001813,0.013898,61.02803,30.168427,-146.698608,,,
729706883.149999,0.773237,2.231044,121.496524,-0.030197,0.010742,1.00737,-0.047015,0.001813,0.013898,61.02803,30.168427,-146.698608,,,
729706883.151381,0.773227,2.231011,-22.413659,-0.030197,0.010742,1.00737,-0.047015,0.001813,0.013898,61.02803,30.168427,-146.698608,,,
729706883.153328,0.773237,2.232686,121.499511,-0.027863,0.01265,1.0065,-0.047692,0.012195,0.005879,61.02803,30.168427,-146.698608,,,
729706883.154698,0.759611,2.232652,-22.410673,-0.027863,0.01265,1.0065,-0.047692,0.012195,0.005879,61.02803,30.168427,-146.698608,,,
729706883.15678,0.759621,2.232686,121.499511,-0.027863,0.01265,1.0065,-0.047692,0.012195,0.005879,61.02803,30.168427,-146.698608,,,
729706883.157572,0.759611,2.232652,-22.410673,-0.027863,0.01265,1.0065,-0.047692,0.012195,0.005879,61.02803,30.168427,-146.698608,,,
729706883.160002,0.748465,2.2349,121.501229,-0.027863,0.01265,1.0065,-0.047692,0.012195,0.005879,61.02803,30.168427,-146.698608,,,
729706883.161933,0.748456,2.234866,-22.408944,-0.027863,0.01265,1.0065,-0.047692,0.012195,0.005879,61.100479,30.185501,-146.80835,,,
729706883.163344,0.748465,2.2349,121.501229,-0.030243,0.010864,1.003983,-0.052067,0.017969,-0.003454,61.100479,30.185501,-146.80835,,,
729706883.166452,0.733837,2.238971,-22.408543,-0.030243,0.010864,1.003983,-0.052067,0.017969,-0.003454,61.100479,30.185501,-146.80835,,,
729706883.166732,0.733847,2.239004,121.501628,-0.030243,0.010864,1.003983,-0.052067,0.017969,-0.003454,61.100479,30.185501,-146.80835,,,
729706883.167485,0.733837,2.238971,-22.408543,-0.030243,0.010864,1.003983,-0.052067,0.017969,-0.003454,61.100479,30.185501,-146.80835,,,
729706883.169996,0.721612,2.241496,121.501443,-0.030243,0.010864,1.003983,-0.052067,0.017969,-0.003454,61.100479,30.185501,-146.80835,,,
729706883.171237,0.721602,2.241462,-22.408736,-0.030243,0.010864,1.003983,-0.052067,0.017969,-0.003454,61.100479,30.185501,-146.80835,,,
729706883.173381,0.706364,2.246714,121.500645,-0.031296,0.011078,1.006195,-0.052244,0.023546,-0.007532,61.100479,30.185501,-146.80835,,,
729706883.175322,0.706354,2.246681,-22.40954,-0.031296,0.011078,1.006195,-0.052244,0.023546,-0.007532,61.100479,30.185501,-146.80835,,,
729706883.1767,0.706364,2.246714,121.500645,-0.031296,0.011078,1.006195,-0.052244,0.023546,-0.007532,61.100479,30.185501,-146.80835,,,
729706883.177479,0.706354,2.246681,-22.40954,-0.031296,0.011078,1.006195,-0.052244,0.023546,-0.007532,61.100479,30.185501,-146.80835,,,
729706883.179992,0.693008,2.249445,121.499632,-0.031296,0.011078,1.006195,-0.052244,0.023546,-0.007532,61.100479,30.185501,-146.80835,,,
729706883.181186,0.692999,2.249412,-22.410539,-0.031296,0.011078,1.006195,-0.052244,0.023546,-0.007532,61.100479,30.185501,-146.80835,,,
729706883.183396,0.693008,2.249445,121.498845,-0.031296,0.011078,1.006195,-0.053878,0.017303,-0.005844,61.100479,30.185501,-146.80835,,,
729706883.184514,0.677013,2.254362,-22.41133,-0.03447,0.008606,1.005661,-0.053878,0.017303,-0.005844,61.100479,30.185501,-146.80835,,,
729706883.18669,0.677023,2.254395,121.498845,-0.03447,0.008606,1.005661,-0.053878,0.017303,-0.005844,61.100479,30.185501,-146.80835,,,
729706883.187478,0.677013,2.254362,-22.41133,-0.03447,0.008606,1.005661,-0.053878,0.017303,-0.005844,61.100479,30.185501,-146.80835,,,
729706883.190106,0.662165,2.256231,121.498637,-0.03447,0.008606,1.005661,-0.053878,0.017303,-0.005844,61.100479,30.185501,-146.80835,,,
729706883.191498,0.662156,2.256198,-22.411533,-0.03447,0.008606,1.005661,-0.053878,0.017303,-0.005844,61.100479,30.185501,-146.80835,,,
729706883.193385,0.662165,2.256231,121.498637,-0.03447,0.008606,1.005661,-0.046846,-0.000856,0.000264,61.100479,30.185501,-146.80835,,,
729706883.197092,0.647746,2.256415,-22.410913,-0.037537,0.00499,1.005554,-0.046846,-0.000856,0.000264,61.100479,30.185501,-146.80835,,,
729706883.197371,0.647756,2.256448,121.499259,-0.037537,0.00499,1.005554,-0.046846,-0.000856,0.000264,61.100479,30.185501,-146.80835,,,
729706883.199986,0.633939,2.254554,121.500189,-0.037537,0.00499,1.005554,-0.046846,-0.000856,0.000264,61.100479,30.185501,-146.80835,,,
729706883.20157,0.633929,2.254521,-22.409979,-0.037537,0.00499,1.005554,-0.046846,-0.000856,0.000264,61.100479,30.185501,-146.80835,,,
729706883.203377,0.633939,2.254554,121.500189,-0.038956,0.001312,1.007431,-0.038184,-0.009625,0.000365,61.24234,30.080124,-146.952576,,,
729706883.205534,0.621751,2.251281,-22.409083,-0.038956,0.001312,1.007431,-0.038184,-0.009625,0.000365,61.24234,30.080124,-146.952576,,,
729706883.2067,0.62176,2.251314,121.501088,-0.038956,0.001312,1.007431,-0.038184,-0.009625,0.000365,61.24234,30.080124,-146.952576,,,
729706883.207479,0.621751,2.251281,-22.409083,-0.038956,0.001312,1.007431,-0.038184,-0.009625,0.000365,61.24234,30.080124,-146.952576,,,
729706883.209994,0.610589,2.247905,121.501922,-0.038956,0.001312,1.007431,-0.038184,-0.009625,0.000365,61.24234,30.080124,-146.952576,,,
729706883.211197,0.610579,2.247872,-22.40825,-0.038956,0.001312,1.007431,-0.038184,-0.009625,0.000365,61.24234,30.080124,-146.952576,,,
729706883.213328,0.610589,2.247905,121.501922,-0.038956,0.001312,1.007431,-0.038184,-0.009625,0.000365,61.24234,30.080124,-146.952576,,,
729706883.216047,0.600612,2.243653,-22.407882,-0.036652,0.002121,1.010132,-0.032552,-0.01354,-0.002638,61.24234,30.080124,-146.952576,,,
729706883.21668,0.600622,2.243686,121.502288,-0.036652,0.002121,1.010132,-0.032552,-0.01354,-0.002638,61.24234,30.080124,-146.952576,,,
729706883.217482,0.600612,2.243653,-22.407882,-0.036652,0.002121,1.010132,-0.032552,-0.01354,-0.002638,61.24234,30.080124,-146.952576,,,
729706883.219991,0.590683,2.238271,121.501644,-0.036652,0.002121,1.010132,-0.032552,-0.01354,-0.002638,61.24234,30.080124,-146.952576,,,
729706883.221253,0.590673,2.238238,-22.408525,-0.036652,0.002121,1.010132,-0.032552,-0.01354,-0.002638,61.24234,30.080124,-146.952576,,,
729706883.223412,0.590683,2.234139,121.499543,-0.036652,0.002121,1.010132,-0.032552,-0.01354,-0.002638,61.24234,30.080124,-146.952576,,,
729706883.225507,0.581331,2.234105,-22.41064,-0.033981,0.006424,1.007721,-0.029989,-0.0129,-0.012745,61.24234,30.080124,-146.952576,,,
729706883.226702,0.581341,2.234139,121.499543,-0.033981,0.006424,1.007721,-0.029989,-0.0129,-0.012745,61.24234,30.080124,-146.952576,,,
729706883.227476,0.581331,2.234105,-22.41064,-0.033981,0.006424,1.007721,-0.029989,-0.0129,-0.012745,61.24234,30.080124,-146.952576,,,
729706883.229995,0.573466,2.227429,121.496316,-0.033981,0.006424,1.007721,-0.029989,-0.0129,-0.012745,61.24234,30.080124,-146.952576,,,
729706883.23118,0.573456,2.227395,-22.413872,-0.033981,0.006424,1.007721,-0.029989,-0.0129,-0.012745,61.24234,30.080124,-146.952576,,,
729706883.233336,0.573466,2.227429,121.496316,-0.033981,0.006424,1.007721,-0.029989,-0.0129,-0.012745,61.24234,30.080124,-146.952576,,,
729706883.235109,0.56627,2.2234,-22.41811,-0.030746,0.007751,1.005585,-0.023138,-0.010782,-0.019372,61.24234,30.080124,-146.952576,,,
729706883.23667,0.56628,2.223433,121.492061,-0.030746,0.007751,1.005585,-0.023138,-0.010782,-0.019372,61.24234,30.080124,-146.952576,,,
729706883.237473,0.56627,2.2234,-22.41811,-0.030746,0.007751,1.005585,-0.023138,-0.010782,-0.019372,61.24234,30.080124,-146.952576,,,
729706883.240038,0.560463,2.217657,121.486968,-0.030746,0.007751,1.005585,-0.023138,-0.010782,-0.019372,61.24234,30.080124,-146.952576,,,
729706883.241189,0.560453,2.217624,-22.423208,-0.030746,0.007751,1.005585,-0.023138,-0.010782,-0.019372,61.24234,30.080124,-146.952576,,,
729706883.243359,0.560463,2.217657,121.486968,-0.030746,0.007751,1.005585,-0.023138,-0.010782,-0.019372,61.220993,30.454849,-146.741745,,,
729706883.245536,0.556122,2.214412,-22.42881,-0.030243,0.008194,1.005463,-0.010654,-0.006733,-0.022256,61.220993,30.454849,-146.741745,,,
729706883.246754,0.556132,2.214445,121.481366,-0.030243,0.008194,1.005463,-0.010654,-0.006733,-0.022256,61.220993,30.454849,-146.741745,,,
729706883.247473,0.556122,2.214412,-22.42881,-0.030243,0.008194,1.005463,-0.010654,-0.006733,-0.022256,61.220993,30.454849,-146.741745,,,
729706883.250002,0.553369,2.21155,121.475198,-0.030243,0.008194,1.005463,-0.010654,-0.006733,-0.022256,61.220993,30.454849,-146.741745,,,
729706883.251233,0.55336,2.211517,-22.434982,-0.030243,0.008194,1.005463,-0.010654,-0.006733,-0.022256,61.220993,30.454849,-146.741745,,,
729706883.253326,0.553369,2.21155,121.475198,-0.030243,0.008194,1.005463,-0.010654,-0.006733,-0.022256,61.220993,30.454849,-146.741745,,,
729706883.255882,0.550649,2.211971,-22.441398,-0.030975,0.006927,1.004837,-0.007836,0.00665,-0.023796,61.220993,30.454849,-146.741745,,,
729706883.256688,0.550659,2.212004,121.468785,-0.030975,0.006927,1.004837,-0.007836,0.00665,-0.023796,61.220993,30.454849,-146.741745,,,
