Time (sec),Pitch (deg),Roll (deg),Yaw(deg),X-Acceleration (g),Y-Acceleration (g),Z-Acceleration (g),Pitch Rate (deg/sec),Roll Rate (deg/sec),Yaw Rate (deg/sec),Magnetic Field in X direction (uT),Magnetic Field in Y direction (uT),Magnetic Field in Z Direction (uT),Latitude (deg),Longitude (deg),Altitude (m)
729716083.915452,-77.987998,-13.581801,-102.423792,0.022324,-1.005569,0.148865,0.746895,0.033994,-0.037673,62.882492,72.386749,-114.567459,,,
729716083.915721,-77.98793,-13.581802,-99.346876,0.022324,-1.005569,0.148865,0.746895,0.033994,-0.037673,62.882492,72.386749,-114.567459,,,
729716083.917191,-77.987998,-13.581801,-102.423792,0.022324,-1.005569,0.148865,0.746895,0.033994,-0.037673,62.882492,72.386749,-114.567459,,,
729716083.917425,-77.777267,-13.385109,-99.156528,0.035034,-0.987793,0.099335,0.746895,0.033994,-0.037673,62.882492,72.386749,-114.567459,,,
729716083.922188,-77.777334,-13.385109,-102.233442,0.035034,-0.987793,0.099335,0.746895,0.033994,-0.037673,62.882492,72.386749,-114.567459,,,
729716083.922455,-77.592266,-13.222023,-98.993622,0.035034,-0.987793,0.099335,0.596634,0.040142,-0.019167,62.882492,72.386749,-114.567459,,,
729716083.92587,-77.592332,-13.222022,-102.070536,0.035034,-0.987793,0.099335,0.596634,0.040142,-0.019167,63.049637,72.023483,-116.326492,,,
729716083.926146,-77.592266,-13.222023,-98.993622,0.035034,-0.987793,0.099335,0.596634,0.040142,-0.019167,63.049637,72.023483,-116.326492,,,
729716083.927287,-77.592332,-13.222022,-102.070536,0.035034,-0.987793,0.099335,0.596634,0.040142,-0.019167,63.049637,72.023483,-116.326492,,,
729716083.927524,-77.423227,-13.056674,-98.835393,0.017548,-0.965271,0.066772,0.596634,0.040142,-0.019167,63.049637,72.023483,-116.326492,,,
729716083.932379,-77.423292,-13.056673,-101.912306,0.017548,-0.965271,0.066772,0.596634,0.040142,-0.019167,63.049637,72.023483,-116.326492,,,
729716083.932635,-77.259184,-12.868279,-98.668213,0.017548,-0.965271,0.066772,0.592599,0.139311,0.00972,63.049637,72.023483,-116.326492,,,
729716083.936294,-77.259248,-12.868278,-101.745125,0.017548,-0.965271,0.066772,0.592599,0.139311,0.00972,63.049637,72.023483,-116.326492,,,
729716083.936557,-77.259184,-12.868279,-98.668213,0.017548,-0.965271,0.066772,0.592599,0.139311,0.00972,63.049637,72.023483,-116.326492,,,
729716083.937088,-77.259248,-12.868278,-101.745125,0.017548,-0.965271,0.066772,0.592599,0.139311,0.00972,63.049637,72.023483,-116.326492,,,
729716083.937445,-77.094567,-12.652625,-98.486001,0.010956,-0.966629,0.209122,0.592599,0.139311,0.00972,63.049637,72.023483,-116.326492,,,
729716083.941977,-77.09463,-12.652623,-101.562913,0.010956,-0.966629,0.209122,0.592599,0.139311,0.00972,63.049637,72.023483,-116.326492,,,
729716083.942246,-77.094567,-12.652625,-98.486001,0.010956,-0.966629,0.209122,0.592599,0.139311,0.00972,63.049637,72.023483,-116.326492,,,
729716083.945359,-76.926737,-12.408125,-101.355517,0.010956,-0.966629,0.209122,0.632879,0.145348,0.052228,63.049637,72.023483,-116.326492,,,
729716083.945792,-76.926675,-12.408127,-98.278606,0.010956,-0.966629,0.209122,0.632879,0.145348,0.052228,63.049637,72.023483,-116.326492,,,
729716083.947189,-76.926737,-12.408125,-101.355517,0.010956,-0.966629,0.209122,0.632879,0.145348,0.052228,63.049637,72.023483,-116.326492,,,
729716083.947445,-76.752454,-12.135771,-98.040133,0.023117,-0.979309,0.260986,0.632879,0.145348,0.052228,63.049637,72.023483,-116.326492,,,
729716083.952197,-76.752515,-12.135769,-101.117044,0.023117,-0.979309,0.260986,0.632879,0.145348,0.052228,63.049637,72.023483,-116.326492,,,
729716083.952435,-76.569943,-11.830795,-97.763623,0.023117,-0.979309,0.260986,0.706583,0.116645,0.11775,63.049637,72.023483,-116.326492,,,
729716083.955224,-76.570004,-11.830793,-100.840533,0.023117,-0.979309,0.260986,0.706583,0.116645,0.11775,63.049637,72.023483,-116.326492,,,
729716083.955467,-76.569943,-11.830795,-97.763623,0.023117,-0.979309,0.260986,0.706583,0.116645,0.11775,63.049637,72.023483,-116.326492,,,
729716083.957271,-76.570004,-11.830793,-100.840533,0.023117,-0.979309,0.260986,0.706583,0.116645,0.11775,63.049637,72.023483,-116.326492,,,
729716083.957473,-76.377781,-11.489013,-97.44505,0.006851,-0.969055,0.264679,0.706583,0.116645,0.11775,63.049637,72.023483,-116.326492,,,
729716083.962125,-76.377841,-11.48901,-100.52196,0.006851,-0.969055,0.264679,0.706583,0.116645,0.11775,63.049637,72.023483,-116.326492,,,
729716083.962394,-76.1771,-11.11793,-97.093279,0.006851,-0.969055,0.264679,0.769961,0.097411,0.171111,63.049637,72.023483,-116.326492,,,
729716083.965884,-76.177159,-11.117927,-100.170189,0.006851,-0.969055,0.264679,0.769961,0.097411,0.171111,63.475677,71.488297,-117.929504,,,
729716083.966138,-76.1771,-11.11793,-97.093279,0.006851,-0.969055,0.264679,0.769961,0.097411,0.171111,63.475677,71.488297,-117.929504,,,
729716083.967126,-76.177159,-11.117927,-100.170189,0.006851,-0.969055,0.264679,0.769961,0.097411,0.171111,63.475677,71.488297,-117.929504,,,
729716083.967432,-75.969336,-10.729198,-96.720838,-0.001343,-0.946976,0.283676,0.769961,0.097411,0.171111,63.475677,71.488297,-117.929504,,,
729716083.974056,-75.969394,-10.729194,-99.797747,-0.001343,-0.946976,0.283676,0.794935,0.08596,0.196636,63.475677,71.488297,-117.929504,,,
729716083.97437,-75.757121,-10.33126,-96.336526,-0.001343,-0.946976,0.283676,0.794935,0.08596,0.196636,63.475677,71.488297,-117.929504,,,
729716083.979878,-75.757178,-10.331256,-99.413434,0.014572,-0.937378,0.260513,0.794935,0.08596,0.196636,63.475677,71.488297,-117.929504,,,
729716083.980393,-75.543316,-9.930625,-95.94803,0.014572,-0.937378,0.260513,0.794935,0.08596,0.196636,63.475677,71.488297,-117.929504,,,
729716083.981647,-75.543372,-9.930621,-99.024937,0.014572,-0.937378,0.260513,0.794935,0.08596,0.196636,63.475677,71.488297,-117.929504,,,
729716083.981892,-75.543316,-9.930625,-95.94803,0.014572,-0.937378,0.260513,0.794935,0.08596,0.196636,63.475677,71.488297,-117.929504,,,
729716083.985186,-75.330346,-9.53331,-98.64046,0.014572,-0.937378,0.260513,0.782973,0.101237,0.203337,63.475677,71.488297,-117.929504,,,
729716083.985423,-75.33029,-9.533315,-95.563553,0.014572,-0.937378,0.260513,0.782973,0.101237,0.203337,63.475677,71.488297,-117.929504,,,
729716083.987222,-75.330346,-9.53331,-98.64046,0.014572,-0.937378,0.260513,0.782973,0.101237,0.203337,63.475677,71.488297,-117.929504,,,
729716083.98742,-75.118013,-9.144487,-95.190265,0.014572,-0.937378,0.260513,0.782973,0.101237,0.203337,63.475677,71.488297,-117.929504,,,
729716083.99196,-75.118067,-9.144483,-98.267172,0.028656,-0.936768,0.241638,0.782973,0.101237,0.203337,63.475677,71.488297,-117.929504,,,
729716083.992224,-75.118013,-9.144487,-95.190265,0.028656,-0.936768,0.241638,0.782973,0.101237,0.203337,63.475677,71.488297,-117.929504,,,
729716083.995475,-74.907467,-8.76948,-97.910125,0.028656,-0.936768,0.241638,0.756481,0.117177,0.191651,63.475677,71.488297,-117.929504,,,
729716083.995764,-74.907413,-8.769485,-94.833219,0.028656,-0.936768,0.241638,0.756481,0.117177,0.191651,63.475677,71.488297,-117.929504,,,
729716083.997182,-74.907467,-8.76948,-97.910125,0.028656,-0.936768,0.241638,0.756481,0.117177,0.191651,63.475677,71.488297,-117.929504,,,
729716083.997417,-74.907413,-8.769485,-94.833219,0.045181,-0.928833,0.240097,0.756481,0.117177,0.191651,63.475677,71.488297,-117.929504,,,
729716084.00192,-74.700995,-8.415437,-97.576385,0.045181,-0.928833,0.240097,0.756481,0.117177,0.191651,63.475677,71.488297,-117.929504,,,
729716084.00217,-74.700942,-8.415442,-94.49948,0.045181,-0.928833,0.240097,0.756481,0.117177,0.191651,63.475677,71.488297,-117.929504,,,
729716084.005057,-74.500318,-8.087672,-97.271481,0.045181,-0.928833,0.240097,0.700394,0.118718,0.1594,63.475677,71.488297,-117.929504,,,
729716084.005303,-74.500266,-8.087678,-94.194576,0.045181,-0.928833,0.240097,0.700394,0.118718,0.1594,63.475677,71.488297,-117.929504,,,
729716084.007885,-74.500318,-8.087672,-97.271481,0.045181,-0.928833,0.240097,0.700394,0.118718,0.1594,63.964005,70.893036,-119.616943,,,
729716084.008109,-74.30727,-7.792771,-93.923422,0.057083,-0.920837,0.224533,0.700394,0.118718,0.1594,63.964005,70.893036,-119.616943,,,
729716084.012245,-74.307322,-7.792765,-97.000327,0.057083,-0.920837,0.224533,0.700394,0.118718,0.1594,63.964005,70.893036,-119.616943,,,
729716084.012715,-74.124862,-7.538604,-93.691119,0.057083,-0.920837,0.224533,0.610781,0.089049,0.104393,63.964005,70.893036,-119.616943,,,
729716084.015215,-74.124912,-7.538598,-96.768023,0.057083,-0.920837,0.224533,0.610781,0.089049,0.104393,63.964005,70.893036,-119.616943,,,
729716084.01546,-74.124862,-7.538604,-93.691119,0.057083,-0.920837,0.224533,0.610781,0.089049,0.104393,63.964005,70.893036,-119.616943,,,
729716084.017206,-74.124912,-7.538598,-96.768023,0.057083,-0.920837,0.224533,0.610781,0.089049,0.104393,63.964005,70.893036,-119.616943,,,
729716084.017417,-74.124862,-7.538604,-93.691119,0.057083,-0.920837,0.224533,0.610781,0.089049,0.104393,63.964005,70.893036,-119.616943,,,
729716084.022148,-73.954644,-7.328248,-96.574602,0.064148,-0.911911,0.207001,0.610781,0.089049,0.104393,63.964005,70.893036,-119.616943,,,
729716084.022427,-73.79737,-7.162242,-93.342757,0.064148,-0.911911,0.207001,0.610781,0.089049,0.104393,63.964005,70.893036,-119.616943,,,
729716084.025253,-73.79742,-7.162235,-96.41966,0.064148,-0.911911,0.207001,0.515415,0.040342,0.047612,63.964005,70.893036,-119.616943,,,
729716084.025494,-73.79737,-7.162242,-93.342757,0.064148,-0.911911,0.207001,0.515415,0.040342,0.047612,63.964005,70.893036,-119.616943,,,
729716084.027205,-73.79742,-7.162235,-96.41966,0.064148,-0.911911,0.207001,0.515415,0.040342,0.047612,63.964005,70.893036,-119.616943,,,
729716084.027516,-73.652242,-7.03914,-93.225626,0.064148,-0.911911,0.207001,0.515415,0.040342,0.047612,63.964005,70.893036,-119.616943,,,
729716084.032028,-73.652291,-7.039133,-96.302529,0.064941,-0.899857,0.191391,0.515415,0.040342,0.047612,63.964005,70.893036,-119.616943,,,
729716084.032283,-73.652242,-7.03914,-93.225626,0.064941,-0.899857,0.191391,0.515415,0.040342,0.047612,63.964005,70.893036,-119.616943,,,
729716084.036402,-73.51784,-6.957765,-96.222446,0.064941,-0.899857,0.191391,0.441353,0.003345,-0.010319,63.964005,70.893036,-119.616943,,,
729716084.036679,-73.517792,-6.957771,-93.145543,0.064941,-0.899857,0.191391,0.441353,0.003345,-0.010319,63.964005,70.893036,-119.616943,,,
729716084.037011,-73.51784,-6.957765,-96.222446,0.064941,-0.899857,0.191391,0.441353,0.003345,-0.010319,63.964005,70.893036,-119.616943,,,
729716084.037452,-73.517792,-6.957771,-93.145543,0.057236,-0.901596,0.205734,0.441353,0.003345,-0.010319,63.964005,70.893036,-119.616943,,,
729716084.041823,-73.391739,-6.913322,-96.176002,0.057236,-0.901596,0.205734,0.441353,0.003345,-0.010319,63.964005,70.893036,-119.616943,,,
729716084.042078,-73.39169,-6.913329,-93.0991,0.057236,-0.901596,0.205734,0.441353,0.003345,-0.010319,63.964005,70.893036,-119.616943,,,
729716084.046386,-73.270752,-6.898738,-96.158564,0.057236,-0.901596,0.205734,0.409125,-0.007712,-0.058002,63.964005,70.893036,-119.616943,,,
729716084.046867,-73.270704,-6.898744,-93.081661,0.057236,-0.901596,0.205734,0.409125,-0.007712,-0.058002,63.964005,70.893036,-119.616943,,,
729716084.047849,-73.270752,-6.898738,-96.158564,0.057236,-0.901596,0.205734,0.409125,-0.007712,-0.058002,64.199295,70.662048,-120.654541,,,
729716084.04807,-73.152574,-6.907587,-93.087932,0.05867,-0.907242,0.23732,0.409125,-0.007712,-0.058002,64.199295,70.662048,-120.654541,,,
729716084.051652,-73.152621,-6.907581,-96.164834,0.05867,-0.907242,0.23732,0.409125,-0.007712,-0.058002,64.199295,70.662048,-120.654541,,,
729716084.051878,-73.152574,-6.907587,-93.087932,0.05867,-0.907242,0.23732,0.409125,-0.007712,-0.058002,64.199295,70.662048,-120.654541,,,
729716084.055294,-73.036544,-6.932048,-96.186233,0.05867,-0.907242,0.23732,0.396486,-0.018547,-0.077224,64.199295,70.662048,-120.654541,,,
729716084.055532,-73.036497,-6.932054,-93.109331,0.05867,-0.907242,0.23732,0.396486,-0.018547,-0.077224,64.199295,70.662048,-120.654541,,,
729716084.057303,-73.036544,-6.932048,-96.186233,0.05867,-0.907242,0.23732,0.396486,-0.018547,-0.077224,64.199295,70.662048,-120.654541,,,
729716084.057513,-73.036497,-6.932054,-93.109331,0.05867,-0.907242,0.23732,0.396486,-0.018547,-0.077224,64.199295,70.662048,-120.654541,,,
729716084.062393,-72.920514,-6.962322,-96.21163,0.049332,-0.915421,0.264938,0.396486,-0.018547,-0.077224,64.199295,70.662048,-120.654541,,,
729716084.062652,-72.80254,-6.98852,-93.154215,0.049332,-0.915421,0.264938,0.41911,-0.023164,-0.061249,64.199295,70.662048,-120.654541,,,
729716084.065062,-72.802587,-6.988514,-96.231116,0.049332,-0.915421,0.264938,0.41911,-0.023164,-0.061249,64.199295,70.662048,-120.654541,,,
729716084.065304,-72.80254,-6.98852,-93.154215,0.049332,-0.915421,0.264938,0.41911,-0.023164,-0.061249,64.199295,70.662048,-120.654541,,,
729716084.067226,-72.802587,-6.988514,-96.231116,0.049332,-0.915421,0.264938,0.41911,-0.023164,-0.061249,64.199295,70.662048,-120.654541,,,
729716084.067432,-72.80254,-6.98852,-93.154215,0.049332,-0.915421,0.264938,0.41911,-0.023164,-0.061249,64.199295,70.662048,-120.654541,,,
729716084.072344,-72.681107,-7.002389,-96.237754,0.035019,-0.932175,0.287323,0.41911,-0.023164,-0.061249,64.199295,70.662048,-120.654541,,,
729716084.072594,-72.553357,-6.999005,-93.151297,0.035019,-0.932175,0.287323,0.41911,-0.023164,-0.061249,64.199295,70.662048,-120.654541,,,
729716084.074913,-72.553403,-6.998999,-96.228197,0.035019,-0.932175,0.287323,0.472677,-0.008641,-0.027556,64.199295,70.662048,-120.654541,,,
729716084.075147,-72.553357,-6.999005,-93.151297,0.035019,-0.932175,0.287323,0.472677,-0.008641,-0.027556,64.199295,70.662048,-120.654541,,,
729716084.077215,-72.553403,-6.998999,-96.228197,0.035019,-0.932175,0.287323,0.472677,-0.008641,-0.027556,64.199295,70.662048,-120.654541,,,
729716084.07744,-72.553357,-6.999005,-93.151297,0.035019,-0.932175,0.287323,0.472677,-0.008641,-0.027556,64.199295,70.662048,-120.654541,,,
729716084.082263,-72.418207,-6.973159,-96.19752,0.02832,-0.942032,0.320618,0.472677,-0.008641,-0.027556,64.199295,70.662048,-120.654541,,,
729716084.082552,-72.275373,-6.9209,-93.064123,0.02832,-0.942032,0.320618,0.472677,-0.008641,-0.027556,64.199295,70.662048,-120.654541,,,
729716084.08702,-72.275418,-6.920894,-96.141023,0.02832,-0.942032,0.320618,0.533713,0.008711,0.024264,64.199295,70.662048,-120.654541,,,
729716084.08735,-72.275373,-6.9209,-93.064123,0.02832,-0.942032,0.320618,0.533713,0.008711,0.024264,64.199295,70.662048,-120.654541,,,
729716084.092771,-72.124121,-6.840797,-96.058429,0.02562,-0.951859,0.336731,0.533713,0.008711,0.024264,64.226379,70.149902,-122.008041,,,
729716084.093079,-71.965144,-6.73456,-92.875571,0.02562,-0.951859,0.336731,0.584347,0.033189,0.069874,64.226379,70.149902,-122.008041,,,
729716084.095238,-71.965188,-6.734554,-95.95247,0.02562,-0.951859,0.336731,0.584347,0.033189,0.069874,64.226379,70.149902,-122.008041,,,
729716084.09548,-71.965144,-6.73456,-92.875571,0.02562,-0.951859,0.336731,0.584347,0.033189,0.069874,64.226379,70.149902,-122.008041,,,
729716084.097175,-71.965188,-6.734554,-95.95247,0.02562,-0.951859,0.336731,0.584347,0.033189,0.069874,64.226379,70.149902,-122.008041,,,
729716084.09742,-71.965144,-6.73456,-92.875571,0.02562,-0.951859,0.336731,0.584347,0.033189,0.069874,64.226379,70.149902,-122.008041,,,
729716084.102079,-71.801841,-6.606513,-95.827597,0.021072,-0.960449,0.347748,0.584347,0.033189,0.069874,64.226379,70.149902,-122.008041,,,
729716084.102313,-71.801797,-6.606519,-92.750698,0.021072,-0.960449,0.347748,0.584347,0.033189,0.069874,64.226379,70.149902,-122.008041,,,
729716084.105026,-71.638027,-6.458338,-95.685948,0.021072,-0.960449,0.347748,0.575498,0.059517,0.105956,64.226379,70.149902,-122.008041,,,
729716084.105251,-71.637983,-6.458345,-92.609049,0.021072,-0.960449,0.347748,0.575498,0.059517,0.105956,64.226379,70.149902,-122.008041,,,
729716084.107316,-71.638027,-6.458338,-95.685948,0.021072,-0.960449,0.347748,0.575498,0.059517,0.105956,64.226379,70.149902,-122.008041,,,
729716084.107563,-71.637983,-6.458345,-92.609049,0.021072,-0.960449,0.347748,0.575498,0.059517,0.105956,64.226379,70.149902,-122.008041,,,
729716084.1125,-71.478759,-6.295827,-95.531784,0.030212,-0.954346,0.323792,0.575498,0.059517,0.105956,64.226379,70.149902,-122.008041,,,
729716084.112962,-71.329029,-6.126044,-92.292172,0.030212,-0.954346,0.323792,0.499832,0.054129,0.137506,64.226379,70.149902,-122.008041,,,
729716084.115313,-71.329072,-6.126038,-95.369071,0.030212,-0.954346,0.323792,0.499832,0.054129,0.137506,64.226379,70.149902,-122.008041,,,
729716084.115561,-71.329029,-6.126044,-92.292172,0.030212,-0.954346,0.323792,0.499832,0.054129,0.137506,64.226379,70.149902,-122.008041,,,
729716084.11717,-71.329072,-6.126038,-95.369071,0.030212,-0.954346,0.323792,0.499832,0.054129,0.137506,64.226379,70.149902,-122.008041,,,
729716084.11742,-71.329029,-6.126044,-92.292172,0.030212,-0.954346,0.323792,0.499832,0.054129,0.137506,64.226379,70.149902,-122.008041,,,
729716084.122202,-71.191143,-5.950055,-95.199085,0.037003,-0.943954,0.282745,0.499832,0.054129,0.137506,64.226379,70.149902,-122.008041,,,
729716084.122493,-71.1911,-5.950061,-92.122187,0.037003,-0.943954,0.282745,0.499832,0.054129,0.137506,64.226379,70.149902,-122.008041,,,
729716084.125235,-71.065174,-5.76907,-95.024853,0.037003,-0.943954,0.282745,0.41999,0.070686,0.156067,64.226379,70.149902,-122.008041,,,
729716084.125472,-71.065132,-5.769077,-91.947955,0.037003,-0.943954,0.282745,0.41999,0.070686,0.156067,64.226379,70.149902,-122.008041,,,
729716084.12724,-71.065174,-5.76907,-95.024853,0.037003,-0.943954,0.282745,0.41999,0.070686,0.156067,64.226379,70.149902,-122.008041,,,
729716084.127479,-71.065132,-5.769077,-91.947955,0.037003,-0.943954,0.282745,0.41999,0.070686,0.156067,64.226379,70.149902,-122.008041,,,
729716084.132647,-70.949517,-5.584235,-94.850302,0.037781,-0.932739,0.267258,0.41999,0.070686,0.156067,64.365738,69.5336,-122.62973,,,
729716084.132902,-70.841737,-5.397591,-91.603099,0.037781,-0.932739,0.267258,0.372066,0.108526,0.151306,64.365738,69.5336,-122.62973,,,
729716084.135173,-70.841779,-5.397584,-94.679996,0.037781,-0.932739,0.267258,0.372066,0.108526,0.151306,64.365738,69.5336,-122.62973,,,
729716084.135407,-70.841737,-5.397591,-91.603099,0.037781,-0.932739,0.267258,0.372066,0.108526,0.151306,64.365738,69.5336,-122.62973,,,
729716084.137173,-70.841779,-5.397584,-94.679996,0.037781,-0.932739,0.267258,0.372066,0.108526,0.151306,64.365738,69.5336,-122.62973,,,
729716084.137451,-70.841737,-5.397591,-91.603099,0.037781,-0.932739,0.267258,0.372066,0.108526,0.151306,64.365738,69.5336,-122.62973,,,
729716084.141924,-70.739,-5.214053,-94.517696,0.045731,-0.933975,0.296402,0.372066,0.108526,0.151306,64.365738,69.5336,-122.62973,,,
729716084.142152,-70.738959,-5.21406,-91.440798,0.045731,-0.933975,0.296402,0.372066,0.108526,0.151306,64.365738,69.5336,-122.62973,,,
729716084.145294,-70.637985,-5.039411,-94.3674,0.045731,-0.933975,0.296402,0.370038,0.120435,0.123777,64.365738,69.5336,-122.62973,,,
729716084.145744,-70.637944,-5.039418,-91.290503,0.045731,-0.933975,0.296402,0.370038,0.120435,0.123777,64.365738,69.5336,-122.62973,,,
729716084.14716,-70.637985,-5.039411,-94.3674,0.045731,-0.933975,0.296402,0.370038,0.120435,0.123777,64.365738,69.5336,-122.62973,,,
729716084.14745,-70.637944,-5.039418,-91.290503,0.045731,-0.933975,0.296402,0.370038,0.120435,0.123777,64.365738,69.5336,-122.62973,,,
729716084.151842,-70.535711,-4.879524,-94.232757,0.048325,-0.931198,0.31842,0.370038,0.120435,0.123777,64.365738,69.5336,-122.62973,,,
729716084.152081,-70.53567,-4.879531,-91.15586,0.048325,-0.931198,0.31842,0.370038,0.120435,0.123777,64.365738,69.5336,-122.62973,,,
729716084.155263,-70.430285,-4.738477,-94.115539,0.048325,-0.931198,0.31842,0.395978,0.096538,0.08266,64.365738,69.5336,-122.62973,,,
729716084.155499,-70.430244,-4.738484,-91.038642,0.048325,-0.931198,0.31842,0.395978,0.096538,0.08266,64.365738,69.5336,-122.62973,,,
729716084.157265,-70.430285,-4.738477,-94.115539,0.048325,-0.931198,0.31842,0.395978,0.096538,0.08266,64.365738,69.5336,-122.62973,,,
729716084.157514,-70.430244,-4.738484,-91.038642,0.048325,-0.931198,0.31842,0.395978,0.096538,0.08266,64.365738,69.5336,-122.62973,,,
729716084.16216,-70.319099,-4.618183,-94.015842,0.040848,-0.927612,0.339905,0.395978,0.096538,0.08266,64.365738,69.5336,-122.62973,,,
729716084.162433,-70.319059,-4.61819,-90.938945,0.040848,-0.927612,0.339905,0.395978,0.096538,0.08266,64.365738,69.5336,-122.62973,,,
729716084.16522,-70.200509,-4.518766,-93.932882,0.040848,-0.927612,0.339905,0.441875,0.058864,0.042929,64.365738,69.5336,-122.62973,,,
729716084.165466,-70.200469,-4.518774,-90.855985,0.040848,-0.927612,0.339905,0.441875,0.058864,0.042929,64.365738,69.5336,-122.62973,,,
729716084.167173,-70.200509,-4.518766,-93.932882,0.040848,-0.927612,0.339905,0.441875,0.058864,0.042929,64.365738,69.5336,-122.62973,,,
729716084.167413,-70.200469,-4.518774,-90.855985,0.040848,-0.927612,0.339905,0.441875,0.058864,0.042929,64.365738,69.5336,-122.62973,,,
729716084.172269,-70.075235,-4.439873,-93.866144,0.038681,-0.929779,0.355118,0.441875,0.058864,0.042929,64.435059,69.556305,-123.704391,,,
729716084.172595,-70.075195,-4.43988,-90.789247,0.038681,-0.929779,0.355118,0.441875,0.058864,0.042929,64.435059,69.556305,-123.704391,,,
729716084.175196,-69.945969,-4.379978,-93.81353,0.038681,-0.929779,0.355118,0.456967,0.018557,0.008826,64.435059,69.556305,-123.704391,,,
729716084.175484,-69.94593,-4.379985,-90.736634,0.038681,-0.929779,0.355118,0.456967,0.018557,0.008826,64.435059,69.556305,-123.704391,,,
729716084.177174,-69.945969,-4.379978,-93.81353,0.038681,-0.929779,0.355118,0.456967,0.018557,0.008826,64.435059,69.556305,-123.704391,,,
729716084.177489,-69.94593,-4.379985,-90.736634,0.038681,-0.929779,0.355118,0.456967,0.018557,0.008826,64.435059,69.556305,-123.704391,,,
729716084.182107,-69.81527,-4.337775,-93.77365,0.034241,-0.930573,0.346771,0.456967,0.018557,0.008826,64.435059,69.556305,-123.704391,,,
729716084.182347,-69.815231,-4.337782,-90.696754,0.034241,-0.930573,0.346771,0.456967,0.018557,0.008826,64.435059,69.556305,-123.704391,,,
729716084.187083,-69.685455,-4.315917,-93.748859,0.034241,-0.930573,0.346771,0.446721,-0.023594,-0.028558,64.435059,69.556305,-123.704391,,,
729716084.187367,-69.685416,-4.315924,-90.671963,0.034241,-0.930573,0.346771,0.446721,-0.023594,-0.028558,64.435059,69.556305,-123.704391,,,
729716084.191751,-69.557336,-4.317382,-93.7427,0.039536,-0.927567,0.33252,0.446721,-0.023594,-0.028558,64.435059,69.556305,-123.704391,,,
729716084.191981,-69.557297,-4.317389,-90.665805,0.039536,-0.927567,0.33252,0.446721,-0.023594,-0.028558,64.435059,69.556305,-123.704391,,,
729716084.195602,-69.431555,-4.342449,-93.756132,0.039536,-0.927567,0.33252,0.41941,-0.048917,-0.072243,64.435059,69.556305,-123.704391,,,
729716084.195855,-69.431517,-4.342456,-90.679237,0.039536,-0.927567,0.33252,0.41941,-0.048917,-0.072243,64.435059,69.556305,-123.704391,,,
729716084.197161,-69.431555,-4.342449,-93.756132,0.039536,-0.927567,0.33252,0.41941,-0.048917,-0.072243,64.435059,69.556305,-123.704391,,,
729716084.197411,-69.431517,-4.342456,-90.679237,0.039536,-0.927567,0.33252,0.41941,-0.048917,-0.072243,64.435059,69.556305,-123.704391,,,
729716084.201924,-69.310063,-4.387458,-93.787555,0.048615,-0.911011,0.32991,0.41941,-0.048917,-0.072243,64.435059,69.556305,-123.704391,,,
729716084.202147,-69.310025,-4.387465,-90.71066,0.048615,-0.911011,0.32991,0.41941,-0.048917,-0.072243,64.435059,69.556305,-123.704391,,,
729716084.205267,-69.195921,-4.446213,-93.832426,0.048615,-0.911011,0.32991,0.362205,-0.063186,-0.093931,64.435059,69.556305,-123.704391,,,
729716084.205517,-69.195883,-4.44622,-90.755531,0.048615,-0.911011,0.32991,0.362205,-0.063186,-0.093931,64.435059,69.556305,-123.704391,,,
729716084.207256,-69.195921,-4.446213,-93.832426,0.048615,-0.911011,0.32991,0.362205,-0.063186,-0.093931,64.435059,69.556305,-123.704391,,,
729716084.207483,-69.195883,-4.44622,-90.755531,0.048615,-0.911011,0.32991,0.362205,-0.063186,-0.093931,64.435059,69.556305,-123.704391,,,
729716084.212817,-69.091356,-4.514855,-93.885799,0.041641,-0.910049,0.32193,0.362205,-0.063186,-0.093931,64.527679,69.065887,-124.376282,,,
729716084.213298,-68.997674,-4.589458,-90.866065,0.041641,-0.910049,0.32193,0.283705,-0.079192,-0.095697,64.527679,69.065887,-124.376282,,,
729716084.215242,-68.997711,-4.589451,-93.94296,0.041641,-0.910049,0.32193,0.283705,-0.079192,-0.095697,64.527679,69.065887,-124.376282,,,
729716084.215484,-68.997674,-4.589458,-90.866065,0.041641,-0.910049,0.32193,0.283705,-0.079192,-0.095697,64.527679,69.065887,-124.376282,,,
729716084.217178,-68.997711,-4.589451,-93.94296,0.041641,-0.910049,0.32193,0.283705,-0.079192,-0.095697,64.527679,69.065887,-124.376282,,,
729716084.217416,-68.997674,-4.589458,-90.866065,0.041641,-0.910049,0.32193,0.283705,-0.079192,-0.095697,64.527679,69.065887,-124.376282,,,
729716084.222189,-68.91433,-4.665665,-93.999651,0.027176,-0.92215,0.304443,0.283705,-0.079192,-0.095697,64.527679,69.065887,-124.376282,,,
729716084.222428,-68.914293,-4.665672,-90.922756,0.027176,-0.92215,0.304443,0.283705,-0.079192,-0.095697,64.527679,69.065887,-124.376282,,,
729716084.225246,-68.839659,-4.738169,-94.052065,0.027176,-0.92215,0.304443,0.233349,-0.072518,-0.078345,64.527679,69.065887,-124.376282,,,
729716084.22548,-68.839621,-4.738175,-90.97517,0.027176,-0.92215,0.304443,0.233349,-0.072518,-0.078345,64.527679,69.065887,-124.376282,,,
729716084.227217,-68.839659,-4.738169,-94.052065,0.027176,-0.92215,0.304443,0.233349,-0.072518,-0.078345,64.527679,69.065887,-124.376282,,,
729716084.227497,-68.839621,-4.738175,-90.97517,0.027176,-0.92215,0.304443,0.233349,-0.072518,-0.078345,64.527679,69.065887,-124.376282,,,
729716084.231994,-68.770936,-4.80067,-94.096682,0.024155,-0.920975,0.323547,0.233349,-0.072518,-0.078345,64.527679,69.065887,-124.376282,,,
729716084.232231,-68.770899,-4.800676,-91.019787,0.024155,-0.920975,0.323547,0.233349,-0.072518,-0.078345,64.527679,69.065887,-124.376282,,,
729716084.235264,-68.705839,-4.845472,-94.129184,0.024155,-0.920975,0.323547,0.220303,-0.01772,-0.040988,64.527679,69.065887,-124.376282,,,
729716084.235494,-68.705802,-4.845478,-91.05229,0.024155,-0.920975,0.323547,0.220303,-0.01772,-0.040988,64.527679,69.065887,-124.376282,,,
729716084.23716,-68.705839,-4.845472,-94.129184,0.024155,-0.920975,0.323547,0.220303,-0.01772,-0.040988,64.527679,69.065887,-124.376282,,,
729716084.237411,-68.705802,-4.845478,-91.05229,0.024155,-0.920975,0.323547,0.220303,-0.01772,-0.040988,64.527679,69.065887,-124.376282,,,
729716084.241745,-68.642251,-4.866567,-94.145432,0.01976,-0.922623,0.357193,0.220303,-0.01772,-0.040988,64.527679,69.065887,-124.376282,,,
729716084.241991,-68.642214,-4.866574,-91.068538,0.01976,-0.922623,0.357193,0.220303,-0.01772,-0.040988,64.527679,69.065887,-124.376282,,,
729716084.24714,-68.577471,-4.861212,-94.141953,0.01976,-0.922623,0.357193,0.246407,0.032944,0.010322,64.527679,69.065887,-124.376282,,,
729716084.247661,-68.577435,-4.861219,-91.065059,0.01976,-0.922623,0.357193,0.246407,0.032944,0.010322,64.527679,69.065887,-124.376282,,,
729716084.252897,-68.507998,-4.830553,-94.117375,0.014023,-0.929718,0.392761,0.246407,0.032944,0.010322,64.505768,68.570694,-125.025055,,,
729716084.253162,-68.431448,-4.778024,-90.996409,0.014023,-0.929718,0.392761,0.299308,0.054191,0.051814,64.505768,68.570694,-125.025055,,,
729716084.255143,-68.431485,-4.778017,-94.073304,0.014023,-0.929718,0.392761,0.299308,0.054191,0.051814,64.505768,68.570694,-125.025055,,,
729716084.255371,-68.431448,-4.778024,-90.996409,0.014023,-0.929718,0.392761,0.299308,0.054191,0.051814,64.505768,68.570694,-125.025055,,,
729716084.257296,-68.431485,-4.778017,-94.073304,0.014023,-0.929718,0.392761,0.299308,0.054191,0.051814,64.505768,68.570694,-125.025055,,,
729716084.257502,-68.431448,-4.778024,-90.996409,0.014023,-0.929718,0.392761,0.299308,0.054191,0.051814,64.505768,68.570694,-125.025055,,,
729716084.26238,-68.348452,-4.70445,-94.010852,0.018692,-0.935699,0.411346,0.299308,0.054191,0.051814,64.505768,68.570694,-125.025055,,,
729716084.262634,-68.348416,-4.704457,-90.933958,0.018692,-0.935699,0.411346,0.299308,0.054191,0.051814,64.505768,68.570694,-125.025055,,,
729716084.265258,-68.25394,-4.616787,-93.9302,0.018692,-0.935699,0.411346,0.395105,0.01584,0.094879,64.505768,68.570694,-125.025055,,,
729716084.265495,-68.253904,-4.616794,-90.853306,0.018692,-0.935699,0.411346,0.395105,0.01584,0.094879,64.505768,68.570694,-125.025055,,,
729716084.267171,-68.25394,-4.616787,-93.9302,0.018692,-0.935699,0.411346,0.395105,0.01584,0.094879,64.505768,68.570694,-125.025055,,,
729716084.26741,-68.253904,-4.616794,-90.853306,0.018692,-0.935699,0.411346,0.395105,0.01584,0.094879,64.505768,68.570694,-125.025055,,,
729716084.271858,-68.143657,-4.521587,-93.833199,0.019943,-0.938919,0.43454,0.395105,0.01584,0.094879,64.505768,68.570694,-125.025055,,,
729716084.272094,-68.143621,-4.521593,-90.756305,0.019943,-0.938919,0.43454,0.395105,0.01584,0.094879,64.505768,68.570694,-125.025055,,,
729716084.275308,-68.020867,-4.421398,-93.727094,0.019943,-0.938919,0.43454,0.462428,0.011274,0.101758,64.505768,68.570694,-125.025055,,,
729716084.275551,-68.020831,-4.421405,-90.6502,0.019943,-0.938919,0.43454,0.462428,0.011274,0.101758,64.505768,68.570694,-125.025055,,,
729716084.277162,-68.020867,-4.421398,-93.727094,0.019943,-0.938919,0.43454,0.462428,0.011274,0.101758,64.505768,68.570694,-125.025055,,,
729716084.277459,-68.020831,-4.421405,-90.6502,0.019943,-0.938919,0.43454,0.462428,0.011274,0.101758,64.505768,68.570694,-125.025055,,,
729716084.282081,-67.892446,-4.320378,-93.621131,0.02562,-0.93338,0.425552,0.462428,0.011274,0.101758,64.505768,68.570694,-125.025055,,,
729716084.28233,-67.892411,-4.320385,-90.544237,0.02562,-0.93338,0.425552,0.462428,0.011274,0.101758,64.505768,68.570694,-125.025055,,,
729716084.285266,-67.766098,-4.223089,-93.522334,0.02562,-0.93338,0.425552,0.426671,0.030401,0.085278,64.505768,68.570694,-125.025055,,,
729716084.285507,-67.766062,-4.223095,-90.44544,0.02562,-0.93338,0.425552,0.426671,0.030401,0.085278,64.505768,68.570694,-125.025055,,,
729716084.287166,-67.766098,-4.223089,-93.522334,0.02562,-0.93338,0.425552,0.426671,0.030401,0.085278,64.505768,68.570694,-125.025055,,,
729716084.287404,-67.766062,-4.223095,-90.44544,0.02562,-0.93338,0.425552,0.426671,0.030401,0.085278,64.505768,68.570694,-125.025055,,,
729716084.292173,-67.645801,-4.134188,-93.434605,0.04126,-0.936264,0.389221,0.426671,0.030401,0.085278,64.505768,68.570694,-125.025055,,,
729716084.292414,-67.645766,-4.134195,-90.357712,0.04126,-0.936264,0.389221,0.426671,0.030401,0.085278,64.61319,68.215042,-125.663498,,,
729716084.295701,-67.535597,-4.057731,-93.360615,0.04126,-0.936264,0.389221,0.35086,0.02811,0.050618,64.61319,68.215042,-125.663498,,,
729716084.295953,-67.535562,-4.057737,-90.283722,0.04126,-0.936264,0.389221,0.35086,0.02811,0.050618,64.61319,68.215042,-125.663498,,,
729716084.29721,-67.535597,-4.057731,-93.360615,0.04126,-0.936264,0.389221,0.35086,0.02811,0.050618,64.61319,68.215042,-125.663498,,,
729716084.297432,-67.535562,-4.057737,-90.283722,0.04126,-0.936264,0.389221,0.35086,0.02811,0.050618,64.61319,68.215042,-125.663498,,,
729716084.30218,-67.437083,-3.996074,-93.30137,0.047592,-0.916122,0.345322,0.35086,0.02811,0.050618,64.61319,68.215042,-125.663498,,,
729716084.302433,-67.437049,-3.99608,-90.224477,0.047592,-0.916122,0.345322,0.35086,0.02811,0.050618,64.61319,68.215042,-125.663498,,,
729716084.305232,-67.35044,-3.949067,-93.25596,0.047592,-0.916122,0.345322,0.262462,0.016154,0.021473,64.61319,68.215042,-125.663498,,,
729716084.305489,-67.350405,-3.949074,-90.179067,0.047592,-0.916122,0.345322,0.262462,0.016154,0.021473,64.61319,68.215042,-125.663498,,,
729716084.307183,-67.35044,-3.949067,-93.25596,0.047592,-0.916122,0.345322,0.262462,0.016154,0.021473,64.61319,68.215042,-125.663498,,,
729716084.3074,-67.350405,-3.949074,-90.179067,0.047592,-0.916122,0.345322,0.262462,0.016154,0.021473,64.61319,68.215042,-125.663498,,,
729716084.312104,-67.275874,-3.915377,-93.223838,0.050034,-0.90712,0.338211,0.262462,0.016154,0.021473,64.61319,68.215042,-125.663498,,,
729716084.312317,-67.27584,-3.915384,-90.146945,0.050034,-0.90712,0.338211,0.262462,0.016154,0.021473,64.61319,68.215042,-125.663498,,,
729716084.316059,-67.212614,-3.892912,-93.204204,0.050034,-0.90712,0.338211,0.191213,0.020383,-0.005002,64.61319,68.215042,-125.663498,,,
729716084.316309,-67.212579,-3.892919,-90.127311,0.050034,-0.90712,0.338211,0.191213,0.020383,-0.005002,64.61319,68.215042,-125.663498,,,
729716084.317087,-67.212614,-3.892912,-93.204204,0.050034,-0.90712,0.338211,0.191213,0.020383,-0.005002,64.61319,68.215042,-125.663498,,,
729716084.317437,-67.212579,-3.892919,-90.127311,0.050034,-0.90712,0.338211,0.191213,0.020383,-0.005002,64.61319,68.215042,-125.663498,,,
729716084.321957,-67.157555,-3.881597,-93.196121,0.037628,-0.902649,0.3461,0.191213,0.020383,-0.005002,64.61319,68.215042,-125.663498,,,
729716084.322194,-67.157521,-3.881604,-90.119229,0.037628,-0.902649,0.3461,0.191213,0.020383,-0.005002,64.61319,68.215042,-125.663498,,,
729716084.32567,-67.107347,-3.881647,-93.197487,0.037628,-0.902649,0.3461,0.17218,-0.00439,-0.024079,64.61319,68.215042,-125.663498,,,
729716084.325929,-67.107313,-3.881654,-90.120594,0.037628,-0.902649,0.3461,0.17218,-0.00439,-0.024079,64.61319,68.215042,-125.663498,,,
729716084.327254,-67.107347,-3.881647,-93.197487,0.037628,-0.902649,0.3461,0.17218,-0.00439,-0.024079,64.61319,68.215042,-125.663498,,,
729716084.327468,-67.107313,-3.881654,-90.120594,0.037628,-0.902649,0.3461,0.17218,-0.00439,-0.024079,64.61319,68.215042,-125.663498,,,
729716084.331935,-67.057949,-3.891064,-93.204827,0.02739,-0.899307,0.371338,0.17218,-0.00439,-0.024079,64.61319,68.215042,-125.663498,,,
729716084.332177,-67.057915,-3.891071,-90.127934,0.02739,-0.899307,0.371338,0.17218,-0.00439,-0.024079,64.61319,68.215042,-125.663498,,,
729716084.335695,-67.006666,-3.908169,-93.216428,0.02739,-0.899307,0.371338,0.190539,-0.034059,-0.032281,64.609512,68.086639,-126.091339,,,
729716084.335971,-67.006632,-3.908176,-90.139535,0.02739,-0.899307,0.371338,0.190539,-0.034059,-0.032281,64.609512,68.086639,-126.091339,,,
729716084.337109,-67.006666,-3.908169,-93.216428,0.02739,-0.899307,0.371338,0.190539,-0.034059,-0.032281,64.609512,68.086639,-126.091339,,,
729716084.337433,-67.006632,-3.908176,-90.139535,0.02739,-0.899307,0.371338,0.190539,-0.034059,-0.032281,64.609512,68.086639,-126.091339,,,
729716084.342146,-66.951931,-3.930563,-93.229267,0.01503,-0.914093,0.399048,0.190539,-0.034059,-0.032281,64.609512,68.086639,-126.091339,,,
729716084.342371,-66.951897,-3.93057,-90.152374,0.01503,-0.914093,0.399048,0.190539,-0.034059,-0.032281,64.609512,68.086639,-126.091339,,,
729716084.345346,-66.891864,-3.954706,-93.239402,0.01503,-0.914093,0.399048,0.228936,-0.060402,-0.024793,64.609512,68.086639,-126.091339,,,
729716084.345732,-66.89183,-3.954713,-90.16251,0.01503,-0.914093,0.399048,0.228936,-0.060402,-0.024793,64.609512,68.086639,-126.091339,,,
729716084.347231,-66.891864,-3.954706,-93.239402,0.01503,-0.914093,0.399048,0.228936,-0.060402,-0.024793,64.609512,68.086639,-126.091339,,,
729716084.347452,-66.89183,-3.954713,-90.16251,0.01503,-0.914093,0.399048,0.228936,-0.060402,-0.024793,64.609512,68.086639,-126.091339,,,
729716084.351923,-66.825627,-3.97732,-93.244068,0.01358,-0.916107,0.417877,0.228936,-0.060402,-0.024793,64.609512,68.086639,-126.091339,,,
729716084.352159,-66.825593,-3.977327,-90.167176,0.01358,-0.916107,0.417877,0.228936,-0.060402,-0.024793,64.609512,68.086639,-126.091339,,,
729716084.355044,-66.753841,-3.994897,-93.241079,0.01358,-0.916107,0.417877,0.272333,-0.067499,-0.005657,64.609512,68.086639,-126.091339,,,
729716084.355277,-66.753808,-3.994903,-90.164187,0.01358,-0.916107,0.417877,0.272333,-0.067499,-0.005657,64.609512,68.086639,-126.091339,,,
729716084.35722,-66.753841,-3.994897,-93.241079,0.01358,-0.916107,0.417877,0.272333,-0.067499,-0.005657,64.609512,68.086639,-126.091339,,,
729716084.357428,-66.753808,-3.994903,-90.164187,0.01358,-0.916107,0.417877,0.272333,-0.067499,-0.005657,64.609512,68.086639,-126.091339,,,
729716084.361921,-66.676396,-4.005977,-93.231036,0.011261,-0.915359,0.428558,0.272333,-0.067499,-0.005657,64.609512,68.086639,-126.091339,,,
729716084.362181,-66.676363,-4.005984,-90.154144,0.011261,-0.915359,0.428558,0.272333,-0.067499,-0.005657,64.609512,68.086639,-126.091339,,,
729716084.366054,-66.593515,-4.008348,-93.213938,0.011261,-0.915359,0.428558,0.305541,-0.040151,0.009239,64.609512,68.086639,-126.091339,,,
729716084.366331,-66.593481,-4.008354,-90.137046,0.011261,-0.915359,0.428558,0.305541,-0.040151,0.009239,64.609512,68.086639,-126.091339,,,
729716084.367074,-66.593515,-4.008348,-93.213938,0.011261,-0.915359,0.428558,0.305541,-0.040151,0.009239,64.609512,68.086639,-126.091339,,,
729716084.367442,-66.593481,-4.008354,-90.137046,0.011261,-0.915359,0.428558,0.305541,-0.040151,0.009239,64.609512,68.086639,-126.091339,,,
729716084.371981,-66.506409,-3.9986,-93.189616,0.021576,-0.917419,0.435379,0.305541,-0.040151,0.009239,64.609512,68.086639,-126.091339,,,
729716084.372231,-66.506375,-3.998606,-90.112724,0.021576,-0.917419,0.435379,0.305541,-0.040151,0.009239,64.609512,68.086639,-126.091339,,,
729716084.375716,-66.418072,-3.976053,-93.158412,0.021576,-0.917419,0.435379,0.307524,-0.000685,0.028964,64.537537,67.677841,-126.961197,,,
729716084.375975,-66.418039,-3.976059,-90.08152,0.021576,-0.917419,0.435379,0.307524,-0.000685,0.028964,64.537537,67.677841,-126.961197,,,
729716084.377114,-66.418072,-3.976053,-93.158412,0.021576,-0.917419,0.435379,0.307524,-0.000685,0.028964,64.537537,67.677841,-126.961197,,,
729716084.377483,-66.418039,-3.976059,-90.08152,0.021576,-0.917419,0.435379,0.307524,-0.000685,0.028964,64.537537,67.677841,-126.961197,,,
729716084.382112,-66.330859,-3.944053,-93.121656,0.024307,-0.910843,0.429596,0.307524,-0.000685,0.028964,64.537537,67.677841,-126.961197,,,
729716084.382359,-66.330826,-3.94406,-90.044764,0.024307,-0.910843,0.429596,0.307524,-0.000685,0.028964,64.537537,67.677841,-126.961197,,,
729716084.386265,-66.247223,-3.905076,-93.079493,0.024307,-0.910843,0.429596,0.278532,0.00744,0.04869,64.537537,67.677841,-126.961197,,,
729716084.386552,-66.24719,-3.905083,-90.002602,0.024307,-0.910843,0.429596,0.278532,0.00744,0.04869,64.537537,67.677841,-126.961197,,,
729716084.387041,-66.247223,-3.905076,-93.079493,0.024307,-0.910843,0.429596,0.278532,0.00744,0.04869,64.537537,67.677841,-126.961197,,,
729716084.387441,-66.24719,-3.905083,-90.002602,0.024307,-0.910843,0.429596,0.278532,0.00744,0.04869,64.537537,67.677841,-126.961197,,,
729716084.39202,-66.168565,-3.86044,-93.032111,0.022446,-0.902481,0.401749,0.278532,0.00744,0.04869,64.537537,67.677841,-126.961197,,,
729716084.39225,-66.168532,-3.860446,-89.95522,0.022446,-0.902481,0.401749,0.278532,0.00744,0.04869,64.537537,67.677841,-126.961197,,,
729716084.395387,-66.095028,-3.812376,-92.982506,0.022446,-0.902481,0.401749,0.240934,0.021831,0.05321,64.537537,67.677841,-126.961197,,,
729716084.395642,-66.094996,-3.812382,-89.905614,0.022446,-0.902481,0.401749,0.240934,0.021831,0.05321,64.537537,67.677841,-126.961197,,,
729716084.397243,-66.095028,-3.812376,-92.982506,0.022446,-0.902481,0.401749,0.240934,0.021831,0.05321,64.537537,67.677841,-126.961197,,,
729716084.397462,-66.094996,-3.812382,-89.905614,0.022446,-0.902481,0.401749,0.240934,0.021831,0.05321,64.537537,67.677841,-126.961197,,,
729716084.401718,-66.026609,-3.761488,-92.932448,0.02388,-0.901306,0.39476,0.240934,0.021831,0.05321,64.537537,67.677841,-126.961197,,,
729716084.401962,-66.026577,-3.761494,-89.855557,0.02388,-0.901306,0.39476,0.240934,0.021831,0.05321,64.537537,67.677841,-126.961197,,,
729716084.405289,-65.963868,-3.708814,-92.882349,0.02388,-0.901306,0.39476,0.201208,0.02607,0.057175,64.537537,67.677841,-126.961197,,,
729716084.405523,-65.963835,-3.70882,-89.805457,0.02388,-0.901306,0.39476,0.201208,0.02607,0.057175,64.537537,67.677841,-126.961197,,,
729716084.407177,-65.963868,-3.708814,-92.882349,0.02388,-0.901306,0.39476,0.201208,0.02607,0.057175,64.537537,67.677841,-126.961197,,,
729716084.407411,-65.963835,-3.70882,-89.805457,0.02388,-0.901306,0.39476,0.201208,0.02607,0.057175,64.537537,67.677841,-126.961197,,,
729716084.412075,-65.907397,-3.657417,-92.833059,0.019363,-0.905319,0.397079,0.201208,0.02607,0.057175,64.537537,67.677841,-126.961197,,,
729716084.412503,-65.907365,-3.657423,-89.756167,0.019363,-0.905319,0.397079,0.201208,0.02607,0.057175,64.537537,67.677841,-126.961197,,,
729716084.415844,-65.856812,-3.611116,-92.786765,0.019363,-0.905319,0.397079,0.166684,0.00373,0.049658,64.719238,67.310608,-126.960831,,,
729716084.416126,-65.85678,-3.611122,-89.709874,0.019363,-0.905319,0.397079,0.166684,0.00373,0.049658,64.719238,67.310608,-126.960831,,,
729716084.417132,-65.856812,-3.611116,-92.786765,0.019363,-0.905319,0.397079,0.166684,0.00373,0.049658,64.719238,67.310608,-126.960831,,,
729716084.417436,-65.85678,-3.611122,-89.709874,0.019363,-0.905319,0.397079,0.166684,0.00373,0.049658,64.719238,67.310608,-126.960831,,,
729716084.421882,-65.809848,-3.573091,-92.745737,0.016525,-0.907486,0.390808,0.166684,0.00373,0.049658,64.719238,67.310608,-126.960831,,,
729716084.422108,-65.809815,-3.573097,-89.668846,0.016525,-0.907486,0.390808,0.166684,0.00373,0.049658,64.719238,67.310608,-126.960831,,,
729716084.426375,-65.764147,-3.54383,-92.711535,0.016525,-0.907486,0.390808,0.163411,-0.006643,0.024184,64.719238,67.310608,-126.960831,,,
729716084.426708,-65.764115,-3.543836,-89.634644,0.016525,-0.907486,0.390808,0.163411,-0.006643,0.024184,64.719238,67.310608,-126.960831,,,
729716084.427218,-65.764147,-3.54383,-92.711535,0.016525,-0.907486,0.390808,0.163411,-0.006643,0.024184,64.719238,67.310608,-126.960831,,,
729716084.427539,-65.764115,-3.543836,-89.634644,0.016525,-0.907486,0.390808,0.163411,-0.006643,0.024184,64.719238,67.310608,-126.960831,,,
729716084.432095,-65.717408,-3.524502,-92.686905,0.023148,-0.903549,0.409393,0.163411,-0.006643,0.024184,64.719238,67.310608,-126.960831,,,
729716084.432343,-65.717376,-3.524508,-89.610014,0.023148,-0.903549,0.409393,0.163411,-0.006643,0.024184,64.719238,67.310608,-126.960831,,,
729716084.435942,-65.667838,-3.515061,-92.672098,0.023148,-0.903549,0.409393,0.189602,-0.01692,-0.00391,64.719238,67.310608,-126.960831,,,
729716084.436216,-65.667806,-3.515067,-89.595207,0.023148,-0.903549,0.409393,0.189602,-0.01692,-0.00391,64.719238,67.310608,-126.960831,,,
729716084.437167,-65.667838,-3.515061,-92.672098,0.023148,-0.903549,0.409393,0.189602,-0.01692,-0.00391,64.719238,67.310608,-126.960831,,,
729716084.437419,-65.667806,-3.515067,-89.595207,0.023148,-0.903549,0.409393,0.189602,-0.01692,-0.00391,64.719238,67.310608,-126.960831,,,
729716084.44221,-65.6127,-3.512083,-92.662307,0.029343,-0.907516,0.435501,0.189602,-0.01692,-0.00391,64.719238,67.310608,-126.960831,,,
729716084.442445,-65.612668,-3.51209,-89.585416,0.029343,-0.907516,0.435501,0.189602,-0.01692,-0.00391,64.719238,67.310608,-126.960831,,,
729716084.445072,-65.553585,-3.52259,-92.662231,0.029343,-0.907516,0.435501,0.224773,-0.049383,-0.021526,64.719238,67.310608,-126.960831,,,
729716084.445545,-65.553553,-3.522597,-89.58534,0.029343,-0.907516,0.435501,0.224773,-0.049383,-0.021526,64.719238,67.310608,-126.960831,,,
729716084.44724,-65.553585,-3.52259,-92.662231,0.029343,-0.907516,0.435501,0.224773,-0.049383,-0.021526,64.719238,67.310608,-126.960831,,,
729716084.447477,-65.553553,-3.522597,-89.58534,0.029343,-0.907516,0.435501,0.224773,-0.049383,-0.021526,64.719238,67.310608,-126.960831,,,
729716084.451857,-65.487078,-3.540389,-92.665441,0.024399,-0.914047,0.4431,0.224773,-0.049383,-0.021526,64.719238,67.310608,-126.960831,,,
729716084.452094,-65.487046,-3.540396,-89.58855,0.024399,-0.914047,0.4431,0.224773,-0.049383,-0.021526,64.719238,67.310608,-126.960831,,,
729716084.454893,-65.415377,-3.564588,-92.670456,0.024399,-0.914047,0.4431,0.274463,-0.077325,-0.02469,64.719238,67.310608,-126.960831,,,
729716084.455144,-65.415346,-3.564594,-89.593565,0.024399,-0.914047,0.4431,0.274463,-0.077325,-0.02469,64.719238,67.310608,-126.960831,,,
729716084.45786,-65.415377,-3.564588,-92.670456,0.024399,-0.914047,0.4431,0.274463,-0.077325,-0.02469,64.701523,67.268478,-127.603485,,,
729716084.458082,-65.415346,-3.564594,-89.593565,0.024399,-0.914047,0.4431,0.274463,-0.077325,-0.02469,64.701523,67.268478,-127.603485,,,
729716084.461658,-65.336372,-3.591536,-92.674688,0.024963,-0.914963,0.453064,0.274463,-0.077325,-0.02469,64.701523,67.268478,-127.603485,,,
729716084.461898,-65.336341,-3.591543,-89.597797,0.024963,-0.914963,0.453064,0.274463,-0.077325,-0.02469,64.701523,67.268478,-127.603485,,,
729716084.465118,-65.252133,-3.618845,-92.676633,0.024963,-0.914963,0.453064,0.312516,-0.089214,-0.017022,64.701523,67.268478,-127.603485,,,
729716084.465358,-65.252102,-3.618851,-89.599742,0.024963,-0.914963,0.453064,0.312516,-0.089214,-0.017022,64.701523,67.268478,-127.603485,,,
729716084.467181,-65.252133,-3.618845,-92.676633,0.024963,-0.914963,0.453064,0.312516,-0.089214,-0.017022,64.701523,67.268478,-127.603485,,,
729716084.467409,-65.252102,-3.618851,-89.599742,0.024963,-0.914963,0.453064,0.312516,-0.089214,-0.017022,64.701523,67.268478,-127.603485,,,
729716084.471908,-65.164701,-3.641273,-92.672601,0.022583,-0.919601,0.457947,0.312516,-0.089214,-0.017022,64.701523,67.268478,-127.603485,,,
729716084.472135,-65.16467,-3.641279,-89.59571,0.022583,-0.919601,0.457947,0.312516,-0.089214,-0.017022,64.701523,67.268478,-127.603485,,,
729716084.475279,-65.069872,-3.656783,-92.662995,0.022583,-0.919601,0.457947,0.353114,-0.067104,-0.000291,64.701523,67.268478,-127.603485,,,
729716084.47559,-65.069841,-3.65679,-89.586105,0.022583,-0.919601,0.457947,0.353114,-0.067104,-0.000291,64.701523,67.268478,-127.603485,,,
729716084.477163,-65.069872,-3.656783,-92.662995,0.022583,-0.919601,0.457947,0.353114,-0.067104,-0.000291,64.701523,67.268478,-127.603485,,,
729716084.477478,-65.069841,-3.65679,-89.586105,0.022583,-0.919601,0.457947,0.353114,-0.067104,-0.000291,64.701523,67.268478,-127.603485,,,
729716084.481442,-64.971832,-3.660758,-92.645613,0.023163,-0.91951,0.462463,0.353114,-0.067104,-0.000291,64.701523,67.268478,-127.603485,,,
729716084.48168,-64.971801,-3.660764,-89.568723,0.023163,-0.91951,0.462463,0.353114,-0.067104,-0.000291,64.701523,67.268478,-127.603485,,,
729716084.486119,-64.86506,-3.655168,-92.622334,0.023163,-0.91951,0.462463,0.392255,-0.044816,0.025702,64.701523,67.268478,-127.603485,,,
729716084.486388,-64.86503,-3.655174,-89.545444,0.023163,-0.91951,0.462463,0.392255,-0.044816,0.025702,64.701523,67.268478,-127.603485,,,
729716084.487202,-64.86506,-3.655168,-92.622334,0.023163,-0.91951,0.462463,0.392255,-0.044816,0.025702,64.701523,67.268478,-127.603485,,,
729716084.487447,-64.86503,-3.655174,-89.545444,0.023163,-0.91951,0.462463,0.392255,-0.044816,0.025702,64.701523,67.268478,-127.603485,,,
729716084.492086,-64.757727,-3.6355,-92.586271,0.027969,-0.923401,0.472458,0.392255,-0.044816,0.025702,64.701523,67.268478,-127.603485,,,
729716084.492328,-64.757696,-3.635507,-89.50938,0.027969,-0.923401,0.472458,0.392255,-0.044816,0.025702,64.701523,67.268478,-127.603485,,,
729716084.495353,-64.643237,-3.606724,-92.540137,0.027969,-0.923401,0.472458,0.411466,-0.042406,0.058893,64.701523,67.268478,-127.603485,,,
729716084.49561,-64.643207,-3.60673,-89.463246,0.027969,-0.923401,0.472458,0.411466,-0.042406,0.058893,64.701523,67.268478,-127.603485,,,
729716084.497617,-64.643237,-3.606724,-92.540137,0.027969,-0.923401,0.472458,0.411466,-0.042406,0.058893,64.700089,66.690598,-128.423828,,,
729716084.497837,-64.643207,-3.60673,-89.463246,0.027969,-0.923401,0.472458,0.411466,-0.042406,0.058893,64.700089,66.690598,-128.423828,,,
729716084.502032,-64.526381,-3.568422,-92.483358,0.020187,-0.930222,0.458359,0.411466,-0.042406,0.058893,64.700089,66.690598,-128.423828,,,
729716084.502277,-64.526351,-3.568428,-89.406468,0.020187,-0.930222,0.458359,0.411466,-0.042406,0.058893,64.700089,66.690598,-128.423828,,,
729716084.505048,-64.408018,-3.522263,-92.417166,0.020187,-0.930222,0.458359,0.423568,-0.041968,0.084285,64.700089,66.690598,-128.423828,,,
729716084.50528,-64.407988,-3.522269,-89.340276,0.020187,-0.930222,0.458359,0.423568,-0.041968,0.084285,64.700089,66.690598,-128.423828,,,
729716084.507214,-64.408018,-3.522263,-92.417166,0.020187,-0.930222,0.458359,0.423568,-0.041968,0.084285,64.700089,66.690598,-128.423828,,,
729716084.507426,-64.407988,-3.522269,-89.340276,0.020187,-0.930222,0.458359,0.423568,-0.041968,0.084285,64.700089,66.690598,-128.423828,,,
729716084.511876,-64.28811,-3.469431,-92.343599,0.019272,-0.92511,0.447266,0.423568,-0.041968,0.084285,64.700089,66.690598,-128.423828,,,
729716084.51228,-64.28808,-3.469438,-89.266709,0.019272,-0.92511,0.447266,0.423568,-0.041968,0.084285,64.700089,66.690598,-128.423828,,,
729716084.515367,-64.167418,-3.410076,-92.264796,0.019272,-0.92511,0.447266,0.430746,-0.025856,0.095776,64.700089,66.690598,-128.423828,,,
729716084.515618,-64.167388,-3.410082,-89.187906,0.019272,-0.92511,0.447266,0.430746,-0.025856,0.095776,64.700089,66.690598,-128.423828,,,
729716084.51716,-64.167418,-3.410076,-92.264796,0.019272,-0.92511,0.447266,0.430746,-0.025856,0.095776,64.700089,66.690598,-128.423828,,,
729716084.517416,-64.167388,-3.410082,-89.187906,0.019272,-0.92511,0.447266,0.430746,-0.025856,0.095776,64.700089,66.690598,-128.423828,,,
729716084.521772,-64.046293,-3.345915,-92.184893,0.023529,-0.917862,0.454117,0.430746,-0.025856,0.095776,64.700089,66.690598,-128.423828,,,
729716084.522009,-64.046263,-3.345921,-89.108003,0.023529,-0.917862,0.454117,0.430746,-0.025856,0.095776,64.700089,66.690598,-128.423828,,,
729716084.526353,-63.92481,-3.277512,-92.105583,0.023529,-0.917862,0.454117,0.432304,0.001861,0.094584,64.700089,66.690598,-128.423828,,,
729716084.526688,-63.924781,-3.277518,-89.028693,0.023529,-0.917862,0.454117,0.432304,0.001861,0.094584,64.700089,66.690598,-128.423828,,,
729716084.52723,-63.92481,-3.277512,-92.105583,0.023529,-0.917862,0.454117,0.432304,0.001861,0.094584,64.700089,66.690598,-128.423828,,,
729716084.527459,-63.924781,-3.277518,-89.028693,0.023529,-0.917862,0.454117,0.432304,0.001861,0.094584,64.700089,66.690598,-128.423828,,,
729716084.532242,-63.802464,-3.206434,-92.026919,0.028778,-0.910889,0.461075,0.432304,0.001861,0.094584,64.700089,66.690598,-128.423828,,,
729716084.532484,-63.802434,-3.20644,-88.950029,0.028778,-0.910889,0.461075,0.432304,0.001861,0.094584,64.700089,66.690598,-128.423828,,,
729716084.534865,-63.680824,-3.135933,-91.950463,0.028778,-0.910889,0.461075,0.428518,0.010074,0.088576,64.700089,66.690598,-128.423828,,,
729716084.535096,-63.680794,-3.135939,-88.873574,0.028778,-0.910889,0.461075,0.428518,0.010074,0.088576,64.700089,66.690598,-128.423828,,,
729716084.537354,-63.680824,-3.135933,-91.950463,0.028778,-0.910889,0.461075,0.428518,0.010074,0.088576,64.700089,66.690598,-128.423828,,,
729716084.537558,-63.680794,-3.135939,-88.873574,0.028778,-0.910889,0.461075,0.428518,0.010074,0.088576,64.700089,66.690598,-128.423828,,,
729716084.542472,-63.560012,-3.068231,-91.87728,0.03392,-0.906525,0.453705,0.428518,0.010074,0.088576,64.884338,66.135788,-129.022812,,,
729716084.542738,-63.559983,-3.068237,-88.800391,0.03392,-0.906525,0.453705,0.428518,0.010074,0.088576,64.884338,66.135788,-129.022812,,,
729716084.545345,-63.439342,-3.005475,-91.808831,0.03392,-0.906525,0.453705,0.422823,0.003696,0.074285,64.884338,66.135788,-129.022812,,,
729716084.545795,-63.439313,-3.005481,-88.731942,0.03392,-0.906525,0.453705,0.422823,0.003696,0.074285,64.884338,66.135788,-129.022812,,,
729716084.547152,-63.439342,-3.005475,-91.808831,0.03392,-0.906525,0.453705,0.422823,0.003696,0.074285,64.884338,66.135788,-129.022812,,,
729716084.547419,-63.439313,-3.005481,-88.731942,0.03392,-0.906525,0.453705,0.422823,0.003696,0.074285,64.884338,66.135788,-129.022812,,,
729716084.551763,-63.318601,-2.949479,-91.74673,0.033371,-0.895462,0.451584,0.422823,0.003696,0.074285,64.884338,66.135788,-129.022812,,,
729716084.551986,-63.318573,-2.949485,-88.669841,0.033371,-0.895462,0.451584,0.422823,0.003696,0.074285,64.884338,66.135788,-129.022812,,,
729716084.55529,-63.197265,-2.901754,-91.693327,0.033371,-0.895462,0.451584,0.433397,0.006199,0.045331,64.884338,66.135788,-129.022812,,,
729716084.555538,-63.197237,-2.90176,-88.616438,0.033371,-0.895462,0.451584,0.433397,0.006199,0.045331,64.884338,66.135788,-129.022812,,,
729716084.557195,-63.197265,-2.901754,-91.693327,0.033371,-0.895462,0.451584,0.433397,0.006199,0.045331,64.884338,66.135788,-129.022812,,,
729716084.557413,-63.197237,-2.90176,-88.616438,0.033371,-0.895462,0.451584,0.433397,0.006199,0.045331,64.884338,66.135788,-129.022812,,,
729716084.56235,-63.074062,-2.863124,-91.650858,0.037598,-0.883347,0.458206,0.433397,0.006199,0.045331,64.884338,66.135788,-129.022812,,,
729716084.562604,-63.074033,-2.86313,-88.573969,0.037598,-0.883347,0.458206,0.433397,0.006199,0.045331,64.884338,66.135788,-129.022812,,,
729716084.565194,-62.947311,-2.831825,-91.617572,0.037598,-0.883347,0.458206,0.459925,0.012221,0.017346,64.884338,66.135788,-129.022812,,,
729716084.565472,-62.947282,-2.831832,-88.540683,0.037598,-0.883347,0.458206,0.459925,0.012221,0.017346,64.884338,66.135788,-129.022812,,,
729716084.567175,-62.947311,-2.831825,-91.617572,0.037598,-0.883347,0.458206,0.459925,0.012221,0.017346,64.884338,66.135788,-129.022812,,,
729716084.567413,-62.947282,-2.831832,-88.540683,0.037598,-0.883347,0.458206,0.459925,0.012221,0.017346,64.884338,66.135788,-129.022812,,,
729716084.571756,-62.816451,-2.806263,-91.591066,0.042297,-0.876022,0.476822,0.459925,0.012221,0.017346,64.884338,66.135788,-129.022812,,,
729716084.571979,-62.816422,-2.80627,-88.514178,0.042297,-0.876022,0.476822,0.459925,0.012221,0.017346,64.884338,66.135788,-129.022812,,,
729716084.576442,-62.682304,-2.786665,-91.569843,0.042297,-0.876022,0.476822,0.476227,-0.007046,0.001251,64.884338,66.135788,-129.022812,,,
729716084.576743,-62.682276,-2.786672,-88.492954,0.042297,-0.876022,0.476822,0.476227,-0.007046,0.001251,64.884338,66.135788,-129.022812,,,
729716084.57723,-62.682304,-2.786665,-91.569843,0.042297,-0.876022,0.476822,0.476227,-0.007046,0.001251,64.884338,66.135788,-129.022812,,,
729716084.577548,-62.682276,-2.786672,-88.492954,0.042297,-0.876022,0.476822,0.476227,-0.007046,0.001251,64.884338,66.135788,-129.022812,,,
729716084.582564,-62.545453,-2.77376,-91.551688,0.024826,-0.88121,0.480728,0.476227,-0.007046,0.001251,64.921753,65.535324,-129.790375,,,
729716084.582838,-62.545426,-2.773767,-88.474799,0.024826,-0.88121,0.480728,0.476227,-0.007046,0.001251,64.921753,65.535324,-129.790375,,,
729716084.585086,-62.406787,-2.766602,-91.533604,0.024826,-0.88121,0.480728,0.490782,-0.041572,0.007935,64.921753,65.535324,-129.790375,,,
729716084.585336,-62.40676,-2.766608,-88.456716,0.024826,-0.88121,0.480728,0.490782,-0.041572,0.007935,64.921753,65.535324,-129.790375,,,
729716084.587194,-62.406787,-2.766602,-91.533604,0.024826,-0.88121,0.480728,0.490782,-0.041572,0.007935,64.921753,65.535324,-129.790375,,,
729716084.587408,-62.40676,-2.766608,-88.456716,0.024826,-0.88121,0.480728,0.490782,-0.041572,0.007935,64.921753,65.535324,-129.790375,,,
729716084.591933,-62.266071,-2.761843,-91.514219,0.014923,-0.883331,0.467773,0.490782,-0.041572,0.007935,64.921753,65.535324,-129.790375,,,
729716084.592162,-62.266043,-2.761849,-88.43733,0.014923,-0.883331,0.467773,0.490782,-0.041572,0.007935,64.921753,65.535324,-129.790375,,,
729716084.595148,-62.12334,-2.758636,-91.493855,0.014923,-0.883331,0.467773,0.500455,-0.052127,0.008486,64.921753,65.535324,-129.790375,,,
729716084.595438,-62.123313,-2.758642,-88.416967,0.014923,-0.883331,0.467773,0.500455,-0.052127,0.008486,64.921753,65.535324,-129.790375,,,
729716084.597211,-62.12334,-2.758636,-91.493855,0.014923,-0.883331,0.467773,0.500455,-0.052127,0.008486,64.921753,65.535324,-129.790375,,,
729716084.597438,-62.123313,-2.758642,-88.416967,0.014923,-0.883331,0.467773,0.500455,-0.052127,0.008486,64.921753,65.535324,-129.790375,,,
729716084.601485,-61.979172,-2.756663,-91.473388,0.014343,-0.877838,0.479706,0.500455,-0.052127,0.008486,64.921753,65.535324,-129.790375,,,
729716084.601705,-61.979145,-2.756669,-88.3965,0.014343,-0.877838,0.479706,0.500455,-0.052127,0.008486,64.921753,65.535324,-129.790375,,,
729716084.605008,-61.83498,-2.753613,-91.452553,0.014343,-0.877838,0.479706,0.502426,-0.041309,0.009499,64.921753,65.535324,-129.790375,,,
729716084.605247,-61.834953,-2.753619,-88.375665,0.014343,-0.877838,0.479706,0.502426,-0.041309,0.009499,64.921753,65.535324,-129.790375,,,
729716084.607229,-61.83498,-2.753613,-91.452553,0.014343,-0.877838,0.479706,0.502426,-0.041309,0.009499,64.921753,65.535324,-129.790375,,,
729716084.607453,-61.834953,-2.753619,-88.375665,0.014343,-0.877838,0.479706,0.502426,-0.041309,0.009499,64.921753,65.535324,-129.790375,,,
729716084.611721,-61.690596,-2.747141,-91.430362,0.019272,-0.874023,0.484955,0.502426,-0.041309,0.009499,64.921753,65.535324,-129.790375,,,
729716084.612138,-61.690569,-2.747147,-88.353475,0.019272,-0.874023,0.484955,0.502426,-0.041309,0.009499,64.921753,65.535324,-129.790375,,,
729716084.615315,-61.545285,-2.73459,-91.40607,0.019272,-0.874023,0.484955,0.515227,-0.011759,0.022111,64.921753,65.535324,-129.790375,,,
729716084.615544,-61.545259,-2.734596,-88.329182,0.019272,-0.874023,0.484955,0.515227,-0.011759,0.022111,64.921753,65.535324,-129.790375,,,
729716084.617161,-61.545285,-2.73459,-91.40607,0.019272,-0.874023,0.484955,0.515227,-0.011759,0.022111,64.921753,65.535324,-129.790375,,,
729716084.617405,-61.545259,-2.734596,-88.329182,0.019272,-0.874023,0.484955,0.515227,-0.011759,0.022111,64.921753,65.535324,-129.790375,,,
729716084.622486,-61.398218,-2.713149,-91.37649,0.019455,-0.881989,0.492569,0.515227,-0.011759,0.022111,65.003937,64.885849,-130.485535,,,
729716084.622737,-61.398191,-2.713155,-88.299602,0.019455,-0.881989,0.492569,0.515227,-0.011759,0.022111,65.003937,64.885849,-130.485535,,,
729716084.626269,-61.248141,-2.681971,-91.340389,0.019455,-0.881989,0.492569,0.534141,0.015564,0.045166,65.003937,64.885849,-130.485535,,,
729716084.626582,-61.248115,-2.681977,-88.263501,0.019455,-0.881989,0.492569,0.534141,0.015564,0.045166,65.003937,64.885849,-130.485535,,,
729716084.627117,-61.248141,-2.681971,-91.340389,0.019455,-0.881989,0.492569,0.534141,0.015564,0.045166,65.003937,64.885849,-130.485535,,,
729716084.627523,-61.248115,-2.681977,-88.263501,0.019455,-0.881989,0.492569,0.534141,0.015564,0.045166,65.003937,64.885849,-130.485535,,,
729716084.631817,-61.095163,-2.641865,-91.298985,0.019958,-0.883865,0.508667,0.534141,0.015564,0.045166,65.003937,64.885849,-130.485535,,,
729716084.632052,-61.095137,-2.641871,-88.222098,0.019958,-0.883865,0.508667,0.534141,0.015564,0.045166,65.003937,64.885849,-130.485535,,,
729716084.635445,-60.940655,-2.591046,-91.25074,0.019958,-0.883865,0.508667,0.541671,0.049472,0.064107,65.003937,64.885849,-130.485535,,,
729716084.635709,-60.940629,-2.591052,-88.173853,0.019958,-0.883865,0.508667,0.541671,0.049472,0.064107,65.003937,64.885849,-130.485535,,,
729716084.637146,-60.940655,-2.591046,-91.25074,0.019958,-0.883865,0.508667,0.541671,0.049472,0.064107,65.003937,64.885849,-130.485535,,,
729716084.637416,-60.940629,-2.591052,-88.173853,0.019958,-0.883865,0.508667,0.541671,0.049472,0.064107,65.003937,64.885849,-130.485535,,,
729716084.641531,-60.786315,-2.529545,-91.195948,0.021194,-0.880051,0.510773,0.541671,0.049472,0.064107,65.003937,64.885849,-130.485535,,,
729716084.641756,-60.786289,-2.529551,-88.119061,0.021194,-0.880051,0.510773,0.541671,0.049472,0.064107,65.003937,64.885849,-130.485535,,,
729716084.645407,-60.634073,-2.460831,-91.137042,0.021194,-0.880051,0.510773,0.524585,0.074521,0.082726,65.003937,64.885849,-130.485535,,,
