Time (sec),Pitch (deg),Roll (deg),Yaw(deg),X-Acceleration (g),Y-Acceleration (g),Z-Acceleration (g),Pitch Rate (deg/sec),Roll Rate (deg/sec),Yaw Rate (deg/sec),Magnetic Field in X direction (uT),Magnetic Field in Y direction (uT),Magnetic Field in Z Direction (uT),Latitude (deg),Longitude (deg),Altitude (m)
729706413.24855,-1.055981,-3.613044,165.672716,0.066864,-0.015503,0.983612,0.001422,0.007031,-0.011011,84.318634,13.224976,-147.241547,,,
729706413.251908,-1.05699,-3.61144,165.671409,0.06636,-0.017136,0.987518,-0.005709,0.009525,-0.005516,84.318634,13.224976,-147.241547,,,
729706413.255149,-1.059553,-3.609881,165.669796,0.06636,-0.017136,0.987518,-0.005709,0.009525,-0.005516,83.916489,13.309891,-146.766632,,,
729706413.258475,-1.059553,-3.609881,165.669796,0.06636,-0.017136,0.987518,-0.005709,0.009525,-0.005516,83.916489,13.309891,-146.766632,,,
729706413.26183,-1.063212,-3.607875,165.667492,0.070023,-0.017487,0.98703,-0.014447,0.009808,-0.009815,83.916489,13.309891,-146.766632,,,
729706413.265148,-1.066748,-3.606673,165.664724,0.070023,-0.017487,0.98703,-0.014447,0.009808,-0.009815,83.916489,13.309891,-146.766632,,,
729706413.268509,-1.066748,-3.606673,165.664724,0.070023,-0.017487,0.98703,-0.014447,0.009808,-0.009815,83.916489,13.309891,-146.766632,,,
729706413.271829,-1.06906,-3.605342,165.661103,0.069809,-0.021683,0.987457,-0.006203,0.007369,-0.016373,83.916489,13.309891,-146.766632,,,
729706413.275174,-1.070147,-3.605926,165.656351,0.069809,-0.021683,0.987457,-0.006203,0.007369,-0.016373,83.916489,13.309891,-146.766632,,,
729706413.278492,-1.070147,-3.605926,165.656351,0.069809,-0.021683,0.987457,-0.006203,0.007369,-0.016373,83.916489,13.309891,-146.766632,,,
729706413.281836,-1.070322,-3.605862,165.650747,0.071075,-0.021301,0.99176,-0.000263,0.002345,-0.02288,83.916489,13.309891,-146.766632,,,
729706413.285154,-1.069573,-3.608787,165.64369,0.071075,-0.021301,0.99176,-0.000263,0.002345,-0.02288,83.916489,13.309891,-146.766632,,,
729706413.288605,-1.069573,-3.608787,165.64369,0.071075,-0.021301,0.99176,-0.000263,0.002345,-0.02288,83.916489,13.309891,-146.766632,,,
729706413.291806,-1.068404,-3.609792,165.635872,0.068085,-0.018295,0.995407,0.004611,0.000387,-0.028788,83.916489,13.309891,-146.766632,,,
729706413.295149,-1.066477,-3.612895,165.628104,0.068085,-0.018295,0.995407,0.004611,0.000387,-0.028788,84.335434,13.205383,-147.445938,,,
729706413.298497,-1.066477,-3.612895,165.628104,0.068085,-0.018295,0.995407,0.004611,0.000387,-0.028788,84.335434,13.205383,-147.445938,,,
729706413.301822,-1.06436,-3.614115,165.620507,0.064041,-0.019791,0.993515,0.007653,-0.001842,-0.028098,84.335434,13.205383,-147.445938,,,
729706413.305146,-1.062214,-3.617643,165.613763,0.064041,-0.019791,0.993515,0.007653,-0.001842,-0.028098,84.335434,13.205383,-147.445938,,,
729706413.308535,-1.062214,-3.617643,165.613763,0.064041,-0.019791,0.993515,0.007653,-0.001842,-0.028098,84.335434,13.205383,-147.445938,,,
729706413.311862,-1.061648,-3.619772,165.608018,0.056793,-0.018448,0.987778,-0.000959,-0.00348,-0.02077,84.335434,13.205383,-147.445938,,,
729706413.315152,-1.062385,-3.622863,165.602966,0.056793,-0.018448,0.987778,-0.000959,-0.00348,-0.02077,84.335434,13.205383,-147.445938,,,
729706413.31854,-1.062385,-3.622863,165.602966,0.056793,-0.018448,0.987778,-0.000959,-0.00348,-0.02077,84.335434,13.205383,-147.445938,,,
729706413.321885,-1.065201,-3.624985,165.599118,0.056519,-0.015503,0.98262,-0.013211,-0.003934,-0.011759,84.335434,13.205383,-147.445938,,,
729706413.325184,-1.069593,-3.627438,165.595883,0.056519,-0.015503,0.98262,-0.013211,-0.003934,-0.011759,84.335434,13.205383,-147.445938,,,
729706413.328495,-1.069593,-3.627438,165.595883,0.056519,-0.015503,0.98262,-0.013211,-0.003934,-0.011759,84.335434,13.205383,-147.445938,,,
729706413.331856,-1.076186,-3.627746,165.593338,0.053589,-0.014114,0.982193,-0.026302,0.006048,-0.006224,84.335434,13.205383,-147.445938,,,
729706413.335245,-1.084651,-3.626624,165.59147,0.053589,-0.014114,0.982193,-0.026302,0.006048,-0.006224,84.058655,13.294006,-147.274643,,,
729706413.338527,-1.084651,-3.626624,165.59147,0.053589,-0.014114,0.982193,-0.026302,0.006048,-0.006224,84.058655,13.294006,-147.274643,,,
729706413.341815,-1.094466,-3.621546,165.590322,0.055908,-0.017197,0.984711,-0.034293,0.026374,-0.000864,84.058655,13.294006,-147.274643,,,
729706413.345183,-1.10549,-3.615117,165.58991,0.055908,-0.017197,0.984711,-0.034293,0.026374,-0.000864,84.058655,13.294006,-147.274643,,,
729706413.348505,-1.10549,-3.615117,165.58991,0.055908,-0.017197,0.984711,-0.034293,0.026374,-0.000864,84.058655,13.294006,-147.274643,,,
729706413.352802,-1.117587,-3.604979,165.589801,0.057297,-0.020279,0.995102,-0.041941,0.042091,0.001518,84.058655,13.294006,-147.274643,,,
729706413.355126,-1.130402,-3.594286,165.590041,0.057297,-0.020279,0.995102,-0.041941,0.042091,0.001518,84.058655,13.294006,-147.274643,,,
729706413.358719,-1.130402,-3.594286,165.590041,0.057297,-0.020279,0.995102,-0.041941,0.042091,0.001518,84.058655,13.294006,-147.274643,,,
729706413.361792,-1.142998,-3.581695,165.590301,0.057236,-0.021805,0.999741,-0.043224,0.044774,0.00158,84.058655,13.294006,-147.274643,,,
729706413.365149,-1.154791,-3.571397,165.59088,0.057236,-0.021805,0.999741,-0.043224,0.044774,0.00158,84.058655,13.294006,-147.274643,,,
729706413.368501,-1.154791,-3.571397,165.59088,0.057236,-0.021805,0.999741,-0.043224,0.044774,0.00158,84.058655,13.294006,-147.274643,,,
729706413.371831,-1.165641,-3.562073,165.591862,0.056,-0.023331,1.000732,-0.035796,0.028269,0.003755,84.058655,13.294006,-147.274643,,,
729706413.375157,-1.175053,-3.557593,165.592621,0.056,-0.023331,1.000732,-0.035796,0.028269,0.003755,84.129776,13.225937,-146.854462,,,
729706413.378515,-1.175053,-3.557593,165.592621,0.056,-0.023331,1.000732,-0.035796,0.028269,0.003755,84.129776,13.225937,-146.854462,,,
729706413.381837,-1.183193,-3.556273,165.593139,0.053848,-0.025314,0.999298,-0.025582,0.000329,0.00134,84.129776,13.225937,-146.854462,,,
729706413.385146,-1.190042,-3.558566,165.592867,0.053848,-0.025314,0.999298,-0.025582,0.000329,0.00134,84.129776,13.225937,-146.854462,,,
729706413.388478,-1.190042,-3.558566,165.592867,0.053848,-0.025314,0.999298,-0.025582,0.000329,0.00134,84.129776,13.225937,-146.854462,,,
729706413.391829,-1.195945,-3.564021,165.591881,0.05571,-0.025894,1.000687,-0.018452,-0.01865,-0.004003,84.129776,13.225937,-146.854462,,,
729706413.39518,-1.199899,-3.57067,165.590568,0.05571,-0.025894,1.000687,-0.018452,-0.01865,-0.004003,84.129776,13.225937,-146.854462,,,
729706413.398491,-1.199899,-3.57067,165.590568,0.05571,-0.025894,1.000687,-0.018452,-0.01865,-0.004003,84.129776,13.225937,-146.854462,,,
729706413.401876,-1.203038,-3.57904,165.589089,0.064011,-0.02594,1.007019,-0.009701,-0.025073,-0.005568,84.129776,13.225937,-146.854462,,,
729706413.405138,-1.204802,-3.585031,165.588002,0.064011,-0.02594,1.007019,-0.009701,-0.025073,-0.005568,84.129776,13.225937,-146.854462,,,
729706413.408469,-1.204802,-3.585031,165.588002,0.064011,-0.02594,1.007019,-0.009701,-0.025073,-0.005568,84.129776,13.225937,-146.854462,,,
729706413.411832,-1.206762,-3.590181,165.587228,0.067352,-0.027344,1.009399,-0.00504,-0.010302,-0.00352,84.129776,13.225937,-146.854462,,,
729706413.415142,-1.207234,-3.592168,165.587355,0.067352,-0.027344,1.009399,-0.00504,-0.010302,-0.00352,84.129776,13.225937,-146.854462,,,
729706413.418476,-1.207234,-3.592168,165.587355,0.067352,-0.027344,1.009399,-0.00504,-0.010302,-0.00352,84.381058,13.12793,-147.038132,,,
729706413.42186,-1.207732,-3.593197,165.588289,0.071487,-0.029999,1.008362,0.000197,0.004502,0.002004,84.381058,13.12793,-147.038132,,,
729706413.425139,-1.2073,-3.590562,165.58965,0.071487,-0.029999,1.008362,0.000197,0.004502,0.002004,84.381058,13.12793,-147.038132,,,
729706413.428588,-1.2073,-3.590562,165.58965,0.071487,-0.029999,1.008362,0.000197,0.004502,0.002004,84.381058,13.12793,-147.038132,,,
729706413.431835,-1.206889,-3.586876,165.591259,0.072464,-0.028122,1.006363,0.002416,0.018809,0.003774,84.381058,13.12793,-147.038132,,,
729706413.435154,-1.206728,-3.580998,165.592936,0.072464,-0.028122,1.006363,0.002416,0.018809,0.003774,84.381058,13.12793,-147.038132,,,
729706413.438499,-1.206728,-3.580998,165.592936,0.072464,-0.028122,1.006363,0.002416,0.018809,0.003774,84.381058,13.12793,-147.038132,,,
729706413.44183,-1.207271,-3.575349,165.594296,0.073715,-0.02533,0.997192,-0.002031,0.022801,0.001948,84.381058,13.12793,-147.038132,,,
729706413.445154,-1.208246,-3.569038,165.594875,0.073715,-0.02533,0.997192,-0.002031,0.022801,0.001948,84.381058,13.12793,-147.038132,,,
729706413.448535,-1.208246,-3.569038,165.594875,0.073715,-0.02533,0.997192,-0.002031,0.022801,0.001948,84.381058,13.12793,-147.038132,,,
729706413.451873,-1.20903,-3.565211,165.594205,0.071747,-0.023422,0.990662,-0.003053,0.01363,-0.006544,84.381058,13.12793,-147.038132,,,
729706413.455158,-1.210058,-3.561124,165.592449,0.071747,-0.023422,0.990662,-0.003053,0.01363,-0.006544,84.381058,13.12793,-147.038132,,,
729706413.458507,-1.210058,-3.561124,165.592449,0.071747,-0.023422,0.990662,-0.003053,0.01363,-0.006544,84.311508,13.225784,-147.096252,,,
729706413.461864,-1.210423,-3.559109,165.589607,0.070633,-0.020599,0.988129,-0.001406,0.009093,-0.014006,84.311508,13.225784,-147.096252,,,
729706413.465153,-1.21094,-3.556222,165.585451,0.070633,-0.020599,0.988129,-0.001406,0.009093,-0.014006,84.311508,13.225784,-147.096252,,,
729706413.468594,-1.21094,-3.556222,165.585451,0.070633,-0.020599,0.988129,-0.001406,0.009093,-0.014006,84.311508,13.225784,-147.096252,,,
729706413.471845,-1.209307,-3.555256,165.580915,0.068863,-0.019699,0.98584,0.008692,0.006202,-0.017033,84.311508,13.225784,-147.096252,,,
729706413.475192,-1.207098,-3.553744,165.57649,0.068863,-0.019699,0.98584,0.008692,0.006202,-0.017033,84.311508,13.225784,-147.096252,,,
729706413.478478,-1.207098,-3.553744,165.57649,0.068863,-0.019699,0.98584,0.008692,0.006202,-0.017033,84.311508,13.225784,-147.096252,,,
729706413.481884,-1.203963,-3.552602,165.572129,0.068436,-0.022522,0.986328,0.010802,0.007629,-0.016684,84.311508,13.225784,-147.096252,,,
729706413.485136,-1.201721,-3.551827,165.568229,0.068436,-0.022522,0.986328,0.010802,0.007629,-0.016684,84.311508,13.225784,-147.096252,,,
729706413.488494,-1.201721,-3.551827,165.568229,0.068436,-0.022522,0.986328,0.010802,0.007629,-0.016684,84.311508,13.225784,-147.096252,,,
729706413.491815,-1.199241,-3.549982,165.564978,0.064972,-0.019485,0.984482,0.007187,0.010757,-0.012023,84.311508,13.225784,-147.096252,,,
729706413.495144,-1.198931,-3.549124,165.561864,0.064972,-0.019485,0.984482,0.007187,0.010757,-0.012023,84.311508,13.225784,-147.096252,,,
729706413.498478,-1.198931,-3.549124,165.561864,0.064972,-0.019485,0.984482,0.007187,0.010757,-0.012023,84.253616,13.266968,-146.917664,,,
729706413.501833,-1.199838,-3.54693,165.558736,0.06395,-0.016785,0.980591,-0.007689,0.011452,-0.011401,84.253616,13.266968,-146.917664,,,
729706413.505149,-1.204736,-3.546433,165.555522,0.06395,-0.016785,0.980591,-0.007689,0.011452,-0.011401,84.253616,13.266968,-146.917664,,,
729706413.508579,-1.204736,-3.546433,165.555522,0.06395,-0.016785,0.980591,-0.007689,0.011452,-0.011401,84.253616,13.266968,-146.917664,,,
729706413.511827,-1.211583,-3.54453,165.551954,0.064743,-0.015091,0.974548,-0.028435,0.009507,-0.012838,84.253616,13.266968,-146.917664,,,
729706413.515152,-1.221196,-3.545158,165.547414,0.064743,-0.015091,0.974548,-0.028435,0.009507,-0.012838,84.253616,13.266968,-146.917664,,,
729706413.518507,-1.221196,-3.545158,165.547414,0.064743,-0.015091,0.974548,-0.028435,0.009507,-0.012838,84.253616,13.266968,-146.917664,,,
729706413.521879,-1.231827,-3.543905,165.542361,0.062241,-0.016464,0.973892,-0.040392,0.008088,-0.015973,84.253616,13.266968,-146.917664,,,
729706413.525144,-1.244205,-3.54512,165.537596,0.062241,-0.016464,0.973892,-0.040392,0.008088,-0.015973,84.253616,13.266968,-146.917664,,,
729706413.528504,-1.244205,-3.54512,165.537596,0.062241,-0.016464,0.973892,-0.040392,0.008088,-0.015973,84.253616,13.266968,-146.917664,,,
729706413.53185,-1.256585,-3.544706,165.533256,0.058258,-0.021194,0.97998,-0.043669,0.005389,-0.013078,84.253616,13.266968,-146.917664,,,
729706413.535148,-1.269043,-3.546221,165.529199,0.058258,-0.021194,0.97998,-0.043669,0.005389,-0.013078,84.253616,13.266968,-146.917664,,,
729706413.538518,-1.269043,-3.546221,165.529199,0.058258,-0.021194,0.97998,-0.043669,0.005389,-0.013078,84.253616,13.266968,-146.917664,,,
729706413.541822,-1.281248,-3.546014,165.525594,0.059311,-0.023849,0.983704,-0.042361,0.003692,-0.010338,84.360733,13.249939,-147.130646,,,
729706413.545146,-1.292655,-3.548007,165.521823,0.059311,-0.023849,0.983704,-0.042361,0.003692,-0.010338,84.360733,13.249939,-147.130646,,,
729706413.548561,-1.292655,-3.548007,165.521823,0.059311,-0.023849,0.983704,-0.042361,0.003692,-0.010338,84.360733,13.249939,-147.130646,,,
729706413.551817,-1.303468,-3.548376,165.517559,0.064056,-0.027222,0.988464,-0.036152,0.004326,-0.014438,84.360733,13.249939,-147.130646,,,
729706413.555149,-1.31291,-3.548878,165.513415,0.064056,-0.027222,0.988464,-0.036152,0.004326,-0.014438,84.360733,13.249939,-147.130646,,,
729706413.55857,-1.31291,-3.548878,165.513415,0.064056,-0.027222,0.988464,-0.036152,0.004326,-0.014438,84.360733,13.249939,-147.130646,,,
729706413.561873,-1.321684,-3.547211,165.509577,0.063065,-0.030029,0.997086,-0.030257,0.010412,-0.012884,84.360733,13.249939,-147.130646,,,
729706413.565147,-1.329392,-3.545772,165.505644,0.063065,-0.030029,0.997086,-0.030257,0.010412,-0.012884,84.360733,13.249939,-147.130646,,,
729706413.568502,-1.329392,-3.545772,165.505644,0.063065,-0.030029,0.997086,-0.030257,0.010412,-0.012884,84.360733,13.249939,-147.130646,,,
729706413.57183,-1.336262,-3.542611,165.501475,0.061539,-0.028351,0.998383,-0.022726,0.014759,-0.015208,84.360733,13.249939,-147.130646,,,
729706413.57515,-1.341901,-3.53937,165.497153,0.061539,-0.028351,0.998383,-0.022726,0.014759,-0.015208,84.360733,13.249939,-147.130646,,,
729706413.5785,-1.341901,-3.53937,165.497153,0.061539,-0.028351,0.998383,-0.022726,0.014759,-0.015208,84.360733,13.249939,-147.130646,,,
729706413.581815,-1.348788,-3.534716,165.492594,0.061722,-0.027328,0.998169,-0.026827,0.02052,-0.016744,84.351532,13.205322,-147.290009,,,
729706413.584893,-1.355588,-3.53079,165.487995,0.061722,-0.027328,0.998169,-0.026827,0.02052,-0.016744,84.351532,13.205322,-147.290009,,,
729706413.58859,-1.355588,-3.53079,165.487995,0.061722,-0.027328,0.998169,-0.026827,0.02052,-0.016744,84.351532,13.205322,-147.290009,,,
729706413.591823,-1.364148,-3.527142,165.483532,0.05867,-0.027908,1.000549,-0.031349,0.013812,-0.015582,84.351532,13.205322,-147.290009,,,
729706413.59515,-1.372617,-3.525398,165.47868,0.05867,-0.027908,1.000549,-0.031349,0.013812,-0.015582,84.351532,13.205322,-147.290009,,,
729706413.598473,-1.372617,-3.525398,165.47868,0.05867,-0.027908,1.000549,-0.031349,0.013812,-0.015582,84.351532,13.205322,-147.290009,,,
729706413.601734,-1.382559,-3.523038,165.474051,0.057373,-0.025589,1.000992,-0.034419,0.011748,-0.013993,84.351532,13.205322,-147.290009,,,
729706413.605165,-1.391739,-3.521164,165.469871,0.057373,-0.025589,1.000992,-0.034419,0.011748,-0.013993,84.351532,13.205322,-147.290009,,,
729706413.608496,-1.391739,-3.521164,165.469871,0.057373,-0.025589,1.000992,-0.034419,0.011748,-0.013993,84.351532,13.205322,-147.290009,,,
729706413.611816,-1.401395,-3.519467,165.46539,0.053604,-0.031799,1.008759,-0.033402,0.010362,-0.016153,84.351532,13.205322,-147.290009,,,
729706413.615147,-1.409699,-3.517319,165.461161,0.053604,-0.031799,1.008759,-0.033402,0.010362,-0.016153,84.351532,13.205322,-147.290009,,,
729706413.618489,-1.409699,-3.517319,165.461161,0.053604,-0.031799,1.008759,-0.033402,0.010362,-0.016153,84.351532,13.205322,-147.290009,,,
729706413.62181,-1.416302,-3.516483,165.458029,0.051666,-0.031906,1.012833,-0.019972,0.003936,-0.009251,84.460953,13.409836,-147.318558,,,
729706413.625143,-1.42034,-3.517577,165.455402,0.051666,-0.031906,1.012833,-0.019972,0.003936,-0.009251,84.460953,13.409836,-147.318558,,,
729706413.628552,-1.42034,-3.517577,165.455402,0.051666,-0.031906,1.012833,-0.019972,0.003936,-0.009251,84.460953,13.409836,-147.318558,,,
729706413.631815,-1.421546,-3.51947,165.453331,0.051239,-0.033569,1.0168,-0.000474,-0.003126,-0.006628,84.460953,13.409836,-147.318558,,,
729706413.635144,-1.421315,-3.522677,165.451662,0.051239,-0.033569,1.0168,-0.000474,-0.003126,-0.006628,84.460953,13.409836,-147.318558,,,
729706413.638487,-1.421315,-3.522677,165.451662,0.051239,-0.033569,1.0168,-0.000474,-0.003126,-0.006628,84.460953,13.409836,-147.318558,,,
729706413.6419,-1.41875,-3.52566,165.450099,0.050797,-0.03212,1.016205,0.011534,-0.006079,-0.006726,84.460953,13.409836,-147.318558,,,
729706413.645142,-1.415706,-3.527539,165.449185,0.050797,-0.03212,1.016205,0.011534,-0.006079,-0.006726,84.460953,13.409836,-147.318558,,,
729706413.648481,-1.415706,-3.527539,165.449185,0.050797,-0.03212,1.016205,0.011534,-0.006079,-0.006726,84.460953,13.409836,-147.318558,,,
729706413.651817,-1.411375,-3.527854,165.448927,0.053055,-0.030106,1.015778,0.016508,0.004795,-0.002479,84.460953,13.409836,-147.318558,,,
729706413.65515,-1.407649,-3.527181,165.449474,0.053055,-0.030106,1.015778,0.016508,0.004795,-0.002479,84.460953,13.409836,-147.318558,,,
729706413.658475,-1.407649,-3.527181,165.449474,0.053055,-0.030106,1.015778,0.016508,0.004795,-0.002479,84.460953,13.409836,-147.318558,,,
729706413.661851,-1.404378,-3.525391,165.450697,0.053848,-0.024384,1.008926,0.010999,0.011435,0.002545,84.460953,13.409836,-147.318558,,,
729706413.665149,-1.402841,-3.52225,165.452376,0.053848,-0.024384,1.008926,0.010999,0.011435,0.002545,84.469513,13.657944,-147.157242,,,
729706413.668543,-1.402841,-3.52225,165.452376,0.053848,-0.024384,1.008926,0.010999,0.011435,0.002545,84.469513,13.657944,-147.157242,,,
729706413.671836,-1.401567,-3.518864,165.45462,0.053223,-0.024323,1.001709,0.005701,0.016014,0.006875,84.469513,13.657944,-147.157242,,,
729706413.675174,-1.40154,-3.514735,165.45709,0.053223,-0.024323,1.001709,0.005701,0.016014,0.006875,84.469513,13.657944,-147.157242,,,
729706413.678497,-1.40154,-3.514735,165.45709,0.053223,-0.024323,1.001709,0.005701,0.016014,0.006875,84.469513,13.657944,-147.157242,,,
729706413.681892,-1.402096,-3.511467,165.459499,0.055984,-0.025085,1.001358,0.000385,0.013999,0.006885,84.469513,13.657944,-147.157242,,,
729706413.685142,-1.402694,-3.507151,165.462048,0.055984,-0.025085,1.001358,0.000385,0.013999,0.006885,84.469513,13.657944,-147.157242,,,
729706413.688491,-1.402694,-3.507151,165.462048,0.055984,-0.025085,1.001358,0.000385,0.013999,0.006885,84.469513,13.657944,-147.157242,,,
729706413.691822,-1.401387,-3.504895,165.464602,0.05661,-0.025986,1.001801,0.009967,0.007835,0.006548,84.469513,13.657944,-147.157242,,,
729706413.695153,-1.399331,-3.502097,165.467303,0.05661,-0.025986,1.001801,0.009967,0.007835,0.006548,84.469513,13.657944,-147.157242,,,
729706413.698491,-1.399331,-3.502097,165.467303,0.05661,-0.025986,1.001801,0.009967,0.007835,0.006548,84.469513,13.657944,-147.157242,,,
729706413.701841,-1.395245,-3.501757,165.470167,0.056473,-0.027893,1.00502,0.01742,0.001952,0.007537,84.469513,13.657944,-147.157242,,,
729706413.70515,-1.39079,-3.501024,165.473335,0.056473,-0.027893,1.00502,0.01742,0.001952,0.007537,84.289536,13.345673,-147.274506,,,
729706413.708557,-1.39079,-3.501024,165.473335,0.056473,-0.027893,1.00502,0.01742,0.001952,0.007537,84.289536,13.345673,-147.274506,,,
729706413.711821,-1.384318,-3.503633,165.476405,0.06073,-0.027618,0.999542,0.024105,-0.008332,0.006727,84.289536,13.345673,-147.274506,,,
729706413.715143,-1.378657,-3.504857,165.478943,0.06073,-0.027618,0.999542,0.024105,-0.008332,0.006727,84.289536,13.345673,-147.274506,,,
729706413.718494,-1.378657,-3.504857,165.478943,0.06073,-0.027618,0.999542,0.024105,-0.008332,0.006727,84.289536,13.345673,-147.274506,,,
729706413.721852,-1.371311,-3.508345,165.480701,0.064758,-0.024796,0.9953,0.027745,-0.010157,0.001372,84.289536,13.345673,-147.274506,,,
729706413.725139,-1.364589,-3.509885,165.481646,0.064758,-0.024796,0.9953,0.027745,-0.010157,0.001372,84.289536,13.345673,-147.274506,,,
729706413.728483,-1.364589,-3.509885,165.481646,0.064758,-0.024796,0.9953,0.027745,-0.010157,0.001372,84.289536,13.345673,-147.274506,,,
729706413.73182,-1.356551,-3.512107,165.481972,0.068054,-0.023697,0.997284,0.0301,-0.001953,-0.002777,84.289536,13.345673,-147.274506,,,
729706413.735135,-1.34919,-3.511289,165.481401,0.068054,-0.023697,0.997284,0.0301,-0.001953,-0.002777,84.289536,13.345673,-147.274506,,,
729706413.738486,-1.34919,-3.511289,165.481401,0.068054,-0.023697,0.997284,0.0301,-0.001953,-0.002777,84.289536,13.345673,-147.274506,,,
729706413.741825,-1.342467,-3.509425,165.479759,0.070221,-0.023788,0.995529,0.022319,0.014417,-0.009545,84.289536,13.345673,-147.274506,,,
729706413.745141,-1.337132,-3.503528,165.477791,0.070221,-0.023788,0.995529,0.022319,0.014417,-0.009545,84.372757,13.303406,-147.289154,,,
729706413.748486,-1.337132,-3.503528,165.477791,0.070221,-0.023788,0.995529,0.022319,0.014417,-0.009545,84.372757,13.303406,-147.289154,,,
729706413.751808,-1.334723,-3.497327,165.47607,0.072586,-0.019882,0.991394,0.002845,0.027769,-0.006334,84.372757,13.303406,-147.289154,,,
729706413.755144,-1.335166,-3.488176,165.474114,0.072586,-0.019882,0.991394,0.002845,0.027769,-0.006334,84.372757,13.303406,-147.289154,,,
729706413.758223,-1.335166,-3.488176,165.474114,0.072586,-0.019882,0.991394,0.002845,0.027769,-0.006334,84.372757,13.303406,-147.289154,,,
729706413.761836,-1.337416,-3.478347,165.471568,0.069839,-0.019135,0.991882,-0.011324,0.04029,-0.00942,84.372757,13.303406,-147.289154,,,
729706413.765171,-1.341549,-3.466555,165.469094,0.069839,-0.019135,0.991882,-0.011324,0.04029,-0.00942,84.372757,13.303406,-147.289154,,,
729706413.7685,-1.341549,-3.466555,165.469094,0.069839,-0.019135,0.991882,-0.011324,0.04029,-0.00942,84.372757,13.303406,-147.289154,,,
729706413.771813,-1.345681,-3.45558,165.466449,0.063492,-0.023788,0.992432,-0.013277,0.040644,-0.010344,84.372757,13.303406,-147.289154,,,
729706413.775216,-1.349088,-3.445287,165.463725,0.063492,-0.023788,0.992432,-0.013277,0.040644,-0.010344,84.372757,13.303406,-147.289154,,,
729706413.778496,-1.349088,-3.445287,165.463725,0.063492,-0.023788,0.992432,-0.013277,0.040644,-0.010344,84.372757,13.303406,-147.289154,,,
729706413.781835,-1.350207,-3.437932,165.461201,0.058197,-0.028915,0.994919,-0.000691,0.025814,-0.009543,84.372757,13.303406,-147.289154,,,
729706413.785146,-1.349449,-3.432487,165.45851,0.058197,-0.028915,0.994919,-0.000691,0.025814,-0.009543,84.278214,13.371948,-147.453812,,,
729706413.788544,-1.349449,-3.432487,165.45851,0.058197,-0.028915,0.994919,-0.000691,0.025814,-0.009543,84.278214,13.371948,-147.453812,,,
729706413.791811,-1.345518,-3.429925,165.455341,0.056366,-0.028412,0.996658,0.016841,0.008315,-0.013834,84.278214,13.371948,-147.453812,,,
729706413.79515,-1.340017,-3.430345,165.45206,0.056366,-0.028412,0.996658,0.016841,0.008315,-0.013834,84.278214,13.371948,-147.453812,,,
729706413.798499,-1.340017,-3.430345,165.45206,0.056366,-0.028412,0.996658,0.016841,0.008315,-0.013834,84.278214,13.371948,-147.453812,,,
729706413.801861,-1.33217,-3.43265,165.448509,0.054855,-0.025497,0.99263,0.030498,-0.008167,-0.016609,84.278214,13.371948,-147.453812,,,
729706413.805133,-1.32345,-3.43785,165.444597,0.054855,-0.025497,0.99263,0.030498,-0.008167,-0.016609,84.278214,13.371948,-147.453812,,,
729706413.808492,-1.32345,-3.43785,165.444597,0.054855,-0.025497,0.99263,0.030498,-0.008167,-0.016609,84.278214,13.371948,-147.453812,,,
729706413.81182,-1.315448,-3.442725,165.440458,0.055893,-0.022018,0.985504,0.025427,-0.014828,-0.018133,84.278214,13.371948,-147.453812,,,
729706413.815186,-1.308882,-3.449522,165.435898,0.055893,-0.022018,0.985504,0.025427,-0.014828,-0.018133,84.278214,13.371948,-147.453812,,,
729706413.818491,-1.308882,-3.449522,165.435898,0.055893,-0.022018,0.985504,0.025427,-0.014828,-0.018133,84.278214,13.371948,-147.453812,,,
729706413.821821,-1.304065,-3.45393,165.431351,0.060669,-0.017838,0.977066,0.012096,-0.009196,-0.017544,84.278214,13.371948,-147.453812,,,
729706413.825213,-1.302179,-3.458898,165.426564,0.060669,-0.017838,0.977066,0.012096,-0.009196,-0.017544,84.276337,13.358185,-147.377625,,,
729706413.828513,-1.302179,-3.458898,165.426564,0.060669,-0.017838,0.977066,0.012096,-0.009196,-0.017544,84.276337,13.358185,-147.377625,,,
729706413.831817,-1.303805,-3.459391,165.421476,0.063721,-0.014694,0.973557,-0.011521,0.00819,-0.018494,84.276337,13.358185,-147.377625,,,
729706413.835205,-1.308651,-3.458434,165.416368,0.063721,-0.014694,0.973557,-0.011521,0.00819,-0.018494,84.276337,13.358185,-147.377625,,,
729706413.838475,-1.308651,-3.458434,165.416368,0.063721,-0.014694,0.973557,-0.011521,0.00819,-0.018494,84.276337,13.358185,-147.377625,,,
729706413.84182,-1.317464,-3.451921,165.411574,0.061081,-0.013855,0.974243,-0.035503,0.030946,-0.015235,84.276337,13.358185,-147.377625,,,
729706413.845198,-1.32825,-3.444072,165.407248,0.061081,-0.013855,0.974243,-0.035503,0.030946,-0.015235,84.276337,13.358185,-147.377625,,,
729706413.848497,-1.32825,-3.444072,165.407248,0.061081,-0.013855,0.974243,-0.035503,0.030946,-0.015235,84.276337,13.358185,-147.377625,,,
729706413.851894,-1.341054,-3.433606,165.403657,0.060013,-0.019379,0.979752,-0.0469,0.041464,-0.009621,84.276337,13.358185,-147.377625,,,
729706413.855148,-1.355219,-3.422211,165.400503,0.060013,-0.019379,0.979752,-0.0469,0.041464,-0.009621,84.276337,13.358185,-147.377625,,,
729706413.858518,-1.355219,-3.422211,165.400503,0.060013,-0.019379,0.979752,-0.0469,0.041464,-0.009621,84.276337,13.358185,-147.377625,,,
729706413.861826,-1.368551,-3.410847,165.397716,0.057953,-0.02655,0.983673,-0.044067,0.040364,-0.007292,84.276337,13.358185,-147.377625,,,
729706413.865228,-1.381084,-3.400437,165.395788,0.057953,-0.02655,0.983673,-0.044067,0.040364,-0.007292,84.276337,13.358185,-147.377625,,,
729706413.868485,-1.381084,-3.400437,165.395788,0.057953,-0.02655,0.983673,-0.044067,0.040364,-0.007292,84.39621,13.504211,-147.524612,,,
729706413.871821,-1.39046,-3.392527,165.394188,0.054977,-0.028641,0.987946,-0.026724,0.026412,-0.006009,84.39621,13.504211,-147.524612,,,
729706413.875196,-1.397322,-3.386593,165.392391,0.054977,-0.028641,0.987946,-0.026724,0.026412,-0.006009,84.39621,13.504211,-147.524612,,,
729706413.878551,-1.397322,-3.386593,165.392391,0.054977,-0.028641,0.987946,-0.026724,0.026412,-0.006009,84.39621,13.504211,-147.524612,,,
729706413.881823,-1.40173,-3.38388,165.389857,0.053391,-0.029617,0.993195,-0.012808,0.009186,-0.011882,84.39621,13.504211,-147.524612,,,
729706413.885185,-1.404366,-3.382445,165.386314,0.053391,-0.029617,0.993195,-0.012808,0.009186,-0.011882,84.39621,13.504211,-147.524612,,,
729706413.888479,-1.404366,-3.382445,165.386314,0.053391,-0.029617,0.993195,-0.012808,0.009186,-0.011882,84.39621,13.504211,-147.524612,,,
729706413.891891,-1.405856,-3.382927,165.382453,0.051849,-0.02713,0.995331,-0.004592,0.000115,-0.014467,84.39621,13.504211,-147.524612,,,
729706413.895201,-1.406662,-3.384759,165.378761,0.051849,-0.02713,0.995331,-0.004592,0.000115,-0.014467,84.39621,13.504211,-147.524612,,,
729706413.898488,-1.406662,-3.384759,165.378761,0.051849,-0.02713,0.995331,-0.004592,0.000115,-0.014467,84.39621,13.504211,-147.524612,,,
729706413.901521,-1.408511,-3.388054,165.375769,0.050583,-0.028641,0.990997,-0.008037,-0.010083,-0.009379,84.39621,13.504211,-147.524612,,,
729706413.905283,-1.409937,-3.393511,165.373967,0.050583,-0.028641,0.990997,-0.008037,-0.010083,-0.009379,84.39621,13.504211,-147.524612,,,
729706413.908484,-1.409937,-3.393511,165.373967,0.050583,-0.028641,0.990997,-0.008037,-0.010083,-0.009379,84.342545,13.508987,-147.541977,,,
729706413.911817,-1.413298,-3.398744,165.372929,0.053925,-0.030182,0.987427,-0.013533,-0.014912,-0.003878,84.342545,13.508987,-147.541977,,,
729706413.915185,-1.415615,-3.404807,165.372389,0.053925,-0.030182,0.987427,-0.013533,-0.014912,-0.003878,84.342545,13.508987,-147.541977,,,
729706413.918553,-1.415615,-3.404807,165.372389,0.053925,-0.030182,0.987427,-0.013533,-0.014912,-0.003878,84.342545,13.508987,-147.541977,,,
729706413.921839,-1.418722,-3.410478,165.37283,0.057556,-0.030807,0.992691,-0.009833,-0.01777,0.002638,84.342545,13.508987,-147.541977,,,
729706413.925155,-1.418722,-3.410478,165.37283,0.057556,-0.030807,0.992691,-0.009833,-0.01777,0.002638,84.342545,13.508987,-147.541977,,,
729706413.928494,-1.420435,-3.417046,165.373609,0.057556,-0.030807,0.992691,-0.009833,-0.01777,0.002638,84.342545,13.508987,-147.541977,,,
729706413.931895,-1.423212,-3.422717,165.374514,0.061981,-0.030457,0.994644,-0.009196,-0.014883,0.003397,84.342545,13.508987,-147.541977,,,
729706413.935153,-1.423212,-3.422717,165.374514,0.061981,-0.030457,0.994644,-0.009196,-0.014883,0.003397,84.342545,13.508987,-147.541977,,,
729706413.938485,-1.425832,-3.427361,165.375132,0.061981,-0.030457,0.994644,-0.009196,-0.014883,0.003397,84.342545,13.508987,-147.541977,,,
729706413.941834,-1.428656,-3.430222,165.374714,0.065186,-0.027618,0.998138,-0.010088,-0.003448,-0.003846,84.342545,13.508987,-147.541977,,,
729706413.945212,-1.428656,-3.430222,165.374714,0.065186,-0.027618,0.998138,-0.010088,-0.003448,-0.003846,84.342545,13.508987,-147.541977,,,
729706413.948465,-1.431752,-3.430913,165.373492,0.065186,-0.027618,0.998138,-0.010088,-0.003448,-0.003846,84.467529,13.525528,-147.779678,,,
729706413.951812,-1.434347,-3.430748,165.37184,0.062393,-0.026443,0.999115,-0.009303,0.005259,-0.00683,84.467529,13.525528,-147.779678,,,
729706413.955161,-1.434347,-3.430748,165.37184,0.062393,-0.026443,0.999115,-0.009303,0.005259,-0.00683,84.467529,13.525528,-147.779678,,,
729706413.958543,-1.437738,-3.428637,165.370436,0.062393,-0.026443,0.999115,-0.009303,0.005259,-0.00683,84.467529,13.525528,-147.779678,,,
729706413.96191,-1.440151,-3.42752,165.369757,0.056946,-0.029297,0.999481,-0.006179,0.006181,-0.00173,84.467529,13.525528,-147.779678,,,
729706413.96513,-1.440151,-3.42752,165.369757,0.056946,-0.029297,0.999481,-0.006179,0.006181,-0.00173,84.467529,13.525528,-147.779678,,,
729706413.968509,-1.441854,-3.426131,165.370054,0.056946,-0.029297,0.999481,-0.006179,0.006181,-0.00173,84.467529,13.525528,-147.779678,,,
729706413.971881,-1.442235,-3.426575,165.371326,0.053574,-0.033112,0.996597,0.001103,0.000598,0.004852,84.467529,13.525528,-147.779678,,,
729706413.97514,-1.442235,-3.426575,165.371326,0.053574,-0.033112,0.996597,0.001103,0.000598,0.004852,84.467529,13.525528,-147.779678,,,
729706413.978539,-1.442565,-3.426511,165.373291,0.053574,-0.033112,0.996597,0.001103,0.000598,0.004852,84.467529,13.525528,-147.779678,,,
729706413.981811,-1.442279,-3.429311,165.375502,0.057785,-0.030518,0.996613,0.002967,-0.008129,0.006752,84.467529,13.525528,-147.779678,,,
729706413.985239,-1.442279,-3.429311,165.375502,0.057785,-0.030518,0.996613,0.002967,-0.008129,0.006752,84.467529,13.525528,-147.779678,,,
729706413.988487,-1.442711,-3.430673,165.377635,0.057785,-0.030518,0.996613,0.002967,-0.008129,0.006752,84.467529,13.525528,-147.779678,,,
729706413.991817,-1.442894,-3.432916,165.379115,0.059402,-0.026138,0.999252,0.000501,-0.003927,0.002657,84.423203,13.475433,-147.637665,,,
729706413.995165,-1.442894,-3.432916,165.379115,0.059402,-0.026138,0.999252,0.000501,-0.003927,0.002657,84.423203,13.475433,-147.637665,,,
729706413.998532,-1.444015,-3.433634,165.380157,0.059402,-0.026138,0.999252,0.000501,-0.003927,0.002657,84.423203,13.475433,-147.637665,,,
729706414.001809,-1.445324,-3.434758,165.380718,0.061386,-0.026077,0.999496,-0.006194,-0.00158,-0.000162,84.423203,13.475433,-147.637665,,,
729706414.005172,-1.445324,-3.434758,165.380718,0.061386,-0.026077,0.999496,-0.006194,-0.00158,-0.000162,84.423203,13.475433,-147.637665,,,
729706414.008476,-1.448548,-3.435802,165.381308,0.061386,-0.026077,0.999496,-0.006194,-0.00158,-0.000162,84.423203,13.475433,-147.637665,,,
729706414.011813,-1.452012,-3.436652,165.382229,0.061356,-0.027679,0.998749,-0.01297,0.000824,0.002573,84.423203,13.475433,-147.637665,,,
729706414.015153,-1.452012,-3.436652,165.382229,0.061356,-0.027679,0.998749,-0.01297,0.000824,0.002573,84.423203,13.475433,-147.637665,,,
729706414.018477,-1.456644,-3.438336,165.382889,0.061356,-0.027679,0.998749,-0.01297,0.000824,0.002573,84.423203,13.475433,-147.637665,,,
729706414.021808,-1.460496,-3.439638,165.383353,0.061859,-0.028625,1.001892,-0.010968,-0.001209,0.000978,84.423203,13.475433,-147.637665,,,
729706414.025226,-1.460496,-3.439638,165.383353,0.061859,-0.028625,1.001892,-0.010968,-0.001209,0.000978,84.423203,13.475433,-147.637665,,,
729706414.028491,-1.463303,-3.441475,165.384186,0.061859,-0.028625,1.001892,-0.010968,-0.001209,0.000978,84.423203,13.475433,-147.637665,,,
729706414.031815,-1.464744,-3.44221,165.385672,0.060394,-0.030853,1.005539,-0.00165,0.000924,0.004797,84.554337,13.492798,-147.654419,,,
729706414.035156,-1.464744,-3.44221,165.385672,0.060394,-0.030853,1.005539,-0.00165,0.000924,0.004797,84.554337,13.492798,-147.654419,,,
729706414.038559,-1.464958,-3.442628,165.387705,0.060394,-0.030853,1.005539,-0.00165,0.000924,0.004797,84.554337,13.492798,-147.654419,,,
729706414.041807,-1.46282,-3.442923,165.390287,0.060013,-0.033157,1.005203,0.013344,0.001615,0.007734,84.554337,13.492798,-147.654419,,,
729706414.045157,-1.46282,-3.442923,165.390287,0.060013,-0.033157,1.005203,0.013344,0.001615,0.007734,84.554337,13.492798,-147.654419,,,
729706414.04851,-1.459415,-3.442212,165.393289,0.060013,-0.033157,1.005203,0.013344,0.001615,0.007734,84.554337,13.492798,-147.654419,,,
729706414.051816,-1.45368,-3.442583,165.396109,0.062408,-0.031616,1.007446,0.023995,0.000632,0.006011,84.554337,13.492798,-147.654419,,,
729706414.05517,-1.45368,-3.442583,165.396109,0.062408,-0.031616,1.007446,0.023995,0.000632,0.006011,84.554337,13.492798,-147.654419,,,
729706414.05849,-1.446847,-3.44249,165.398774,0.062408,-0.031616,1.007446,0.023995,0.000632,0.006011,84.554337,13.492798,-147.654419,,,
729706414.061841,-1.437483,-3.443002,165.40121,0.061584,-0.033752,1.007248,0.035698,0.001356,0.003818,84.554337,13.492798,-147.654419,,,
729706414.065231,-1.437483,-3.443002,165.40121,0.061584,-0.033752,1.007248,0.035698,0.001356,0.003818,84.554337,13.492798,-147.654419,,,
729706414.068479,-1.427061,-3.443179,165.403361,0.061584,-0.033752,1.007248,0.035698,0.001356,0.003818,84.554337,13.492798,-147.654419,,,
729706414.071815,-1.415703,-3.443757,165.405405,0.060471,-0.031403,1.00177,0.039583,0.001176,0.002912,84.654785,13.416412,-147.632767,,,
729706414.075242,-1.415703,-3.443757,165.405405,0.060471,-0.031403,1.00177,0.039583,0.001176,0.002912,84.654785,13.416412,-147.632767,,,
729706414.078493,-1.404572,-3.44492,165.407507,0.060471,-0.031403,1.00177,0.039583,0.001176,0.002912,84.654785,13.416412,-147.632767,,,
729706414.081816,-1.393892,-3.447504,165.410419,0.060257,-0.026825,0.992599,0.037161,-0.008588,0.008706,84.654785,13.416412,-147.632767,,,
729706414.085156,-1.393892,-3.447504,165.410419,0.060257,-0.026825,0.992599,0.037161,-0.008588,0.008706,84.654785,13.416412,-147.632767,,,
729706414.088557,-1.384389,-3.45176,165.413831,0.060257,-0.026825,0.992599,0.037161,-0.008588,0.008706,84.654785,13.416412,-147.632767,,,
729706414.091801,-1.375345,-3.457122,165.417141,0.058716,-0.025177,0.98349,0.030933,-0.018467,0.008272,84.654785,13.416412,-147.632767,,,
729706414.095141,-1.375345,-3.457122,165.417141,0.058716,-0.025177,0.98349,0.030933,-0.018467,0.008272,84.654785,13.416412,-147.632767,,,
729706414.09849,-1.368064,-3.463597,165.420539,0.058716,-0.025177,0.98349,0.030933,-0.018467,0.008272,84.654785,13.416412,-147.632767,,,
729706414.10181,-1.362056,-3.469866,165.423687,0.062515,-0.023056,0.97995,0.019111,-0.018945,0.007168,84.654785,13.416412,-147.632767,,,
729706414.105138,-1.362056,-3.469866,165.423687,0.062515,-0.023056,0.97995,0.019111,-0.018945,0.007168,84.654785,13.416412,-147.632767,,,
729706414.108489,-1.358698,-3.475861,165.426076,0.062515,-0.023056,0.97995,0.019111,-0.018945,0.007168,84.654785,13.416412,-147.632767,,,
729706414.111811,-1.356027,-3.480138,165.428063,0.064713,-0.020782,0.976959,0.008893,-0.007748,0.004967,84.403793,13.559387,-147.645844,,,
729706414.115214,-1.356027,-3.480138,165.428063,0.064713,-0.020782,0.976959,0.008893,-0.007748,0.004967,84.403793,13.559387,-147.645844,,,
729706414.118477,-1.356033,-3.482002,165.429879,0.064713,-0.020782,0.976959,0.008893,-0.007748,0.004967,84.403793,13.559387,-147.645844,,,
729706414.121813,-1.356991,-3.48264,165.432077,0.063034,-0.020935,0.980209,-0.004193,0.003514,0.008454,84.403793,13.559387,-147.645844,,,
729706414.12516,-1.356991,-3.48264,165.432077,0.063034,-0.020935,0.980209,-0.004193,0.003514,0.008454,84.403793,13.559387,-147.645844,,,
729706414.128561,-1.359827,-3.482126,165.435107,0.063034,-0.020935,0.980209,-0.004193,0.003514,0.008454,84.403793,13.559387,-147.645844,,,
729706414.131805,-1.362546,-3.480914,165.438417,0.064651,-0.02446,0.980255,-0.011116,0.008561,0.0108,84.403793,13.559387,-147.645844,,,
729706414.135214,-1.362546,-3.480914,165.438417,0.064651,-0.02446,0.980255,-0.011116,0.008561,0.0108,84.403793,13.559387,-147.645844,,,
729706414.138494,-1.36747,-3.478551,165.441502,0.064651,-0.02446,0.980255,-0.011116,0.008561,0.0108,84.403793,13.559387,-147.645844,,,
729706414.141808,-1.371678,-3.475077,165.444118,0.065292,-0.02243,0.981323,-0.013442,0.015245,0.007639,84.403793,13.559387,-147.645844,,,
729706414.145152,-1.371678,-3.475077,165.444118,0.065292,-0.02243,0.981323,-0.013442,0.015245,0.007639,84.403793,13.559387,-147.645844,,,
729706414.148494,-1.376962,-3.471565,165.446641,0.065292,-0.02243,0.981323,-0.013442,0.015245,0.007639,84.403793,13.559387,-147.645844,,,
729706414.15181,-1.380238,-3.46909,165.448643,0.064926,-0.024124,0.985458,-0.008161,0.009196,0.003706,84.403793,13.559387,-147.645844,,,
729706414.155213,-1.380238,-3.46909,165.448643,0.064926,-0.024124,0.985458,-0.008161,0.009196,0.003706,84.439575,13.654907,-147.560516,,,
729706414.158507,-1.383359,-3.467163,165.449754,0.064926,-0.024124,0.985458,-0.008161,0.009196,0.003706,84.439575,13.654907,-147.560516,,,
729706414.161616,-1.38528,-3.464597,165.45027,0.064148,-0.02652,0.989243,-0.003855,0.013134,-0.000726,84.439575,13.654907,-147.560516,,,
729706414.16518,-1.38528,-3.464597,165.45027,0.064148,-0.02652,0.989243,-0.003855,0.013134,-0.000726,84.439575,13.654907,-147.560516,,,
729706414.168539,-1.387277,-3.462025,165.450136,0.064148,-0.02652,0.989243,-0.003855,0.013134,-0.000726,84.439575,13.654907,-147.560516,,,
729706414.17181,-1.388996,-3.459722,165.449897,0.0625,-0.026489,0.991989,-0.004609,0.011215,-0.001412,84.439575,13.654907,-147.560516,,,
729706414.175163,-1.388996,-3.459722,165.449897,0.0625,-0.026489,0.991989,-0.004609,0.011215,-0.001412,84.439575,13.654907,-147.560516,,,
729706414.178487,-1.390495,-3.45747,165.449667,0.0625,-0.026489,0.991989,-0.004609,0.011215,-0.001412,84.439575,13.654907,-147.560516,,,
729706414.181812,-1.392703,-3.45566,165.449149,0.059891,-0.025238,0.995544,-0.0102,0.008791,-0.003052,84.439575,13.654907,-147.560516,,,
729706414.185159,-1.392703,-3.45566,165.449149,0.059891,-0.025238,0.995544,-0.0102,0.008791,-0.003052,84.439575,13.654907,-147.560516,,,
729706414.188492,-1.395417,-3.455893,165.448772,0.059891,-0.025238,0.995544,-0.0102,0.008791,-0.003052,84.439575,13.654907,-147.560516,,,
729706414.191808,-1.398104,-3.456511,165.44853,0.056732,-0.025009,0.995499,-0.008214,-0.001309,-0.002401,84.439575,13.654907,-147.560516,,,
729706414.195145,-1.398104,-3.456511,165.44853,0.056732,-0.025009,0.995499,-0.008214,-0.001309,-0.002401,84.437515,13.31868,-147.793518,,,
729706414.198492,-1.400214,-3.459668,165.448357,0.056732,-0.025009,0.995499,-0.008214,-0.001309,-0.002401,84.437515,13.31868,-147.793518,,,
729706414.201811,-1.402826,-3.463157,165.448875,0.05571,-0.027206,0.996033,-0.007326,-0.010257,0.002155,84.437515,13.31868,-147.793518,,,
729706414.205236,-1.402826,-3.463157,165.448875,0.05571,-0.027206,0.996033,-0.007326,-0.010257,0.002155,84.437515,13.31868,-147.793518,,,
729706414.208499,-1.404751,-3.46786,165.449883,0.05571,-0.027206,0.996033,-0.007326,-0.010257,0.002155,84.437515,13.31868,-147.793518,,,
729706414.211839,-1.406339,-3.472186,165.450294,0.055695,-0.025726,1.002441,-0.00486,-0.012705,-0.002305,84.437515,13.31868,-147.793518,,,
729706414.215146,-1.406339,-3.472186,165.450294,0.055695,-0.025726,1.002441,-0.00486,-0.012705,-0.002305,84.437515,13.31868,-147.793518,,,
729706414.21855,-1.406899,-3.477274,165.450643,0.055695,-0.025726,1.002441,-0.00486,-0.012705,-0.002305,84.437515,13.31868,-147.793518,,,
729706414.22181,-1.406119,-3.479714,165.451646,0.057831,-0.024704,1.008194,0.005856,-0.001723,0.001419,84.437515,13.31868,-147.793518,,,
729706414.22516,-1.406119,-3.479714,165.451646,0.057831,-0.024704,1.008194,0.005856,-0.001723,0.001419,84.437515,13.31868,-147.793518,,,
729706414.228483,-1.404253,-3.481567,165.452826,0.057831,-0.024704,1.008194,0.005856,-0.001723,0.001419,84.437515,13.31868,-147.793518,,,
729706414.231814,-1.401921,-3.481582,165.454928,0.05632,-0.025452,1.007385,0.010593,0.00472,0.007391,84.437515,13.31868,-147.793518,,,
729706414.235192,-1.401921,-3.481582,165.454928,0.05632,-0.025452,1.007385,0.010593,0.00472,0.007391,84.353714,13.440048,-147.789764,,,
729706414.238488,-1.398102,-3.482133,165.458377,0.05632,-0.025452,1.007385,0.010593,0.00472,0.007391,84.353714,13.440048,-147.789764,,,
729706414.241816,-1.392946,-3.481791,165.46263,0.054947,-0.027206,1.004898,0.019388,0.004726,0.01231,84.353714,13.440048,-147.789764,,,
729706414.245224,-1.392946,-3.481791,165.46263,0.054947,-0.027206,1.004898,0.019388,0.004726,0.01231,84.353714,13.440048,-147.789764,,,
729706414.248481,-1.388276,-3.481368,165.467345,0.054947,-0.027206,1.004898,0.019388,0.004726,0.01231,84.353714,13.440048,-147.789764,,,
729706414.251814,-1.383275,-3.480999,165.472183,0.055862,-0.024628,1.00235,0.019418,0.00164,0.013146,84.353714,13.440048,-147.789764,,,
729706414.255151,-1.383275,-3.480999,165.472183,0.055862,-0.024628,1.00235,0.019418,0.00164,0.013146,84.353714,13.440048,-147.789764,,,
729706414.258549,-1.378875,-3.481386,165.476569,0.055862,-0.024628,1.00235,0.019418,0.00164,0.013146,84.353714,13.440048,-147.789764,,,
729706414.261807,-1.375216,-3.482046,165.480394,0.058563,-0.022949,0.998566,0.012117,-0.001095,0.009688,84.353714,13.440048,-147.789764,,,
729706414.265139,-1.375216,-3.482046,165.480394,0.058563,-0.022949,0.998566,0.012117,-0.001095,0.009688,84.353714,13.440048,-147.789764,,,
729706414.268529,-1.371871,-3.483118,165.483564,0.058563,-0.022949,0.998566,0.012117,-0.001095,0.009688,84.353714,13.440048,-147.789764,,,
729706414.271811,-1.368645,-3.485721,165.485954,0.056549,-0.021667,0.995087,0.011193,-0.008273,0.004381,84.353714,13.440048,-147.789764,,,
729706414.275147,-1.368645,-3.485721,165.485954,0.056549,-0.021667,0.995087,0.011193,-0.008273,0.004381,84.372482,13.169662,-147.616837,,,
729706414.278495,-1.366642,-3.488924,165.487376,0.056549,-0.021667,0.995087,0.011193,-0.008273,0.004381,84.372482,13.169662,-147.616837,,,
729706414.281814,-1.365184,-3.494401,165.488258,0.059479,-0.022156,0.994385,0.003816,-0.01792,0.001182,84.372482,13.169662,-147.616837,,,
729706414.285203,-1.365184,-3.494401,165.488258,0.059479,-0.022156,0.994385,0.003816,-0.01792,0.001182,84.372482,13.169662,-147.616837,,,
729706414.288493,-1.364728,-3.499716,165.489114,0.059479,-0.022156,0.994385,0.003816,-0.01792,0.001182,84.372482,13.169662,-147.616837,,,
729706414.291817,-1.365085,-3.505832,165.489753,0.060806,-0.023514,0.993042,-0.003682,-0.017403,0.000274,84.372482,13.169662,-147.616837,,,
729706414.295179,-1.365085,-3.505832,165.489753,0.060806,-0.023514,0.993042,-0.003682,-0.017403,0.000274,84.372482,13.169662,-147.616837,,,
729706414.298544,-1.36679,-3.511019,165.49008,0.060806,-0.023514,0.993042,-0.003682,-0.017403,0.000274,84.372482,13.169662,-147.616837,,,
729706414.301807,-1.368457,-3.516832,165.490368,0.06308,-0.025345,0.993851,-0.004746,-0.016078,0.000208,84.372482,13.169662,-147.616837,,,
729706414.305164,-1.368457,-3.516832,165.490368,0.06308,-0.025345,0.993851,-0.004746,-0.016078,0.000208,84.372482,13.169662,-147.616837,,,
729706414.308499,-1.36977,-3.521244,165.490548,0.06308,-0.025345,0.993851,-0.004746,-0.016078,0.000208,84.372482,13.169662,-147.616837,,,
729706414.311838,-1.370052,-3.52512,165.490282,0.067123,-0.027161,1.001526,0.00253,-0.007946,-0.00322,84.372482,13.169662,-147.616837,,,
729706414.315156,-1.370052,-3.52512,165.490282,0.067123,-0.027161,1.001526,0.00253,-0.007946,-0.00322,84.372482,13.169662,-147.616837,,,
729706414.318494,-1.369812,-3.525724,165.490061,0.067123,-0.027161,1.001526,0.00253,-0.007946,-0.00322,84.248901,13.384705,-147.56749,,,
729706414.321842,-1.368867,-3.525724,165.489604,0.06633,-0.028458,1.006027,0.004381,0.005465,-0.004722,84.248901,13.384705,-147.56749,,,
729706414.325145,-1.368867,-3.525724,165.489604,0.06633,-0.028458,1.006027,0.004381,0.005465,-0.004722,84.248901,13.384705,-147.56749,,,
729706414.328506,-1.367392,-3.522967,165.489331,0.06633,-0.028458,1.006027,0.004381,0.005465,-0.004722,84.248901,13.384705,-147.56749,,,
729706414.331814,-1.364694,-3.521236,165.489511,0.063889,-0.028488,1.001907,0.010933,0.007557,-0.001774,84.248901,13.384705,-147.56749,,,
729706414.335223,-1.364694,-3.521236,165.489511,0.063889,-0.028488,1.001907,0.010933,0.007557,-0.001774,84.248901,13.384705,-147.56749,,,
729706414.338488,-1.361561,-3.518803,165.489763,0.063889,-0.028488,1.001907,0.010933,0.007557,-0.001774,84.248901,13.384705,-147.56749,,,
729706414.341816,-1.358268,-3.516529,165.489977,0.062088,-0.030441,1.00061,0.012584,0.011258,-0.00198,84.248901,13.384705,-147.56749,,,
729706414.345159,-1.358268,-3.516529,165.489977,0.062088,-0.030441,1.00061,0.012584,0.011258,-0.00198,84.248901,13.384705,-147.56749,,,
729706414.348556,-1.353909,-3.513573,165.490238,0.062088,-0.030441,1.00061,0.012584,0.011258,-0.00198,84.248901,13.384705,-147.56749,,,
729706414.351891,-1.348897,-3.511699,165.490698,0.06076,-0.029968,1.000061,0.018521,0.008371,-0.000862,84.248901,13.384705,-147.56749,,,
729706414.355141,-1.348897,-3.511699,165.490698,0.06076,-0.029968,1.000061,0.018521,0.008371,-0.000862,84.248901,13.384705,-147.56749,,,
729706414.358487,-1.344058,-3.509423,165.491356,0.06076,-0.029968,1.000061,0.018521,0.008371,-0.000862,84.269302,13.339005,-147.688202,,,
729706414.361814,-1.340188,-3.508009,165.492242,0.060364,-0.026794,0.994339,0.013609,0.006155,0.001138,84.269302,13.339005,-147.688202,,,
729706414.365156,-1.340188,-3.508009,165.492242,0.060364,-0.026794,0.994339,0.013609,0.006155,0.001138,84.269302,13.339005,-147.688202,,,
729706414.368495,-1.337073,-3.507159,165.49278,0.060364,-0.026794,0.994339,0.013609,0.006155,0.001138,84.269302,13.339005,-147.688202,,,
729706414.371811,-1.334559,-3.507035,165.492705,0.060593,-0.021591,0.993973,0.00897,0.002487,-0.002845,84.269302,13.339005,-147.688202,,,
729706414.375238,-1.334559,-3.507035,165.492705,0.060593,-0.021591,0.993973,0.00897,0.002487,-0.002845,84.269302,13.339005,-147.688202,,,
729706414.378546,-1.332949,-3.507565,165.492069,0.060593,-0.021591,0.993973,0.00897,0.002487,-0.002845,84.269302,13.339005,-147.688202,,,
729706414.381842,-1.331618,-3.50834,165.491407,0.056442,-0.025803,0.996063,0.005881,-0.000188,-0.00287,84.269302,13.339005,-147.688202,,,
729706414.385166,-1.331618,-3.50834,165.491407,0.056442,-0.025803,0.996063,0.005881,-0.000188,-0.00287,84.269302,13.339005,-147.688202,,,
729706414.388572,-1.330084,-3.510441,165.491299,0.056442,-0.025803,0.996063,0.005881,-0.000188,-0.00287,84.269302,13.339005,-147.688202,,,
729706414.39181,-1.327545,-3.51234,165.490796,0.05748,-0.026642,0.998093,0.009597,-0.004533,-0.005975,84.269302,13.339005,-147.688202,,,
729706414.395181,-1.327545,-3.51234,165.490796,0.05748,-0.026642,0.998093,0.009597,-0.004533,-0.005975,84.269302,13.339005,-147.688202,,,
729706414.398499,-1.325038,-3.515584,165.489663,0.05748,-0.026642,0.998093,0.009597,-0.004533,-0.005975,84.458878,13.232605,-147.442337,,,
729706414.401817,-1.321427,-3.517742,165.48899,0.056671,-0.026611,0.997879,0.013466,-0.004248,-0.003139,84.458878,13.232605,-147.442337,,,
729706414.405142,-1.321427,-3.517742,165.48899,0.056671,-0.026611,0.997879,0.013466,-0.004248,-0.003139,84.458878,13.232605,-147.442337,,,
729706414.408505,-1.317722,-3.520697,165.488312,0.056671,-0.026611,0.997879,0.013466,-0.004248,-0.003139,84.458878,13.232605,-147.442337,,,
729706414.411812,-1.312777,-3.522582,165.488201,0.056671,-0.025116,0.996078,0.017694,-0.001791,0.000456,84.458878,13.232605,-147.442337,,,
729706414.415224,-1.312777,-3.522582,165.488201,0.056671,-0.025116,0.996078,0.017694,-0.001791,0.000456,84.458878,13.232605,-147.442337,,,
729706414.418493,-1.309155,-3.524131,165.488641,0.056671,-0.025116,0.996078,0.017694,-0.001791,0.000456,84.458878,13.232605,-147.442337,,,
729706414.421813,-1.305552,-3.525121,165.489064,0.055283,-0.021118,0.991409,0.011489,-7.3e-05,0.00072,84.458878,13.232605,-147.442337,,,
729706414.42516,-1.305552,-3.525121,165.489064,0.055283,-0.021118,0.991409,0.011489,-7.3e-05,0.00072,84.458878,13.232605,-147.442337,,,
729706414.428542,-1.303433,-3.52564,165.489718,0.055283,-0.021118,0.991409,0.011489,-7.3e-05,0.00072,84.458878,13.232605,-147.442337,,,
729706414.431801,-1.301206,-3.526072,165.490585,0.05574,-0.018478,0.989349,0.004604,0.000969,0.002616,84.458878,13.232605,-147.442337,,,
729706414.435172,-1.301206,-3.526072,165.490585,0.05574,-0.018478,0.989349,0.004604,0.000969,0.002616,84.458878,13.232605,-147.442337,,,
729706414.438476,-1.300971,-3.526894,165.491356,0.05574,-0.018478,0.989349,0.004604,0.000969,0.002616,84.108978,13.227097,-147.398712,,,
729706414.44185,-1.301071,-3.527537,165.49175,0.054382,-0.018921,0.98761,-0.003298,0.002655,0.000436,84.108978,13.227097,-147.398712,,,
729706414.44515,-1.301071,-3.527537,165.49175,0.054382,-0.018921,0.98761,-0.003298,0.002655,0.000436,84.108978,13.227097,-147.398712,,,
729706414.448497,-1.30273,-3.527671,165.492007,0.054382,-0.018921,0.98761,-0.003298,0.002655,0.000436,84.108978,13.227097,-147.398712,,,
729706414.451805,-1.305141,-3.527719,165.4926,0.051849,-0.021957,0.991043,-0.009284,0.003203,0.003128,84.108978,13.227097,-147.398712,,,
729706414.455228,-1.305141,-3.527719,165.4926,0.051849,-0.021957,0.991043,-0.009284,0.003203,0.003128,84.108978,13.227097,-147.398712,,,
729706414.458486,-1.308364,-3.527791,165.494296,0.051849,-0.021957,0.991043,-0.009284,0.003203,0.003128,84.108978,13.227097,-147.398712,,,
729706414.461848,-1.311321,-3.52978,165.496631,0.049423,-0.023727,0.988754,-0.007305,-0.0073,0.007515,84.108978,13.227097,-147.398712,,,
729706414.465162,-1.311321,-3.52978,165.496631,0.049423,-0.023727,0.988754,-0.007305,-0.0073,0.007515,84.108978,13.227097,-147.398712,,,
729706414.468555,-1.313764,-3.532299,165.499598,0.049423,-0.023727,0.988754,-0.007305,-0.0073,0.007515,84.108978,13.227097,-147.398712,,,
729706414.471801,-1.314941,-3.536993,165.502919,0.051407,-0.022934,0.990295,-0.00248,-0.015831,0.009858,84.108978,13.227097,-147.398712,,,
729706414.47522,-1.314941,-3.536993,165.502919,0.051407,-0.022934,0.990295,-0.00248,-0.015831,0.009858,84.108978,13.227097,-147.398712,,,
729706414.478499,-1.316343,-3.541887,165.506486,0.051407,-0.022934,0.990295,-0.00248,-0.015831,0.009858,84.108978,13.227097,-147.398712,,,
729706414.481887,-1.317051,-3.547948,165.509958,0.052383,-0.020737,0.988983,-0.000419,-0.019979,0.009195,84.227066,13.293762,-147.347565,,,
729706414.485783,-1.317051,-3.547948,165.509958,0.052383,-0.020737,0.988983,-0.000419,-0.019979,0.009195,84.227066,13.293762,-147.347565,,,
729706414.48843,-1.31821,-3.553248,165.513174,0.052383,-0.020737,0.988983,-0.000419,-0.019979,0.009195,84.227066,13.293762,-147.347565,,,
729706414.491826,-1.31895,-3.559677,165.516442,0.05513,-0.020721,0.986298,-0.000933,-0.020361,0.009821,84.227066,13.293762,-147.347565,,,
729706414.495235,-1.31895,-3.559677,165.516442,0.05513,-0.020721,0.986298,-0.000933,-0.020361,0.009821,84.227066,13.293762,-147.347565,,,
729706414.49849,-1.319699,-3.564433,165.520182,0.05513,-0.020721,0.986298,-0.000933,-0.020361,0.009821,84.227066,13.293762,-147.347565,,,
729706414.501815,-1.320647,-3.568786,165.524379,0.057968,-0.023758,0.988235,-0.002417,-0.010248,0.01324,84.227066,13.293762,-147.347565,,,
729706414.505165,-1.320647,-3.568786,165.524379,0.057968,-0.023758,0.988235,-0.002417,-0.010248,0.01324,84.227066,13.293762,-147.347565,,,
729706414.508547,-1.321087,-3.570915,165.528667,0.057968,-0.023758,0.988235,-0.002417,-0.010248,0.01324,84.227066,13.293762,-147.347565,,,
729706414.511799,-1.322215,-3.57364,165.533244,0.061035,-0.023392,0.989609,-0.004085,-0.006396,0.015566,84.227066,13.293762,-147.347565,,,
729706414.515144,-1.322215,-3.57364,165.533244,0.061035,-0.023392,0.989609,-0.004085,-0.006396,0.015566,84.227066,13.293762,-147.347565,,,
729706414.518508,-1.323608,-3.574858,165.53802,0.061035,-0.023392,0.989609,-0.004085,-0.006396,0.015566,84.227066,13.293762,-147.347565,,,
729706414.521809,-1.325623,-3.576552,165.542911,0.068558,-0.02327,0.991348,-0.004892,-0.002083,0.01653,84.271683,13.278976,-147.474045,,,
729706414.525159,-1.325623,-3.576552,165.542911,0.068558,-0.02327,0.991348,-0.004892,-0.002083,0.01653,84.271683,13.278976,-147.474045,,,
729706414.528501,-1.327257,-3.576294,165.547731,0.068558,-0.02327,0.991348,-0.004892,-0.002083,0.01653,84.271683,13.278976,-147.474045,,,
729706414.53181,-1.329333,-3.578147,165.552123,0.066895,-0.02063,0.994446,-0.006193,-0.004859,0.013916,84.271683,13.278976,-147.474045,,,
729706414.535226,-1.329333,-3.578147,165.552123,0.066895,-0.02063,0.994446,-0.006193,-0.004859,0.013916,84.271683,13.278976,-147.474045,,,
729706414.538502,-1.33171,-3.578253,165.556268,0.066895,-0.02063,0.994446,-0.006193,-0.004859,0.013916,84.271683,13.278976,-147.474045,,,
729706414.541815,-1.334381,-3.580794,165.559938,0.067139,-0.022659,0.995193,-0.008219,-0.00705,0.011057,84.271683,13.278976,-147.474045,,,
729706414.545161,-1.334381,-3.580794,165.559938,0.067139,-0.022659,0.995193,-0.008219,-0.00705,0.011057,84.271683,13.278976,-147.474045,,,
729706414.548551,-1.336901,-3.582271,165.5634,0.067139,-0.022659,0.995193,-0.008219,-0.00705,0.011057,84.271683,13.278976,-147.474045,,,
729706414.5518,-1.338385,-3.587041,165.567161,0.068268,-0.024704,0.996368,-0.00187,-0.016287,0.013068,84.271683,13.278976,-147.474045,,,
729706414.555154,-1.338385,-3.587041,165.567161,0.068268,-0.024704,0.996368,-0.00187,-0.016287,0.013068,84.271683,13.278976,-147.474045,,,
729706414.558484,-1.338441,-3.59132,165.5712,0.068268,-0.024704,0.996368,-0.00187,-0.016287,0.013068,84.271683,13.278976,-147.474045,,,
729706414.561809,-1.337671,-3.597951,165.574978,0.07016,-0.027313,1.0009,0.005122,-0.020311,0.011103,83.965775,13.36821,-147.484665,,,
729706414.565165,-1.337671,-3.597951,165.574978,0.07016,-0.027313,1.0009,0.005122,-0.020311,0.011103,83.965775,13.36821,-147.484665,,,
729706414.56848,-1.334871,-3.603069,165.578484,0.07016,-0.027313,1.0009,0.005122,-0.020311,0.011103,83.965775,13.36821,-147.484665,,,
729706414.571813,-1.330848,-3.609437,165.581141,0.074646,-0.028503,1.006607,0.015525,-0.019081,0.004742,83.965775,13.36821,-147.484665,,,
729706414.575211,-1.330848,-3.609437,165.581141,0.074646,-0.028503,1.006607,0.015525,-0.019081,0.004742,83.965775,13.36821,-147.484665,,,
729706414.578476,-1.326114,-3.614576,165.582837,0.074646,-0.028503,1.006607,0.015525,-0.019081,0.004742,83.965775,13.36821,-147.484665,,,
729706414.581811,-1.320489,-3.620811,165.58364,0.07196,-0.025513,1.002579,0.021303,-0.018335,-0.001659,83.965775,13.36821,-147.484665,,,
729706414.585136,-1.320489,-3.620811,165.58364,0.07196,-0.025513,1.002579,0.021303,-0.018335,-0.001659,83.965775,13.36821,-147.484665,,,
729706414.588559,-1.314613,-3.626286,165.583475,0.07196,-0.025513,1.002579,0.021303,-0.018335,-0.001659,83.965775,13.36821,-147.484665,,,
729706414.591807,-1.308273,-3.631859,165.582219,0.072845,-0.023544,0.997299,0.022969,-0.015396,-0.009329,83.965775,13.36821,-147.484665,,,
729706414.59516,-1.308273,-3.631859,165.582219,0.072845,-0.023544,0.997299,0.022969,-0.015396,-0.009329,83.965775,13.36821,-147.484665,,,
729706414.598476,-1.301979,-3.63737,165.580135,0.072845,-0.023544,0.997299,0.022969,-0.015396,-0.009329,83.965775,13.36821,-147.484665,,,
729706414.60182,-1.296032,-3.64257,165.577897,0.071365,-0.022476,0.996933,0.020681,-0.014881,-0.010282,83.965775,13.36821,-147.484665,,,
729706414.605155,-1.296032,-3.64257,165.577897,0.071365,-0.022476,0.996933,0.020681,-0.014881,-0.010282,83.879272,13.292664,-147.773407,,,
729706414.608511,-1.289477,-3.648709,165.575816,0.071365,-0.022476,0.996933,0.020681,-0.014881,-0.010282,83.879272,13.292664,-147.773407,,,
729706414.611821,-1.282904,-3.653033,165.573737,0.067734,-0.019897,0.995132,0.021588,-0.009889,-0.010491,83.879272,13.292664,-147.773407,,,
729706414.615194,-1.282904,-3.653033,165.573737,0.067734,-0.019897,0.995132,0.021588,-0.009889,-0.010491,83.879272,13.292664,-147.773407,,,
729706414.618482,-1.277368,-3.656954,165.571741,0.067734,-0.019897,0.995132,0.021588,-0.009889,-0.010491,83.879272,13.292664,-147.773407,,,
729706414.621808,-1.273183,-3.659409,165.57072,0.067291,-0.021057,0.993851,0.012668,-0.003491,-0.003218,83.879272,13.292664,-147.773407,,,
729706414.625161,-1.273183,-3.659409,165.57072,0.067291,-0.021057,0.993851,0.012668,-0.003491,-0.003218,83.879272,13.292664,-147.773407,,,
729706414.628558,-1.270134,-3.661443,165.570341,0.067291,-0.021057,0.993851,0.012668,-0.003491,-0.003218,83.879272,13.292664,-147.773407,,,
729706414.631801,-1.268481,-3.661349,165.570013,0.064178,-0.017929,0.996323,0.001892,0.005838,-0.002275,83.879272,13.292664,-147.773407,,,
729706414.635159,-1.268481,-3.661349,165.570013,0.064178,-0.017929,0.996323,0.001892,0.005838,-0.002275,83.879272,13.292664,-147.773407,,,
729706414.63849,-1.269517,-3.660858,165.570073,0.064178,-0.017929,0.996323,0.001892,0.005838,-0.002275,83.879272,13.292664,-147.773407,,,
729706414.641873,-1.271454,-3.658731,165.57005,0.065262,-0.016556,0.99585,-0.007907,0.011745,-0.002357,83.879272,13.292664,-147.773407,,,
729706414.645147,-1.271454,-3.658731,165.57005,0.065262,-0.016556,0.99585,-0.007907,0.011745,-0.002357,84.037231,13.244781,-147.547958,,,
729706414.648491,-1.275096,-3.658342,165.569516,0.065262,-0.016556,0.99585,-0.007907,0.011745,-0.002357,84.037231,13.244781,-147.547958,,,
729706414.651808,-1.278334,-3.65651,165.569213,0.060638,-0.017807,0.994797,-0.010846,0.009931,-0.000855,84.037231,13.244781,-147.547958,,,
729706414.655171,-1.278334,-3.65651,165.569213,0.060638,-0.017807,0.994797,-0.010846,0.009931,-0.000855,84.037231,13.244781,-147.547958,,,
729706414.658472,-1.282184,-3.656441,165.568482,0.060638,-0.017807,0.994797,-0.010846,0.009931,-0.000855,84.037231,13.244781,-147.547958,,,
729706414.661801,-1.285731,-3.654927,165.567173,0.06044,-0.019974,0.995102,-0.013932,0.008393,-0.004919,84.037231,13.244781,-147.547958,,,
729706414.66516,-1.285731,-3.654927,165.567173,0.06044,-0.019974,0.995102,-0.013932,0.008393,-0.004919,84.037231,13.244781,-147.547958,,,
729706414.668474,-1.290328,-3.655557,165.565423,0.06044,-0.019974,0.995102,-0.013932,0.008393,-0.004919,84.037231,13.244781,-147.547958,,,
729706414.671816,-1.295521,-3.655513,165.562461,0.06044,-0.019974,0.995102,-0.013932,0.008393,-0.004919,84.037231,13.244781,-147.547958,,,
729706414.67517,-1.295521,-3.655513,165.562461,0.062653,-0.019592,0.993713,-0.020293,0.002575,-0.01322,84.037231,13.244781,-147.547958,,,
729706414.678542,-1.300498,-3.657901,165.558997,0.062653,-0.019592,0.993713,-0.020293,0.002575,-0.01322,84.037231,13.244781,-147.547958,,,
729706414.681799,-1.303508,-3.659301,165.555679,0.062653,-0.019592,0.993713,-0.020293,0.002575,-0.01322,84.037231,13.244781,-147.547958,,,
