Time (sec),Pitch (deg),Roll (deg),Yaw(deg),X-Acceleration (g),Y-Acceleration (g),Z-Acceleration (g),Pitch Rate (deg/sec),Roll Rate (deg/sec),Yaw Rate (deg/sec),Magnetic Field in X direction (uT),Magnetic Field in Y direction (uT),Magnetic Field in Z Direction (uT),Latitude (deg),Longitude (deg),Altitude (m)
729705408.046398,-0.974361,-0.570293,75.003606,0.013428,-0.015839,0.995255,0.01883,0.015618,0.017372,86.392471,36.261185,-149.306549,,,
729705408.04971,-0.970844,-0.564891,75.008773,0.013428,-0.015839,0.995255,0.01883,0.015618,0.017372,86.392471,36.261185,-149.306549,,,
729705408.053065,-0.96614,-0.56375,75.012676,0.01033,-0.013168,0.991165,0.011841,0.003634,0.010648,86.392471,36.261185,-149.306549,,,
729705408.05637,-0.96614,-0.56375,75.012676,0.01033,-0.013168,0.991165,0.011841,0.003634,0.010648,86.333176,36.362,-149.175873,,,
729705408.059769,-0.963261,-0.562638,75.015358,0.01033,-0.013168,0.991165,0.011841,0.003634,0.010648,86.333176,36.362,-149.175873,,,
729705408.063041,-0.961018,-0.565682,75.017043,0.007294,-0.01181,0.990326,0.006879,-0.0105,0.003697,86.333176,36.362,-149.175873,,,
729705408.0664,-0.961018,-0.565682,75.017043,0.007294,-0.01181,0.990326,0.006879,-0.0105,0.003697,86.333176,36.362,-149.175873,,,
729705408.069734,-0.961092,-0.56785,75.018349,0.007294,-0.01181,0.990326,0.006879,-0.0105,0.003697,86.333176,36.362,-149.175873,,,
729705408.073023,-0.962374,-0.570668,75.019783,0.003235,-0.013107,0.995224,-0.007717,-0.002549,0.004461,86.333176,36.362,-149.175873,,,
729705408.076469,-0.962374,-0.571208,75.021202,0.003235,-0.013107,0.995224,-0.007717,-0.002549,0.004461,86.333176,36.362,-149.175873,,,
729705408.079766,-0.966931,-0.571208,75.021202,0.003235,-0.013107,0.995224,-0.007717,-0.002549,0.004461,86.333176,36.362,-149.175873,,,
729705408.083017,-0.971658,-0.570808,75.022823,0.000458,-0.015289,0.995239,-0.01994,0.008072,0.006037,86.333176,36.362,-149.175873,,,
729705408.086385,-0.971658,-0.570808,75.022823,0.000458,-0.015289,0.995239,-0.01994,0.008072,0.006037,86.333176,36.362,-149.175873,,,
729705408.089702,-0.978285,-0.569696,75.024757,0.000458,-0.015289,0.995239,-0.01994,0.008072,0.006037,86.333176,36.362,-149.175873,,,
729705408.093111,-0.984377,-0.566456,75.026567,0.003632,-0.017929,0.998917,-0.016892,0.016815,0.004391,86.333176,36.362,-149.175873,,,
729705408.096392,-0.984377,-0.566456,75.026567,0.003632,-0.017929,0.998917,-0.016892,0.016815,0.004391,86.238205,36.588837,-148.833939,,,
729705408.099713,-0.98985,-0.563633,75.028651,0.003632,-0.017929,0.998917,-0.016892,0.016815,0.004391,86.238205,36.588837,-148.833939,,,
729705408.103052,-0.992598,-0.56016,75.031009,0.000916,-0.022781,1.00267,-0.000888,0.012854,0.006318,86.238205,36.588837,-148.833939,,,
729705408.106486,-0.992598,-0.56016,75.031009,0.000916,-0.022781,1.00267,-0.000888,0.012854,0.006318,86.238205,36.588837,-148.833939,,,
729705408.109779,-0.992189,-0.559299,75.033094,0.000916,-0.022781,1.00267,-0.000888,0.012854,0.006318,86.238205,36.588837,-148.833939,,,
729705408.113033,-0.988621,-0.559229,75.034802,0.003174,-0.025803,0.99855,0.020164,-0.003345,0.004018,86.238205,36.588837,-148.833939,,,
729705408.116354,-0.988621,-0.559229,75.034802,0.003174,-0.025803,0.99855,0.020164,-0.003345,0.004018,86.238205,36.588837,-148.833939,,,
729705408.11972,-0.982532,-0.563032,75.036325,0.003174,-0.025803,0.99855,0.020164,-0.003345,0.004018,86.238205,36.588837,-148.833939,,,
729705408.123021,-0.975539,-0.568788,75.038099,0.000702,-0.021774,0.999786,0.026353,-0.024208,0.005725,86.238205,36.588837,-148.833939,,,
729705408.126414,-0.975539,-0.568788,75.038099,0.000702,-0.021774,0.999786,0.026353,-0.024208,0.005725,86.238205,36.588837,-148.833939,,,
729705408.12972,-0.968483,-0.577592,75.040067,0.000702,-0.021774,0.999786,0.026353,-0.024208,0.005725,86.238205,36.588837,-148.833939,,,
729705408.133022,-0.963087,-0.588566,75.041348,0.001541,-0.016968,0.993835,0.016893,-0.04128,0.000153,86.238205,36.588837,-148.833939,,,
729705408.13651,-0.963087,-0.588566,75.041524,0.001541,-0.016968,0.993835,0.016893,-0.04128,0.000153,86.204376,36.461258,-148.849014,,,
729705408.139679,-0.958643,-0.601022,75.041524,0.001541,-0.016968,0.993835,0.016893,-0.04128,0.000153,86.204376,36.461258,-148.849014,,,
729705408.143082,-0.956598,-0.613631,75.041016,0.005554,-0.014267,0.994171,0.002181,-0.033909,-0.003959,86.204376,36.461258,-148.849014,,,
729705408.146343,-0.956598,-0.613631,75.041016,0.005554,-0.014267,0.994171,0.002181,-0.033909,-0.003959,86.204376,36.461258,-148.849014,,,
729705408.149691,-0.955421,-0.623308,75.040275,0.005554,-0.014267,0.994171,0.002181,-0.033909,-0.003959,86.204376,36.461258,-148.849014,,,
729705408.153065,-0.956752,-0.630978,75.039141,0.009476,-0.012283,1.000549,-0.009441,-0.016468,-0.003859,86.204376,36.461258,-148.849014,,,
729705408.156354,-0.956752,-0.630978,75.039141,0.009476,-0.012283,1.000549,-0.009441,-0.016468,-0.003859,86.204376,36.461258,-148.849014,,,
729705408.159756,-0.959307,-0.634524,75.038006,0.009476,-0.012283,1.000549,-0.009441,-0.016468,-0.003859,86.204376,36.461258,-148.849014,,,
729705408.16307,-0.964486,-0.637017,75.037884,0.016998,-0.012863,1.00119,-0.019343,0.002515,0.001737,86.204376,36.461258,-148.849014,,,
729705408.166368,-0.964486,-0.637017,75.037884,0.016998,-0.012863,1.00119,-0.019343,0.002515,0.001737,86.204376,36.461258,-148.849014,,,
729705408.169763,-0.970864,-0.635055,75.03918,0.016998,-0.012863,1.00119,-0.019343,0.002515,0.001737,86.204376,36.461258,-148.849014,,,
729705408.173051,-0.978947,-0.632203,75.041655,0.012421,-0.011139,0.999893,-0.027779,0.021642,0.012823,86.204376,36.461258,-148.849014,,,
729705408.176432,-0.978947,-0.632203,75.041655,0.012421,-0.011139,0.999893,-0.027779,0.021642,0.012823,86.204376,36.461258,-148.849014,,,
729705408.179783,-0.988585,-0.62516,75.045156,0.012421,-0.011139,0.999893,-0.027779,0.021642,0.012823,86.324677,36.238571,-148.875427,,,
729705408.183042,-0.997994,-0.618093,75.049179,0.011307,-0.01123,1.000824,-0.033109,0.028441,0.01149,86.324677,36.238571,-148.875427,,,
729705408.186443,-0.997994,-0.618093,75.049179,0.011307,-0.01123,1.000824,-0.033109,0.028441,0.01149,86.324677,36.238571,-148.875427,,,
729705408.189718,-1.008985,-0.609378,75.053392,0.011307,-0.01123,1.000824,-0.033109,0.028441,0.01149,86.324677,36.238571,-148.875427,,,
729705408.193105,-1.018065,-0.603175,75.057268,0.01239,-0.011459,0.998093,-0.03115,0.019431,0.009192,86.324677,36.238571,-148.875427,,,
729705408.196403,-1.018065,-0.603175,75.057268,0.01239,-0.011459,0.998093,-0.03115,0.019431,0.009192,86.324677,36.238571,-148.875427,,,
729705408.199693,-1.027957,-0.597239,75.060353,0.01239,-0.011459,0.998093,-0.03115,0.019431,0.009192,86.324677,36.238571,-148.875427,,,
729705408.203263,-1.035814,-0.595757,75.062214,0.009125,-0.009583,0.994461,-0.022837,-0.002353,0.002963,86.324677,36.238571,-148.875427,,,
729705408.206392,-1.035814,-0.595757,75.062214,0.009125,-0.009583,0.994461,-0.022837,-0.002353,0.002963,86.324677,36.238571,-148.875427,,,
729705408.209749,-1.042813,-0.596535,75.063621,0.009125,-0.009583,0.994461,-0.022837,-0.002353,0.002963,86.324677,36.238571,-148.875427,,,
729705408.213026,-1.048778,-0.602475,75.064815,0.008118,-0.010391,0.991287,-0.018282,-0.024587,0.001253,86.324677,36.238571,-148.875427,,,
729705408.216451,-1.048778,-0.602475,75.064815,0.008118,-0.010391,0.991287,-0.018282,-0.024587,0.001253,86.324677,36.238571,-148.875427,,,
729705408.21969,-1.053318,-0.609228,75.065754,0.008118,-0.010391,0.991287,-0.018282,-0.024587,0.001253,86.228622,36.351257,-148.956345,,,
729705408.223027,-1.057254,-0.619447,75.067182,0.00621,-0.014908,0.992157,-0.009808,-0.039713,0.006047,86.228622,36.351257,-148.956345,,,
729705408.226403,-1.057254,-0.619447,75.067182,0.00621,-0.014908,0.992157,-0.009808,-0.039713,0.006047,86.228622,36.351257,-148.956345,,,
729705408.229735,-1.059869,-0.631972,75.069074,0.00621,-0.014908,0.992157,-0.009808,-0.039713,0.006047,86.228622,36.351257,-148.956345,,,
729705408.233035,-1.064087,-0.647433,75.071329,0.007431,-0.018875,0.99295,-0.015805,-0.052924,0.005624,86.228622,36.351257,-148.956345,,,
729705408.236662,-1.064087,-0.647433,75.071329,0.007431,-0.018875,0.99295,-0.015805,-0.052924,0.005624,86.228622,36.351257,-148.956345,,,
729705408.239724,-1.068234,-0.663907,75.073901,0.007431,-0.018875,0.99295,-0.015805,-0.052924,0.005624,86.228622,36.351257,-148.956345,,,
729705408.24321,-1.074036,-0.678468,75.07653,0.007828,-0.017227,0.995743,-0.023272,-0.040016,0.006809,86.228622,36.351257,-148.956345,,,
729705408.246399,-1.074036,-0.678468,75.07653,0.007828,-0.017227,0.995743,-0.023272,-0.040016,0.006809,86.228622,36.351257,-148.956345,,,
729705408.249722,-1.079692,-0.691523,75.078979,0.007828,-0.017227,0.995743,-0.023272,-0.040016,0.006809,86.228622,36.351257,-148.956345,,,
729705408.253031,-1.087268,-0.701389,75.081947,0.009872,-0.017151,1.00322,-0.029704,-0.020179,0.0089,86.228622,36.351257,-148.956345,,,
729705408.25636,-1.087268,-0.701389,75.081947,0.009872,-0.017151,1.00322,-0.029704,-0.020179,0.0089,86.228622,36.351257,-148.956345,,,
729705408.25977,-1.093998,-0.707749,75.085789,0.009872,-0.017151,1.00322,-0.029704,-0.020179,0.0089,86.173477,36.426056,-148.761154,,,
729705408.263044,-1.103714,-0.711325,75.090109,0.012711,-0.02005,1.004227,-0.036806,-0.002483,0.015618,86.173477,36.426056,-148.761154,,,
729705408.266364,-1.103714,-0.711325,75.090109,0.012711,-0.02005,1.004227,-0.036806,-0.002483,0.015618,86.173477,36.426056,-148.761154,,,
729705408.269897,-1.112717,-0.712805,75.094837,0.012711,-0.02005,1.004227,-0.036806,-0.002483,0.015618,86.173477,36.426056,-148.761154,,,
729705408.273018,-1.123084,-0.71301,75.100535,0.012863,-0.022552,1.001328,-0.037818,0.003515,0.022836,86.173477,36.426056,-148.761154,,,
729705408.276427,-1.123084,-0.71301,75.100535,0.012863,-0.022552,1.001328,-0.037818,0.003515,0.022836,86.173477,36.426056,-148.761154,,,
729705408.279686,-1.132058,-0.71181,75.106887,0.012863,-0.022552,1.001328,-0.037818,0.003515,0.022836,86.173477,36.426056,-148.761154,,,
729705408.283028,-1.142711,-0.710805,75.113973,0.011017,-0.025299,1.001053,-0.033682,0.00491,0.027076,86.173477,36.426056,-148.761154,,,
729705408.286387,-1.142711,-0.710805,75.113973,0.011017,-0.025299,1.001053,-0.033682,0.00491,0.027076,86.173477,36.426056,-148.761154,,,
729705408.2897,-1.150717,-0.709262,75.121723,0.011017,-0.025299,1.001053,-0.033682,0.00491,0.027076,86.173477,36.426056,-148.761154,,,
729705408.293068,-1.159742,-0.709052,75.129292,0.010223,-0.025833,1.000183,-0.027968,0.002606,0.02623,86.173477,36.426056,-148.761154,,,
729705408.29642,-1.159742,-0.709052,75.129292,0.010223,-0.025833,1.000183,-0.027968,0.002606,0.02623,86.173477,36.426056,-148.761154,,,
729705408.299723,-1.166628,-0.708549,75.136746,0.010223,-0.025833,1.000183,-0.027968,0.002606,0.02623,86.173477,36.426056,-148.761154,,,
729705408.303223,-1.17392,-0.70998,75.143563,0.010956,-0.026779,0.998672,-0.020563,-0.007082,0.023295,86.093964,36.543289,-149.038025,,,
729705408.306358,-1.17392,-0.70998,75.143563,0.010956,-0.026779,0.998672,-0.020563,-0.007082,0.023295,86.093964,36.543289,-149.038025,,,
729705408.311246,-1.179116,-0.712485,75.149992,0.010956,-0.026779,0.998672,-0.020563,-0.007082,0.023295,86.093964,36.543289,-149.038025,,,
729705408.312925,-1.183028,-0.717814,75.155884,0.013107,-0.025894,1.000259,-0.010448,-0.021557,0.017667,86.093964,36.543289,-149.038025,,,
729705408.316402,-1.183028,-0.717814,75.155884,0.013107,-0.025894,1.000259,-0.010448,-0.021557,0.017667,86.093964,36.543289,-149.038025,,,
729705408.319692,-1.184886,-0.723733,75.160663,0.013107,-0.025894,1.000259,-0.010448,-0.021557,0.017667,86.093964,36.543289,-149.038025,,,
729705408.323021,-1.184585,-0.732717,75.16466,0.016022,-0.025665,1.002457,0.008454,-0.032811,0.009817,86.093964,36.543289,-149.038025,,,
729705408.326411,-1.184585,-0.732717,75.16466,0.016022,-0.025665,1.002457,0.008454,-0.032811,0.009817,86.093964,36.543289,-149.038025,,,
729705408.329803,-1.18122,-0.74292,75.168286,0.016022,-0.025665,1.002457,0.008454,-0.032811,0.009817,86.093964,36.543289,-149.038025,,,
729705408.33302,-1.176872,-0.754735,75.171203,0.020126,-0.022781,1.001053,0.018313,-0.036273,0.005492,86.093964,36.543289,-149.038025,,,
729705408.33654,-1.176872,-0.754735,75.171203,0.020126,-0.022781,1.001053,0.018313,-0.036273,0.005492,86.093964,36.543289,-149.038025,,,
729705408.33969,-1.171425,-0.765405,75.173383,0.020126,-0.022781,1.001053,0.018313,-0.036273,0.005492,86.093964,36.543289,-149.038025,,,
729705408.343081,-1.166319,-0.775191,75.175028,0.022522,-0.024277,1.000977,0.016915,-0.027988,0.005657,85.997864,36.659668,-148.995529,,,
729705408.346348,-1.166319,-0.775191,75.175028,0.022522,-0.024277,1.000977,0.016915,-0.027988,0.005657,85.997864,36.659668,-148.995529,,,
729705408.349696,-1.161414,-0.783911,75.176856,0.022522,-0.024277,1.000977,0.016915,-0.027988,0.005657,85.997864,36.659668,-148.995529,,,
729705408.353123,-1.157281,-0.791459,75.179324,0.022629,-0.024658,0.998016,0.01226,-0.018751,0.006029,85.997864,36.659668,-148.995529,,,
729705408.356381,-1.157281,-0.791459,75.179324,0.022629,-0.024658,0.998016,0.01226,-0.018751,0.006029,85.997864,36.659668,-148.995529,,,
729705408.359753,-1.15542,-0.795821,75.182391,0.022629,-0.024658,0.998016,0.01226,-0.018751,0.006029,85.997864,36.659668,-148.995529,,,
729705408.363063,-1.153897,-0.7979,75.186103,0.023438,-0.024261,0.995712,0.00473,0.002238,0.011457,85.997864,36.659668,-148.995529,,,
729705408.366365,-1.153897,-0.7979,75.186103,0.023438,-0.024261,0.995712,0.00473,0.002238,0.011457,85.997864,36.659668,-148.995529,,,
729705408.369725,-1.153844,-0.797453,75.190528,0.023438,-0.024261,0.995712,0.00473,0.002238,0.011457,85.997864,36.659668,-148.995529,,,
729705408.373027,-1.153762,-0.795581,75.195789,0.024704,-0.022537,0.995102,-0.002148,0.011484,0.018399,85.997864,36.659668,-148.995529,,,
729705408.376394,-1.153762,-0.795581,75.195789,0.024704,-0.022537,0.995102,-0.002148,0.011484,0.018399,85.997864,36.659668,-148.995529,,,
729705408.379692,-1.155751,-0.79182,75.201673,0.024704,-0.022537,0.995102,-0.002148,0.011484,0.018399,85.997864,36.659668,-148.995529,,,
729705408.383029,-1.157982,-0.786667,75.207702,0.024261,-0.020111,0.992081,-0.008991,0.02627,0.017039,86.054077,36.514694,-149.069611,,,
729705408.386378,-1.157982,-0.786667,75.207702,0.024261,-0.020111,0.992081,-0.008991,0.02627,0.017039,86.054077,36.514694,-149.069611,,,
729705408.389682,-1.16263,-0.77891,75.213419,0.024261,-0.020111,0.992081,-0.008991,0.02627,0.017039,86.054077,36.514694,-149.069611,,,
729705408.393079,-1.166907,-0.77085,75.219003,0.024277,-0.019455,0.994232,-0.012478,0.03005,0.0163,86.054077,36.514694,-149.069611,,,
729705408.3964,-1.166907,-0.77085,75.219003,0.024277,-0.019455,0.994232,-0.012478,0.03005,0.0163,86.054077,36.514694,-149.069611,,,
729705408.39971,-1.17204,-0.763879,75.224601,0.024277,-0.019455,0.994232,-0.012478,0.03005,0.0163,86.054077,36.514694,-149.069611,,,
729705408.403057,-1.174977,-0.758658,75.229307,0.024063,-0.020386,0.992752,-0.005407,0.016931,0.012673,86.054077,36.514694,-149.069611,,,
729705408.406353,-1.174977,-0.758658,75.229307,0.024063,-0.020386,0.992752,-0.005407,0.016931,0.012673,86.054077,36.514694,-149.069611,,,
729705408.409735,-1.17776,-0.756125,75.232224,0.024063,-0.020386,0.992752,-0.005407,0.016931,0.012673,86.054077,36.514694,-149.069611,,,
729705408.413137,-1.179505,-0.755294,75.23384,0.02475,-0.020309,0.992676,-0.005401,-0.001026,0.001749,86.054077,36.514694,-149.069611,,,
729705408.41635,-1.179505,-0.755294,75.23384,0.02475,-0.020309,0.992676,-0.005401,-0.001026,0.001749,86.054077,36.514694,-149.069611,,,
729705408.41976,-1.181569,-0.758612,75.234368,0.02475,-0.020309,0.992676,-0.005401,-0.001026,0.001749,86.054077,36.514694,-149.069611,,,
729705408.423015,-1.183104,-0.762062,75.233876,0.02037,-0.02092,0.99173,-0.00308,-0.01095,-0.002611,86.142303,36.591019,-149.115967,,,
729705408.426409,-1.183104,-0.762062,75.233876,0.02037,-0.02092,0.99173,-0.00308,-0.01095,-0.002611,86.142303,36.591019,-149.115967,,,
729705408.429728,-1.185389,-0.768298,75.232598,0.02037,-0.02092,0.99173,-0.00308,-0.01095,-0.002611,86.142303,36.591019,-149.115967,,,
729705408.433031,-1.186974,-0.773258,75.231027,0.021362,-0.025513,0.996613,-0.002983,-0.017899,-0.005855,86.142303,36.591019,-149.115967,,,
729705408.436384,-1.186974,-0.773258,75.231027,0.021362,-0.025513,0.996613,-0.002983,-0.017899,-0.005855,86.142303,36.591019,-149.115967,,,
729705408.439714,-1.188616,-0.78056,75.229634,0.021362,-0.025513,0.996613,-0.002983,-0.017899,-0.005855,86.142303,36.591019,-149.115967,,,
729705408.443087,-1.188669,-0.787039,75.228724,0.018082,-0.031067,0.997391,0.002323,-0.018169,-0.002275,86.142303,36.591019,-149.115967,,,
729705408.446349,-1.188669,-0.787039,75.228724,0.018082,-0.031067,0.997391,0.002323,-0.018169,-0.002275,86.142303,36.591019,-149.115967,,,
729705408.449719,-1.187925,-0.795087,75.228568,0.018082,-0.031067,0.997391,0.002323,-0.018169,-0.002275,86.142303,36.591019,-149.115967,,,
729705408.453028,-1.184708,-0.799735,75.229607,0.017471,-0.030899,1.001099,0.017826,-0.008564,0.005206,86.142303,36.591019,-149.115967,,,
729705408.45635,-1.184708,-0.799735,75.229607,0.017471,-0.030899,1.001099,0.017826,-0.008564,0.005206,86.142303,36.591019,-149.115967,,,
729705408.459785,-1.179485,-0.804934,75.23156,0.017471,-0.030899,1.001099,0.017826,-0.008564,0.005206,86.142303,36.591019,-149.115967,,,
729705408.463059,-1.173413,-0.806933,75.23437,0.015518,-0.033051,1.004791,0.02043,-0.00308,0.012392,86.142303,36.591019,-149.115967,,,
729705408.466446,-1.173413,-0.806933,75.23437,0.015518,-0.033051,1.004791,0.02043,-0.00308,0.012392,86.149979,36.401001,-149.202072,,,
729705408.469718,-1.167648,-0.810347,75.238425,0.015518,-0.033051,1.004791,0.02043,-0.00308,0.012392,86.149979,36.401001,-149.202072,,,
729705408.47302,-1.162959,-0.810778,75.243263,0.014053,-0.027039,0.995941,0.007966,0.003896,0.015198,86.149979,36.401001,-149.202072,,,
729705408.476151,-1.162959,-0.810778,75.243263,0.014053,-0.027039,0.995941,0.007966,0.003896,0.015198,86.149979,36.401001,-149.202072,,,
729705408.479755,-1.160894,-0.811392,75.248184,0.014053,-0.027039,0.995941,0.007966,0.003896,0.015198,86.149979,36.401001,-149.202072,,,
729705408.483014,-1.16203,-0.809306,75.252941,0.01326,-0.019577,0.995026,-0.01127,0.011588,0.012602,86.149979,36.401001,-149.202072,,,
729705408.486361,-1.16203,-0.809306,75.252941,0.01326,-0.019577,0.995026,-0.01127,0.011588,0.012602,86.149979,36.401001,-149.202072,,,
729705408.489698,-1.166155,-0.808604,75.256841,0.01326,-0.019577,0.995026,-0.01127,0.011588,0.012602,86.149979,36.401001,-149.202072,,,
729705408.493078,-1.172813,-0.805863,75.259678,0.01561,-0.016968,0.99295,-0.027293,0.012392,0.004899,86.149979,36.401001,-149.202072,,,
729705408.496415,-1.172813,-0.805863,75.259678,0.01561,-0.016968,0.99295,-0.027293,0.012392,0.004899,86.149979,36.401001,-149.202072,,,
729705408.499747,-1.181084,-0.8041,75.261617,0.01561,-0.016968,0.99295,-0.027293,0.012392,0.004899,86.149979,36.401001,-149.202072,,,
729705408.503074,-1.190324,-0.799083,75.262977,0.01358,-0.017609,0.99379,-0.032513,0.026049,0.003805,86.149979,36.401001,-149.202072,,,
729705408.506406,-1.190324,-0.799083,75.262977,0.01358,-0.017609,0.99379,-0.032513,0.026049,0.003805,86.218445,36.539154,-148.863556,,,
729705408.509772,-1.19932,-0.79329,75.264294,0.01358,-0.017609,0.99379,-0.032513,0.026049,0.003805,86.218445,36.539154,-148.863556,,,
729705408.51302,-1.206661,-0.785949,75.266443,0.015182,-0.020615,0.997742,-0.023094,0.026307,0.009776,86.218445,36.539154,-148.863556,,,
729705408.516354,-1.206661,-0.785949,75.266443,0.015182,-0.020615,0.997742,-0.023094,0.026307,0.009776,86.218445,36.539154,-148.863556,,,
729705408.519778,-1.214365,-0.780463,75.269473,0.015182,-0.020615,0.997742,-0.023094,0.026307,0.009776,86.218445,36.539154,-148.863556,,,
729705408.523017,-1.220191,-0.775148,75.274212,0.015656,-0.026108,0.98996,-0.015636,0.015613,0.020377,86.218445,36.539154,-148.863556,,,
729705408.526425,-1.220191,-0.775148,75.274212,0.015656,-0.026108,0.98996,-0.015636,0.015613,0.020377,86.218445,36.539154,-148.863556,,,
729705408.529737,-1.226668,-0.772718,75.280902,0.015656,-0.026108,0.98996,-0.015636,0.015613,0.020377,86.218445,36.539154,-148.863556,,,
729705408.533032,-1.230309,-0.771141,75.288466,0.013641,-0.022797,0.984299,-0.011639,0.006366,0.023289,86.218445,36.539154,-148.863556,,,
729705408.53639,-1.230309,-0.771141,75.288466,0.013641,-0.022797,0.984299,-0.011639,0.006366,0.023289,86.218445,36.539154,-148.863556,,,
729705408.539713,-1.235795,-0.772071,75.29598,0.013641,-0.022797,0.984299,-0.011639,0.006366,0.023289,86.218445,36.539154,-148.863556,,,
729705408.543092,-1.239577,-0.774793,75.302528,0.01976,-0.017563,0.9814,-0.010384,-0.010045,0.015566,86.218445,36.539154,-148.863556,,,
729705408.546349,-1.239577,-0.774793,75.302528,0.01976,-0.017563,0.9814,-0.010384,-0.010045,0.015566,86.334244,36.558945,-148.952621,,,
729705408.549708,-1.245284,-0.780006,75.307232,0.01976,-0.017563,0.9814,-0.010384,-0.010045,0.015566,86.334244,36.558945,-148.952621,,,
729705408.553016,-1.248554,-0.787269,75.310038,0.020248,-0.01358,0.979568,-0.00816,-0.028688,0.001573,86.334244,36.558945,-148.952621,,,
729705408.556353,-1.248554,-0.787269,75.310038,0.020248,-0.01358,0.979568,-0.00816,-0.028688,0.001573,86.334244,36.558945,-148.952621,,,
729705408.559756,-1.251285,-0.79644,75.310532,0.020248,-0.01358,0.979568,-0.00816,-0.028688,0.001573,86.334244,36.558945,-148.952621,,,
729705408.563051,-1.254294,-0.807206,75.308609,0.024445,-0.013245,0.979187,-0.016677,-0.033957,-0.012569,86.334244,36.558945,-148.952621,,,
729705408.566354,-1.254294,-0.807206,75.308609,0.024445,-0.013245,0.979187,-0.016677,-0.033957,-0.012569,86.334244,36.558945,-148.952621,,,
729705408.569708,-1.258418,-0.818497,75.305661,0.024445,-0.013245,0.979187,-0.016677,-0.033957,-0.012569,86.334244,36.558945,-148.952621,,,
729705408.573021,-1.266502,-0.828232,75.30257,0.024475,-0.015717,0.980957,-0.035206,-0.024663,-0.011423,86.334244,36.558945,-148.952621,,,
729705408.576417,-1.266502,-0.828232,75.30257,0.024475,-0.015717,0.980957,-0.035206,-0.024663,-0.011423,86.334244,36.558945,-148.952621,,,
729705408.579799,-1.276641,-0.835671,75.299462,0.024475,-0.015717,0.980957,-0.035206,-0.024663,-0.011423,86.334244,36.558945,-148.952621,,,
729705408.5831,-1.291152,-0.839565,75.296757,0.021805,-0.017441,0.98468,-0.058794,0.003272,-0.007754,86.334244,36.558945,-148.952621,,,
729705408.586387,-1.291152,-0.839565,75.296757,0.021805,-0.017441,0.98468,-0.058794,0.003272,-0.007754,86.531311,36.690109,-149.358765,,,
729705408.589697,-1.308448,-0.83852,75.294639,0.021805,-0.017441,0.98468,-0.058794,0.003272,-0.007754,86.531311,36.690109,-149.358765,,,
729705408.593076,-1.329371,-0.832229,75.292732,0.025009,-0.021622,0.988647,-0.079329,0.040918,-0.005145,86.531311,36.690109,-149.358765,,,
729705408.596409,-1.329371,-0.832229,75.292732,0.025009,-0.021622,0.988647,-0.079329,0.040918,-0.005145,86.531311,36.690109,-149.358765,,,
729705408.599709,-1.353917,-0.820927,75.291009,0.025009,-0.021622,0.988647,-0.079329,0.040918,-0.005145,86.531311,36.690109,-149.358765,,,
729705408.603061,-1.382041,-0.803765,75.289597,0.019913,-0.026169,0.98938,-0.107198,0.077953,-0.004695,86.531311,36.690109,-149.358765,,,
729705408.606467,-1.382041,-0.803765,75.289597,0.019913,-0.026169,0.98938,-0.107198,0.077953,-0.004695,86.531311,36.690109,-149.358765,,,
729705408.609746,-1.414597,-0.781908,75.288022,0.019913,-0.026169,0.98938,-0.107198,0.077953,-0.004695,86.531311,36.690109,-149.358765,,,
729705408.613021,-1.451001,-0.757135,75.286268,0.014526,-0.029572,0.983322,-0.136767,0.096793,-0.006563,86.531311,36.690109,-149.358765,,,
729705408.616352,-1.451001,-0.757135,75.286268,0.014526,-0.029572,0.983322,-0.136767,0.096793,-0.006563,86.531311,36.690109,-149.358765,,,
729705408.619696,-1.490926,-0.730706,75.283936,0.014526,-0.029572,0.983322,-0.136767,0.096793,-0.006563,86.531311,36.690109,-149.358765,,,
729705408.623134,-1.536458,-0.702614,75.281205,0.011093,-0.032333,0.974213,-0.172394,0.105423,-0.010098,86.531311,36.690109,-149.358765,,,
729705408.626403,-1.536458,-0.702614,75.281205,0.011093,-0.032333,0.974213,-0.172394,0.105423,-0.010098,86.531311,36.690109,-149.358765,,,
729705408.629717,-1.585188,-0.675073,75.278587,0.011093,-0.032333,0.974213,-0.172394,0.105423,-0.010098,86.518158,36.982025,-149.073746,,,
729705408.633023,-1.639876,-0.646861,75.276198,0.006134,-0.032959,0.970306,-0.201098,0.096775,-0.006205,86.518158,36.982025,-149.073746,,,
729705408.636368,-1.639876,-0.646861,75.276198,0.006134,-0.032959,0.970306,-0.201098,0.096775,-0.006205,86.518158,36.982025,-149.073746,,,
729705408.639696,-1.697469,-0.621783,75.273972,0.006134,-0.032959,0.970306,-0.201098,0.096775,-0.006205,86.518158,36.982025,-149.073746,,,
729705408.643069,-1.760818,-0.598123,75.271443,0.001572,-0.033401,0.9617,-0.232341,0.078727,-0.0082,86.518158,36.982025,-149.073746,,,
729705408.646343,-1.760818,-0.598123,75.271443,0.001572,-0.033401,0.9617,-0.232341,0.078727,-0.0082,86.518158,36.982025,-149.073746,,,
729705408.649678,-1.827329,-0.577466,75.268137,0.001572,-0.033401,0.9617,-0.232341,0.078727,-0.0082,86.518158,36.982025,-149.073746,,,
729705408.653026,-1.901621,-0.553265,75.263169,0.011627,-0.032852,0.95575,-0.274268,0.09763,-0.022066,86.518158,36.982025,-149.073746,,,
729705408.656398,-1.901621,-0.553265,75.263169,0.011627,-0.032852,0.95575,-0.274268,0.09763,-0.022066,86.518158,36.982025,-149.073746,,,
729705408.659719,-1.980795,-0.526025,75.256952,0.011627,-0.032852,0.95575,-0.274268,0.09763,-0.022066,86.518158,36.982025,-149.073746,,,
729705408.663037,-2.067463,-0.492754,75.25193,0.013184,-0.035538,0.96524,-0.31265,0.132855,-0.007102,86.518158,36.982025,-149.073746,,,
729705408.666374,-2.067463,-0.492754,75.25193,0.013184,-0.035538,0.96524,-0.31265,0.132855,-0.007102,86.518158,36.982025,-149.073746,,,
729705408.669693,-2.158643,-0.45622,75.249896,0.013184,-0.035538,0.96524,-0.31265,0.132855,-0.007102,86.905136,37.432251,-148.922668,,,
729705408.673017,-2.256165,-0.417441,75.251435,0.00325,-0.046661,0.959549,-0.35531,0.134726,0.016556,86.905136,37.432251,-148.922668,,,
729705408.676412,-2.256165,-0.417441,75.251435,0.00325,-0.046661,0.959549,-0.35531,0.134726,0.016556,86.905136,37.432251,-148.922668,,,
729705408.679686,-2.358289,-0.381033,75.25565,0.00325,-0.046661,0.959549,-0.35531,0.134726,0.016556,86.905136,37.432251,-148.922668,,,
729705408.683014,-2.468282,-0.343835,75.261242,0.002823,-0.05336,0.943466,-0.399447,0.135694,0.02124,86.905136,37.432251,-148.922668,,,
729705408.686356,-2.468282,-0.343835,75.261242,0.002823,-0.05336,0.943466,-0.399447,0.135694,0.02124,86.905136,37.432251,-148.922668,,,
729705408.689683,-2.585716,-0.303824,75.266388,0.002823,-0.05336,0.943466,-0.399447,0.135694,0.02124,86.905136,37.432251,-148.922668,,,
729705408.693054,-2.714007,-0.256191,75.270671,0.008881,-0.057343,0.94603,-0.476626,0.189185,0.010262,86.905136,37.432251,-148.922668,,,
729705408.696373,-2.714007,-0.256191,75.270671,0.008881,-0.057343,0.94603,-0.476626,0.189185,0.010262,86.905136,37.432251,-148.922668,,,
729705408.699683,-2.854604,-0.200181,75.274005,0.008881,-0.057343,0.94603,-0.476626,0.189185,0.010262,86.905136,37.432251,-148.922668,,,
729705408.703022,-3.01113,-0.134633,75.27797,0.011215,-0.056427,0.946976,-0.585424,0.254958,0.018839,86.905136,37.432251,-148.922668,,,
729705408.706448,-3.01113,-0.134633,75.27797,0.011215,-0.056427,0.946976,-0.585424,0.254958,0.018839,86.905136,37.432251,-148.922668,,,
729705408.70974,-3.18315,-0.059772,75.285795,0.011215,-0.056427,0.946976,-0.585424,0.254958,0.018839,87.185135,38.584274,-148.395065,,,
729705408.713021,-3.372914,0.025794,75.298756,-0.001953,-0.063736,0.940277,-0.705833,0.324918,0.057613,87.185135,38.584274,-148.395065,,,
729705408.716407,-3.372914,0.025794,75.298756,-0.001953,-0.063736,0.940277,-0.705833,0.324918,0.057613,87.185135,38.584274,-148.395065,,,
729705408.719778,-3.580139,0.122137,75.316608,-0.001953,-0.063736,0.940277,-0.705833,0.324918,0.057613,87.185135,38.584274,-148.395065,,,
729705408.723016,-3.805112,0.22969,75.338848,-0.002762,-0.072342,0.943192,-0.831972,0.408034,0.082058,87.185135,38.584274,-148.395065,,,
729705408.72642,-3.805112,0.22969,75.338848,-0.002762,-0.072342,0.943192,-0.831972,0.408034,0.082058,87.185135,38.584274,-148.395065,,,
729705408.729704,-4.048367,0.350853,75.36504,-0.002762,-0.072342,0.943192,-0.831972,0.408034,0.082058,87.185135,38.584274,-148.395065,,,
729705408.733012,-4.310863,0.489343,75.393702,6.1e-05,-0.07373,0.95723,-0.968224,0.527763,0.09331,87.185135,38.584274,-148.395065,,,
729705408.736371,-4.310863,0.489343,75.393702,6.1e-05,-0.07373,0.95723,-0.968224,0.527763,0.09331,87.185135,38.584274,-148.395065,,,
729705408.73968,-4.594036,0.646502,75.423404,6.1e-05,-0.07373,0.95723,-0.968224,0.527763,0.09331,87.185135,38.584274,-148.395065,,,
729705408.743034,-4.900664,0.822032,75.454293,0.002029,-0.070862,0.963516,-1.138478,0.652725,0.091736,87.185135,38.584274,-148.395065,,,
729705408.746361,-4.900664,0.822032,75.454293,0.002029,-0.070862,0.963516,-1.138478,0.652725,0.091736,87.185135,38.584274,-148.395065,,,
729705408.74968,-5.234708,1.014944,75.486416,0.002029,-0.070862,0.963516,-1.138478,0.652725,0.091736,88.360458,40.400238,-147.373291,,,
729705408.753022,-5.599283,1.223372,75.520342,0.000153,-0.068848,0.946014,-1.355508,0.749357,0.089234,88.360458,40.400238,-147.373291,,,
729705408.756351,-5.599283,1.223372,75.520342,0.000153,-0.068848,0.946014,-1.355508,0.749357,0.089234,88.360458,40.400238,-147.373291,,,
729705408.759725,-5.996264,1.443996,75.556217,0.000153,-0.068848,0.946014,-1.355508,0.749357,0.089234,88.360458,40.400238,-147.373291,,,
729705408.763049,-6.427044,1.673815,75.593448,-0.002075,-0.071884,0.922348,-1.593813,0.809623,0.082495,88.360458,40.400238,-147.373291,,,
729705408.766393,-6.427044,1.673815,75.593448,-0.002075,-0.071884,0.922348,-1.593813,0.809623,0.082495,88.360458,40.400238,-147.373291,,,
729705408.769703,-6.893788,1.910585,75.632716,-0.002075,-0.071884,0.922348,-1.593813,0.809623,0.082495,88.360458,40.400238,-147.373291,,,
729705408.773068,-7.398552,2.149499,75.675424,-0.01033,-0.081696,0.902283,-1.862356,0.806539,0.084354,88.360458,40.400238,-147.373291,,,
729705408.77642,-7.398552,2.149499,75.675424,-0.01033,-0.081696,0.902283,-1.862356,0.806539,0.084354,88.360458,40.400238,-147.373291,,,
729705408.779696,-7.942878,2.383018,75.72262,-0.01033,-0.081696,0.902283,-1.862356,0.806539,0.084354,88.360458,40.400238,-147.373291,,,
729705408.78307,-8.528268,2.603394,75.774532,-0.031143,-0.100418,0.856796,-2.153179,0.694131,0.088464,88.360458,40.400238,-147.373291,,,
729705408.786422,-8.528268,2.603394,75.774532,-0.031143,-0.100418,0.856796,-2.153179,0.694131,0.088464,88.360458,40.400238,-147.373291,,,
729705408.789699,-9.155075,2.803456,75.829721,-0.031143,-0.100418,0.856796,-2.153179,0.694131,0.088464,88.360458,40.400238,-147.373291,,,
729705408.793058,-9.822458,2.977131,75.885766,-0.039627,-0.119171,0.817032,-2.43085,0.498988,0.060194,89.854477,44.363846,-145.454788,,,
729705408.796368,-9.822458,2.977131,75.885766,-0.039627,-0.119171,0.817032,-2.43085,0.498988,0.060194,89.854477,44.363846,-145.454788,,,
729705408.799693,-10.52413,3.124644,75.939409,-0.039627,-0.119171,0.817032,-2.43085,0.498988,0.060194,89.854477,44.363846,-145.454788,,,
729705408.803052,-11.244916,3.260103,75.987953,-0.036896,-0.157593,0.815918,-2.529452,0.454187,0.005432,89.854477,44.363846,-145.454788,,,
729705408.806373,-11.244916,3.260103,75.987953,-0.036896,-0.157593,0.815918,-2.529452,0.454187,0.005432,89.854477,44.363846,-145.454788,,,
729705408.809779,-11.965168,3.403879,76.030862,-0.036896,-0.157593,0.815918,-2.529452,0.454187,0.005432,89.854477,44.363846,-145.454788,,,
729705408.813026,-12.669587,3.565691,76.068777,-0.036896,-0.157593,0.815918,-2.529452,0.454187,0.005432,89.854477,44.363846,-145.454788,,,
729705408.81635,-12.669587,3.565691,76.068777,-0.050354,-0.225586,0.960968,-2.399165,0.581679,-0.034427,89.854477,44.363846,-145.454788,,,
729705408.819685,-13.350808,3.739424,76.101895,-0.050354,-0.225586,0.960968,-2.399165,0.581679,-0.034427,89.854477,44.363846,-145.454788,,,
729705408.823014,-14.004909,3.912481,76.130905,-0.047211,-0.278091,1.005463,-2.204014,0.568223,-0.063206,89.854477,44.363846,-145.454788,,,
729705408.826411,-14.004909,3.912481,76.130905,-0.047211,-0.278091,1.005463,-2.204014,0.568223,-0.063206,89.854477,44.363846,-145.454788,,,
729705408.829718,-14.627886,4.079066,76.158398,-0.047211,-0.278091,1.005463,-2.204014,0.568223,-0.063206,89.854477,44.363846,-145.454788,,,
729705408.833031,-15.21595,4.239773,76.187901,-0.066925,-0.315048,0.985031,-1.954795,0.516626,-0.036634,90.879135,48.408051,-142.62709,,,
729705408.836369,-15.21595,4.239773,76.187901,-0.066925,-0.315048,0.985031,-1.954795,0.516626,-0.036634,90.879135,48.408051,-142.62709,,,
729705408.839682,-15.767603,4.394434,76.223003,-0.066925,-0.315048,0.985031,-1.954795,0.516626,-0.036634,90.879135,48.408051,-142.62709,,,
729705408.843084,-16.284768,4.540884,76.264716,-0.066925,-0.315048,0.985031,-1.724169,0.439436,0.015469,90.879135,48.408051,-142.62709,,,
729705408.846345,-16.284768,4.540884,76.264716,-0.108215,-0.331024,1.016098,-1.724169,0.439436,0.015469,90.879135,48.408051,-142.62709,,,
729705408.849689,-16.770754,4.673976,76.311662,-0.108215,-0.331024,1.016098,-1.724169,0.439436,0.015469,90.879135,48.408051,-142.62709,,,
729705408.853019,-16.770754,4.673976,76.362529,-0.108215,-0.331024,1.016098,-1.522031,0.293758,0.045349,90.879135,48.408051,-142.62709,,,
729705408.856355,-17.227231,4.78864,76.362529,-0.105927,-0.326019,0.995743,-1.522031,0.293758,0.045349,90.879135,48.408051,-142.62709,,,
729705408.859724,-17.655318,4.883223,76.416178,-0.105927,-0.326019,0.995743,-1.522031,0.293758,0.045349,90.879135,48.408051,-142.62709,,,
729705408.863038,-17.655318,4.883223,76.471438,-0.105927,-0.326019,0.995743,-1.522031,0.293758,0.045349,90.879135,48.408051,-142.62709,,,
729705408.866386,-18.057088,4.959587,76.471438,-0.106277,-0.331284,0.986115,-1.342057,0.164033,0.067636,90.879135,48.408051,-142.62709,,,
729705408.869694,-18.435662,5.018385,76.526134,-0.106277,-0.331284,0.986115,-1.342057,0.164033,0.067636,90.879135,48.408051,-142.62709,,,
729705408.87304,-18.435662,5.018385,76.526134,-0.106277,-0.331284,0.986115,-1.342057,0.164033,0.067636,91.586136,51.155029,-141.007843,,,
729705408.876426,-18.796095,5.057351,76.578018,-0.111847,-0.34169,0.992325,-1.226778,0.026794,0.048545,91.586136,51.155029,-141.007843,,,
729705408.879686,-19.142972,5.074775,76.624375,-0.111847,-0.34169,0.992325,-1.226778,0.026794,0.048545,91.586136,51.155029,-141.007843,,,
729705408.883089,-19.142972,5.074775,76.662418,-0.111847,-0.34169,0.992325,-1.226778,0.026794,0.048545,91.586136,51.155029,-141.007843,,,
729705408.886343,-19.478802,5.071455,76.662418,-0.097488,-0.341766,0.971741,-1.14688,-0.092976,-0.000114,91.586136,51.155029,-141.007843,,,
729705408.889682,-19.806002,5.049373,76.691179,-0.097488,-0.341766,0.971741,-1.14688,-0.092976,-0.000114,91.586136,51.155029,-141.007843,,,
729705408.893106,-19.806002,5.049373,76.691179,-0.097488,-0.341766,0.971741,-1.121605,-0.193173,-0.060322,91.586136,51.155029,-141.007843,,,
729705408.896367,-20.128738,5.00972,76.710444,-0.09021,-0.339691,0.970047,-1.121605,-0.193173,-0.060322,91.586136,51.155029,-141.007843,,,
729705408.899675,-20.451136,4.953046,76.720167,-0.09021,-0.339691,0.970047,-1.121605,-0.193173,-0.060322,91.586136,51.155029,-141.007843,,,
729705408.903026,-20.451136,4.953046,76.720167,-0.09021,-0.339691,0.970047,-1.121605,-0.193173,-0.060322,91.586136,51.155029,-141.007843,,,
729705408.906355,-20.776374,4.882354,76.721251,-0.080597,-0.34201,0.952148,-1.138516,-0.267533,-0.1129,91.586136,51.155029,-141.007843,,,
729705408.909438,-21.106968,4.801219,76.714977,-0.080597,-0.34201,0.952148,-1.138516,-0.267533,-0.1129,91.586136,51.155029,-141.007843,,,
729705408.91312,-21.106968,4.801219,76.714977,-0.080597,-0.34201,0.952148,-1.138516,-0.267533,-0.1129,91.375366,53.259613,-139.505798,,,
729705408.91641,-21.444621,4.712296,76.70359,-0.070419,-0.350327,0.946884,-1.188821,-0.304761,-0.14258,91.375366,53.259613,-139.505798,,,
729705408.919689,-21.792248,4.617874,76.689171,-0.070419,-0.350327,0.946884,-1.188821,-0.304761,-0.14258,91.375366,53.259613,-139.505798,,,
729705408.923113,-21.792248,4.617874,76.689171,-0.070419,-0.350327,0.946884,-1.188821,-0.304761,-0.14258,91.375366,53.259613,-139.505798,,,
729705408.926404,-22.152961,4.51961,76.673386,-0.061859,-0.360703,0.92897,-1.289751,-0.330741,-0.154461,91.375366,53.259613,-139.505798,,,
729705408.92976,-22.529942,4.417837,76.658291,-0.061859,-0.360703,0.92897,-1.289751,-0.330741,-0.154461,91.375366,53.259613,-139.505798,,,
729705408.933077,-22.529942,4.417837,76.658291,-0.061859,-0.360703,0.92897,-1.289751,-0.330741,-0.154461,91.375366,53.259613,-139.505798,,,
729705408.936365,-22.925947,4.314628,76.645403,-0.053635,-0.373779,0.897537,-1.42295,-0.339434,-0.140685,91.375366,53.259613,-139.505798,,,
729705408.939682,-23.34084,4.213059,76.636318,-0.053635,-0.373779,0.897537,-1.42295,-0.339434,-0.140685,91.375366,53.259613,-139.505798,,,
729705408.943179,-23.34084,4.213059,76.636318,-0.053635,-0.373779,0.897537,-1.5481,-0.305519,-0.117617,91.375366,53.259613,-139.505798,,,
729705408.946342,-23.773778,4.117161,76.631334,-0.04657,-0.388992,0.882706,-1.5481,-0.305519,-0.117617,91.375366,53.259613,-139.505798,,,
729705408.949688,-24.223153,4.031788,76.629524,-0.04657,-0.388992,0.882706,-1.5481,-0.305519,-0.117617,91.375366,53.259613,-139.505798,,,
729705408.953066,-24.223153,4.031788,76.629524,-0.04657,-0.388992,0.882706,-1.5481,-0.305519,-0.117617,91.375366,53.259613,-139.505798,,,
729705408.956409,-24.685377,3.961134,76.630125,-0.035675,-0.407227,0.893936,-1.632895,-0.195872,-0.107349,90.72998,55.722672,-137.911407,,,
729705408.959717,-25.154813,3.909534,76.632407,-0.035675,-0.407227,0.893936,-1.632895,-0.195872,-0.107349,90.72998,55.722672,-137.911407,,,
729705408.963068,-25.154813,3.909534,76.632407,-0.035675,-0.407227,0.893936,-1.632895,-0.195872,-0.107349,90.72998,55.722672,-137.911407,,,
729705408.96636,-25.624238,3.87824,76.635581,-0.027771,-0.432327,0.921341,-1.619262,-0.05907,-0.09863,90.72998,55.722672,-137.911407,,,
729705408.969712,-26.086661,3.866336,76.639174,-0.027771,-0.432327,0.921341,-1.619262,-0.05907,-0.09863,90.72998,55.722672,-137.911407,,,
729705408.973015,-26.086661,3.866336,76.639174,-0.027771,-0.432327,0.921341,-1.619262,-0.05907,-0.09863,90.72998,55.722672,-137.911407,,,
729705408.976499,-26.536875,3.87318,76.642331,-0.035751,-0.457825,0.943192,-1.524933,0.070165,-0.096399,90.72998,55.722672,-137.911407,,,
729705408.979752,-26.971199,3.898526,76.644198,-0.035751,-0.457825,0.943192,-1.524933,0.070165,-0.096399,90.72998,55.722672,-137.911407,,,
729705408.982759,-26.971199,3.898526,76.644198,-0.035751,-0.457825,0.943192,-1.524933,0.070165,-0.096399,90.72998,55.722672,-137.911407,,,
729705408.986455,-27.386809,3.942617,76.64469,-0.040176,-0.465683,0.95459,-1.392065,0.206498,-0.101928,90.72998,55.722672,-137.911407,,,
729705408.989674,-27.782232,4.004636,76.642603,-0.040176,-0.465683,0.95459,-1.392065,0.206498,-0.101928,90.72998,55.722672,-137.911407,,,
729705408.993159,-27.782232,4.004636,76.642603,-0.040176,-0.465683,0.95459,-1.392065,0.206498,-0.101928,90.72998,55.722672,-137.911407,,,
729705408.996374,-28.155586,4.081744,76.638649,-0.042419,-0.469254,0.960846,-1.23436,0.310735,-0.100818,90.976273,58.164383,-136.006287,,,
729705408.999691,-28.506173,4.169633,76.634653,-0.042419,-0.469254,0.960846,-1.23436,0.310735,-0.100818,90.976273,58.164383,-136.006287,,,
729705409.00303,-28.506173,4.169633,76.634653,-0.042419,-0.469254,0.960846,-1.23436,0.310735,-0.100818,90.976273,58.164383,-136.006287,,,
729705409.006396,-28.834645,4.263943,76.631584,-0.062759,-0.48912,0.948029,-1.086083,0.338525,-0.087627,90.976273,58.164383,-136.006287,,,
729705409.009748,-29.142603,4.358939,76.630904,-0.062759,-0.48912,0.948029,-1.086083,0.338525,-0.087627,90.976273,58.164383,-136.006287,,,
729705409.01303,-29.142603,4.358939,76.630904,-0.062759,-0.48912,0.948029,-1.086083,0.338525,-0.087627,90.976273,58.164383,-136.006287,,,
729705409.016349,-29.431927,4.449458,76.632958,-0.078323,-0.499756,0.919281,-0.960214,0.294949,-0.060618,90.976273,58.164383,-136.006287,,,
729705409.019684,-29.704106,4.53327,76.638491,-0.078323,-0.499756,0.919281,-0.960214,0.294949,-0.060618,90.976273,58.164383,-136.006287,,,
729705409.02301,-29.704106,4.53327,76.638491,-0.078323,-0.499756,0.919281,-0.960214,0.294949,-0.060618,90.976273,58.164383,-136.006287,,,
729705409.026411,-29.961984,4.609867,76.648482,-0.092743,-0.508377,0.898621,-0.86662,0.229355,-0.033044,90.976273,58.164383,-136.006287,,,
729705409.029701,-30.208232,4.67868,76.662576,-0.092743,-0.508377,0.898621,-0.86662,0.229355,-0.033044,90.976273,58.164383,-136.006287,,,
729705409.033115,-30.208232,4.67868,76.662576,-0.092743,-0.508377,0.898621,-0.86662,0.229355,-0.033044,90.976273,58.164383,-136.006287,,,
729705409.036328,-30.444609,4.740058,76.680444,-0.101273,-0.516418,0.882843,-0.803633,0.162123,-0.004532,91.186066,59.522522,-134.525345,,,
729705409.039687,-30.674006,4.79466,76.701023,-0.101273,-0.516418,0.882843,-0.803633,0.162123,-0.004532,91.186066,59.522522,-134.525345,,,
729705409.043078,-30.674006,4.79466,76.701023,-0.101273,-0.516418,0.882843,-0.803633,0.162123,-0.004532,91.186066,59.522522,-134.525345,,,
729705409.046425,-30.900162,4.842009,76.723965,-0.096649,-0.516968,0.874435,-0.787625,0.101981,0.003686,91.186066,59.522522,-134.525345,,,
729705409.049681,-31.126464,4.880216,76.748267,-0.096649,-0.516968,0.874435,-0.787625,0.101981,0.003686,91.186066,59.522522,-134.525345,,,
729705409.05304,-31.126464,4.880216,76.748267,-0.096649,-0.516968,0.874435,-0.787625,0.101981,0.003686,91.186066,59.522522,-134.525345,,,
729705409.056347,-31.355881,4.90861,76.772608,-0.092957,-0.514465,0.856949,-0.818704,0.031995,-0.001999,91.186066,59.522522,-134.525345,,,
729705409.059733,-31.592467,4.927048,76.796632,-0.092957,-0.514465,0.856949,-0.818704,0.031995,-0.001999,91.186066,59.522522,-134.525345,,,
729705409.063044,-31.592467,4.927048,76.796632,-0.092957,-0.514465,0.856949,-0.818704,0.031995,-0.001999,91.186066,59.522522,-134.525345,,,
729705409.066379,-31.840778,4.936271,76.820546,-0.090118,-0.513977,0.833557,-0.906266,-0.028651,-0.008819,91.186066,59.522522,-134.525345,,,
729705409.069694,-32.10427,4.938913,76.844608,-0.090118,-0.513977,0.833557,-0.906266,-0.028651,-0.008819,91.186066,59.522522,-134.525345,,,
729705409.073114,-32.10427,4.938913,76.844608,-0.090118,-0.513977,0.833557,-0.906266,-0.028651,-0.008819,91.186066,59.522522,-134.525345,,,
729705409.076431,-32.385398,4.938755,76.867697,-0.090332,-0.523834,0.81102,-1.028906,-0.038667,-0.02621,91.186066,59.522522,-134.525345,,,
729705409.0797,-32.684171,4.939298,76.888378,-0.090332,-0.523834,0.81102,-1.028906,-0.038667,-0.02621,91.170898,61.043427,-133.389999,,,
729705409.083035,-32.684171,4.939298,76.888378,-0.090332,-0.523834,0.81102,-1.028906,-0.038667,-0.02621,91.170898,61.043427,-133.389999,,,
729705409.086396,-32.998362,4.945181,76.907662,-0.073639,-0.541931,0.80722,-1.127073,0.013048,-0.044865,91.170898,61.043427,-133.389999,,,
729705409.089674,-33.324015,4.961278,76.926655,-0.073639,-0.541931,0.80722,-1.127073,0.013048,-0.044865,91.170898,61.043427,-133.389999,,,
729705409.093067,-33.324015,4.961278,76.926655,-0.073639,-0.541931,0.80722,-1.127073,0.013048,-0.044865,91.170898,61.043427,-133.389999,,,
729705409.096371,-33.656319,4.99029,76.946562,-0.07016,-0.570007,0.824951,-1.165688,0.098938,-0.039957,91.170898,61.043427,-133.389999,,,
729705409.099675,-33.990041,5.031391,76.969246,-0.07016,-0.570007,0.824951,-1.165688,0.098938,-0.039957,91.170898,61.043427,-133.389999,,,
729705409.103024,-33.990041,5.031391,76.969246,-0.07016,-0.570007,0.824951,-1.165688,0.098938,-0.039957,91.170898,61.043427,-133.389999,,,
729705409.106341,-34.321802,5.082715,76.994706,-0.074936,-0.582977,0.843155,-1.149798,0.154085,-0.023661,91.170898,61.043427,-133.389999,,,
729705409.109757,-34.65013,5.143913,77.023423,-0.074936,-0.582977,0.843155,-1.149798,0.154085,-0.023661,91.170898,61.043427,-133.389999,,,
729705409.113002,-34.65013,5.143913,77.023423,-0.074936,-0.582977,0.843155,-1.149798,0.154085,-0.023661,91.170898,61.043427,-133.389999,,,
729705409.116349,-34.973232,5.215433,77.056064,-0.072296,-0.576019,0.846649,-1.111438,0.20782,-0.004785,91.170898,61.043427,-133.389999,,,
729705409.119677,-35.288956,5.297688,77.092091,-0.072296,-0.576019,0.846649,-1.111438,0.20782,-0.004785,91.54039,62.711746,-131.398438,,,
729705409.123049,-35.288956,5.297688,77.092091,-0.072296,-0.576019,0.846649,-1.111438,0.20782,-0.004785,91.54039,62.711746,-131.398438,,,
729705409.126394,-35.594771,5.393337,77.132161,-0.079071,-0.578964,0.855438,-1.040637,0.288261,0.02444,91.54039,62.711746,-131.398438,,,
729705409.129697,-35.88804,5.504471,77.176759,-0.079071,-0.578964,0.855438,-1.040637,0.288261,0.02444,91.54039,62.711746,-131.398438,,,
729705409.133045,-35.88804,5.504471,77.176759,-0.079071,-0.578964,0.855438,-1.040637,0.288261,0.02444,91.54039,62.711746,-131.398438,,,
729705409.136356,-36.167797,5.629362,77.22611,-0.081604,-0.590515,0.865372,-0.952158,0.361487,0.052809,91.54039,62.711746,-131.398438,,,
729705409.139676,-36.435015,5.76452,77.280905,-0.081604,-0.590515,0.865372,-0.952158,0.361487,0.052809,91.54039,62.711746,-131.398438,,,
729705409.14296,-36.435015,5.76452,77.280905,-0.081604,-0.590515,0.865372,-0.952158,0.361487,0.052809,91.54039,62.711746,-131.398438,,,
729705409.146384,-36.691219,5.906672,77.340676,-0.084045,-0.6026,0.843628,-0.879386,0.380817,0.084882,91.54039,62.711746,-131.398438,,,
729705409.149673,-36.937199,6.052835,77.405562,-0.084045,-0.6026,0.843628,-0.879386,0.380817,0.084882,91.54039,62.711746,-131.398438,,,
729705409.153012,-36.937199,6.052835,77.405562,-0.084045,-0.6026,0.843628,-0.879386,0.380817,0.084882,91.54039,62.711746,-131.398438,,,
729705409.156348,-37.173888,6.20087,77.476165,-0.090546,-0.6203,0.82222,-0.821221,0.358663,0.118355,91.54039,62.711746,-131.398438,,,
729705409.159714,-37.40205,6.346307,77.552575,-0.090546,-0.6203,0.82222,-0.821221,0.358663,0.118355,92.4328,63.893463,-129.57547,,,
729705409.163026,-37.40205,6.346307,77.552575,-0.090546,-0.6203,0.82222,-0.821221,0.358663,0.118355,92.4328,63.893463,-129.57547,,,
729705409.16638,-37.623093,6.486442,77.636055,-0.107391,-0.640121,0.802383,-0.781748,0.290501,0.156464,92.4328,63.893463,-129.57547,,,
729705409.169685,-37.841131,6.622441,77.727115,-0.107391,-0.640121,0.802383,-0.781748,0.290501,0.156464,92.4328,63.893463,-129.57547,,,
729705409.173114,-37.841131,6.622441,77.727115,-0.107391,-0.640121,0.802383,-0.781748,0.290501,0.156464,92.4328,63.893463,-129.57547,,,
729705409.176413,-38.058948,6.756305,77.825194,-0.121887,-0.646805,0.791611,-0.787312,0.245478,0.189004,92.4328,63.893463,-129.57547,,,
729705409.179677,-38.278233,6.88883,77.929268,-0.121887,-0.646805,0.791611,-0.787312,0.245478,0.189004,92.4328,63.893463,-129.57547,,,
729705409.183033,-38.278233,6.88883,77.929268,-0.121887,-0.646805,0.791611,-0.787312,0.245478,0.189004,92.4328,63.893463,-129.57547,,,
729705409.186437,-38.50166,7.019773,78.038815,-0.122421,-0.644272,0.788391,-0.822342,0.205797,0.207682,92.4328,63.893463,-129.57547,,,
729705409.18973,-38.730487,7.148032,78.153519,-0.122421,-0.644272,0.788391,-0.822342,0.205797,0.207682,92.4328,63.893463,-129.57547,,,
729705409.193137,-38.730487,7.148032,78.153519,-0.122421,-0.644272,0.788391,-0.822342,0.205797,0.207682,92.4328,63.893463,-129.57547,,,
729705409.196417,-38.966198,7.272815,78.271787,-0.119019,-0.645203,0.761993,-0.877435,0.169531,0.21549,92.4328,63.893463,-129.57547,,,
729705409.200051,-39.20994,7.396965,78.392603,-0.119019,-0.645203,0.761993,-0.877435,0.169531,0.21549,92.769073,64.90477,-127.80452,,,
729705409.203017,-39.20994,7.396965,78.392603,-0.119019,-0.645203,0.761993,-0.877435,0.169531,0.21549,92.769073,64.90477,-127.80452,,,
729705409.206357,-39.462173,7.523634,78.516119,-0.112061,-0.645477,0.761765,-0.939102,0.174113,0.212645,92.769073,64.90477,-127.80452,,,
729705409.209761,-39.724727,7.653297,78.641155,-0.112061,-0.645477,0.761765,-0.939102,0.174113,0.212645,92.769073,64.90477,-127.80452,,,
729705409.213034,-39.724727,7.653297,78.641155,-0.112061,-0.645477,0.761765,-0.939102,0.174113,0.212645,92.769073,64.90477,-127.80452,,,
729705409.216348,-39.998044,7.786612,78.766572,-0.103104,-0.649582,0.752563,-1.012402,0.197458,0.194844,92.769073,64.90477,-127.80452,,,
729705409.219686,-40.280294,7.924435,78.891217,-0.103104,-0.649582,0.752563,-1.012402,0.197458,0.194844,92.769073,64.90477,-127.80452,,,
729705409.223008,-40.280294,7.924435,78.891217,-0.103104,-0.649582,0.752563,-1.012402,0.197458,0.194844,92.769073,64.90477,-127.80452,,,
729705409.226406,-40.570347,8.067805,79.013744,-0.08992,-0.651611,0.749146,-1.066983,0.241799,0.165978,92.769073,64.90477,-127.80452,,,
729705409.229702,-40.867734,8.215153,79.131852,-0.08992,-0.651611,0.749146,-1.066983,0.241799,0.165978,92.769073,64.90477,-127.80452,,,
729705409.23306,-40.867734,8.215153,79.131852,-0.08992,-0.651611,0.749146,-1.066983,0.241799,0.165978,92.769073,64.90477,-127.80452,,,
729705409.236377,-41.168669,8.365595,79.24433,-0.07811,-0.662094,0.741837,-1.074771,0.290135,0.123859,92.769073,64.90477,-127.80452,,,
729705409.239675,-41.467141,8.520979,79.350228,-0.07811,-0.662094,0.741837,-1.074771,0.290135,0.123859,92.769073,64.90477,-127.80452,,,
729705409.243068,-41.467141,8.520979,79.350228,-0.07811,-0.662094,0.741837,-1.074771,0.290135,0.123859,93.338486,65.880753,-125.788742,,,
729705409.246384,-41.758254,8.681887,79.448604,-0.081375,-0.683258,0.768417,-1.016009,0.359295,0.085158,93.338486,65.880753,-125.788742,,,
729705409.24968,-42.04075,8.845518,79.538827,-0.081375,-0.683258,0.768417,-1.016009,0.359295,0.085158,93.338486,65.880753,-125.788742,,,
729705409.253027,-42.04075,8.845518,79.538827,-0.081375,-0.683258,0.768417,-1.016009,0.359295,0.085158,93.338486,65.880753,-125.788742,,,
729705409.25635,-42.31519,9.008926,79.620653,-0.090546,-0.680862,0.780762,-0.950544,0.389159,0.044403,93.338486,65.880753,-125.788742,,,
729705409.25973,-42.580003,9.170024,79.695071,-0.090546,-0.680862,0.780762,-0.950544,0.389159,0.044403,93.338486,65.880753,-125.788742,,,
729705409.263026,-42.580003,9.170024,79.695071,-0.090546,-0.680862,0.780762,-0.950544,0.389159,0.044403,93.338486,65.880753,-125.788742,,,
729705409.266371,-42.835055,9.326776,79.763732,-0.105606,-0.675522,0.76561,-0.87933,0.380569,0.021533,93.338486,65.880753,-125.788742,,,
729705409.269714,-43.082255,9.477367,79.828735,-0.105606,-0.675522,0.76561,-0.87933,0.380569,0.021533,93.338486,65.880753,-125.788742,,,
729705409.273107,-43.082255,9.477367,79.828735,-0.105606,-0.675522,0.76561,-0.87933,0.380569,0.021533,93.338486,65.880753,-125.788742,,,
729705409.276406,-43.324047,9.620562,79.892984,-0.12352,-0.682373,0.746994,-0.847338,0.324126,0.022441,93.338486,65.880753,-125.788742,,,
729705409.279677,-43.563052,9.75523,79.959002,-0.12352,-0.682373,0.746994,-0.847338,0.324126,0.022441,93.338486,65.880753,-125.788742,,,
729705409.283023,-43.563052,9.75523,79.959002,-0.12352,-0.682373,0.746994,-0.847338,0.324126,0.022441,93.740677,66.909164,-124.264404,,,
729705409.286404,-43.801155,9.879821,80.028247,-0.129272,-0.695816,0.714172,-0.848834,0.235146,0.03532,93.740677,66.909164,-124.264404,,,
729705409.289678,-44.040175,9.994263,80.102734,-0.129272,-0.695816,0.714172,-0.848834,0.235146,0.03532,93.740677,66.909164,-124.264404,,,
729705409.293071,-44.040175,9.994263,80.102734,-0.129272,-0.695816,0.714172,-0.848834,0.235146,0.03532,93.740677,66.909164,-124.264404,,,
729705409.296365,-44.281828,10.102202,80.18521,-0.134918,-0.713318,0.687378,-0.877441,0.155709,0.066778,93.740677,66.909164,-124.264404,,,
729705409.299674,-44.527559,10.209376,80.277144,-0.134918,-0.713318,0.687378,-0.877441,0.155709,0.066778,93.740677,66.909164,-124.264404,,,
729705409.303025,-44.527559,10.209376,80.277144,-0.134918,-0.713318,0.687378,-0.877441,0.155709,0.066778,93.740677,66.909164,-124.264404,,,
729705409.306338,-44.779299,10.320583,80.378733,-0.141037,-0.722504,0.685989,-0.929247,0.141489,0.105595,93.740677,66.909164,-124.264404,,,
729705409.309729,-45.038699,10.439469,80.490722,-0.141037,-0.722504,0.685989,-0.929247,0.141489,0.105595,93.740677,66.909164,-124.264404,,,
729705409.313004,-45.038699,10.439469,80.490722,-0.141037,-0.722504,0.685989,-0.929247,0.141489,0.105595,93.740677,66.909164,-124.264404,,,
729705409.316184,-45.307462,10.570836,80.61436,-0.134552,-0.720734,0.684738,-1.006729,0.173699,0.139868,93.740677,66.909164,-124.264404,,,
729705409.319697,-45.587241,10.718185,80.749324,-0.134552,-0.720734,0.684738,-1.006729,0.173699,0.139868,93.740677,66.909164,-124.264404,,,
729705409.323094,-45.587241,10.718185,80.749324,-0.134552,-0.720734,0.684738,-1.006729,0.173699,0.139868,94.558563,67.648972,-122.144318,,,
729705409.326424,-45.877714,10.885038,80.895017,-0.127792,-0.718658,0.673538,-1.089823,0.259892,0.16684,94.558563,67.648972,-122.144318,,,
729705409.329717,-46.178005,11.073388,81.050626,-0.127792,-0.718658,0.673538,-1.089823,0.259892,0.16684,94.558563,67.648972,-122.144318,,,
729705409.333017,-46.178005,11.073388,81.050626,-0.127792,-0.718658,0.673538,-1.089823,0.259892,0.16684,94.558563,67.648972,-122.144318,,,
729705409.33638,-46.489073,11.283938,81.216214,-0.116699,-0.718597,0.669388,-1.171147,0.356743,0.186415,94.558563,67.648972,-122.144318,,,
729705409.339686,-46.81094,11.516095,81.391703,-0.116699,-0.718597,0.669388,-1.171147,0.356743,0.186415,94.558563,67.648972,-122.144318,,,
729705409.343084,-46.81094,11.516095,81.391703,-0.116699,-0.718597,0.669388,-1.171147,0.356743,0.186415,94.558563,67.648972,-122.144318,,,
729705409.34635,-47.142735,11.769728,81.576609,-0.112778,-0.722748,0.652222,-1.247169,0.452838,0.201058,94.558563,67.648972,-122.144318,,,
729705409.349677,-47.483681,12.043071,81.769631,-0.112778,-0.722748,0.652222,-1.247169,0.452838,0.201058,94.558563,67.648972,-122.144318,,,
729705409.35313,-47.483681,12.043071,81.769631,-0.112778,-0.722748,0.652222,-1.247169,0.452838,0.201058,94.558563,67.648972,-122.144318,,,
729705409.356357,-47.832977,12.33245,81.969909,-0.116592,-0.726334,0.640091,-1.310973,0.516015,0.202171,94.558563,67.648972,-122.144318,,,
729705409.359736,-48.191073,12.634963,82.177261,-0.116592,-0.726334,0.640091,-1.310973,0.516015,0.202171,94.558563,67.648972,-122.144318,,,
729705409.363057,-48.191073,12.634963,82.177261,-0.116592,-0.726334,0.640091,-1.310973,0.516015,0.202171,95.156143,68.870544,-119.340775,,,
729705409.36637,-48.557916,12.94713,82.391268,-0.120117,-0.723282,0.621353,-1.382812,0.536687,0.193952,95.156143,68.870544,-119.340775,,,
729705409.369701,-48.934544,13.265122,82.610883,-0.120117,-0.723282,0.621353,-1.382812,0.536687,0.193952,95.156143,68.870544,-119.340775,,,
729705409.373098,-48.934544,13.265122,82.610883,-0.120117,-0.723282,0.621353,-1.382812,0.536687,0.193952,95.156143,68.870544,-119.340775,,,
729705409.376393,-49.322765,13.585595,82.834854,-0.129379,-0.723816,0.594193,-1.464296,0.520446,0.172986,95.156143,68.870544,-119.340775,,,
729705409.379678,-49.722227,13.906605,83.063259,-0.129379,-0.723816,0.594193,-1.464296,0.520446,0.172986,95.156143,68.870544,-119.340775,,,
729705409.383028,-49.722227,13.906605,83.063259,-0.129379,-0.723816,0.594193,-1.464296,0.520446,0.172986,95.156143,68.870544,-119.340775,,,
729705409.38643,-50.131943,14.228072,83.296907,-0.136642,-0.733215,0.571838,-1.537618,0.489221,0.154083,95.156143,68.870544,-119.340775,,,
729705409.389676,-50.55033,14.549723,83.536044,-0.136642,-0.733215,0.571838,-1.537618,0.489221,0.154083,95.156143,68.870544,-119.340775,,,
729705409.393076,-50.55033,14.549723,83.536044,-0.136642,-0.733215,0.571838,-1.537618,0.489221,0.154083,95.156143,68.870544,-119.340775,,,
729705409.396366,-50.975396,14.871634,83.781575,-0.150925,-0.74823,0.563248,-1.58181,0.44382,0.143894,95.156143,68.870544,-119.340775,,,
729705409.399748,-51.404415,15.191967,84.032499,-0.150925,-0.74823,0.563248,-1.58181,0.44382,0.143894,95.156143,68.870544,-119.340775,,,
729705409.40305,-51.404415,15.191967,84.032499,-0.150925,-0.74823,0.563248,-1.58181,0.44382,0.143894,95.156143,68.870544,-119.340775,,,
729705409.406351,-51.833985,15.510042,84.288837,-0.164444,-0.765686,0.562378,-1.589731,0.389432,0.13655,95.92778,70.016769,-115.985046,,,
729705409.409722,-52.26209,15.826054,84.552008,-0.164444,-0.765686,0.562378,-1.589731,0.389432,0.13655,95.92778,70.016769,-115.985046,,,
729705409.413003,-52.26209,15.826054,84.552008,-0.164444,-0.765686,0.562378,-1.589731,0.389432,0.13655,95.92778,70.016769,-115.985046,,,
729705409.416346,-52.688853,16.139877,84.822662,-0.179428,-0.781555,0.561035,-1.588207,0.325041,0.144628,95.92778,70.016769,-115.985046,,,
729705409.419677,-53.115334,16.45277,85.102719,-0.179428,-0.781555,0.561035,-1.588207,0.325041,0.144628,95.92778,70.016769,-115.985046,,,
729705409.423071,-53.115334,16.45277,85.102719,-0.179428,-0.781555,0.561035,-1.588207,0.325041,0.144628,95.92778,70.016769,-115.985046,,,
729705409.426406,-53.540075,16.764602,85.394573,-0.200867,-0.799103,0.550018,-1.587732,0.238122,0.171016,95.92778,70.016769,-115.985046,,,
729705409.429688,-53.960612,17.073674,85.699729,-0.200867,-0.799103,0.550018,-1.587732,0.238122,0.171016,95.92778,70.016769,-115.985046,,,
729705409.433006,-53.960612,17.073674,85.699729,-0.200867,-0.799103,0.550018,-1.587732,0.238122,0.171016,95.92778,70.016769,-115.985046,,,
729705409.436366,-54.375614,17.378607,86.018812,-0.213882,-0.814529,0.5271,-1.560656,0.120693,0.207469,95.92778,70.016769,-115.985046,,,
729705409.439681,-54.781756,17.680285,86.351445,-0.213882,-0.814529,0.5271,-1.560656,0.120693,0.207469,95.92778,70.016769,-115.985046,,,
729705409.443015,-54.781756,17.680285,86.351445,-0.213882,-0.814529,0.5271,-1.560656,0.120693,0.207469,95.92778,70.016769,-115.985046,,,
729705409.446371,-55.174684,17.980084,86.695129,-0.227676,-0.83078,0.52417,-1.479702,0.041187,0.246594,96.565079,71.174713,-112.559875,,,
729705409.449676,-55.552032,18.278601,87.046375,-0.227676,-0.83078,0.52417,-1.479702,0.041187,0.246594,96.565079,71.174713,-112.559875,,,
729705409.453039,-55.552032,18.278601,87.046375,-0.227676,-0.83078,0.52417,-1.479702,0.041187,0.246594,96.565079,71.174713,-112.559875,,,
729705409.456356,-55.912544,18.574504,87.398928,-0.226074,-0.834778,0.564194,-1.36288,0.014204,0.256842,96.565079,71.174713,-112.559875,,,
729705409.459673,-56.255777,18.863874,87.744133,-0.226074,-0.834778,0.564194,-1.36288,0.014204,0.256842,96.565079,71.174713,-112.559875,,,
729705409.46311,-56.255777,18.863874,87.744133,-0.226074,-0.834778,0.564194,-1.36288,0.014204,0.256842,96.565079,71.174713,-112.559875,,,
729705409.466361,-56.582798,19.144365,88.076895,-0.202393,-0.82225,0.582886,-1.240278,0.021134,0.2129,96.565079,71.174713,-112.559875,,,
729705409.469685,-56.895517,19.414742,88.393395,-0.202393,-0.82225,0.582886,-1.240278,0.021134,0.2129,96.565079,71.174713,-112.559875,,,
729705409.473032,-56.895517,19.414742,88.393395,-0.202393,-0.82225,0.582886,-1.240278,0.021134,0.2129,96.565079,71.174713,-112.559875,,,
729705409.476444,-57.193548,19.677184,88.691257,-0.183609,-0.815842,0.584045,-1.118382,0.068311,0.165497,96.565079,71.174713,-112.559875,,,
729705409.479662,-57.476478,19.932535,88.969594,-0.183609,-0.815842,0.584045,-1.118382,0.068311,0.165497,96.565079,71.174713,-112.559875,,,
729705409.483006,-57.476478,19.932535,88.969594,-0.183609,-0.815842,0.584045,-1.118382,0.068311,0.165497,96.565079,71.174713,-112.559875,,,
729705409.486354,-57.745413,20.179945,89.229292,-0.183228,-0.827118,0.591309,-1.00441,0.12011,0.116174,96.935669,71.573822,-110.429703,,,
729705409.489664,-58.002725,20.419882,89.471962,-0.183228,-0.827118,0.591309,-1.00441,0.12011,0.116174,96.935669,71.573822,-110.429703,,,
