Time (sec),Pitch (deg),Roll (deg),Yaw(deg),X-Acceleration (g),Y-Acceleration (g),Z-Acceleration (g),Pitch Rate (deg/sec),Roll Rate (deg/sec),Yaw Rate (deg/sec),Magnetic Field in X direction (uT),Magnetic Field in Y direction (uT),Magnetic Field in Z Direction (uT),Latitude (deg),Longitude (deg),Altitude (m)
729706943.616568,0.565657,1.888973,121.435052,-0.038635,-0.005569,1.010773,0.072016,-0.020551,-0.012748,61.067673,30.046982,-146.533936,,,
729706943.618245,0.595102,1.881581,-22.478611,-0.038635,-0.005569,1.010773,0.110596,-0.019019,-0.010027,61.067673,30.046982,-146.533936,,,
729706943.619929,0.595112,1.881614,121.431567,-0.038635,-0.005569,1.010773,0.110596,-0.019019,-0.010027,61.067673,30.046982,-146.533936,,,
729706943.620713,0.595102,1.881581,-22.478611,-0.038635,-0.005569,1.010773,0.110596,-0.019019,-0.010027,61.067673,30.046982,-146.533936,,,
729706943.623319,0.627528,1.876037,121.42709,-0.036453,0.003906,1.013596,0.110596,-0.019019,-0.010027,61.067673,30.046982,-146.533936,,,
729706943.625593,0.627518,1.876004,-22.483084,-0.036453,0.003906,1.013596,0.110596,-0.019019,-0.010027,61.067673,30.046982,-146.533936,,,
729706943.626685,0.627528,1.876037,121.42709,-0.036453,0.003906,1.013596,0.110596,-0.019019,-0.010027,61.067673,30.046982,-146.533936,,,
729706943.628921,0.66337,1.872033,-22.489868,-0.036453,0.003906,1.013596,0.121043,-0.011263,-0.025811,61.067673,30.046982,-146.533936,,,
729706943.629994,0.66338,1.872066,121.420302,-0.036453,0.003906,1.013596,0.121043,-0.011263,-0.025811,61.067673,30.046982,-146.533936,,,
729706943.630711,0.66337,1.872033,-22.489868,-0.036453,0.003906,1.013596,0.121043,-0.011263,-0.025811,61.067673,30.046982,-146.533936,,,
729706943.633238,0.69778,1.868413,121.411556,-0.023361,0.0177,1.010696,0.121043,-0.011263,-0.025811,61.067673,30.046982,-146.533936,,,
729706943.635036,0.69777,1.86838,-22.498616,-0.023361,0.0177,1.010696,0.121043,-0.011263,-0.025811,61.067673,30.046982,-146.533936,,,
729706943.636604,0.69778,1.868413,121.411556,-0.023361,0.0177,1.010696,0.121043,-0.011263,-0.025811,61.067673,30.046982,-146.533936,,,
729706943.638236,0.734532,1.86695,-22.508337,-0.023361,0.0177,1.010696,0.116482,-0.004872,-0.032645,61.067673,30.046982,-146.533936,,,
729706943.639915,0.734542,1.866984,121.401846,-0.023361,0.0177,1.010696,0.116482,-0.004872,-0.032645,61.067673,30.046982,-146.533936,,,
729706943.640716,0.734532,1.86695,-22.508337,-0.023361,0.0177,1.010696,0.116482,-0.004872,-0.032645,61.067673,30.046982,-146.533936,,,
729706943.643231,0.766366,1.864804,121.392254,-0.027374,0.020416,1.005936,0.116482,-0.004872,-0.032645,61.067673,30.046982,-146.533936,,,
729706943.645109,0.766356,1.86477,-22.51793,-0.027374,0.020416,1.005936,0.116482,-0.004872,-0.032645,61.067673,30.046982,-146.533936,,,
729706943.646639,0.766366,1.864804,121.392254,-0.027374,0.020416,1.005936,0.116482,-0.004872,-0.032645,61.067673,30.046982,-146.533936,,,
729706943.649118,0.797036,1.86449,-22.526334,-0.027374,0.020416,1.005936,0.091715,-0.013249,-0.024885,60.819946,29.945633,-146.685379,,,
729706943.649908,0.797046,1.864523,121.38384,-0.027374,0.020416,1.005936,0.091715,-0.013249,-0.024885,60.819946,29.945633,-146.685379,,,
729706943.650714,0.797036,1.86449,-22.526334,-0.027374,0.020416,1.005936,0.091715,-0.013249,-0.024885,60.819946,29.945633,-146.685379,,,
729706943.653235,0.82111,1.858508,121.377181,-0.034576,0.018677,0.992798,0.091715,-0.013249,-0.024885,60.819946,29.945633,-146.685379,,,
729706943.654649,0.821101,1.858475,-22.532998,-0.034576,0.018677,0.992798,0.091715,-0.013249,-0.024885,60.819946,29.945633,-146.685379,,,
729706943.656666,0.82111,1.858508,121.377181,-0.034576,0.018677,0.992798,0.091715,-0.013249,-0.024885,60.819946,29.945633,-146.685379,,,
729706943.658836,0.841649,1.854247,-22.537833,-0.034576,0.018677,0.992798,0.064368,-0.032464,-0.012549,60.819946,29.945633,-146.685379,,,
729706943.659933,0.841659,1.854281,121.372355,-0.034576,0.018677,0.992798,0.064368,-0.032464,-0.012549,60.819946,29.945633,-146.685379,,,
729706943.660714,0.841649,1.854247,-22.537833,-0.034576,0.018677,0.992798,0.064368,-0.032464,-0.012549,60.819946,29.945633,-146.685379,,,
729706943.663228,0.857322,1.844652,121.368855,-0.033081,0.019363,0.983139,0.064368,-0.032464,-0.012549,60.819946,29.945633,-146.685379,,,
729706943.664907,0.857312,1.844619,-22.541317,-0.033081,0.019363,0.983139,0.064368,-0.032464,-0.012549,60.819946,29.945633,-146.685379,,,
729706943.666574,0.857322,1.844652,121.368855,-0.033081,0.019363,0.983139,0.064368,-0.032464,-0.012549,60.819946,29.945633,-146.685379,,,
729706943.667939,0.867493,1.840315,-22.544879,-0.033081,0.019363,0.983139,0.039409,-0.026126,-0.013369,60.819946,29.945633,-146.685379,,,
729706943.669916,0.867503,1.840349,121.365296,-0.033081,0.019363,0.983139,0.039409,-0.026126,-0.013369,60.819946,29.945633,-146.685379,,,
729706943.670712,0.867493,1.840315,-22.544879,-0.033081,0.019363,0.983139,0.039409,-0.026126,-0.013369,60.819946,29.945633,-146.685379,,,
729706943.673236,0.877177,1.832883,121.360259,-0.026337,0.02565,0.993118,0.039409,-0.026126,-0.013369,60.819946,29.945633,-146.685379,,,
729706943.675468,0.877167,1.83285,-22.549919,-0.026337,0.02565,0.993118,0.039409,-0.026126,-0.013369,60.819946,29.945633,-146.685379,,,
729706943.676633,0.877177,1.832883,121.360259,-0.026337,0.02565,0.993118,0.039409,-0.026126,-0.013369,60.819946,29.945633,-146.685379,,,
729706943.678348,0.87999,1.828177,-22.55759,-0.026337,0.02565,0.993118,0.017215,-0.020722,-0.032231,60.819946,29.945633,-146.685379,,,
729706943.67991,0.88,1.828211,121.352583,-0.026337,0.02565,0.993118,0.017215,-0.020722,-0.032231,60.819946,29.945633,-146.685379,,,
729706943.68072,0.87999,1.828177,-22.55759,-0.026337,0.02565,0.993118,0.017215,-0.020722,-0.032231,60.819946,29.945633,-146.685379,,,
729706943.683058,0.882796,1.821151,121.342923,-0.022614,0.030762,0.993103,0.017215,-0.020722,-0.032231,60.819946,29.945633,-146.685379,,,
729706943.684877,0.882786,1.821118,-22.567253,-0.022614,0.030762,0.993103,0.017215,-0.020722,-0.032231,60.819946,29.945633,-146.685379,,,
729706943.686602,0.882796,1.821151,121.342923,-0.022614,0.030762,0.993103,0.017215,-0.020722,-0.032231,60.819946,29.945633,-146.685379,,,
729706943.690255,0.878637,1.814456,-22.578088,-0.022614,0.030762,0.993103,-0.00266,-0.026118,-0.040902,60.974075,29.750122,-146.829041,,,
729706943.690766,0.878647,1.81449,121.33209,-0.022614,0.030762,0.993103,-0.00266,-0.026118,-0.040902,60.974075,29.750122,-146.829041,,,
729706943.691019,0.878637,1.814456,-22.578088,-0.022614,0.030762,0.993103,-0.00266,-0.026118,-0.040902,60.974075,29.750122,-146.829041,,,
729706943.693169,0.876752,1.80554,121.320424,-0.026901,0.026505,0.986649,-0.00266,-0.026118,-0.040902,60.974075,29.750122,-146.829041,,,
729706943.694567,0.876742,1.805506,-22.589754,-0.026901,0.026505,0.986649,-0.00266,-0.026118,-0.040902,60.974075,29.750122,-146.829041,,,
729706943.696606,0.876752,1.80554,121.320424,-0.026901,0.026505,0.986649,-0.00266,-0.026118,-0.040902,60.974075,29.750122,-146.829041,,,
729706943.698447,0.87182,1.797047,-22.601702,-0.026901,0.026505,0.986649,-0.000105,-0.035915,-0.04255,60.974075,29.750122,-146.829041,,,
729706943.699907,0.871829,1.79708,121.308471,-0.026901,0.026505,0.986649,-0.000105,-0.035915,-0.04255,60.974075,29.750122,-146.829041,,,
729706943.700719,0.87182,1.797047,-22.601702,-0.026901,0.026505,0.986649,-0.000105,-0.035915,-0.04255,60.974075,29.750122,-146.829041,,,
729706943.70323,0.873567,1.785305,121.297128,-0.029739,0.014481,0.997696,-0.000105,-0.035915,-0.04255,60.974075,29.750122,-146.829041,,,
729706943.70505,0.873557,1.785272,-22.613042,-0.029739,0.014481,0.997696,-0.000105,-0.035915,-0.04255,60.974075,29.750122,-146.829041,,,
729706943.706682,0.873567,1.785305,121.297128,-0.029739,0.014481,0.997696,-0.000105,-0.035915,-0.04255,60.974075,29.750122,-146.829041,,,
729706943.709811,0.879655,1.770559,-22.623382,-0.029739,0.014481,0.997696,0.036359,-0.0523,-0.034489,60.974075,29.750122,-146.829041,,,
729706943.710081,0.879665,1.770592,121.28679,-0.029739,0.014481,0.997696,0.036359,-0.0523,-0.034489,60.974075,29.750122,-146.829041,,,
729706943.710709,0.879655,1.770559,-22.623382,-0.029739,0.014481,0.997696,0.036359,-0.0523,-0.034489,60.974075,29.750122,-146.829041,,,
729706943.713241,0.893835,1.753299,121.277274,-0.03064,0.000565,1.017319,0.036359,-0.0523,-0.034489,60.974075,29.750122,-146.829041,,,
729706943.715383,0.893825,1.753266,-22.632898,-0.03064,0.000565,1.017319,0.036359,-0.0523,-0.034489,60.974075,29.750122,-146.829041,,,
729706943.716626,0.893835,1.753299,121.277274,-0.03064,0.000565,1.017319,0.036359,-0.0523,-0.034489,60.974075,29.750122,-146.829041,,,
729706943.718815,0.918044,1.73129,-22.642042,-0.03064,0.000565,1.017319,0.099433,-0.072565,-0.030232,60.974075,29.750122,-146.829041,,,
729706943.719953,0.918053,1.731323,121.268131,-0.03064,0.000565,1.017319,0.099433,-0.072565,-0.030232,60.974075,29.750122,-146.829041,,,
729706943.72076,0.918044,1.73129,-22.642042,-0.03064,0.000565,1.017319,0.099433,-0.072565,-0.030232,60.974075,29.750122,-146.829041,,,
729706943.723243,0.950813,1.707867,121.259912,-0.032928,-0.00412,1.027084,0.099433,-0.072565,-0.030232,60.974075,29.750122,-146.829041,,,
729706943.726338,0.950803,1.707834,-22.650265,-0.032928,-0.00412,1.027084,0.099433,-0.072565,-0.030232,60.974075,29.750122,-146.829041,,,
729706943.726708,0.950813,1.707867,121.259912,-0.032928,-0.00412,1.027084,0.099433,-0.072565,-0.030232,60.974075,29.750122,-146.829041,,,
729706943.729544,0.992726,1.679883,-22.657399,-0.032928,-0.00412,1.027084,0.158845,-0.10608,-0.020999,60.660782,29.741135,-146.417389,,,
729706943.729975,0.992735,1.679917,121.252773,-0.032928,-0.00412,1.027084,0.158845,-0.10608,-0.020999,60.660782,29.741135,-146.417389,,,
729706943.73071,0.992726,1.679883,-22.657399,-0.032928,-0.00412,1.027084,0.158845,-0.10608,-0.020999,60.660782,29.741135,-146.417389,,,
729706943.733139,1.040656,1.645178,121.246371,-0.036057,0.000931,1.026794,0.158845,-0.10608,-0.020999,60.660782,29.741135,-146.417389,,,
729706943.736097,1.040646,1.645144,-22.663805,-0.036057,0.000931,1.026794,0.158845,-0.10608,-0.020999,60.660782,29.741135,-146.417389,,,
729706943.736582,1.040656,1.645178,121.246371,-0.036057,0.000931,1.026794,0.158845,-0.10608,-0.020999,60.660782,29.741135,-146.417389,,,
729706943.738663,1.093262,1.606438,-22.669714,-0.036057,0.000931,1.026794,0.189854,-0.144262,-0.016626,60.660782,29.741135,-146.417389,,,
729706943.739985,1.093272,1.606472,121.240464,-0.036057,0.000931,1.026794,0.189854,-0.144262,-0.016626,60.660782,29.741135,-146.417389,,,
729706943.74071,1.093262,1.606438,-22.669714,-0.036057,0.000931,1.026794,0.189854,-0.144262,-0.016626,60.660782,29.741135,-146.417389,,,
729706943.74323,1.147932,1.564833,121.234128,-0.032181,0.01799,1.017014,0.189854,-0.144262,-0.016626,60.660782,29.741135,-146.417389,,,
729706943.745543,1.147923,1.5648,-22.676049,-0.032181,0.01799,1.017014,0.189854,-0.144262,-0.016626,60.660782,29.741135,-146.417389,,,
729706943.746564,1.147932,1.564833,121.234128,-0.032181,0.01799,1.017014,0.189854,-0.144262,-0.016626,60.660782,29.741135,-146.417389,,,
729706943.748509,1.202761,1.526034,-22.683644,-0.032181,0.01799,1.017014,0.18904,-0.130547,-0.025575,60.660782,29.741135,-146.417389,,,
729706943.749934,1.202771,1.526067,121.226533,-0.032181,0.01799,1.017014,0.18904,-0.130547,-0.025575,60.660782,29.741135,-146.417389,,,
729706943.750724,1.202761,1.526034,-22.683644,-0.032181,0.01799,1.017014,0.18904,-0.130547,-0.025575,60.660782,29.741135,-146.417389,,,
729706943.753241,1.254526,1.490104,121.217531,-0.018585,0.033463,1.015793,0.18904,-0.130547,-0.025575,60.660782,29.741135,-146.417389,,,
729706943.755401,1.254516,1.490071,-22.692643,-0.018585,0.033463,1.015793,0.18904,-0.130547,-0.025575,60.660782,29.741135,-146.417389,,,
729706943.756647,1.254526,1.490104,121.217531,-0.018585,0.033463,1.015793,0.18904,-0.130547,-0.025575,60.660782,29.741135,-146.417389,,,
729706943.758819,1.302375,1.458068,-22.702436,-0.018585,0.033463,1.015793,0.152943,-0.098634,-0.032296,60.660782,29.741135,-146.417389,,,
729706943.759973,1.302385,1.458102,121.207742,-0.018585,0.033463,1.015793,0.152943,-0.098634,-0.032296,60.660782,29.741135,-146.417389,,,
729706943.760719,1.302375,1.458068,-22.702436,-0.018585,0.033463,1.015793,0.152943,-0.098634,-0.032296,60.660782,29.741135,-146.417389,,,
729706943.763242,1.342525,1.431183,121.197783,-0.012817,0.040985,1.001984,0.152943,-0.098634,-0.032296,60.660782,29.741135,-146.417389,,,
729706943.765508,1.342515,1.431149,-22.71239,-0.012817,0.040985,1.001984,0.152943,-0.098634,-0.032296,60.660782,29.741135,-146.417389,,,
729706943.766574,1.342525,1.431183,121.197783,-0.012817,0.040985,1.001984,0.152943,-0.098634,-0.032296,60.660782,29.741135,-146.417389,,,
729706943.768879,1.376792,1.408374,-22.721092,-0.012817,0.040985,1.001984,0.103922,-0.06884,-0.024901,60.660782,29.741135,-146.417389,,,
729706943.769901,1.376801,1.408408,121.18908,-0.012817,0.040985,1.001984,0.103922,-0.06884,-0.024901,60.406998,29.375671,-146.455719,,,
729706943.771356,1.376792,1.408374,-22.721092,-0.012817,0.040985,1.001984,0.103922,-0.06884,-0.024901,60.406998,29.375671,-146.455719,,,
729706943.773242,1.402028,1.391105,121.182177,-0.020187,0.041061,0.992218,0.103922,-0.06884,-0.024901,60.406998,29.375671,-146.455719,,,
729706943.775272,1.402018,1.391072,-22.727994,-0.020187,0.041061,0.992218,0.103922,-0.06884,-0.024901,60.406998,29.375671,-146.455719,,,
729706943.77657,1.402028,1.391105,121.182177,-0.020187,0.041061,0.992218,0.103922,-0.06884,-0.024901,60.406998,29.375671,-146.455719,,,
729706943.778511,1.417946,1.381069,-22.733478,-0.020187,0.041061,0.992218,0.042738,-0.026367,-0.016362,60.406998,29.375671,-146.455719,,,
729706943.779971,1.417955,1.381102,121.17669,-0.020187,0.041061,0.992218,0.042738,-0.026367,-0.016362,60.406998,29.375671,-146.455719,,,
729706943.780708,1.417946,1.381069,-22.733478,-0.020187,0.041061,0.992218,0.042738,-0.026367,-0.016362,60.406998,29.375671,-146.455719,,,
729706943.783235,1.426449,1.376218,121.173338,-0.021317,0.040024,0.987274,0.042738,-0.026367,-0.016362,60.406998,29.375671,-146.455719,,,
729706943.784597,1.426439,1.376184,-22.736834,-0.021317,0.040024,0.987274,0.042738,-0.026367,-0.016362,60.406998,29.375671,-146.455719,,,
729706943.786568,1.426449,1.376218,121.173338,-0.021317,0.040024,0.987274,0.042738,-0.026367,-0.016362,60.406998,29.375671,-146.455719,,,
729706943.789026,1.425723,1.378784,-22.737995,-0.021317,0.040024,0.987274,0.002835,0.015945,-0.001819,60.406998,29.375671,-146.455719,,,
729706943.789924,1.425733,1.378818,121.172177,-0.021317,0.040024,0.987274,0.002835,0.015945,-0.001819,60.406998,29.375671,-146.455719,,,
729706943.790723,1.425723,1.378784,-22.737995,-0.021317,0.040024,0.987274,0.002835,0.015945,-0.001819,60.406998,29.375671,-146.455719,,,
729706943.793238,1.424949,1.384486,121.172741,-0.024124,0.036118,0.990417,0.002835,0.015945,-0.001819,60.406998,29.375671,-146.455719,,,
729706943.794443,1.424939,1.384453,-22.737433,-0.024124,0.036118,0.990417,0.002835,0.015945,-0.001819,60.406998,29.375671,-146.455719,,,
729706943.79659,1.424949,1.384486,121.172741,-0.024124,0.036118,0.990417,0.002835,0.015945,-0.001819,60.406998,29.375671,-146.455719,,,
729706943.800251,1.417795,1.394892,-22.734955,-0.024124,0.036118,0.990417,-0.005033,0.037952,0.011582,60.406998,29.375671,-146.455719,,,
729706943.800535,1.417804,1.394925,121.175219,-0.024124,0.036118,0.990417,-0.005033,0.037952,0.011582,60.406998,29.375671,-146.455719,,,
729706943.800817,1.417795,1.394892,-22.734955,-0.024124,0.036118,0.990417,-0.005033,0.037952,0.011582,60.406998,29.375671,-146.455719,,,
729706943.803233,1.418471,1.405762,121.180092,-0.027802,0.02359,0.997726,-0.005033,0.037952,0.011582,60.406998,29.375671,-146.455719,,,
729706943.805022,1.418461,1.405729,-22.730087,-0.027802,0.02359,0.997726,-0.005033,0.037952,0.011582,60.406998,29.375671,-146.455719,,,
729706943.806588,1.418471,1.405762,121.180092,-0.027802,0.02359,0.997726,-0.005033,0.037952,0.011582,60.406998,29.375671,-146.455719,,,
729706943.809496,1.418738,1.419021,-22.723391,-0.027802,0.02359,0.997726,0.029276,0.040388,0.025559,60.406998,29.375671,-146.455719,,,
729706943.809951,1.418748,1.419055,121.186785,-0.027802,0.02359,0.997726,0.029276,0.040388,0.025559,60.406998,29.375671,-146.455719,,,
729706943.811454,1.418738,1.419021,-22.723391,-0.027802,0.02359,0.997726,0.029276,0.040388,0.025559,60.489914,29.22084,-146.411957,,,
729706943.813047,1.430514,1.428026,121.194767,-0.033905,0.012909,1.00647,0.029276,0.040388,0.025559,60.489914,29.22084,-146.411957,,,
729706943.815164,1.430504,1.427992,-22.715412,-0.033905,0.012909,1.00647,0.029276,0.040388,0.025559,60.489914,29.22084,-146.411957,,,
729706943.816576,1.430514,1.428026,121.194767,-0.033905,0.012909,1.00647,0.029276,0.040388,0.025559,60.489914,29.22084,-146.411957,,,
729706943.81884,1.446378,1.435576,-22.707799,-0.033905,0.012909,1.00647,0.07922,0.014298,0.024674,60.489914,29.22084,-146.411957,,,
729706943.81999,1.446388,1.43561,121.202384,-0.033905,0.012909,1.00647,0.07922,0.014298,0.024674,60.489914,29.22084,-146.411957,,,
729706943.82071,1.446378,1.435576,-22.707799,-0.033905,0.012909,1.00647,0.07922,0.014298,0.024674,60.489914,29.22084,-146.411957,,,
729706943.823331,1.472942,1.437478,121.208758,-0.034393,0.012009,1.010391,0.07922,0.014298,0.024674,60.489914,29.22084,-146.411957,,,
729706943.824676,1.472932,1.437444,-22.70143,-0.034393,0.012009,1.010391,0.07922,0.014298,0.024674,60.489914,29.22084,-146.411957,,,
729706943.826612,1.472942,1.437478,121.208758,-0.034393,0.012009,1.010391,0.07922,0.014298,0.024674,60.489914,29.22084,-146.411957,,,
729706943.829127,1.505969,1.436418,-22.696052,-0.034393,0.012009,1.010391,0.12493,-0.005935,0.018877,60.489914,29.22084,-146.411957,,,
729706943.829921,1.505979,1.436452,121.214117,-0.034393,0.012009,1.010391,0.12493,-0.005935,0.018877,60.489914,29.22084,-146.411957,,,
729706943.830723,1.505969,1.436418,-22.696052,-0.034393,0.012009,1.010391,0.12493,-0.005935,0.018877,60.489914,29.22084,-146.411957,,,
729706943.833234,1.543913,1.432383,121.217914,-0.030731,0.018082,1.00972,0.12493,-0.005935,0.018877,60.489914,29.22084,-146.411957,,,
729706943.835121,1.543903,1.43235,-22.692256,-0.030731,0.018082,1.00972,0.12493,-0.005935,0.018877,60.489914,29.22084,-146.411957,,,
729706943.836592,1.543913,1.432383,121.217914,-0.030731,0.018082,1.00972,0.12493,-0.005935,0.018877,60.489914,29.22084,-146.411957,,,
729706943.838605,1.586851,1.423229,-22.690497,-0.030731,0.018082,1.00972,0.145795,-0.020715,0.004583,60.489914,29.22084,-146.411957,,,
729706943.840003,1.586861,1.423263,121.219673,-0.030731,0.018082,1.00972,0.145795,-0.020715,0.004583,60.489914,29.22084,-146.411957,,,
729706943.840717,1.586851,1.423229,-22.690497,-0.030731,0.018082,1.00972,0.145795,-0.020715,0.004583,60.489914,29.22084,-146.411957,,,
729706943.843238,1.628276,1.415123,121.220094,-0.027893,0.029282,1.003098,0.145795,-0.020715,0.004583,60.489914,29.22084,-146.411957,,,
729706943.844894,1.628266,1.41509,-22.690077,-0.027893,0.029282,1.003098,0.145795,-0.020715,0.004583,60.489914,29.22084,-146.411957,,,
729706943.846656,1.628276,1.415123,121.220094,-0.027893,0.029282,1.003098,0.145795,-0.020715,0.004583,60.489914,29.22084,-146.411957,,,
729706943.848496,1.670181,1.403128,-22.690037,-0.027893,0.029282,1.003098,0.132636,-0.035222,0.001196,60.489914,29.22084,-146.411957,,,
729706943.849909,1.670191,1.403161,121.220143,-0.027893,0.029282,1.003098,0.132636,-0.035222,0.001196,60.489914,29.22084,-146.411957,,,
729706943.850713,1.670181,1.403128,-22.690037,-0.027893,0.029282,1.003098,0.132636,-0.035222,0.001196,60.489914,29.22084,-146.411957,,,
729706943.853234,1.705677,1.391598,121.220422,-0.024078,0.035919,0.99054,0.132636,-0.035222,0.001196,60.198959,29.020966,-146.571259,,,
729706943.855874,1.705667,1.391565,-22.689762,-0.024078,0.035919,0.99054,0.132636,-0.035222,0.001196,60.198959,29.020966,-146.571259,,,
729706943.856611,1.705677,1.391598,121.220422,-0.024078,0.035919,0.99054,0.132636,-0.035222,0.001196,60.198959,29.020966,-146.571259,,,
729706943.858413,1.737323,1.37839,-22.689081,-0.024078,0.035919,0.99054,0.091608,-0.040709,0.00277,60.198959,29.020966,-146.571259,,,
729706943.859953,1.737332,1.378423,121.221094,-0.024078,0.035919,0.99054,0.091608,-0.040709,0.00277,60.198959,29.020966,-146.571259,,,
729706943.860766,1.737323,1.37839,-22.689081,-0.024078,0.035919,0.99054,0.091608,-0.040709,0.00277,60.198959,29.020966,-146.571259,,,
729706943.863259,1.759081,1.366051,121.221185,-0.01918,0.046295,0.979309,0.091608,-0.040709,0.00277,60.198959,29.020966,-146.571259,,,
729706943.865159,1.759072,1.366017,-22.688991,-0.01918,0.046295,0.979309,0.091608,-0.040709,0.00277,60.198959,29.020966,-146.571259,,,
729706943.866388,1.759081,1.366051,121.221185,-0.01918,0.046295,0.979309,0.091608,-0.040709,0.00277,60.198959,29.020966,-146.571259,,,
729706943.869611,1.773857,1.353721,-22.689372,-0.01918,0.046295,0.979309,0.03168,-0.038699,-0.002014,60.198959,29.020966,-146.571259,,,
729706943.869919,1.773866,1.353755,121.220809,-0.01918,0.046295,0.979309,0.03168,-0.038699,-0.002014,60.198959,29.020966,-146.571259,,,
729706943.870727,1.773857,1.353721,-22.689372,-0.01918,0.046295,0.979309,0.03168,-0.038699,-0.002014,60.198959,29.020966,-146.571259,,,
729706943.873244,1.778106,1.342879,121.220428,-0.01535,0.052597,0.96936,0.03168,-0.038699,-0.002014,60.198959,29.020966,-146.571259,,,
729706943.874958,1.778096,1.342846,-22.689755,-0.01535,0.052597,0.96936,0.03168,-0.038699,-0.002014,60.198959,29.020966,-146.571259,,,
729706943.876606,1.778106,1.342879,121.220428,-0.01535,0.052597,0.96936,0.03168,-0.038699,-0.002014,60.198959,29.020966,-146.571259,,,
729706943.87954,1.773062,1.334143,-22.690486,-0.01535,0.052597,0.96936,-0.032539,-0.027694,-0.005835,60.198959,29.020966,-146.571259,,,
729706943.879948,1.773072,1.334176,121.219696,-0.01535,0.052597,0.96936,-0.032539,-0.027694,-0.005835,60.198959,29.020966,-146.571259,,,
729706943.880713,1.773062,1.334143,-22.690486,-0.01535,0.052597,0.96936,-0.032539,-0.027694,-0.005835,60.198959,29.020966,-146.571259,,,
729706943.883245,1.760364,1.326754,121.218273,-0.015625,0.052505,0.965851,-0.032539,-0.027694,-0.005835,60.198959,29.020966,-146.571259,,,
729706943.884411,1.760355,1.326721,-22.691911,-0.015625,0.052505,0.965851,-0.032539,-0.027694,-0.005835,60.198959,29.020966,-146.571259,,,
729706943.886591,1.760364,1.326754,121.218273,-0.015625,0.052505,0.965851,-0.032539,-0.027694,-0.005835,60.198959,29.020966,-146.571259,,,
729706943.888176,1.760355,1.323774,-22.693682,-0.015625,0.052505,0.965851,-0.063529,-0.009391,-0.008547,60.198959,29.020966,-146.571259,,,
729706943.890007,1.740627,1.323808,121.216502,-0.015625,0.052505,0.965851,-0.063529,-0.009391,-0.008547,60.198959,29.020966,-146.571259,,,
729706943.891117,1.740617,1.323774,-22.693682,-0.015625,0.052505,0.965851,-0.063529,-0.009391,-0.008547,60.198959,29.020966,-146.571259,,,
729706943.893246,1.721929,1.320646,121.2151,-0.017944,0.040649,0.978546,-0.063529,-0.009391,-0.008547,60.444977,29.092041,-146.487244,,,
729706943.895728,1.72192,1.320613,-22.695085,-0.017944,0.040649,0.978546,-0.063529,-0.009391,-0.008547,60.444977,29.092041,-146.487244,,,
729706943.896591,1.721929,1.320646,121.2151,-0.017944,0.040649,0.978546,-0.063529,-0.009391,-0.008547,60.444977,29.092041,-146.487244,,,
729706943.897426,1.72192,1.320472,-22.696546,-0.017944,0.040649,0.978546,-0.059877,-0.007974,-0.008314,60.444977,29.092041,-146.487244,,,
729706943.899899,1.700417,1.320505,121.213638,-0.017944,0.040649,0.978546,-0.059877,-0.007974,-0.008314,60.444977,29.092041,-146.487244,,,
729706943.901054,1.700408,1.320472,-22.696546,-0.017944,0.040649,0.978546,-0.059877,-0.007974,-0.008314,60.444977,29.092041,-146.487244,,,
729706943.903236,1.685074,1.316668,121.21271,-0.022964,0.026184,0.988632,-0.059877,-0.007974,-0.008314,60.444977,29.092041,-146.487244,,,
729706943.904791,1.685064,1.316635,-22.697469,-0.022964,0.026184,0.988632,-0.059877,-0.007974,-0.008314,60.444977,29.092041,-146.487244,,,
729706943.906665,1.685074,1.316668,121.21271,-0.022964,0.026184,0.988632,-0.059877,-0.007974,-0.008314,60.444977,29.092041,-146.487244,,,
729706943.909558,1.685064,1.312978,-22.697322,-0.022964,0.026184,0.988632,-0.029983,-0.021275,0.00031,60.444977,29.092041,-146.487244,,,
729706943.909988,1.671049,1.313011,121.212863,-0.022964,0.026184,0.988632,-0.029983,-0.021275,0.00031,60.444977,29.092041,-146.487244,,,
729706943.911101,1.671039,1.312978,-22.697322,-0.022964,0.026184,0.988632,-0.029983,-0.021275,0.00031,60.444977,29.092041,-146.487244,,,
729706943.913243,1.664963,1.30586,121.214298,-0.026459,0.0168,0.994049,-0.029983,-0.021275,0.00031,60.444977,29.092041,-146.487244,,,
729706943.914842,1.664953,1.305827,-22.695872,-0.026459,0.0168,0.994049,-0.029983,-0.021275,0.00031,60.444977,29.092041,-146.487244,,,
729706943.916574,1.664963,1.30586,121.214298,-0.026459,0.0168,0.994049,-0.029983,-0.021275,0.00031,60.444977,29.092041,-146.487244,,,
729706943.919525,1.664953,1.298856,-22.693194,-0.026459,0.0168,0.994049,0.003069,-0.03036,0.009971,60.444977,29.092041,-146.487244,,,
729706943.919991,1.662763,1.298889,121.216976,-0.026459,0.0168,0.994049,0.003069,-0.03036,0.009971,60.444977,29.092041,-146.487244,,,
729706943.920716,1.662753,1.298856,-22.693194,-0.026459,0.0168,0.994049,0.003069,-0.03036,0.009971,60.444977,29.092041,-146.487244,,,
729706943.923241,1.665859,1.288655,121.22082,-0.024063,0.015472,0.998108,0.003069,-0.03036,0.009971,60.444977,29.092041,-146.487244,,,
729706943.925128,1.66585,1.288622,-22.689349,-0.024063,0.015472,0.998108,0.003069,-0.03036,0.009971,60.444977,29.092041,-146.487244,,,
729706943.9266,1.665859,1.288655,121.22082,-0.024063,0.015472,0.998108,0.003069,-0.03036,0.009971,60.444977,29.092041,-146.487244,,,
729706943.927853,1.66585,1.288622,-22.689349,-0.024063,0.015472,0.998108,0.03541,-0.035943,0.012745,60.444977,29.092041,-146.487244,,,
729706943.929919,1.674136,1.278368,121.224937,-0.024063,0.015472,0.998108,0.03541,-0.035943,0.012745,60.444977,29.092041,-146.487244,,,
729706943.931034,1.674126,1.278335,-22.685232,-0.024063,0.015472,0.998108,0.03541,-0.035943,0.012745,60.444977,29.092041,-146.487244,,,
729706943.933247,1.685254,1.267131,121.228189,-0.018082,0.019012,1.00116,0.03541,-0.035943,0.012745,60.331177,29.136856,-146.614487,,,
729706943.93546,1.685244,1.267098,-22.681982,-0.018082,0.019012,1.00116,0.03541,-0.035943,0.012745,60.331177,29.136856,-146.614487,,,
729706943.936588,1.685254,1.267131,121.228189,-0.018082,0.019012,1.00116,0.03541,-0.035943,0.012745,60.331177,29.136856,-146.614487,,,
729706943.938057,1.685244,1.267098,-22.681982,-0.018082,0.019012,1.00116,0.045028,-0.033602,0.004477,60.331177,29.136856,-146.614487,,,
729706943.939998,1.700064,1.256473,121.230219,-0.018082,0.019012,1.00116,0.045028,-0.033602,0.004477,60.331177,29.136856,-146.614487,,,
729706943.941412,1.700055,1.25644,-22.679956,-0.018082,0.019012,1.00116,0.045028,-0.033602,0.004477,60.331177,29.136856,-146.614487,,,
729706943.943245,1.71203,1.245782,121.231148,-0.010941,0.027725,1.003265,0.045028,-0.033602,0.004477,60.331177,29.136856,-146.614487,,,
729706943.945114,1.712021,1.245748,-22.679029,-0.010941,0.027725,1.003265,0.045028,-0.033602,0.004477,60.331177,29.136856,-146.614487,,,
729706943.946651,1.71203,1.245782,121.231148,-0.010941,0.027725,1.003265,0.045028,-0.033602,0.004477,60.331177,29.136856,-146.614487,,,
729706943.948836,1.712021,1.245748,-22.679029,-0.010941,0.027725,1.003265,0.033203,-0.03097,-0.005613,60.331177,29.136856,-146.614487,,,
729706943.949925,1.726328,1.234208,121.230708,-0.010941,0.027725,1.003265,0.033203,-0.03097,-0.005613,60.331177,29.136856,-146.614487,,,
729706943.951375,1.726318,1.234175,-22.679473,-0.010941,0.027725,1.003265,0.033203,-0.03097,-0.005613,60.331177,29.136856,-146.614487,,,
729706943.953235,1.733302,1.225295,121.229258,-0.013321,0.035019,0.991699,0.033203,-0.03097,-0.005613,60.331177,29.136856,-146.614487,,,
729706943.954493,1.733292,1.225262,-22.680924,-0.013321,0.035019,0.991699,0.033203,-0.03097,-0.005613,60.331177,29.136856,-146.614487,,,
729706943.956587,1.733302,1.225295,121.229258,-0.013321,0.035019,0.991699,0.033203,-0.03097,-0.005613,60.331177,29.136856,-146.614487,,,
729706943.95788,1.733292,1.225262,-22.680924,-0.013321,0.035019,0.991699,0.002009,-0.022592,-0.009463,60.331177,29.136856,-146.614487,,,
729706943.959987,1.740395,1.216472,121.227393,-0.013321,0.035019,0.991699,0.002009,-0.022592,-0.009463,60.331177,29.136856,-146.614487,,,
729706943.961337,1.740385,1.216439,-22.68279,-0.013321,0.035019,0.991699,0.002009,-0.022592,-0.009463,60.331177,29.136856,-146.614487,,,
729706943.963245,1.738571,1.209533,121.224696,-0.013718,0.037582,0.985031,0.002009,-0.022592,-0.009463,60.331177,29.136856,-146.614487,,,
729706943.964582,1.738561,1.209499,-22.685488,-0.013718,0.037582,0.985031,0.002009,-0.022592,-0.009463,60.331177,29.136856,-146.614487,,,
729706943.966587,1.738571,1.209533,121.224696,-0.013718,0.037582,0.985031,0.002009,-0.022592,-0.009463,60.331177,29.136856,-146.614487,,,
729706943.968781,1.738561,1.209499,-22.685488,-0.013718,0.037582,0.985031,-0.026831,-0.015674,-0.014016,60.331177,29.136856,-146.614487,,,
729706943.96997,1.736207,1.202519,121.22146,-0.013718,0.037582,0.985031,-0.026831,-0.015674,-0.014016,60.331177,29.136856,-146.614487,,,
729706943.971129,1.736198,1.202486,-22.688715,-0.013718,0.037582,0.985031,-0.026831,-0.015674,-0.014016,60.331177,29.136856,-146.614487,,,
729706943.973332,1.725978,1.198377,121.218023,-0.013,0.03981,0.985916,-0.026831,-0.015674,-0.014016,60.331177,29.136856,-146.614487,,,
729706943.975039,1.725968,1.198344,-22.692151,-0.013,0.03981,0.985916,-0.026831,-0.015674,-0.014016,60.478195,29.009735,-146.284698,,,
729706943.976576,1.725978,1.198377,121.218023,-0.013,0.03981,0.985916,-0.026831,-0.015674,-0.014016,60.478195,29.009735,-146.284698,,,
729706943.977391,1.725968,1.198344,-22.692151,-0.013,0.03981,0.985916,-0.026831,-0.015674,-0.014016,60.478195,29.009735,-146.284698,,,
729706943.979931,1.712605,1.196666,121.214548,-0.013,0.03981,0.985916,-0.051608,0.002133,-0.014899,60.478195,29.009735,-146.284698,,,
729706943.982749,1.712595,1.196632,-22.695627,-0.013,0.03981,0.985916,-0.051608,0.002133,-0.014899,60.478195,29.009735,-146.284698,,,
729706943.983218,1.697207,1.197584,121.211564,-0.015762,0.037262,0.988571,-0.051608,0.002133,-0.014899,60.478195,29.009735,-146.284698,,,
729706943.984735,1.697197,1.197551,-22.698613,-0.015762,0.037262,0.988571,-0.051608,0.002133,-0.014899,60.478195,29.009735,-146.284698,,,
729706943.986634,1.697207,1.197584,121.211564,-0.015762,0.037262,0.988571,-0.051608,0.002133,-0.014899,60.478195,29.009735,-146.284698,,,
729706943.987382,1.697197,1.197551,-22.698613,-0.015762,0.037262,0.988571,-0.051608,0.002133,-0.014899,60.478195,29.009735,-146.284698,,,
729706943.989989,1.680191,1.201753,121.209858,-0.015762,0.037262,0.988571,-0.051911,0.017738,-0.005798,60.478195,29.009735,-146.284698,,,
729706943.991294,1.680181,1.201719,-22.700316,-0.015762,0.037262,0.988571,-0.051911,0.017738,-0.005798,60.478195,29.009735,-146.284698,,,
729706943.993245,1.666741,1.206572,121.209575,-0.020706,0.02536,0.995071,-0.051911,0.017738,-0.005798,60.478195,29.009735,-146.284698,,,
729706943.995089,1.666731,1.206539,-22.700595,-0.020706,0.02536,0.995071,-0.051911,0.017738,-0.005798,60.478195,29.009735,-146.284698,,,
729706943.996592,1.666741,1.206572,121.209575,-0.020706,0.02536,0.995071,-0.051911,0.017738,-0.005798,60.478195,29.009735,-146.284698,,,
729706943.998999,1.666731,1.206539,-22.700595,-0.020706,0.02536,0.995071,-0.024351,0.024162,0.005221,60.478195,29.009735,-146.284698,,,
729706943.999974,1.654959,1.213169,121.210766,-0.020706,0.02536,0.995071,-0.024351,0.024162,0.005221,60.478195,29.009735,-146.284698,,,
729706944.001063,1.65495,1.213135,-22.699406,-0.020706,0.02536,0.995071,-0.024351,0.024162,0.005221,60.478195,29.009735,-146.284698,,,
729706944.003236,1.650071,1.219112,121.21326,-0.023026,0.018066,1.001801,-0.024351,0.024162,0.005221,60.478195,29.009735,-146.284698,,,
729706944.004707,1.650062,1.219079,-22.69691,-0.023026,0.018066,1.001801,-0.024351,0.024162,0.005221,60.478195,29.009735,-146.284698,,,
729706944.006686,1.650071,1.219112,121.21326,-0.023026,0.018066,1.001801,-0.024351,0.024162,0.005221,60.478195,29.009735,-146.284698,,,
729706944.007426,1.650062,1.219079,-22.69691,-0.023026,0.018066,1.001801,-0.024351,0.024162,0.005221,60.478195,29.009735,-146.284698,,,
729706944.009943,1.647318,1.225969,121.216067,-0.023026,0.018066,1.001801,0.006021,0.02935,0.008076,60.478195,29.009735,-146.284698,,,
729706944.012775,1.647309,1.225935,-22.694107,-0.023026,0.018066,1.001801,0.006021,0.02935,0.008076,60.478195,29.009735,-146.284698,,,
729706944.013263,1.650674,1.234055,121.219305,-0.022552,0.018936,1.006134,0.006021,0.02935,0.008076,60.478195,29.009735,-146.284698,,,
729706944.014364,1.650664,1.234022,-22.69087,-0.022552,0.018936,1.006134,0.006021,0.02935,0.008076,60.478195,29.009735,-146.284698,,,
729706944.016577,1.650674,1.234055,121.219305,-0.022552,0.018936,1.006134,0.006021,0.02935,0.008076,60.385773,29.096741,-146.368912,,,
729706944.018123,1.650664,1.234022,-22.69087,-0.022552,0.018936,1.006134,0.006021,0.02935,0.008076,60.385773,29.096741,-146.368912,,,
729706944.019929,1.655819,1.241423,121.223199,-0.022552,0.018936,1.006134,0.02697,0.03767,0.012668,60.385773,29.096741,-146.368912,,,
729706944.021788,1.65581,1.24139,-22.68698,-0.022552,0.018936,1.006134,0.02697,0.03767,0.012668,60.385773,29.096741,-146.368912,,,
729706944.023318,1.66365,1.252166,121.227,-0.021011,0.025635,1.002701,0.02697,0.03767,0.012668,60.385773,29.096741,-146.368912,,,
729706944.025023,1.66364,1.252133,-22.683176,-0.021011,0.025635,1.002701,0.02697,0.03767,0.012668,60.385773,29.096741,-146.368912,,,
729706944.026663,1.66365,1.252166,121.227,-0.021011,0.025635,1.002701,0.02697,0.03767,0.012668,60.385773,29.096741,-146.368912,,,
729706944.027419,1.66364,1.252133,-22.683176,-0.021011,0.025635,1.002701,0.02697,0.03767,0.012668,60.385773,29.096741,-146.368912,,,
729706944.029921,1.672154,1.261433,121.230574,-0.021011,0.025635,1.002701,0.026881,0.044571,0.010587,60.385773,29.096741,-146.368912,,,
729706944.031371,1.672144,1.261399,-22.679601,-0.021011,0.025635,1.002701,0.026881,0.044571,0.010587,60.385773,29.096741,-146.368912,,,
729706944.033241,1.67858,1.272401,121.234096,-0.020065,0.033005,0.994019,0.026881,0.044571,0.010587,60.385773,29.096741,-146.368912,,,
729706944.03488,1.67857,1.272368,-22.676085,-0.020065,0.033005,0.994019,0.026881,0.044571,0.010587,60.385773,29.096741,-146.368912,,,
729706944.036579,1.67858,1.272401,121.234096,-0.020065,0.033005,0.994019,0.026881,0.044571,0.010587,60.385773,29.096741,-146.368912,,,
729706944.037379,1.67857,1.272368,-22.676085,-0.020065,0.033005,0.994019,0.026881,0.044571,0.010587,60.385773,29.096741,-146.368912,,,
729706944.039953,1.683037,1.280853,121.237269,-0.020065,0.033005,0.994019,0.003981,0.038546,0.007395,60.385773,29.096741,-146.368912,,,
729706944.041744,1.683028,1.280819,-22.672902,-0.020065,0.033005,0.994019,0.003981,0.038546,0.007395,60.385773,29.096741,-146.368912,,,
729706944.043267,1.682416,1.290474,121.239744,-0.019257,0.039307,0.986923,0.003981,0.038546,0.007395,60.385773,29.096741,-146.368912,,,
729706944.044684,1.682407,1.29044,-22.670432,-0.019257,0.039307,0.986923,0.003981,0.038546,0.007395,60.385773,29.096741,-146.368912,,,
729706944.046606,1.682416,1.290474,121.239744,-0.019257,0.039307,0.986923,0.003981,0.038546,0.007395,60.385773,29.096741,-146.368912,,,
729706944.047431,1.682407,1.29044,-22.670432,-0.019257,0.039307,0.986923,0.003981,0.038546,0.007395,60.385773,29.096741,-146.368912,,,
729706944.049765,1.679772,1.29661,121.241396,-0.019257,0.039307,0.986923,-0.022609,0.030593,0.000618,60.385773,29.096741,-146.368912,,,
729706944.052865,1.679763,1.296576,-22.668784,-0.019257,0.039307,0.986923,-0.022609,0.030593,0.000618,60.385773,29.096741,-146.368912,,,
729706944.053255,1.670937,1.304042,121.241067,-0.019089,0.044769,0.9814,-0.022609,0.030593,0.000618,60.385773,29.096741,-146.368912,,,
729706944.054635,1.670927,1.304008,-22.669114,-0.019089,0.044769,0.9814,-0.022609,0.030593,0.000618,60.385773,29.096741,-146.368912,,,
729706944.056586,1.670937,1.304042,121.241067,-0.019089,0.044769,0.9814,-0.022609,0.030593,0.000618,60.271851,29.02478,-146.638062,,,
729706944.058104,1.670927,1.304008,-22.669114,-0.019089,0.044769,0.9814,-0.022609,0.030593,0.000618,60.271851,29.02478,-146.638062,,,
729706944.059925,1.65984,1.308475,121.238844,-0.019089,0.044769,0.9814,-0.05178,0.022315,-0.013636,60.271851,29.02478,-146.638062,,,
729706944.062835,1.65983,1.308442,-22.671338,-0.019089,0.044769,0.9814,-0.05178,0.022315,-0.013636,60.271851,29.02478,-146.638062,,,
729706944.063251,1.64336,1.313967,121.234791,-0.022339,0.045731,0.98143,-0.05178,0.022315,-0.013636,60.271851,29.02478,-146.638062,,,
729706944.064826,1.643351,1.313934,-22.675394,-0.022339,0.045731,0.98143,-0.05178,0.022315,-0.013636,60.271851,29.02478,-146.638062,,,
729706944.066574,1.64336,1.313967,121.234791,-0.022339,0.045731,0.98143,-0.05178,0.022315,-0.013636,60.271851,29.02478,-146.638062,,,
729706944.06742,1.643351,1.313934,-22.675394,-0.022339,0.045731,0.98143,-0.05178,0.022315,-0.013636,60.271851,29.02478,-146.638062,,,
729706944.069922,1.625105,1.316976,121.229412,-0.022339,0.045731,0.98143,-0.068473,0.012501,-0.023498,60.271851,29.02478,-146.638062,,,
729706944.071924,1.625096,1.316943,-22.680773,-0.022339,0.045731,0.98143,-0.068473,0.012501,-0.023498,60.271851,29.02478,-146.638062,,,
729706944.073348,1.605111,1.318149,121.223463,-0.025162,0.040176,0.984497,-0.068473,0.012501,-0.023498,60.271851,29.02478,-146.638062,,,
729706944.075117,1.605101,1.318115,-22.686707,-0.025162,0.040176,0.984497,-0.068473,0.012501,-0.023498,60.271851,29.02478,-146.638062,,,
729706944.076587,1.605111,1.318149,121.223463,-0.025162,0.040176,0.984497,-0.068473,0.012501,-0.023498,60.271851,29.02478,-146.638062,,,
729706944.077445,1.605101,1.318115,-22.686707,-0.025162,0.040176,0.984497,-0.068473,0.012501,-0.023498,60.271851,29.02478,-146.638062,,,
729706944.079898,1.584497,1.31673,121.217757,-0.025162,0.040176,0.984497,-0.063536,-0.004106,-0.021793,60.271851,29.02478,-146.638062,,,
729706944.082474,1.584487,1.316697,-22.692417,-0.025162,0.040176,0.984497,-0.063536,-0.004106,-0.021793,60.271851,29.02478,-146.638062,,,
729706944.08326,1.567651,1.314579,121.213987,-0.031265,0.029358,0.994095,-0.063536,-0.004106,-0.021793,60.271851,29.02478,-146.638062,,,
729706944.08537,1.567641,1.314545,-22.696193,-0.031265,0.029358,0.994095,-0.063536,-0.004106,-0.021793,60.271851,29.02478,-146.638062,,,
729706944.086575,1.567651,1.314579,121.213987,-0.031265,0.029358,0.994095,-0.063536,-0.004106,-0.021793,60.271851,29.02478,-146.638062,,,
729706944.087435,1.567641,1.314545,-22.696193,-0.031265,0.029358,0.994095,-0.063536,-0.004106,-0.021793,60.271851,29.02478,-146.638062,,,
729706944.090007,1.552837,1.312445,121.21241,-0.031265,0.029358,0.994095,-0.037606,-0.004146,-0.005892,60.271851,29.02478,-146.638062,,,
729706944.091627,1.552827,1.312411,-22.69777,-0.031265,0.029358,0.994095,-0.037606,-0.004146,-0.005892,60.271851,29.02478,-146.638062,,,
729706944.093274,1.544162,1.310612,121.212517,-0.034378,0.017975,1.007034,-0.037606,-0.004146,-0.005892,60.271851,29.02478,-146.638062,,,
729706944.09503,1.544152,1.310578,-22.69766,-0.034378,0.017975,1.007034,-0.037606,-0.004146,-0.005892,60.271851,29.02478,-146.638062,,,
729706944.096647,1.544162,1.310612,121.212517,-0.034378,0.017975,1.007034,-0.037606,-0.004146,-0.005892,60.426697,29.290192,-146.459488,,,
729706944.098357,1.544152,1.310578,-22.69766,-0.034378,0.017975,1.007034,-0.037606,-0.004146,-0.005892,60.426697,29.290192,-146.459488,,,
729706944.100004,1.538711,1.308632,121.214737,-0.034378,0.017975,1.007034,-0.009004,-0.002345,0.009404,60.426697,29.290192,-146.459488,,,
729706944.10232,1.538702,1.308599,-22.69544,-0.034378,0.017975,1.007034,-0.009004,-0.002345,0.009404,60.426697,29.290192,-146.459488,,,
729706944.103267,1.537658,1.307476,121.218406,-0.033051,0.014038,1.008713,-0.009004,-0.002345,0.009404,60.426697,29.290192,-146.459488,,,
729706944.104552,1.537648,1.307443,-22.69177,-0.033051,0.014038,1.008713,-0.009004,-0.002345,0.009404,60.426697,29.290192,-146.459488,,,
729706944.106681,1.537658,1.307476,121.218406,-0.033051,0.014038,1.008713,-0.009004,-0.002345,0.009404,60.426697,29.290192,-146.459488,,,
729706944.107392,1.537648,1.307443,-22.69177,-0.033051,0.014038,1.008713,-0.009004,-0.002345,0.009404,60.426697,29.290192,-146.459488,,,
729706944.109985,1.539297,1.306681,121.223458,-0.033051,0.014038,1.008713,0.006153,0.003365,0.019302,60.426697,29.290192,-146.459488,,,
729706944.11323,1.539288,1.306648,-22.686717,-0.033051,0.014038,1.008713,0.006153,0.003365,0.019302,60.426697,29.290192,-146.459488,,,
729706944.113505,1.54202,1.307565,121.229369,-0.029175,0.018341,1.005814,0.006153,0.003365,0.019302,60.426697,29.290192,-146.459488,,,
729706944.114529,1.542011,1.307532,-22.680809,-0.029175,0.018341,1.005814,0.006153,0.003365,0.019302,60.426697,29.290192,-146.459488,,,
729706944.116583,1.54202,1.307565,121.229369,-0.029175,0.018341,1.005814,0.006153,0.003365,0.019302,60.426697,29.290192,-146.459488,,,
729706944.117387,1.542011,1.307532,-22.680809,-0.029175,0.018341,1.005814,0.006153,0.003365,0.019302,60.426697,29.290192,-146.459488,,,
729706944.119935,1.547886,1.310771,121.235305,-0.029175,0.018341,1.005814,0.015717,0.023389,0.019619,60.426697,29.290192,-146.459488,,,
729706944.121702,1.547877,1.310737,-22.674874,-0.029175,0.018341,1.005814,0.015717,0.023389,0.019619,60.426697,29.290192,-146.459488,,,
729706944.123342,1.55243,1.318097,121.240939,-0.026077,0.024734,1.009445,0.015717,0.023389,0.019619,60.426697,29.290192,-146.459488,,,
729706944.124441,1.55242,1.318063,-22.669242,-0.026077,0.024734,1.009445,0.015717,0.023389,0.019619,60.426697,29.290192,-146.459488,,,
729706944.126667,1.55243,1.318097,121.240939,-0.026077,0.024734,1.009445,0.015717,0.023389,0.019619,60.426697,29.290192,-146.459488,,,
729706944.127376,1.55242,1.318063,-22.669242,-0.026077,0.024734,1.009445,0.015717,0.023389,0.019619,60.426697,29.290192,-146.459488,,,
729706944.12993,1.560175,1.326708,121.246243,-0.026077,0.024734,1.009445,0.017883,0.039495,0.017158,60.426697,29.290192,-146.459488,,,
729706944.13181,1.560165,1.326674,-22.663939,-0.026077,0.024734,1.009445,0.017883,0.039495,0.017158,60.426697,29.290192,-146.459488,,,
729706944.133244,1.564745,1.337781,121.251448,-0.023987,0.027191,1.008514,0.017883,0.039495,0.017158,60.426697,29.290192,-146.459488,,,
729706944.134814,1.564736,1.337748,-22.658729,-0.023987,0.027191,1.008514,0.017883,0.039495,0.017158,60.426697,29.290192,-146.459488,,,
729706944.136595,1.564745,1.337781,121.251448,-0.023987,0.027191,1.008514,0.017883,0.039495,0.017158,60.426697,29.290192,-146.459488,,,
729706944.13738,1.564736,1.337748,-22.658729,-0.023987,0.027191,1.008514,0.017883,0.039495,0.017158,60.426697,29.290192,-146.459488,,,
729706944.140018,1.571655,1.348696,121.256175,-0.023987,0.027191,1.008514,0.009423,0.042904,0.013436,60.371307,29.2285,-146.4263,,,
729706944.142681,1.571645,1.348663,-22.654006,-0.023987,0.027191,1.008514,0.009423,0.042904,0.013436,60.371307,29.2285,-146.4263,,,
729706944.143247,1.574205,1.359292,121.260581,-0.022644,0.026489,0.999695,0.009423,0.042904,0.013436,60.371307,29.2285,-146.4263,,,
729706944.144607,1.574196,1.359258,-22.649604,-0.022644,0.026489,0.999695,0.009423,0.042904,0.013436,60.371307,29.2285,-146.4263,,,
729706944.146594,1.574205,1.359292,121.260581,-0.022644,0.026489,0.999695,0.009423,0.042904,0.013436,60.371307,29.2285,-146.4263,,,
729706944.147379,1.574196,1.359258,-22.649604,-0.022644,0.026489,0.999695,0.009423,0.042904,0.013436,60.371307,29.2285,-146.4263,,,
729706944.14993,1.57934,1.368041,121.265147,-0.022644,0.026489,0.999695,0.00725,0.029595,0.01459,60.371307,29.2285,-146.4263,,,
729706944.151664,1.57933,1.368007,-22.645035,-0.022644,0.026489,0.999695,0.00725,0.029595,0.01459,60.371307,29.2285,-146.4263,,,
729706944.153244,1.580205,1.375226,121.269126,-0.021698,0.02597,0.99295,0.00725,0.029595,0.01459,60.371307,29.2285,-146.4263,,,
729706944.154824,1.580196,1.375192,-22.641054,-0.021698,0.02597,0.99295,0.00725,0.029595,0.01459,60.371307,29.2285,-146.4263,,,
729706944.156577,1.580205,1.375226,121.269126,-0.021698,0.02597,0.99295,0.00725,0.029595,0.01459,60.371307,29.2285,-146.4263,,,
729706944.157382,1.580196,1.375192,-22.641054,-0.021698,0.02597,0.99295,0.00725,0.029595,0.01459,60.371307,29.2285,-146.4263,,,
729706944.159898,1.581254,1.381921,121.272148,-0.021698,0.02597,0.99295,-0.002047,0.0195,0.007907,60.371307,29.2285,-146.4263,,,
729706944.162239,1.581244,1.381887,-22.638025,-0.021698,0.02597,0.99295,-0.002047,0.0195,0.007907,60.371307,29.2285,-146.4263,,,
729706944.163252,1.579647,1.38641,121.274459,-0.020935,0.029297,0.99527,-0.002047,0.0195,0.007907,60.371307,29.2285,-146.4263,,,
729706944.16466,1.579637,1.386377,-22.635712,-0.020935,0.029297,0.99527,-0.002047,0.0195,0.007907,60.371307,29.2285,-146.4263,,,
729706944.166569,1.579647,1.38641,121.274459,-0.020935,0.029297,0.99527,-0.002047,0.0195,0.007907,60.371307,29.2285,-146.4263,,,
729706944.167382,1.579637,1.386377,-22.635712,-0.020935,0.029297,0.99527,-0.002047,0.0195,0.007907,60.371307,29.2285,-146.4263,,,
729706944.169919,1.575932,1.393036,121.275981,-0.020935,0.029297,0.99527,-0.009521,0.01808,0.002659,60.371307,29.2285,-146.4263,,,
729706944.171381,1.575922,1.393003,-22.634185,-0.020935,0.029297,0.99527,-0.009521,0.01808,0.002659,60.371307,29.2285,-146.4263,,,
729706944.173247,1.572897,1.396888,121.277167,-0.019958,0.028687,0.997406,-0.009521,0.01808,0.002659,60.371307,29.2285,-146.4263,,,
729706944.174695,1.572887,1.396855,-22.633014,-0.019958,0.028687,0.997406,-0.009521,0.01808,0.002659,60.371307,29.2285,-146.4263,,,
729706944.176585,1.572897,1.396888,121.277167,-0.019958,0.028687,0.997406,-0.009521,0.01808,0.002659,60.371307,29.2285,-146.4263,,,
729706944.177376,1.572887,1.396855,-22.633014,-0.019958,0.028687,0.997406,-0.009521,0.01808,0.002659,60.371307,29.2285,-146.4263,,,
729706944.17997,1.567323,1.401906,121.278301,-0.019958,0.028687,0.997406,-0.011509,0.012212,0.002715,60.379898,29.205139,-146.688995,,,
729706944.181565,1.567313,1.401872,-22.631881,-0.019958,0.028687,0.997406,-0.011509,0.012212,0.002715,60.379898,29.205139,-146.688995,,,
729706944.18311,1.564273,1.404089,121.279936,-0.019882,0.027771,0.99437,-0.011509,0.012212,0.002715,60.379898,29.205139,-146.688995,,,
729706944.184743,1.564263,1.404055,-22.630243,-0.019882,0.027771,0.99437,-0.011509,0.012212,0.002715,60.379898,29.205139,-146.688995,,,
729706944.18659,1.564273,1.404089,121.279936,-0.019882,0.027771,0.99437,-0.011509,0.012212,0.002715,60.379898,29.205139,-146.688995,,,
729706944.18738,1.564263,1.404055,-22.630243,-0.019882,0.027771,0.99437,-0.011509,0.012212,0.002715,60.379898,29.205139,-146.688995,,,
729706944.19004,1.559682,1.407105,121.281959,-0.019882,0.027771,0.99437,-0.007125,0.006868,0.005833,60.379898,29.205139,-146.688995,,,
729706944.191279,1.559673,1.407071,-22.628225,-0.019882,0.027771,0.99437,-0.007125,0.006868,0.005833,60.379898,29.205139,-146.688995,,,
729706944.193237,1.557899,1.408389,121.284276,-0.018005,0.027206,0.993835,-0.007125,0.006868,0.005833,60.379898,29.205139,-146.688995,,,
729706944.194052,1.557889,1.408356,-22.625904,-0.018005,0.027206,0.993835,-0.007125,0.006868,0.005833,60.379898,29.205139,-146.688995,,,
729706944.196581,1.557899,1.408389,121.284276,-0.018005,0.027206,0.993835,-0.007125,0.006868,0.005833,60.379898,29.205139,-146.688995,,,
729706944.197372,1.557889,1.408356,-22.625904,-0.018005,0.027206,0.993835,-0.007125,0.006868,0.005833,60.379898,29.205139,-146.688995,,,
729706944.199901,1.556007,1.410308,121.287189,-0.018005,0.027206,0.993835,-0.000654,0.006627,0.010277,60.379898,29.205139,-146.688995,,,
729706944.201171,1.555997,1.410275,-22.622992,-0.018005,0.027206,0.993835,-0.000654,0.006627,0.010277,60.379898,29.205139,-146.688995,,,
729706944.203235,1.556285,1.411693,121.290947,-0.018433,0.026321,0.996109,-0.000654,0.006627,0.010277,60.379898,29.205139,-146.688995,,,
729706944.204282,1.556275,1.411659,-22.619235,-0.018433,0.026321,0.996109,-0.000654,0.006627,0.010277,60.379898,29.205139,-146.688995,,,
729706944.206573,1.556285,1.411693,121.290947,-0.018433,0.026321,0.996109,-0.000654,0.006627,0.010277,60.379898,29.205139,-146.688995,,,
729706944.207382,1.556275,1.411659,-22.619235,-0.018433,0.026321,0.996109,-0.000654,0.006627,0.010277,60.379898,29.205139,-146.688995,,,
729706944.209928,1.557323,1.413928,121.295021,-0.018433,0.026321,0.996109,0.005659,0.013529,0.01267,60.379898,29.205139,-146.688995,,,
729706944.21201,1.557314,1.413895,-22.615155,-0.018433,0.026321,0.996109,0.005659,0.013529,0.01267,60.379898,29.205139,-146.688995,,,
729706944.213243,1.558612,1.417055,121.299357,-0.015488,0.027832,0.99707,0.005659,0.013529,0.01267,60.379898,29.205139,-146.688995,,,
729706944.214619,1.558602,1.417021,-22.610821,-0.015488,0.027832,0.99707,0.005659,0.013529,0.01267,60.379898,29.205139,-146.688995,,,
729706944.216495,1.558612,1.417055,121.299357,-0.015488,0.027832,0.99707,0.005659,0.013529,0.01267,60.379898,29.205139,-146.688995,,,
729706944.217392,1.558602,1.417021,-22.610821,-0.015488,0.027832,0.99707,0.005659,0.013529,0.01267,60.379898,29.205139,-146.688995,,,
729706944.219893,1.559102,1.420199,121.304162,-0.015488,0.027832,0.99707,0.001118,0.015934,0.01579,60.254578,29.171524,-146.240707,,,
729706944.221966,1.559093,1.420166,-22.606013,-0.015488,0.027832,0.99707,0.001118,0.015934,0.01579,60.254578,29.171524,-146.240707,,,
729706944.223275,1.559398,1.424143,121.309135,-0.018097,0.028137,0.99234,0.001118,0.015934,0.01579,60.254578,29.171524,-146.240707,,,
729706944.224742,1.559388,1.424109,-22.601037,-0.018097,0.028137,0.99234,0.001118,0.015934,0.01579,60.254578,29.171524,-146.240707,,,
729706944.226619,1.559398,1.424143,121.309135,-0.018097,0.028137,0.99234,0.001118,0.015934,0.01579,60.254578,29.171524,-146.240707,,,
729706944.227384,1.559388,1.424109,-22.601037,-0.018097,0.028137,0.99234,0.001118,0.015934,0.01579,60.254578,29.171524,-146.240707,,,
729706944.22994,1.55827,1.428224,121.313533,-0.018097,0.028137,0.99234,-0.006767,0.021149,0.011433,60.254578,29.171524,-146.240707,,,
729706944.232552,1.558261,1.428191,-22.596642,-0.018097,0.028137,0.99234,-0.006767,0.021149,0.011433,60.254578,29.171524,-146.240707,,,
729706944.233243,1.55557,1.433558,121.3172,-0.017761,0.028961,0.990341,-0.006767,0.021149,0.011433,60.254578,29.171524,-146.240707,,,
729706944.234402,1.555561,1.433525,-22.592971,-0.017761,0.028961,0.990341,-0.006767,0.021149,0.011433,60.254578,29.171524,-146.240707,,,
729706944.236575,1.55557,1.433558,121.3172,-0.017761,0.028961,0.990341,-0.006767,0.021149,0.011433,60.254578,29.171524,-146.240707,,,
729706944.237379,1.555561,1.433525,-22.592971,-0.017761,0.028961,0.990341,-0.006767,0.021149,0.011433,60.254578,29.171524,-146.240707,,,
729706944.239929,1.551122,1.43946,121.320537,-0.017761,0.028961,0.990341,-0.021004,0.030111,0.008603,60.254578,29.171524,-146.240707,,,
729706944.241907,1.551113,1.439427,-22.589639,-0.017761,0.028961,0.990341,-0.021004,0.030111,0.008603,60.254578,29.171524,-146.240707,,,
729706944.243247,1.543628,1.446804,121.323466,-0.018143,0.03093,0.991882,-0.021004,0.030111,0.008603,60.254578,29.171524,-146.240707,,,
729706944.244696,1.543618,1.446771,-22.58671,-0.018143,0.03093,0.991882,-0.021004,0.030111,0.008603,60.254578,29.171524,-146.240707,,,
729706944.246654,1.543628,1.446804,121.323466,-0.018143,0.03093,0.991882,-0.021004,0.030111,0.008603,60.254578,29.171524,-146.240707,,,
729706944.247378,1.543618,1.446771,-22.58671,-0.018143,0.03093,0.991882,-0.021004,0.030111,0.008603,60.254578,29.171524,-146.240707,,,
729706944.249913,1.534394,1.452555,121.326041,-0.018143,0.03093,0.991882,-0.036611,0.02731,0.005461,60.254578,29.171524,-146.240707,,,
729706944.251533,1.534384,1.452522,-22.584139,-0.018143,0.03093,0.991882,-0.036611,0.02731,0.005461,60.254578,29.171524,-146.240707,,,
729706944.253237,1.52328,1.459133,121.32789,-0.019669,0.02829,0.99411,-0.036611,0.02731,0.005461,60.254578,29.171524,-146.240707,,,
729706944.254705,1.52327,1.4591,-22.58229,-0.019669,0.02829,0.99411,-0.036611,0.02731,0.005461,60.254578,29.171524,-146.240707,,,
729706944.256671,1.52328,1.459133,121.32789,-0.019669,0.02829,0.99411,-0.036611,0.02731,0.005461,60.254578,29.171524,-146.240707,,,
729706944.257421,1.52327,1.4591,-22.58229,-0.019669,0.02829,0.99411,-0.036611,0.02731,0.005461,60.254578,29.171524,-146.240707,,,
729706944.259962,1.511902,1.463118,121.329311,-0.019669,0.02829,0.99411,-0.03989,0.016288,0.002207,60.254578,29.171524,-146.240707,,,
729706944.262107,1.511892,1.463085,-22.580872,-0.019669,0.02829,0.99411,-0.03989,0.016288,0.002207,60.436035,29.177383,-146.46286,,,
729706944.263237,1.500848,1.465558,121.329875,-0.019394,0.026688,0.995956,-0.03989,0.016288,0.002207,60.436035,29.177383,-146.46286,,,
729706944.264896,1.500838,1.465525,-22.580309,-0.019394,0.026688,0.995956,-0.03989,0.016288,0.002207,60.436035,29.177383,-146.46286,,,
729706944.266575,1.500848,1.465558,121.329875,-0.019394,0.026688,0.995956,-0.03989,0.016288,0.002207,60.436035,29.177383,-146.46286,,,
729706944.267404,1.500838,1.465525,-22.580309,-0.019394,0.026688,0.995956,-0.03989,0.016288,0.002207,60.436035,29.177383,-146.46286,,,
729706944.269901,1.491166,1.463541,121.329104,-0.019394,0.026688,0.995956,-0.03263,-0.00527,-0.007131,60.436035,29.177383,-146.46286,,,
729706944.273768,1.491156,1.463507,-22.581075,-0.019394,0.026688,0.995956,-0.03263,-0.00527,-0.007131,60.436035,29.177383,-146.46286,,,
729706944.274273,1.481601,1.460455,121.327256,-0.019836,0.027344,0.999237,-0.03263,-0.00527,-0.007131,60.436035,29.177383,-146.46286,,,
729706944.276587,1.481601,1.460455,121.327256,-0.019836,0.027344,0.999237,-0.03263,-0.00527,-0.007131,60.436035,29.177383,-146.46286,,,
729706944.277825,1.481591,1.460421,-22.582923,-0.019836,0.027344,0.999237,-0.03263,-0.00527,-0.007131,60.436035,29.177383,-146.46286,,,
729706944.279929,1.473274,1.45379,121.324229,-0.019836,0.027344,0.999237,-0.023553,-0.01841,-0.01536,60.436035,29.177383,-146.46286,,,
729706944.282152,1.473264,1.453757,-22.585944,-0.019836,0.027344,0.999237,-0.023553,-0.01841,-0.01536,60.436035,29.177383,-146.46286,,,
729706944.283239,1.467171,1.447784,121.320129,-0.022659,0.023499,1.003876,-0.023553,-0.01841,-0.01536,60.436035,29.177383,-146.46286,,,
729706944.284288,1.467161,1.447751,-22.590044,-0.022659,0.023499,1.003876,-0.023553,-0.01841,-0.01536,60.436035,29.177383,-146.46286,,,
729706944.286645,1.467171,1.447784,121.320129,-0.022659,0.023499,1.003876,-0.023553,-0.01841,-0.01536,60.436035,29.177383,-146.46286,,,
729706944.28737,1.467161,1.447751,-22.590044,-0.022659,0.023499,1.003876,-0.023553,-0.01841,-0.01536,60.436035,29.177383,-146.46286,,,
729706944.289992,1.463407,1.439215,121.315593,-0.022659,0.023499,1.003876,-0.009468,-0.023249,-0.018417,60.436035,29.177383,-146.46286,,,
729706944.29163,1.463397,1.439182,-22.594584,-0.022659,0.023499,1.003876,-0.009468,-0.023249,-0.018417,60.436035,29.177383,-146.46286,,,
729706944.293252,1.461181,1.431553,121.310937,-0.019791,0.021164,1.006241,-0.009468,-0.023249,-0.018417,60.436035,29.177383,-146.46286,,,
729706944.294809,1.461171,1.43152,-22.599238,-0.019791,0.021164,1.006241,-0.009468,-0.023249,-0.018417,60.436035,29.177383,-146.46286,,,
729706944.296584,1.461181,1.431553,121.310937,-0.019791,0.021164,1.006241,-0.009468,-0.023249,-0.018417,60.436035,29.177383,-146.46286,,,
729706944.297382,1.461171,1.43152,-22.599238,-0.019791,0.021164,1.006241,-0.009468,-0.023249,-0.018417,60.436035,29.177383,-146.46286,,,
729706944.299905,1.460449,1.421528,121.306975,-0.019791,0.021164,1.006241,-0.00229,-0.026216,-0.01383,60.436035,29.177383,-146.46286,,,
729706944.30224,1.460439,1.421495,-22.603201,-0.019791,0.021164,1.006241,-0.00229,-0.026216,-0.01383,60.389679,29.330719,-146.566757,,,
729706944.303231,1.459912,1.414439,121.303948,-0.024002,0.020294,1.002777,-0.00229,-0.026216,-0.01383,60.389679,29.330719,-146.566757,,,
729706944.304795,1.459902,1.414406,-22.606231,-0.024002,0.020294,1.002777,-0.00229,-0.026216,-0.01383,60.389679,29.330719,-146.566757,,,
729706944.306574,1.459912,1.414439,121.303948,-0.024002,0.020294,1.002777,-0.00229,-0.026216,-0.01383,60.389679,29.330719,-146.566757,,,
729706944.307377,1.459902,1.414406,-22.606231,-0.024002,0.020294,1.002777,-0.00229,-0.026216,-0.01383,60.389679,29.330719,-146.566757,,,
729706944.309904,1.459621,1.408366,121.302139,-0.024002,0.020294,1.002777,-0.004734,-0.009435,-0.005616,60.389679,29.330719,-146.566757,,,
729706944.311005,1.459611,1.408332,-22.608036,-0.024002,0.020294,1.002777,-0.004734,-0.009435,-0.005616,60.389679,29.330719,-146.566757,,,
729706944.313235,1.45721,1.406719,121.301453,-0.022858,0.021042,1.006546,-0.004734,-0.009435,-0.005616,60.389679,29.330719,-146.566757,,,
729706944.314291,1.457201,1.406686,-22.608723,-0.022858,0.021042,1.006546,-0.004734,-0.009435,-0.005616,60.389679,29.330719,-146.566757,,,
729706944.316566,1.45721,1.406719,121.301453,-0.022858,0.021042,1.006546,-0.004734,-0.009435,-0.005616,60.389679,29.330719,-146.566757,,,
729706944.317377,1.457201,1.406686,-22.608723,-0.022858,0.021042,1.006546,-0.004734,-0.009435,-0.005616,60.389679,29.330719,-146.566757,,,
729706944.319903,1.453721,1.406777,121.301925,-0.022858,0.021042,1.006546,-0.018484,0.013139,0.001827,60.389679,29.330719,-146.566757,,,
729706944.323543,1.453711,1.406744,-22.608245,-0.022858,0.021042,1.006546,-0.018484,0.013139,0.001827,60.389679,29.330719,-146.566757,,,
729706944.324037,1.446994,1.411267,121.303634,-0.025421,0.021866,1.005096,-0.018484,0.013139,0.001827,60.389679,29.330719,-146.566757,,,
729706944.324597,1.446984,1.411234,-22.606532,-0.025421,0.021866,1.005096,-0.018484,0.013139,0.001827,60.389679,29.330719,-146.566757,,,
729706944.326476,1.446994,1.411267,121.303634,-0.025421,0.021866,1.005096,-0.018484,0.013139,0.001827,60.389679,29.330719,-146.566757,,,
729706944.327395,1.446984,1.411234,-22.606532,-0.025421,0.021866,1.005096,-0.018484,0.013139,0.001827,60.389679,29.330719,-146.566757,,,
729706944.329917,1.439278,1.416775,121.306259,-0.025421,0.021866,1.005096,-0.031716,0.030571,0.007618,60.389679,29.330719,-146.566757,,,
729706944.332209,1.439269,1.416742,-22.603908,-0.025421,0.021866,1.005096,-0.031716,0.030571,0.007618,60.389679,29.330719,-146.566757,,,
729706944.333287,1.429987,1.425645,121.309116,-0.025818,0.024521,1.002258,-0.031716,0.030571,0.007618,60.389679,29.330719,-146.566757,,,
729706944.334909,1.429977,1.425612,-22.601058,-0.025818,0.024521,1.002258,-0.031716,0.030571,0.007618,60.389679,29.330719,-146.566757,,,
729706944.336664,1.429987,1.425645,121.309116,-0.025818,0.024521,1.002258,-0.031716,0.030571,0.007618,60.389679,29.330719,-146.566757,,,
729706944.337383,1.429977,1.425612,-22.601058,-0.025818,0.024521,1.002258,-0.031716,0.030571,0.007618,60.389679,29.330719,-146.566757,,,
729706944.339987,1.420826,1.435337,121.311474,-0.025818,0.024521,1.002258,-0.033344,0.042179,0.003891,60.389679,29.330719,-146.566757,,,
729706944.341833,1.420816,1.435303,-22.598701,-0.025818,0.024521,1.002258,-0.033344,0.042179,0.003891,60.389679,29.330719,-146.566757,,,
729706944.343324,1.411077,1.446139,121.312691,-0.025131,0.024353,1.005157,-0.033344,0.042179,0.003891,60.448135,29.345825,-146.545258,,,
729706944.345608,1.411068,1.446106,-22.597486,-0.025131,0.024353,1.005157,-0.033344,0.042179,0.003891,60.448135,29.345825,-146.545258,,,
729706944.3466,1.411077,1.446139,121.312691,-0.025131,0.024353,1.005157,-0.033344,0.042179,0.003891,60.448135,29.345825,-146.545258,,,
729706944.347386,1.411068,1.446106,-22.597486,-0.025131,0.024353,1.005157,-0.033344,0.042179,0.003891,60.448135,29.345825,-146.545258,,,
