Time (sec),Pitch (deg),Roll (deg),Yaw(deg),X-Acceleration (g),Y-Acceleration (g),Z-Acceleration (g),Pitch Rate (deg/sec),Roll Rate (deg/sec),Yaw Rate (deg/sec),Magnetic Field in X direction (uT),Magnetic Field in Y direction (uT),Magnetic Field in Z Direction (uT),Latitude (deg),Longitude (deg),Altitude (m)
729707136.208308,-0.821136,0.489106,-20.922797,-0.007782,-0.013367,0.996307,0.002919,0.027664,0.012256,59.508301,31.391312,-145.874084,,,
729707136.209457,-0.821125,0.489139,122.987372,-0.007782,-0.013367,0.996307,0.002919,0.027664,0.012256,59.508301,31.391312,-145.874084,,,
729707136.210235,-0.821136,0.489106,-20.922797,-0.007782,-0.013367,0.996307,0.002919,0.027664,0.012256,59.508301,31.391312,-145.874084,,,
729707136.21278,-0.820106,0.497882,122.991792,-0.007782,-0.013367,0.996307,0.002919,0.027664,0.012256,59.508301,31.391312,-145.874084,,,
729707136.213978,-0.820117,0.497848,-20.918384,-0.007782,-0.013367,0.996307,0.002919,0.027664,0.012256,59.508301,31.391312,-145.874084,,,
729707136.216094,-0.818529,0.503716,122.996983,-0.009872,-0.01767,0.992828,0.005453,0.021212,0.017902,59.508301,31.391312,-145.874084,,,
729707136.218166,-0.81854,0.503682,-20.913193,-0.009872,-0.01767,0.992828,0.005453,0.021212,0.017902,59.508301,31.391312,-145.874084,,,
729707136.219444,-0.818529,0.503716,122.996983,-0.009872,-0.01767,0.992828,0.005453,0.021212,0.017902,59.508301,31.391312,-145.874084,,,
729707136.220238,-0.81854,0.503682,-20.913193,-0.009872,-0.01767,0.992828,0.005453,0.021212,0.017902,59.508301,31.391312,-145.874084,,,
729707136.222773,-0.816199,0.508531,123.002852,-0.009872,-0.01767,0.992828,0.005453,0.021212,0.017902,59.508301,31.391312,-145.874084,,,
729707136.22393,-0.81621,0.508497,-20.907327,-0.009872,-0.01767,0.992828,0.005453,0.021212,0.017902,59.508301,31.391312,-145.874084,,,
729707136.226093,-0.813125,0.510221,123.008959,-0.012756,-0.015884,0.992218,0.01062,0.004896,0.019706,59.508301,31.391312,-145.874084,,,
729707136.227669,-0.813136,0.510188,-20.901216,-0.012756,-0.015884,0.992218,0.01062,0.004896,0.019706,59.508301,31.391312,-145.874084,,,
729707136.229436,-0.813125,0.510221,123.008959,-0.012756,-0.015884,0.992218,0.01062,0.004896,0.019706,59.508301,31.391312,-145.874084,,,
729707136.230235,-0.813136,0.510188,-20.901216,-0.012756,-0.015884,0.992218,0.01062,0.004896,0.019706,59.508301,31.391312,-145.874084,,,
729707136.23278,-0.810025,0.509676,123.014499,-0.012756,-0.015884,0.992218,0.01062,0.004896,0.019706,59.685837,31.42038,-146.232971,,,
729707136.234275,-0.810036,0.509642,-20.895679,-0.012756,-0.015884,0.992218,0.01062,0.004896,0.019706,59.685837,31.42038,-146.232971,,,
729707136.23609,-0.80571,0.507775,123.019071,-0.010818,-0.01268,0.994308,0.016853,-0.006967,0.01298,59.685837,31.42038,-146.232971,,,
729707136.238945,-0.805721,0.507742,-20.89111,-0.010818,-0.01268,0.994308,0.016853,-0.006967,0.01298,59.685837,31.42038,-146.232971,,,
729707136.239449,-0.80571,0.507775,123.019071,-0.010818,-0.01268,0.994308,0.016853,-0.006967,0.01298,59.685837,31.42038,-146.232971,,,
729707136.240289,-0.805721,0.507742,-20.89111,-0.010818,-0.01268,0.994308,0.016853,-0.006967,0.01298,59.685837,31.42038,-146.232971,,,
729707136.242775,-0.80114,0.502785,123.022984,-0.010818,-0.01268,0.994308,0.016853,-0.006967,0.01298,59.685837,31.42038,-146.232971,,,
729707136.244279,-0.801151,0.502751,-20.887199,-0.010818,-0.01268,0.994308,0.016853,-0.006967,0.01298,59.685837,31.42038,-146.232971,,,
729707136.246106,-0.796088,0.497411,123.026357,-0.007431,-0.011032,0.996185,0.017831,-0.019532,0.009071,59.685837,31.42038,-146.232971,,,
729707136.247619,-0.796099,0.497378,-20.883827,-0.007431,-0.011032,0.996185,0.017831,-0.019532,0.009071,59.685837,31.42038,-146.232971,,,
729707136.249419,-0.796088,0.497411,123.026357,-0.007431,-0.011032,0.996185,0.017831,-0.019532,0.009071,59.685837,31.42038,-146.232971,,,
729707136.250235,-0.796099,0.497378,-20.883827,-0.007431,-0.011032,0.996185,0.017831,-0.019532,0.009071,59.685837,31.42038,-146.232971,,,
729707136.252849,-0.791221,0.488839,123.029048,-0.007431,-0.011032,0.996185,0.017831,-0.019532,0.009071,59.685837,31.42038,-146.232971,,,
729707136.254256,-0.791232,0.488806,-20.881123,-0.007431,-0.011032,0.996185,0.017831,-0.019532,0.009071,59.685837,31.42038,-146.232971,,,
729707136.256097,-0.785862,0.481113,123.031376,-0.006882,-0.011749,0.998047,0.019977,-0.024925,0.006335,59.685837,31.42038,-146.232971,,,
729707136.257285,-0.785873,0.48108,-20.878794,-0.006882,-0.011749,0.998047,0.019977,-0.024925,0.006335,59.685837,31.42038,-146.232971,,,
729707136.259416,-0.785862,0.481113,123.031376,-0.006882,-0.011749,0.998047,0.019977,-0.024925,0.006335,59.685837,31.42038,-146.232971,,,
729707136.260238,-0.785873,0.48108,-20.878794,-0.006882,-0.011749,0.998047,0.019977,-0.024925,0.006335,59.685837,31.42038,-146.232971,,,
729707136.26279,-0.77957,0.471484,123.033555,-0.006882,-0.011749,0.998047,0.019977,-0.024925,0.006335,59.685837,31.42038,-146.232971,,,
729707136.264239,-0.779581,0.471451,-20.876611,-0.006882,-0.011749,0.998047,0.019977,-0.024925,0.006335,59.685837,31.42038,-146.232971,,,
729707136.266094,-0.774469,0.4646,123.036181,-0.003586,-0.012054,1.001099,0.017573,-0.019396,0.009125,59.685837,31.42038,-146.232971,,,
729707136.267959,-0.77448,0.464567,-20.874,-0.003586,-0.012054,1.001099,0.017573,-0.019396,0.009125,59.685837,31.42038,-146.232971,,,
729707136.269437,-0.774469,0.4646,123.036181,-0.003586,-0.012054,1.001099,0.017573,-0.019396,0.009125,59.685837,31.42038,-146.232971,,,
729707136.270236,-0.77448,0.464567,-20.874,-0.003586,-0.012054,1.001099,0.017573,-0.019396,0.009125,59.685837,31.42038,-146.232971,,,
729707136.27275,-0.768632,0.457332,123.03904,-0.003586,-0.012054,1.001099,0.017573,-0.019396,0.009125,59.700836,31.450577,-146.321716,,,
729707136.274196,-0.768643,0.457299,-20.871142,-0.003586,-0.012054,1.001099,0.017573,-0.019396,0.009125,59.700836,31.450577,-146.321716,,,
729707136.276094,-0.7639,0.454142,123.041907,-6.1e-05,-0.010635,1.00441,0.016156,-0.004521,0.008999,59.700836,31.450577,-146.321716,,,
729707136.277753,-0.763911,0.454109,-20.868274,-6.1e-05,-0.010635,1.00441,0.016156,-0.004521,0.008999,59.700836,31.450577,-146.321716,,,
729707136.279432,-0.7639,0.454142,123.041907,-6.1e-05,-0.010635,1.00441,0.016156,-0.004521,0.008999,59.700836,31.450577,-146.321716,,,
729707136.280252,-0.763911,0.454109,-20.868274,-6.1e-05,-0.010635,1.00441,0.016156,-0.004521,0.008999,59.700836,31.450577,-146.321716,,,
729707136.282748,-0.758902,0.452821,123.044583,-6.1e-05,-0.010635,1.00441,0.016156,-0.004521,0.008999,59.700836,31.450577,-146.321716,,,
729707136.283566,-0.758913,0.452788,-20.8656,-6.1e-05,-0.010635,1.00441,0.016156,-0.004521,0.008999,59.700836,31.450577,-146.321716,,,
729707136.286095,-0.754461,0.455096,123.047073,0.002762,-0.011292,1.002182,0.016611,0.015242,0.007694,59.700836,31.450577,-146.321716,,,
729707136.290008,-0.754472,0.455062,-20.863109,0.002762,-0.011292,1.002182,0.016611,0.015242,0.007694,59.700836,31.450577,-146.321716,,,
729707136.29028,-0.754461,0.455096,123.047073,0.002762,-0.011292,1.002182,0.016611,0.015242,0.007694,59.700836,31.450577,-146.321716,,,
729707136.29273,-0.750973,0.45982,123.049234,0.002762,-0.011292,1.002182,0.016611,0.015242,0.007694,59.700836,31.450577,-146.321716,,,
729707136.293579,-0.750984,0.459787,-20.860947,0.002762,-0.011292,1.002182,0.016611,0.015242,0.007694,59.700836,31.450577,-146.321716,,,
729707136.296093,-0.747236,0.466161,123.050791,-0.000153,-0.014267,0.996597,0.014024,0.027654,0.003473,59.700836,31.450577,-146.321716,,,
729707136.299019,-0.747247,0.466128,-20.859388,-0.000153,-0.014267,0.996597,0.014024,0.027654,0.003473,59.700836,31.450577,-146.321716,,,
729707136.29944,-0.747236,0.466161,123.050791,-0.000153,-0.014267,0.996597,0.014024,0.027654,0.003473,59.700836,31.450577,-146.321716,,,
729707136.300238,-0.747247,0.466128,-20.859388,-0.000153,-0.014267,0.996597,0.014024,0.027654,0.003473,59.700836,31.450577,-146.321716,,,
729707136.30284,-0.744611,0.474638,123.052283,-0.000153,-0.014267,0.996597,0.014024,0.027654,0.003473,59.700836,31.450577,-146.321716,,,
729707136.303919,-0.744622,0.474605,-20.857894,-0.000153,-0.014267,0.996597,0.014024,0.027654,0.003473,59.700836,31.450577,-146.321716,,,
729707136.306096,-0.741576,0.484132,123.053922,-0.003357,-0.012711,0.993759,0.011196,0.038726,0.00451,59.700836,31.450577,-146.321716,,,
729707136.30767,-0.741587,0.484099,-20.856256,-0.003357,-0.012711,0.993759,0.011196,0.038726,0.00451,59.700836,31.450577,-146.321716,,,
729707136.309445,-0.741576,0.484132,123.053922,-0.003357,-0.012711,0.993759,0.011196,0.038726,0.00451,59.700836,31.450577,-146.321716,,,
729707136.310232,-0.741587,0.484099,-20.856256,-0.003357,-0.012711,0.993759,0.011196,0.038726,0.00451,59.700836,31.450577,-146.321716,,,
729707136.312848,-0.739114,0.495537,123.055512,-0.003357,-0.012711,0.993759,0.011196,0.038726,0.00451,59.700836,31.450577,-146.321716,,,
729707136.314804,-0.739125,0.495504,-20.854669,-0.003357,-0.012711,0.993759,0.011196,0.038726,0.00451,59.790222,31.317505,-146.377151,,,
729707136.3161,-0.736304,0.50543,123.057505,-0.007431,-0.014893,0.993713,0.011895,0.035901,0.007429,59.790222,31.317505,-146.377151,,,
729707136.317667,-0.736315,0.505397,-20.852681,-0.007431,-0.014893,0.993713,0.011895,0.035901,0.007429,59.790222,31.317505,-146.377151,,,
729707136.319447,-0.736304,0.50543,123.057505,-0.007431,-0.014893,0.993713,0.011895,0.035901,0.007429,59.790222,31.317505,-146.377151,,,
729707136.320233,-0.736315,0.505397,-20.852681,-0.007431,-0.014893,0.993713,0.011895,0.035901,0.007429,59.790222,31.317505,-146.377151,,,
729707136.322762,-0.732448,0.513309,123.059873,-0.007431,-0.014893,0.993713,0.011895,0.035901,0.007429,59.790222,31.317505,-146.377151,,,
729707136.324126,-0.732459,0.513275,-20.850299,-0.007431,-0.014893,0.993713,0.011895,0.035901,0.007429,59.790222,31.317505,-146.377151,,,
729707136.326142,-0.72919,0.518515,123.062285,-0.012512,-0.016663,0.990662,0.010972,0.016591,0.007666,59.790222,31.317505,-146.377151,,,
729707136.327932,-0.729201,0.518481,-20.847885,-0.012512,-0.016663,0.990662,0.010972,0.016591,0.007666,59.790222,31.317505,-146.377151,,,
729707136.32948,-0.72919,0.518515,123.062285,-0.012512,-0.016663,0.990662,0.010972,0.016591,0.007666,59.790222,31.317505,-146.377151,,,
729707136.330267,-0.729201,0.518481,-20.847885,-0.012512,-0.016663,0.990662,0.010972,0.016591,0.007666,59.790222,31.317505,-146.377151,,,
729707136.332835,-0.726623,0.521423,123.064548,-0.012512,-0.016663,0.990662,0.010972,0.016591,0.007666,59.790222,31.317505,-146.377151,,,
729707136.333556,-0.726634,0.52139,-20.845624,-0.012512,-0.016663,0.990662,0.010972,0.016591,0.007666,59.790222,31.317505,-146.377151,,,
729707136.336083,-0.72477,0.52288,123.06647,-0.015778,-0.011826,0.990341,0.007029,0.004461,0.005245,59.790222,31.317505,-146.377151,,,
729707136.338254,-0.724781,0.522847,-20.843703,-0.015778,-0.011826,0.990341,0.007029,0.004461,0.005245,59.790222,31.317505,-146.377151,,,
729707136.339442,-0.72477,0.52288,123.06647,-0.015778,-0.011826,0.990341,0.007029,0.004461,0.005245,59.790222,31.317505,-146.377151,,,
729707136.340242,-0.724781,0.522847,-20.843703,-0.015778,-0.011826,0.990341,0.007029,0.004461,0.005245,59.790222,31.317505,-146.377151,,,
729707136.342754,-0.72327,0.52183,123.068612,-0.015778,-0.011826,0.990341,0.007029,0.004461,0.005245,59.790222,31.317505,-146.377151,,,
729707136.34359,-0.723281,0.521796,-20.841559,-0.015778,-0.011826,0.990341,0.007029,0.004461,0.005245,59.790222,31.317505,-146.377151,,,
729707136.346086,-0.72262,0.52137,123.070591,-0.015289,-0.009628,0.993042,0.002967,0.002219,0.003978,59.790222,31.317505,-146.377151,,,
729707136.34757,-0.722631,0.521336,-20.839583,-0.015289,-0.009628,0.993042,0.002967,0.002219,0.003978,59.790222,31.317505,-146.377151,,,
729707136.349452,-0.72262,0.52137,123.070591,-0.015289,-0.009628,0.993042,0.002967,0.002219,0.003978,59.790222,31.317505,-146.377151,,,
729707136.350243,-0.722631,0.521336,-20.839583,-0.015289,-0.009628,0.993042,0.002967,0.002219,0.003978,59.790222,31.317505,-146.377151,,,
729707136.352775,-0.721651,0.519353,123.071811,-0.015289,-0.009628,0.993042,0.002967,0.002219,0.003978,59.790222,31.317505,-146.377151,,,
729707136.353726,-0.721662,0.51932,-20.838364,-0.015289,-0.009628,0.993042,0.002967,0.002219,0.003978,59.790222,31.317505,-146.377151,,,
729707136.35609,-0.721018,0.518509,123.072482,-0.009735,-0.009216,0.99379,0.001959,-0.00156,-8e-06,59.861435,31.219849,-145.92305,,,
729707136.360112,-0.721029,0.518476,-20.837693,-0.009735,-0.009216,0.99379,0.001959,-0.00156,-8e-06,59.861435,31.219849,-145.92305,,,
729707136.360396,-0.721018,0.518509,123.072482,-0.009735,-0.009216,0.99379,0.001959,-0.00156,-8e-06,59.861435,31.219849,-145.92305,,,
729707136.362791,-0.720952,0.514848,123.072551,-0.009735,-0.009216,0.99379,0.001959,-0.00156,-8e-06,59.861435,31.219849,-145.92305,,,
729707136.363975,-0.720963,0.514815,-20.837627,-0.009735,-0.009216,0.99379,0.001959,-0.00156,-8e-06,59.861435,31.219849,-145.92305,,,
729707136.366097,-0.722351,0.513991,123.072354,-0.01268,-0.013,0.99057,-0.005752,-0.000157,-0.002109,59.861435,31.219849,-145.92305,,,
729707136.368081,-0.722362,0.513958,-20.837822,-0.01268,-0.013,0.99057,-0.005752,-0.000157,-0.002109,59.861435,31.219849,-145.92305,,,
729707136.369471,-0.722351,0.513991,123.072354,-0.01268,-0.013,0.99057,-0.005752,-0.000157,-0.002109,59.861435,31.219849,-145.92305,,,
729707136.370238,-0.722362,0.513958,-20.837822,-0.01268,-0.013,0.99057,-0.005752,-0.000157,-0.002109,59.861435,31.219849,-145.92305,,,
729707136.372761,-0.725106,0.510562,123.072654,-0.01268,-0.013,0.99057,-0.005752,-0.000157,-0.002109,59.861435,31.219849,-145.92305,,,
729707136.373982,-0.725117,0.510528,-20.837523,-0.01268,-0.013,0.99057,-0.005752,-0.000157,-0.002109,59.861435,31.219849,-145.92305,,,
729707136.376085,-0.728507,0.508564,123.074,-0.014786,-0.016449,0.991089,-0.012395,-0.006484,0.004949,59.861435,31.219849,-145.92305,,,
729707136.378461,-0.728518,0.50853,-20.836174,-0.014786,-0.016449,0.991089,-0.012395,-0.006484,0.004949,59.861435,31.219849,-145.92305,,,
729707136.379471,-0.728507,0.508564,123.074,-0.014786,-0.016449,0.991089,-0.012395,-0.006484,0.004949,59.861435,31.219849,-145.92305,,,
729707136.380254,-0.728518,0.50853,-20.836174,-0.014786,-0.016449,0.991089,-0.012395,-0.006484,0.004949,59.861435,31.219849,-145.92305,,,
729707136.382783,-0.732277,0.503794,123.076517,-0.014786,-0.016449,0.991089,-0.012395,-0.006484,0.004949,59.861435,31.219849,-145.92305,,,
729707136.38418,-0.732288,0.503761,-20.833659,-0.014786,-0.016449,0.991089,-0.012395,-0.006484,0.004949,59.861435,31.219849,-145.92305,,,
729707136.386103,-0.735489,0.500685,123.080609,-0.014999,-0.018478,0.9935,-0.009776,-0.008414,0.015782,59.861435,31.219849,-145.92305,,,
729707136.387475,-0.7355,0.500652,-20.829563,-0.014999,-0.018478,0.9935,-0.009776,-0.008414,0.015782,59.861435,31.219849,-145.92305,,,
729707136.389426,-0.735489,0.500685,123.080609,-0.014999,-0.018478,0.9935,-0.009776,-0.008414,0.015782,59.861435,31.219849,-145.92305,,,
729707136.390346,-0.7355,0.500652,-20.829563,-0.014999,-0.018478,0.9935,-0.009776,-0.008414,0.015782,59.861435,31.219849,-145.92305,,,
729707136.392748,-0.738685,0.4969,123.085704,-0.014999,-0.018478,0.9935,-0.009776,-0.008414,0.015782,59.861435,31.219849,-145.92305,,,
729707136.393856,-0.738696,0.496867,-20.824465,-0.014999,-0.018478,0.9935,-0.009776,-0.008414,0.015782,59.861435,31.219849,-145.92305,,,
729707136.396104,-0.741045,0.49386,123.091518,-0.012161,-0.018036,0.996933,-0.004439,-0.009355,0.020738,59.943588,31.330505,-145.873657,,,
729707136.398318,-0.741056,0.493827,-20.818651,-0.012161,-0.018036,0.996933,-0.004439,-0.009355,0.020738,59.943588,31.330505,-145.873657,,,
729707136.399449,-0.741045,0.49386,123.091518,-0.012161,-0.018036,0.996933,-0.004439,-0.009355,0.020738,59.943588,31.330505,-145.873657,,,
729707136.400241,-0.741056,0.493827,-20.818651,-0.012161,-0.018036,0.996933,-0.004439,-0.009355,0.020738,59.943588,31.330505,-145.873657,,,
729707136.402844,-0.743048,0.491185,123.09754,-0.012161,-0.018036,0.996933,-0.004439,-0.009355,0.020738,59.943588,31.330505,-145.873657,,,
729707136.403878,-0.743059,0.491152,-20.812628,-0.012161,-0.018036,0.996933,-0.004439,-0.009355,0.020738,59.943588,31.330505,-145.873657,,,
729707136.406092,-0.744472,0.488817,123.102002,-0.006714,-0.014465,0.998825,-0.005238,-0.005039,0.009887,59.943588,31.330505,-145.873657,,,
729707136.407606,-0.744483,0.488783,-20.808166,-0.006714,-0.014465,0.998825,-0.005238,-0.005039,0.009887,59.943588,31.330505,-145.873657,,,
729707136.409439,-0.744472,0.488817,123.102002,-0.006714,-0.014465,0.998825,-0.005238,-0.005039,0.009887,59.943588,31.330505,-145.873657,,,
729707136.410258,-0.744483,0.488783,-20.808166,-0.006714,-0.014465,0.998825,-0.005238,-0.005039,0.009887,59.943588,31.330505,-145.873657,,,
729707136.41284,-0.746128,0.488274,123.104994,-0.006714,-0.014465,0.998825,-0.005238,-0.005039,0.009887,59.943588,31.330505,-145.873657,,,
729707136.414038,-0.746139,0.48824,-20.805191,-0.006714,-0.014465,0.998825,-0.005238,-0.005039,0.009887,59.943588,31.330505,-145.873657,,,
729707136.416087,-0.747224,0.487131,123.106577,-0.002975,-0.011795,1.002563,-0.004424,-0.000332,0.000279,59.943588,31.330505,-145.873657,,,
729707136.417987,-0.747235,0.487097,-20.80361,-0.002975,-0.011795,1.002563,-0.004424,-0.000332,0.000279,59.943588,31.330505,-145.873657,,,
729707136.419447,-0.747224,0.487131,123.106577,-0.002975,-0.011795,1.002563,-0.004424,-0.000332,0.000279,59.943588,31.330505,-145.873657,,,
729707136.420248,-0.747235,0.487097,-20.80361,-0.002975,-0.011795,1.002563,-0.004424,-0.000332,0.000279,59.943588,31.330505,-145.873657,,,
729707136.42279,-0.747007,0.488694,123.106958,-0.002975,-0.011795,1.002563,-0.004424,-0.000332,0.000279,59.943588,31.330505,-145.873657,,,
729707136.423616,-0.747018,0.488661,-20.803228,-0.002975,-0.011795,1.002563,-0.004424,-0.000332,0.000279,59.943588,31.330505,-145.873657,,,
729707136.426166,-0.745676,0.489208,123.106586,0.00119,-0.012405,1.006805,0.007031,0.005438,-0.004712,59.943588,31.330505,-145.873657,,,
729707136.431388,-0.745687,0.489175,-20.803596,0.00119,-0.012405,1.006805,0.007031,0.005438,-0.004712,59.943588,31.330505,-145.873657,,,
729707136.432058,-0.742438,0.490652,123.105472,0.00119,-0.012405,1.006805,0.007031,0.005438,-0.004712,59.943588,31.330505,-145.873657,,,
729707136.432521,-0.742438,0.490652,123.105472,0.00119,-0.012405,1.006805,0.007031,0.005438,-0.004712,59.943588,31.330505,-145.873657,,,
729707136.434059,-0.742449,0.490619,-20.80471,0.00119,-0.012405,1.006805,0.007031,0.005438,-0.004712,59.943588,31.330505,-145.873657,,,
729707136.436103,-0.742438,0.490652,123.105472,0.00119,-0.012405,1.006805,0.015521,0.005263,-0.007803,59.754562,31.383606,-145.960144,,,
729707136.438394,-0.738704,0.491108,-20.806294,0.003647,-0.011948,1.004944,0.015521,0.005263,-0.007803,59.754562,31.383606,-145.960144,,,
729707136.439428,-0.738693,0.491141,123.10389,0.003647,-0.011948,1.004944,0.015521,0.005263,-0.007803,59.754562,31.383606,-145.960144,,,
729707136.440241,-0.738704,0.491108,-20.806294,0.003647,-0.011948,1.004944,0.015521,0.005263,-0.007803,59.754562,31.383606,-145.960144,,,
729707136.442752,-0.733806,0.492457,123.101515,0.003647,-0.011948,1.004944,0.015521,0.005263,-0.007803,59.754562,31.383606,-145.960144,,,
729707136.443933,-0.733817,0.492423,-20.808666,0.003647,-0.011948,1.004944,0.015521,0.005263,-0.007803,59.754562,31.383606,-145.960144,,,
729707136.446121,-0.728988,0.494157,123.098143,0.00621,-0.008408,1.004868,0.01694,0.009398,-0.014782,59.754562,31.383606,-145.960144,,,
729707136.447237,-0.728999,0.494124,-20.812039,0.00621,-0.008408,1.004868,0.01694,0.009398,-0.014782,59.754562,31.383606,-145.960144,,,
729707136.449431,-0.728988,0.494157,123.098143,0.00621,-0.008408,1.004868,0.01694,0.009398,-0.014782,59.754562,31.383606,-145.960144,,,
729707136.450233,-0.728999,0.494124,-20.812039,0.00621,-0.008408,1.004868,0.01694,0.009398,-0.014782,59.754562,31.383606,-145.960144,,,
729707136.452782,-0.724664,0.498,123.093435,0.00621,-0.008408,1.004868,0.01694,0.009398,-0.014782,59.754562,31.383606,-145.960144,,,
729707136.454512,-0.724675,0.497967,-20.816746,0.00621,-0.008408,1.004868,0.01694,0.009398,-0.014782,59.754562,31.383606,-145.960144,,,
729707136.456104,-0.720022,0.502399,123.08734,0.00621,-0.008408,1.004868,0.016465,0.023975,-0.024339,59.754562,31.383606,-145.960144,,,
729707136.457593,-0.720033,0.502366,-20.822843,0.00354,-0.006912,1.002365,0.016465,0.023975,-0.024339,59.754562,31.383606,-145.960144,,,
729707136.45945,-0.720022,0.502399,123.08734,0.00354,-0.006912,1.002365,0.016465,0.023975,-0.024339,59.754562,31.383606,-145.960144,,,
729707136.460239,-0.720033,0.502366,-20.822843,0.00354,-0.006912,1.002365,0.016465,0.023975,-0.024339,59.754562,31.383606,-145.960144,,,
729707136.462835,-0.717419,0.51104,123.080672,0.00354,-0.006912,1.002365,0.016465,0.023975,-0.024339,59.754562,31.383606,-145.960144,,,
729707136.464146,-0.71743,0.511007,-20.829512,0.00354,-0.006912,1.002365,0.016465,0.023975,-0.024339,59.754562,31.383606,-145.960144,,,
729707136.466204,-0.71475,0.52041,123.073776,-0.001434,-0.010208,0.999741,0.00967,0.038964,-0.025799,59.754562,31.383606,-145.960144,,,
729707136.469711,-0.714761,0.520377,-20.836394,-0.001434,-0.010208,0.999741,0.00967,0.038964,-0.025799,59.754562,31.383606,-145.960144,,,
729707136.469989,-0.71475,0.52041,123.073776,-0.001434,-0.010208,0.999741,0.00967,0.038964,-0.025799,59.754562,31.383606,-145.960144,,,
729707136.470259,-0.714761,0.520377,-20.836394,-0.001434,-0.010208,0.999741,0.00967,0.038964,-0.025799,59.754562,31.383606,-145.960144,,,
729707136.472769,-0.714238,0.532249,123.067302,-0.001434,-0.010208,0.999741,0.00967,0.038964,-0.025799,59.754562,31.383606,-145.960144,,,
729707136.473918,-0.714249,0.532215,-20.842868,-0.001434,-0.010208,0.999741,0.00967,0.038964,-0.025799,59.754562,31.383606,-145.960144,,,
729707136.476196,-0.713934,0.54254,123.062019,-0.010025,-0.012268,0.992065,-0.000369,0.037694,-0.017494,59.754562,31.383606,-145.960144,,,
729707136.479967,-0.713945,0.542507,-20.848151,-0.010025,-0.012268,0.992065,-0.000369,0.037694,-0.017494,59.727737,31.084274,-146.058533,,,
729707136.480496,-0.713934,0.54254,123.062019,-0.010025,-0.012268,0.992065,-0.000369,0.037694,-0.017494,59.727737,31.084274,-146.058533,,,
729707136.482698,-0.715233,0.552763,123.058247,-0.010025,-0.012268,0.992065,-0.000369,0.037694,-0.017494,59.727737,31.084274,-146.058533,,,
729707136.484273,-0.715244,0.552729,-20.851922,-0.010025,-0.012268,0.992065,-0.000369,0.037694,-0.017494,59.727737,31.084274,-146.058533,,,
729707136.486129,-0.715959,0.562087,123.055481,-0.017822,-0.0121,0.987305,-0.002087,0.032014,-0.010495,59.727737,31.084274,-146.058533,,,
729707136.487935,-0.71597,0.562054,-20.854689,-0.017822,-0.0121,0.987305,-0.002087,0.032014,-0.010495,59.727737,31.084274,-146.058533,,,
729707136.489425,-0.715959,0.562087,123.055481,-0.017822,-0.0121,0.987305,-0.002087,0.032014,-0.010495,59.727737,31.084274,-146.058533,,,
729707136.490239,-0.71597,0.562054,-20.854689,-0.017822,-0.0121,0.987305,-0.002087,0.032014,-0.010495,59.727737,31.084274,-146.058533,,,
729707136.492751,-0.71724,0.568008,123.053704,-0.017822,-0.0121,0.987305,-0.002087,0.032014,-0.010495,59.727737,31.084274,-146.058533,,,
729707136.494116,-0.717251,0.567974,-20.856464,-0.017822,-0.0121,0.987305,-0.002087,0.032014,-0.010495,59.727737,31.084274,-146.058533,,,
729707136.496133,-0.718465,0.572653,123.052808,-0.022964,-0.012344,0.98909,-0.002172,0.013768,-0.004512,59.727737,31.084274,-146.058533,,,
729707136.497403,-0.718476,0.57262,-20.85736,-0.022964,-0.012344,0.98909,-0.002172,0.013768,-0.004512,59.727737,31.084274,-146.058533,,,
729707136.49951,-0.718465,0.572653,123.052808,-0.022964,-0.012344,0.98909,-0.002172,0.013768,-0.004512,59.727737,31.084274,-146.058533,,,
729707136.500227,-0.718476,0.57262,-20.85736,-0.022964,-0.012344,0.98909,-0.002172,0.013768,-0.004512,59.727737,31.084274,-146.058533,,,
729707136.502763,-0.719676,0.57268,123.051948,-0.022964,-0.012344,0.98909,-0.002172,0.013768,-0.004512,59.727737,31.084274,-146.058533,,,
729707136.503572,-0.719687,0.572647,-20.858228,-0.022964,-0.012344,0.98909,-0.002172,0.013768,-0.004512,59.727737,31.084274,-146.058533,,,
729707136.506187,-0.721854,0.572454,123.050868,-0.022964,-0.012344,0.98909,-0.007708,-0.001844,-0.00625,59.727737,31.084274,-146.058533,,,
729707136.5088,-0.721865,0.572421,-20.859308,-0.026169,-0.010727,0.989258,-0.007708,-0.001844,-0.00625,59.727737,31.084274,-146.058533,,,
729707136.509473,-0.721854,0.572454,123.050868,-0.026169,-0.010727,0.989258,-0.007708,-0.001844,-0.00625,59.727737,31.084274,-146.058533,,,
729707136.510241,-0.721865,0.572421,-20.859308,-0.026169,-0.010727,0.989258,-0.007708,-0.001844,-0.00625,59.727737,31.084274,-146.058533,,,
729707136.512782,-0.724592,0.566927,123.049591,-0.026169,-0.010727,0.989258,-0.007708,-0.001844,-0.00625,59.727737,31.084274,-146.058533,,,
729707136.513594,-0.724603,0.566894,-20.86059,-0.026169,-0.010727,0.989258,-0.007708,-0.001844,-0.00625,59.727737,31.084274,-146.058533,,,
729707136.516175,-0.727475,0.561721,123.048199,-0.026169,-0.010727,0.989258,-0.008563,-0.020168,-0.007279,59.727737,31.084274,-146.058533,,,
729707136.518621,-0.727486,0.561688,-20.861982,-0.023392,-0.007812,0.991913,-0.008563,-0.020168,-0.007279,60.097366,30.76709,-145.839355,,,
729707136.519453,-0.727475,0.561721,123.048199,-0.023392,-0.007812,0.991913,-0.008563,-0.020168,-0.007279,60.097366,30.76709,-145.839355,,,
729707136.520239,-0.727486,0.561688,-20.861982,-0.023392,-0.007812,0.991913,-0.008563,-0.020168,-0.007279,60.097366,30.76709,-145.839355,,,
729707136.52276,-0.730131,0.550377,123.046436,-0.023392,-0.007812,0.991913,-0.008563,-0.020168,-0.007279,60.097366,30.76709,-145.839355,,,
729707136.524039,-0.730142,0.550344,-20.863742,-0.023392,-0.007812,0.991913,-0.008563,-0.020168,-0.007279,60.097366,30.76709,-145.839355,,,
729707136.526162,-0.730131,0.540598,123.0448,-0.023392,-0.007812,0.991913,-0.010882,-0.032972,-0.00676,60.097366,30.76709,-145.839355,,,
729707136.527663,-0.733446,0.540564,-20.865382,-0.021713,-0.009995,0.993286,-0.010882,-0.032972,-0.00676,60.097366,30.76709,-145.839355,,,
729707136.529463,-0.733435,0.540598,123.0448,-0.021713,-0.009995,0.993286,-0.010882,-0.032972,-0.00676,60.097366,30.76709,-145.839355,,,
729707136.530232,-0.733446,0.540564,-20.865382,-0.021713,-0.009995,0.993286,-0.010882,-0.032972,-0.00676,60.097366,30.76709,-145.839355,,,
729707136.532754,-0.735855,0.526515,123.043119,-0.021713,-0.009995,0.993286,-0.010882,-0.032972,-0.00676,60.097366,30.76709,-145.839355,,,
729707136.534233,-0.735866,0.526481,-20.867065,-0.021713,-0.009995,0.993286,-0.010882,-0.032972,-0.00676,60.097366,30.76709,-145.839355,,,
729707136.536115,-0.735855,0.526515,123.043119,-0.021713,-0.009995,0.993286,-0.010882,-0.032972,-0.00676,60.097366,30.76709,-145.839355,,,
729707136.537452,-0.739127,0.516136,-20.868557,-0.016205,-0.013809,1.000107,-0.009568,-0.031437,-0.005743,60.097366,30.76709,-145.839355,,,
729707136.539425,-0.739116,0.51617,123.041631,-0.016205,-0.013809,1.000107,-0.009568,-0.031437,-0.005743,60.097366,30.76709,-145.839355,,,
729707136.540232,-0.739127,0.516136,-20.868557,-0.016205,-0.013809,1.000107,-0.009568,-0.031437,-0.005743,60.097366,30.76709,-145.839355,,,
729707136.542763,-0.741109,0.504538,123.040332,-0.016205,-0.013809,1.000107,-0.009568,-0.031437,-0.005743,60.097366,30.76709,-145.839355,,,
729707136.543897,-0.74112,0.504505,-20.869853,-0.016205,-0.013809,1.000107,-0.009568,-0.031437,-0.005743,60.097366,30.76709,-145.839355,,,
729707136.546184,-0.741109,0.496328,123.039304,-0.016205,-0.013809,1.000107,-0.009568,-0.031437,-0.005743,60.097366,30.76709,-145.839355,,,
729707136.547742,-0.743914,0.496295,-20.870877,-0.013824,-0.013763,1.005539,-0.009055,-0.022902,-0.004061,60.097366,30.76709,-145.839355,,,
729707136.549519,-0.743903,0.496328,123.039304,-0.013824,-0.013763,1.005539,-0.009055,-0.022902,-0.004061,60.097366,30.76709,-145.839355,,,
729707136.550234,-0.743914,0.496295,-20.870877,-0.013824,-0.013763,1.005539,-0.009055,-0.022902,-0.004061,60.097366,30.76709,-145.839355,,,
729707136.55276,-0.746615,0.489567,123.038848,-0.013824,-0.013763,1.005539,-0.009055,-0.022902,-0.004061,60.097366,30.76709,-145.839355,,,
729707136.5543,-0.746626,0.489534,-20.871334,-0.013824,-0.013763,1.005539,-0.009055,-0.022902,-0.004061,60.097366,30.76709,-145.839355,,,
729707136.556121,-0.746615,0.489567,123.038848,-0.013824,-0.013763,1.005539,-0.009055,-0.022902,-0.004061,60.097366,30.76709,-145.839355,,,
729707136.557167,-0.749349,0.485236,-20.871375,-0.012283,-0.014771,1.009308,-0.00726,-0.009939,-0.001204,60.097366,30.76709,-145.839355,,,
729707136.559425,-0.749338,0.485269,123.038805,-0.012283,-0.014771,1.009308,-0.00726,-0.009939,-0.001204,59.758774,31.240967,-145.722015,,,
729707136.560883,-0.749349,0.485236,-20.871375,-0.012283,-0.014771,1.009308,-0.00726,-0.009939,-0.001204,59.758774,31.240967,-145.722015,,,
729707136.562765,-0.75116,0.483844,123.038579,-0.012283,-0.014771,1.009308,-0.00726,-0.009939,-0.001204,59.758774,31.240967,-145.722015,,,
729707136.563939,-0.751171,0.483811,-20.871599,-0.012283,-0.014771,1.009308,-0.00726,-0.009939,-0.001204,59.758774,31.240967,-145.722015,,,
729707136.56613,-0.75116,0.483844,123.038579,-0.012283,-0.014771,1.009308,-0.00726,-0.009939,-0.001204,59.758774,31.240967,-145.722015,,,
729707136.569302,-0.752337,0.482536,-20.871298,-0.011658,-0.013184,1.008591,-0.001445,0.000565,0.00261,59.758774,31.240967,-145.722015,,,
729707136.569567,-0.752326,0.48257,123.038883,-0.011658,-0.013184,1.008591,-0.001445,0.000565,0.00261,59.758774,31.240967,-145.722015,,,
729707136.570234,-0.752337,0.482536,-20.871298,-0.011658,-0.013184,1.008591,-0.001445,0.000565,0.00261,59.758774,31.240967,-145.722015,,,
729707136.57276,-0.752858,0.485213,123.039527,-0.011658,-0.013184,1.008591,-0.001445,0.000565,0.00261,59.758774,31.240967,-145.722015,,,
729707136.574042,-0.752869,0.48518,-20.870651,-0.011658,-0.013184,1.008591,-0.001445,0.000565,0.00261,59.758774,31.240967,-145.722015,,,
729707136.576185,-0.752858,0.485213,123.039527,-0.011658,-0.013184,1.008591,-0.001445,0.000565,0.00261,59.758774,31.240967,-145.722015,,,
729707136.578065,-0.752591,0.485466,-20.869963,-0.011017,-0.012787,1.007156,0.004539,0.004521,0.003217,59.758774,31.240967,-145.722015,,,
729707136.579443,-0.75258,0.485499,123.040219,-0.011017,-0.012787,1.007156,0.004539,0.004521,0.003217,59.758774,31.240967,-145.722015,,,
729707136.580239,-0.752591,0.485466,-20.869963,-0.011017,-0.012787,1.007156,0.004539,0.004521,0.003217,59.758774,31.240967,-145.722015,,,
729707136.58275,-0.750705,0.490164,123.041283,-0.011017,-0.012787,1.007156,0.004539,0.004521,0.003217,59.758774,31.240967,-145.722015,,,
729707136.583567,-0.750716,0.490131,-20.868898,-0.011017,-0.012787,1.007156,0.004539,0.004521,0.003217,59.758774,31.240967,-145.722015,,,
729707136.586182,-0.750705,0.490164,123.041458,-0.011017,-0.012787,1.007156,0.009627,0.00285,-0.002624,59.758774,31.240967,-145.722015,,,
729707136.588655,-0.748338,0.49053,-20.868724,-0.008835,-0.012161,1.002167,0.009627,0.00285,-0.002624,59.758774,31.240967,-145.722015,,,
729707136.589465,-0.748327,0.490563,123.041458,-0.008835,-0.012161,1.002167,0.009627,0.00285,-0.002624,59.758774,31.240967,-145.722015,,,
729707136.59025,-0.748338,0.49053,-20.868724,-0.008835,-0.012161,1.002167,0.009627,0.00285,-0.002624,59.758774,31.240967,-145.722015,,,
729707136.592753,-0.74442,0.495245,123.041056,-0.008835,-0.012161,1.002167,0.009627,0.00285,-0.002624,59.758774,31.240967,-145.722015,,,
729707136.594265,-0.744431,0.495212,-20.869131,-0.008835,-0.012161,1.002167,0.009627,0.00285,-0.002624,59.758774,31.240967,-145.722015,,,
729707136.596153,-0.74442,0.495245,123.041056,-0.008835,-0.012161,1.002167,0.009627,0.00285,-0.002624,59.758774,31.240967,-145.722015,,,
729707136.597458,-0.739818,0.496009,-20.870138,-0.008682,-0.012558,1.002304,0.019675,0.004701,-0.006361,59.758774,31.240967,-145.722015,,,
729707136.599426,-0.739807,0.496042,123.04005,-0.008682,-0.012558,1.002304,0.019675,0.004701,-0.006361,59.937073,30.934525,-145.667694,,,
729707136.600917,-0.739818,0.496009,-20.870138,-0.008682,-0.012558,1.002304,0.019675,0.004701,-0.006361,59.937073,30.934525,-145.667694,,,
729707136.602769,-0.733696,0.499471,123.038653,-0.008682,-0.012558,1.002304,0.019675,0.004701,-0.006361,59.937073,30.934525,-145.667694,,,
729707136.603937,-0.733707,0.499437,-20.871521,-0.008682,-0.012558,1.002304,0.019675,0.004701,-0.006361,59.937073,30.934525,-145.667694,,,
729707136.606165,-0.733696,0.499471,123.038653,-0.008682,-0.012558,1.002304,0.019675,0.004701,-0.006361,59.937073,30.934525,-145.667694,,,
729707136.608363,-0.728588,0.498688,-20.872669,-0.009903,-0.013794,0.99617,0.018148,-0.00244,-0.004429,59.937073,30.934525,-145.667694,,,
729707136.609461,-0.728577,0.498721,123.037506,-0.009903,-0.013794,0.99617,0.018148,-0.00244,-0.004429,59.937073,30.934525,-145.667694,,,
729707136.610241,-0.728588,0.498688,-20.872669,-0.009903,-0.013794,0.99617,0.018148,-0.00244,-0.004429,59.937073,30.934525,-145.667694,,,
729707136.612776,-0.723375,0.500015,123.036789,-0.009903,-0.013794,0.99617,0.018148,-0.00244,-0.004429,59.937073,30.934525,-145.667694,,,
729707136.613991,-0.723385,0.499982,-20.873389,-0.009903,-0.013794,0.99617,0.018148,-0.00244,-0.004429,59.937073,30.934525,-145.667694,,,
729707136.616135,-0.723375,0.500015,123.036789,-0.009903,-0.013794,0.99617,0.018148,-0.00244,-0.004429,59.937073,30.934525,-145.667694,,,
729707136.617173,-0.718152,0.498555,-20.873709,-0.009186,-0.013336,0.994873,0.018197,-0.003338,-0.001426,59.937073,30.934525,-145.667694,,,
729707136.619443,-0.718141,0.498588,123.036467,-0.009186,-0.013336,0.994873,0.018197,-0.003338,-0.001426,59.937073,30.934525,-145.667694,,,
729707136.620234,-0.718152,0.498555,-20.873709,-0.009186,-0.013336,0.994873,0.018197,-0.003338,-0.001426,59.937073,30.934525,-145.667694,,,
729707136.622749,-0.713426,0.49848,123.036484,-0.009186,-0.013336,0.994873,0.018197,-0.003338,-0.001426,59.937073,30.934525,-145.667694,,,
729707136.62392,-0.713437,0.498446,-20.8737,-0.009186,-0.013336,0.994873,0.018197,-0.003338,-0.001426,59.937073,30.934525,-145.667694,,,
729707136.626233,-0.713426,0.49848,123.036484,-0.009186,-0.013336,0.994873,0.018197,-0.003338,-0.001426,59.937073,30.934525,-145.667694,,,
729707136.628295,-0.709253,0.498702,-20.873753,-0.005493,-0.011322,0.992981,0.013244,0.00724,-0.001819,59.937073,30.934525,-145.667694,,,
729707136.629457,-0.709242,0.498735,123.036435,-0.005493,-0.011322,0.992981,0.013244,0.00724,-0.001819,59.937073,30.934525,-145.667694,,,
729707136.630239,-0.709253,0.498702,-20.873753,-0.005493,-0.011322,0.992981,0.013244,0.00724,-0.001819,59.937073,30.934525,-145.667694,,,
729707136.632758,-0.706443,0.501696,123.035909,-0.005493,-0.011322,0.992981,0.013244,0.00724,-0.001819,59.937073,30.934525,-145.667694,,,
729707136.633566,-0.706454,0.501663,-20.874275,-0.005493,-0.011322,0.992981,0.013244,0.00724,-0.001819,59.937073,30.934525,-145.667694,,,
729707136.636145,-0.706443,0.501696,123.035909,-0.005493,-0.011322,0.992981,0.013244,0.00724,-0.001819,59.937073,30.934525,-145.667694,,,
729707136.637715,-0.704216,0.503825,-20.8751,-0.003845,-0.00769,0.989868,0.006413,0.010217,-0.003876,59.937073,30.934525,-145.667694,,,
729707136.639521,-0.704205,0.503859,123.035085,-0.003845,-0.00769,0.989868,0.006413,0.010217,-0.003876,59.937073,30.934525,-145.667694,,,
729707136.640957,-0.704216,0.503825,-20.8751,-0.003845,-0.00769,0.989868,0.006413,0.010217,-0.003876,59.742218,31.058197,-145.746094,,,
729707136.642767,-0.703249,0.506692,123.03411,-0.003845,-0.00769,0.989868,0.006413,0.010217,-0.003876,59.742218,31.058197,-145.746094,,,
729707136.643967,-0.70326,0.506659,-20.876059,-0.003845,-0.00769,0.989868,0.006413,0.010217,-0.003876,59.742218,31.058197,-145.746094,,,
729707136.646183,-0.703249,0.506692,123.03411,-0.003845,-0.00769,0.989868,0.006413,0.010217,-0.003876,59.742218,31.058197,-145.746094,,,
729707136.647543,-0.70235,0.508898,-20.877399,-0.004807,-0.006271,0.98967,0.003655,0.009909,-0.006457,59.742218,31.058197,-145.746094,,,
729707136.649483,-0.702339,0.508931,123.032784,-0.004807,-0.006271,0.98967,0.003655,0.009909,-0.006457,59.742218,31.058197,-145.746094,,,
729707136.650248,-0.70235,0.508898,-20.877399,-0.004807,-0.006271,0.98967,0.003655,0.009909,-0.006457,59.742218,31.058197,-145.746094,,,
729707136.652858,-0.701921,0.510985,123.03117,-0.004807,-0.006271,0.98967,0.003655,0.009909,-0.006457,59.742218,31.058197,-145.746094,,,
729707136.653572,-0.701932,0.510952,-20.879013,-0.004807,-0.006271,0.98967,0.003655,0.009909,-0.006457,59.742218,31.058197,-145.746094,,,
729707136.656119,-0.701921,0.510985,123.03117,-0.004807,-0.006271,0.98967,0.003655,0.009909,-0.006457,59.742218,31.058197,-145.746094,,,
729707136.659264,-0.702425,0.511121,-20.881013,-0.003891,-0.006393,0.989212,-0.004335,-4.4e-05,-0.009186,59.742218,31.058197,-145.746094,,,
729707136.659535,-0.702414,0.511154,123.029168,-0.003891,-0.006393,0.989212,-0.004335,-4.4e-05,-0.009186,59.742218,31.058197,-145.746094,,,
729707136.660243,-0.702425,0.511121,-20.881013,-0.003891,-0.006393,0.989212,-0.004335,-4.4e-05,-0.009186,59.742218,31.058197,-145.746094,,,
729707136.662764,-0.704396,0.50981,123.026265,-0.003891,-0.006393,0.989212,-0.004335,-4.4e-05,-0.009186,59.742218,31.058197,-145.746094,,,
729707136.663574,-0.704407,0.509777,-20.883919,-0.003891,-0.006393,0.989212,-0.004335,-4.4e-05,-0.009186,59.742218,31.058197,-145.746094,,,
729707136.666205,-0.704396,0.50981,123.026265,-0.003891,-0.006393,0.989212,-0.004335,-4.4e-05,-0.009186,59.742218,31.058197,-145.746094,,,
729707136.667915,-0.706819,0.507051,-20.887587,-0.004166,-0.0056,0.989014,-0.007143,-0.00785,-0.014486,59.742218,31.058197,-145.746094,,,
729707136.669487,-0.706808,0.507084,123.022599,-0.004166,-0.0056,0.989014,-0.007143,-0.00785,-0.014486,59.742218,31.058197,-145.746094,,,
729707136.67023,-0.706819,0.507051,-20.887587,-0.004166,-0.0056,0.989014,-0.007143,-0.00785,-0.014486,59.742218,31.058197,-145.746094,,,
729707136.67276,-0.709039,0.503762,123.018425,-0.004166,-0.0056,0.989014,-0.007143,-0.00785,-0.014486,59.742218,31.058197,-145.746094,,,
729707136.67394,-0.70905,0.503729,-20.89176,-0.004166,-0.0056,0.989014,-0.007143,-0.00785,-0.014486,59.742218,31.058197,-145.746094,,,
729707136.676093,-0.709039,0.503762,123.018425,-0.004166,-0.0056,0.989014,-0.007143,-0.00785,-0.014486,59.742218,31.058197,-145.746094,,,
729707136.677165,-0.711979,0.499892,-20.895958,-0.00296,-0.007278,0.991043,-0.01153,-0.012205,-0.014669,59.742218,31.058197,-145.746094,,,
729707136.679524,-0.711968,0.499925,123.014227,-0.00296,-0.007278,0.991043,-0.01153,-0.012205,-0.014669,59.742218,31.058197,-145.746094,,,
729707136.680232,-0.711979,0.499892,-20.895958,-0.00296,-0.007278,0.991043,-0.01153,-0.012205,-0.014669,59.742218,31.058197,-145.746094,,,
729707136.682763,-0.715707,0.495637,123.01077,-0.00296,-0.007278,0.991043,-0.01153,-0.012205,-0.014669,59.741531,31.230804,-145.630096,,,
729707136.684383,-0.715718,0.495604,-20.899416,-0.00296,-0.007278,0.991043,-0.01153,-0.012205,-0.014669,59.741531,31.230804,-145.630096,,,
729707136.686122,-0.715707,0.495637,123.01077,-0.00296,-0.007278,0.991043,-0.01153,-0.012205,-0.014669,59.741531,31.230804,-145.630096,,,
729707136.687464,-0.719727,0.491788,-20.902542,-0.006485,-0.011063,0.990387,-0.014067,-0.009115,-0.012433,59.741531,31.230804,-145.630096,,,
729707136.689447,-0.719716,0.491821,123.007628,-0.006485,-0.011063,0.990387,-0.014067,-0.009115,-0.012433,59.741531,31.230804,-145.630096,,,
729707136.690234,-0.719727,0.491788,-20.902542,-0.006485,-0.011063,0.990387,-0.014067,-0.009115,-0.012433,59.741531,31.230804,-145.630096,,,
729707136.692759,-0.724034,0.488862,123.004433,-0.006485,-0.011063,0.990387,-0.014067,-0.009115,-0.012433,59.741531,31.230804,-145.630096,,,
729707136.693813,-0.724045,0.488829,-20.90574,-0.006485,-0.011063,0.990387,-0.014067,-0.009115,-0.012433,59.741531,31.230804,-145.630096,,,
729707136.696095,-0.724034,0.488862,123.004433,-0.006485,-0.011063,0.990387,-0.014067,-0.009115,-0.012433,59.741531,31.230804,-145.630096,,,
729707136.697666,-0.727566,0.486457,-20.909008,-0.004745,-0.011032,0.994202,-0.010427,-0.001628,-0.012841,59.741531,31.230804,-145.630096,,,
729707136.699446,-0.727555,0.486491,123.001167,-0.004745,-0.011032,0.994202,-0.010427,-0.001628,-0.012841,59.741531,31.230804,-145.630096,,,
729707136.700235,-0.727566,0.486457,-20.909008,-0.004745,-0.011032,0.994202,-0.010427,-0.001628,-0.012841,59.741531,31.230804,-145.630096,,,
729707136.70276,-0.731063,0.486035,122.997565,-0.004745,-0.011032,0.994202,-0.010427,-0.001628,-0.012841,59.741531,31.230804,-145.630096,,,
729707136.703565,-0.731073,0.486002,-20.912613,-0.004745,-0.011032,0.994202,-0.010427,-0.001628,-0.012841,59.741531,31.230804,-145.630096,,,
729707136.706084,-0.731063,0.486035,122.997565,-0.004745,-0.011032,0.994202,-0.010427,-0.001628,-0.012841,59.741531,31.230804,-145.630096,,,
729707136.708592,-0.734738,0.486865,-20.916371,-0.003998,-0.011963,0.998978,-0.011186,0.005973,-0.013922,59.741531,31.230804,-145.630096,,,
729707136.709466,-0.734728,0.486898,122.993806,-0.003998,-0.011963,0.998978,-0.011186,0.005973,-0.013922,59.741531,31.230804,-145.630096,,,
729707136.710239,-0.734738,0.486865,-20.916371,-0.003998,-0.011963,0.998978,-0.011186,0.005973,-0.013922,59.741531,31.230804,-145.630096,,,
729707136.712765,-0.737223,0.487666,122.9901,-0.003998,-0.011963,0.998978,-0.011186,0.005973,-0.013922,59.741531,31.230804,-145.630096,,,
729707136.713968,-0.737234,0.487633,-20.920075,-0.003998,-0.011963,0.998978,-0.011186,0.005973,-0.013922,59.741531,31.230804,-145.630096,,,
729707136.716182,-0.737223,0.487666,122.9901,-0.003998,-0.011963,0.998978,-0.011186,0.005973,-0.013922,59.741531,31.230804,-145.630096,,,
729707136.717209,-0.740702,0.489392,-20.923696,-0.008133,-0.012894,0.998993,-0.012956,0.006918,-0.013429,59.741531,31.230804,-145.630096,,,
729707136.719453,-0.740691,0.489425,122.986478,-0.008133,-0.012894,0.998993,-0.012956,0.006918,-0.013429,59.741531,31.230804,-145.630096,,,
729707136.720237,-0.740702,0.489392,-20.923696,-0.008133,-0.012894,0.998993,-0.012956,0.006918,-0.013429,59.741531,31.230804,-145.630096,,,
729707136.722756,-0.743712,0.49007,122.982678,-0.008133,-0.012894,0.998993,-0.012956,0.006918,-0.013429,59.591949,31.231476,-145.454208,,,
729707136.724282,-0.743723,0.490036,-20.927498,-0.008133,-0.012894,0.998993,-0.012956,0.006918,-0.013429,59.591949,31.231476,-145.454208,,,
729707136.726115,-0.743712,0.49007,122.982678,-0.008133,-0.012894,0.998993,-0.012956,0.006918,-0.013429,59.591949,31.231476,-145.454208,,,
729707136.727492,-0.747685,0.492818,-20.931518,-0.014252,-0.012924,0.999954,-0.012242,0.013857,-0.015079,59.591949,31.231476,-145.454208,,,
729707136.72951,-0.747675,0.492851,122.97866,-0.014252,-0.012924,0.999954,-0.012242,0.013857,-0.015079,59.591949,31.231476,-145.454208,,,
729707136.730228,-0.747685,0.492818,-20.931518,-0.014252,-0.012924,0.999954,-0.012242,0.013857,-0.015079,59.591949,31.231476,-145.454208,,,
729707136.732759,-0.75018,0.49502,122.974899,-0.014252,-0.012924,0.999954,-0.012242,0.013857,-0.015079,59.591949,31.231476,-145.454208,,,
729707136.733846,-0.750191,0.494986,-20.935286,-0.014252,-0.012924,0.999954,-0.012242,0.013857,-0.015079,59.591949,31.231476,-145.454208,,,
729707136.736111,-0.75018,0.49502,122.974899,-0.014252,-0.012924,0.999954,-0.012242,0.013857,-0.015079,59.591949,31.231476,-145.454208,,,
729707136.737704,-0.754096,0.498058,-20.938646,-0.017609,-0.014709,1.000748,-0.013334,0.013108,-0.012355,59.591949,31.231476,-145.454208,,,
729707136.73943,-0.754085,0.498091,122.971539,-0.017609,-0.014709,1.000748,-0.013334,0.013108,-0.012355,59.591949,31.231476,-145.454208,,,
729707136.740257,-0.754096,0.498058,-20.938646,-0.017609,-0.014709,1.000748,-0.013334,0.013108,-0.012355,59.591949,31.231476,-145.454208,,,
729707136.742792,-0.756512,0.49943,122.969037,-0.017609,-0.014709,1.000748,-0.013334,0.013108,-0.012355,59.591949,31.231476,-145.454208,,,
729707136.743911,-0.756523,0.499397,-20.94114,-0.017609,-0.014709,1.000748,-0.013334,0.013108,-0.012355,59.591949,31.231476,-145.454208,,,
729707136.746114,-0.756512,0.49943,122.969037,-0.017609,-0.014709,1.000748,-0.013334,0.013108,-0.012355,59.591949,31.231476,-145.454208,,,
729707136.747159,-0.760006,0.501039,-20.942654,-0.021378,-0.018433,1.002884,-0.012445,0.006461,-0.005629,59.591949,31.231476,-145.454208,,,
729707136.749444,-0.759995,0.501072,122.967523,-0.021378,-0.018433,1.002884,-0.012445,0.006461,-0.005629,59.591949,31.231476,-145.454208,,,
729707136.750232,-0.760006,0.501039,-20.942654,-0.021378,-0.018433,1.002884,-0.012445,0.006461,-0.005629,59.591949,31.231476,-145.454208,,,
729707136.752759,-0.761506,0.500662,122.966599,-0.021378,-0.018433,1.002884,-0.012445,0.006461,-0.005629,59.591949,31.231476,-145.454208,,,
729707136.753567,-0.761517,0.500629,-20.943577,-0.021378,-0.018433,1.002884,-0.012445,0.006461,-0.005629,59.591949,31.231476,-145.454208,,,
729707136.756084,-0.761506,0.500662,122.966599,-0.021378,-0.018433,1.002884,-0.012445,0.006461,-0.005629,59.591949,31.231476,-145.454208,,,
729707136.758711,-0.763443,0.501298,-20.943679,-0.021652,-0.020294,1.005997,-0.004967,0.004309,5.4e-05,59.591949,31.231476,-145.454208,,,
729707136.759482,-0.763432,0.501331,122.9665,-0.021652,-0.020294,1.005997,-0.004967,0.004309,5.4e-05,59.591949,31.231476,-145.454208,,,
729707136.760242,-0.763443,0.501298,-20.943679,-0.021652,-0.020294,1.005997,-0.004967,0.004309,5.4e-05,59.591949,31.231476,-145.454208,,,
729707136.762837,-0.763824,0.501398,122.966948,-0.021652,-0.020294,1.005997,-0.004967,0.004309,5.4e-05,59.902588,31.150513,-146.135956,,,
729707136.764301,-0.763834,0.501365,-20.943234,-0.021652,-0.020294,1.005997,-0.004967,0.004309,5.4e-05,59.902588,31.150513,-146.135956,,,
729707136.766176,-0.763824,0.501398,122.966948,-0.021652,-0.020294,1.005997,-0.004967,0.004309,5.4e-05,59.902588,31.150513,-146.135956,,,
729707136.768234,-0.76373,0.502513,-20.94248,-0.018784,-0.019287,1.01088,0.002779,0.00623,0.002194,59.902588,31.150513,-146.135956,,,
729707136.769474,-0.763719,0.502547,122.967699,-0.018784,-0.019287,1.01088,0.002779,0.00623,0.002194,59.902588,31.150513,-146.135956,,,
729707136.770242,-0.76373,0.502513,-20.94248,-0.018784,-0.019287,1.01088,0.002779,0.00623,0.002194,59.902588,31.150513,-146.135956,,,
729707136.772763,-0.762033,0.503065,122.968552,-0.018784,-0.019287,1.01088,0.002779,0.00623,0.002194,59.902588,31.150513,-146.135956,,,
729707136.773571,-0.762044,0.503031,-20.941627,-0.018784,-0.019287,1.01088,0.002779,0.00623,0.002194,59.902588,31.150513,-146.135956,,,
729707136.776084,-0.762033,0.503065,122.968552,-0.018784,-0.019287,1.01088,0.002779,0.00623,0.002194,59.902588,31.150513,-146.135956,,,
729707136.778329,-0.759618,0.504608,-20.941391,-0.015076,-0.016815,1.009155,0.01165,0.009105,-0.002054,59.902588,31.150513,-146.135956,,,
729707136.779461,-0.759607,0.504641,122.968787,-0.015076,-0.016815,1.009155,0.01165,0.009105,-0.002054,59.902588,31.150513,-146.135956,,,
729707136.780252,-0.759618,0.504608,-20.941391,-0.015076,-0.016815,1.009155,0.01165,0.009105,-0.002054,59.902588,31.150513,-146.135956,,,
729707136.782766,-0.755878,0.505244,122.969156,-0.015076,-0.016815,1.009155,0.01165,0.009105,-0.002054,59.902588,31.150513,-146.135956,,,
729707136.783986,-0.755889,0.50521,-20.941015,-0.015076,-0.016815,1.009155,0.01165,0.009105,-0.002054,59.902588,31.150513,-146.135956,,,
729707136.786099,-0.755878,0.505244,122.969156,-0.015076,-0.016815,1.009155,0.01165,0.009105,-0.002054,59.902588,31.150513,-146.135956,,,
729707136.789154,-0.751587,0.506195,-20.94032,-0.013351,-0.016479,1.007416,0.01754,0.004205,0.000134,59.902588,31.150513,-146.135956,,,
729707136.78948,-0.751576,0.506228,122.969851,-0.013351,-0.016479,1.007416,0.01754,0.004205,0.000134,59.902588,31.150513,-146.135956,,,
729707136.790358,-0.751587,0.506195,-20.94032,-0.013351,-0.016479,1.007416,0.01754,0.004205,0.000134,59.902588,31.150513,-146.135956,,,
729707136.79276,-0.746295,0.505886,122.970219,-0.013351,-0.016479,1.007416,0.01754,0.004205,0.000134,59.902588,31.150513,-146.135956,,,
729707136.793578,-0.746306,0.505853,-20.939952,-0.013351,-0.016479,1.007416,0.01754,0.004205,0.000134,59.902588,31.150513,-146.135956,,,
729707136.796112,-0.746295,0.505886,122.970219,-0.013351,-0.016479,1.007416,0.01754,0.004205,0.000134,59.902588,31.150513,-146.135956,,,
729707136.799204,-0.741896,0.506375,-20.93993,-0.008591,-0.012589,1.002182,0.01319,0.004323,-0.002358,59.902588,31.150513,-146.135956,,,
729707136.799505,-0.741885,0.506408,122.97024,-0.008591,-0.012589,1.002182,0.01319,0.004323,-0.002358,59.902588,31.150513,-146.135956,,,
729707136.800248,-0.741896,0.506375,-20.93993,-0.008591,-0.012589,1.002182,0.01319,0.004323,-0.002358,59.902588,31.150513,-146.135956,,,
729707136.802761,-0.738225,0.508047,122.970438,-0.008591,-0.012589,1.002182,0.01319,0.004323,-0.002358,59.902588,31.150513,-146.135956,,,
729707136.803585,-0.738236,0.508014,-20.939737,-0.008591,-0.012589,1.002182,0.01319,0.004323,-0.002358,59.902588,31.150513,-146.135956,,,
729707136.806091,-0.738225,0.508047,122.970438,-0.008591,-0.012589,1.002182,0.01319,0.004323,-0.002358,59.757568,31.1427,-145.661285,,,
729707136.80835,-0.73473,0.509916,-20.939673,-0.004517,-0.009689,1.003174,0.012543,0.009833,-0.003242,59.757568,31.1427,-145.661285,,,
729707136.809455,-0.73472,0.50995,122.970504,-0.004517,-0.009689,1.003174,0.012543,0.009833,-0.003242,59.757568,31.1427,-145.661285,,,
729707136.810237,-0.73473,0.509916,-20.939673,-0.004517,-0.009689,1.003174,0.012543,0.009833,-0.003242,59.757568,31.1427,-145.661285,,,
729707136.812772,-0.731492,0.513629,122.969716,-0.004517,-0.009689,1.003174,0.012543,0.009833,-0.003242,59.757568,31.1427,-145.661285,,,
729707136.813604,-0.731503,0.513596,-20.940462,-0.004517,-0.009689,1.003174,0.012543,0.009833,-0.003242,59.757568,31.1427,-145.661285,,,
729707136.81612,-0.731492,0.513629,122.969716,-0.004517,-0.009689,1.003174,0.012543,0.009833,-0.003242,59.757568,31.1427,-145.661285,,,
729707136.817746,-0.729224,0.515063,-20.94173,-0.001511,-0.009949,0.997635,0.00516,0.00604,-0.006514,59.757568,31.1427,-145.661285,,,
729707136.819468,-0.729213,0.515096,122.968451,-0.001511,-0.009949,0.997635,0.00516,0.00604,-0.006514,59.757568,31.1427,-145.661285,,,
729707136.820252,-0.729224,0.515063,-20.94173,-0.001511,-0.009949,0.997635,0.00516,0.00604,-0.006514,59.757568,31.1427,-145.661285,,,
729707136.822756,-0.729912,0.518508,122.966404,-0.001511,-0.009949,0.997635,0.00516,0.00604,-0.006514,59.757568,31.1427,-145.661285,,,
729707136.823597,-0.729923,0.518475,-20.943776,-0.001511,-0.009949,0.997635,0.00516,0.00604,-0.006514,59.757568,31.1427,-145.661285,,,
729707136.826083,-0.729912,0.518508,122.966404,-0.001511,-0.009949,0.997635,0.00516,0.00604,-0.006514,59.757568,31.1427,-145.661285,,,
729707136.828909,-0.732139,0.519126,-20.946641,-0.001877,-0.007706,0.990219,-0.010952,0.004368,-0.01215,59.757568,31.1427,-145.661285,,,
729707136.829466,-0.732128,0.519159,122.963538,-0.001877,-0.007706,0.990219,-0.010952,0.004368,-0.01215,59.757568,31.1427,-145.661285,,,
729707136.830257,-0.732139,0.519126,-20.946641,-0.001877,-0.007706,0.990219,-0.010952,0.004368,-0.01215,59.757568,31.1427,-145.661285,,,
729707136.832761,-0.737225,0.522629,122.960745,-0.001877,-0.007706,0.990219,-0.010952,0.004368,-0.01215,59.757568,31.1427,-145.661285,,,
729707136.833984,-0.737235,0.522595,-20.949433,-0.001877,-0.007706,0.990219,-0.010952,0.004368,-0.01215,59.757568,31.1427,-145.661285,,,
729707136.836126,-0.737225,0.522629,122.960745,-0.001877,-0.007706,0.990219,-0.010952,0.004368,-0.01215,59.757568,31.1427,-145.661285,,,
729707136.838295,-0.737235,0.522014,-20.952136,-0.001938,-0.006943,0.990417,-0.016842,-0.001808,-0.011326,59.757568,31.1427,-145.661285,,,
729707136.839458,-0.741777,0.522047,122.958039,-0.001938,-0.006943,0.990417,-0.016842,-0.001808,-0.011326,59.757568,31.1427,-145.661285,,,
729707136.840265,-0.741788,0.522014,-20.952136,-0.001938,-0.006943,0.990417,-0.016842,-0.001808,-0.011326,59.757568,31.1427,-145.661285,,,
729707136.842751,-0.748873,0.523087,122.955632,-0.001938,-0.006943,0.990417,-0.016842,-0.001808,-0.011326,59.757568,31.1427,-145.661285,,,
729707136.843956,-0.748884,0.523054,-20.954544,-0.001938,-0.006943,0.990417,-0.016842,-0.001808,-0.011326,59.757568,31.1427,-145.661285,,,
729707136.846117,-0.748873,0.523087,122.955632,-0.001938,-0.006943,0.990417,-0.016842,-0.001808,-0.011326,59.780884,30.933212,-145.607758,,,
729707136.848124,-0.748884,0.520538,-20.95646,-0.000565,-0.011642,0.991547,-0.024697,-0.008118,-0.007709,59.780884,30.933212,-145.607758,,,
729707136.849442,-0.755889,0.520571,122.953714,-0.000565,-0.011642,0.991547,-0.024697,-0.008118,-0.007709,59.780884,30.933212,-145.607758,,,
729707136.850606,-0.755899,0.520538,-20.95646,-0.000565,-0.011642,0.991547,-0.024697,-0.008118,-0.007709,59.780884,30.933212,-145.607758,,,
729707136.852763,-0.764141,0.518623,122.952128,-0.000565,-0.011642,0.991547,-0.024697,-0.008118,-0.007709,59.780884,30.933212,-145.607758,,,
729707136.853573,-0.764152,0.51859,-20.958047,-0.000565,-0.011642,0.991547,-0.024697,-0.008118,-0.007709,59.780884,30.933212,-145.607758,,,
729707136.856088,-0.764141,0.518623,122.952128,-0.000565,-0.011642,0.991547,-0.024697,-0.008118,-0.007709,59.780884,30.933212,-145.607758,,,
729707136.856911,-0.764152,0.51859,-20.959775,-0.002182,-0.014267,0.99411,-0.021529,-0.013147,-0.008508,59.780884,30.933212,-145.607758,,,
729707136.859416,-0.77106,0.514263,122.950402,-0.002182,-0.014267,0.99411,-0.021529,-0.013147,-0.008508,59.780884,30.933212,-145.607758,,,
729707136.860875,-0.771071,0.51423,-20.959775,-0.002182,-0.014267,0.99411,-0.021529,-0.013147,-0.008508,59.780884,30.933212,-145.607758,,,
729707136.862845,-0.777694,0.510284,122.948389,-0.002182,-0.014267,0.99411,-0.021529,-0.013147,-0.008508,59.780884,30.933212,-145.607758,,,
729707136.863948,-0.777704,0.510251,-20.961786,-0.002182,-0.014267,0.99411,-0.021529,-0.013147,-0.008508,59.780884,30.933212,-145.607758,,,
729707136.866098,-0.777694,0.510284,122.948389,-0.002182,-0.014267,0.99411,-0.021529,-0.013147,-0.008508,59.780884,30.933212,-145.607758,,,
729707136.867881,-0.783793,0.503627,-20.964393,-0.000961,-0.01326,0.996368,-0.021805,-0.022121,-0.012568,59.780884,30.933212,-145.607758,,,
729707136.869519,-0.783782,0.50366,122.945785,-0.000961,-0.01326,0.996368,-0.021805,-0.022121,-0.012568,59.780884,30.933212,-145.607758,,,
729707136.870248,-0.783793,0.503627,-20.964393,-0.000961,-0.01326,0.996368,-0.021805,-0.022121,-0.012568,59.780884,30.933212,-145.607758,,,
729707136.872768,-0.790452,0.496373,122.942575,-0.000961,-0.01326,0.996368,-0.021805,-0.022121,-0.012568,59.780884,30.933212,-145.607758,,,
729707136.874232,-0.790463,0.49634,-20.967601,-0.000961,-0.01326,0.996368,-0.021805,-0.022121,-0.012568,59.780884,30.933212,-145.607758,,,
729707136.87609,-0.790452,0.496373,122.942575,-0.000961,-0.01326,0.996368,-0.021805,-0.022121,-0.012568,59.780884,30.933212,-145.607758,,,
729707136.877437,-0.790463,0.49634,-20.971733,-0.000961,-0.01326,0.996368,-0.023562,-0.025801,-0.018955,59.780884,30.933212,-145.607758,,,
729707136.879442,-0.797199,0.488143,122.938448,0.000137,-0.010223,0.997742,-0.023562,-0.025801,-0.018955,59.780884,30.933212,-145.607758,,,
729707136.882165,-0.79721,0.48811,-20.971733,0.000137,-0.010223,0.997742,-0.023562,-0.025801,-0.018955,59.780884,30.933212,-145.607758,,,
729707136.882783,-0.804272,0.480006,122.933235,0.000137,-0.010223,0.997742,-0.023562,-0.025801,-0.018955,59.780884,30.933212,-145.607758,,,
729707136.884159,-0.804283,0.479973,-20.976949,0.000137,-0.010223,0.997742,-0.023562,-0.025801,-0.018955,59.780884,30.933212,-145.607758,,,
729707136.886097,-0.804272,0.480006,122.933235,0.000137,-0.010223,0.997742,-0.023562,-0.025801,-0.018955,59.808594,31.447372,-145.734406,,,
729707136.887652,-0.804283,0.479973,-20.982978,0.000137,-0.010223,0.997742,-0.023562,-0.025801,-0.018955,59.808594,31.447372,-145.734406,,,
729707136.889427,-0.813099,0.473009,122.92721,0.002853,-0.007828,1.000519,-0.03163,-0.021365,-0.024715,59.808594,31.447372,-145.734406,,,
729707136.891298,-0.81311,0.472976,-20.982978,0.002853,-0.007828,1.000519,-0.03163,-0.021365,-0.024715,59.808594,31.447372,-145.734406,,,
729707136.892765,-0.822151,0.465288,122.920336,0.002853,-0.007828,1.000519,-0.03163,-0.021365,-0.024715,59.808594,31.447372,-145.734406,,,
729707136.894112,-0.822162,0.465254,-20.989837,0.002853,-0.007828,1.000519,-0.03163,-0.021365,-0.024715,59.808594,31.447372,-145.734406,,,
729707136.896099,-0.822151,0.465288,122.920336,0.002853,-0.007828,1.000519,-0.03163,-0.021365,-0.024715,59.808594,31.447372,-145.734406,,,
729707136.896925,-0.822162,0.465254,-20.989837,0.002853,-0.007828,1.000519,-0.03163,-0.021365,-0.024715,59.808594,31.447372,-145.734406,,,
729707136.899442,-0.833491,0.459526,122.91399,-0.000488,-0.011414,0.996017,-0.041975,-0.016017,-0.021283,59.808594,31.447372,-145.734406,,,
729707136.902411,-0.833502,0.459493,-20.996182,-0.000488,-0.011414,0.996017,-0.041975,-0.016017,-0.021283,59.808594,31.447372,-145.734406,,,
729707136.902765,-0.845027,0.452332,122.908264,-0.000488,-0.011414,0.996017,-0.041975,-0.016017,-0.021283,59.808594,31.447372,-145.734406,,,
729707136.90423,-0.845038,0.452298,-21.001909,-0.000488,-0.011414,0.996017,-0.041975,-0.016017,-0.021283,59.808594,31.447372,-145.734406,,,
729707136.906115,-0.845027,0.452332,122.908264,-0.000488,-0.011414,0.996017,-0.041975,-0.016017,-0.021283,59.808594,31.447372,-145.734406,,,
729707136.907298,-0.845038,0.446388,-21.007302,-0.00415,-0.014206,0.997406,-0.044165,-0.019038,-0.019165,59.808594,31.447372,-145.734406,,,
729707136.909438,-0.857759,0.446421,122.90287,-0.00415,-0.014206,0.997406,-0.044165,-0.019038,-0.019165,59.808594,31.447372,-145.734406,,,
729707136.91059,-0.85777,0.446388,-21.007302,-0.00415,-0.014206,0.997406,-0.044165,-0.019038,-0.019165,59.808594,31.447372,-145.734406,,,
729707136.912791,-0.869227,0.438863,122.898377,-0.00415,-0.014206,0.997406,-0.044165,-0.019038,-0.019165,59.808594,31.447372,-145.734406,,,
729707136.914286,-0.869238,0.43883,-21.011792,-0.00415,-0.014206,0.997406,-0.044165,-0.019038,-0.019165,59.808594,31.447372,-145.734406,,,
729707136.916091,-0.869227,0.438863,122.898377,-0.00415,-0.014206,0.997406,-0.044165,-0.019038,-0.019165,59.808594,31.447372,-145.734406,,,
729707136.916911,-0.869238,0.43883,-21.011792,-0.00415,-0.014206,0.997406,-0.044165,-0.019038,-0.019165,59.808594,31.447372,-145.734406,,,
729707136.919514,-0.882866,0.433201,122.894296,-0.000946,-0.014267,0.999329,-0.047906,-0.013903,-0.016429,59.808594,31.447372,-145.734406,,,
729707136.921487,-0.882876,0.433168,-21.015871,-0.000946,-0.014267,0.999329,-0.047906,-0.013903,-0.016429,59.808594,31.447372,-145.734406,,,
729707136.92277,-0.89556,0.427319,122.889645,-0.000946,-0.014267,0.999329,-0.047906,-0.013903,-0.016429,59.808594,31.447372,-145.734406,,,
729707136.923929,-0.895571,0.427286,-21.020535,-0.000946,-0.014267,0.999329,-0.047906,-0.013903,-0.016429,59.808594,31.447372,-145.734406,,,
729707136.926093,-0.89556,0.427319,122.889645,-0.000946,-0.014267,0.999329,-0.047906,-0.013903,-0.016429,59.808594,31.447372,-145.734406,,,
729707136.92755,-0.895571,0.427286,-21.020535,-0.000946,-0.014267,0.999329,-0.047906,-0.013903,-0.016429,59.543594,31.339569,-145.518692,,,
729707136.929445,-0.909637,0.423224,122.884656,-0.001022,-0.014404,1.001144,-0.050205,-0.010894,-0.018859,59.543594,31.339569,-145.518692,,,
729707136.931081,-0.909648,0.423191,-21.025524,-0.001022,-0.014404,1.001144,-0.050205,-0.010894,-0.018859,59.543594,31.339569,-145.518692,,,
729707136.932766,-0.923759,0.41784,122.87904,-0.001022,-0.014404,1.001144,-0.050205,-0.010894,-0.018859,59.543594,31.339569,-145.518692,,,
