Time (sec),Pitch (deg),Roll (deg),Yaw(deg),X-Acceleration (g),Y-Acceleration (g),Z-Acceleration (g),Pitch Rate (deg/sec),Roll Rate (deg/sec),Yaw Rate (deg/sec),Magnetic Field in X direction (uT),Magnetic Field in Y direction (uT),Magnetic Field in Z Direction (uT),Latitude (deg),Longitude (deg),Altitude (m)
729716296.843932,-54.500981,-2.926629,-86.667795,0.025116,-0.802338,0.61969,-0.597433,0.02324,-0.043293,64.637894,61.037689,-135.876022,,,
729716296.84417,-54.500961,-2.926634,-83.590911,0.025116,-0.802338,0.61969,-0.597433,0.02324,-0.043293,64.637894,61.037689,-135.876022,,,
729716296.847122,-54.672647,-2.950949,-86.703733,0.026871,-0.811356,0.629318,-0.597433,0.02324,-0.043293,64.637894,61.037689,-135.876022,,,
729716296.847342,-54.672627,-2.950954,-83.626849,0.026871,-0.811356,0.629318,-0.597433,0.02324,-0.043293,64.637894,61.037689,-135.876022,,,
729716296.849242,-54.672647,-2.950949,-86.703733,0.026871,-0.811356,0.629318,-0.597433,0.02324,-0.043293,64.637894,61.037689,-135.876022,,,
729716296.849462,-54.672627,-2.950954,-83.626849,0.026871,-0.811356,0.629318,-0.597433,0.02324,-0.043293,64.637894,61.037689,-135.876022,,,
729716296.854164,-54.831699,-2.977234,-86.739205,0.026871,-0.811356,0.629318,-0.512613,0.007281,-0.046132,64.637894,61.037689,-135.876022,,,
729716296.854411,-54.831679,-2.977239,-83.662321,0.026871,-0.811356,0.629318,-0.512613,0.007281,-0.046132,64.637894,61.037689,-135.876022,,,
729716296.856977,-54.978856,-3.004676,-86.774499,0.029861,-0.814758,0.614426,-0.512613,0.007281,-0.046132,64.637894,61.037689,-135.876022,,,
729716296.857201,-54.978835,-3.004681,-83.697615,0.029861,-0.814758,0.614426,-0.512613,0.007281,-0.046132,64.637894,61.037689,-135.876022,,,
729716296.859242,-54.978856,-3.004676,-86.774499,0.029861,-0.814758,0.614426,-0.512613,0.007281,-0.046132,64.637894,61.037689,-135.876022,,,
729716296.859468,-54.978835,-3.004681,-83.697615,0.029861,-0.814758,0.614426,-0.512613,0.007281,-0.046132,64.637894,61.037689,-135.876022,,,
729716296.865019,-55.113972,-3.032896,-86.809653,0.029861,-0.814758,0.614426,-0.432941,-8.1e-05,-0.049005,64.637894,61.037689,-135.876022,,,
729716296.865333,-55.113952,-3.032901,-83.732768,0.029861,-0.814758,0.614426,-0.432941,-8.1e-05,-0.049005,64.637894,61.037689,-135.876022,,,
729716296.867709,-55.237656,-3.062363,-86.843569,0.031235,-0.817764,0.617203,-0.432941,-8.1e-05,-0.049005,64.748657,61.825943,-134.95755,,,
729716296.867964,-55.237635,-3.062368,-83.766685,0.031235,-0.817764,0.617203,-0.432941,-8.1e-05,-0.049005,64.748657,61.825943,-134.95755,,,
729716296.86923,-55.237656,-3.062363,-86.843569,0.031235,-0.817764,0.617203,-0.432941,-8.1e-05,-0.049005,64.748657,61.825943,-134.95755,,,
729716296.869443,-55.237635,-3.062368,-83.766685,0.031235,-0.817764,0.617203,-0.432941,-8.1e-05,-0.049005,64.748657,61.825943,-134.95755,,,
729716296.874358,-55.350973,-3.094058,-86.87518,0.031235,-0.817764,0.617203,-0.364574,-0.035097,-0.041112,64.748657,61.825943,-134.95755,,,
729716296.874815,-55.350953,-3.094063,-83.798296,0.031235,-0.817764,0.617203,-0.364574,-0.035097,-0.041112,64.748657,61.825943,-134.95755,,,
729716296.877535,-55.455472,-3.129426,-86.904658,0.020859,-0.825165,0.605896,-0.364574,-0.035097,-0.041112,64.748657,61.825943,-134.95755,,,
729716296.877807,-55.455451,-3.129431,-83.827774,0.020859,-0.825165,0.605896,-0.364574,-0.035097,-0.041112,64.748657,61.825943,-134.95755,,,
729716296.879253,-55.455472,-3.129426,-86.904658,0.020859,-0.825165,0.605896,-0.364574,-0.035097,-0.041112,64.748657,61.825943,-134.95755,,,
729716296.879459,-55.455451,-3.129431,-83.827774,0.020859,-0.825165,0.605896,-0.364574,-0.035097,-0.041112,64.748657,61.825943,-134.95755,,,
729716296.884168,-55.551971,-3.167056,-86.93012,0.020859,-0.825165,0.605896,-0.309946,-0.070989,-0.028618,64.748657,61.825943,-134.95755,,,
729716296.884404,-55.55195,-3.167061,-83.853236,0.020859,-0.825165,0.605896,-0.309946,-0.070989,-0.028618,64.748657,61.825943,-134.95755,,,
729716296.88705,-55.640631,-3.205548,-86.951323,0.013504,-0.828903,0.591934,-0.309946,-0.070989,-0.028618,64.748657,61.825943,-134.95755,,,
729716296.887281,-55.64061,-3.205553,-83.874438,0.013504,-0.828903,0.591934,-0.309946,-0.070989,-0.028618,64.748657,61.825943,-134.95755,,,
729716296.889291,-55.640631,-3.205548,-86.951323,0.013504,-0.828903,0.591934,-0.309946,-0.070989,-0.028618,64.748657,61.825943,-134.95755,,,
729716296.889496,-55.64061,-3.205553,-83.874438,0.013504,-0.828903,0.591934,-0.309946,-0.070989,-0.028618,64.748657,61.825943,-134.95755,,,
729716296.89402,-55.722149,-3.243912,-86.971006,0.013504,-0.828903,0.591934,-0.266706,-0.065849,-0.023237,64.748657,61.825943,-134.95755,,,
729716296.894256,-55.722128,-3.243917,-83.894121,0.013504,-0.828903,0.591934,-0.266706,-0.065849,-0.023237,64.748657,61.825943,-134.95755,,,
729716296.897499,-55.798549,-3.27893,-86.99008,0.019211,-0.83168,0.595139,-0.266706,-0.065849,-0.023237,64.748657,61.825943,-134.95755,,,
729716296.897792,-55.798528,-3.278935,-83.913196,0.019211,-0.83168,0.595139,-0.266706,-0.065849,-0.023237,64.748657,61.825943,-134.95755,,,
729716296.899243,-55.798549,-3.27893,-86.99008,0.019211,-0.83168,0.595139,-0.266706,-0.065849,-0.023237,64.748657,61.825943,-134.95755,,,
729716296.899468,-55.798528,-3.278935,-83.913196,0.019211,-0.83168,0.595139,-0.266706,-0.065849,-0.023237,64.748657,61.825943,-134.95755,,,
729716296.904339,-55.871756,-3.308702,-87.007538,0.019211,-0.83168,0.595139,-0.247766,-0.042061,-0.018348,64.748657,61.825943,-134.95755,,,
729716296.90463,-55.871735,-3.308707,-83.930653,0.019211,-0.83168,0.595139,-0.247766,-0.042061,-0.018348,64.748657,61.825943,-134.95755,,,
729716296.908325,-55.943162,-3.334551,-87.022464,0.030685,-0.834076,0.592255,-0.247766,-0.042061,-0.018348,64.605209,62.395233,-134.416473,,,
729716296.908829,-55.943141,-3.334555,-83.94558,0.030685,-0.834076,0.592255,-0.247766,-0.042061,-0.018348,64.605209,62.395233,-134.416473,,,
729716296.909251,-55.943162,-3.334551,-87.022464,0.030685,-0.834076,0.592255,-0.247766,-0.042061,-0.018348,64.605209,62.395233,-134.416473,,,
729716296.90948,-55.943141,-3.334555,-83.94558,0.030685,-0.834076,0.592255,-0.247766,-0.042061,-0.018348,64.605209,62.395233,-134.416473,,,
729716296.915374,-56.014901,-3.356864,-87.033284,0.030685,-0.834076,0.592255,-0.25575,-0.041959,0.007421,64.605209,62.395233,-134.416473,,,
729716296.915683,-56.088135,-3.372379,-83.959562,0.030685,-0.834076,0.592255,-0.25575,-0.041959,0.007421,64.605209,62.395233,-134.416473,,,
729716296.916248,-56.088135,-3.372379,-83.959562,0.024506,-0.840164,0.571716,-0.25575,-0.041959,0.007421,64.605209,62.395233,-134.416473,,,
729716296.921436,-56.088156,-3.372374,-87.036446,0.024506,-0.840164,0.571716,-0.261312,-0.021453,0.037297,64.605209,62.395233,-134.416473,,,
729716296.921684,-56.162605,-3.378882,-83.954608,0.024506,-0.840164,0.571716,-0.261312,-0.021453,0.037297,64.605209,62.395233,-134.416473,,,
729716296.923312,-56.162626,-3.378877,-87.031493,0.024506,-0.840164,0.571716,-0.261312,-0.021453,0.037297,64.605209,62.395233,-134.416473,,,
729716296.923517,-56.162605,-3.378882,-83.954608,0.024506,-0.840164,0.571716,-0.261312,-0.021453,0.037297,64.605209,62.395233,-134.416473,,,
729716296.926568,-56.238494,-3.376614,-87.020592,0.022964,-0.844254,0.56955,-0.261312,-0.021453,0.037297,64.605209,62.395233,-134.416473,,,
729716296.92679,-56.238472,-3.376619,-83.943707,0.022964,-0.844254,0.56955,-0.261312,-0.021453,0.037297,64.605209,62.395233,-134.416473,,,
729716296.929292,-56.238494,-3.376614,-87.020592,0.022964,-0.844254,0.56955,-0.261312,-0.021453,0.037297,64.605209,62.395233,-134.416473,,,
729716296.929494,-56.238472,-3.376619,-83.943707,0.022964,-0.844254,0.56955,-0.261312,-0.021453,0.037297,64.605209,62.395233,-134.416473,,,
729716296.935045,-56.315223,-3.365996,-87.005495,0.022964,-0.844254,0.56955,-0.264033,0.015463,0.045696,64.605209,62.395233,-134.416473,,,
729716296.935308,-56.315202,-3.366001,-83.928611,0.022964,-0.844254,0.56955,-0.264033,0.015463,0.045696,64.605209,62.395233,-134.416473,,,
729716296.936846,-56.392165,-3.349203,-86.98969,0.034866,-0.846619,0.578003,-0.264033,0.015463,0.045696,64.605209,62.395233,-134.416473,,,
729716296.93702,-56.392144,-3.349208,-83.912805,0.034866,-0.846619,0.578003,-0.264033,0.015463,0.045696,64.605209,62.395233,-134.416473,,,
729716296.939333,-56.392165,-3.349203,-86.98969,0.034866,-0.846619,0.578003,-0.264033,0.015463,0.045696,64.605209,62.395233,-134.416473,,,
729716296.939529,-56.392144,-3.349208,-83.912805,0.034866,-0.846619,0.578003,-0.264033,0.015463,0.045696,64.605209,62.395233,-134.416473,,,
729716296.944355,-56.468016,-3.326774,-86.974613,0.034866,-0.846619,0.578003,-0.253027,0.062221,0.039412,64.605209,62.395233,-134.416473,,,
729716296.944605,-56.467994,-3.326779,-83.897729,0.034866,-0.846619,0.578003,-0.253027,0.062221,0.039412,64.605209,62.395233,-134.416473,,,
729716296.946983,-56.541262,-3.297883,-86.96051,0.041672,-0.852951,0.582809,-0.253027,0.062221,0.039412,64.605209,62.395233,-134.416473,,,
729716296.947223,-56.54124,-3.297888,-83.883626,0.041672,-0.852951,0.582809,-0.253027,0.062221,0.039412,64.605209,62.395233,-134.416473,,,
729716296.949928,-56.541262,-3.297883,-86.96051,0.041672,-0.852951,0.582809,-0.253027,0.062221,0.039412,64.542648,62.795105,-134.044556,,,
729716296.950157,-56.54124,-3.297888,-83.883626,0.041672,-0.852951,0.582809,-0.253027,0.062221,0.039412,64.542648,62.795105,-134.044556,,,
729716296.953875,-56.610498,-3.262136,-86.947066,0.041672,-0.852951,0.582809,-0.221409,0.108878,0.035786,64.542648,62.795105,-134.044556,,,
729716296.954108,-56.610477,-3.262141,-83.870181,0.041672,-0.852951,0.582809,-0.221409,0.108878,0.035786,64.542648,62.795105,-134.044556,,,
729716296.957001,-56.6752,-3.221139,-86.933619,0.041077,-0.854538,0.59671,-0.221409,0.108878,0.035786,64.542648,62.795105,-134.044556,,,
729716296.957224,-56.675178,-3.221144,-83.856735,0.041077,-0.854538,0.59671,-0.221409,0.108878,0.035786,64.542648,62.795105,-134.044556,,,
729716296.959243,-56.6752,-3.221139,-86.933619,0.041077,-0.854538,0.59671,-0.221409,0.108878,0.035786,64.542648,62.795105,-134.044556,,,
729716296.95946,-56.675178,-3.221144,-83.856735,0.041077,-0.854538,0.59671,-0.221409,0.108878,0.035786,64.542648,62.795105,-134.044556,,,
729716296.964176,-56.734595,-3.17886,-86.920605,0.041077,-0.854538,0.59671,-0.184899,0.103782,0.034359,64.542648,62.795105,-134.044556,,,
729716296.964417,-56.734573,-3.178866,-83.84372,0.041077,-0.854538,0.59671,-0.184899,0.103782,0.034359,64.542648,62.795105,-134.044556,,,
729716296.966871,-56.788765,-3.139682,-86.908,0.036102,-0.85556,0.599258,-0.184899,0.103782,0.034359,64.542648,62.795105,-134.044556,,,
729716296.9671,-56.788743,-3.139687,-83.831115,0.036102,-0.85556,0.599258,-0.184899,0.103782,0.034359,64.542648,62.795105,-134.044556,,,
729716296.969296,-56.788765,-3.139682,-86.908,0.036102,-0.85556,0.599258,-0.184899,0.103782,0.034359,64.542648,62.795105,-134.044556,,,
729716296.969494,-56.788743,-3.139687,-83.831115,0.036102,-0.85556,0.599258,-0.184899,0.103782,0.034359,64.542648,62.795105,-134.044556,,,
729716296.974059,-56.839026,-3.107119,-86.895618,0.036102,-0.85556,0.599258,-0.163907,0.056999,0.030075,64.542648,62.795105,-134.044556,,,
729716296.974541,-56.839004,-3.107125,-83.818733,0.036102,-0.85556,0.599258,-0.163907,0.056999,0.030075,64.542648,62.795105,-134.044556,,,
729716296.97655,-56.839026,-3.107119,-86.884389,0.026413,-0.857605,0.579544,-0.163907,0.056999,0.030075,64.542648,62.795105,-134.044556,,,
729716296.976781,-56.886446,-3.082458,-83.807504,0.026413,-0.857605,0.579544,-0.163907,0.056999,0.030075,64.542648,62.795105,-134.044556,,,
729716296.979984,-56.886468,-3.082453,-86.884389,0.026413,-0.857605,0.579544,-0.163907,0.056999,0.030075,64.542648,62.795105,-134.044556,,,
729716296.980199,-56.886446,-3.082458,-83.807504,0.026413,-0.857605,0.579544,-0.163907,0.056999,0.030075,64.542648,62.795105,-134.044556,,,
729716296.984074,-56.931388,-3.064028,-86.874566,0.026413,-0.857605,0.579544,-0.143844,0.028236,0.019839,64.542648,62.795105,-134.044556,,,
729716296.984315,-56.931366,-3.064033,-83.797681,0.026413,-0.857605,0.579544,-0.143844,0.028236,0.019839,64.542648,62.795105,-134.044556,,,
729716296.986727,-56.931388,-3.051369,-86.868023,0.018051,-0.856064,0.574936,-0.143844,0.028236,0.019839,64.542648,62.795105,-134.044556,,,
729716296.986977,-56.973707,-3.051374,-83.791138,0.018051,-0.856064,0.574936,-0.143844,0.028236,0.019839,64.542648,62.795105,-134.044556,,,
729716296.990362,-56.973729,-3.051369,-86.868023,0.018051,-0.856064,0.574936,-0.143844,0.028236,0.019839,64.793381,62.705688,-133.502853,,,
729716296.990628,-56.973707,-3.051374,-83.791138,0.018051,-0.856064,0.574936,-0.143844,0.028236,0.019839,64.793381,62.705688,-133.502853,,,
729716296.994869,-57.013877,-3.044983,-86.867883,0.018051,-0.856064,0.574936,-0.133833,0.024731,-0.011423,64.793381,62.705688,-133.502853,,,
729716296.995141,-57.013855,-3.044988,-83.790998,0.018051,-0.856064,0.574936,-0.133833,0.024731,-0.011423,64.793381,62.705688,-133.502853,,,
729716296.995867,-57.013877,-3.044983,-86.867883,0.018051,-0.856064,0.574936,-0.133833,0.024731,-0.011423,64.793381,62.705688,-133.502853,,,
729716296.996131,-57.052689,-3.04495,-83.798825,0.027328,-0.847748,0.577667,-0.133833,0.024731,-0.011423,64.793381,62.705688,-133.502853,,,
729716297.000715,-57.052712,-3.044945,-86.87571,0.027328,-0.847748,0.577667,-0.133833,0.024731,-0.011423,64.793381,62.705688,-133.502853,,,
729716297.000962,-57.09047,-3.050578,-83.8148,0.027328,-0.847748,0.577667,-0.12942,0.036814,-0.041826,64.793381,62.705688,-133.502853,,,
729716297.003794,-57.090492,-3.050573,-86.891684,0.027328,-0.847748,0.577667,-0.12942,0.036814,-0.041826,64.793381,62.705688,-133.502853,,,
729716297.004024,-57.09047,-3.050578,-83.8148,0.027328,-0.847748,0.577667,-0.12942,0.036814,-0.041826,64.793381,62.705688,-133.502853,,,
729716297.0074,-57.127393,-3.060481,-86.915293,0.041351,-0.843933,0.574829,-0.12942,0.036814,-0.041826,64.793381,62.705688,-133.502853,,,
729716297.007806,-57.12737,-3.060487,-83.838408,0.041351,-0.843933,0.574829,-0.12942,0.036814,-0.041826,64.793381,62.705688,-133.502853,,,
729716297.009223,-57.127393,-3.060481,-86.915293,0.041351,-0.843933,0.574829,-0.12942,0.036814,-0.041826,64.793381,62.705688,-133.502853,,,
729716297.009458,-57.12737,-3.060487,-83.838408,0.041351,-0.843933,0.574829,-0.12942,0.036814,-0.041826,64.793381,62.705688,-133.502853,,,
729716297.014018,-57.163977,-3.073058,-86.944938,0.041351,-0.843933,0.574829,-0.132154,0.050659,-0.058648,64.793381,62.705688,-133.502853,,,
729716297.014246,-57.163955,-3.073063,-83.868053,0.041351,-0.843933,0.574829,-0.132154,0.050659,-0.058648,64.793381,62.705688,-133.502853,,,
729716297.016146,-57.163977,-3.073058,-86.944938,0.042099,-0.849503,0.571335,-0.132154,0.050659,-0.058648,64.793381,62.705688,-133.502853,,,
729716297.016356,-57.198229,-3.087805,-83.901163,0.042099,-0.849503,0.571335,-0.132154,0.050659,-0.058648,64.793381,62.705688,-133.502853,,,
729716297.020379,-57.198251,-3.0878,-86.978049,0.042099,-0.849503,0.571335,-0.132154,0.050659,-0.058648,64.793381,62.705688,-133.502853,,,
729716297.020654,-57.198229,-3.087805,-83.901163,0.042099,-0.849503,0.571335,-0.132154,0.050659,-0.058648,64.793381,62.705688,-133.502853,,,
729716297.02414,-57.236405,-3.102248,-87.00963,0.042099,-0.849503,0.571335,-0.14587,0.0319,-0.047864,64.793381,62.705688,-133.502853,,,
729716297.024388,-57.236383,-3.102253,-83.932745,0.042099,-0.849503,0.571335,-0.14587,0.0319,-0.047864,64.793381,62.705688,-133.502853,,,
729716297.026584,-57.236405,-3.102248,-87.039998,0.03511,-0.857101,0.55751,-0.14587,0.0319,-0.047864,64.793381,62.705688,-133.502853,,,
729716297.026821,-57.274176,-3.120126,-83.963113,0.03511,-0.857101,0.55751,-0.14587,0.0319,-0.047864,64.793381,62.705688,-133.502853,,,
729716297.030538,-57.274198,-3.120121,-87.039998,0.03511,-0.857101,0.55751,-0.14587,0.0319,-0.047864,64.910751,63.162048,-133.208588,,,
729716297.030796,-57.319872,-3.136947,-83.987185,0.03511,-0.857101,0.55751,-0.14587,0.0319,-0.047864,64.910751,63.162048,-133.208588,,,
729716297.034148,-57.319894,-3.136942,-87.06407,0.03511,-0.857101,0.55751,-0.178988,0.000788,-0.030328,64.910751,63.162048,-133.208588,,,
729716297.034397,-57.319872,-3.136947,-83.987185,0.03511,-0.857101,0.55751,-0.178988,0.000788,-0.030328,64.910751,63.162048,-133.208588,,,
729716297.035924,-57.319894,-3.136942,-87.06407,0.03511,-0.857101,0.55751,-0.178988,0.000788,-0.030328,64.910751,63.162048,-133.208588,,,
729716297.036155,-57.366092,-3.1563,-84.009269,0.029358,-0.858719,0.53508,-0.178988,0.000788,-0.030328,64.910751,63.162048,-133.208588,,,
729716297.040847,-57.366114,-3.156295,-87.086154,0.029358,-0.858719,0.53508,-0.178988,0.000788,-0.030328,64.910751,63.162048,-133.208588,,,
729716297.041306,-57.423006,-3.17383,-84.027769,0.029358,-0.858719,0.53508,-0.221482,1e-05,-0.021504,64.910751,63.162048,-133.208588,,,
729716297.043993,-57.423028,-3.173825,-87.104654,0.029358,-0.858719,0.53508,-0.221482,1e-05,-0.021504,64.910751,63.162048,-133.208588,,,
729716297.044252,-57.423006,-3.17383,-84.027769,0.029358,-0.858719,0.53508,-0.221482,1e-05,-0.021504,64.910751,63.162048,-133.208588,,,
729716297.046208,-57.423028,-3.173825,-87.104654,0.032669,-0.855728,0.526031,-0.221482,1e-05,-0.021504,64.910751,63.162048,-133.208588,,,
729716297.046419,-57.481621,-3.190312,-84.046065,0.032669,-0.855728,0.526031,-0.221482,1e-05,-0.021504,64.910751,63.162048,-133.208588,,,
729716297.050229,-57.481644,-3.190307,-87.12295,0.032669,-0.855728,0.526031,-0.221482,1e-05,-0.021504,64.910751,63.162048,-133.208588,,,
729716297.050445,-57.481621,-3.190312,-84.046065,0.032669,-0.855728,0.526031,-0.221482,1e-05,-0.021504,64.910751,63.162048,-133.208588,,,
729716297.054027,-57.551498,-3.20521,-87.143727,0.032669,-0.855728,0.526031,-0.26798,0.032825,-0.031585,64.910751,63.162048,-133.208588,,,
729716297.054257,-57.551475,-3.205215,-84.066842,0.032669,-0.855728,0.526031,-0.26798,0.032825,-0.031585,64.910751,63.162048,-133.208588,,,
729716297.05646,-57.551498,-3.20521,-87.143727,0.040741,-0.845352,0.526169,-0.26798,0.032825,-0.031585,64.910751,63.162048,-133.208588,,,
729716297.0567,-57.624101,-3.216139,-84.090398,0.040741,-0.845352,0.526169,-0.26798,0.032825,-0.031585,64.910751,63.162048,-133.208588,,,
729716297.060226,-57.624124,-3.216134,-87.167283,0.040741,-0.845352,0.526169,-0.26798,0.032825,-0.031585,64.910751,63.162048,-133.208588,,,
729716297.060447,-57.624101,-3.216139,-84.090398,0.040741,-0.845352,0.526169,-0.26798,0.032825,-0.031585,64.910751,63.162048,-133.208588,,,
729716297.064052,-57.706262,-3.227649,-87.198093,0.040741,-0.845352,0.526169,-0.308204,0.0738,-0.049007,64.910751,63.162048,-133.208588,,,
729716297.064292,-57.706239,-3.227655,-84.121208,0.040741,-0.845352,0.526169,-0.308204,0.0738,-0.049007,64.910751,63.162048,-133.208588,,,
729716297.065899,-57.706262,-3.227649,-87.198093,0.040741,-0.845352,0.526169,-0.308204,0.0738,-0.049007,64.910751,63.162048,-133.208588,,,
729716297.066136,-57.789165,-3.234242,-84.153857,0.055573,-0.838928,0.531891,-0.308204,0.0738,-0.049007,64.910751,63.162048,-133.208588,,,
729716297.070986,-57.789188,-3.234237,-87.230742,0.055573,-0.838928,0.531891,-0.308204,0.0738,-0.049007,64.609375,63.466812,-132.860474,,,
729716297.071224,-57.881907,-3.243815,-84.192923,0.055573,-0.838928,0.531891,-0.347692,0.094117,-0.055501,64.609375,63.466812,-132.860474,,,
729716297.074156,-57.88193,-3.24381,-87.269809,0.055573,-0.838928,0.531891,-0.347692,0.094117,-0.055501,64.609375,63.466812,-132.860474,,,
729716297.074615,-57.881907,-3.243815,-84.192923,0.055573,-0.838928,0.531891,-0.347692,0.094117,-0.055501,64.609375,63.466812,-132.860474,,,
729716297.075853,-57.88193,-3.24381,-87.269809,0.055573,-0.838928,0.531891,-0.347692,0.094117,-0.055501,64.609375,63.466812,-132.860474,,,
729716297.076187,-57.974218,-3.251563,-84.232853,0.052887,-0.84227,0.520294,-0.347692,0.094117,-0.055501,64.609375,63.466812,-132.860474,,,
729716297.080844,-57.974241,-3.251558,-87.309738,0.052887,-0.84227,0.520294,-0.347692,0.094117,-0.055501,64.609375,63.466812,-132.860474,,,
729716297.081104,-58.079767,-3.25837,-84.274217,0.052887,-0.84227,0.520294,-0.395435,0.104501,-0.055909,64.609375,63.466812,-132.860474,,,
729716297.083826,-58.07979,-3.258364,-87.351103,0.052887,-0.84227,0.520294,-0.395435,0.104501,-0.055909,64.609375,63.466812,-132.860474,,,
729716297.084058,-58.079767,-3.25837,-84.274217,0.052887,-0.84227,0.520294,-0.395435,0.104501,-0.055909,64.609375,63.466812,-132.860474,,,
729716297.085968,-58.07979,-3.258364,-87.351103,0.052887,-0.84227,0.520294,-0.395435,0.104501,-0.055909,64.609375,63.466812,-132.860474,,,
729716297.086168,-58.185127,-3.268715,-84.320259,0.046112,-0.847046,0.509171,-0.395435,0.104501,-0.055909,64.609375,63.466812,-132.860474,,,
729716297.09074,-58.18515,-3.26871,-87.397145,0.046112,-0.847046,0.509171,-0.395435,0.104501,-0.055909,64.609375,63.466812,-132.860474,,,
729716297.090996,-58.305015,-3.276751,-84.365138,0.046112,-0.847046,0.509171,-0.449898,0.10896,-0.061146,64.609375,63.466812,-132.860474,,,
729716297.09376,-58.305038,-3.276745,-87.442024,0.046112,-0.847046,0.509171,-0.449898,0.10896,-0.061146,64.609375,63.466812,-132.860474,,,
729716297.093995,-58.305015,-3.276751,-84.365138,0.046112,-0.847046,0.509171,-0.449898,0.10896,-0.061146,64.609375,63.466812,-132.860474,,,
729716297.096553,-58.305038,-3.276745,-87.442024,0.045135,-0.842056,0.498688,-0.449898,0.10896,-0.061146,64.609375,63.466812,-132.860474,,,
729716297.096791,-58.427223,-3.289532,-84.415207,0.045135,-0.842056,0.498688,-0.449898,0.10896,-0.061146,64.609375,63.466812,-132.860474,,,
729716297.100183,-58.427247,-3.289527,-87.492092,0.045135,-0.842056,0.498688,-0.449898,0.10896,-0.061146,64.609375,63.466812,-132.860474,,,
729716297.100402,-58.427223,-3.289532,-84.415207,0.045135,-0.842056,0.498688,-0.449898,0.10896,-0.061146,64.609375,63.466812,-132.860474,,,
729716297.104042,-58.562898,-3.303324,-87.545524,0.045135,-0.842056,0.498688,-0.506986,0.120162,-0.079183,64.609375,63.466812,-132.860474,,,
729716297.104278,-58.562875,-3.30333,-84.468638,0.045135,-0.842056,0.498688,-0.506986,0.120162,-0.079183,64.609375,63.466812,-132.860474,,,
729716297.105865,-58.562898,-3.303324,-87.545524,0.045135,-0.842056,0.498688,-0.506986,0.120162,-0.079183,64.609375,63.466812,-132.860474,,,
729716297.106142,-58.702752,-3.320142,-84.527635,0.046829,-0.837921,0.492508,-0.506986,0.120162,-0.079183,64.609375,63.466812,-132.860474,,,
729716297.110704,-58.702775,-3.320137,-87.604521,0.046829,-0.837921,0.492508,-0.506986,0.120162,-0.079183,64.609375,63.466812,-132.860474,,,
729716297.11101,-58.702752,-3.320142,-84.527635,0.046829,-0.837921,0.492508,-0.506986,0.120162,-0.079183,64.609375,63.466812,-132.860474,,,
729716297.114664,-58.852909,-3.340565,-87.669714,0.046829,-0.837921,0.492508,-0.550439,0.129333,-0.099903,64.620667,64.054214,-131.737335,,,
729716297.114969,-58.852885,-3.340571,-84.592828,0.046829,-0.837921,0.492508,-0.550439,0.129333,-0.099903,64.620667,64.054214,-131.737335,,,
729716297.115857,-58.852909,-3.340565,-87.669714,0.046829,-0.837921,0.492508,-0.550439,0.129333,-0.099903,64.620667,64.054214,-131.737335,,,
729716297.116111,-59.009695,-3.366036,-84.664675,0.046234,-0.837585,0.491364,-0.550439,0.129333,-0.099903,64.620667,64.054214,-131.737335,,,
729716297.120202,-59.009719,-3.366031,-87.741561,0.046234,-0.837585,0.491364,-0.550439,0.129333,-0.099903,64.620667,64.054214,-131.737335,,,
729716297.12042,-59.009695,-3.366036,-84.664675,0.046234,-0.837585,0.491364,-0.550439,0.129333,-0.099903,64.620667,64.054214,-131.737335,,,
729716297.123931,-59.172414,-3.397793,-87.820585,0.046234,-0.837585,0.491364,-0.592812,0.126369,-0.118848,64.620667,64.054214,-131.737335,,,
729716297.124162,-59.17239,-3.397798,-84.743699,0.046234,-0.837585,0.491364,-0.592812,0.126369,-0.118848,64.620667,64.054214,-131.737335,,,
729716297.125884,-59.172414,-3.397793,-87.820585,0.046234,-0.837585,0.491364,-0.592812,0.126369,-0.118848,64.620667,64.054214,-131.737335,,,
729716297.126103,-59.340822,-3.436657,-84.830207,0.04512,-0.83989,0.484512,-0.592812,0.126369,-0.118848,64.620667,64.054214,-131.737335,,,
729716297.130411,-59.340846,-3.436652,-87.907093,0.04512,-0.83989,0.484512,-0.592812,0.126369,-0.118848,64.620667,64.054214,-131.737335,,,
729716297.130629,-59.340822,-3.436657,-84.830207,0.04512,-0.83989,0.484512,-0.592812,0.126369,-0.118848,64.620667,64.054214,-131.737335,,,
729716297.133986,-59.513506,-3.481403,-87.999007,0.04512,-0.83989,0.484512,-0.620977,0.118442,-0.137751,64.620667,64.054214,-131.737335,,,
729716297.134232,-59.513482,-3.481409,-84.92212,0.04512,-0.83989,0.484512,-0.620977,0.118442,-0.137751,64.620667,64.054214,-131.737335,,,
729716297.13599,-59.513506,-3.481403,-87.999007,0.04512,-0.83989,0.484512,-0.620977,0.118442,-0.137751,64.620667,64.054214,-131.737335,,,
729716297.136182,-59.689302,-3.53309,-85.020261,0.043198,-0.840942,0.484787,-0.620977,0.118442,-0.137751,64.620667,64.054214,-131.737335,,,
729716297.140693,-59.689327,-3.533085,-88.097148,0.043198,-0.840942,0.484787,-0.620977,0.118442,-0.137751,64.620667,64.054214,-131.737335,,,
729716297.141333,-59.868554,-3.592755,-85.124505,0.043198,-0.840942,0.484787,-0.650792,0.097791,-0.153751,64.620667,64.054214,-131.737335,,,
729716297.144138,-59.868579,-3.592749,-88.201392,0.043198,-0.840942,0.484787,-0.650792,0.097791,-0.153751,64.620667,64.054214,-131.737335,,,
729716297.144399,-59.868554,-3.592755,-85.124505,0.043198,-0.840942,0.484787,-0.650792,0.097791,-0.153751,64.620667,64.054214,-131.737335,,,
729716297.145959,-59.868579,-3.592749,-88.201392,0.043198,-0.840942,0.484787,-0.650792,0.097791,-0.153751,64.620667,64.054214,-131.737335,,,
729716297.14624,-60.051555,-3.660525,-85.234056,0.038422,-0.842438,0.476288,-0.650792,0.097791,-0.153751,64.620667,64.054214,-131.737335,,,
729716297.150271,-60.05158,-3.66052,-88.310943,0.038422,-0.842438,0.476288,-0.650792,0.097791,-0.153751,64.620667,64.054214,-131.737335,,,
729716297.150494,-60.051555,-3.660525,-85.234056,0.038422,-0.842438,0.476288,-0.650792,0.097791,-0.153751,64.620667,64.054214,-131.737335,,,
729716297.154652,-60.23623,-3.735273,-88.42533,0.038422,-0.842438,0.476288,-0.660645,0.080721,-0.163105,64.462219,64.886932,-130.742477,,,
729716297.154905,-60.236205,-3.735278,-85.348444,0.038422,-0.842438,0.476288,-0.660645,0.080721,-0.163105,64.462219,64.886932,-130.742477,,,
729716297.1559,-60.23623,-3.735273,-88.42533,0.038422,-0.842438,0.476288,-0.660645,0.080721,-0.163105,64.462219,64.886932,-130.742477,,,
729716297.156196,-60.236205,-3.816361,-85.466663,0.032639,-0.846756,0.477341,-0.660645,0.080721,-0.163105,64.462219,64.886932,-130.742477,,,
729716297.160632,-60.421996,-3.816356,-88.54355,0.032639,-0.846756,0.477341,-0.660645,0.080721,-0.163105,64.462219,64.886932,-130.742477,,,
729716297.160896,-60.42197,-3.816361,-85.466663,0.032639,-0.846756,0.477341,-0.660645,0.080721,-0.163105,64.462219,64.886932,-130.742477,,,
729716297.163947,-60.608837,-3.905045,-88.666413,0.032639,-0.846756,0.477341,-0.666689,0.053119,-0.170798,64.462219,64.886932,-130.742477,,,
729716297.164183,-60.608811,-3.90505,-85.589526,0.032639,-0.846756,0.477341,-0.666689,0.053119,-0.170798,64.462219,64.886932,-130.742477,,,
729716297.165914,-60.608837,-3.905045,-88.666413,0.032639,-0.846756,0.477341,-0.666689,0.053119,-0.170798,64.462219,64.886932,-130.742477,,,
729716297.166108,-60.608811,-3.90505,-85.589526,0.032639,-0.846756,0.477341,-0.666689,0.053119,-0.170798,64.462219,64.886932,-130.742477,,,
729716297.170393,-60.796212,-4.001362,-88.793438,0.030273,-0.849304,0.474518,-0.666689,0.053119,-0.170798,64.462219,64.886932,-130.742477,,,
729716297.170613,-60.796186,-4.001367,-85.716551,0.030273,-0.849304,0.474518,-0.666689,0.053119,-0.170798,64.462219,64.886932,-130.742477,,,
729716297.173926,-60.98372,-4.105603,-88.923535,0.030273,-0.849304,0.474518,-0.666457,0.020344,-0.178144,64.462219,64.886932,-130.742477,,,
729716297.174434,-60.983694,-4.105608,-85.846648,0.030273,-0.849304,0.474518,-0.666457,0.020344,-0.178144,64.462219,64.886932,-130.742477,,,
729716297.175934,-60.98372,-4.105603,-88.923535,0.030273,-0.849304,0.474518,-0.666457,0.020344,-0.178144,64.462219,64.886932,-130.742477,,,
729716297.176161,-60.983694,-4.21772,-85.979987,0.024994,-0.852509,0.464981,-0.666457,0.020344,-0.178144,64.462219,64.886932,-130.742477,,,
729716297.180795,-61.171203,-4.217715,-89.056874,0.024994,-0.852509,0.464981,-0.666457,0.020344,-0.178144,64.462219,64.886932,-130.742477,,,
729716297.181083,-61.171177,-4.21772,-86.115997,0.024994,-0.852509,0.464981,-0.666457,0.020344,-0.178144,64.462219,64.886932,-130.742477,,,
729716297.18375,-61.357855,-4.334101,-89.192885,0.024994,-0.852509,0.464981,-0.662618,0.012031,-0.184879,64.462219,64.886932,-130.742477,,,
729716297.183993,-61.357828,-4.334106,-86.115997,0.024994,-0.852509,0.464981,-0.662618,0.012031,-0.184879,64.462219,64.886932,-130.742477,,,
729716297.185901,-61.357855,-4.334101,-89.192885,0.024994,-0.852509,0.464981,-0.662618,0.012031,-0.184879,64.462219,64.886932,-130.742477,,,
729716297.186112,-61.543795,-4.45445,-86.256082,0.024124,-0.859406,0.464035,-0.662618,0.012031,-0.184879,64.462219,64.886932,-130.742477,,,
729716297.190527,-61.543821,-4.454444,-89.332969,0.024124,-0.859406,0.464035,-0.662618,0.012031,-0.184879,64.462219,64.886932,-130.742477,,,
729716297.190752,-61.543795,-4.45445,-86.256082,0.024124,-0.859406,0.464035,-0.662618,0.012031,-0.184879,64.462219,64.886932,-130.742477,,,
729716297.194387,-61.729769,-4.578601,-89.477231,0.024124,-0.859406,0.464035,-0.664484,0.018042,-0.190074,64.283569,65.585129,-129.475876,,,
729716297.19463,-61.729742,-4.578606,-86.400343,0.024124,-0.859406,0.464035,-0.664484,0.018042,-0.190074,64.283569,65.585129,-129.475876,,,
729716297.195812,-61.729769,-4.578601,-89.477231,0.024124,-0.859406,0.464035,-0.664484,0.018042,-0.190074,64.283569,65.585129,-129.475876,,,
729716297.196214,-61.729742,-4.578606,-86.400343,0.029541,-0.85965,0.463791,-0.664484,0.018042,-0.190074,64.283569,65.585129,-129.475876,,,
729716297.200555,-61.916067,-4.702243,-89.62254,0.029541,-0.85965,0.463791,-0.664484,0.018042,-0.190074,64.283569,65.585129,-129.475876,,,
729716297.200797,-61.91604,-4.702248,-86.545652,0.029541,-0.85965,0.463791,-0.664484,0.018042,-0.190074,64.283569,65.585129,-129.475876,,,
729716297.203795,-62.102151,-4.822246,-89.766954,0.029541,-0.85965,0.463791,-0.664484,0.041737,-0.177074,64.283569,65.585129,-129.475876,,,
729716297.204027,-62.102124,-4.822251,-86.690066,0.029541,-0.85965,0.463791,-0.664484,0.041737,-0.177074,64.283569,65.585129,-129.475876,,,
729716297.205991,-62.102151,-4.822246,-89.766954,0.029541,-0.85965,0.463791,-0.664484,0.041737,-0.177074,64.283569,65.585129,-129.475876,,,
729716297.206269,-62.287705,-4.936774,-86.832132,0.028564,-0.862473,0.459396,-0.664484,0.041737,-0.177074,64.283569,65.585129,-129.475876,,,
729716297.210455,-62.287732,-4.936769,-89.909021,0.028564,-0.862473,0.459396,-0.664484,0.041737,-0.177074,64.283569,65.585129,-129.475876,,,
729716297.210701,-62.287705,-4.936774,-86.832132,0.028564,-0.862473,0.459396,-0.664484,0.041737,-0.177074,64.283569,65.585129,-129.475876,,,
729716297.213824,-62.472861,-5.044425,-90.047169,0.028564,-0.862473,0.459396,-0.659002,0.062126,-0.154693,64.283569,65.585129,-129.475876,,,
729716297.214062,-62.472833,-5.04443,-86.970281,0.028564,-0.862473,0.459396,-0.659002,0.062126,-0.154693,64.283569,65.585129,-129.475876,,,
729716297.21591,-62.472861,-5.044425,-90.047169,0.028564,-0.862473,0.459396,-0.659002,0.062126,-0.154693,64.283569,65.585129,-129.475876,,,
729716297.216174,-62.472833,-5.04443,-86.970281,0.028564,-0.862473,0.459396,-0.659002,0.062126,-0.154693,64.283569,65.585129,-129.475876,,,
729716297.220426,-62.657794,-5.145219,-90.180007,0.034271,-0.869354,0.460022,-0.659002,0.062126,-0.154693,64.283569,65.585129,-129.475876,,,
729716297.220646,-62.657766,-5.145224,-87.103118,0.034271,-0.869354,0.460022,-0.659002,0.062126,-0.154693,64.283569,65.585129,-129.475876,,,
729716297.223912,-62.842387,-5.239303,-90.305516,0.034271,-0.869354,0.460022,-0.652234,0.057025,-0.126566,64.283569,65.585129,-129.475876,,,
729716297.22414,-62.842359,-5.239308,-87.228627,0.034271,-0.869354,0.460022,-0.652234,0.057025,-0.126566,64.283569,65.585129,-129.475876,,,
729716297.225877,-62.842387,-5.239303,-90.305516,0.034271,-0.869354,0.460022,-0.652234,0.057025,-0.126566,64.283569,65.585129,-129.475876,,,
729716297.226211,-62.842359,-5.239308,-87.228627,0.034271,-0.869354,0.460022,-0.652234,0.057025,-0.126566,64.283569,65.585129,-129.475876,,,
729716297.230722,-63.025817,-5.326997,-90.421699,0.032272,-0.876389,0.452682,-0.652234,0.057025,-0.126566,64.283569,65.585129,-129.475876,,,
729716297.23096,-63.025788,-5.327002,-87.34481,0.032272,-0.876389,0.452682,-0.652234,0.057025,-0.126566,64.283569,65.585129,-129.475876,,,
729716297.234603,-63.206984,-5.405874,-90.52607,0.032272,-0.876389,0.452682,-0.629344,0.051699,-0.087058,64.095398,66.307724,-128.310791,,,
729716297.234854,-63.206955,-5.405879,-87.449181,0.032272,-0.876389,0.452682,-0.629344,0.051699,-0.087058,64.095398,66.307724,-128.310791,,,
729716297.235773,-63.206984,-5.405874,-90.52607,0.032272,-0.876389,0.452682,-0.629344,0.051699,-0.087058,64.095398,66.307724,-128.310791,,,
729716297.236189,-63.206955,-5.405879,-87.449181,0.032272,-0.876389,0.452682,-0.629344,0.051699,-0.087058,64.095398,66.307724,-128.310791,,,
729716297.240593,-63.384672,-5.474628,-90.618695,0.02388,-0.883667,0.454117,-0.629344,0.051699,-0.087058,64.095398,66.307724,-128.310791,,,
729716297.241027,-63.384643,-5.474633,-87.541805,0.02388,-0.883667,0.454117,-0.629344,0.051699,-0.087058,64.095398,66.307724,-128.310791,,,
729716297.243998,-63.556169,-5.533834,-90.700383,0.02388,-0.883667,0.454117,-0.577189,0.048992,-0.058581,64.095398,66.307724,-128.310791,,,
729716297.244252,-63.55614,-5.533839,-87.623494,0.02388,-0.883667,0.454117,-0.577189,0.048992,-0.058581,64.095398,66.307724,-128.310791,,,
729716297.245943,-63.556169,-5.533834,-90.700383,0.02388,-0.883667,0.454117,-0.577189,0.048992,-0.058581,64.095398,66.307724,-128.310791,,,
729716297.24618,-63.55614,-5.533839,-87.623494,0.02388,-0.883667,0.454117,-0.577189,0.048992,-0.058581,64.095398,66.307724,-128.310791,,,
729716297.250737,-63.719923,-5.585354,-90.772671,0.026581,-0.882355,0.468231,-0.577189,0.048992,-0.058581,64.095398,66.307724,-128.310791,,,
729716297.250984,-63.719894,-5.585359,-87.695781,0.026581,-0.882355,0.468231,-0.577189,0.048992,-0.058581,64.095398,66.307724,-128.310791,,,
729716297.253944,-63.87559,-5.632075,-90.838539,0.026581,-0.882355,0.468231,-0.51856,0.043896,-0.039373,64.095398,66.307724,-128.310791,,,
729716297.254175,-63.87556,-5.63208,-87.761649,0.026581,-0.882355,0.468231,-0.51856,0.043896,-0.039373,64.095398,66.307724,-128.310791,,,
729716297.255946,-63.87559,-5.632075,-90.838539,0.026581,-0.882355,0.468231,-0.51856,0.043896,-0.039373,64.095398,66.307724,-128.310791,,,
729716297.256146,-63.87556,-5.63208,-87.761649,0.026581,-0.882355,0.468231,-0.51856,0.043896,-0.039373,64.095398,66.307724,-128.310791,,,
729716297.260433,-64.023222,-5.672902,-90.897336,0.036377,-0.879517,0.470413,-0.51856,0.043896,-0.039373,64.095398,66.307724,-128.310791,,,
729716297.260658,-64.023192,-5.672907,-87.820446,0.036377,-0.879517,0.470413,-0.51856,0.043896,-0.039373,64.095398,66.307724,-128.310791,,,
729716297.263791,-64.16177,-5.706675,-90.947826,0.036377,-0.879517,0.470413,-0.456298,0.042413,-0.018467,64.095398,66.307724,-128.310791,,,
729716297.264048,-64.16174,-5.70668,-87.870936,0.036377,-0.879517,0.470413,-0.456298,0.042413,-0.018467,64.095398,66.307724,-128.310791,,,
729716297.265892,-64.16177,-5.706675,-90.947826,0.036377,-0.879517,0.470413,-0.456298,0.042413,-0.018467,64.095398,66.307724,-128.310791,,,
729716297.266168,-64.16174,-5.70668,-87.870936,0.036377,-0.879517,0.470413,-0.456298,0.042413,-0.018467,64.095398,66.307724,-128.310791,,,
729716297.270598,-64.291128,-5.73427,-90.990846,0.032852,-0.885635,0.471085,-0.456298,0.042413,-0.018467,64.095398,66.307724,-128.310791,,,
729716297.270827,-64.291098,-5.734275,-87.913956,0.032852,-0.885635,0.471085,-0.456298,0.042413,-0.018467,64.095398,66.307724,-128.310791,,,
729716297.274166,-64.410961,-5.755256,-91.025964,0.032852,-0.885635,0.471085,-0.383884,0.034654,-0.003811,64.095398,66.307724,-128.310791,,,
729716297.274595,-64.41093,-5.755261,-87.949074,0.032852,-0.885635,0.471085,-0.383884,0.034654,-0.003811,64.095398,66.307724,-128.310791,,,
729716297.27659,-64.410961,-5.755256,-91.025964,0.032852,-0.885635,0.471085,-0.383884,0.034654,-0.003811,64.158096,66.798401,-127.568726,,,
729716297.276822,-64.521476,-5.772322,-87.977611,0.038574,-0.891098,0.472641,-0.383884,0.034654,-0.003811,64.158096,66.798401,-127.568726,,,
729716297.280365,-64.521506,-5.772317,-91.054501,0.038574,-0.891098,0.472641,-0.383884,0.034654,-0.003811,64.158096,66.798401,-127.568726,,,
729716297.280593,-64.521476,-5.772322,-87.977611,0.038574,-0.891098,0.472641,-0.383884,0.034654,-0.003811,64.158096,66.798401,-127.568726,,,
729716297.28507,-64.62325,-5.789518,-91.079296,0.038574,-0.891098,0.472641,-0.327711,0.008591,0.000474,64.158096,66.798401,-127.568726,,,
729716297.285341,-64.62322,-5.789523,-88.002406,0.038574,-0.891098,0.472641,-0.327711,0.008591,0.000474,64.158096,66.798401,-127.568726,,,
729716297.285705,-64.62325,-5.789518,-91.079296,0.038574,-0.891098,0.472641,-0.327711,0.008591,0.000474,64.158096,66.798401,-127.568726,,,
729716297.286255,-64.62322,-5.789523,-88.002406,0.038574,-0.891098,0.472641,-0.327711,0.008591,0.000474,64.158096,66.798401,-127.568726,,,
729716297.290407,-64.717251,-5.807877,-91.101891,0.042725,-0.893875,0.465988,-0.327711,0.008591,0.000474,64.158096,66.798401,-127.568726,,,
729716297.29063,-64.71722,-5.807882,-88.025001,0.042725,-0.893875,0.465988,-0.327711,0.008591,0.000474,64.158096,66.798401,-127.568726,,,
729716297.295717,-64.804046,-5.828286,-91.122097,0.042725,-0.893875,0.465988,-0.275971,-0.027094,-0.001712,64.158096,66.798401,-127.568726,,,
729716297.295991,-64.804016,-5.828291,-88.045206,0.042725,-0.893875,0.465988,-0.275971,-0.027094,-0.001712,64.158096,66.798401,-127.568726,,,
729716297.300533,-64.883335,-5.854408,-91.141366,0.040909,-0.89415,0.454224,-0.275971,-0.027094,-0.001712,64.158096,66.798401,-127.568726,,,
729716297.300761,-64.883304,-5.854413,-88.064475,0.040909,-0.89415,0.454224,-0.275971,-0.027094,-0.001712,64.158096,66.798401,-127.568726,,,
729716297.303974,-64.956457,-5.887912,-91.161272,0.040909,-0.89415,0.454224,-0.234879,-0.068479,-0.010957,64.158096,66.798401,-127.568726,,,
729716297.304209,-64.956426,-5.887917,-88.084382,0.040909,-0.89415,0.454224,-0.234879,-0.068479,-0.010957,64.158096,66.798401,-127.568726,,,
729716297.305938,-64.956457,-5.887912,-91.161272,0.040909,-0.89415,0.454224,-0.234879,-0.068479,-0.010957,64.158096,66.798401,-127.568726,,,
729716297.306228,-64.956426,-5.887917,-88.084382,0.040909,-0.89415,0.454224,-0.234879,-0.068479,-0.010957,64.158096,66.798401,-127.568726,,,
729716297.310599,-65.023912,-5.928155,-91.184111,0.039078,-0.894257,0.438049,-0.234879,-0.068479,-0.010957,64.158096,66.798401,-127.568726,,,
729716297.310846,-65.023881,-5.92816,-88.107221,0.039078,-0.894257,0.438049,-0.234879,-0.068479,-0.010957,64.158096,66.798401,-127.568726,,,
729716297.313958,-65.084703,-5.973393,-91.212294,0.039078,-0.894257,0.438049,-0.19234,-0.051856,-0.032261,64.158096,66.798401,-127.568726,,,
729716297.314238,-65.084672,-5.973398,-88.135403,0.039078,-0.894257,0.438049,-0.19234,-0.051856,-0.032261,64.158096,66.798401,-127.568726,,,
729716297.316546,-65.084703,-5.973393,-91.212294,0.039078,-0.894257,0.438049,-0.19234,-0.051856,-0.032261,63.902664,67.25238,-126.504593,,,
729716297.316767,-65.138948,-6.020644,-88.168845,0.041428,-0.890549,0.447037,-0.19234,-0.051856,-0.032261,63.902664,67.25238,-126.504593,,,
729716297.32051,-65.138979,-6.020639,-91.245736,0.041428,-0.890549,0.447037,-0.19234,-0.051856,-0.032261,63.902664,67.25238,-126.504593,,,
729716297.320762,-65.138948,-6.020644,-88.168845,0.041428,-0.890549,0.447037,-0.19234,-0.051856,-0.032261,63.902664,67.25238,-126.504593,,,
729716297.323393,-65.138979,-6.020639,-91.245736,0.041428,-0.890549,0.447037,-0.157999,-0.042737,-0.039121,63.902664,67.25238,-126.504593,,,
729716297.323722,-65.18718,-6.068209,-88.205271,0.041428,-0.890549,0.447037,-0.157999,-0.042737,-0.039121,63.902664,67.25238,-126.504593,,,
729716297.327253,-65.187211,-6.068204,-91.282162,0.04834,-0.891006,0.456284,-0.157999,-0.042737,-0.039121,63.902664,67.25238,-126.504593,,,
729716297.327489,-65.231174,-6.117007,-88.243573,0.04834,-0.891006,0.456284,-0.157999,-0.042737,-0.039121,63.902664,67.25238,-126.504593,,,
729716297.330043,-65.231206,-6.117002,-91.320463,0.04834,-0.891006,0.456284,-0.157999,-0.042737,-0.039121,63.902664,67.25238,-126.504593,,,
729716297.330259,-65.231174,-6.117007,-88.243573,0.04834,-0.891006,0.456284,-0.157999,-0.042737,-0.039121,63.902664,67.25238,-126.504593,,,
729716297.33415,-65.273085,-6.165468,-91.35786,0.04834,-0.891006,0.456284,-0.147021,-0.053791,-0.034883,63.902664,67.25238,-126.504593,,,
729716297.334403,-65.273054,-6.165472,-88.280969,0.04834,-0.891006,0.456284,-0.147021,-0.053791,-0.034883,63.902664,67.25238,-126.504593,,,
729716297.335839,-65.273085,-6.165468,-91.35786,0.04834,-0.891006,0.456284,-0.147021,-0.053791,-0.034883,63.902664,67.25238,-126.504593,,,
729716297.336113,-65.273054,-6.165472,-88.280969,0.04834,-0.891006,0.456284,-0.147021,-0.053791,-0.034883,63.902664,67.25238,-126.504593,,,
729716297.341002,-65.315127,-6.212343,-91.391926,0.039169,-0.902817,0.430038,-0.147021,-0.053791,-0.034883,63.902664,67.25238,-126.504593,,,
729716297.341606,-65.358216,-6.255859,-88.345033,0.039169,-0.902817,0.430038,-0.157978,-0.045559,-0.020874,63.902664,67.25238,-126.504593,,,
729716297.343941,-65.358248,-6.255854,-91.421924,0.039169,-0.902817,0.430038,-0.157978,-0.045559,-0.020874,63.902664,67.25238,-126.504593,,,
729716297.344194,-65.358216,-6.255859,-88.345033,0.039169,-0.902817,0.430038,-0.157978,-0.045559,-0.020874,63.902664,67.25238,-126.504593,,,
729716297.345996,-65.358248,-6.255854,-91.421924,0.039169,-0.902817,0.430038,-0.157978,-0.045559,-0.020874,63.902664,67.25238,-126.504593,,,
729716297.346209,-65.358216,-6.255859,-88.345033,0.039169,-0.902817,0.430038,-0.157978,-0.045559,-0.020874,63.902664,67.25238,-126.504593,,,
729716297.350684,-65.403024,-6.292475,-91.447156,0.035416,-0.915268,0.412003,-0.157978,-0.045559,-0.020874,63.902664,67.25238,-126.504593,,,
729716297.350916,-65.402992,-6.29248,-88.370265,0.035416,-0.915268,0.412003,-0.157978,-0.045559,-0.020874,63.902664,67.25238,-126.504593,,,
729716297.35503,-65.450931,-6.319851,-91.469126,0.035416,-0.915268,0.412003,-0.185693,0.003541,-0.011845,63.902664,67.25238,-126.504593,,,
729716297.355307,-65.450899,-6.319856,-88.392235,0.035416,-0.915268,0.412003,-0.185693,0.003541,-0.011845,63.902664,67.25238,-126.504593,,,
729716297.355833,-65.450931,-6.319851,-91.469126,0.035416,-0.915268,0.412003,-0.185693,0.003541,-0.011845,63.902664,67.25238,-126.504593,,,
729716297.356164,-65.450899,-6.319856,-88.392235,0.035416,-0.915268,0.412003,-0.185693,0.003541,-0.011845,63.902664,67.25238,-126.504593,,,
729716297.360897,-65.503522,-6.337837,-91.488979,0.039734,-0.915985,0.414658,-0.185693,0.003541,-0.011845,63.906113,67.513687,-126.608429,,,
729716297.361145,-65.503491,-6.337842,-88.412088,0.039734,-0.915985,0.414658,-0.185693,0.003541,-0.011845,63.906113,67.513687,-126.608429,,,
729716297.363941,-65.562003,-6.349289,-91.508069,0.039734,-0.915985,0.414658,-0.231536,0.038939,-0.001732,63.906113,67.513687,-126.608429,,,
729716297.364178,-65.561972,-6.349294,-88.431178,0.039734,-0.915985,0.414658,-0.231536,0.038939,-0.001732,63.906113,67.513687,-126.608429,,,
729716297.365898,-65.562003,-6.349289,-91.508069,0.039734,-0.915985,0.414658,-0.231536,0.038939,-0.001732,63.906113,67.513687,-126.608429,,,
729716297.366145,-65.561972,-6.349294,-88.431178,0.039734,-0.915985,0.414658,-0.231536,0.038939,-0.001732,63.906113,67.513687,-126.608429,,,
729716297.370603,-65.62807,-6.35604,-91.526628,0.042694,-0.912888,0.399506,-0.231536,0.038939,-0.001732,63.906113,67.513687,-126.608429,,,
729716297.370841,-65.628038,-6.356044,-88.449737,0.042694,-0.912888,0.399506,-0.231536,0.038939,-0.001732,63.906113,67.513687,-126.608429,,,
729716297.37495,-65.703921,-6.358064,-91.543986,0.042694,-0.912888,0.399506,-0.297766,0.061772,0.006731,63.906113,67.513687,-126.608429,,,
729716297.375441,-65.703889,-6.358069,-88.467095,0.042694,-0.912888,0.399506,-0.297766,0.061772,0.006731,63.906113,67.513687,-126.608429,,,
729716297.375927,-65.703921,-6.358064,-91.543986,0.042694,-0.912888,0.399506,-0.297766,0.061772,0.006731,63.906113,67.513687,-126.608429,,,
729716297.376161,-65.703889,-6.358069,-88.467095,0.042694,-0.912888,0.399506,-0.297766,0.061772,0.006731,63.906113,67.513687,-126.608429,,,
729716297.380354,-65.789886,-6.356419,-91.56041,0.037552,-0.91391,0.379196,-0.297766,0.061772,0.006731,63.906113,67.513687,-126.608429,,,
729716297.380602,-65.789854,-6.356423,-88.483519,0.037552,-0.91391,0.379196,-0.297766,0.061772,0.006731,63.906113,67.513687,-126.608429,,,
729716297.38402,-65.88477,-6.350934,-91.575302,0.037552,-0.91391,0.379196,-0.361755,0.077811,0.018092,63.906113,67.513687,-126.608429,,,
729716297.384252,-65.884738,-6.350939,-88.49841,0.037552,-0.91391,0.379196,-0.361755,0.077811,0.018092,63.906113,67.513687,-126.608429,,,
729716297.385902,-65.88477,-6.350934,-91.575302,0.037552,-0.91391,0.379196,-0.361755,0.077811,0.018092,63.906113,67.513687,-126.608429,,,
729716297.38615,-65.884738,-6.350939,-88.49841,0.037552,-0.91391,0.379196,-0.361755,0.077811,0.018092,63.906113,67.513687,-126.608429,,,
729716297.390664,-65.989261,-6.342402,-91.589728,0.035568,-0.914352,0.374191,-0.361755,0.077811,0.018092,63.906113,67.513687,-126.608429,,,
729716297.390901,-65.989229,-6.342407,-88.512836,0.035568,-0.914352,0.374191,-0.361755,0.077811,0.018092,63.906113,67.513687,-126.608429,,,
729716297.393832,-66.102045,-6.331756,-91.60379,0.035568,-0.914352,0.374191,-0.414787,0.085085,0.023924,63.906113,67.513687,-126.608429,,,
729716297.394097,-66.102012,-6.331761,-88.526898,0.035568,-0.914352,0.374191,-0.414787,0.085085,0.023924,63.906113,67.513687,-126.608429,,,
729716297.395898,-66.102045,-6.331756,-91.60379,0.035568,-0.914352,0.374191,-0.414787,0.085085,0.023924,63.906113,67.513687,-126.608429,,,
729716297.396127,-66.102012,-6.331761,-88.526898,0.035568,-0.914352,0.374191,-0.414787,0.085085,0.023924,63.906113,67.513687,-126.608429,,,
729716297.400984,-66.221326,-6.320407,-91.617399,0.03688,-0.913574,0.374893,-0.414787,0.085085,0.023924,63.870819,67.945419,-125.653168,,,
729716297.401236,-66.221294,-6.320412,-88.540507,0.03688,-0.913574,0.374893,-0.414787,0.085085,0.023924,63.870819,67.945419,-125.653168,,,
729716297.403886,-66.346713,-6.309485,-91.630797,0.03688,-0.913574,0.374893,-0.451743,0.081488,0.030719,63.870819,67.945419,-125.653168,,,
729716297.404121,-66.34668,-6.30949,-88.553905,0.03688,-0.913574,0.374893,-0.451743,0.081488,0.030719,63.870819,67.945419,-125.653168,,,
729716297.405949,-66.346713,-6.309485,-91.630797,0.03688,-0.913574,0.374893,-0.451743,0.081488,0.030719,63.870819,67.945419,-125.653168,,,
729716297.406165,-66.34668,-6.30949,-88.553905,0.03688,-0.913574,0.374893,-0.451743,0.081488,0.030719,63.870819,67.945419,-125.653168,,,
729716297.410866,-66.47667,-6.299225,-91.643854,0.0336,-0.910568,0.376602,-0.451743,0.081488,0.030719,63.870819,67.945419,-125.653168,,,
729716297.411123,-66.476637,-6.29923,-88.566962,0.0336,-0.910568,0.376602,-0.451743,0.081488,0.030719,63.870819,67.945419,-125.653168,,,
729716297.413768,-66.608927,-6.291182,-91.656916,0.0336,-0.910568,0.376602,-0.461814,0.062743,0.03258,63.870819,67.945419,-125.653168,,,
729716297.413995,-66.608894,-6.291188,-88.580024,0.0336,-0.910568,0.376602,-0.461814,0.062743,0.03258,63.870819,67.945419,-125.653168,,,
729716297.415921,-66.608927,-6.291182,-91.656916,0.0336,-0.910568,0.376602,-0.461814,0.062743,0.03258,63.870819,67.945419,-125.653168,,,
729716297.416146,-66.608894,-6.291188,-88.580024,0.0336,-0.910568,0.376602,-0.461814,0.062743,0.03258,63.870819,67.945419,-125.653168,,,
729716297.420144,-66.742193,-6.287471,-91.670916,0.025604,-0.912292,0.388138,-0.461814,0.062743,0.03258,63.870819,67.945419,-125.653168,,,
729716297.420365,-66.74216,-6.287476,-88.594023,0.025604,-0.912292,0.388138,-0.461814,0.062743,0.03258,63.870819,67.945419,-125.653168,,,
729716297.423742,-66.87466,-6.28866,-91.685714,0.025604,-0.912292,0.388138,-0.454224,0.031977,0.026494,63.870819,67.945419,-125.653168,,,
729716297.424001,-66.874626,-6.288665,-88.608822,0.025604,-0.912292,0.388138,-0.454224,0.031977,0.026494,63.870819,67.945419,-125.653168,,,
729716297.425897,-66.87466,-6.28866,-91.685714,0.025604,-0.912292,0.388138,-0.454224,0.031977,0.026494,63.870819,67.945419,-125.653168,,,
729716297.426124,-66.874626,-6.288665,-88.608822,0.025604,-0.912292,0.388138,-0.454224,0.031977,0.026494,63.870819,67.945419,-125.653168,,,
729716297.430558,-67.005159,-6.295048,-91.701631,0.03093,-0.912766,0.395081,-0.454224,0.031977,0.026494,63.870819,67.945419,-125.653168,,,
729716297.430796,-67.005125,-6.295053,-88.624738,0.03093,-0.912766,0.395081,-0.454224,0.031977,0.026494,63.870819,67.945419,-125.653168,,,
729716297.434037,-67.133499,-6.307023,-91.720352,0.03093,-0.912766,0.395081,-0.440982,0.013504,0.015018,63.870819,67.945419,-125.653168,,,
729716297.434288,-67.133465,-6.307028,-88.643459,0.03093,-0.912766,0.395081,-0.440982,0.013504,0.015018,63.870819,67.945419,-125.653168,,,
729716297.435932,-67.133499,-6.307023,-91.720352,0.03093,-0.912766,0.395081,-0.440982,0.013504,0.015018,63.870819,67.945419,-125.653168,,,
729716297.436155,-67.133465,-6.307028,-88.643459,0.03093,-0.912766,0.395081,-0.440982,0.013504,0.015018,63.870819,67.945419,-125.653168,,,
729716297.440991,-67.260351,-6.325129,-91.74388,0.034805,-0.914444,0.398712,-0.440982,0.013504,0.015018,63.922623,68.599884,-124.791245,,,
729716297.441536,-67.260316,-6.325134,-88.666987,0.034805,-0.914444,0.398712,-0.440982,0.013504,0.015018,63.922623,68.599884,-124.791245,,,
729716297.445269,-67.385705,-6.34996,-91.774056,0.034805,-0.914444,0.398712,-0.429797,0.018546,-0.001468,63.922623,68.599884,-124.791245,,,
729716297.44556,-67.38567,-6.349965,-88.697163,0.034805,-0.914444,0.398712,-0.429797,0.018546,-0.001468,63.922623,68.599884,-124.791245,,,
729716297.44584,-67.385705,-6.34996,-91.774056,0.034805,-0.914444,0.398712,-0.429797,0.018546,-0.001468,63.922623,68.599884,-124.791245,,,
729716297.446108,-67.38567,-6.349965,-88.697163,0.034805,-0.914444,0.398712,-0.429797,0.018546,-0.001468,63.922623,68.599884,-124.791245,,,
729716297.450513,-67.509144,-6.378865,-91.809789,0.044571,-0.914429,0.395584,-0.429797,0.018546,-0.001468,63.922623,68.599884,-124.791245,,,
729716297.45074,-67.509109,-6.37887,-88.732896,0.044571,-0.914429,0.395584,-0.429797,0.018546,-0.001468,63.922623,68.599884,-124.791245,,,
729716297.45396,-67.63007,-6.408811,-91.848817,0.044571,-0.914429,0.395584,-0.414919,0.028792,-0.011586,63.922623,68.599884,-124.791245,,,
729716297.454206,-67.630035,-6.408817,-88.771924,0.044571,-0.914429,0.395584,-0.414919,0.028792,-0.011586,63.922623,68.599884,-124.791245,,,
729716297.45595,-67.63007,-6.408811,-91.848817,0.044571,-0.914429,0.395584,-0.414919,0.028792,-0.011586,63.922623,68.599884,-124.791245,,,
729716297.456161,-67.630035,-6.408817,-88.771924,0.044571,-0.914429,0.395584,-0.414919,0.028792,-0.011586,63.922623,68.599884,-124.791245,,,
729716297.460662,-67.748155,-6.440986,-91.891215,0.048676,-0.915649,0.401581,-0.414919,0.028792,-0.011586,63.922623,68.599884,-124.791245,,,
729716297.460893,-67.74812,-6.440991,-88.814322,0.048676,-0.915649,0.401581,-0.414919,0.028792,-0.011586,63.922623,68.599884,-124.791245,,,
729716297.463959,-67.86362,-6.477134,-91.936593,0.048676,-0.915649,0.401581,-0.401489,0.013439,-0.016438,63.922623,68.599884,-124.791245,,,
729716297.464191,-67.863585,-6.477139,-88.8597,0.048676,-0.915649,0.401581,-0.401489,0.013439,-0.016438,63.922623,68.599884,-124.791245,,,
729716297.465853,-67.86362,-6.477134,-91.936593,0.048676,-0.915649,0.401581,-0.401489,0.013439,-0.016438,63.922623,68.599884,-124.791245,,,
729716297.466136,-67.863585,-6.477139,-88.8597,0.048676,-0.915649,0.401581,-0.401489,0.013439,-0.016438,63.922623,68.599884,-124.791245,,,
729716297.470219,-67.978083,-6.518027,-91.983379,0.048218,-0.920929,0.39537,-0.401489,0.013439,-0.016438,63.922623,68.599884,-124.791245,,,
729716297.470435,-67.978047,-6.518032,-88.906485,0.048218,-0.920929,0.39537,-0.401489,0.013439,-0.016438,63.922623,68.599884,-124.791245,,,
729716297.475211,-68.092688,-6.565113,-92.032511,0.048218,-0.920929,0.39537,-0.406355,-0.014562,-0.022604,63.922623,68.599884,-124.791245,,,
729716297.475757,-68.092652,-6.565118,-88.955618,0.048218,-0.920929,0.39537,-0.406355,-0.014562,-0.022604,63.922623,68.599884,-124.791245,,,
729716297.476069,-68.092688,-6.565113,-92.032511,0.048218,-0.920929,0.39537,-0.406355,-0.014562,-0.022604,63.922623,68.599884,-124.791245,,,
729716297.476481,-68.092652,-6.565118,-88.955618,0.048218,-0.920929,0.39537,-0.406355,-0.014562,-0.022604,63.922623,68.599884,-124.791245,,,
729716297.481178,-68.208509,-6.618566,-92.085621,0.047119,-0.922775,0.371811,-0.406355,-0.014562,-0.022604,63.859039,68.949814,-123.882111,,,
729716297.48144,-68.208473,-6.618572,-89.008727,0.047119,-0.922775,0.371811,-0.406355,-0.014562,-0.022604,63.859039,68.949814,-123.882111,,,
729716297.483884,-68.32597,-6.678269,-92.143775,0.047119,-0.922775,0.371811,-0.416288,-0.018409,-0.032888,63.859039,68.949814,-123.882111,,,
729716297.48412,-68.325934,-6.678274,-89.066881,0.047119,-0.922775,0.371811,-0.416288,-0.018409,-0.032888,63.859039,68.949814,-123.882111,,,
729716297.485963,-68.32597,-6.678269,-92.143775,0.047119,-0.922775,0.371811,-0.416288,-0.018409,-0.032888,63.859039,68.949814,-123.882111,,,
729716297.486172,-68.325934,-6.678274,-89.066881,0.047119,-0.922775,0.371811,-0.416288,-0.018409,-0.032888,63.859039,68.949814,-123.882111,,,
729716297.490653,-68.444185,-6.744052,-92.206696,0.048996,-0.926941,0.367676,-0.416288,-0.018409,-0.032888,63.859039,68.949814,-123.882111,,,
729716297.490885,-68.444149,-6.744057,-89.129802,0.048996,-0.926941,0.367676,-0.416288,-0.018409,-0.032888,63.859039,68.949814,-123.882111,,,
729716297.493605,-68.563239,-6.81525,-92.274869,0.048996,-0.926941,0.367676,-0.423743,-0.022979,-0.043388,63.859039,68.949814,-123.882111,,,
729716297.493826,-68.563202,-6.815255,-89.197975,0.048996,-0.926941,0.367676,-0.423743,-0.022979,-0.043388,63.859039,68.949814,-123.882111,,,
729716297.495927,-68.563239,-6.81525,-92.274869,0.048996,-0.926941,0.367676,-0.423743,-0.022979,-0.043388,63.859039,68.949814,-123.882111,,,
729716297.496149,-68.563202,-6.815255,-89.197975,0.048996,-0.926941,0.367676,-0.423743,-0.022979,-0.043388,63.859039,68.949814,-123.882111,,,
729716297.500284,-68.683153,-6.889862,-92.347518,0.050186,-0.933105,0.369156,-0.423743,-0.022979,-0.043388,63.859039,68.949814,-123.882111,,,
729716297.500518,-68.683117,-6.889868,-89.270623,0.050186,-0.933105,0.369156,-0.423743,-0.022979,-0.043388,63.859039,68.949814,-123.882111,,,
729716297.503582,-68.802835,-6.965765,-92.422522,0.050186,-0.933105,0.369156,-0.42191,-0.016739,-0.047311,63.859039,68.949814,-123.882111,,,
729716297.503833,-68.802798,-6.96577,-89.345628,0.050186,-0.933105,0.369156,-0.42191,-0.016739,-0.047311,63.859039,68.949814,-123.882111,,,
729716297.505987,-68.802835,-6.965765,-92.422522,0.050186,-0.933105,0.369156,-0.42191,-0.016739,-0.047311,63.859039,68.949814,-123.882111,,,
729716297.506183,-68.802798,-6.96577,-89.345628,0.050186,-0.933105,0.369156,-0.42191,-0.016739,-0.047311,63.859039,68.949814,-123.882111,,,
729716297.510565,-68.921567,-7.042987,-92.499289,0.047607,-0.941498,0.372726,-0.42191,-0.016739,-0.047311,63.859039,68.949814,-123.882111,,,
729716297.510815,-68.92153,-7.042992,-89.422394,0.047607,-0.941498,0.372726,-0.42191,-0.016739,-0.047311,63.859039,68.949814,-123.882111,,,
729716297.51377,-69.039405,-7.120155,-92.575462,0.047607,-0.941498,0.372726,-0.41218,-0.019607,-0.044284,63.859039,68.949814,-123.882111,,,
729716297.513999,-69.039367,-7.12016,-89.498567,0.047607,-0.941498,0.372726,-0.41218,-0.019607,-0.044284,63.859039,68.949814,-123.882111,,,
729716297.515908,-69.039405,-7.120155,-92.575462,0.047607,-0.941498,0.372726,-0.41218,-0.019607,-0.044284,63.859039,68.949814,-123.882111,,,
729716297.516123,-69.039367,-7.12016,-89.498567,0.047607,-0.941498,0.372726,-0.41218,-0.019607,-0.044284,63.859039,68.949814,-123.882111,,,
729716297.521263,-69.155427,-7.195934,-92.649565,0.040909,-0.947617,0.370804,-0.41218,-0.019607,-0.044284,63.703003,69.232422,-123.018524,,,
729716297.521525,-69.155389,-7.195939,-89.57267,0.040909,-0.947617,0.370804,-0.41218,-0.019607,-0.044284,63.703003,69.232422,-123.018524,,,
729716297.523808,-69.268295,-7.269194,-92.721671,0.040909,-0.947617,0.370804,-0.387733,-0.012517,-0.03726,63.703003,69.232422,-123.018524,,,
729716297.524039,-69.268257,-7.269199,-89.644776,0.040909,-0.947617,0.370804,-0.387733,-0.012517,-0.03726,63.703003,69.232422,-123.018524,,,
729716297.525883,-69.268295,-7.269194,-92.721671,0.040909,-0.947617,0.370804,-0.387733,-0.012517,-0.03726,63.703003,69.232422,-123.018524,,,
729716297.526104,-69.268257,-7.269199,-89.644776,0.040909,-0.947617,0.370804,-0.387733,-0.012517,-0.03726,63.703003,69.232422,-123.018524,,,
729716297.530619,-69.376785,-7.337679,-92.790697,0.045395,-0.948013,0.37677,-0.387733,-0.012517,-0.03726,63.703003,69.232422,-123.018524,,,
729716297.530858,-69.376746,-7.337684,-89.713801,0.045395,-0.948013,0.37677,-0.387733,-0.012517,-0.03726,63.703003,69.232422,-123.018524,,,
729716297.534985,-69.478937,-7.398754,-92.855256,0.045395,-0.948013,0.37677,-0.336925,0.014944,-0.029598,63.703003,69.232422,-123.018524,,,
729716297.535252,-69.478898,-7.398759,-89.778361,0.045395,-0.948013,0.37677,-0.336925,0.014944,-0.029598,63.703003,69.232422,-123.018524,,,
729716297.535836,-69.478937,-7.398754,-92.855256,0.045395,-0.948013,0.37677,-0.336925,0.014944,-0.029598,63.703003,69.232422,-123.018524,,,
729716297.536117,-69.478898,-7.398759,-89.778361,0.045395,-0.948013,0.37677,-0.336925,0.014944,-0.029598,63.703003,69.232422,-123.018524,,,
729716297.540748,-69.574699,-7.451232,-92.914218,0.051788,-0.949799,0.395584,-0.336925,0.014944,-0.029598,63.703003,69.232422,-123.018524,,,
729716297.54123,-69.574661,-7.451237,-89.837322,0.051788,-0.949799,0.395584,-0.336925,0.014944,-0.029598,63.703003,69.232422,-123.018524,,,
729716297.544139,-69.664221,-7.494333,-92.965339,0.051788,-0.949799,0.395584,-0.296323,0.02177,-0.014141,63.703003,69.232422,-123.018524,,,
729716297.544386,-69.664182,-7.494338,-89.888443,0.051788,-0.949799,0.395584,-0.296323,0.02177,-0.014141,63.703003,69.232422,-123.018524,,,
729716297.545929,-69.664221,-7.494333,-92.965339,0.051788,-0.949799,0.395584,-0.296323,0.02177,-0.014141,63.703003,69.232422,-123.018524,,,
729716297.546153,-69.664182,-7.494338,-89.888443,0.051788,-0.949799,0.395584,-0.296323,0.02177,-0.014141,63.703003,69.232422,-123.018524,,,
729716297.550289,-69.747132,-7.52895,-93.008271,0.05249,-0.951263,0.395523,-0.296323,0.02177,-0.014141,63.703003,69.232422,-123.018524,,,
729716297.550505,-69.747093,-7.528955,-89.931375,0.05249,-0.951263,0.395523,-0.296323,0.02177,-0.014141,63.703003,69.232422,-123.018524,,,
729716297.554018,-69.823678,-7.556468,-93.043515,0.05249,-0.951263,0.395523,-0.24658,0.026125,-0.001355,63.703003,69.232422,-123.018524,,,
729716297.554261,-69.823639,-7.556473,-89.966619,0.05249,-0.951263,0.395523,-0.24658,0.026125,-0.001355,63.703003,69.232422,-123.018524,,,
729716297.555935,-69.823678,-7.556468,-93.043515,0.05249,-0.951263,0.395523,-0.24658,0.026125,-0.001355,63.703003,69.232422,-123.018524,,,
