Time (sec),Pitch (deg),Roll (deg),Yaw(deg),X-Acceleration (g),Y-Acceleration (g),Z-Acceleration (g),Pitch Rate (deg/sec),Roll Rate (deg/sec),Yaw Rate (deg/sec),Magnetic Field in X direction (uT),Magnetic Field in Y direction (uT),Magnetic Field in Z Direction (uT),Latitude (deg),Longitude (deg),Altitude (m)
729706834.124222,-1.693183,2.898275,-27.36866,-0.048599,-0.026596,0.985458,-0.014819,0.024545,-0.003186,60.791046,30.991333,-145.808334,,,
729706834.126766,-1.697582,2.903796,116.541403,-0.048599,-0.026596,0.985458,-0.014819,0.024545,-0.003186,60.791046,30.991333,-145.808334,,,
729706834.127923,-1.69759,2.903762,-27.368785,-0.048599,-0.026596,0.985458,-0.014819,0.024545,-0.003186,60.791046,30.991333,-145.808334,,,
729706834.130082,-1.702657,2.907696,116.541167,-0.053574,-0.027145,0.985519,-0.018366,0.012883,-0.004126,61.195404,30.881546,-145.882324,,,
729706834.132226,-1.702664,2.907662,-27.369019,-0.053574,-0.027145,0.985519,-0.018366,0.012883,-0.004126,61.195404,30.881546,-145.882324,,,
729706834.133503,-1.702657,2.907696,116.541167,-0.053574,-0.027145,0.985519,-0.018366,0.012883,-0.004126,61.195404,30.881546,-145.882324,,,
729706834.134222,-1.702664,2.907662,-27.369019,-0.053574,-0.027145,0.985519,-0.018366,0.012883,-0.004126,61.195404,30.881546,-145.882324,,,
729706834.136755,-1.708525,2.908975,116.540499,-0.053574,-0.027145,0.985519,-0.018366,0.012883,-0.004126,61.195404,30.881546,-145.882324,,,
729706834.137989,-1.708533,2.908941,-27.369684,-0.053574,-0.027145,0.985519,-0.018366,0.012883,-0.004126,61.195404,30.881546,-145.882324,,,
729706834.140075,-1.715779,2.907961,116.54005,-0.054276,-0.030807,0.987503,-0.02447,-0.006595,-0.003018,61.195404,30.881546,-145.882324,,,
729706834.142502,-1.715787,2.907927,-27.370136,-0.054276,-0.030807,0.987503,-0.02447,-0.006595,-0.003018,61.195404,30.881546,-145.882324,,,
729706834.143449,-1.715779,2.907961,116.54005,-0.054276,-0.030807,0.987503,-0.02447,-0.006595,-0.003018,61.195404,30.881546,-145.882324,,,
729706834.144224,-1.715787,2.907927,-27.370136,-0.054276,-0.030807,0.987503,-0.02447,-0.006595,-0.003018,61.195404,30.881546,-145.882324,,,
729706834.146734,-1.721654,2.902412,116.539965,-0.054276,-0.030807,0.987503,-0.02447,-0.006595,-0.003018,61.195404,30.881546,-145.882324,,,
729706834.147934,-1.721661,2.902378,-27.370209,-0.054276,-0.030807,0.987503,-0.02447,-0.006595,-0.003018,61.195404,30.881546,-145.882324,,,
729706834.150077,-1.728954,2.894358,116.539756,-0.055252,-0.032562,0.988068,-0.026472,-0.028891,-0.0042,61.195404,30.881546,-145.882324,,,
729706834.152174,-1.728961,2.894324,-27.370418,-0.055252,-0.032562,0.988068,-0.026472,-0.028891,-0.0042,61.195404,30.881546,-145.882324,,,
729706834.153417,-1.728954,2.894358,116.539756,-0.055252,-0.032562,0.988068,-0.026472,-0.028891,-0.0042,61.195404,30.881546,-145.882324,,,
729706834.15422,-1.728961,2.894324,-27.370418,-0.055252,-0.032562,0.988068,-0.026472,-0.028891,-0.0042,61.195404,30.881546,-145.882324,,,
729706834.156734,-1.735245,2.883944,116.538813,-0.055252,-0.032562,0.988068,-0.026472,-0.028891,-0.0042,61.195404,30.881546,-145.882324,,,
729706834.158189,-1.735252,2.883911,-27.371365,-0.055252,-0.032562,0.988068,-0.026472,-0.028891,-0.0042,61.195404,30.881546,-145.882324,,,
729706834.160075,-1.741415,2.873977,116.536829,-0.04953,-0.029068,0.996368,-0.020473,-0.031724,-0.011325,61.195404,30.881546,-145.882324,,,
729706834.162054,-1.741422,2.873943,-27.373349,-0.04953,-0.029068,0.996368,-0.020473,-0.031724,-0.011325,61.195404,30.881546,-145.882324,,,
729706834.163414,-1.741415,2.873977,116.536829,-0.04953,-0.029068,0.996368,-0.020473,-0.031724,-0.011325,61.195404,30.881546,-145.882324,,,
729706834.164215,-1.741422,2.873943,-27.373349,-0.04953,-0.029068,0.996368,-0.020473,-0.031724,-0.011325,61.195404,30.881546,-145.882324,,,
729706834.166752,-1.746818,2.864224,116.534265,-0.04953,-0.029068,0.996368,-0.020473,-0.031724,-0.011325,61.195404,30.881546,-145.882324,,,
729706834.168375,-1.746825,2.86419,-27.375914,-0.04953,-0.029068,0.996368,-0.020473,-0.031724,-0.011325,61.195404,30.881546,-145.882324,,,
729706834.170102,-1.751327,2.857588,116.531107,-0.043228,-0.029419,1.003662,-0.012932,-0.016197,-0.015288,60.960861,30.903519,-145.884003,,,
729706834.172166,-1.751335,2.857554,-27.379074,-0.043228,-0.029419,1.003662,-0.012932,-0.016197,-0.015288,60.960861,30.903519,-145.884003,,,
729706834.173412,-1.751327,2.857588,116.531107,-0.043228,-0.029419,1.003662,-0.012932,-0.016197,-0.015288,60.960861,30.903519,-145.884003,,,
729706834.174245,-1.751335,2.857554,-27.379074,-0.043228,-0.029419,1.003662,-0.012932,-0.016197,-0.015288,60.960861,30.903519,-145.884003,,,
729706834.176738,-1.755023,2.852037,116.526997,-0.043228,-0.029419,1.003662,-0.012932,-0.016197,-0.015288,60.960861,30.903519,-145.884003,,,
729706834.178206,-1.75503,2.852003,-27.383183,-0.043228,-0.029419,1.003662,-0.012932,-0.016197,-0.015288,60.960861,30.903519,-145.884003,,,
729706834.180081,-1.75791,2.851493,116.522849,-0.042068,-0.032272,1.006592,-0.00706,0.008217,-0.015573,60.960861,30.903519,-145.884003,,,
729706834.182527,-1.757917,2.851459,-27.387339,-0.042068,-0.032272,1.006592,-0.00706,0.008217,-0.015573,60.960861,30.903519,-145.884003,,,
729706834.183503,-1.75791,2.851493,116.522849,-0.042068,-0.032272,1.006592,-0.00706,0.008217,-0.015573,60.960861,30.903519,-145.884003,,,
729706834.18422,-1.757917,2.851459,-27.387339,-0.042068,-0.032272,1.006592,-0.00706,0.008217,-0.015573,60.960861,30.903519,-145.884003,,,
729706834.186819,-1.759391,2.852969,116.518877,-0.042068,-0.032272,1.006592,-0.00706,0.008217,-0.015573,60.960861,30.903519,-145.884003,,,
729706834.187567,-1.759398,2.852935,-27.391301,-0.042068,-0.032272,1.006592,-0.00706,0.008217,-0.015573,60.960861,30.903519,-145.884003,,,
729706834.190077,-1.760299,2.857814,116.515234,-0.045807,-0.032608,1.005646,-0.000431,0.023998,-0.013235,60.960861,30.903519,-145.884003,,,
729706834.192065,-1.760306,2.85778,-27.39494,-0.045807,-0.032608,1.005646,-0.000431,0.023998,-0.013235,60.960861,30.903519,-145.884003,,,
729706834.193417,-1.760299,2.857814,116.515234,-0.045807,-0.032608,1.005646,-0.000431,0.023998,-0.013235,60.960861,30.903519,-145.884003,,,
729706834.194219,-1.760306,2.85778,-27.39494,-0.045807,-0.032608,1.005646,-0.000431,0.023998,-0.013235,60.960861,30.903519,-145.884003,,,
729706834.196744,-1.760291,2.864415,116.512207,-0.045807,-0.032608,1.005646,-0.000431,0.023998,-0.013235,60.960861,30.903519,-145.884003,,,
729706834.197823,-1.760298,2.864381,-27.397968,-0.045807,-0.032608,1.005646,-0.000431,0.023998,-0.013235,60.960861,30.903519,-145.884003,,,
729706834.200078,-1.760555,2.873253,116.510265,-0.049805,-0.031509,1.003067,0.000742,0.037042,-0.005684,60.960861,30.903519,-145.884003,,,
729706834.202794,-1.760563,2.873219,-27.399905,-0.049805,-0.031509,1.003067,0.000742,0.037042,-0.005684,60.960861,30.903519,-145.884003,,,
729706834.203456,-1.760555,2.873253,116.510265,-0.049805,-0.031509,1.003067,0.000742,0.037042,-0.005684,60.960861,30.903519,-145.884003,,,
729706834.204229,-1.760563,2.873219,-27.399905,-0.049805,-0.031509,1.003067,0.000742,0.037042,-0.005684,60.960861,30.903519,-145.884003,,,
729706834.206783,-1.759862,2.883684,116.509407,-0.049805,-0.031509,1.003067,0.000742,0.037042,-0.005684,60.960861,30.903519,-145.884003,,,
729706834.207998,-1.759869,2.88365,-27.400768,-0.049805,-0.031509,1.003067,0.000742,0.037042,-0.005684,60.960861,30.903519,-145.884003,,,
729706834.210083,-1.759874,2.893228,116.509233,-0.05304,-0.031296,1.0009,-0.000209,0.032926,-0.000916,61.036072,30.85054,-145.750931,,,
729706834.213498,-1.759882,2.893194,-27.400946,-0.05304,-0.031296,1.0009,-0.000209,0.032926,-0.000916,61.036072,30.85054,-145.750931,,,
729706834.213778,-1.759874,2.893228,116.509233,-0.05304,-0.031296,1.0009,-0.000209,0.032926,-0.000916,61.036072,30.85054,-145.750931,,,
729706834.214192,-1.759882,2.893194,-27.400946,-0.05304,-0.031296,1.0009,-0.000209,0.032926,-0.000916,61.036072,30.85054,-145.750931,,,
729706834.216748,-1.759738,2.901841,116.509646,-0.05304,-0.031296,1.0009,-0.000209,0.032926,-0.000916,61.036072,30.85054,-145.750931,,,
729706834.217911,-1.759746,2.901807,-27.400534,-0.05304,-0.031296,1.0009,-0.000209,0.032926,-0.000916,61.036072,30.85054,-145.750931,,,
729706834.220093,-1.759375,2.907007,116.51015,-0.055359,-0.030029,0.996628,0.002323,0.013745,-4.4e-05,61.036072,30.85054,-145.750931,,,
729706834.222802,-1.759382,2.906973,-27.400032,-0.055359,-0.030029,0.996628,0.002323,0.013745,-4.4e-05,61.036072,30.85054,-145.750931,,,
729706834.223256,-1.759375,2.907007,116.51015,-0.055359,-0.030029,0.996628,0.002323,0.013745,-4.4e-05,61.036072,30.85054,-145.750931,,,
729706834.224256,-1.759382,2.906973,-27.400032,-0.055359,-0.030029,0.996628,0.002323,0.013745,-4.4e-05,61.036072,30.85054,-145.750931,,,
729706834.226754,-1.758804,2.90922,116.510498,-0.055359,-0.030029,0.996628,0.002323,0.013745,-4.4e-05,61.036072,30.85054,-145.750931,,,
729706834.227551,-1.758812,2.909186,-27.399678,-0.055359,-0.030029,0.996628,0.002323,0.013745,-4.4e-05,61.036072,30.85054,-145.750931,,,
729706834.230077,-1.758115,2.907516,116.510145,-0.058533,-0.029068,0.997391,0.002276,-0.008681,-0.00481,61.036072,30.85054,-145.750931,,,
729706834.231986,-1.758122,2.907482,-27.400029,-0.058533,-0.029068,0.997391,0.002276,-0.008681,-0.00481,61.036072,30.85054,-145.750931,,,
729706834.233512,-1.758115,2.907516,116.510145,-0.058533,-0.029068,0.997391,0.002276,-0.008681,-0.00481,61.036072,30.85054,-145.750931,,,
729706834.234297,-1.758122,2.907482,-27.400029,-0.058533,-0.029068,0.997391,0.002276,-0.008681,-0.00481,61.036072,30.85054,-145.750931,,,
729706834.236746,-1.757291,2.90389,116.508676,-0.058533,-0.029068,0.997391,0.002276,-0.008681,-0.00481,61.036072,30.85054,-145.750931,,,
729706834.238012,-1.757298,2.903856,-27.401507,-0.058533,-0.029068,0.997391,0.002276,-0.008681,-0.00481,61.036072,30.85054,-145.750931,,,
729706834.240084,-1.755287,2.898035,116.506238,-0.056732,-0.029404,1.000687,0.010129,-0.021146,-0.011066,61.036072,30.85054,-145.750931,,,
729706834.241583,-1.755294,2.898001,-27.403946,-0.056732,-0.029404,1.000687,0.010129,-0.021146,-0.011066,61.036072,30.85054,-145.750931,,,
729706834.24344,-1.755287,2.898035,116.506238,-0.056732,-0.029404,1.000687,0.010129,-0.021146,-0.011066,61.036072,30.85054,-145.750931,,,
729706834.244224,-1.755294,2.898001,-27.403946,-0.056732,-0.029404,1.000687,0.010129,-0.021146,-0.011066,61.036072,30.85054,-145.750931,,,
729706834.246744,-1.751208,2.889923,116.503373,-0.056732,-0.029404,1.000687,0.010129,-0.021146,-0.011066,61.036072,30.85054,-145.750931,,,
729706834.248401,-1.751215,2.889889,-27.406813,-0.056732,-0.029404,1.000687,0.010129,-0.021146,-0.011066,61.036072,30.85054,-145.750931,,,
729706834.250081,-1.746609,2.881133,116.501133,-0.053497,-0.032654,1.005219,0.015639,-0.030926,-0.006575,61.036072,30.85054,-145.750931,,,
729706834.252422,-1.746616,2.8811,-27.409046,-0.053497,-0.032654,1.005219,0.015639,-0.030926,-0.006575,61.12915,30.730118,-145.75209,,,
729706834.253422,-1.746609,2.881133,116.501133,-0.053497,-0.032654,1.005219,0.015639,-0.030926,-0.006575,61.12915,30.730118,-145.75209,,,
729706834.25425,-1.746616,2.8811,-27.409046,-0.053497,-0.032654,1.005219,0.015639,-0.030926,-0.006575,61.12915,30.730118,-145.75209,,,
729706834.256746,-1.742301,2.870559,116.499633,-0.053497,-0.032654,1.005219,0.015639,-0.030926,-0.006575,61.12915,30.730118,-145.75209,,,
729706834.258274,-1.742308,2.870525,-27.410542,-0.053497,-0.032654,1.005219,0.015639,-0.030926,-0.006575,61.12915,30.730118,-145.75209,,,
729706834.260077,-1.737496,2.861954,116.498759,-0.050354,-0.033142,1.00531,0.018638,-0.026074,-0.002344,61.12915,30.730118,-145.75209,,,
729706834.261439,-1.737504,2.861921,-27.411412,-0.050354,-0.033142,1.00531,0.018638,-0.026074,-0.002344,61.12915,30.730118,-145.75209,,,
729706834.263414,-1.737496,2.861954,116.498759,-0.050354,-0.033142,1.00531,0.018638,-0.026074,-0.002344,61.12915,30.730118,-145.75209,,,
729706834.264219,-1.737504,2.861921,-27.411412,-0.050354,-0.033142,1.00531,0.018638,-0.026074,-0.002344,61.12915,30.730118,-145.75209,,,
729706834.266744,-1.733026,2.853586,116.498834,-0.050354,-0.033142,1.00531,0.018638,-0.026074,-0.002344,61.12915,30.730118,-145.75209,,,
729706834.268207,-1.733033,2.853552,-27.411342,-0.050354,-0.033142,1.00531,0.018638,-0.026074,-0.002344,61.12915,30.730118,-145.75209,,,
729706834.270082,-1.728425,2.848611,116.499529,-0.045532,-0.028214,1.008972,0.016553,-0.010191,0.001612,61.12915,30.730118,-145.75209,,,
729706834.272374,-1.728432,2.848577,-27.410651,-0.045532,-0.028214,1.008972,0.016553,-0.010191,0.001612,61.12915,30.730118,-145.75209,,,
729706834.273449,-1.728425,2.848611,116.499529,-0.045532,-0.028214,1.008972,0.016553,-0.010191,0.001612,61.12915,30.730118,-145.75209,,,
729706834.274226,-1.728432,2.848577,-27.410651,-0.045532,-0.028214,1.008972,0.016553,-0.010191,0.001612,61.12915,30.730118,-145.75209,,,
729706834.276769,-1.72436,2.845647,116.500023,-0.045532,-0.028214,1.008972,0.016553,-0.010191,0.001612,61.12915,30.730118,-145.75209,,,
729706834.277939,-1.724367,2.845614,-27.41015,-0.045532,-0.028214,1.008972,0.016553,-0.010191,0.001612,61.12915,30.730118,-145.75209,,,
729706834.280081,-1.720393,2.844902,116.500144,-0.04068,-0.024612,1.008484,0.014662,0.003537,-0.00115,61.12915,30.730118,-145.75209,,,
729706834.283872,-1.7204,2.844868,-27.41003,-0.04068,-0.024612,1.008484,0.014662,0.003537,-0.00115,61.12915,30.730118,-145.75209,,,
729706834.28416,-1.720393,2.844902,116.500144,-0.04068,-0.024612,1.008484,0.014662,0.003537,-0.00115,61.12915,30.730118,-145.75209,,,
729706834.286737,-1.716294,2.845969,116.499409,-0.04068,-0.024612,1.008484,0.014662,0.003537,-0.00115,61.12915,30.730118,-145.75209,,,
729706834.287941,-1.716301,2.845935,-27.410768,-0.04068,-0.024612,1.008484,0.014662,0.003537,-0.00115,61.12915,30.730118,-145.75209,,,
729706834.290086,-1.710932,2.847811,116.497383,-0.041779,-0.025726,1.01059,0.022151,0.010465,-0.009703,61.12915,30.730118,-145.75209,,,
729706834.292662,-1.71094,2.847777,-27.412794,-0.041779,-0.025726,1.01059,0.022151,0.010465,-0.009703,60.869034,31.202835,-145.645279,,,
729706834.293413,-1.710932,2.847811,116.497383,-0.041779,-0.025726,1.01059,0.022151,0.010465,-0.009703,60.869034,31.202835,-145.645279,,,
729706834.294246,-1.71094,2.847777,-27.412794,-0.041779,-0.025726,1.01059,0.022151,0.010465,-0.009703,60.869034,31.202835,-145.645279,,,
729706834.296784,-1.704602,2.85071,116.495079,-0.041779,-0.025726,1.01059,0.022151,0.010465,-0.009703,60.869034,31.202835,-145.645279,,,
729706834.298099,-1.70461,2.850676,-27.415089,-0.041779,-0.025726,1.01059,0.022151,0.010465,-0.009703,60.869034,31.202835,-145.645279,,,
729706834.300077,-1.696976,2.852977,116.492626,-0.045044,-0.028519,1.007858,0.030315,0.01061,-0.010245,60.869034,31.202835,-145.645279,,,
729706834.301333,-1.696983,2.852943,-27.417541,-0.045044,-0.028519,1.007858,0.030315,0.01061,-0.010245,60.869034,31.202835,-145.645279,,,
729706834.30343,-1.696976,2.852977,116.492626,-0.045044,-0.028519,1.007858,0.030315,0.01061,-0.010245,60.869034,31.202835,-145.645279,,,
729706834.304238,-1.696983,2.852943,-27.417541,-0.045044,-0.028519,1.007858,0.030315,0.01061,-0.010245,60.869034,31.202835,-145.645279,,,
729706834.306745,-1.687797,2.85598,116.490048,-0.045044,-0.028519,1.007858,0.030315,0.01061,-0.010245,60.869034,31.202835,-145.645279,,,
729706834.308292,-1.687805,2.855946,-27.420124,-0.045044,-0.028519,1.007858,0.030315,0.01061,-0.010245,60.869034,31.202835,-145.645279,,,
729706834.310085,-1.677223,2.856799,116.48815,-0.050919,-0.031677,1.005768,0.03957,0.003387,-0.004805,60.869034,31.202835,-145.645279,,,
729706834.311878,-1.67723,2.856765,-27.42202,-0.050919,-0.031677,1.005768,0.03957,0.003387,-0.004805,60.869034,31.202835,-145.645279,,,
729706834.313409,-1.677223,2.856799,116.48815,-0.050919,-0.031677,1.005768,0.03957,0.003387,-0.004805,60.869034,31.202835,-145.645279,,,
729706834.314223,-1.67723,2.856765,-27.42202,-0.050919,-0.031677,1.005768,0.03957,0.003387,-0.004805,60.869034,31.202835,-145.645279,,,
729706834.316745,-1.665166,2.857196,116.48694,-0.050919,-0.031677,1.005768,0.03957,0.003387,-0.004805,60.869034,31.202835,-145.645279,,,
729706834.317894,-1.665173,2.857162,-27.423232,-0.050919,-0.031677,1.005768,0.03957,0.003387,-0.004805,60.869034,31.202835,-145.645279,,,
729706834.320098,-1.652288,2.855177,116.48617,-0.054123,-0.031021,1.002213,0.045932,-0.005221,-0.001177,60.869034,31.202835,-145.645279,,,
729706834.32282,-1.652296,2.855143,-27.424007,-0.054123,-0.031021,1.002213,0.045932,-0.005221,-0.001177,60.869034,31.202835,-145.645279,,,
729706834.323516,-1.652288,2.855177,116.48617,-0.054123,-0.031021,1.002213,0.045932,-0.005221,-0.001177,60.869034,31.202835,-145.645279,,,
729706834.324221,-1.652296,2.855143,-27.424007,-0.054123,-0.031021,1.002213,0.045932,-0.005221,-0.001177,60.869034,31.202835,-145.645279,,,
729706834.326763,-1.639187,2.854136,116.485814,-0.054123,-0.031021,1.002213,0.045932,-0.005221,-0.001177,60.869034,31.202835,-145.645279,,,
729706834.328288,-1.639194,2.854102,-27.424357,-0.054123,-0.031021,1.002213,0.045932,-0.005221,-0.001177,60.869034,31.202835,-145.645279,,,
729706834.330085,-1.625875,2.852243,116.485454,-0.050323,-0.026199,0.997803,0.045068,-0.005718,-0.001106,60.869034,31.202835,-145.645279,,,
729706834.331246,-1.625883,2.852209,-27.424718,-0.050323,-0.026199,0.997803,0.045068,-0.005718,-0.001106,60.869034,31.202835,-145.645279,,,
729706834.333408,-1.625875,2.852243,116.485454,-0.050323,-0.026199,0.997803,0.045068,-0.005718,-0.001106,60.844788,30.725342,-145.897858,,,
729706834.334917,-1.625883,2.852209,-27.424718,-0.050323,-0.026199,0.997803,0.045068,-0.005718,-0.001106,60.844788,30.725342,-145.897858,,,
729706834.336749,-1.613823,2.850537,116.484823,-0.050323,-0.026199,0.997803,0.045068,-0.005718,-0.001106,60.844788,30.725342,-145.897858,,,
729706834.338169,-1.61383,2.850503,-27.425352,-0.050323,-0.026199,0.997803,0.045068,-0.005718,-0.001106,60.844788,30.725342,-145.897858,,,
729706834.340091,-1.602139,2.849045,116.483732,-0.047638,-0.023209,0.992233,0.037466,-0.002346,-0.004692,60.844788,30.725342,-145.897858,,,
729706834.342043,-1.602146,2.849011,-27.426444,-0.047638,-0.023209,0.992233,0.037466,-0.002346,-0.004692,60.844788,30.725342,-145.897858,,,
729706834.343444,-1.602139,2.849045,116.483732,-0.047638,-0.023209,0.992233,0.037466,-0.002346,-0.004692,60.844788,30.725342,-145.897858,,,
729706834.344217,-1.602146,2.849011,-27.426444,-0.047638,-0.023209,0.992233,0.037466,-0.002346,-0.004692,60.844788,30.725342,-145.897858,,,
729706834.346737,-1.592793,2.847234,116.482128,-0.047638,-0.023209,0.992233,0.037466,-0.002346,-0.004692,60.844788,30.725342,-145.897858,,,
729706834.347892,-1.592801,2.8472,-27.428051,-0.047638,-0.023209,0.992233,0.037466,-0.002346,-0.004692,60.844788,30.725342,-145.897858,,,
729706834.350073,-1.584267,2.845893,116.480323,-0.048477,-0.021851,0.986786,0.028463,-0.000602,-0.006621,60.844788,30.725342,-145.897858,,,
729706834.351638,-1.584274,2.845859,-27.429858,-0.048477,-0.021851,0.986786,0.028463,-0.000602,-0.006621,60.844788,30.725342,-145.897858,,,
729706834.353524,-1.584267,2.845893,116.480323,-0.048477,-0.021851,0.986786,0.028463,-0.000602,-0.006621,60.844788,30.725342,-145.897858,,,
729706834.35429,-1.584274,2.845859,-27.429858,-0.048477,-0.021851,0.986786,0.028463,-0.000602,-0.006621,60.844788,30.725342,-145.897858,,,
729706834.356738,-1.576921,2.844316,116.478465,-0.048477,-0.021851,0.986786,0.028463,-0.000602,-0.006621,60.844788,30.725342,-145.897858,,,
729706834.35797,-1.576928,2.844282,-27.431712,-0.048477,-0.021851,0.986786,0.028463,-0.000602,-0.006621,60.844788,30.725342,-145.897858,,,
729706834.360172,-1.571292,2.844397,116.476669,-0.049744,-0.025253,0.983063,0.019381,0.003348,-0.00684,60.844788,30.725342,-145.897858,,,
729706834.36315,-1.571299,2.844363,-27.433509,-0.049744,-0.025253,0.983063,0.019381,0.003348,-0.00684,60.844788,30.725342,-145.897858,,,
729706834.363443,-1.571292,2.844397,116.476669,-0.049744,-0.025253,0.983063,0.019381,0.003348,-0.00684,60.844788,30.725342,-145.897858,,,
729706834.364233,-1.571299,2.844363,-27.433509,-0.049744,-0.025253,0.983063,0.019381,0.003348,-0.00684,60.844788,30.725342,-145.897858,,,
729706834.366741,-1.566308,2.843391,116.475076,-0.049744,-0.025253,0.983063,0.019381,0.003348,-0.00684,60.844788,30.725342,-145.897858,,,
729706834.367837,-1.566315,2.843357,-27.435098,-0.049744,-0.025253,0.983063,0.019381,0.003348,-0.00684,60.844788,30.725342,-145.897858,,,
729706834.370083,-1.562139,2.844671,116.474382,-0.051651,-0.030151,0.981049,0.016813,0.008267,-0.000981,60.844788,30.725342,-145.897858,,,
729706834.37171,-1.562146,2.844637,-27.435794,-0.051651,-0.030151,0.981049,0.016813,0.008267,-0.000981,60.844788,30.725342,-145.897858,,,
729706834.373432,-1.562139,2.844671,116.474382,-0.051651,-0.030151,0.981049,0.016813,0.008267,-0.000981,60.844788,30.725342,-145.897858,,,
729706834.37487,-1.562146,2.844637,-27.435794,-0.051651,-0.030151,0.981049,0.016813,0.008267,-0.000981,60.934341,30.570038,-146.019623,,,
729706834.37683,-1.557758,2.845138,116.474696,-0.051651,-0.030151,0.981049,0.016813,0.008267,-0.000981,60.934341,30.570038,-146.019623,,,
729706834.37792,-1.557765,2.845104,-27.435483,-0.051651,-0.030151,0.981049,0.016813,0.008267,-0.000981,60.934341,30.570038,-146.019623,,,
729706834.380078,-1.553605,2.84659,116.475982,-0.054031,-0.028976,0.983246,0.01451,0.008078,0.005461,60.934341,30.570038,-146.019623,,,
729706834.382795,-1.553612,2.846556,-27.434196,-0.054031,-0.028976,0.983246,0.01451,0.008078,0.005461,60.934341,30.570038,-146.019623,,,
729706834.38346,-1.553605,2.84659,116.475982,-0.054031,-0.028976,0.983246,0.01451,0.008078,0.005461,60.934341,30.570038,-146.019623,,,
729706834.384223,-1.553612,2.846556,-27.434196,-0.054031,-0.028976,0.983246,0.01451,0.008078,0.005461,60.934341,30.570038,-146.019623,,,
729706834.386764,-1.550047,2.847349,116.477663,-0.054031,-0.028976,0.983246,0.01451,0.008078,0.005461,60.934341,30.570038,-146.019623,,,
729706834.387605,-1.550054,2.847315,-27.432516,-0.054031,-0.028976,0.983246,0.01451,0.008078,0.005461,60.934341,30.570038,-146.019623,,,
729706834.390069,-1.547162,2.847544,116.479764,-0.05661,-0.026566,0.981308,0.007077,0.001928,0.007957,60.934341,30.570038,-146.019623,,,
729706834.391427,-1.54717,2.84751,-27.43041,-0.05661,-0.026566,0.981308,0.007077,0.001928,0.007957,60.934341,30.570038,-146.019623,,,
729706834.393423,-1.547162,2.847544,116.479764,-0.05661,-0.026566,0.981308,0.007077,0.001928,0.007957,60.934341,30.570038,-146.019623,,,
729706834.39422,-1.54717,2.84751,-27.43041,-0.05661,-0.026566,0.981308,0.007077,0.001928,0.007957,60.934341,30.570038,-146.019623,,,
729706834.396749,-1.545905,2.848113,116.482008,-0.05661,-0.026566,0.981308,0.007077,0.001928,0.007957,60.934341,30.570038,-146.019623,,,
729706834.397553,-1.545912,2.848079,-27.428164,-0.05661,-0.026566,0.981308,0.007077,0.001928,0.007957,60.934341,30.570038,-146.019623,,,
729706834.400082,-1.5447,2.847968,116.483699,-0.052551,-0.026932,0.980591,0.00166,0.000611,0.003882,60.934341,30.570038,-146.019623,,,
729706834.401889,-1.544708,2.847934,-27.426476,-0.052551,-0.026932,0.980591,0.00166,0.000611,0.003882,60.934341,30.570038,-146.019623,,,
729706834.403429,-1.5447,2.847968,116.483699,-0.052551,-0.026932,0.980591,0.00166,0.000611,0.003882,60.934341,30.570038,-146.019623,,,
729706834.404223,-1.544708,2.847934,-27.426476,-0.052551,-0.026932,0.980591,0.00166,0.000611,0.003882,60.934341,30.570038,-146.019623,,,
729706834.406832,-1.545918,2.847487,116.484804,-0.052551,-0.026932,0.980591,0.00166,0.000611,0.003882,60.934341,30.570038,-146.019623,,,
729706834.407938,-1.545925,2.847454,-27.425367,-0.052551,-0.026932,0.980591,0.00166,0.000611,0.003882,60.934341,30.570038,-146.019623,,,
729706834.410075,-1.548692,2.845884,116.48597,-0.050949,-0.027679,0.980804,-0.010832,-0.004944,0.003715,60.934341,30.570038,-146.019623,,,
729706834.413317,-1.548699,2.84585,-27.424204,-0.050949,-0.027679,0.980804,-0.010832,-0.004944,0.003715,60.934341,30.570038,-146.019623,,,
729706834.413587,-1.548692,2.845884,116.48597,-0.050949,-0.027679,0.980804,-0.010832,-0.004944,0.003715,60.934341,30.570038,-146.019623,,,
729706834.414219,-1.548699,2.84585,-27.424204,-0.050949,-0.027679,0.980804,-0.010832,-0.004944,0.003715,60.934341,30.570038,-146.019623,,,
729706834.416738,-1.552125,2.843096,116.487612,-0.050949,-0.027679,0.980804,-0.010832,-0.004944,0.003715,60.922836,30.687271,-145.954285,,,
729706834.418601,-1.552133,2.843062,-27.422558,-0.050949,-0.027679,0.980804,-0.010832,-0.004944,0.003715,60.922836,30.687271,-145.954285,,,
729706834.420088,-1.556335,2.839708,116.489256,-0.048294,-0.031036,0.984695,-0.013701,-0.009489,0.003514,60.922836,30.687271,-145.954285,,,
729706834.421463,-1.556342,2.839675,-27.420914,-0.048294,-0.031036,0.984695,-0.013701,-0.009489,0.003514,60.922836,30.687271,-145.954285,,,
729706834.423433,-1.556335,2.839708,116.489256,-0.048294,-0.031036,0.984695,-0.013701,-0.009489,0.003514,60.922836,30.687271,-145.954285,,,
729706834.424221,-1.556342,2.839675,-27.420914,-0.048294,-0.031036,0.984695,-0.013701,-0.009489,0.003514,60.922836,30.687271,-145.954285,,,
729706834.426735,-1.559709,2.835824,116.490839,-0.048294,-0.031036,0.984695,-0.013701,-0.009489,0.003514,60.922836,30.687271,-145.954285,,,
729706834.427647,-1.559716,2.83579,-27.419352,-0.048294,-0.031036,0.984695,-0.013701,-0.009489,0.003514,60.922836,30.687271,-145.954285,,,
729706834.430076,-1.564234,2.831828,116.492515,-0.044128,-0.030655,0.98851,-0.016478,-0.011956,0.004175,60.922836,30.687271,-145.954285,,,
729706834.431833,-1.564241,2.831794,-27.417656,-0.044128,-0.030655,0.98851,-0.016478,-0.011956,0.004175,60.922836,30.687271,-145.954285,,,
729706834.433433,-1.564234,2.831828,116.492515,-0.044128,-0.030655,0.98851,-0.016478,-0.011956,0.004175,60.922836,30.687271,-145.954285,,,
729706834.434219,-1.564241,2.831794,-27.417656,-0.044128,-0.030655,0.98851,-0.016478,-0.011956,0.004175,60.922836,30.687271,-145.954285,,,
729706834.436758,-1.568541,2.827893,116.494175,-0.044128,-0.030655,0.98851,-0.016478,-0.011956,0.004175,60.922836,30.687271,-145.954285,,,
729706834.437963,-1.568548,2.827859,-27.415995,-0.044128,-0.030655,0.98851,-0.016478,-0.011956,0.004175,60.922836,30.687271,-145.954285,,,
729706834.440104,-1.573214,2.824706,116.495183,-0.041092,-0.031784,0.994934,-0.014765,-0.006682,-0.000374,60.922836,30.687271,-145.954285,,,
729706834.443051,-1.573222,2.824672,-27.414987,-0.041092,-0.031784,0.994934,-0.014765,-0.006682,-0.000374,60.922836,30.687271,-145.954285,,,
729706834.443449,-1.573214,2.824706,116.495183,-0.041092,-0.031784,0.994934,-0.014765,-0.006682,-0.000374,60.922836,30.687271,-145.954285,,,
729706834.444228,-1.573222,2.824672,-27.414987,-0.041092,-0.031784,0.994934,-0.014765,-0.006682,-0.000374,60.922836,30.687271,-145.954285,,,
729706834.446742,-1.578034,2.823408,116.495991,-0.041092,-0.031784,0.994934,-0.014765,-0.006682,-0.000374,60.922836,30.687271,-145.954285,,,
729706834.44793,-1.578041,2.823374,-27.414184,-0.041092,-0.031784,0.994934,-0.014765,-0.006682,-0.000374,60.922836,30.687271,-145.954285,,,
729706834.450123,-1.582801,2.823196,116.496656,-0.036713,-0.034821,0.998657,-0.015686,0.003397,-0.001302,60.922836,30.687271,-145.954285,,,
729706834.452522,-1.582809,2.823162,-27.413516,-0.036713,-0.034821,0.998657,-0.015686,0.003397,-0.001302,60.922836,30.687271,-145.954285,,,
729706834.453434,-1.582801,2.823196,116.496656,-0.036713,-0.034821,0.998657,-0.015686,0.003397,-0.001302,60.922836,30.687271,-145.954285,,,
729706834.454236,-1.582809,2.823162,-27.413516,-0.036713,-0.034821,0.998657,-0.015686,0.003397,-0.001302,60.922836,30.687271,-145.954285,,,
729706834.456746,-1.588494,2.824471,116.496992,-0.036713,-0.034821,0.998657,-0.015686,0.003397,-0.001302,61.076309,30.794678,-145.899292,,,
729706834.458555,-1.588501,2.824437,-27.413192,-0.036713,-0.034821,0.998657,-0.015686,0.003397,-0.001302,61.076309,30.794678,-145.899292,,,
729706834.460083,-1.593962,2.825811,116.497163,-0.036713,-0.034821,0.998657,-0.015686,0.003397,-0.001302,61.076309,30.794678,-145.899292,,,
729706834.461464,-1.593969,2.825777,-27.413019,-0.035324,-0.033234,1.000595,-0.016781,0.008001,-0.002319,61.076309,30.794678,-145.899292,,,
729706834.46341,-1.593962,2.825811,116.497163,-0.035324,-0.033234,1.000595,-0.016781,0.008001,-0.002319,61.076309,30.794678,-145.899292,,,
729706834.46431,-1.593969,2.825777,-27.413019,-0.035324,-0.033234,1.000595,-0.016781,0.008001,-0.002319,61.076309,30.794678,-145.899292,,,
729706834.466725,-1.598595,2.828661,116.497049,-0.035324,-0.033234,1.000595,-0.016781,0.008001,-0.002319,61.076309,30.794678,-145.899292,,,
729706834.46791,-1.598603,2.828627,-27.413131,-0.035324,-0.033234,1.000595,-0.016781,0.008001,-0.002319,61.076309,30.794678,-145.899292,,,
729706834.470128,-1.602695,2.831118,116.496672,-0.034546,-0.029984,1.005524,-0.012975,0.012761,-0.00373,61.076309,30.794678,-145.899292,,,
729706834.471615,-1.602702,2.831084,-27.41351,-0.034546,-0.029984,1.005524,-0.012975,0.012761,-0.00373,61.076309,30.794678,-145.899292,,,
729706834.47351,-1.602695,2.831118,116.496672,-0.034546,-0.029984,1.005524,-0.012975,0.012761,-0.00373,61.076309,30.794678,-145.899292,,,
729706834.474333,-1.602702,2.831084,-27.41351,-0.034546,-0.029984,1.005524,-0.012975,0.012761,-0.00373,61.076309,30.794678,-145.899292,,,
729706834.47674,-1.606302,2.83521,116.49564,-0.034546,-0.029984,1.005524,-0.012975,0.012761,-0.00373,61.076309,30.794678,-145.899292,,,
729706834.478317,-1.606309,2.835176,-27.414542,-0.034546,-0.029984,1.005524,-0.012975,0.012761,-0.00373,61.076309,30.794678,-145.899292,,,
729706834.480118,-1.608976,2.838348,116.493177,-0.034546,-0.029984,1.005524,-0.012975,0.012761,-0.00373,61.076309,30.794678,-145.899292,,,
729706834.481572,-1.608984,2.838314,-27.417008,-0.034317,-0.029617,1.004959,-0.005173,0.012868,-0.013124,61.076309,30.794678,-145.899292,,,
729706834.483434,-1.608976,2.838348,116.493177,-0.034317,-0.029617,1.004959,-0.005173,0.012868,-0.013124,61.076309,30.794678,-145.899292,,,
729706834.48422,-1.608984,2.838314,-27.417008,-0.034317,-0.029617,1.004959,-0.005173,0.012868,-0.013124,61.076309,30.794678,-145.899292,,,
729706834.486746,-1.610597,2.841488,116.489178,-0.034317,-0.029617,1.004959,-0.005173,0.012868,-0.013124,61.076309,30.794678,-145.899292,,,
729706834.487655,-1.610604,2.841454,-27.421004,-0.034317,-0.029617,1.004959,-0.005173,0.012868,-0.013124,61.076309,30.794678,-145.899292,,,
729706834.490072,-1.610597,2.841488,116.489178,-0.034317,-0.029617,1.004959,-0.005173,0.012868,-0.013124,61.076309,30.794678,-145.899292,,,
729706834.492827,-1.611463,2.844092,-27.426294,-0.032425,-0.029648,1.006973,0.000618,0.012458,-0.021799,61.076309,30.794678,-145.899292,,,
729706834.493461,-1.611456,2.844126,116.483891,-0.032425,-0.029648,1.006973,0.000618,0.012458,-0.021799,61.076309,30.794678,-145.899292,,,
729706834.494224,-1.611463,2.844092,-27.426294,-0.032425,-0.029648,1.006973,0.000618,0.012458,-0.021799,61.076309,30.794678,-145.899292,,,
729706834.49675,-1.61208,2.846602,116.477552,-0.032425,-0.029648,1.006973,0.000618,0.012458,-0.021799,60.880737,30.906555,-146.077438,,,
729706834.498599,-1.612087,2.846568,-27.432629,-0.032425,-0.029648,1.006973,0.000618,0.012458,-0.021799,60.880737,30.906555,-146.077438,,,
729706834.500121,-1.61208,2.848086,116.470324,-0.032425,-0.029648,1.006973,0.004819,0.007259,-0.02776,60.880737,30.906555,-146.077438,,,
729706834.501552,-1.611851,2.848052,-27.43986,-0.035858,-0.030518,1.009293,0.004819,0.007259,-0.02776,60.880737,30.906555,-146.077438,,,
729706834.503417,-1.611844,2.848086,116.470324,-0.035858,-0.030518,1.009293,0.004819,0.007259,-0.02776,60.880737,30.906555,-146.077438,,,
729706834.504227,-1.611851,2.848052,-27.43986,-0.035858,-0.030518,1.009293,0.004819,0.007259,-0.02776,60.880737,30.906555,-146.077438,,,
729706834.506752,-1.611183,2.84844,116.462543,-0.035858,-0.030518,1.009293,0.004819,0.007259,-0.02776,60.880737,30.906555,-146.077438,,,
729706834.507832,-1.61119,2.848406,-27.447635,-0.035858,-0.030518,1.009293,0.004819,0.007259,-0.02776,60.880737,30.906555,-146.077438,,,
729706834.510158,-1.611183,2.849999,116.454002,-0.035858,-0.030518,1.009293,0.002081,0.012328,-0.033305,60.880737,30.906555,-146.077438,,,
729706834.511158,-1.610515,2.849965,-27.456175,-0.037842,-0.026657,1.011505,0.002081,0.012328,-0.033305,60.880737,30.906555,-146.077438,,,
729706834.513421,-1.610508,2.849999,116.454002,-0.037842,-0.026657,1.011505,0.002081,0.012328,-0.033305,60.880737,30.906555,-146.077438,,,
729706834.514219,-1.610515,2.849965,-27.456175,-0.037842,-0.026657,1.011505,0.002081,0.012328,-0.033305,60.880737,30.906555,-146.077438,,,
729706834.516736,-1.609601,2.85191,116.44461,-0.037842,-0.026657,1.011505,0.002081,0.012328,-0.033305,60.880737,30.906555,-146.077438,,,
729706834.517803,-1.609608,2.851876,-27.465573,-0.037842,-0.026657,1.011505,0.002081,0.012328,-0.033305,60.880737,30.906555,-146.077438,,,
729706834.520105,-1.609601,2.85191,116.44461,-0.037842,-0.026657,1.011505,0.002081,0.012328,-0.033305,60.880737,30.906555,-146.077438,,,
729706834.522085,-1.606406,2.855988,-27.475225,-0.040085,-0.025085,1.015686,0.015675,0.020695,-0.034621,60.880737,30.906555,-146.077438,,,
729706834.523424,-1.606398,2.856022,116.434954,-0.040085,-0.025085,1.015686,0.015675,0.020695,-0.034621,60.880737,30.906555,-146.077438,,,
729706834.524224,-1.606406,2.855988,-27.475225,-0.040085,-0.025085,1.015686,0.015675,0.020695,-0.034621,60.880737,30.906555,-146.077438,,,
729706834.526734,-1.603525,2.860369,116.425284,-0.040085,-0.025085,1.015686,0.015675,0.020695,-0.034621,60.880737,30.906555,-146.077438,,,
729706834.527913,-1.603532,2.860335,-27.484904,-0.040085,-0.025085,1.015686,0.015675,0.020695,-0.034621,60.880737,30.906555,-146.077438,,,
729706834.53007,-1.603525,2.860369,116.425284,-0.040085,-0.025085,1.015686,0.015675,0.020695,-0.034621,60.880737,30.906555,-146.077438,,,
729706834.531639,-1.599016,2.868131,-27.494335,-0.041855,-0.025558,1.016266,0.021121,0.033741,-0.032969,60.880737,30.906555,-146.077438,,,
729706834.533472,-1.599009,2.868165,116.415851,-0.041855,-0.025558,1.016266,0.021121,0.033741,-0.032969,60.880737,30.906555,-146.077438,,,
729706834.534212,-1.599016,2.868131,-27.494335,-0.041855,-0.025558,1.016266,0.021121,0.033741,-0.032969,60.880737,30.906555,-146.077438,,,
729706834.536748,-1.59509,2.874911,116.406758,-0.041855,-0.025558,1.016266,0.021121,0.033741,-0.032969,60.880737,30.906555,-146.077438,,,
729706834.538423,-1.595097,2.874878,-27.50343,-0.041855,-0.025558,1.016266,0.021121,0.033741,-0.032969,60.836426,30.587311,-145.681137,,,
729706834.540077,-1.59509,2.874911,116.406758,-0.041855,-0.025558,1.016266,0.021121,0.033741,-0.032969,60.836426,30.587311,-145.681137,,,
729706834.542298,-1.589848,2.884361,-27.512156,-0.048111,-0.027969,1.014526,0.023992,0.036834,-0.030707,60.836426,30.587311,-145.681137,,,
729706834.54343,-1.589841,2.884395,116.398027,-0.048111,-0.027969,1.014526,0.023992,0.036834,-0.030707,60.836426,30.587311,-145.681137,,,
729706834.544215,-1.589848,2.884361,-27.512156,-0.048111,-0.027969,1.014526,0.023992,0.036834,-0.030707,60.836426,30.587311,-145.681137,,,
729706834.546732,-1.583268,2.891819,116.389025,-0.048111,-0.027969,1.014526,0.023992,0.036834,-0.030707,60.836426,30.587311,-145.681137,,,
729706834.548406,-1.583275,2.891785,-27.52116,-0.048111,-0.027969,1.014526,0.023992,0.036834,-0.030707,60.836426,30.587311,-145.681137,,,
729706834.550163,-1.583268,2.891819,116.389025,-0.048111,-0.027969,1.014526,0.023992,0.036834,-0.030707,60.836426,30.587311,-145.681137,,,
729706834.552428,-1.573949,2.901044,-27.530411,-0.051956,-0.02655,1.016068,0.038891,0.033652,-0.032106,60.836426,30.587311,-145.681137,,,
729706834.553422,-1.573942,2.901078,116.379777,-0.051956,-0.02655,1.016068,0.038891,0.033652,-0.032106,60.836426,30.587311,-145.681137,,,
729706834.554228,-1.573949,2.901044,-27.530411,-0.051956,-0.02655,1.016068,0.038891,0.033652,-0.032106,60.836426,30.587311,-145.681137,,,
729706834.556769,-1.563255,2.906989,116.370028,-0.051956,-0.02655,1.016068,0.038891,0.033652,-0.032106,60.836426,30.587311,-145.681137,,,
729706834.558382,-1.563262,2.906956,-27.540159,-0.051956,-0.02655,1.016068,0.038891,0.033652,-0.032106,60.836426,30.587311,-145.681137,,,
729706834.560103,-1.563255,2.906989,116.370028,-0.051956,-0.02655,1.016068,0.038891,0.033652,-0.032106,60.836426,30.587311,-145.681137,,,
729706834.562446,-1.550672,2.913745,-27.550342,-0.05603,-0.024796,1.010223,0.050559,0.022776,-0.034961,60.836426,30.587311,-145.681137,,,
729706834.563439,-1.550665,2.913779,116.359848,-0.05603,-0.024796,1.010223,0.050559,0.022776,-0.034961,60.836426,30.587311,-145.681137,,,
729706834.564255,-1.550672,2.913745,-27.550342,-0.05603,-0.024796,1.010223,0.050559,0.022776,-0.034961,60.836426,30.587311,-145.681137,,,
729706834.566755,-1.536616,2.915153,116.34901,-0.05603,-0.024796,1.010223,0.050559,0.022776,-0.034961,60.836426,30.587311,-145.681137,,,
729706834.568436,-1.536623,2.915119,-27.561164,-0.05603,-0.024796,1.010223,0.050559,0.022776,-0.034961,60.836426,30.587311,-145.681137,,,
729706834.57014,-1.536616,2.915153,116.34901,-0.05603,-0.024796,1.010223,0.050559,0.022776,-0.034961,60.836426,30.587311,-145.681137,,,
729706834.572253,-1.520642,2.91752,-27.572129,-0.062439,-0.027054,1.011642,0.062374,0.011055,-0.035886,60.836426,30.587311,-145.681137,,,
729706834.573436,-1.520635,2.917554,116.338045,-0.062439,-0.027054,1.011642,0.062374,0.011055,-0.035886,60.836426,30.587311,-145.681137,,,
729706834.574218,-1.520642,2.91752,-27.572129,-0.062439,-0.027054,1.011642,0.062374,0.011055,-0.035886,60.836426,30.587311,-145.681137,,,
729706834.576735,-1.503359,2.916197,116.327497,-0.062439,-0.027054,1.011642,0.062374,0.011055,-0.035886,60.836426,30.587311,-145.681137,,,
729706834.57812,-1.503366,2.916163,-27.582675,-0.062439,-0.027054,1.011642,0.062374,0.011055,-0.035886,60.836426,30.587311,-145.681137,,,
729706834.580138,-1.503359,2.916197,116.327497,-0.062439,-0.027054,1.011642,0.062374,0.011055,-0.035886,60.877106,30.596176,-146.102539,,,
729706834.582788,-1.484255,2.916253,-27.592193,-0.067093,-0.029617,1.010956,0.07083,0.002651,-0.028776,60.877106,30.596176,-146.102539,,,
729706834.583427,-1.484248,2.916287,116.317978,-0.067093,-0.029617,1.010956,0.07083,0.002651,-0.028776,60.877106,30.596176,-146.102539,,,
729706834.584216,-1.484255,2.916253,-27.592193,-0.067093,-0.029617,1.010956,0.07083,0.002651,-0.028776,60.877106,30.596176,-146.102539,,,
729706834.586753,-1.464098,2.913704,116.309425,-0.067093,-0.029617,1.010956,0.07083,0.002651,-0.028776,60.877106,30.596176,-146.102539,,,
729706834.588419,-1.464105,2.91367,-27.600745,-0.067093,-0.029617,1.010956,0.07083,0.002651,-0.028776,60.877106,30.596176,-146.102539,,,
729706834.590145,-1.464098,2.913704,116.309425,-0.067093,-0.029617,1.010956,0.07083,0.002651,-0.028776,60.877106,30.596176,-146.102539,,,
729706834.591814,-1.442665,2.912929,-27.608255,-0.068832,-0.030106,1.009232,0.077302,0.001355,-0.02156,60.877106,30.596176,-146.102539,,,
729706834.593428,-1.442658,2.912963,116.301913,-0.068832,-0.030106,1.009232,0.077302,0.001355,-0.02156,60.877106,30.596176,-146.102539,,,
729706834.594213,-1.442665,2.912929,-27.608255,-0.068832,-0.030106,1.009232,0.077302,0.001355,-0.02156,60.877106,30.596176,-146.102539,,,
729706834.596739,-1.420769,2.910575,116.296048,-0.068832,-0.030106,1.009232,0.077302,0.001355,-0.02156,60.877106,30.596176,-146.102539,,,
729706834.597884,-1.420776,2.910541,-27.614125,-0.068832,-0.030106,1.009232,0.077302,0.001355,-0.02156,60.877106,30.596176,-146.102539,,,
729706834.600203,-1.420769,2.910575,116.296048,-0.068832,-0.030106,1.009232,0.077302,0.001355,-0.02156,60.877106,30.596176,-146.102539,,,
729706834.601621,-1.398169,2.910288,-27.617951,-0.070831,-0.029083,1.008423,0.081078,0.002762,-0.007436,60.877106,30.596176,-146.102539,,,
729706834.603423,-1.398162,2.910322,116.292223,-0.070831,-0.029083,1.008423,0.081078,0.002762,-0.007436,60.877106,30.596176,-146.102539,,,
729706834.604223,-1.398169,2.910288,-27.617951,-0.070831,-0.029083,1.008423,0.081078,0.002762,-0.007436,60.877106,30.596176,-146.102539,,,
729706834.606734,-1.376081,2.90886,116.289989,-0.070831,-0.029083,1.008423,0.081078,0.002762,-0.007436,60.877106,30.596176,-146.102539,,,
729706834.607888,-1.376088,2.908826,-27.620188,-0.070831,-0.029083,1.008423,0.081078,0.002762,-0.007436,60.877106,30.596176,-146.102539,,,
729706834.610147,-1.376081,2.90886,116.289989,-0.070831,-0.029083,1.008423,0.081078,0.002762,-0.007436,60.877106,30.596176,-146.102539,,,
729706834.612137,-1.355269,2.908537,-27.621458,-0.06839,-0.022369,1.000824,0.071716,0.000307,-0.001461,60.877106,30.596176,-146.102539,,,
729706834.613421,-1.355262,2.908571,116.288721,-0.06839,-0.022369,1.000824,0.071716,0.000307,-0.001461,60.877106,30.596176,-146.102539,,,
729706834.614226,-1.355269,2.908537,-27.621458,-0.06839,-0.022369,1.000824,0.071716,0.000307,-0.001461,60.877106,30.596176,-146.102539,,,
729706834.61675,-1.335455,2.906232,116.287875,-0.06839,-0.022369,1.000824,0.071716,0.000307,-0.001461,60.877106,30.596176,-146.102539,,,
729706834.617909,-1.335462,2.906198,-27.622311,-0.06839,-0.022369,1.000824,0.071716,0.000307,-0.001461,60.877106,30.596176,-146.102539,,,
729706834.620253,-1.335455,2.906232,116.287875,-0.06839,-0.022369,1.000824,0.071716,0.000307,-0.001461,60.855988,30.452744,-146.021072,,,
729706834.624884,-1.315739,2.903066,-27.622575,-0.063599,-0.019211,0.994293,0.06819,-0.011317,0.002352,60.855988,30.452744,-146.021072,,,
729706834.625192,-1.315732,2.9031,116.287616,-0.063599,-0.019211,0.994293,0.06819,-0.011317,0.002352,60.855988,30.452744,-146.021072,,,
729706834.626605,-1.297625,2.898764,116.287834,-0.063599,-0.019211,0.994293,0.06819,-0.011317,0.002352,60.855988,30.452744,-146.021072,,,
729706834.627936,-1.297632,2.89873,-27.622343,-0.063599,-0.019211,0.994293,0.06819,-0.011317,0.002352,60.855988,30.452744,-146.021072,,,
729706834.630077,-1.297625,2.898764,116.287834,-0.063599,-0.019211,0.994293,0.06819,-0.011317,0.002352,60.855988,30.452744,-146.021072,,,
729706834.632987,-1.279867,2.893425,-27.622458,-0.060898,-0.018463,0.989792,0.061851,-0.019835,-0.000441,60.855988,30.452744,-146.021072,,,
729706834.633455,-1.27986,2.893459,116.287716,-0.060898,-0.018463,0.989792,0.061851,-0.019835,-0.000441,60.855988,30.452744,-146.021072,,,
729706834.63423,-1.279867,2.893425,-27.622458,-0.060898,-0.018463,0.989792,0.061851,-0.019835,-0.000441,60.855988,30.452744,-146.021072,,,
729706834.636745,-1.26312,2.886303,116.286974,-0.060898,-0.018463,0.989792,0.061851,-0.019835,-0.000441,60.855988,30.452744,-146.021072,,,
729706834.637936,-1.263127,2.886269,-27.623203,-0.060898,-0.018463,0.989792,0.061851,-0.019835,-0.000441,60.855988,30.452744,-146.021072,,,
729706834.640074,-1.26312,2.886303,116.286974,-0.060898,-0.018463,0.989792,0.061851,-0.019835,-0.000441,60.855988,30.452744,-146.021072,,,
729706834.64235,-1.246858,2.876235,-27.624209,-0.054871,-0.014404,0.978104,0.056024,-0.036612,-0.002503,60.855988,30.452744,-146.021072,,,
729706834.643428,-1.246851,2.876269,116.285966,-0.054871,-0.014404,0.978104,0.056024,-0.036612,-0.002503,60.855988,30.452744,-146.021072,,,
729706834.644221,-1.246858,2.876235,-27.624209,-0.054871,-0.014404,0.978104,0.056024,-0.036612,-0.002503,60.855988,30.452744,-146.021072,,,
729706834.646744,-1.232885,2.866117,116.284888,-0.054871,-0.014404,0.978104,0.056024,-0.036612,-0.002503,60.855988,30.452744,-146.021072,,,
729706834.648378,-1.232892,2.866083,-27.625293,-0.054871,-0.014404,0.978104,0.056024,-0.036612,-0.002503,60.855988,30.452744,-146.021072,,,
729706834.650151,-1.232885,2.866117,116.284888,-0.054871,-0.014404,0.978104,0.056024,-0.036612,-0.002503,60.855988,30.452744,-146.021072,,,
729706834.651713,-1.219942,2.854392,-27.626106,-0.0513,-0.012253,0.975281,0.044636,-0.038181,-0.001016,60.855988,30.452744,-146.021072,,,
729706834.653433,-1.219935,2.854426,116.284076,-0.0513,-0.012253,0.975281,0.044636,-0.038181,-0.001016,60.855988,30.452744,-146.021072,,,
729706834.654234,-1.219942,2.854392,-27.626106,-0.0513,-0.012253,0.975281,0.044636,-0.038181,-0.001016,60.855988,30.452744,-146.021072,,,
729706834.656742,-1.209506,2.844707,116.284187,-0.0513,-0.012253,0.975281,0.044636,-0.038181,-0.001016,60.855988,30.452744,-146.021072,,,
729706834.658238,-1.209513,2.844673,-27.625996,-0.0513,-0.012253,0.975281,0.044636,-0.038181,-0.001016,60.855988,30.452744,-146.021072,,,
729706834.660143,-1.209506,2.844707,116.284187,-0.0513,-0.012253,0.975281,0.044636,-0.038181,-0.001016,60.846893,30.388107,-146.198318,,,
729706834.664057,-1.200615,2.833843,-27.625201,-0.048264,-0.010895,0.971344,0.0263,-0.031387,0.00323,60.846893,30.388107,-146.198318,,,
729706834.664358,-1.200608,2.833877,116.284989,-0.048264,-0.010895,0.971344,0.0263,-0.031387,0.00323,60.846893,30.388107,-146.198318,,,
729706834.666696,-1.195906,2.827315,116.286669,-0.048264,-0.010895,0.971344,0.0263,-0.031387,0.00323,60.846893,30.388107,-146.198318,,,
729706834.667814,-1.195913,2.827281,-27.623517,-0.048264,-0.010895,0.971344,0.0263,-0.031387,0.00323,60.846893,30.388107,-146.198318,,,
729706834.670083,-1.195906,2.827315,116.286669,-0.048264,-0.010895,0.971344,0.0263,-0.031387,0.00323,60.846893,30.388107,-146.198318,,,
729706834.672165,-1.192705,2.819899,-27.620744,-0.04953,-0.012024,0.967636,0.006506,-0.018695,0.010288,60.846893,30.388107,-146.198318,,,
729706834.673431,-1.192698,2.819933,116.289441,-0.04953,-0.012024,0.967636,0.006506,-0.018695,0.010288,60.846893,30.388107,-146.198318,,,
729706834.674222,-1.192705,2.819899,-27.620744,-0.04953,-0.012024,0.967636,0.006506,-0.018695,0.010288,60.846893,30.388107,-146.198318,,,
729706834.676739,-1.193771,2.817431,116.293688,-0.04953,-0.012024,0.967636,0.006506,-0.018695,0.010288,60.846893,30.388107,-146.198318,,,
729706834.67755,-1.193778,2.817397,-27.616482,-0.04953,-0.012024,0.967636,0.006506,-0.018695,0.010288,60.846893,30.388107,-146.198318,,,
729706834.680067,-1.193771,2.817431,116.293688,-0.04953,-0.012024,0.967636,0.006506,-0.018695,0.010288,60.846893,30.388107,-146.198318,,,
729706834.683415,-1.197104,2.813211,-27.610633,-0.048996,-0.016724,0.967911,-0.018506,-0.010375,0.020609,60.846893,30.388107,-146.198318,,,
729706834.683692,-1.197097,2.813245,116.299538,-0.048996,-0.016724,0.967911,-0.018506,-0.010375,0.020609,60.846893,30.388107,-146.198318,,,
729706834.684192,-1.197104,2.813211,-27.610633,-0.048996,-0.016724,0.967911,-0.018506,-0.010375,0.020609,60.846893,30.388107,-146.198318,,,
729706834.686762,-1.204172,2.81408,116.306419,-0.048996,-0.016724,0.967911,-0.018506,-0.010375,0.020609,60.846893,30.388107,-146.198318,,,
729706834.687849,-1.204179,2.814046,-27.603766,-0.048996,-0.016724,0.967911,-0.018506,-0.010375,0.020609,60.846893,30.388107,-146.198318,,,
729706834.690159,-1.204172,2.81408,116.306419,-0.048996,-0.016724,0.967911,-0.018506,-0.010375,0.020609,60.846893,30.388107,-146.198318,,,
729706834.691669,-1.211873,2.812883,-27.59649,-0.046341,-0.017654,0.969742,-0.029121,-0.001989,0.023405,60.846893,30.388107,-146.198318,,,
729706834.693436,-1.211866,2.812916,116.313692,-0.046341,-0.017654,0.969742,-0.029121,-0.001989,0.023405,60.846893,30.388107,-146.198318,,,
729706834.694223,-1.211873,2.812883,-27.59649,-0.046341,-0.017654,0.969742,-0.029121,-0.001989,0.023405,60.846893,30.388107,-146.198318,,,
729706834.696745,-1.220571,2.814623,116.321181,-0.046341,-0.017654,0.969742,-0.029121,-0.001989,0.023405,60.846893,30.388107,-146.198318,,,
729706834.698099,-1.220578,2.814589,-27.589007,-0.046341,-0.017654,0.969742,-0.029121,-0.001989,0.023405,60.846893,30.388107,-146.198318,,,
729706834.700097,-1.220571,2.814623,116.321181,-0.046341,-0.017654,0.969742,-0.029121,-0.001989,0.023405,60.846893,30.388107,-146.198318,,,
729706834.702487,-1.230335,2.813945,-27.581918,-0.04567,-0.01683,0.973785,-0.035705,-0.000636,0.020669,60.882965,30.465866,-145.961197,,,
729706834.703449,-1.230328,2.813979,116.328266,-0.04567,-0.01683,0.973785,-0.035705,-0.000636,0.020669,60.882965,30.465866,-145.961197,,,
729706834.704257,-1.230335,2.813945,-27.581918,-0.04567,-0.01683,0.973785,-0.035705,-0.000636,0.020669,60.882965,30.465866,-145.961197,,,
729706834.706748,-1.240508,2.814814,116.33511,-0.04567,-0.01683,0.973785,-0.035705,-0.000636,0.020669,60.882965,30.465866,-145.961197,,,
729706834.707963,-1.240515,2.81478,-27.575081,-0.04567,-0.01683,0.973785,-0.035705,-0.000636,0.020669,60.882965,30.465866,-145.961197,,,
729706834.710076,-1.240508,2.814814,116.33511,-0.04567,-0.01683,0.973785,-0.035705,-0.000636,0.020669,60.882965,30.465866,-145.961197,,,
729706834.712429,-1.251724,2.812079,-27.569243,-0.04451,-0.019958,0.976837,-0.039991,-0.010487,0.013765,60.882965,30.465866,-145.961197,,,
729706834.713417,-1.251717,2.812113,116.340946,-0.04451,-0.019958,0.976837,-0.039991,-0.010487,0.013765,60.882965,30.465866,-145.961197,,,
729706834.714232,-1.251724,2.812079,-27.569243,-0.04451,-0.019958,0.976837,-0.039991,-0.010487,0.013765,60.882965,30.465866,-145.961197,,,
729706834.71675,-1.262565,2.809189,116.345765,-0.04451,-0.019958,0.976837,-0.039991,-0.010487,0.013765,60.882965,30.465866,-145.961197,,,
729706834.718109,-1.262572,2.809155,-27.56442,-0.04451,-0.019958,0.976837,-0.039991,-0.010487,0.013765,60.882965,30.465866,-145.961197,,,
729706834.720107,-1.262565,2.809189,116.345765,-0.04451,-0.019958,0.976837,-0.039991,-0.010487,0.013765,60.882965,30.465866,-145.961197,,,
729706834.721823,-1.274472,2.803272,-27.560445,-0.042313,-0.022644,0.982651,-0.042062,-0.021334,0.00801,60.882965,30.465866,-145.961197,,,
729706834.723445,-1.274465,2.803305,116.34974,-0.042313,-0.022644,0.982651,-0.042062,-0.021334,0.00801,60.882965,30.465866,-145.961197,,,
729706834.724223,-1.274472,2.803272,-27.560445,-0.042313,-0.022644,0.982651,-0.042062,-0.021334,0.00801,60.882965,30.465866,-145.961197,,,
729706834.726747,-1.285541,2.796626,116.352496,-0.042313,-0.022644,0.982651,-0.042062,-0.021334,0.00801,60.882965,30.465866,-145.961197,,,
729706834.727907,-1.285548,2.796592,-27.557686,-0.042313,-0.022644,0.982651,-0.042062,-0.021334,0.00801,60.882965,30.465866,-145.961197,,,
729706834.730077,-1.285541,2.796626,116.352496,-0.042313,-0.022644,0.982651,-0.042062,-0.021334,0.00801,60.882965,30.465866,-145.961197,,,
729706834.733211,-1.297631,2.788609,-27.556273,-0.039413,-0.022263,0.988724,-0.040971,-0.026184,-0.001254,60.882965,30.465866,-145.961197,,,
729706834.733491,-1.297624,2.788643,116.353908,-0.039413,-0.022263,0.988724,-0.040971,-0.026184,-0.001254,60.882965,30.465866,-145.961197,,,
729706834.734311,-1.297631,2.788609,-27.556273,-0.039413,-0.022263,0.988724,-0.040971,-0.026184,-0.001254,60.882965,30.465866,-145.961197,,,
729706834.736743,-1.308814,2.781393,116.354075,-0.039413,-0.022263,0.988724,-0.040971,-0.026184,-0.001254,60.882965,30.465866,-145.961197,,,
729706834.738253,-1.308821,2.781359,-27.556101,-0.039413,-0.022263,0.988724,-0.040971,-0.026184,-0.001254,60.882965,30.465866,-145.961197,,,
729706834.740105,-1.308814,2.781393,116.354075,-0.039413,-0.022263,0.988724,-0.040971,-0.026184,-0.001254,60.882965,30.465866,-145.961197,,,
729706834.74178,-1.321375,2.774556,-27.556309,-0.036148,-0.024887,0.994049,-0.042299,-0.020956,-0.003874,60.882965,30.465866,-145.961197,,,
729706834.743491,-1.321368,2.77459,116.353866,-0.036148,-0.024887,0.994049,-0.042299,-0.020956,-0.003874,60.554733,30.613983,-145.946121,,,
729706834.744923,-1.321375,2.774556,-27.556309,-0.036148,-0.024887,0.994049,-0.042299,-0.020956,-0.003874,60.554733,30.613983,-145.946121,,,
729706834.746756,-1.333001,2.769005,116.353626,-0.036148,-0.024887,0.994049,-0.042299,-0.020956,-0.003874,60.554733,30.613983,-145.946121,,,
729706834.747911,-1.333008,2.768971,-27.556555,-0.036148,-0.024887,0.994049,-0.042299,-0.020956,-0.003874,60.554733,30.613983,-145.946121,,,
729706834.750092,-1.333001,2.769005,116.353626,-0.036148,-0.024887,0.994049,-0.042299,-0.020956,-0.003874,60.554733,30.613983,-145.946121,,,
729706834.751913,-1.345794,2.765382,-27.556906,-0.036346,-0.029068,1.000854,-0.042137,-0.005989,-0.004535,60.554733,30.613983,-145.946121,,,
729706834.753446,-1.345787,2.765416,116.353273,-0.036346,-0.029068,1.000854,-0.042137,-0.005989,-0.004535,60.554733,30.613983,-145.946121,,,
729706834.754238,-1.345794,2.765382,-27.556906,-0.036346,-0.029068,1.000854,-0.042137,-0.005989,-0.004535,60.554733,30.613983,-145.946121,,,
729706834.756808,-1.35651,2.764863,116.35337,-0.036346,-0.029068,1.000854,-0.042137,-0.005989,-0.004535,60.554733,30.613983,-145.946121,,,
729706834.758245,-1.356517,2.764829,-27.556815,-0.036346,-0.029068,1.000854,-0.042137,-0.005989,-0.004535,60.554733,30.613983,-145.946121,,,
729706834.760104,-1.35651,2.764863,116.35337,-0.036346,-0.029068,1.000854,-0.042137,-0.005989,-0.004535,60.554733,30.613983,-145.946121,,,
729706834.764163,-1.366574,2.767306,-27.555805,-0.035324,-0.033844,1.012665,-0.032477,0.016798,0.002307,60.554733,30.613983,-145.946121,,,
729706834.764444,-1.366567,2.76734,116.354375,-0.035324,-0.033844,1.012665,-0.032477,0.016798,0.002307,60.554733,30.613983,-145.946121,,,
729706834.766708,-1.374473,2.773163,116.355483,-0.035324,-0.033844,1.012665,-0.032477,0.016798,0.002307,60.554733,30.613983,-145.946121,,,
729706834.767857,-1.37448,2.77313,-27.554689,-0.035324,-0.033844,1.012665,-0.032477,0.016798,0.002307,60.554733,30.613983,-145.946121,,,
729706834.770085,-1.374473,2.773163,116.355483,-0.035324,-0.033844,1.012665,-0.032477,0.016798,0.002307,60.554733,30.613983,-145.946121,,,
729706834.77329,-1.380651,2.780894,-27.554031,-0.036591,-0.032257,1.017731,-0.016432,0.031748,-7.6e-05,60.554733,30.613983,-145.946121,,,
729706834.773566,-1.380643,2.780928,116.356136,-0.036591,-0.032257,1.017731,-0.016432,0.031748,-7.6e-05,60.554733,30.613983,-145.946121,,,
729706834.774223,-1.380651,2.780894,-27.554031,-0.036591,-0.032257,1.017731,-0.016432,0.031748,-7.6e-05,60.554733,30.613983,-145.946121,,,
729706834.776757,-1.383475,2.789242,116.356971,-0.036591,-0.032257,1.017731,-0.016432,0.031748,-7.6e-05,60.554733,30.613983,-145.946121,,,
729706834.777909,-1.383482,2.789208,-27.5532,-0.036591,-0.032257,1.017731,-0.016432,0.031748,-7.6e-05,60.554733,30.613983,-145.946121,,,
729706834.780079,-1.383475,2.789242,116.356971,-0.036591,-0.032257,1.017731,-0.016432,0.031748,-7.6e-05,60.554733,30.613983,-145.946121,,,
729706834.782709,-1.384716,2.798034,-27.552448,-0.037247,-0.031998,1.020828,-0.000528,0.034132,0.000115,60.554733,30.613983,-145.946121,,,
729706834.783412,-1.384708,2.798068,116.357718,-0.037247,-0.031998,1.020828,-0.000528,0.034132,0.000115,60.722672,30.613892,-146.019165,,,
729706834.784694,-1.384716,2.798034,-27.552448,-0.037247,-0.031998,1.020828,-0.000528,0.034132,0.000115,60.722672,30.613892,-146.019165,,,
729706834.786761,-1.383776,2.806297,116.3577,-0.037247,-0.031998,1.020828,-0.000528,0.034132,0.000115,60.722672,30.613892,-146.019165,,,
729706834.787939,-1.383783,2.806263,-27.552491,-0.037247,-0.031998,1.020828,-0.000528,0.034132,0.000115,60.722672,30.613892,-146.019165,,,
729706834.790072,-1.383776,2.806297,116.3577,-0.037247,-0.031998,1.020828,-0.000528,0.034132,0.000115,60.722672,30.613892,-146.019165,,,
729706834.7933,-1.382532,2.81326,-27.553166,-0.038742,-0.028427,1.016327,0.007123,0.023845,-0.004018,60.722672,30.613892,-146.019165,,,
729706834.793552,-1.382525,2.813294,116.357008,-0.038742,-0.028427,1.016327,0.007123,0.023845,-0.004018,60.722672,30.613892,-146.019165,,,
729706834.794212,-1.382532,2.81326,-27.553166,-0.038742,-0.028427,1.016327,0.007123,0.023845,-0.004018,60.722672,30.613892,-146.019165,,,
729706834.796743,-1.38061,2.817538,116.355535,-0.038742,-0.028427,1.016327,0.007123,0.023845,-0.004018,60.722672,30.613892,-146.019165,,,
729706834.797907,-1.380617,2.817505,-27.554645,-0.038742,-0.028427,1.016327,0.007123,0.023845,-0.004018,60.722672,30.613892,-146.019165,,,
729706834.800109,-1.38061,2.817538,116.355535,-0.038742,-0.028427,1.016327,0.007123,0.023845,-0.004018,60.722672,30.613892,-146.019165,,,
729706834.801973,-1.378324,2.820591,-27.557265,-0.041611,-0.024048,1.011581,0.011877,0.010064,-0.011882,60.722672,30.613892,-146.019165,,,
729706834.803239,-1.378317,2.820625,116.352918,-0.041611,-0.024048,1.011581,0.011877,0.010064,-0.011882,60.722672,30.613892,-146.019165,,,
729706834.804245,-1.378324,2.820591,-27.557265,-0.041611,-0.024048,1.011581,0.011877,0.010064,-0.011882,60.722672,30.613892,-146.019165,,,
729706834.806733,-1.375401,2.820464,116.349232,-0.041611,-0.024048,1.011581,0.011877,0.010064,-0.011882,60.722672,30.613892,-146.019165,,,
729706834.807547,-1.375408,2.82043,-27.560949,-0.041611,-0.024048,1.011581,0.011877,0.010064,-0.011882,60.722672,30.613892,-146.019165,,,
729706834.810127,-1.375401,2.820464,116.349232,-0.041611,-0.024048,1.011581,0.011877,0.010064,-0.011882,60.722672,30.613892,-146.019165,,,
729706834.811889,-1.37292,2.82031,-27.565773,-0.043823,-0.023788,1.007339,0.010582,0.002273,-0.020068,60.722672,30.613892,-146.019165,,,
729706834.813413,-1.372913,2.820344,116.344408,-0.043823,-0.023788,1.007339,0.010582,0.002273,-0.020068,60.722672,30.613892,-146.019165,,,
729706834.814223,-1.37292,2.82031,-27.565773,-0.043823,-0.023788,1.007339,0.010582,0.002273,-0.020068,60.722672,30.613892,-146.019165,,,
729706834.816734,-1.370476,2.818309,116.337412,-0.043823,-0.023788,1.007339,0.010582,0.002273,-0.020068,60.722672,30.613892,-146.019165,,,
729706834.817548,-1.370483,2.818275,-27.572768,-0.043823,-0.023788,1.007339,0.010582,0.002273,-0.020068,60.722672,30.613892,-146.019165,,,
729706834.820102,-1.370476,2.818309,116.337412,-0.043823,-0.023788,1.007339,0.010582,0.002273,-0.020068,60.722672,30.613892,-146.019165,,,
729706834.821906,-1.370483,2.817833,-27.581218,-0.042831,-0.023209,1.004257,0.015147,0.001083,-0.030313,60.722672,30.613892,-146.019165,,,
729706834.823517,-1.367549,2.817867,116.328963,-0.042831,-0.023209,1.004257,0.015147,0.001083,-0.030313,60.722672,30.613892,-146.019165,,,
729706834.824863,-1.367556,2.817833,-27.581218,-0.042831,-0.023209,1.004257,0.015147,0.001083,-0.030313,60.660095,30.688431,-146.192459,,,
729706834.826757,-1.364128,2.815481,116.320057,-0.042831,-0.023209,1.004257,0.015147,0.001083,-0.030313,60.660095,30.688431,-146.192459,,,
729706834.828137,-1.364135,2.815447,-27.590124,-0.042831,-0.023209,1.004257,0.015147,0.001083,-0.030313,60.660095,30.688431,-146.192459,,,
729706834.830098,-1.364128,2.815481,116.320057,-0.042831,-0.023209,1.004257,0.015147,0.001083,-0.030313,60.660095,30.688431,-146.192459,,,
729706834.831782,-1.364135,2.815447,-27.599362,-0.045944,-0.022858,1.000275,0.013641,0.007278,-0.033006,60.660095,30.688431,-146.192459,,,
729706834.833424,-1.360547,2.815979,116.310822,-0.045944,-0.022858,1.000275,0.013641,0.007278,-0.033006,60.660095,30.688431,-146.192459,,,
729706834.834222,-1.360555,2.815945,-27.599362,-0.045944,-0.022858,1.000275,0.013641,0.007278,-0.033006,60.660095,30.688431,-146.192459,,,
729706834.836759,-1.358275,2.81607,116.302045,-0.045944,-0.022858,1.000275,0.013641,0.007278,-0.033006,60.660095,30.688431,-146.192459,,,
729706834.837833,-1.358282,2.816036,-27.60813,-0.045944,-0.022858,1.000275,0.013641,0.007278,-0.033006,60.660095,30.688431,-146.192459,,,
729706834.840077,-1.358275,2.81607,116.302045,-0.045944,-0.022858,1.000275,0.013641,0.007278,-0.033006,60.660095,30.688431,-146.192459,,,
729706834.841134,-1.358282,2.816036,-27.60813,-0.045944,-0.022858,1.000275,0.012747,0.018392,-0.026236,60.660095,30.688431,-146.192459,,,
729706834.843429,-1.354937,2.819824,116.294296,-0.053192,-0.022308,0.998215,0.012747,0.018392,-0.026236,60.660095,30.688431,-146.192459,,,
729706834.844768,-1.354944,2.81979,-27.615882,-0.053192,-0.022308,0.998215,0.012747,0.018392,-0.026236,60.660095,30.688431,-146.192459,,,
729706834.846741,-1.353637,2.822925,116.287711,-0.053192,-0.022308,0.998215,0.012747,0.018392,-0.026236,60.660095,30.688431,-146.192459,,,
729706834.847551,-1.353644,2.822891,-27.622465,-0.053192,-0.022308,0.998215,0.012747,0.018392,-0.026236,60.660095,30.688431,-146.192459,,,
