Time (sec),Pitch (deg),Roll (deg),Yaw(deg),X-Acceleration (g),Y-Acceleration (g),Z-Acceleration (g),Pitch Rate (deg/sec),Roll Rate (deg/sec),Yaw Rate (deg/sec),Magnetic Field in X direction (uT),Magnetic Field in Y direction (uT),Magnetic Field in Z Direction (uT),Latitude (deg),Longitude (deg),Altitude (m)
729706562.694912,-3.006114,-1.235264,166.007544,0.023972,-0.048431,0.985229,-0.013266,-0.015889,-0.018778,86.645172,15.141006,-147.039627,,,
729706562.698255,-3.006114,-1.235264,166.007544,0.023972,-0.048431,0.985229,-0.013266,-0.015889,-0.018778,86.645172,15.141006,-147.039627,,,
729706562.701609,-3.009844,-1.245165,166.002177,0.023972,-0.048431,0.985229,-0.013266,-0.015889,-0.018778,86.645172,15.141006,-147.039627,,,
729706562.704918,-3.01513,-1.25121,165.997537,0.024918,-0.049561,0.988098,-0.017938,-0.018664,-0.015124,86.645172,15.141006,-147.039627,,,
729706562.708244,-3.01513,-1.25121,165.997537,0.024918,-0.049561,0.988098,-0.017938,-0.018664,-0.015124,86.645172,15.141006,-147.039627,,,
729706562.711606,-3.020841,-1.260615,165.993202,0.024918,-0.049561,0.988098,-0.017938,-0.018664,-0.015124,86.645172,15.141006,-147.039627,,,
729706562.714912,-3.027042,-1.264986,165.988751,0.026031,-0.050049,0.991699,-0.022,-0.008142,-0.017117,86.645172,15.141006,-147.039627,,,
729706562.718311,-3.027042,-1.264986,165.988751,0.026031,-0.050049,0.991699,-0.022,-0.008142,-0.017117,86.645172,15.141006,-147.039627,,,
729706562.721596,-3.034254,-1.271762,165.983517,0.026031,-0.050049,0.991699,-0.022,-0.008142,-0.017117,86.574982,15.177902,-146.990967,,,
729706562.724911,-3.041939,-1.274443,165.977716,0.027298,-0.050339,0.992188,-0.027283,-0.001625,-0.022113,86.574982,15.177902,-146.990967,,,
729706562.728254,-3.041939,-1.274443,165.977716,0.027298,-0.050339,0.992188,-0.027283,-0.001625,-0.022113,86.574982,15.177902,-146.990967,,,
729706562.731639,-3.049258,-1.279325,165.971133,0.027298,-0.050339,0.992188,-0.027283,-0.001625,-0.022113,86.574982,15.177902,-146.990967,,,
729706562.734961,-3.055776,-1.280799,165.964146,0.028244,-0.053101,0.99411,-0.023659,0.001142,-0.02611,86.574982,15.177902,-146.990967,,,
729706562.738245,-3.055776,-1.280799,165.964146,0.028244,-0.053101,0.99411,-0.023659,0.001142,-0.02611,86.574982,15.177902,-146.990967,,,
729706562.741577,-3.062425,-1.283651,165.956502,0.028244,-0.053101,0.99411,-0.023659,0.001142,-0.02611,86.574982,15.177902,-146.990967,,,
729706562.744904,-3.068254,-1.282673,165.948048,0.027649,-0.050308,0.996933,-0.020081,0.009636,-0.03289,86.574982,15.177902,-146.990967,,,
729706562.748262,-3.068254,-1.282673,165.948048,0.027649,-0.050308,0.996933,-0.020081,0.009636,-0.03289,86.574982,15.177902,-146.990967,,,
729706562.751577,-3.074014,-1.282616,165.938391,0.027649,-0.050308,0.996933,-0.020081,0.009636,-0.03289,86.574982,15.177902,-146.990967,,,
729706562.754915,-3.079739,-1.279249,165.928419,0.027649,-0.047836,0.998108,-0.020612,0.017614,-0.035901,86.574982,15.177902,-146.990967,,,
729706562.758292,-3.079739,-1.279249,165.928419,0.027649,-0.047836,0.998108,-0.020612,0.017614,-0.035901,86.574982,15.177902,-146.990967,,,
729706562.7616,-3.085232,-1.276474,165.918469,0.027649,-0.047836,0.998108,-0.020612,0.017614,-0.035901,86.453568,15.102615,-147.151581,,,
729706562.764909,-3.093009,-1.269935,165.909087,0.024948,-0.049255,0.99852,-0.030348,0.032865,-0.032288,86.453568,15.102615,-147.151581,,,
729706562.768344,-3.093009,-1.269935,165.909087,0.024948,-0.049255,0.99852,-0.030348,0.032865,-0.032288,86.453568,15.102615,-147.151581,,,
729706562.7716,-3.101567,-1.261159,165.900406,0.024948,-0.049255,0.99852,-0.030348,0.032865,-0.032288,86.453568,15.102615,-147.151581,,,
729706562.774919,-3.113212,-1.249719,165.892599,0.017975,-0.052811,0.998718,-0.04503,0.047182,-0.026065,86.453568,15.102615,-147.151581,,,
729706562.77826,-3.113212,-1.249719,165.892599,0.017975,-0.052811,0.998718,-0.04503,0.047182,-0.026065,86.453568,15.102615,-147.151581,,,
729706562.781649,-3.126004,-1.237853,165.886006,0.017975,-0.052811,0.998718,-0.04503,0.047182,-0.026065,86.453568,15.102615,-147.151581,,,
729706562.784902,-3.141024,-1.224924,165.880474,0.013275,-0.055161,0.998627,-0.05371,0.049483,-0.018786,86.453568,15.102615,-147.151581,,,
729706562.78826,-3.141024,-1.224924,165.880474,0.013275,-0.055161,0.998627,-0.05371,0.049483,-0.018786,86.453568,15.102615,-147.151581,,,
729706562.791571,-3.155732,-1.21315,165.87577,0.013275,-0.055161,0.998627,-0.05371,0.049483,-0.018786,86.453568,15.102615,-147.151581,,,
729706562.794911,-3.170193,-1.201577,165.872608,0.008377,-0.055481,0.996979,-0.047088,0.041433,-0.008525,86.453568,15.102615,-147.151581,,,
729706562.798258,-3.170193,-1.201577,165.872608,0.008377,-0.055481,0.996979,-0.047088,0.041433,-0.008525,86.453568,15.102615,-147.151581,,,
729706562.801656,-3.182569,-1.19348,165.870365,0.008377,-0.055481,0.996979,-0.047088,0.041433,-0.008525,86.527008,15.23912,-147.039047,,,
729706562.804906,-3.195023,-1.186217,165.868389,0.010681,-0.055603,0.999222,-0.041898,0.024883,-0.007348,86.527008,15.23912,-147.039047,,,
729706562.8083,-3.195023,-1.186217,165.868389,0.010681,-0.055603,0.999222,-0.041898,0.024883,-0.007348,86.527008,15.23912,-147.039047,,,
729706562.81159,-3.206185,-1.182999,165.866674,0.010681,-0.055603,0.999222,-0.041898,0.024883,-0.007348,86.527008,15.23912,-147.039047,,,
729706562.814932,-3.216871,-1.180794,165.865099,0.013885,-0.054535,0.998306,-0.034283,0.007037,-0.007083,86.527008,15.23912,-147.039047,,,
729706562.818237,-3.216871,-1.180794,165.865099,0.013885,-0.054535,0.998306,-0.034283,0.007037,-0.007083,86.527008,15.23912,-147.039047,,,
729706562.821661,-3.22588,-1.182994,165.862767,0.013885,-0.054535,0.998306,-0.034283,0.007037,-0.007083,86.527008,15.23912,-147.039047,,,
729706562.8249,-3.234854,-1.18515,165.859626,0.015213,-0.05246,0.998062,-0.030183,-0.005368,-0.013509,86.527008,15.23912,-147.039047,,,
729706562.828251,-3.234854,-1.18515,165.859626,0.015213,-0.05246,0.998062,-0.030183,-0.005368,-0.013509,86.527008,15.23912,-147.039047,,,
729706562.831592,-3.241906,-1.189802,165.855702,0.015213,-0.05246,0.998062,-0.030183,-0.005368,-0.013509,86.527008,15.23912,-147.039047,,,
729706562.834906,-3.249282,-1.194071,165.852013,0.017075,-0.056046,0.994202,-0.023354,-0.013975,-0.012686,86.527008,15.23912,-147.039047,,,
729706562.838252,-3.249282,-1.194071,165.852013,0.017075,-0.056046,0.994202,-0.023354,-0.013975,-0.012686,86.527008,15.23912,-147.039047,,,
729706562.841572,-3.254331,-1.201173,165.849209,0.017075,-0.056046,0.994202,-0.023354,-0.013975,-0.012686,86.452988,15.368393,-147.485046,,,
729706562.845017,-3.259476,-1.208456,165.847619,0.018433,-0.057083,0.988922,-0.014168,-0.024686,-0.004946,86.452988,15.368393,-147.485046,,,
729706562.848311,-3.259476,-1.208456,165.847619,0.018433,-0.057083,0.988922,-0.014168,-0.024686,-0.004946,86.452988,15.368393,-147.485046,,,
729706562.851586,-3.261941,-1.216832,165.846543,0.018433,-0.057083,0.988922,-0.014168,-0.024686,-0.004946,86.452988,15.368393,-147.485046,,,
729706562.854909,-3.265135,-1.22564,165.845221,0.027283,-0.056305,0.986267,-0.011939,-0.026549,-0.00664,86.452988,15.368393,-147.485046,,,
729706562.858241,-3.265135,-1.22564,165.845221,0.027283,-0.056305,0.986267,-0.011939,-0.026549,-0.00664,86.452988,15.368393,-147.485046,,,
729706562.861582,-3.26812,-1.232362,165.843046,0.027283,-0.056305,0.986267,-0.011939,-0.026549,-0.00664,86.452988,15.368393,-147.485046,,,
729706562.864907,-3.272397,-1.238872,165.839106,0.036179,-0.055237,0.984955,-0.017674,-0.014912,-0.018237,86.452988,15.368393,-147.485046,,,
729706562.868253,-3.272397,-1.238872,165.839106,0.036179,-0.055237,0.984955,-0.017674,-0.014912,-0.018237,86.452988,15.368393,-147.485046,,,
729706562.871578,-3.277259,-1.240361,165.833632,0.036179,-0.055237,0.984955,-0.017674,-0.014912,-0.018237,86.452988,15.368393,-147.485046,,,
729706562.874909,-3.282859,-1.241729,165.82644,0.038101,-0.05452,0.98613,-0.020701,0.003529,-0.029147,86.452988,15.368393,-147.485046,,,
729706562.878254,-3.282859,-1.241729,165.82644,0.038101,-0.05452,0.98613,-0.020701,0.003529,-0.029147,86.452988,15.368393,-147.485046,,,
729706562.881595,-3.289345,-1.237723,165.818909,0.038101,-0.05452,0.98613,-0.020701,0.003529,-0.029147,86.452988,15.368393,-147.485046,,,
729706562.884905,-3.296581,-1.233923,165.811555,0.036942,-0.057953,0.988953,-0.025249,0.021755,-0.026704,86.522171,15.467209,-147.198303,,,
729706562.888304,-3.296581,-1.233923,165.811555,0.036942,-0.057953,0.988953,-0.025249,0.021755,-0.026704,86.522171,15.467209,-147.198303,,,
729706562.891595,-3.303644,-1.226423,165.804519,0.036942,-0.057953,0.988953,-0.025249,0.021755,-0.026704,86.522171,15.467209,-147.198303,,,
729706562.894912,-3.311823,-1.22066,165.797616,0.033173,-0.062149,0.987122,-0.029826,0.024702,-0.024817,86.522171,15.467209,-147.198303,,,
729706562.898257,-3.311823,-1.22066,165.797616,0.033173,-0.062149,0.987122,-0.029826,0.024702,-0.024817,86.522171,15.467209,-147.198303,,,
729706562.901662,-3.31954,-1.213918,165.790781,0.033173,-0.062149,0.987122,-0.029826,0.024702,-0.024817,86.522171,15.467209,-147.198303,,,
729706562.90498,-3.328778,-1.209248,165.783959,0.027664,-0.056503,0.983978,-0.034584,0.020905,-0.024022,86.522171,15.467209,-147.198303,,,
729706562.908374,-3.328778,-1.209248,165.783959,0.027664,-0.056503,0.983978,-0.034584,0.020905,-0.024022,86.522171,15.467209,-147.198303,,,
729706562.911602,-3.338513,-1.20393,165.776923,0.027664,-0.056503,0.983978,-0.034584,0.020905,-0.024022,86.522171,15.467209,-147.198303,,,
729706562.914918,-3.349527,-1.200269,165.769228,0.023956,-0.054077,0.990021,-0.037988,0.016066,-0.028162,86.522171,15.467209,-147.198303,,,
729706562.918341,-3.349527,-1.200269,165.769228,0.023956,-0.054077,0.990021,-0.037988,0.016066,-0.028162,86.522171,15.467209,-147.198303,,,
729706562.921602,-3.359995,-1.19665,165.76128,0.023956,-0.054077,0.990021,-0.037988,0.016066,-0.028162,86.522171,15.467209,-147.198303,,,
729706562.924921,-3.370598,-1.194442,165.752905,0.018387,-0.055435,0.993805,-0.037797,0.01098,-0.0309,86.503616,15.755142,-146.96666,,,
729706562.928323,-3.370598,-1.194442,165.752905,0.018387,-0.055435,0.993805,-0.037797,0.01098,-0.0309,86.503616,15.755142,-146.96666,,,
729706562.931591,-3.380794,-1.193171,165.743708,0.018387,-0.055435,0.993805,-0.037797,0.01098,-0.0309,86.503616,15.755142,-146.96666,,,
729706562.934915,-3.390794,-1.192829,165.733998,0.014603,-0.056931,0.992569,-0.034882,0.003098,-0.034572,86.503616,15.755142,-146.96666,,,
729706562.938256,-3.390794,-1.192829,165.733998,0.014603,-0.056931,0.992569,-0.034882,0.003098,-0.034572,86.503616,15.755142,-146.96666,,,
729706562.941589,-3.399951,-1.197051,165.724143,0.014603,-0.056931,0.992569,-0.034882,0.003098,-0.034572,86.503616,15.755142,-146.96666,,,
729706562.945048,-3.408508,-1.200457,165.714943,0.010132,-0.059128,0.994659,-0.027811,-0.01033,-0.031283,86.503616,15.755142,-146.96666,,,
729706562.948251,-3.408508,-1.200457,165.714943,0.010132,-0.059128,0.994659,-0.027811,-0.01033,-0.031283,86.503616,15.755142,-146.96666,,,
729706562.951607,-3.414958,-1.208664,165.706189,0.010132,-0.059128,0.994659,-0.027811,-0.01033,-0.031283,86.503616,15.755142,-146.96666,,,
729706562.954912,-3.420969,-1.213179,165.698264,0.006729,-0.062546,1.000977,-0.019942,-0.011015,-0.027218,86.503616,15.755142,-146.96666,,,
729706562.958282,-3.420969,-1.213179,165.698264,0.006729,-0.062546,1.000977,-0.019942,-0.011015,-0.027218,86.503616,15.755142,-146.96666,,,
729706562.961591,-3.42556,-1.221113,165.690705,0.006729,-0.062546,1.000977,-0.019942,-0.011015,-0.027218,86.503616,15.755142,-146.96666,,,
729706562.964945,-3.429835,-1.225437,165.683463,0.008255,-0.062042,1.000198,-0.014533,-0.011811,-0.026697,86.603119,15.672729,-147.366165,,,
729706562.968254,-3.429835,-1.225437,165.683463,0.008255,-0.062042,1.000198,-0.014533,-0.011811,-0.026697,86.603119,15.672729,-147.366165,,,
729706562.971595,-3.434804,-1.232649,165.675735,0.008255,-0.062042,1.000198,-0.014533,-0.011811,-0.026697,86.603119,15.672729,-147.366165,,,
729706562.97474,-3.439332,-1.236021,165.667918,0.01091,-0.058868,1.000137,-0.014128,-0.006004,-0.028593,86.603119,15.672729,-147.366165,,,
729706562.978368,-3.439332,-1.236021,165.667918,0.01091,-0.058868,1.000137,-0.014128,-0.006004,-0.028593,86.603119,15.672729,-147.366165,,,
729706562.981597,-3.444113,-1.241376,165.660371,0.01091,-0.058868,1.000137,-0.014128,-0.006004,-0.028593,86.603119,15.672729,-147.366165,,,
729706562.984915,-3.449986,-1.244346,165.653514,0.009003,-0.058792,0.999451,-0.022676,-0.003804,-0.024495,86.603119,15.672729,-147.366165,,,
729706562.988241,-3.449986,-1.244346,165.653514,0.009003,-0.058792,0.999451,-0.022676,-0.003804,-0.024495,86.603119,15.672729,-147.366165,,,
729706562.991649,-3.455937,-1.2479,165.646885,0.009003,-0.058792,0.999451,-0.022676,-0.003804,-0.024495,86.603119,15.672729,-147.366165,,,
729706562.99491,-3.463173,-1.249825,165.640991,0.009872,-0.063522,0.998611,-0.025645,0.000495,-0.019689,86.603119,15.672729,-147.366165,,,
729706562.998262,-3.463173,-1.249825,165.640991,0.009872,-0.063522,0.998611,-0.025645,0.000495,-0.019689,86.603119,15.672729,-147.366165,,,
729706563.001595,-3.470269,-1.25004,165.636797,0.009872,-0.063522,0.998611,-0.025645,0.000495,-0.019689,86.603119,15.672729,-147.366165,,,
729706563.004926,-3.478916,-1.249897,165.6343,0.00444,-0.064682,0.999802,-0.028334,0.002785,-0.007776,86.603119,15.672729,-147.366165,,,
729706563.008243,-3.478916,-1.249897,165.6343,0.00444,-0.064682,0.999802,-0.028334,0.002785,-0.007776,86.370895,15.886414,-146.998032,,,
729706563.011598,-3.487015,-1.248923,165.633036,0.00444,-0.064682,0.999802,-0.028334,0.002785,-0.007776,86.370895,15.886414,-146.998032,,,
729706563.01492,-3.495765,-1.249502,165.632303,0.004669,-0.062088,0.997559,-0.028707,0.000249,-0.003546,86.370895,15.886414,-146.998032,,,
729706563.018305,-3.495765,-1.249502,165.632303,0.004669,-0.062088,0.997559,-0.028707,0.000249,-0.003546,86.370895,15.886414,-146.998032,,,
729706563.021602,-3.503674,-1.248498,165.631818,0.004669,-0.062088,0.997559,-0.028707,0.000249,-0.003546,86.370895,15.886414,-146.998032,,,
729706563.024982,-3.511896,-1.249897,165.631603,0.006821,-0.062271,0.999817,-0.02657,-0.002559,-0.000883,86.370895,15.886414,-146.998032,,,
729706563.028245,-3.511896,-1.249897,165.631603,0.006821,-0.062271,0.999817,-0.02657,-0.002559,-0.000883,86.370895,15.886414,-146.998032,,,
729706563.03166,-3.519149,-1.248168,165.631404,0.006821,-0.062271,0.999817,-0.02657,-0.002559,-0.000883,86.370895,15.886414,-146.998032,,,
729706563.034902,-3.52554,-1.249329,165.630486,0.006241,-0.064316,1.005936,-0.020164,-0.000872,-0.004713,86.370895,15.886414,-146.998032,,,
729706563.038244,-3.52554,-1.249329,165.630486,0.006241,-0.064316,1.005936,-0.020164,-0.000872,-0.004713,86.370895,15.886414,-146.998032,,,
729706563.041593,-3.531128,-1.247133,165.629908,0.006241,-0.064316,1.005936,-0.020164,-0.000872,-0.004713,86.370895,15.886414,-146.998032,,,
729706563.044911,-3.535358,-1.248459,165.630082,0.005997,-0.067749,1.006729,-0.012562,-0.002417,0.00179,86.370895,15.886414,-146.998032,,,
729706563.048251,-3.535358,-1.248459,165.630082,0.005997,-0.067749,1.006729,-0.012562,-0.002417,0.00179,86.381119,15.829498,-147.334625,,,
729706563.051595,-3.538826,-1.247744,165.631975,0.005997,-0.067749,1.006729,-0.012562,-0.002417,0.00179,86.381119,15.829498,-147.334625,,,
729706563.054914,-3.541983,-1.250299,165.635255,0.006027,-0.06955,1.002319,-0.008434,-0.008484,0.01243,86.381119,15.829498,-147.334625,,,
729706563.058317,-3.541983,-1.250299,165.635255,0.006027,-0.06955,1.002319,-0.008434,-0.008484,0.01243,86.381119,15.829498,-147.334625,,,
729706563.061576,-3.544165,-1.25199,165.639858,0.006027,-0.06955,1.002319,-0.008434,-0.008484,0.01243,86.381119,15.829498,-147.334625,,,
729706563.064908,-3.547414,-1.257887,165.644975,0.011795,-0.066605,0.997787,-0.010888,-0.02023,0.01714,86.381119,15.829498,-147.334625,,,
729706563.068256,-3.547414,-1.257887,165.644975,0.011795,-0.066605,0.997787,-0.010888,-0.02023,0.01714,86.381119,15.829498,-147.334625,,,
729706563.071653,-3.55122,-1.261599,165.650796,0.011795,-0.066605,0.997787,-0.010888,-0.02023,0.01714,86.381119,15.829498,-147.334625,,,
729706563.074901,-3.556427,-1.268881,165.656452,0.015274,-0.06366,0.993149,-0.019896,-0.026222,0.017412,86.381119,15.829498,-147.334625,,,
729706563.078263,-3.556427,-1.268881,165.656452,0.015274,-0.06366,0.993149,-0.019896,-0.026222,0.017412,86.381119,15.829498,-147.334625,,,
729706563.081589,-3.563773,-1.274565,165.66127,0.015274,-0.06366,0.993149,-0.019896,-0.026222,0.017412,86.381119,15.829498,-147.334625,,,
729706563.084912,-3.572947,-1.284838,165.664833,0.020706,-0.061295,0.990707,-0.035749,-0.036252,0.010352,86.381119,15.829498,-147.334625,,,
729706563.088244,-3.572947,-1.284838,165.664833,0.020706,-0.061295,0.990707,-0.035749,-0.036252,0.010352,86.301514,15.882645,-147.382874,,,
729706563.091579,-3.584719,-1.29132,165.667989,0.020706,-0.061295,0.990707,-0.035749,-0.036252,0.010352,86.301514,15.882645,-147.382874,,,
729706563.09491,-3.597731,-1.301383,165.670243,0.0242,-0.064301,0.993561,-0.046064,-0.031558,0.006176,86.301514,15.882645,-147.382874,,,
729706563.0983,-3.597731,-1.301383,165.670243,0.0242,-0.064301,0.993561,-0.046064,-0.031558,0.006176,86.301514,15.882645,-147.382874,,,
729706563.101598,-3.611239,-1.307853,165.672465,0.0242,-0.064301,0.993561,-0.046064,-0.031558,0.006176,86.301514,15.882645,-147.382874,,,
729706563.10491,-3.62527,-1.317904,165.674423,0.027298,-0.069092,0.998749,-0.04832,-0.031675,0.005962,86.301514,15.882645,-147.382874,,,
729706563.108252,-3.62527,-1.317904,165.674423,0.027298,-0.069092,0.998749,-0.04832,-0.031675,0.005962,86.301514,15.882645,-147.382874,,,
729706563.111581,-3.639334,-1.324115,165.676625,0.027298,-0.069092,0.998749,-0.04832,-0.031675,0.005962,86.301514,15.882645,-147.382874,,,
729706563.114912,-3.654072,-1.334178,165.67876,0.030914,-0.068985,0.995636,-0.052414,-0.031978,0.007254,86.301514,15.882645,-147.382874,,,
729706563.118271,-3.654072,-1.334178,165.67876,0.030914,-0.068985,0.995636,-0.052414,-0.031978,0.007254,86.301514,15.882645,-147.382874,,,
729706563.12159,-3.669597,-1.340552,165.681609,0.030914,-0.068985,0.995636,-0.052414,-0.031978,0.007254,86.301514,15.882645,-147.382874,,,
729706563.124913,-3.685435,-1.351241,165.68394,0.032944,-0.068848,0.991013,-0.055902,-0.034249,0.005491,86.301514,15.882645,-147.382874,,,
729706563.128248,-3.685435,-1.351241,165.68394,0.032944,-0.068848,0.991013,-0.055902,-0.034249,0.005491,86.405045,15.806702,-147.2798,,,
729706563.131579,-3.70324,-1.358662,165.685426,0.032944,-0.068848,0.991013,-0.055902,-0.034249,0.005491,86.405045,15.806702,-147.2798,,,
729706563.134913,-3.721736,-1.370514,165.685591,0.034958,-0.066238,0.982971,-0.066005,-0.038033,-0.001739,86.405045,15.806702,-147.2798,,,
729706563.138258,-3.721736,-1.370514,165.685591,0.034958,-0.066238,0.982971,-0.066005,-0.038033,-0.001739,86.405045,15.806702,-147.2798,,,
729706563.141593,-3.742251,-1.378915,165.684756,0.034958,-0.066238,0.982971,-0.066005,-0.038033,-0.001739,86.405045,15.806702,-147.2798,,,
729706563.144913,-3.764093,-1.389831,165.682312,0.037766,-0.063507,0.981827,-0.080492,-0.031206,-0.010996,86.405045,15.806702,-147.2798,,,
729706563.148239,-3.764093,-1.389831,165.682312,0.037766,-0.063507,0.981827,-0.080492,-0.031206,-0.010996,86.405045,15.806702,-147.2798,,,
729706563.1516,-3.790086,-1.396584,165.678494,0.037766,-0.063507,0.981827,-0.080492,-0.031206,-0.010996,86.405045,15.806702,-147.2798,,,
729706563.154912,-3.821668,-1.404705,165.673463,0.041595,-0.062943,0.976791,-0.119169,-0.024145,-0.017433,86.405045,15.806702,-147.2798,,,
729706563.158166,-3.821668,-1.404705,165.673463,0.041595,-0.062943,0.976791,-0.119169,-0.024145,-0.017433,86.405045,15.806702,-147.2798,,,
729706563.161652,-3.857484,-1.412171,165.667083,0.041595,-0.062943,0.976791,-0.119169,-0.024145,-0.017433,86.405045,15.806702,-147.2798,,,
729706563.164899,-3.899291,-1.422563,165.659026,0.041275,-0.064713,0.970764,-0.156582,-0.03235,-0.027366,86.405045,15.806702,-147.2798,,,
729706563.168263,-3.899291,-1.422563,165.659026,0.041275,-0.064713,0.970764,-0.156582,-0.03235,-0.027366,86.405045,15.806702,-147.2798,,,
729706563.171592,-3.945978,-1.433714,165.649682,0.041275,-0.064713,0.970764,-0.156582,-0.03235,-0.027366,86.406677,16.144958,-147.288742,,,
729706563.174906,-4.000067,-1.447325,165.638923,0.03717,-0.062042,0.964447,-0.200857,-0.047233,-0.035911,86.406677,16.144958,-147.288742,,,
729706563.178256,-4.000067,-1.447325,165.638923,0.03717,-0.062042,0.964447,-0.200857,-0.047233,-0.035911,86.406677,16.144958,-147.288742,,,
729706563.181586,-4.060849,-1.463887,165.62618,0.03717,-0.062042,0.964447,-0.200857,-0.047233,-0.035911,86.406677,16.144958,-147.288742,,,
729706563.184914,-4.128808,-1.483217,165.611146,0.03566,-0.060272,0.958923,-0.248769,-0.064747,-0.05042,86.406677,16.144958,-147.288742,,,
729706563.188324,-4.128808,-1.483217,165.611146,0.03566,-0.060272,0.958923,-0.248769,-0.064747,-0.05042,86.406677,16.144958,-147.288742,,,
729706563.191592,-4.203319,-1.505473,165.594565,0.03566,-0.060272,0.958923,-0.248769,-0.064747,-0.05042,86.406677,16.144958,-147.288742,,,
729706563.194935,-4.284495,-1.527999,165.576734,0.035233,-0.062439,0.966949,-0.292189,-0.071455,-0.058151,86.406677,16.144958,-147.288742,,,
729706563.198258,-4.284495,-1.527999,165.576734,0.035233,-0.062439,0.966949,-0.292189,-0.071455,-0.058151,86.406677,16.144958,-147.288742,,,
729706563.201646,-4.369067,-1.551322,165.55771,0.035233,-0.062439,0.966949,-0.292189,-0.071455,-0.058151,86.406677,16.144958,-147.288742,,,
729706563.2049,-4.45708,-1.572241,165.538632,0.031998,-0.074081,0.981064,-0.31102,-0.060699,-0.058256,86.406677,16.144958,-147.288742,,,
729706563.208255,-4.45708,-1.572241,165.538632,0.031998,-0.074081,0.981064,-0.31102,-0.060699,-0.058256,86.406677,16.144958,-147.288742,,,
729706563.21159,-4.544557,-1.591511,165.520572,0.031998,-0.074081,0.981064,-0.31102,-0.060699,-0.058256,86.193161,16.685913,-147.495987,,,
729706563.214904,-4.63344,-1.607014,165.50489,0.026993,-0.088333,0.991623,-0.310852,-0.043271,-0.04211,86.193161,16.685913,-147.495987,,,
729706563.218249,-4.63344,-1.607014,165.50489,0.026993,-0.088333,0.991623,-0.310852,-0.043271,-0.04211,86.193161,16.685913,-147.495987,,,
729706563.221593,-4.719219,-1.62161,165.492242,0.026993,-0.088333,0.991623,-0.310852,-0.043271,-0.04211,86.193161,16.685913,-147.495987,,,
729706563.224904,-4.804907,-1.633024,165.483002,0.026154,-0.094849,0.997025,-0.296434,-0.032336,-0.019421,86.193161,16.685913,-147.495987,,,
729706563.228305,-4.804907,-1.633024,165.483002,0.026154,-0.094849,0.997025,-0.296434,-0.032336,-0.019421,86.193161,16.685913,-147.495987,,,
729706563.231585,-4.886469,-1.644855,165.477142,0.026154,-0.094849,0.997025,-0.296434,-0.032336,-0.019421,86.193161,16.685913,-147.495987,,,
729706563.234955,-4.969011,-1.652793,165.474847,0.021347,-0.095871,1.00061,-0.284358,-0.021174,0.003915,86.193161,16.685913,-147.495987,,,
729706563.238246,-4.969011,-1.652793,165.474847,0.021347,-0.095871,1.00061,-0.284358,-0.021174,0.003915,86.193161,16.685913,-147.495987,,,
729706563.241652,-5.047695,-1.661395,165.475661,0.021347,-0.095871,1.00061,-0.284358,-0.021174,0.003915,86.193161,16.685913,-147.495987,,,
729706563.244905,-5.129588,-1.666186,165.479491,0.020004,-0.097382,0.997437,-0.285715,-0.013467,0.023469,86.193161,16.685913,-147.495987,,,
729706563.248263,-5.129588,-1.666186,165.479491,0.020004,-0.097382,0.997437,-0.285715,-0.013467,0.023469,86.193161,16.685913,-147.495987,,,
729706563.251587,-5.2093,-1.671965,165.485073,0.020004,-0.097382,0.997437,-0.285715,-0.013467,0.023469,86.246658,17.172562,-147.473907,,,
729706563.254913,-5.294132,-1.675535,165.492564,0.023361,-0.098373,0.987061,-0.296897,-0.014517,0.035692,86.246658,17.172562,-147.473907,,,
729706563.258254,-5.294132,-1.675535,165.492564,0.023361,-0.098373,0.987061,-0.296897,-0.014517,0.035692,86.246658,17.172562,-147.473907,,,
729706563.2616,-5.37802,-1.682693,165.501592,0.023361,-0.098373,0.987061,-0.296897,-0.014517,0.035692,86.246658,17.172562,-147.473907,,,
729706563.264912,-5.471148,-1.691203,165.511914,0.025299,-0.099762,0.970261,-0.334142,-0.033637,0.044978,86.246658,17.172562,-147.473907,,,
729706563.268312,-5.471148,-1.691203,165.511914,0.025299,-0.099762,0.970261,-0.334142,-0.033637,0.044978,86.246658,17.172562,-147.473907,,,
729706563.271587,-5.567846,-1.702885,165.522731,0.025299,-0.099762,0.970261,-0.334142,-0.033637,0.044978,86.246658,17.172562,-147.473907,,,
729706563.2749,-5.676874,-1.715272,165.534177,0.022049,-0.097321,0.955994,-0.394367,-0.046357,0.050515,86.246658,17.172562,-147.473907,,,
729706563.278252,-5.676874,-1.715272,165.534177,0.022049,-0.097321,0.955994,-0.394367,-0.046357,0.050515,86.246658,17.172562,-147.473907,,,
729706563.281633,-5.793272,-1.728678,165.545589,0.022049,-0.097321,0.955994,-0.394367,-0.046357,0.050515,86.246658,17.172562,-147.473907,,,
729706563.2849,-5.924264,-1.740648,165.557379,0.023788,-0.094955,0.953461,-0.476676,-0.039985,0.05547,86.246658,17.172562,-147.473907,,,
729706563.28825,-5.924264,-1.740648,165.557379,0.023788,-0.094955,0.953461,-0.476676,-0.039985,0.05547,86.246658,17.172562,-147.473907,,,
729706563.291571,-6.065828,-1.750404,165.570482,0.023788,-0.094955,0.953461,-0.476676,-0.039985,0.05547,86.192413,17.970398,-147.617432,,,
729706563.294899,-6.220443,-1.757926,165.585661,0.016327,-0.104568,0.955429,-0.555289,-0.025624,0.07246,86.192413,17.970398,-147.617432,,,
729706563.298249,-6.220443,-1.757926,165.585661,0.016327,-0.104568,0.955429,-0.555289,-0.025624,0.07246,86.192413,17.970398,-147.617432,,,
729706563.301572,-6.385713,-1.762885,165.603407,0.016327,-0.104568,0.955429,-0.555289,-0.025624,0.07246,86.192413,17.970398,-147.617432,,,
729706563.304954,-6.561386,-1.765833,165.624476,0.009109,-0.111465,0.95462,-0.627115,-0.014726,0.097771,86.192413,17.970398,-147.617432,,,
729706563.308278,-6.561386,-1.765833,165.624476,0.009109,-0.111465,0.95462,-0.627115,-0.014726,0.097771,86.192413,17.970398,-147.617432,,,
729706563.311709,-6.747875,-1.768483,165.649262,0.009109,-0.111465,0.95462,-0.627115,-0.014726,0.097771,86.192413,17.970398,-147.617432,,,
729706563.314969,-6.945455,-1.772533,165.677709,0.002197,-0.118011,0.940247,-0.703703,-0.028231,0.12553,86.192413,17.970398,-147.617432,,,
729706563.318238,-6.945455,-1.772533,165.677709,0.002197,-0.118011,0.940247,-0.703703,-0.028231,0.12553,86.192413,17.970398,-147.617432,,,
729706563.321659,-7.153855,-1.780317,165.70967,0.002197,-0.118011,0.940247,-0.703703,-0.028231,0.12553,86.192413,17.970398,-147.617432,,,
729706563.324939,-7.372621,-1.793599,165.744304,0.003494,-0.121521,0.925171,-0.775147,-0.069836,0.146435,86.192413,17.970398,-147.617432,,,
729706563.328251,-7.372621,-1.793599,165.744304,0.003494,-0.121521,0.925171,-0.775147,-0.069836,0.146435,86.192413,17.970398,-147.617432,,,
729706563.331592,-7.600641,-1.81382,165.780228,0.003494,-0.121521,0.925171,-0.775147,-0.069836,0.146435,86.192413,17.970398,-147.617432,,,
729706563.334964,-7.836596,-1.841999,165.815291,0.006561,-0.121078,0.920181,-0.83002,-0.125549,0.142694,86.078842,19.294434,-147.541946,,,
729706563.338244,-7.836596,-1.841999,165.815291,0.006561,-0.121078,0.920181,-0.83002,-0.125549,0.142694,86.078842,19.294434,-147.541946,,,
729706563.341591,-8.079196,-1.877843,165.847647,0.006561,-0.121078,0.920181,-0.83002,-0.125549,0.142694,86.078842,19.294434,-147.541946,,,
729706563.344946,-8.328229,-1.919805,165.87574,0.020203,-0.121124,0.926575,-0.875157,-0.164941,0.115748,86.078842,19.294434,-147.541946,,,
729706563.348296,-8.328229,-1.919805,165.87574,0.020203,-0.121124,0.926575,-0.875157,-0.164941,0.115748,86.078842,19.294434,-147.541946,,,
729706563.351577,-8.583562,-1.967293,165.898115,0.020203,-0.121124,0.926575,-0.875157,-0.164941,0.115748,86.078842,19.294434,-147.541946,,,
729706563.354902,-8.583562,-2.022293,165.913714,0.020203,-0.121124,0.926575,-0.875157,-0.164941,0.115748,86.078842,19.294434,-147.541946,,,
729706563.358242,-8.84642,-2.022293,165.913714,0.032547,-0.124725,0.924362,-0.92924,-0.211019,0.072477,86.078842,19.294434,-147.541946,,,
729706563.361616,-9.119283,-2.08696,165.922833,0.032547,-0.124725,0.924362,-0.92924,-0.211019,0.072477,86.078842,19.294434,-147.541946,,,
729706563.364991,-9.119283,-2.08696,165.927645,0.032547,-0.124725,0.924362,-0.92924,-0.211019,0.072477,86.078842,19.294434,-147.541946,,,
729706563.368259,-9.403342,-2.162655,165.927645,0.031891,-0.138138,0.902878,-1.008396,-0.283537,0.04805,86.078842,19.294434,-147.541946,,,
729706563.371576,-9.701824,-2.251597,165.929211,0.031891,-0.138138,0.902878,-1.008396,-0.283537,0.04805,86.078842,19.294434,-147.541946,,,
729706563.37491,-9.701824,-2.251597,165.929211,0.031891,-0.138138,0.902878,-1.008396,-0.283537,0.04805,85.529388,21.415909,-147.816605,,,
729706563.378278,-10.018158,-2.355346,165.928004,0.022141,-0.15004,0.878738,-1.133164,-0.383529,0.037486,85.529388,21.415909,-147.816605,,,
729706563.381571,-10.354189,-2.473401,165.925151,0.022141,-0.15004,0.878738,-1.133164,-0.383529,0.037486,85.529388,21.415909,-147.816605,,,
729706563.384967,-10.354189,-2.473401,165.925151,0.022141,-0.15004,0.878738,-1.283983,-0.463909,0.045224,85.529388,21.415909,-147.816605,,,
729706563.388245,-10.711977,-2.603129,165.921715,0.016464,-0.161377,0.867523,-1.283983,-0.463909,0.045224,85.529388,21.415909,-147.816605,,,
729706563.391575,-11.092217,-2.741045,165.918456,0.016464,-0.161377,0.867523,-1.283983,-0.463909,0.045224,85.529388,21.415909,-147.816605,,,
729706563.39492,-11.092217,-2.741045,165.918456,0.016464,-0.161377,0.867523,-1.283983,-0.463909,0.045224,85.529388,21.415909,-147.816605,,,
729706563.398292,-11.495592,-2.883836,165.915484,0.022995,-0.175507,0.874695,-1.443958,-0.498003,0.061545,85.529388,21.415909,-147.816605,,,
729706563.401567,-11.921427,-3.028925,165.913035,0.022995,-0.175507,0.874695,-1.443958,-0.498003,0.061545,85.529388,21.415909,-147.816605,,,
729706563.404958,-11.921427,-3.028925,165.913035,0.022995,-0.175507,0.874695,-1.443958,-0.498003,0.061545,85.529388,21.415909,-147.816605,,,
729706563.408255,-12.368951,-3.172011,165.911326,0.034821,-0.200729,0.888382,-1.593514,-0.484897,0.082175,85.529388,21.415909,-147.816605,,,
729706563.411578,-12.837575,-3.307257,165.912402,0.034821,-0.200729,0.888382,-1.593514,-0.484897,0.082175,85.529388,21.415909,-147.816605,,,
729706563.414949,-12.837575,-3.307257,165.912402,0.034821,-0.200729,0.888382,-1.593514,-0.484897,0.082175,84.537506,24.35112,-148.099792,,,
729706563.41825,-13.325915,-3.431309,165.918895,0.036026,-0.233063,0.90947,-1.728585,-0.41578,0.134303,84.537506,24.35112,-148.099792,,,
729706563.42159,-13.832159,-3.542781,165.932179,0.036026,-0.233063,0.90947,-1.728585,-0.41578,0.134303,84.537506,24.35112,-148.099792,,,
729706563.424929,-13.832159,-3.542781,165.932179,0.036026,-0.233063,0.90947,-1.728585,-0.41578,0.134303,84.537506,24.35112,-148.099792,,,
729706563.428252,-14.353915,-3.640667,165.95417,0.040924,-0.263748,0.917282,-1.832825,-0.336942,0.20604,84.537506,24.35112,-148.099792,,,
729706563.43158,-14.88803,-3.725963,165.986288,0.040924,-0.263748,0.917282,-1.832825,-0.336942,0.20604,84.537506,24.35112,-148.099792,,,
729706563.435031,-14.88803,-3.725963,165.986288,0.040924,-0.263748,0.917282,-1.875901,-0.280604,0.290275,84.537506,24.35112,-148.099792,,,
729706563.438245,-15.429168,-3.799889,166.0298,0.040695,-0.292679,0.923462,-1.875901,-0.280604,0.290275,84.537506,24.35112,-148.099792,,,
729706563.441581,-15.970949,-3.861621,166.086105,0.040695,-0.292679,0.923462,-1.875901,-0.280604,0.290275,84.537506,24.35112,-148.099792,,,
729706563.444987,-15.970949,-3.861621,166.086105,0.040695,-0.292679,0.923462,-1.875901,-0.280604,0.290275,84.537506,24.35112,-148.099792,,,
729706563.44832,-16.508241,-3.910029,166.154993,0.045929,-0.317108,0.959091,-1.837633,-0.215838,0.374561,84.537506,24.35112,-148.099792,,,
729706563.451564,-17.037668,-3.942727,166.234859,0.045929,-0.317108,0.959091,-1.837633,-0.215838,0.374561,84.537506,24.35112,-148.099792,,,
729706563.454962,-17.037668,-3.942727,166.234859,0.045929,-0.317108,0.959091,-1.837633,-0.215838,0.374561,84.537506,24.35112,-148.099792,,,
729706563.458246,-17.558227,-3.957446,166.323496,0.061722,-0.327271,0.993149,-1.770939,-0.113633,0.428297,83.987305,28.000259,-147.593002,,,
729706563.46158,-18.068667,-3.954024,166.418668,0.061722,-0.327271,0.993149,-1.770939,-0.113633,0.428297,83.987305,28.000259,-147.593002,,,
729706563.464958,-18.068667,-3.954024,166.418668,0.061722,-0.327271,0.993149,-1.770939,-0.113633,0.428297,83.987305,28.000259,-147.593002,,,
729706563.468253,-18.568228,-3.933167,166.518676,0.074631,-0.333389,1.000336,-1.694035,-0.008427,0.452584,83.987305,28.000259,-147.593002,,,
729706563.471578,-19.057888,-3.897337,166.622121,0.074631,-0.333389,1.000336,-1.694035,-0.008427,0.452584,83.987305,28.000259,-147.593002,,,
729706563.474899,-19.057888,-3.897337,166.622121,0.074631,-0.333389,1.000336,-1.694035,-0.008427,0.452584,83.987305,28.000259,-147.593002,,,
729706563.478239,-19.539951,-3.849143,166.728402,0.075607,-0.345627,0.979141,-1.64134,0.065355,0.463287,83.987305,28.000259,-147.593002,,,
729706563.48158,-20.016929,-3.791705,166.837022,0.075607,-0.345627,0.979141,-1.64134,0.065355,0.463287,83.987305,28.000259,-147.593002,,,
729706563.485003,-20.016929,-3.791705,166.837022,0.075607,-0.345627,0.979141,-1.64134,0.065355,0.463287,83.987305,28.000259,-147.593002,,,
729706563.48824,-20.489983,-3.72887,166.94707,0.068787,-0.358719,0.946136,-1.615102,0.093581,0.465366,83.987305,28.000259,-147.593002,,,
729706563.491577,-20.961318,-3.662804,167.057888,0.068787,-0.358719,0.946136,-1.615102,0.093581,0.465366,83.987305,28.000259,-147.593002,,,
729706563.494921,-20.961318,-3.662804,167.057888,0.068787,-0.358719,0.946136,-1.615102,0.093581,0.465366,83.987305,28.000259,-147.593002,,,
729706563.498314,-21.432813,-3.594477,167.168256,0.061905,-0.369324,0.923233,-1.617523,0.104473,0.45638,84.068756,31.235992,-147.271576,,,
729706563.50157,-21.90539,-3.524745,167.276905,0.061905,-0.369324,0.923233,-1.617523,0.104473,0.45638,84.068756,31.235992,-147.271576,,,
729706563.50493,-21.90539,-3.524745,167.276905,0.061905,-0.369324,0.923233,-1.617523,0.104473,0.45638,84.068756,31.235992,-147.271576,,,
729706563.508243,-22.380383,-3.454284,167.382094,0.067047,-0.371918,0.914551,-1.636175,0.112717,0.428606,84.068756,31.235992,-147.271576,,,
729706563.511575,-22.858681,-3.383288,167.482022,0.067047,-0.371918,0.914551,-1.636175,0.112717,0.428606,84.068756,31.235992,-147.271576,,,
729706563.514925,-22.858681,-3.383288,167.482022,0.067047,-0.371918,0.914551,-1.636175,0.112717,0.428606,84.068756,31.235992,-147.271576,,,
729706563.518258,-23.340834,-3.311639,167.575978,0.071487,-0.379562,0.912567,-1.665609,0.128083,0.385408,84.068756,31.235992,-147.271576,,,
729706563.521579,-23.826404,-3.240284,167.662757,0.071487,-0.379562,0.912567,-1.665609,0.128083,0.385408,84.068756,31.235992,-147.271576,,,
729706563.525019,-23.826404,-3.240284,167.662757,0.071487,-0.379562,0.912567,-1.665609,0.128083,0.385408,84.068756,31.235992,-147.271576,,,
729706563.528233,-24.314554,-3.171068,167.742503,0.066254,-0.399399,0.903168,-1.687644,0.128436,0.335653,84.068756,31.235992,-147.271576,,,
729706563.531576,-24.804072,-3.106597,167.816688,0.066254,-0.399399,0.903168,-1.687644,0.128436,0.335653,84.068756,31.235992,-147.271576,,,
729706563.534917,-24.804072,-3.106597,167.816688,0.066254,-0.399399,0.903168,-1.687644,0.128436,0.335653,84.068756,31.235992,-147.271576,,,
729706563.538319,-25.293815,-3.048839,167.886416,0.05658,-0.425949,0.889267,-1.692091,0.090773,0.302302,84.474701,34.19339,-146.440277,,,
729706563.541579,-25.783194,-2.999314,167.952906,0.05658,-0.425949,0.889267,-1.692091,0.090773,0.302302,84.474701,34.19339,-146.440277,,,
729706563.544921,-25.783194,-2.999314,167.952906,0.05658,-0.425949,0.889267,-1.692091,0.090773,0.302302,84.474701,34.19339,-146.440277,,,
729706563.54826,-26.272393,-2.958715,168.017803,0.040771,-0.451569,0.873489,-1.691805,0.029822,0.287867,84.474701,34.19339,-146.440277,,,
729706563.551573,-26.761282,-2.926779,168.084147,0.040771,-0.451569,0.873489,-1.691805,0.029822,0.287867,84.474701,34.19339,-146.440277,,,
729706563.554739,-26.761282,-2.926779,168.084147,0.040771,-0.451569,0.873489,-1.691805,0.029822,0.287867,84.474701,34.19339,-146.440277,,,
729706563.558268,-27.250012,-2.905095,168.15397,0.024628,-0.473953,0.854172,-1.689206,-0.056211,0.305894,84.474701,34.19339,-146.440277,,,
729706563.561583,-27.740323,-2.897003,168.228402,0.024628,-0.473953,0.854172,-1.689206,-0.056211,0.305894,84.474701,34.19339,-146.440277,,,
729706563.564998,-27.740323,-2.897003,168.228402,0.024628,-0.473953,0.854172,-1.689206,-0.056211,0.305894,84.474701,34.19339,-146.440277,,,
729706563.568249,-28.234771,-2.904589,168.308591,0.015244,-0.488678,0.818939,-1.715492,-0.188217,0.340451,84.474701,34.19339,-146.440277,,,
729706563.571581,-28.736233,-2.92818,168.394943,0.015244,-0.488678,0.818939,-1.715492,-0.188217,0.340451,84.474701,34.19339,-146.440277,,,
729706563.574915,-28.736233,-2.92818,168.394943,0.015244,-0.488678,0.818939,-1.715492,-0.188217,0.340451,84.474701,34.19339,-146.440277,,,
729706563.578246,-29.248467,-2.96689,168.487366,0.007294,-0.504852,0.796204,-1.787502,-0.318695,0.380386,84.175034,37.518814,-145.561203,,,
729706563.581576,-29.773369,-3.018415,168.586133,0.007294,-0.504852,0.796204,-1.787502,-0.318695,0.380386,84.175034,37.518814,-145.561203,,,
729706563.584729,-29.773369,-3.018415,168.586133,0.007294,-0.504852,0.796204,-1.787502,-0.318695,0.380386,84.175034,37.518814,-145.561203,,,
729706563.58833,-30.311658,-3.080186,168.691567,0.003082,-0.520065,0.78891,-1.878515,-0.419106,0.42606,84.175034,37.518814,-145.561203,,,
729706563.591584,-30.865017,-3.150134,168.801827,0.003082,-0.520065,0.78891,-1.878515,-0.419106,0.42606,84.175034,37.518814,-145.561203,,,
729706563.594938,-30.865017,-3.150134,168.801827,0.003082,-0.520065,0.78891,-1.878515,-0.419106,0.42606,84.175034,37.518814,-145.561203,,,
729706563.598243,-31.434088,-3.225655,168.915313,0.008011,-0.532425,0.789124,-1.986491,-0.476267,0.452464,84.175034,37.518814,-145.561203,,,
729706563.601574,-32.016561,-3.303656,169.029454,0.008011,-0.532425,0.789124,-1.986491,-0.476267,0.452464,84.175034,37.518814,-145.561203,,,
729706563.604982,-32.016561,-3.303656,169.029454,0.008011,-0.532425,0.789124,-1.986491,-0.476267,0.452464,84.175034,37.518814,-145.561203,,,
729706563.608242,-32.608474,-3.380243,169.139401,0.036285,-0.536148,0.817917,-2.052525,-0.457772,0.432699,84.175034,37.518814,-145.561203,,,
729706563.611651,-33.205291,-3.451424,169.239614,0.036285,-0.536148,0.817917,-2.052525,-0.457772,0.432699,84.175034,37.518814,-145.561203,,,
729706563.614919,-33.205291,-3.451424,169.239614,0.036285,-0.536148,0.817917,-2.052525,-0.457772,0.432699,84.175034,37.518814,-145.561203,,,
729706563.618373,-33.803217,-3.514181,169.324736,0.087021,-0.535645,0.858047,-2.063858,-0.347023,0.346298,84.175034,37.518814,-145.561203,,,
729706563.621572,-34.398671,-3.568462,169.390341,0.087021,-0.535645,0.858047,-2.063858,-0.347023,0.346298,83.55809,41.330185,-144.136627,,,
729706563.624935,-34.398671,-3.568462,169.390341,0.087021,-0.535645,0.858047,-2.063858,-0.347023,0.346298,83.55809,41.330185,-144.136627,,,
729706563.628277,-34.989409,-3.615719,169.434684,0.12291,-0.549362,0.871567,-2.037478,-0.217664,0.223577,83.55809,41.330185,-144.136627,,,
729706563.631579,-35.572127,-3.658679,169.458383,0.12291,-0.549362,0.871567,-2.037478,-0.217664,0.223577,83.55809,41.330185,-144.136627,,,
729706563.634922,-35.572127,-3.658679,169.458383,0.12291,-0.549362,0.871567,-2.037478,-0.217664,0.223577,83.55809,41.330185,-144.136627,,,
729706563.638265,-36.143372,-3.701296,169.46266,0.124359,-0.578232,0.855408,-1.965289,-0.137534,0.111131,83.55809,41.330185,-144.136627,,,
729706563.641575,-36.701588,-3.746524,169.450962,0.124359,-0.578232,0.855408,-1.965289,-0.137534,0.111131,83.55809,41.330185,-144.136627,,,
729706563.644983,-36.701588,-3.746524,169.450962,0.124359,-0.578232,0.855408,-1.965289,-0.137534,0.111131,83.55809,41.330185,-144.136627,,,
729706563.648247,-37.244837,-3.797085,169.428439,0.10257,-0.607086,0.834305,-1.865742,-0.128839,0.047833,83.55809,41.330185,-144.136627,,,
729706563.651584,-37.772559,-3.855375,169.400303,0.10257,-0.607086,0.834305,-1.865742,-0.128839,0.047833,83.55809,41.330185,-144.136627,,,
729706563.654915,-37.772559,-3.855375,169.400303,0.10257,-0.607086,0.834305,-1.865742,-0.128839,0.047833,83.55809,41.330185,-144.136627,,,
729706563.658351,-38.284722,-3.922787,169.372043,0.072067,-0.635147,0.805359,-1.75808,-0.190577,0.044908,83.55809,41.330185,-144.136627,,,
729706563.661571,-38.781515,-3.999564,169.348058,0.072067,-0.635147,0.805359,-1.75808,-0.190577,0.044908,83.381439,44.661758,-142.988495,,,
729706563.66493,-38.781515,-3.999564,169.348058,0.072067,-0.635147,0.805359,-1.75808,-0.190577,0.044908,83.381439,44.661758,-142.988495,,,
729706563.668263,-39.263979,-4.084663,169.330534,0.044373,-0.661667,0.783264,-1.655729,-0.275845,0.078465,83.381439,44.661758,-142.988495,,,
729706563.671575,-39.733583,-4.17847,169.319906,0.044373,-0.661667,0.783264,-1.655729,-0.275845,0.078465,83.381439,44.661758,-142.988495,,,
729706563.674919,-39.733583,-4.17847,169.319906,0.044373,-0.661667,0.783264,-1.655729,-0.275845,0.078465,83.381439,44.661758,-142.988495,,,
729706563.678267,-40.191702,-4.281718,169.315773,0.041077,-0.673813,0.77269,-1.572302,-0.370177,0.113059,83.381439,44.661758,-142.988495,,,
729706563.681576,-40.640168,-4.393182,169.318349,0.041077,-0.673813,0.77269,-1.572302,-0.370177,0.113059,83.381439,44.661758,-142.988495,,,
729706563.684977,-40.640168,-4.393182,169.318349,0.041077,-0.673813,0.77269,-1.572302,-0.370177,0.113059,83.381439,44.661758,-142.988495,,,
729706563.688261,-41.081341,-4.510201,169.327924,0.042068,-0.684601,0.764969,-1.517611,-0.440794,0.151908,83.381439,44.661758,-142.988495,,,
729706563.691576,-41.517877,-4.62946,169.34392,0.042068,-0.684601,0.764969,-1.517611,-0.440794,0.151908,83.381439,44.661758,-142.988495,,,
729706563.694921,-41.517877,-4.62946,169.34392,0.042068,-0.684601,0.764969,-1.517611,-0.440794,0.151908,83.381439,44.661758,-142.988495,,,
729706563.698328,-41.952379,-4.747733,169.366532,0.036926,-0.703033,0.760284,-1.500496,-0.465471,0.190736,83.381439,44.661758,-142.988495,,,
729706563.701617,-42.38669,-4.863987,169.395663,0.036926,-0.703033,0.760284,-1.500496,-0.465471,0.190736,82.75618,47.314178,-141.456238,,,
729706563.704913,-42.38669,-4.863987,169.395663,0.036926,-0.703033,0.760284,-1.500496,-0.465471,0.190736,82.75618,47.314178,-141.456238,,,
729706563.708265,-42.822538,-4.977341,169.430852,0.039597,-0.714096,0.746964,-1.508285,-0.47522,0.227566,82.75618,47.314178,-141.456238,,,
729706563.711589,-43.262619,-5.085088,169.472501,0.039597,-0.714096,0.746964,-1.508285,-0.47522,0.227566,82.75618,47.314178,-141.456238,,,
729706563.714923,-43.262619,-5.085088,169.472501,0.039597,-0.714096,0.746964,-1.508285,-0.47522,0.227566,82.75618,47.314178,-141.456238,,,
729706563.718207,-43.707884,-5.18511,169.521855,0.04332,-0.725479,0.732941,-1.540049,-0.460062,0.273505,82.75618,47.314178,-141.456238,,,
729706563.721584,-44.158648,-5.276444,169.579894,0.04332,-0.725479,0.732941,-1.540049,-0.460062,0.273505,82.75618,47.314178,-141.456238,,,
729706563.724918,-44.158648,-5.276444,169.579894,0.04332,-0.725479,0.732941,-1.540049,-0.460062,0.273505,82.75618,47.314178,-141.456238,,,
729706563.72824,-44.615911,-5.35795,169.647148,0.045029,-0.734299,0.718307,-1.579439,-0.438665,0.325616,82.75618,47.314178,-141.456238,,,
729706563.731571,-45.079559,-5.428949,169.724081,0.045029,-0.734299,0.718307,-1.579439,-0.438665,0.325616,82.75618,47.314178,-141.456238,,,
729706563.735016,-45.079559,-5.428949,169.724081,0.045029,-0.734299,0.718307,-1.579439,-0.438665,0.325616,82.75618,47.314178,-141.456238,,,
729706563.738263,-45.550022,-5.489063,169.810619,0.055527,-0.736664,0.694061,-1.620998,-0.413382,0.377325,82.75618,47.314178,-141.456238,,,
729706563.741587,-46.027561,-5.537845,169.906508,0.055527,-0.736664,0.694061,-1.620998,-0.413382,0.377325,82.111267,50.034668,-139.886505,,,
729706563.744931,-46.027561,-5.537845,169.906508,0.055527,-0.736664,0.694061,-1.620998,-0.413382,0.377325,82.111267,50.034668,-139.886505,,,
729706563.748337,-46.512783,-5.575094,170.0128,0.062943,-0.73999,0.674393,-1.668456,-0.389202,0.430573,82.111267,50.034668,-139.886505,,,
729706563.751573,-47.006063,-5.601433,170.129831,0.062943,-0.73999,0.674393,-1.668456,-0.389202,0.430573,82.111267,50.034668,-139.886505,,,
729706563.754923,-47.006063,-5.601433,170.129831,0.062943,-0.73999,0.674393,-1.668456,-0.389202,0.430573,82.111267,50.034668,-139.886505,,,
729706563.758263,-47.507066,-5.61768,170.257604,0.060394,-0.743942,0.653763,-1.717778,-0.378887,0.482596,82.111267,50.034668,-139.886505,,,
729706563.761572,-48.014637,-5.624284,170.396432,0.060394,-0.743942,0.653763,-1.717778,-0.378887,0.482596,82.111267,50.034668,-139.886505,,,
729706563.764925,-48.014637,-5.624284,170.396432,0.060394,-0.743942,0.653763,-1.717778,-0.378887,0.482596,82.111267,50.034668,-139.886505,,,
729706563.768249,-48.529564,-5.623475,170.544544,0.062973,-0.752014,0.629028,-1.765757,-0.381509,0.524363,82.111267,50.034668,-139.886505,,,
729706563.771579,-49.052742,-5.617696,170.699526,0.062973,-0.752014,0.629028,-1.765757,-0.381509,0.524363,82.111267,50.034668,-139.886505,,,
729706563.774993,-49.052742,-5.617696,170.699526,0.062973,-0.752014,0.629028,-1.765757,-0.381509,0.524363,82.111267,50.034668,-139.886505,,,
729706563.778253,-49.582844,-5.608997,170.859259,0.071899,-0.758423,0.605911,-1.812449,-0.39283,0.542585,82.111267,50.034668,-139.886505,,,
729706563.781581,-50.119253,-5.600191,171.020497,0.071899,-0.758423,0.605911,-1.812449,-0.39283,0.542585,82.111267,50.034668,-139.886505,,,
729706563.784931,-50.119253,-5.600191,171.020497,0.071899,-0.758423,0.605911,-1.812449,-0.39283,0.542585,82.182816,52.696594,-137.696594,,,
729706563.788311,-50.661631,-5.59382,171.179659,0.080795,-0.7612,0.592804,-1.854822,-0.405341,0.528596,82.182816,52.696594,-137.696594,,,
729706563.791572,-51.208634,-5.59119,171.333987,0.080795,-0.7612,0.592804,-1.854822,-0.405341,0.528596,82.182816,52.696594,-137.696594,,,
729706563.794918,-51.208634,-5.59119,171.333987,0.080795,-0.7612,0.592804,-1.854822,-0.405341,0.528596,82.182816,52.696594,-137.696594,,,
729706563.798248,-51.760488,-5.592596,171.481907,0.089584,-0.765045,0.587936,-1.891144,-0.404871,0.49587,82.182816,52.696594,-137.696594,,,
729706563.801572,-52.315856,-5.599534,171.621089,0.089584,-0.765045,0.587936,-1.891144,-0.404871,0.49587,82.182816,52.696594,-137.696594,,,
729706563.804925,-52.315856,-5.599534,171.621089,0.089584,-0.765045,0.587936,-1.891144,-0.404871,0.49587,82.182816,52.696594,-137.696594,,,
729706563.808254,-52.871986,-5.611708,171.750728,0.092163,-0.77594,0.586349,-1.901519,-0.39448,0.449512,82.182816,52.696594,-137.696594,,,
729706563.811591,-53.42783,-5.628552,171.87144,0.092163,-0.77594,0.586349,-1.901519,-0.39448,0.449512,82.182816,52.696594,-137.696594,,,
729706563.814994,-53.42783,-5.628552,171.87144,0.092163,-0.77594,0.586349,-1.901519,-0.39448,0.449512,82.182816,52.696594,-137.696594,,,
729706563.818257,-53.981026,-5.649861,171.983524,0.087769,-0.794464,0.588303,-1.887733,-0.382211,0.40714,82.182816,52.696594,-137.696594,,,
729706563.821575,-54.528415,-5.675007,172.087091,0.087769,-0.794464,0.588303,-1.887733,-0.382211,0.40714,82.182816,52.696594,-137.696594,,,
729706563.824913,-54.528415,-5.675007,172.087091,0.087769,-0.794464,0.588303,-1.887733,-0.382211,0.40714,81.904343,55.426071,-135.414642,,,
729706563.828312,-55.068182,-5.703441,172.182044,0.091492,-0.809784,0.590973,-1.838615,-0.360157,0.363592,81.904343,55.426071,-135.414642,,,
729706563.831636,-55.598373,-5.735108,172.269016,0.091492,-0.809784,0.590973,-1.838615,-0.360157,0.363592,81.904343,55.426071,-135.414642,,,
729706563.834921,-55.598373,-5.735108,172.269016,0.091492,-0.809784,0.590973,-1.838615,-0.360157,0.363592,81.904343,55.426071,-135.414642,,,
729706563.83826,-56.117601,-5.768827,172.349993,0.09198,-0.821045,0.587158,-1.764292,-0.342967,0.329871,81.904343,55.426071,-135.414642,,,
729706563.841572,-56.624374,-5.803127,172.427671,0.09198,-0.821045,0.587158,-1.764292,-0.342967,0.329871,81.904343,55.426071,-135.414642,,,
729706563.844929,-56.624374,-5.803127,172.427671,0.09198,-0.821045,0.587158,-1.764292,-0.342967,0.329871,81.904343,55.426071,-135.414642,,,
729706563.848329,-57.116809,-5.837548,172.503793,0.091537,-0.832748,0.582565,-1.664757,-0.337264,0.311773,81.904343,55.426071,-135.414642,,,
729706563.851613,-57.5941,-5.871056,172.578678,0.091537,-0.832748,0.582565,-1.664757,-0.337264,0.311773,81.904343,55.426071,-135.414642,,,
729706563.85501,-57.5941,-5.871056,172.578678,0.091537,-0.832748,0.582565,-1.664757,-0.337264,0.311773,81.904343,55.426071,-135.414642,,,
729706563.858265,-58.058134,-5.902422,172.652415,0.090591,-0.848709,0.57608,-1.572784,-0.317854,0.296122,81.904343,55.426071,-135.414642,,,
729706563.861585,-58.51017,-5.932442,172.723306,0.090591,-0.848709,0.57608,-1.572784,-0.317854,0.296122,81.904343,55.426071,-135.414642,,,
729706563.864912,-58.51017,-5.932442,172.723306,0.090591,-0.848709,0.57608,-1.572784,-0.317854,0.296122,81.91301,57.822327,-133.3125,,,
729706563.86832,-58.949866,-5.962006,172.79041,0.091766,-0.86586,0.571457,-1.489224,-0.294314,0.271906,81.91301,57.822327,-133.3125,,,
729706563.871565,-59.376498,-5.990874,172.853312,0.091766,-0.86586,0.571457,-1.489224,-0.294314,0.271906,81.91301,57.822327,-133.3125,,,
729706563.874906,-59.376498,-5.990874,172.853312,0.091766,-0.86586,0.571457,-1.489224,-0.294314,0.271906,81.91301,57.822327,-133.3125,,,
729706563.878248,-59.790285,-6.01921,172.910939,0.09198,-0.878494,0.566864,-1.402694,-0.260744,0.242731,81.91301,57.822327,-133.3125,,,
729706563.88157,-60.192719,-6.047139,172.962202,0.09198,-0.878494,0.566864,-1.402694,-0.260744,0.242731,81.91301,57.822327,-133.3125,,,
729706563.884972,-60.192719,-6.047139,172.962202,0.09198,-0.878494,0.566864,-1.402694,-0.260744,0.242731,81.91301,57.822327,-133.3125,,,
729706563.888253,-60.584638,-6.074695,173.005814,0.087143,-0.892654,0.558685,-1.332585,-0.213089,0.207862,81.91301,57.822327,-133.3125,,,
729706563.89158,-60.966376,-6.102827,173.04138,0.087143,-0.892654,0.558685,-1.332585,-0.213089,0.207862,81.91301,57.822327,-133.3125,,,
729706563.894982,-60.966376,-6.102827,173.04138,0.087143,-0.892654,0.558685,-1.332585,-0.213089,0.207862,81.91301,57.822327,-133.3125,,,
729706563.898244,-61.338442,-6.132484,173.068985,0.081192,-0.904892,0.541611,-1.267695,-0.175875,0.173748,81.91301,57.822327,-133.3125,,,
729706563.901571,-61.700156,-6.164537,173.088608,0.081192,-0.904892,0.541611,-1.267695,-0.175875,0.173748,81.91301,57.822327,-133.3125,,,
729706563.904916,-61.700156,-6.164537,173.088608,0.081192,-0.904892,0.541611,-1.267695,-0.175875,0.173748,81.642624,59.714706,-131.404251,,,
729706563.908236,-62.050392,-6.198985,173.101713,0.071625,-0.913116,0.530075,-1.189856,-0.152937,0.144344,81.642624,59.714706,-131.404251,,,
729706563.91157,-62.388256,-6.235153,173.109829,0.071625,-0.913116,0.530075,-1.189856,-0.152937,0.144344,81.642624,59.714706,-131.404251,,,
729706563.914932,-62.388256,-6.235153,173.109829,0.071625,-0.913116,0.530075,-1.189856,-0.152937,0.144344,81.642624,59.714706,-131.404251,,,
729706563.918318,-62.712321,-6.270604,173.115629,0.065201,-0.922775,0.528854,-1.095271,-0.133904,0.127538,81.642624,59.714706,-131.404251,,,
729706563.921576,-63.020457,-6.303032,173.121803,0.065201,-0.922775,0.528854,-1.095271,-0.133904,0.127538,81.642624,59.714706,-131.404251,,,
729706563.924933,-63.020457,-6.303032,173.121803,0.065201,-0.922775,0.528854,-1.095271,-0.133904,0.127538,81.642624,59.714706,-131.404251,,,
729706563.928269,-63.310288,-6.33097,173.12979,0.056946,-0.927002,0.530396,-0.968182,-0.114159,0.120024,81.642624,59.714706,-131.404251,,,
729706563.931576,-63.580409,-6.354063,173.139646,0.056946,-0.927002,0.530396,-0.968182,-0.114159,0.120024,81.642624,59.714706,-131.404251,,,
729706563.93492,-63.580409,-6.354063,173.139646,0.056946,-0.927002,0.530396,-0.968182,-0.114159,0.120024,81.642624,59.714706,-131.404251,,,
729706563.938265,-63.829875,-6.371363,173.152961,0.063766,-0.926636,0.527939,-0.82427,-0.095674,0.114964,81.642624,59.714706,-131.404251,,,
729706563.941568,-64.059184,-6.382182,173.170551,0.063766,-0.926636,0.527939,-0.82427,-0.095674,0.114964,81.642624,59.714706,-131.404251,,,
729706563.944931,-64.059184,-6.382182,173.170551,0.063766,-0.926636,0.527939,-0.82427,-0.095674,0.114964,81.642624,59.714706,-131.404251,,,
729706563.948247,-64.268742,-6.384673,173.193769,0.063309,-0.923447,0.52095,-0.685479,-0.073197,0.116233,81.534439,60.85997,-129.879639,,,
729706563.95157,-64.459324,-6.379923,173.222121,0.063309,-0.923447,0.52095,-0.685479,-0.073197,0.116233,81.534439,60.85997,-129.879639,,,
729706563.954914,-64.459324,-6.379923,173.222121,0.063309,-0.923447,0.52095,-0.685479,-0.073197,0.116233,81.534439,60.85997,-129.879639,,,
729706563.958245,-64.632813,-6.3694,173.254237,0.065292,-0.919983,0.513,-0.565298,-0.056886,0.113223,81.534439,60.85997,-129.879639,,,
729706563.961572,-64.790547,-6.354099,173.288348,0.065292,-0.919983,0.513,-0.565298,-0.056886,0.113223,81.534439,60.85997,-129.879639,,,
729706563.964931,-64.790547,-6.354099,173.288348,0.065292,-0.919983,0.513,-0.565298,-0.056886,0.113223,81.534439,60.85997,-129.879639,,,
729706563.968255,-64.934885,-6.334746,173.322691,0.069611,-0.917068,0.497162,-0.472353,-0.030467,0.102497,81.534439,60.85997,-129.879639,,,
729706563.971642,-65.067878,-6.312322,173.35558,0.069611,-0.917068,0.497162,-0.472353,-0.030467,0.102497,81.534439,60.85997,-129.879639,,,
729706563.974922,-65.067878,-6.312322,173.35558,0.069611,-0.917068,0.497162,-0.472353,-0.030467,0.102497,81.534439,60.85997,-129.879639,,,
729706563.978258,-65.190628,-6.288063,173.385565,0.071594,-0.915619,0.480194,-0.402528,0.000369,0.085268,81.534439,60.85997,-129.879639,,,
729706563.981568,-65.303912,-6.261171,173.413679,0.071594,-0.915619,0.480194,-0.402528,0.000369,0.085268,81.534439,60.85997,-129.879639,,,
729706563.984911,-65.303912,-6.261171,173.413679,0.071594,-0.915619,0.480194,-0.402528,0.000369,0.085268,81.534439,60.85997,-129.879639,,,
729706563.988293,-65.408844,-6.231701,173.43978,0.06485,-0.912521,0.467697,-0.345513,0.030835,0.072249,81.603119,61.439392,-129.343903,,,
729706563.991684,-65.506578,-6.197816,173.465809,0.06485,-0.912521,0.467697,-0.345513,0.030835,0.072249,81.603119,61.439392,-129.343903,,,
729706563.994933,-65.506578,-6.197816,173.465809,0.06485,-0.912521,0.467697,-0.345513,0.030835,0.072249,81.603119,61.439392,-129.343903,,,
729706563.998256,-65.599106,-6.160253,173.491944,0.055496,-0.905075,0.453308,-0.309039,0.055694,0.067728,81.603119,61.439392,-129.343903,,,
729706564.001582,-65.688253,-6.123212,173.514073,0.055496,-0.905075,0.453308,-0.309039,0.055694,0.067728,81.603119,61.439392,-129.343903,,,
729706564.004935,-65.688253,-6.123212,173.514073,0.055496,-0.905075,0.453308,-0.309039,0.055694,0.067728,81.603119,61.439392,-129.343903,,,
729706564.00834,-65.775333,-6.088564,173.531603,0.056076,-0.894669,0.436798,-0.295667,0.068105,0.052262,81.603119,61.439392,-129.343903,,,
729706564.011634,-65.861211,-6.059718,173.54291,0.056076,-0.894669,0.436798,-0.295667,0.068105,0.052262,81.603119,61.439392,-129.343903,,,
729706564.014928,-65.861211,-6.059718,173.54291,0.056076,-0.894669,0.436798,-0.295667,0.068105,0.052262,81.603119,61.439392,-129.343903,,,
729706564.018271,-65.945832,-6.038693,173.54663,0.052902,-0.891281,0.424194,-0.288749,0.061773,0.029269,81.603119,61.439392,-129.343903,,,
729706564.021626,-66.028954,-6.025005,173.544521,0.052902,-0.891281,0.424194,-0.288749,0.061773,0.029269,81.603119,61.439392,-129.343903,,,
729706564.024922,-66.028954,-6.025005,173.544521,0.052902,-0.891281,0.424194,-0.288749,0.061773,0.029269,81.603119,61.439392,-129.343903,,,
729706564.028292,-66.111397,-6.017555,173.538382,0.038147,-0.898422,0.419403,-0.284864,0.044014,0.017127,82.076096,61.607361,-128.990158,,,
729706564.031575,-66.19435,-6.01796,173.528422,0.038147,-0.898422,0.419403,-0.284864,0.044014,0.017127,82.076096,61.607361,-128.990158,,,
729706564.034928,-66.19435,-6.01796,173.528422,0.038147,-0.898422,0.419403,-0.284864,0.044014,0.017127,82.076096,61.607361,-128.990158,,,
729706564.03824,-66.279902,-6.028396,173.514002,0.028046,-0.912262,0.406876,-0.304165,0.002496,0.006568,82.076096,61.607361,-128.990158,,,
729706564.041598,-66.370047,-6.051934,173.492961,0.028046,-0.912262,0.406876,-0.304165,0.002496,0.006568,82.076096,61.607361,-128.990158,,,
729706564.045003,-66.370047,-6.051934,173.492961,0.028046,-0.912262,0.406876,-0.304165,0.002496,0.006568,82.076096,61.607361,-128.990158,,,
729706564.048264,-66.466409,-6.090562,173.464027,0.029694,-0.915054,0.384705,-0.349427,-0.052205,-0.010381,82.076096,61.607361,-128.990158,,,
729706564.05162,-66.56956,-6.144349,173.426405,0.029694,-0.915054,0.384705,-0.349427,-0.052205,-0.010381,82.076096,61.607361,-128.990158,,,
729706564.054928,-66.56956,-6.144349,173.426405,0.029694,-0.915054,0.384705,-0.349427,-0.052205,-0.010381,82.076096,61.607361,-128.990158,,,
729706564.058319,-66.680009,-6.213969,173.378709,0.033737,-0.911346,0.37413,-0.402703,-0.097955,-0.031563,82.076096,61.607361,-128.990158,,,
729706564.061594,-66.797986,-6.298742,173.320842,0.033737,-0.911346,0.37413,-0.402703,-0.097955,-0.031563,82.076096,61.607361,-128.990158,,,
729706564.064918,-66.797986,-6.298742,173.320842,0.033737,-0.911346,0.37413,-0.402703,-0.097955,-0.031563,82.076096,61.607361,-128.990158,,,
729706564.068298,-66.923511,-6.396743,173.253707,0.034378,-0.911057,0.372147,-0.457456,-0.130431,-0.049069,82.076096,61.607361,-128.990158,,,
729706564.071646,-67.055176,-6.507,173.177069,0.034378,-0.911057,0.372147,-0.457456,-0.130431,-0.049069,81.77272,62.142273,-128.206238,,,
729706564.074913,-67.055176,-6.507,173.177069,0.034378,-0.911057,0.372147,-0.457456,-0.130431,-0.049069,81.77272,62.142273,-128.206238,,,
729706564.078255,-67.190813,-6.628048,173.091374,0.041931,-0.91423,0.379807,-0.487278,-0.146944,-0.067473,81.77272,62.142273,-128.206238,,,
729706564.081693,-67.327862,-6.758867,172.996878,0.041931,-0.91423,0.379807,-0.487278,-0.146944,-0.067473,81.77272,62.142273,-128.206238,,,
729706564.084966,-67.327862,-6.758867,172.996878,0.041931,-0.91423,0.379807,-0.487278,-0.146944,-0.067473,81.77272,62.142273,-128.206238,,,
729706564.088246,-67.464135,-6.896869,172.895814,0.049149,-0.916519,0.392349,-0.484043,-0.154247,-0.082076,81.77272,62.142273,-128.206238,,,
729706564.091654,-67.597719,-7.039117,172.790366,0.049149,-0.916519,0.392349,-0.484043,-0.154247,-0.082076,81.77272,62.142273,-128.206238,,,
729706564.094921,-67.597719,-7.039117,172.790366,0.049149,-0.916519,0.392349,-0.484043,-0.154247,-0.082076,81.77272,62.142273,-128.206238,,,
729706564.098317,-67.726215,-7.183423,172.68239,0.054367,-0.919769,0.410614,-0.449818,-0.151771,-0.089445,81.77272,62.142273,-128.206238,,,
729706564.101588,-67.847518,-7.326929,172.574123,0.054367,-0.919769,0.410614,-0.449818,-0.151771,-0.089445,81.77272,62.142273,-128.206238,,,
729706564.104937,-67.847518,-7.326929,172.574123,0.054367,-0.919769,0.410614,-0.449818,-0.151771,-0.089445,81.77272,62.142273,-128.206238,,,
729706564.108259,-67.960515,-7.466007,172.468076,0.055023,-0.928528,0.427109,-0.391754,-0.134779,-0.087735,81.77272,62.142273,-128.206238,,,
729706564.111607,-68.063925,-7.597384,172.367194,0.055023,-0.928528,0.427109,-0.391754,-0.134779,-0.087735,81.531998,62.747498,-127.40506,,,
729706564.114921,-68.063925,-7.597384,172.367194,0.055023,-0.928528,0.427109,-0.391754,-0.134779,-0.087735,81.531998,62.747498,-127.40506,,,
729706564.118258,-68.156629,-7.721125,172.271392,0.056412,-0.938568,0.43367,-0.316235,-0.114081,-0.081965,81.531998,62.747498,-127.40506,,,
