Time (sec),Pitch (deg),Roll (deg),Yaw(deg),X-Acceleration (g),Y-Acceleration (g),Z-Acceleration (g),Pitch Rate (deg/sec),Roll Rate (deg/sec),Yaw Rate (deg/sec),Magnetic Field in X direction (uT),Magnetic Field in Y direction (uT),Magnetic Field in Z Direction (uT),Latitude (deg),Longitude (deg),Altitude (m)
729716941.948828,-41.02256,8.306972,136.399703,-0.109238,-0.656693,0.759689,-0.247746,0.007661,0.040316,92.793427,66.334213,-124.680115,,,
729716941.950351,-41.089811,8.324145,97.813771,-0.109238,-0.656693,0.759689,-0.247746,0.007661,0.040316,92.793427,66.334213,-124.680115,,,
729716941.950902,-41.089798,8.324147,100.89062,-0.109238,-0.656693,0.759689,-0.247746,0.007661,0.040316,92.793427,66.334213,-124.680115,,,
729716941.951022,-41.089807,8.324145,136.426973,-0.109238,-0.656693,0.759689,-0.247746,0.007661,0.040316,92.793427,66.334213,-124.680115,,,
729716941.953424,-41.089811,8.324145,97.813771,-0.109238,-0.656693,0.759689,-0.247746,0.007661,0.040316,92.793427,66.334213,-124.680115,,,
729716941.953644,-41.089798,8.324147,100.89062,-0.109238,-0.656693,0.759689,-0.247746,0.007661,0.040316,92.793427,66.334213,-124.680115,,,
729716941.95435,-41.153267,8.336766,136.451278,-0.10466,-0.65799,0.760437,-0.220001,-0.010658,0.028416,92.793427,66.334213,-124.680115,,,
729716941.958744,-41.153271,8.336766,97.838076,-0.10466,-0.65799,0.760437,-0.220001,-0.010658,0.028416,92.793427,66.334213,-124.680115,,,
729716941.960195,-41.153258,8.336768,100.914925,-0.10466,-0.65799,0.760437,-0.220001,-0.010658,0.028416,92.793427,66.334213,-124.680115,,,
729716941.960316,-41.213647,8.345644,136.47304,-0.10466,-0.65799,0.760437,-0.220001,-0.010658,0.028416,92.793427,66.334213,-124.680115,,,
729716941.960866,-41.213651,8.345644,97.859838,-0.10466,-0.65799,0.760437,-0.220001,-0.010658,0.028416,92.793427,66.334213,-124.680115,,,
729716941.960993,-41.213647,8.345644,136.47304,-0.10466,-0.65799,0.760437,-0.220001,-0.010658,0.028416,92.793427,66.334213,-124.680115,,,
729716941.96385,-41.213651,8.345644,97.859838,-0.10466,-0.65799,0.760437,-0.220001,-0.010658,0.028416,92.467972,66.747604,-123.949982,,,
729716941.965201,-41.213638,8.345646,100.936687,-0.097687,-0.659058,0.758102,-0.204253,-0.031701,0.012826,92.467972,66.747604,-123.949982,,,
729716941.965426,-41.272036,8.349314,136.491453,-0.097687,-0.659058,0.758102,-0.204253,-0.031701,0.012826,92.467972,66.747604,-123.949982,,,
729716941.967191,-41.272039,8.349313,97.878252,-0.097687,-0.659058,0.758102,-0.204253,-0.031701,0.012826,92.467972,66.747604,-123.949982,,,
729716941.967616,-41.272027,8.349316,100.955101,-0.097687,-0.659058,0.758102,-0.204253,-0.031701,0.012826,92.467972,66.747604,-123.949982,,,
729716941.967724,-41.272036,8.349314,136.491453,-0.097687,-0.659058,0.758102,-0.204253,-0.031701,0.012826,92.467972,66.747604,-123.949982,,,
729716941.970366,-41.329934,8.348404,97.894091,-0.097687,-0.659058,0.758102,-0.204253,-0.031701,0.012826,92.467972,66.747604,-123.949982,,,
729716941.97078,-41.329922,8.348406,100.97094,-0.097687,-0.659058,0.758102,-0.204253,-0.031701,0.012826,92.467972,66.747604,-123.949982,,,
729716941.97103,-41.329931,8.348404,136.507296,-0.097687,-0.659058,0.758102,-0.204253,-0.031701,0.012826,92.467972,66.747604,-123.949982,,,
729716941.973445,-41.329934,8.348404,97.894091,-0.097687,-0.659058,0.758102,-0.204253,-0.031701,0.012826,92.467972,66.747604,-123.949982,,,
729716941.973635,-41.329922,8.348406,100.97094,-0.097687,-0.659058,0.758102,-0.204253,-0.031701,0.012826,92.467972,66.747604,-123.949982,,,
729716941.974322,-41.387744,8.344375,136.521414,-0.096207,-0.66124,0.746078,-0.202792,-0.045561,0.003809,92.467972,66.747604,-123.949982,,,
729716941.977949,-41.387748,8.344375,97.90821,-0.096207,-0.66124,0.746078,-0.202792,-0.045561,0.003809,92.467972,66.747604,-123.949982,,,
729716941.979065,-41.387735,8.344377,100.985059,-0.096207,-0.66124,0.746078,-0.202792,-0.045561,0.003809,92.467972,66.747604,-123.949982,,,
729716941.97917,-41.445575,8.338518,136.533683,-0.096207,-0.66124,0.746078,-0.202792,-0.045561,0.003809,92.467972,66.747604,-123.949982,,,
729716941.98017,-41.445578,8.338518,97.92048,-0.096207,-0.66124,0.746078,-0.202792,-0.045561,0.003809,92.467972,66.747604,-123.949982,,,
729716941.980593,-41.445566,8.33852,100.997329,-0.096207,-0.66124,0.746078,-0.202792,-0.045561,0.003809,92.467972,66.747604,-123.949982,,,
729716941.980991,-41.445575,8.338518,136.533683,-0.096207,-0.66124,0.746078,-0.202792,-0.045561,0.003809,92.467972,66.747604,-123.949982,,,
729716941.983463,-41.445578,8.338518,97.92048,-0.096207,-0.66124,0.746078,-0.202792,-0.045561,0.003809,92.467972,66.747604,-123.949982,,,
729716941.983689,-41.445566,8.33852,100.997329,-0.096207,-0.66124,0.746078,-0.202792,-0.045561,0.003809,92.467972,66.747604,-123.949982,,,
729716941.984352,-41.503818,8.332542,136.543932,-0.095001,-0.662308,0.748383,-0.204518,-0.037123,-0.007159,92.467972,66.747604,-123.949982,,,
729716941.988542,-41.503822,8.332542,97.930728,-0.095001,-0.662308,0.748383,-0.204518,-0.037123,-0.007159,92.467972,66.747604,-123.949982,,,
729716941.990376,-41.503809,8.332544,101.007577,-0.095001,-0.662308,0.748383,-0.204518,-0.037123,-0.007159,92.467972,66.747604,-123.949982,,,
729716941.990529,-41.5637,8.327282,136.55212,-0.095001,-0.662308,0.748383,-0.204518,-0.037123,-0.007159,92.467972,66.747604,-123.949982,,,
729716941.991071,-41.563704,8.327282,97.938918,-0.095001,-0.662308,0.748383,-0.204518,-0.037123,-0.007159,92.467972,66.747604,-123.949982,,,
729716941.991183,-41.5637,8.327282,136.55212,-0.095001,-0.662308,0.748383,-0.204518,-0.037123,-0.007159,92.467972,66.747604,-123.949982,,,
729716941.993454,-41.563704,8.327282,97.938918,-0.095001,-0.662308,0.748383,-0.204518,-0.037123,-0.007159,92.467972,66.747604,-123.949982,,,
729716941.994161,-41.563691,8.327284,101.015767,-0.095001,-0.662308,0.748383,-0.204518,-0.037123,-0.007159,92.467972,66.747604,-123.949982,,,
729716941.994372,-41.626464,8.323169,136.557473,-0.089325,-0.662155,0.745239,-0.222691,-0.016081,-0.024744,92.467972,66.747604,-123.949982,,,
729716941.998109,-41.626468,8.323169,97.944271,-0.089325,-0.662155,0.745239,-0.222691,-0.016081,-0.024744,92.467972,66.747604,-123.949982,,,
729716941.999557,-41.626455,8.323171,101.02112,-0.089325,-0.662155,0.745239,-0.222691,-0.016081,-0.024744,92.467972,66.747604,-123.949982,,,
729716941.999726,-41.691815,8.321326,136.55975,-0.089325,-0.662155,0.745239,-0.222691,-0.016081,-0.024744,92.467972,66.747604,-123.949982,,,
729716942.000321,-41.691818,8.321326,97.946548,-0.089325,-0.662155,0.745239,-0.222691,-0.016081,-0.024744,92.467972,66.747604,-123.949982,,,
729716942.000652,-41.691805,8.321328,101.023397,-0.089325,-0.662155,0.745239,-0.222691,-0.016081,-0.024744,92.467972,66.747604,-123.949982,,,
729716942.000978,-41.691815,8.321326,136.55975,-0.089325,-0.662155,0.745239,-0.222691,-0.016081,-0.024744,92.467972,66.747604,-123.949982,,,
729716942.004122,-41.691818,8.321326,97.946548,-0.089325,-0.662155,0.745239,-0.222691,-0.016081,-0.024744,92.623276,66.766418,-123.757751,,,
729716942.006787,-41.758804,8.322731,101.02331,-0.081177,-0.664536,0.742661,-0.232871,0.017442,-0.038658,92.623276,66.766418,-123.757751,,,
729716942.006937,-41.758813,8.322729,136.559664,-0.081177,-0.664536,0.742661,-0.232871,0.017442,-0.038658,92.623276,66.766418,-123.757751,,,
729716942.008336,-41.758817,8.322729,97.946461,-0.081177,-0.664536,0.742661,-0.232871,0.017442,-0.038658,92.623276,66.766418,-123.757751,,,
729716942.008477,-41.758813,8.322729,136.559664,-0.081177,-0.664536,0.742661,-0.232871,0.017442,-0.038658,92.623276,66.766418,-123.757751,,,
729716942.010465,-41.826592,8.327667,97.944653,-0.081177,-0.664536,0.742661,-0.232871,0.017442,-0.038658,92.623276,66.766418,-123.757751,,,
729716942.010928,-41.826579,8.327669,101.021502,-0.081177,-0.664536,0.742661,-0.232871,0.017442,-0.038658,92.623276,66.766418,-123.757751,,,
729716942.011036,-41.826589,8.327667,136.557857,-0.081177,-0.664536,0.742661,-0.232871,0.017442,-0.038658,92.623276,66.766418,-123.757751,,,
729716942.013505,-41.826592,8.327667,97.944653,-0.081177,-0.664536,0.742661,-0.232871,0.017442,-0.038658,92.623276,66.766418,-123.757751,,,
729716942.013652,-41.826579,8.327669,101.021502,-0.081177,-0.664536,0.742661,-0.232871,0.017442,-0.038658,92.623276,66.766418,-123.757751,,,
729716942.014378,-41.893698,8.334596,136.555807,-0.086029,-0.667038,0.745926,-0.228598,0.032437,-0.039375,92.623276,66.766418,-123.757751,,,
729716942.017386,-41.893702,8.334596,97.942604,-0.086029,-0.667038,0.745926,-0.228598,0.032437,-0.039375,92.623276,66.766418,-123.757751,,,
729716942.018152,-41.893689,8.334598,101.019453,-0.086029,-0.667038,0.745926,-0.228598,0.032437,-0.039375,92.623276,66.766418,-123.757751,,,
729716942.018269,-41.893698,8.334596,136.555807,-0.086029,-0.667038,0.745926,-0.228598,0.032437,-0.039375,92.623276,66.766418,-123.757751,,,
729716942.02029,-41.960167,8.341574,97.942417,-0.086029,-0.667038,0.745926,-0.228598,0.032437,-0.039375,92.623276,66.766418,-123.757751,,,
729716942.020744,-41.960154,8.341576,101.019266,-0.086029,-0.667038,0.745926,-0.228598,0.032437,-0.039375,92.623276,66.766418,-123.757751,,,
729716942.021088,-41.960164,8.341574,136.555619,-0.086029,-0.667038,0.745926,-0.228598,0.032437,-0.039375,92.623276,66.766418,-123.757751,,,
729716942.023464,-41.960167,8.341574,97.942417,-0.086029,-0.667038,0.745926,-0.228598,0.032437,-0.039375,92.623276,66.766418,-123.757751,,,
729716942.023686,-41.960154,8.341576,101.019266,-0.086029,-0.667038,0.745926,-0.228598,0.032437,-0.039375,92.623276,66.766418,-123.757751,,,
729716942.024353,-42.026813,8.348126,136.559097,-0.086029,-0.667038,0.745926,-0.233024,0.012343,-0.020916,92.623276,66.766418,-123.757751,,,
729716942.028063,-42.026817,8.348126,97.945896,-0.096802,-0.672653,0.734009,-0.233024,0.012343,-0.020916,92.623276,66.766418,-123.757751,,,
729716942.029335,-42.026804,8.348128,101.022744,-0.096802,-0.672653,0.734009,-0.233024,0.012343,-0.020916,92.623276,66.766418,-123.757751,,,
729716942.029486,-42.094207,8.354812,136.566579,-0.096802,-0.672653,0.734009,-0.233024,0.012343,-0.020916,92.623276,66.766418,-123.757751,,,
729716942.030124,-42.09421,8.354812,97.953378,-0.096802,-0.672653,0.734009,-0.233024,0.012343,-0.020916,92.623276,66.766418,-123.757751,,,
729716942.030781,-42.094197,8.354814,101.030226,-0.096802,-0.672653,0.734009,-0.233024,0.012343,-0.020916,92.623276,66.766418,-123.757751,,,
729716942.031147,-42.094207,8.354812,136.566579,-0.096802,-0.672653,0.734009,-0.233024,0.012343,-0.020916,92.623276,66.766418,-123.757751,,,
729716942.033468,-42.09421,8.354812,97.953378,-0.096802,-0.672653,0.734009,-0.233024,0.012343,-0.020916,92.623276,66.766418,-123.757751,,,
729716942.033694,-42.094197,8.354814,101.030226,-0.096802,-0.672653,0.734009,-0.233024,0.012343,-0.020916,92.623276,66.766418,-123.757751,,,
729716942.034376,-42.16033,8.362517,136.57683,-0.096802,-0.672653,0.734009,-0.226784,0.006441,-0.005671,92.623276,66.766418,-123.757751,,,
729716942.03798,-42.160334,8.362517,97.963628,-0.105057,-0.674026,0.723282,-0.226784,0.006441,-0.005671,92.623276,66.766418,-123.757751,,,
729716942.039325,-42.160321,8.362519,101.040477,-0.105057,-0.674026,0.723282,-0.226784,0.006441,-0.005671,92.623276,66.766418,-123.757751,,,
729716942.039479,-42.224648,8.370469,136.587628,-0.105057,-0.674026,0.723282,-0.226784,0.006441,-0.005671,92.623276,66.766418,-123.757751,,,
729716942.040533,-42.224652,8.370469,97.974426,-0.105057,-0.674026,0.723282,-0.226784,0.006441,-0.005671,92.623276,66.766418,-123.757751,,,
729716942.041342,-42.224639,8.370471,101.051275,-0.105057,-0.674026,0.723282,-0.226784,0.006441,-0.005671,92.623276,66.766418,-123.757751,,,
729716942.041498,-42.224648,8.370469,136.587628,-0.105057,-0.674026,0.723282,-0.226784,0.006441,-0.005671,92.623276,66.766418,-123.757751,,,
729716942.043407,-42.224652,8.370469,97.974426,-0.105057,-0.674026,0.723282,-0.226784,0.006441,-0.005671,92.623276,66.766418,-123.757751,,,
729716942.043701,-42.224639,8.370471,101.051275,-0.105057,-0.674026,0.723282,-0.226784,0.006441,-0.005671,92.623276,66.766418,-123.757751,,,
729716942.044347,-42.224648,8.370469,136.587628,-0.105057,-0.674026,0.723282,-0.226784,0.006441,-0.005671,92.615433,67.034576,-123.114197,,,
729716942.048349,-42.287395,8.377497,97.984841,-0.097336,-0.667404,0.737549,-0.216241,0.001709,-0.006261,92.615433,67.034576,-123.114197,,,
729716942.049962,-42.287382,8.377499,101.06169,-0.097336,-0.667404,0.737549,-0.216241,0.001709,-0.006261,92.615433,67.034576,-123.114197,,,
729716942.050073,-42.348596,8.382362,136.607371,-0.097336,-0.667404,0.737549,-0.216241,0.001709,-0.006261,92.615433,67.034576,-123.114197,,,
729716942.050472,-42.348599,8.382362,97.994168,-0.097336,-0.667404,0.737549,-0.216241,0.001709,-0.006261,92.615433,67.034576,-123.114197,,,
729716942.050876,-42.348586,8.382364,101.071017,-0.097336,-0.667404,0.737549,-0.216241,0.001709,-0.006261,92.615433,67.034576,-123.114197,,,
729716942.050995,-42.348596,8.382362,136.607371,-0.097336,-0.667404,0.737549,-0.216241,0.001709,-0.006261,92.615433,67.034576,-123.114197,,,
729716942.053471,-42.348599,8.382362,97.994168,-0.097336,-0.667404,0.737549,-0.216241,0.001709,-0.006261,92.615433,67.034576,-123.114197,,,
729716942.053691,-42.348586,8.382364,101.071017,-0.097336,-0.667404,0.737549,-0.216241,0.001709,-0.006261,92.615433,67.034576,-123.114197,,,
729716942.054403,-42.348596,8.382362,136.607371,-0.088501,-0.666122,0.73671,-0.202791,-0.01582,-0.013593,92.615433,67.034576,-123.114197,,,
729716942.058543,-42.407959,8.383525,98.001725,-0.088501,-0.666122,0.73671,-0.202791,-0.01582,-0.013593,92.615433,67.034576,-123.114197,,,
729716942.060073,-42.407946,8.383527,101.078574,-0.088501,-0.666122,0.73671,-0.202791,-0.01582,-0.013593,92.615433,67.034576,-123.114197,,,
729716942.060192,-42.460968,8.375873,136.618893,-0.088501,-0.666122,0.73671,-0.202791,-0.01582,-0.013593,92.615433,67.034576,-123.114197,,,
729716942.060613,-42.460972,8.375873,98.005689,-0.088501,-0.666122,0.73671,-0.202791,-0.01582,-0.013593,92.615433,67.034576,-123.114197,,,
729716942.060911,-42.460959,8.375875,101.082538,-0.088501,-0.666122,0.73671,-0.202791,-0.01582,-0.013593,92.615433,67.034576,-123.114197,,,
729716942.061015,-42.460968,8.375873,136.618893,-0.088501,-0.666122,0.73671,-0.202791,-0.01582,-0.013593,92.615433,67.034576,-123.114197,,,
729716942.063559,-42.460972,8.375873,98.005689,-0.088501,-0.666122,0.73671,-0.202791,-0.01582,-0.013593,92.615433,67.034576,-123.114197,,,
729716942.063768,-42.460959,8.375875,101.082538,-0.088501,-0.666122,0.73671,-0.202791,-0.01582,-0.013593,92.615433,67.034576,-123.114197,,,
729716942.064431,-42.460968,8.375873,136.618893,-0.088501,-0.666122,0.73671,-0.188863,-0.046237,-0.00476,92.615433,67.034576,-123.114197,,,
729716942.068124,-42.515913,8.369172,98.013955,-0.097031,-0.671753,0.727173,-0.188863,-0.046237,-0.00476,92.615433,67.034576,-123.114197,,,
729716942.069634,-42.5159,8.369174,101.090803,-0.097031,-0.671753,0.727173,-0.188863,-0.046237,-0.00476,92.615433,67.034576,-123.114197,,,
729716942.069746,-42.563179,8.352973,136.632262,-0.097031,-0.671753,0.727173,-0.188863,-0.046237,-0.00476,92.615433,67.034576,-123.114197,,,
729716942.070288,-42.563183,8.352973,98.019056,-0.097031,-0.671753,0.727173,-0.188863,-0.046237,-0.00476,92.615433,67.034576,-123.114197,,,
729716942.070845,-42.56317,8.352975,101.095905,-0.097031,-0.671753,0.727173,-0.188863,-0.046237,-0.00476,92.615433,67.034576,-123.114197,,,
729716942.071096,-42.563179,8.352973,136.632262,-0.097031,-0.671753,0.727173,-0.188863,-0.046237,-0.00476,92.615433,67.034576,-123.114197,,,
729716942.073468,-42.563183,8.352973,98.019056,-0.097031,-0.671753,0.727173,-0.188863,-0.046237,-0.00476,92.615433,67.034576,-123.114197,,,
729716942.073688,-42.56317,8.352975,101.095905,-0.097031,-0.671753,0.727173,-0.188863,-0.046237,-0.00476,92.615433,67.034576,-123.114197,,,
729716942.074357,-42.563179,8.352973,136.632262,-0.097031,-0.671753,0.727173,-0.188863,-0.046237,-0.00476,92.615433,67.034576,-123.114197,,,
729716942.078991,-42.612977,8.33954,98.029056,-0.107681,-0.676743,0.726379,-0.171083,-0.074054,0.000993,92.615433,67.034576,-123.114197,,,
729716942.081228,-42.612964,8.339542,101.105905,-0.107681,-0.676743,0.726379,-0.171083,-0.074054,0.000993,92.615433,67.034576,-123.114197,,,
729716942.081388,-42.657419,8.313036,136.647308,-0.107681,-0.676743,0.726379,-0.171083,-0.074054,0.000993,92.615433,67.034576,-123.114197,,,
729716942.081842,-42.657423,8.313036,98.034102,-0.107681,-0.676743,0.726379,-0.171083,-0.074054,0.000993,92.615433,67.034576,-123.114197,,,
729716942.08329,-42.657423,8.313036,98.034102,-0.107681,-0.676743,0.726379,-0.171083,-0.074054,0.000993,92.615433,67.034576,-123.114197,,,
729716942.083981,-42.657409,8.313038,101.110951,-0.107681,-0.676743,0.726379,-0.171083,-0.074054,0.000993,92.615433,67.034576,-123.114197,,,
729716942.08438,-42.657419,8.313036,136.647308,-0.107681,-0.676743,0.726379,-0.171083,-0.074054,0.000993,92.615433,67.034576,-123.114197,,,
729716942.088655,-42.707994,8.288202,98.044042,-0.107956,-0.673416,0.712936,-0.184114,-0.118269,-0.005985,92.459412,67.514786,-122.801926,,,
729716942.090706,-42.70798,8.288205,101.120891,-0.107956,-0.673416,0.712936,-0.184114,-0.118269,-0.005985,92.459412,67.514786,-122.801926,,,
729716942.090836,-42.757685,8.247942,136.658718,-0.107956,-0.673416,0.712936,-0.184114,-0.118269,-0.005985,92.459412,67.514786,-122.801926,,,
729716942.091598,-42.757689,8.247942,98.045511,-0.107956,-0.673416,0.712936,-0.184114,-0.118269,-0.005985,92.459412,67.514786,-122.801926,,,
729716942.093366,-42.757689,8.247942,98.045511,-0.107956,-0.673416,0.712936,-0.184114,-0.118269,-0.005985,92.459412,67.514786,-122.801926,,,
729716942.094017,-42.757676,8.247944,101.12236,-0.107956,-0.673416,0.712936,-0.184114,-0.118269,-0.005985,92.459412,67.514786,-122.801926,,,
729716942.094354,-42.757685,8.247942,136.658718,-0.107956,-0.673416,0.712936,-0.184114,-0.118269,-0.005985,92.459412,67.514786,-122.801926,,,
729716942.097873,-42.815916,8.212314,98.048516,-0.097275,-0.663925,0.698944,-0.206536,-0.125315,-0.03098,92.459412,67.514786,-122.801926,,,
729716942.09934,-42.815902,8.212316,101.125365,-0.097275,-0.663925,0.698944,-0.206536,-0.125315,-0.03098,92.459412,67.514786,-122.801926,,,
729716942.09949,-42.875343,8.170986,136.656844,-0.097275,-0.663925,0.698944,-0.206536,-0.125315,-0.03098,92.459412,67.514786,-122.801926,,,
729716942.100296,-42.875347,8.170986,98.043638,-0.097275,-0.663925,0.698944,-0.206536,-0.125315,-0.03098,92.459412,67.514786,-122.801926,,,
729716942.100903,-42.875333,8.170988,101.120487,-0.097275,-0.663925,0.698944,-0.206536,-0.125315,-0.03098,92.459412,67.514786,-122.801926,,,
729716942.101062,-42.875343,8.170986,136.656844,-0.097275,-0.663925,0.698944,-0.206536,-0.125315,-0.03098,92.459412,67.514786,-122.801926,,,
729716942.103436,-42.875347,8.170986,98.043638,-0.097275,-0.663925,0.698944,-0.206536,-0.125315,-0.03098,92.459412,67.514786,-122.801926,,,
729716942.103637,-42.875333,8.170988,101.120487,-0.097275,-0.663925,0.698944,-0.206536,-0.125315,-0.03098,92.459412,67.514786,-122.801926,,,
729716942.104414,-42.875343,8.170986,136.656844,-0.097275,-0.663925,0.698944,-0.206536,-0.125315,-0.03098,92.459412,67.514786,-122.801926,,,
729716942.107636,-42.942181,8.130824,98.037289,-0.092163,-0.659317,0.709808,-0.233314,-0.125315,-0.056253,92.459412,67.514786,-122.801926,,,
729716942.108795,-42.942168,8.130826,101.114138,-0.092163,-0.659317,0.709808,-0.233314,-0.125315,-0.056253,92.459412,67.514786,-122.801926,,,
729716942.108903,-42.942178,8.130824,136.650491,-0.092163,-0.659317,0.709808,-0.233314,-0.125315,-0.056253,92.459412,67.514786,-122.801926,,,
729716942.110395,-43.012437,8.087811,98.027629,-0.092163,-0.659317,0.709808,-0.233314,-0.125315,-0.056253,92.459412,67.514786,-122.801926,,,
729716942.111027,-43.012423,8.087813,101.104477,-0.092163,-0.659317,0.709808,-0.233314,-0.125315,-0.056253,92.459412,67.514786,-122.801926,,,
729716942.111161,-43.012433,8.087811,136.64083,-0.092163,-0.659317,0.709808,-0.233314,-0.125315,-0.056253,92.459412,67.514786,-122.801926,,,
729716942.113573,-43.012437,8.087811,98.027629,-0.092163,-0.659317,0.709808,-0.233314,-0.125315,-0.056253,92.459412,67.514786,-122.801926,,,
729716942.113714,-43.012423,8.087813,101.104477,-0.092163,-0.659317,0.709808,-0.233314,-0.125315,-0.056253,92.459412,67.514786,-122.801926,,,
729716942.114388,-43.012433,8.087811,136.64083,-0.092163,-0.659317,0.709808,-0.233314,-0.125315,-0.056253,92.459412,67.514786,-122.801926,,,
729716942.117728,-43.090161,8.045273,98.014618,-0.098709,-0.659378,0.705063,-0.276206,-0.105728,-0.07881,92.459412,67.514786,-122.801926,,,
729716942.118739,-43.090147,8.045276,101.091467,-0.098709,-0.659378,0.705063,-0.276206,-0.105728,-0.07881,92.459412,67.514786,-122.801926,,,
729716942.118851,-43.090157,8.045274,136.627821,-0.098709,-0.659378,0.705063,-0.276206,-0.105728,-0.07881,92.459412,67.514786,-122.801926,,,
729716942.120467,-43.171566,8.004231,97.998836,-0.098709,-0.659378,0.705063,-0.276206,-0.105728,-0.07881,92.459412,67.514786,-122.801926,,,
729716942.121094,-43.171553,8.004233,101.075685,-0.098709,-0.659378,0.705063,-0.276206,-0.105728,-0.07881,92.459412,67.514786,-122.801926,,,
729716942.121213,-43.171562,8.004231,136.612039,-0.098709,-0.659378,0.705063,-0.276206,-0.105728,-0.07881,92.459412,67.514786,-122.801926,,,
729716942.123475,-43.171566,8.004231,97.998836,-0.098709,-0.659378,0.705063,-0.276206,-0.105728,-0.07881,92.459412,67.514786,-122.801926,,,
729716942.123703,-43.171553,8.004233,101.075685,-0.098709,-0.659378,0.705063,-0.276206,-0.105728,-0.07881,92.459412,67.514786,-122.801926,,,
729716942.124354,-43.171562,8.004231,136.612039,-0.098709,-0.659378,0.705063,-0.276206,-0.105728,-0.07881,92.459412,67.514786,-122.801926,,,
729716942.128725,-43.264705,7.965959,97.983795,-0.101181,-0.659851,0.699783,-0.327553,-0.093477,-0.085171,92.27298,67.704575,-122.420715,,,
729716942.130162,-43.264692,7.965961,101.060643,-0.101181,-0.659851,0.699783,-0.327553,-0.093477,-0.085171,92.27298,67.704575,-122.420715,,,
729716942.130291,-43.359591,7.924255,136.579842,-0.101181,-0.659851,0.699783,-0.327553,-0.093477,-0.085171,92.27298,67.704575,-122.420715,,,
729716942.130892,-43.359595,7.924254,97.96664,-0.101181,-0.659851,0.699783,-0.327553,-0.093477,-0.085171,92.27298,67.704575,-122.420715,,,
729716942.131046,-43.359591,7.924255,136.579842,-0.101181,-0.659851,0.699783,-0.327553,-0.093477,-0.085171,92.27298,67.704575,-122.420715,,,
729716942.13345,-43.359595,7.924254,97.96664,-0.101181,-0.659851,0.699783,-0.327553,-0.093477,-0.085171,92.27298,67.704575,-122.420715,,,
729716942.134151,-43.359581,7.924257,101.043489,-0.101181,-0.659851,0.699783,-0.327553,-0.093477,-0.085171,92.27298,67.704575,-122.420715,,,
729716942.134326,-43.359591,7.924255,136.579842,-0.101181,-0.659851,0.699783,-0.327553,-0.093477,-0.085171,92.27298,67.704575,-122.420715,,,
729716942.137631,-43.466348,7.889748,97.95483,-0.09967,-0.661789,0.68927,-0.373076,-0.085204,-0.079129,92.27298,67.704575,-122.420715,,,
729716942.138614,-43.466334,7.88975,101.031678,-0.09967,-0.661789,0.68927,-0.373076,-0.085204,-0.079129,92.27298,67.704575,-122.420715,,,
729716942.138726,-43.466344,7.889748,136.568033,-0.09967,-0.661789,0.68927,-0.373076,-0.085204,-0.079129,92.27298,67.704575,-122.420715,,,
729716942.140287,-43.573873,7.858452,97.94558,-0.09967,-0.661789,0.68927,-0.373076,-0.085204,-0.079129,92.27298,67.704575,-122.420715,,,
729716942.140842,-43.573859,7.858454,101.022429,-0.09967,-0.661789,0.68927,-0.373076,-0.085204,-0.079129,92.27298,67.704575,-122.420715,,,
729716942.140967,-43.573869,7.858452,136.558782,-0.09967,-0.661789,0.68927,-0.373076,-0.085204,-0.079129,92.27298,67.704575,-122.420715,,,
729716942.143435,-43.573873,7.858452,97.94558,-0.09967,-0.661789,0.68927,-0.373076,-0.085204,-0.079129,92.27298,67.704575,-122.420715,,,
729716942.143634,-43.573859,7.858454,101.022429,-0.09967,-0.661789,0.68927,-0.373076,-0.085204,-0.079129,92.27298,67.704575,-122.420715,,,
729716942.144355,-43.573869,7.858452,136.558782,-0.09967,-0.661789,0.68927,-0.373076,-0.085204,-0.079129,92.27298,67.704575,-122.420715,,,
729716942.148217,-43.688854,7.835653,97.943155,-0.103058,-0.672562,0.6987,-0.402391,-0.065896,-0.054744,92.27298,67.704575,-122.420715,,,
729716942.149618,-43.688841,7.835655,101.020004,-0.103058,-0.672562,0.6987,-0.402391,-0.065896,-0.054744,92.27298,67.704575,-122.420715,,,
729716942.149772,-43.803399,7.821489,136.561756,-0.103058,-0.672562,0.6987,-0.402391,-0.065896,-0.054744,92.27298,67.704575,-122.420715,,,
729716942.15051,-43.803403,7.821489,97.948554,-0.103058,-0.672562,0.6987,-0.402391,-0.065896,-0.054744,92.27298,67.704575,-122.420715,,,
729716942.151054,-43.803389,7.821492,101.025403,-0.103058,-0.672562,0.6987,-0.402391,-0.065896,-0.054744,92.27298,67.704575,-122.420715,,,
729716942.151161,-43.803399,7.821489,136.561756,-0.103058,-0.672562,0.6987,-0.402391,-0.065896,-0.054744,92.27298,67.704575,-122.420715,,,
729716942.153412,-43.803403,7.821489,97.948554,-0.103058,-0.672562,0.6987,-0.402391,-0.065896,-0.054744,92.27298,67.704575,-122.420715,,,
729716942.153646,-43.803389,7.821492,101.025403,-0.103058,-0.672562,0.6987,-0.402391,-0.065896,-0.054744,92.27298,67.704575,-122.420715,,,
729716942.154452,-43.803399,7.821489,136.561756,-0.103058,-0.672562,0.6987,-0.402391,-0.065896,-0.054744,92.27298,67.704575,-122.420715,,,
729716942.158273,-43.922762,7.81154,97.958775,-0.110962,-0.68364,0.707275,-0.418804,-0.054819,-0.027506,92.27298,67.704575,-122.420715,,,
729716942.15994,-43.922748,7.811542,101.035623,-0.110962,-0.68364,0.707275,-0.418804,-0.054819,-0.027506,92.27298,67.704575,-122.420715,,,
729716942.160103,-44.043266,7.805394,136.587151,-0.110962,-0.68364,0.707275,-0.418804,-0.054819,-0.027506,92.27298,67.704575,-122.420715,,,
729716942.160599,-44.04327,7.805394,97.973946,-0.110962,-0.68364,0.707275,-0.418804,-0.054819,-0.027506,92.27298,67.704575,-122.420715,,,
729716942.161,-44.043256,7.805396,101.050795,-0.110962,-0.68364,0.707275,-0.418804,-0.054819,-0.027506,92.27298,67.704575,-122.420715,,,
729716942.161103,-44.043266,7.805394,136.587151,-0.110962,-0.68364,0.707275,-0.418804,-0.054819,-0.027506,92.27298,67.704575,-122.420715,,,
729716942.163474,-44.04327,7.805394,97.973946,-0.110962,-0.68364,0.707275,-0.418804,-0.054819,-0.027506,92.27298,67.704575,-122.420715,,,
729716942.163656,-44.043256,7.805396,101.050795,-0.110962,-0.68364,0.707275,-0.418804,-0.054819,-0.027506,92.27298,67.704575,-122.420715,,,
729716942.164378,-44.043266,7.805394,136.587151,-0.110962,-0.68364,0.707275,-0.418804,-0.054819,-0.027506,92.27298,67.704575,-122.420715,,,
729716942.16795,-44.163402,7.801135,97.992264,-0.113129,-0.690964,0.700699,-0.418655,-0.057025,-0.011697,92.304245,67.914444,-121.509506,,,
729716942.169219,-44.163388,7.801137,101.069112,-0.113129,-0.690964,0.700699,-0.418655,-0.057025,-0.011697,92.304245,67.914444,-121.509506,,,
729716942.169333,-44.163398,7.801135,136.605469,-0.113129,-0.690964,0.700699,-0.418655,-0.057025,-0.011697,92.304245,67.914444,-121.509506,,,
729716942.170296,-44.282916,7.79875,98.010862,-0.113129,-0.690964,0.700699,-0.418655,-0.057025,-0.011697,92.304245,67.914444,-121.509506,,,
729716942.170911,-44.282902,7.798753,101.08771,-0.113129,-0.690964,0.700699,-0.418655,-0.057025,-0.011697,92.304245,67.914444,-121.509506,,,
729716942.171068,-44.282912,7.79875,136.624068,-0.113129,-0.690964,0.700699,-0.418655,-0.057025,-0.011697,92.304245,67.914444,-121.509506,,,
729716942.17348,-44.282916,7.79875,98.010862,-0.113129,-0.690964,0.700699,-0.418655,-0.057025,-0.011697,92.304245,67.914444,-121.509506,,,
729716942.173702,-44.282902,7.798753,101.08771,-0.113129,-0.690964,0.700699,-0.418655,-0.057025,-0.011697,92.304245,67.914444,-121.509506,,,
729716942.17435,-44.282912,7.79875,136.624068,-0.113129,-0.690964,0.700699,-0.418655,-0.057025,-0.011697,92.304245,67.914444,-121.509506,,,
729716942.177695,-44.402213,7.799325,98.028362,-0.112076,-0.693771,0.70845,-0.416719,-0.031195,-0.017164,92.304245,67.914444,-121.509506,,,
729716942.178762,-44.402199,7.799327,101.105211,-0.112076,-0.693771,0.70845,-0.416719,-0.031195,-0.017164,92.304245,67.914444,-121.509506,,,
729716942.178906,-44.40221,7.799325,136.641567,-0.112076,-0.693771,0.70845,-0.416719,-0.031195,-0.017164,92.304245,67.914444,-121.509506,,,
729716942.180425,-44.521584,7.80075,98.043054,-0.112076,-0.693771,0.70845,-0.416719,-0.031195,-0.017164,92.304245,67.914444,-121.509506,,,
729716942.181031,-44.52157,7.800753,101.119903,-0.112076,-0.693771,0.70845,-0.416719,-0.031195,-0.017164,92.304245,67.914444,-121.509506,,,
729716942.181187,-44.52158,7.80075,136.656259,-0.112076,-0.693771,0.70845,-0.416719,-0.031195,-0.017164,92.304245,67.914444,-121.509506,,,
729716942.183446,-44.521584,7.80075,98.043054,-0.112076,-0.693771,0.70845,-0.416719,-0.031195,-0.017164,92.304245,67.914444,-121.509506,,,
729716942.183682,-44.52157,7.800753,101.119903,-0.112076,-0.693771,0.70845,-0.416719,-0.031195,-0.017164,92.304245,67.914444,-121.509506,,,
729716942.184353,-44.52158,7.80075,136.656259,-0.112076,-0.693771,0.70845,-0.416719,-0.031195,-0.017164,92.304245,67.914444,-121.509506,,,
729716942.187829,-44.639189,7.802248,98.054719,-0.114563,-0.698318,0.711395,-0.403167,-0.016043,-0.030574,92.304245,67.914444,-121.509506,,,
729716942.189035,-44.639175,7.802251,101.131568,-0.114563,-0.698318,0.711395,-0.403167,-0.016043,-0.030574,92.304245,67.914444,-121.509506,,,
729716942.189196,-44.639185,7.802248,136.667925,-0.114563,-0.698318,0.711395,-0.403167,-0.016043,-0.030574,92.304245,67.914444,-121.509506,,,
729716942.190308,-44.753788,7.803858,98.064156,-0.114563,-0.698318,0.711395,-0.403167,-0.016043,-0.030574,92.304245,67.914444,-121.509506,,,
729716942.190917,-44.753774,7.80386,101.141005,-0.114563,-0.698318,0.711395,-0.403167,-0.016043,-0.030574,92.304245,67.914444,-121.509506,,,
729716942.191071,-44.753784,7.803858,136.677362,-0.114563,-0.698318,0.711395,-0.403167,-0.016043,-0.030574,92.304245,67.914444,-121.509506,,,
729716942.193455,-44.753788,7.803858,98.064156,-0.114563,-0.698318,0.711395,-0.403167,-0.016043,-0.030574,92.304245,67.914444,-121.509506,,,
729716942.193673,-44.753774,7.80386,101.141005,-0.114563,-0.698318,0.711395,-0.403167,-0.016043,-0.030574,92.304245,67.914444,-121.509506,,,
729716942.194351,-44.753784,7.803858,136.677362,-0.114563,-0.698318,0.711395,-0.403167,-0.016043,-0.030574,92.304245,67.914444,-121.509506,,,
729716942.198245,-44.865872,7.805429,98.072169,-0.117157,-0.703461,0.706314,-0.385516,-0.009385,-0.03535,92.304245,67.914444,-121.509506,,,
729716942.200158,-44.865858,7.805431,101.149017,-0.117157,-0.703461,0.706314,-0.385516,-0.009385,-0.03535,92.304245,67.914444,-121.509506,,,
729716942.200324,-44.975879,7.806188,136.69306,-0.117157,-0.703461,0.706314,-0.385516,-0.009385,-0.03535,92.304245,67.914444,-121.509506,,,
729716942.200919,-44.975883,7.806188,98.079853,-0.117157,-0.703461,0.706314,-0.385516,-0.009385,-0.03535,92.304245,67.914444,-121.509506,,,
729716942.201088,-44.975879,7.806188,136.69306,-0.117157,-0.703461,0.706314,-0.385516,-0.009385,-0.03535,92.304245,67.914444,-121.509506,,,
729716942.203463,-44.975883,7.806188,98.079853,-0.117157,-0.703461,0.706314,-0.385516,-0.009385,-0.03535,92.304245,67.914444,-121.509506,,,
729716942.204099,-44.975869,7.80619,101.156702,-0.117157,-0.703461,0.706314,-0.385516,-0.009385,-0.03535,92.304245,67.914444,-121.509506,,,
729716942.2044,-44.975879,7.806188,136.69306,-0.117157,-0.703461,0.706314,-0.385516,-0.009385,-0.03535,92.304245,67.914444,-121.509506,,,
729716942.208502,-45.083272,7.805339,98.088679,-0.118439,-0.70549,0.69606,-0.368652,-0.026253,-0.027445,92.161942,68.480331,-120.88887,,,
729716942.210313,-45.083258,7.805341,101.165527,-0.118439,-0.70549,0.69606,-0.368652,-0.026253,-0.027445,92.161942,68.480331,-120.88887,,,
729716942.210484,-45.188176,7.804656,136.713115,-0.118439,-0.70549,0.69606,-0.368652,-0.026253,-0.027445,92.161942,68.480331,-120.88887,,,
729716942.21129,-45.18818,7.804655,98.099909,-0.118439,-0.70549,0.69606,-0.368652,-0.026253,-0.027445,92.161942,68.480331,-120.88887,,,
729716942.211454,-45.188176,7.804656,136.713115,-0.118439,-0.70549,0.69606,-0.368652,-0.026253,-0.027445,92.161942,68.480331,-120.88887,,,
729716942.213474,-45.18818,7.804655,98.099909,-0.118439,-0.70549,0.69606,-0.368652,-0.026253,-0.027445,92.161942,68.480331,-120.88887,,,
729716942.214326,-45.188166,7.804658,101.176758,-0.118439,-0.70549,0.69606,-0.368652,-0.026253,-0.027445,92.161942,68.480331,-120.88887,,,
729716942.214524,-45.188176,7.804656,136.713115,-0.118439,-0.70549,0.69606,-0.368652,-0.026253,-0.027445,92.161942,68.480331,-120.88887,,,
729716942.217841,-45.290283,7.805166,98.114276,-0.117279,-0.709915,0.6931,-0.351765,-0.033533,-0.009682,92.161942,68.480331,-120.88887,,,
729716942.219094,-45.290268,7.805169,101.191125,-0.117279,-0.709915,0.6931,-0.351765,-0.033533,-0.009682,92.161942,68.480331,-120.88887,,,
729716942.219241,-45.290279,7.805166,136.727482,-0.117279,-0.709915,0.6931,-0.351765,-0.033533,-0.009682,92.161942,68.480331,-120.88887,,,
729716942.2203,-45.390471,7.8068,98.132593,-0.117279,-0.709915,0.6931,-0.351765,-0.033533,-0.009682,92.161942,68.480331,-120.88887,,,
729716942.220929,-45.390456,7.806803,101.209442,-0.117279,-0.709915,0.6931,-0.351765,-0.033533,-0.009682,92.161942,68.480331,-120.88887,,,
729716942.221089,-45.390467,7.8068,136.7458,-0.117279,-0.709915,0.6931,-0.351765,-0.033533,-0.009682,92.161942,68.480331,-120.88887,,,
729716942.22349,-45.390471,7.8068,98.132593,-0.117279,-0.709915,0.6931,-0.351765,-0.033533,-0.009682,92.161942,68.480331,-120.88887,,,
729716942.22371,-45.390456,7.806803,101.209442,-0.117279,-0.709915,0.6931,-0.351765,-0.033533,-0.009682,92.161942,68.480331,-120.88887,,,
729716942.224356,-45.390467,7.8068,136.7458,-0.117279,-0.709915,0.6931,-0.351765,-0.033533,-0.009682,92.161942,68.480331,-120.88887,,,
729716942.228747,-45.489638,7.809712,98.154936,-0.112122,-0.71579,0.690475,-0.347919,-0.044686,0.01048,92.161942,68.480331,-120.88887,,,
729716942.230691,-45.489623,7.809715,101.231784,-0.112122,-0.71579,0.690475,-0.347919,-0.044686,0.01048,92.161942,68.480331,-120.88887,,,
729716942.230886,-45.588441,7.814078,136.794905,-0.112122,-0.71579,0.690475,-0.347919,-0.044686,0.01048,92.161942,68.480331,-120.88887,,,
729716942.231515,-45.588445,7.814078,98.1817,-0.112122,-0.71579,0.690475,-0.347919,-0.044686,0.01048,92.161942,68.480331,-120.88887,,,
729716942.233413,-45.588445,7.814078,98.1817,-0.112122,-0.71579,0.690475,-0.347919,-0.044686,0.01048,92.161942,68.480331,-120.88887,,,
729716942.234137,-45.58843,7.81408,101.258549,-0.112122,-0.71579,0.690475,-0.347919,-0.044686,0.01048,92.161942,68.480331,-120.88887,,,
729716942.234355,-45.588441,7.814078,136.794905,-0.112122,-0.71579,0.690475,-0.347919,-0.044686,0.01048,92.161942,68.480331,-120.88887,,,
729716942.237748,-45.687721,7.821034,98.212858,-0.106079,-0.722733,0.693909,-0.354665,-0.048721,0.030877,92.161942,68.480331,-120.88887,,,
729716942.238994,-45.687707,7.821037,101.289706,-0.106079,-0.722733,0.693909,-0.354665,-0.048721,0.030877,92.161942,68.480331,-120.88887,,,
729716942.239171,-45.687717,7.821035,136.826064,-0.106079,-0.722733,0.693909,-0.354665,-0.048721,0.030877,92.161942,68.480331,-120.88887,,,
729716942.240558,-45.787326,7.832293,98.247591,-0.106079,-0.722733,0.693909,-0.354665,-0.048721,0.030877,92.161942,68.480331,-120.88887,,,
729716942.241384,-45.787311,7.832295,101.32444,-0.106079,-0.722733,0.693909,-0.354665,-0.048721,0.030877,92.161942,68.480331,-120.88887,,,
729716942.241544,-45.787322,7.832293,136.860792,-0.106079,-0.722733,0.693909,-0.354665,-0.048721,0.030877,92.161942,68.480331,-120.88887,,,
729716942.2434,-45.787326,7.832293,98.247591,-0.106079,-0.722733,0.693909,-0.354665,-0.048721,0.030877,92.161942,68.480331,-120.88887,,,
729716942.2437,-45.787311,7.832295,101.32444,-0.106079,-0.722733,0.693909,-0.354665,-0.048721,0.030877,92.161942,68.480331,-120.88887,,,
729716942.244354,-45.787322,7.832293,136.860792,-0.106079,-0.722733,0.693909,-0.354665,-0.048721,0.030877,92.161942,68.480331,-120.88887,,,
729716942.248219,-45.886631,7.848223,98.284994,-0.102264,-0.728912,0.701416,-0.354996,-0.029874,0.043574,92.161942,68.480331,-120.88887,,,
729716942.250262,-45.886616,7.848225,101.361842,-0.102264,-0.728912,0.701416,-0.354996,-0.029874,0.043574,91.964005,68.809967,-120.269928,,,
729716942.250441,-45.985987,7.868175,136.936763,-0.102264,-0.728912,0.701416,-0.354996,-0.029874,0.043574,91.964005,68.809967,-120.269928,,,
729716942.251526,-45.985991,7.868175,98.323559,-0.102264,-0.728912,0.701416,-0.354996,-0.029874,0.043574,91.964005,68.809967,-120.269928,,,
729716942.251643,-45.985987,7.868175,136.936763,-0.102264,-0.728912,0.701416,-0.354996,-0.029874,0.043574,91.964005,68.809967,-120.269928,,,
729716942.253355,-45.985991,7.868175,98.323559,-0.102264,-0.728912,0.701416,-0.354996,-0.029874,0.043574,91.964005,68.809967,-120.269928,,,
729716942.254076,-45.985976,7.868177,101.400407,-0.102264,-0.728912,0.701416,-0.354996,-0.029874,0.043574,91.964005,68.809967,-120.269928,,,
729716942.254361,-45.985987,7.868175,136.936763,-0.102264,-0.728912,0.701416,-0.354996,-0.029874,0.043574,91.964005,68.809967,-120.269928,,,
729716942.257465,-46.086643,7.890961,98.362396,-0.096069,-0.730087,0.703094,-0.364463,-0.011757,0.042966,91.964005,68.809967,-120.269928,,,
729716942.258244,-46.086628,7.890963,101.439244,-0.096069,-0.730087,0.703094,-0.364463,-0.011757,0.042966,91.964005,68.809967,-120.269928,,,
729716942.258348,-46.086639,7.890961,136.975599,-0.096069,-0.730087,0.703094,-0.364463,-0.011757,0.042966,91.964005,68.809967,-120.269928,,,
729716942.260651,-46.189397,7.916098,98.400789,-0.096069,-0.730087,0.703094,-0.364463,-0.011757,0.042966,91.964005,68.809967,-120.269928,,,
729716942.261471,-46.189382,7.9161,101.477637,-0.096069,-0.730087,0.703094,-0.364463,-0.011757,0.042966,91.964005,68.809967,-120.269928,,,
729716942.261631,-46.189393,7.916098,137.013992,-0.096069,-0.730087,0.703094,-0.364463,-0.011757,0.042966,91.964005,68.809967,-120.269928,,,
729716942.263451,-46.189397,7.916098,98.400789,-0.096069,-0.730087,0.703094,-0.364463,-0.011757,0.042966,91.964005,68.809967,-120.269928,,,
729716942.263741,-46.189382,7.9161,101.477637,-0.096069,-0.730087,0.703094,-0.364463,-0.011757,0.042966,91.964005,68.809967,-120.269928,,,
729716942.264394,-46.189393,7.916098,137.013992,-0.096069,-0.730087,0.703094,-0.364463,-0.011757,0.042966,91.964005,68.809967,-120.269928,,,
729716942.268756,-46.293488,7.944359,98.437948,-0.087067,-0.728241,0.703033,-0.373224,0.015911,0.035017,91.964005,68.809967,-120.269928,,,
729716942.270696,-46.293473,7.944361,101.514796,-0.087067,-0.728241,0.703033,-0.373224,0.015911,0.035017,91.964005,68.809967,-120.269928,,,
729716942.270891,-46.399601,7.976208,137.086197,-0.087067,-0.728241,0.703033,-0.373224,0.015911,0.035017,91.964005,68.809967,-120.269928,,,
729716942.271503,-46.399605,7.976208,98.472994,-0.087067,-0.728241,0.703033,-0.373224,0.015911,0.035017,91.964005,68.809967,-120.269928,,,
729716942.273381,-46.399605,7.976208,98.472994,-0.087067,-0.728241,0.703033,-0.373224,0.015911,0.035017,91.964005,68.809967,-120.269928,,,
729716942.274092,-46.39959,7.97621,101.549842,-0.087067,-0.728241,0.703033,-0.373224,0.015911,0.035017,91.964005,68.809967,-120.269928,,,
729716942.274329,-46.399601,7.976208,137.086197,-0.087067,-0.728241,0.703033,-0.373224,0.015911,0.035017,91.964005,68.809967,-120.269928,,,
729716942.277676,-46.507962,8.011024,98.505302,-0.076706,-0.726196,0.705612,-0.387529,0.050146,0.019027,91.964005,68.809967,-120.269928,,,
729716942.278727,-46.507947,8.011027,101.58215,-0.076706,-0.726196,0.705612,-0.387529,0.050146,0.019027,91.964005,68.809967,-120.269928,,,
729716942.278832,-46.507958,8.011024,137.118506,-0.076706,-0.726196,0.705612,-0.387529,0.050146,0.019027,91.964005,68.809967,-120.269928,,,
729716942.280418,-46.619609,8.047732,98.535537,-0.076706,-0.726196,0.705612,-0.387529,0.050146,0.019027,91.964005,68.809967,-120.269928,,,
729716942.280973,-46.619594,8.047734,101.612385,-0.076706,-0.726196,0.705612,-0.387529,0.050146,0.019027,91.964005,68.809967,-120.269928,,,
729716942.281084,-46.619605,8.047732,137.14874,-0.076706,-0.726196,0.705612,-0.387529,0.050146,0.019027,91.964005,68.809967,-120.269928,,,
729716942.28342,-46.619609,8.047732,98.535537,-0.076706,-0.726196,0.705612,-0.387529,0.050146,0.019027,91.964005,68.809967,-120.269928,,,
729716942.283643,-46.619594,8.047734,101.612385,-0.076706,-0.726196,0.705612,-0.387529,0.050146,0.019027,91.964005,68.809967,-120.269928,,,
729716942.284317,-46.619605,8.047732,137.14874,-0.076706,-0.726196,0.705612,-0.387529,0.050146,0.019027,91.964005,68.809967,-120.269928,,,
729716942.288137,-46.734959,8.085873,98.56462,-0.076645,-0.72847,0.692886,-0.412835,0.065725,0.009075,91.964005,68.809967,-120.269928,,,
729716942.289291,-46.734944,8.085875,101.641468,-0.076645,-0.72847,0.692886,-0.412835,0.065725,0.009075,91.964005,68.809967,-120.269928,,,
729716942.289401,-46.734955,8.085873,137.177823,-0.076645,-0.72847,0.692886,-0.412835,0.065725,0.009075,91.964005,68.809967,-120.269928,,,
729716942.290146,-46.734959,8.085873,98.56462,-0.076645,-0.72847,0.692886,-0.412835,0.065725,0.009075,92.193451,68.867294,-119.472183,,,
729716942.29104,-46.853915,8.125527,101.670292,-0.076645,-0.72847,0.692886,-0.412835,0.065725,0.009075,92.193451,68.867294,-119.472183,,,
729716942.291158,-46.853926,8.125525,137.206646,-0.076645,-0.72847,0.692886,-0.412835,0.065725,0.009075,92.193451,68.867294,-119.472183,,,
729716942.293824,-46.85393,8.125525,98.593444,-0.076645,-0.72847,0.692886,-0.412835,0.065725,0.009075,92.193451,68.867294,-119.472183,,,
729716942.293977,-46.853915,8.125527,101.670292,-0.076645,-0.72847,0.692886,-0.412835,0.065725,0.009075,92.193451,68.867294,-119.472183,,,
729716942.29428,-46.853926,8.125525,137.206646,-0.076645,-0.72847,0.692886,-0.412835,0.065725,0.009075,92.193451,68.867294,-119.472183,,,
729716942.298149,-46.977192,8.166132,98.622202,-0.074173,-0.731674,0.682693,-0.442757,0.072454,0.003566,92.193451,68.867294,-119.472183,,,
729716942.299357,-46.977177,8.166135,101.69905,-0.074173,-0.731674,0.682693,-0.442757,0.072454,0.003566,92.193451,68.867294,-119.472183,,,
729716942.299463,-46.977188,8.166133,137.235402,-0.074173,-0.731674,0.682693,-0.442757,0.072454,0.003566,92.193451,68.867294,-119.472183,,,
729716942.299836,-46.977192,8.166132,98.622202,-0.074173,-0.731674,0.682693,-0.442757,0.072454,0.003566,92.193451,68.867294,-119.472183,,,
729716942.300759,-47.105203,8.206873,101.727667,-0.074173,-0.731674,0.682693,-0.442757,0.072454,0.003566,92.193451,68.867294,-119.472183,,,
729716942.300987,-47.105214,8.20687,137.264025,-0.074173,-0.731674,0.682693,-0.442757,0.072454,0.003566,92.193451,68.867294,-119.472183,,,
729716942.303879,-47.105218,8.20687,98.650819,-0.074173,-0.731674,0.682693,-0.442757,0.072454,0.003566,92.193451,68.867294,-119.472183,,,
729716942.304038,-47.105203,8.206873,101.727667,-0.074173,-0.731674,0.682693,-0.442757,0.072454,0.003566,92.193451,68.867294,-119.472183,,,
729716942.30427,-47.105214,8.20687,137.264025,-0.074173,-0.731674,0.682693,-0.442757,0.072454,0.003566,92.193451,68.867294,-119.472183,,,
729716942.308823,-47.238207,8.247947,98.67962,-0.072021,-0.736832,0.673889,-0.477311,0.073619,-0.001591,92.193451,68.867294,-119.472183,,,
729716942.310292,-47.238191,8.24795,101.756468,-0.072021,-0.736832,0.673889,-0.477311,0.073619,-0.001591,92.193451,68.867294,-119.472183,,,
729716942.310414,-47.376174,8.289454,137.322009,-0.072021,-0.736832,0.673889,-0.477311,0.073619,-0.001591,92.193451,68.867294,-119.472183,,,
729716942.310982,-47.376178,8.289454,98.708802,-0.072021,-0.736832,0.673889,-0.477311,0.073619,-0.001591,92.193451,68.867294,-119.472183,,,
729716942.311094,-47.376174,8.289454,137.322009,-0.072021,-0.736832,0.673889,-0.477311,0.073619,-0.001591,92.193451,68.867294,-119.472183,,,
729716942.313485,-47.376178,8.289454,98.708802,-0.072021,-0.736832,0.673889,-0.477311,0.073619,-0.001591,92.193451,68.867294,-119.472183,,,
729716942.314063,-47.376162,8.289456,101.78565,-0.072021,-0.736832,0.673889,-0.477311,0.073619,-0.001591,92.193451,68.867294,-119.472183,,,
729716942.314332,-47.376174,8.289454,137.322009,-0.072021,-0.736832,0.673889,-0.477311,0.073619,-0.001591,92.193451,68.867294,-119.472183,,,
729716942.317592,-47.518132,8.330734,98.737578,-0.076599,-0.740448,0.664795,-0.505181,0.073852,-0.008613,92.193451,68.867294,-119.472183,,,
729716942.318538,-47.518116,8.330736,101.814425,-0.076599,-0.740448,0.664795,-0.505181,0.073852,-0.008613,92.193451,68.867294,-119.472183,,,
729716942.318643,-47.518127,8.330734,137.350783,-0.076599,-0.740448,0.664795,-0.505181,0.073852,-0.008613,92.193451,68.867294,-119.472183,,,
729716942.320363,-47.663994,8.370415,98.764231,-0.076599,-0.740448,0.664795,-0.505181,0.073852,-0.008613,92.193451,68.867294,-119.472183,,,
729716942.320929,-47.663979,8.370417,101.841079,-0.076599,-0.740448,0.664795,-0.505181,0.073852,-0.008613,92.193451,68.867294,-119.472183,,,
729716942.321055,-47.66399,8.370415,137.377437,-0.076599,-0.740448,0.664795,-0.505181,0.073852,-0.008613,92.193451,68.867294,-119.472183,,,
729716942.323427,-47.663994,8.370415,98.764231,-0.076599,-0.740448,0.664795,-0.505181,0.073852,-0.008613,92.193451,68.867294,-119.472183,,,
729716942.323643,-47.663979,8.370417,101.841079,-0.076599,-0.740448,0.664795,-0.505181,0.073852,-0.008613,92.193451,68.867294,-119.472183,,,
729716942.324319,-47.66399,8.370415,137.377437,-0.076599,-0.740448,0.664795,-0.505181,0.073852,-0.008613,92.193451,68.867294,-119.472183,,,
729716942.327506,-47.813436,8.407993,98.787372,-0.07605,-0.742462,0.662781,-0.528173,0.07702,-0.029596,92.193451,68.867294,-119.472183,,,
729716942.32836,-47.81342,8.407995,101.86422,-0.07605,-0.742462,0.662781,-0.528173,0.07702,-0.029596,92.193451,68.867294,-119.472183,,,
729716942.328461,-47.813432,8.407993,137.400578,-0.07605,-0.742462,0.662781,-0.528173,0.07702,-0.029596,92.193451,68.867294,-119.472183,,,
729716942.33004,-47.813436,8.407993,98.787372,-0.07605,-0.742462,0.662781,-0.528173,0.07702,-0.029596,92.193451,68.867294,-119.472183,,,
729716942.331144,-47.96639,8.443762,101.882503,-0.07605,-0.742462,0.662781,-0.528173,0.07702,-0.029596,92.107529,69.294144,-118.702454,,,
729716942.331356,-47.966402,8.44376,137.41886,-0.07605,-0.742462,0.662781,-0.528173,0.07702,-0.029596,92.107529,69.294144,-118.702454,,,
729716942.334464,-47.966406,8.44376,98.805655,-0.07605,-0.742462,0.662781,-0.528173,0.07702,-0.029596,92.107529,69.294144,-118.702454,,,
729716942.334697,-47.96639,8.443762,101.882503,-0.07605,-0.742462,0.662781,-0.528173,0.07702,-0.029596,92.107529,69.294144,-118.702454,,,
729716942.334887,-47.966402,8.44376,137.41886,-0.07605,-0.742462,0.662781,-0.528173,0.07702,-0.029596,92.107529,69.294144,-118.702454,,,
729716942.337892,-48.122551,8.475885,98.816597,-0.072052,-0.738953,0.661026,-0.545527,0.089463,-0.067588,92.107529,69.294144,-118.702454,,,
729716942.339426,-48.122535,8.475888,101.893445,-0.072052,-0.738953,0.661026,-0.545527,0.089463,-0.067588,92.107529,69.294144,-118.702454,,,
729716942.339598,-48.122547,8.475885,137.429802,-0.072052,-0.738953,0.661026,-0.545527,0.089463,-0.067588,92.107529,69.294144,-118.702454,,,
729716942.339885,-48.122551,8.475885,98.816597,-0.072052,-0.738953,0.661026,-0.545527,0.089463,-0.067588,92.107529,69.294144,-118.702454,,,
729716942.340862,-48.281354,8.50148,101.894617,-0.072052,-0.738953,0.661026,-0.545527,0.089463,-0.067588,92.107529,69.294144,-118.702454,,,
729716942.341064,-48.281366,8.501478,137.430972,-0.072052,-0.738953,0.661026,-0.545527,0.089463,-0.067588,92.107529,69.294144,-118.702454,,,
729716942.343917,-48.28137,8.501478,98.81777,-0.072052,-0.738953,0.661026,-0.545527,0.089463,-0.067588,92.107529,69.294144,-118.702454,,,
729716942.344124,-48.281354,8.50148,101.894617,-0.072052,-0.738953,0.661026,-0.545527,0.089463,-0.067588,92.107529,69.294144,-118.702454,,,
729716942.344283,-48.281366,8.501478,137.430972,-0.072052,-0.738953,0.661026,-0.545527,0.089463,-0.067588,92.107529,69.294144,-118.702454,,,
729716942.348051,-48.441181,8.518314,98.808087,-0.063919,-0.73378,0.657349,-0.545281,0.084898,-0.118678,92.107529,69.294144,-118.702454,,,
729716942.349436,-48.441165,8.518317,101.884934,-0.063919,-0.73378,0.657349,-0.545281,0.084898,-0.118678,92.107529,69.294144,-118.702454,,,
729716942.349587,-48.441177,8.518315,137.421292,-0.063919,-0.73378,0.657349,-0.545281,0.084898,-0.118678,92.107529,69.294144,-118.702454,,,
729716942.349842,-48.441181,8.518314,98.808087,-0.063919,-0.73378,0.657349,-0.545281,0.084898,-0.118678,92.107529,69.294144,-118.702454,,,
729716942.350789,-48.60117,8.524818,101.864122,-0.063919,-0.73378,0.657349,-0.545281,0.084898,-0.118678,92.107529,69.294144,-118.702454,,,
729716942.351007,-48.601182,8.524815,137.40048,-0.063919,-0.73378,0.657349,-0.545281,0.084898,-0.118678,92.107529,69.294144,-118.702454,,,
729716942.35385,-48.601186,8.524815,98.787275,-0.063919,-0.73378,0.657349,-0.545281,0.084898,-0.118678,92.107529,69.294144,-118.702454,,,
729716942.354065,-48.60117,8.524818,101.864122,-0.063919,-0.73378,0.657349,-0.545281,0.084898,-0.118678,92.107529,69.294144,-118.702454,,,
729716942.354374,-48.601182,8.524815,137.40048,-0.063919,-0.73378,0.657349,-0.545281,0.084898,-0.118678,92.107529,69.294144,-118.702454,,,
729716942.357773,-48.760073,8.520266,98.756267,-0.066711,-0.730835,0.655731,-0.531049,0.061519,-0.163599,92.107529,69.294144,-118.702454,,,
729716942.358997,-48.760056,8.520269,101.833115,-0.066711,-0.730835,0.655731,-0.531049,0.061519,-0.163599,92.107529,69.294144,-118.702454,,,
729716942.359145,-48.760068,8.520266,137.369474,-0.066711,-0.730835,0.655731,-0.531049,0.061519,-0.163599,92.107529,69.294144,-118.702454,,,
729716942.359986,-48.760073,8.520266,98.756267,-0.066711,-0.730835,0.655731,-0.531049,0.061519,-0.163599,92.107529,69.294144,-118.702454,,,
729716942.361096,-48.916793,8.506172,101.794959,-0.066711,-0.730835,0.655731,-0.531049,0.061519,-0.163599,92.107529,69.294144,-118.702454,,,
729716942.361274,-48.916805,8.50617,137.331317,-0.066711,-0.730835,0.655731,-0.531049,0.061519,-0.163599,92.107529,69.294144,-118.702454,,,
729716942.364142,-48.916809,8.50617,98.718112,-0.066711,-0.730835,0.655731,-0.531049,0.061519,-0.163599,92.107529,69.294144,-118.702454,,,
729716942.364563,-48.916793,8.506172,101.794959,-0.066711,-0.730835,0.655731,-0.531049,0.061519,-0.163599,92.107529,69.294144,-118.702454,,,
729716942.3647,-48.916805,8.50617,137.331317,-0.066711,-0.730835,0.655731,-0.531049,0.061519,-0.163599,92.107529,69.294144,-118.702454,,,
729716942.368574,-49.071354,8.483668,98.674466,-0.079712,-0.73494,0.655029,-0.513184,0.032325,-0.185418,92.107529,69.294144,-118.702454,,,
729716942.370505,-49.071337,8.48367,101.751313,-0.079712,-0.73494,0.655029,-0.513184,0.032325,-0.185418,92.107529,69.294144,-118.702454,,,
729716942.370719,-49.223376,8.451707,137.238469,-0.079712,-0.73494,0.655029,-0.513184,0.032325,-0.185418,92.107529,69.294144,-118.702454,,,
729716942.372003,-49.223381,8.451707,98.625265,-0.079712,-0.73494,0.655029,-0.513184,0.032325,-0.185418,92.040833,70.142319,-117.48732,,,
729716942.372305,-49.223376,8.451707,137.238469,-0.079712,-0.73494,0.655029,-0.513184,0.032325,-0.185418,92.040833,70.142319,-117.48732,,,
729716942.373331,-49.223381,8.451707,98.625265,-0.079712,-0.73494,0.655029,-0.513184,0.032325,-0.185418,92.040833,70.142319,-117.48732,,,
729716942.374779,-49.223364,8.451709,101.702112,-0.079712,-0.73494,0.655029,-0.513184,0.032325,-0.185418,92.040833,70.142319,-117.48732,,,
729716942.374994,-49.223376,8.451707,137.238469,-0.079712,-0.73494,0.655029,-0.513184,0.032325,-0.185418,92.040833,70.142319,-117.48732,,,
729716942.379067,-49.37287,8.408694,98.571442,-0.086777,-0.740753,0.645126,-0.493539,-0.019673,-0.202301,92.040833,70.142319,-117.48732,,,
729716942.381469,-49.372854,8.408696,101.648289,-0.086777,-0.740753,0.645126,-0.493539,-0.019673,-0.202301,92.040833,70.142319,-117.48732,,,
729716942.381654,-49.520882,8.354378,137.126722,-0.086777,-0.740753,0.645126,-0.493539,-0.019673,-0.202301,92.040833,70.142319,-117.48732,,,
729716942.382462,-49.520886,8.354378,98.513519,-0.086777,-0.740753,0.645126,-0.493539,-0.019673,-0.202301,92.040833,70.142319,-117.48732,,,
729716942.383209,-49.520886,8.354378,98.513519,-0.086777,-0.740753,0.645126,-0.493539,-0.019673,-0.202301,92.040833,70.142319,-117.48732,,,
729716942.384089,-49.52087,8.35438,101.590366,-0.086777,-0.740753,0.645126,-0.493539,-0.019673,-0.202301,92.040833,70.142319,-117.48732,,,
729716942.384321,-49.520882,8.354378,137.126722,-0.086777,-0.740753,0.645126,-0.493539,-0.019673,-0.202301,92.040833,70.142319,-117.48732,,,
729716942.388148,-49.667707,8.290399,98.451147,-0.086288,-0.746414,0.636993,-0.4833,-0.062693,-0.219158,92.040833,70.142319,-117.48732,,,
729716942.389692,-49.667691,8.290402,101.527994,-0.086288,-0.746414,0.636993,-0.4833,-0.062693,-0.219158,92.040833,70.142319,-117.48732,,,
729716942.389848,-49.667703,8.290399,137.064349,-0.086288,-0.746414,0.636993,-0.4833,-0.062693,-0.219158,92.040833,70.142319,-117.48732,,,
729716942.390734,-49.81399,8.218114,98.384036,-0.086288,-0.746414,0.636993,-0.4833,-0.062693,-0.219158,92.040833,70.142319,-117.48732,,,
729716942.391294,-49.813973,8.218116,101.460884,-0.086288,-0.746414,0.636993,-0.4833,-0.062693,-0.219158,92.040833,70.142319,-117.48732,,,
729716942.391404,-49.813985,8.218114,136.997239,-0.086288,-0.746414,0.636993,-0.4833,-0.062693,-0.219158,92.040833,70.142319,-117.48732,,,
729716942.393377,-49.81399,8.218114,98.384036,-0.086288,-0.746414,0.636993,-0.4833,-0.062693,-0.219158,92.040833,70.142319,-117.48732,,,
729716942.393649,-49.813973,8.218116,101.460884,-0.086288,-0.746414,0.636993,-0.4833,-0.062693,-0.219158,92.040833,70.142319,-117.48732,,,
729716942.394319,-49.813985,8.218114,136.997239,-0.086288,-0.746414,0.636993,-0.4833,-0.062693,-0.219158,92.040833,70.142319,-117.48732,,,
729716942.397576,-49.960372,8.136519,98.311026,-0.082321,-0.748322,0.638428,-0.481333,-0.095335,-0.243211,92.040833,70.142319,-117.48732,,,
729716942.398523,-49.960355,8.136522,101.387874,-0.082321,-0.748322,0.638428,-0.481333,-0.095335,-0.243211,92.040833,70.142319,-117.48732,,,
729716942.398626,-49.960367,8.136519,136.924232,-0.082321,-0.748322,0.638428,-0.481333,-0.095335,-0.243211,92.040833,70.142319,-117.48732,,,
729716942.399969,-49.960372,8.136519,98.311026,-0.082321,-0.748322,0.638428,-0.481333,-0.095335,-0.243211,92.040833,70.142319,-117.48732,,,
729716942.400745,-50.108395,8.045344,101.308014,-0.082321,-0.748322,0.638428,-0.481333,-0.095335,-0.243211,92.040833,70.142319,-117.48732,,,
729716942.400989,-50.108408,8.045342,136.844369,-0.082321,-0.748322,0.638428,-0.481333,-0.095335,-0.243211,92.040833,70.142319,-117.48732,,,
729716942.404078,-50.108412,8.045342,98.231167,-0.082321,-0.748322,0.638428,-0.481333,-0.095335,-0.243211,92.040833,70.142319,-117.48732,,,
729716942.404303,-50.108395,8.045344,101.308014,-0.082321,-0.748322,0.638428,-0.481333,-0.095335,-0.243211,92.040833,70.142319,-117.48732,,,
729716942.404529,-50.108408,8.045342,136.844369,-0.082321,-0.748322,0.638428,-0.481333,-0.095335,-0.243211,92.040833,70.142319,-117.48732,,,
729716942.408003,-50.258829,7.947475,98.144866,-0.078094,-0.747559,0.627426,-0.495495,-0.106594,-0.271408,92.040833,70.142319,-117.48732,,,
729716942.409415,-50.258812,7.947477,101.221713,-0.078094,-0.747559,0.627426,-0.495495,-0.106594,-0.271408,92.040833,70.142319,-117.48732,,,
729716942.409573,-50.258824,7.947475,136.758067,-0.078094,-0.747559,0.627426,-0.495495,-0.106594,-0.271408,92.040833,70.142319,-117.48732,,,
729716942.409842,-50.258829,7.947475,98.144866,-0.078094,-0.747559,0.627426,-0.495495,-0.106594,-0.271408,92.040833,70.142319,-117.48732,,,
729716942.411005,-50.412987,7.846494,101.130354,-0.078094,-0.747559,0.627426,-0.495495,-0.106594,-0.271408,92.040833,70.142319,-117.48732,,,
729716942.411165,-50.412999,7.846491,136.666707,-0.078094,-0.747559,0.627426,-0.495495,-0.106594,-0.271408,92.040833,70.142319,-117.48732,,,
729716942.414568,-50.413004,7.846491,98.053507,-0.078094,-0.747559,0.627426,-0.495495,-0.106594,-0.271408,91.181549,70.7957,-116.622818,,,
729716942.415293,-50.412987,7.846494,101.130354,-0.078094,-0.747559,0.627426,-0.495495,-0.106594,-0.271408,91.181549,70.7957,-116.622818,,,
729716942.415437,-50.570445,7.743667,136.571046,-0.077652,-0.748032,0.624908,-0.517427,-0.095269,-0.290436,91.181549,70.7957,-116.622818,,,
729716942.417836,-50.570449,7.743667,97.957844,-0.077652,-0.748032,0.624908,-0.517427,-0.095269,-0.290436,91.181549,70.7957,-116.622818,,,
729716942.419222,-50.570432,7.74367,101.034691,-0.077652,-0.748032,0.624908,-0.517427,-0.095269,-0.290436,91.181549,70.7957,-116.622818,,,
729716942.419382,-50.570445,7.743667,136.571046,-0.077652,-0.748032,0.624908,-0.517427,-0.095269,-0.290436,91.181549,70.7957,-116.622818,,,
729716942.41988,-50.570449,7.743667,97.957844,-0.077652,-0.748032,0.624908,-0.517427,-0.095269,-0.290436,91.181549,70.7957,-116.622818,,,
729716942.421053,-50.730937,7.640075,100.935486,-0.077652,-0.748032,0.624908,-0.517427,-0.095269,-0.290436,91.181549,70.7957,-116.622818,,,
729716942.42129,-50.73095,7.640072,136.471845,-0.077652,-0.748032,0.624908,-0.517427,-0.095269,-0.290436,91.181549,70.7957,-116.622818,,,
729716942.424041,-50.730954,7.640072,97.858639,-0.077652,-0.748032,0.624908,-0.517427,-0.095269,-0.290436,91.181549,70.7957,-116.622818,,,
729716942.424261,-50.730937,7.640075,100.935486,-0.077652,-0.748032,0.624908,-0.517427,-0.095269,-0.290436,91.181549,70.7957,-116.622818,,,
729716942.424394,-50.73095,7.640072,136.471845,-0.077652,-0.748032,0.624908,-0.517427,-0.095269,-0.290436,91.181549,70.7957,-116.622818,,,
729716942.427832,-50.894446,7.536551,97.756715,-0.076691,-0.753235,0.621094,-0.538165,-0.078768,-0.301745,91.181549,70.7957,-116.622818,,,
729716942.429104,-50.894429,7.536554,100.833562,-0.076691,-0.753235,0.621094,-0.538165,-0.078768,-0.301745,91.181549,70.7957,-116.622818,,,
729716942.429259,-50.894442,7.536551,136.36992,-0.076691,-0.753235,0.621094,-0.538165,-0.078768,-0.301745,91.181549,70.7957,-116.622818,,,
729716942.429938,-50.894446,7.536551,97.756715,-0.076691,-0.753235,0.621094,-0.538165,-0.078768,-0.301745,91.181549,70.7957,-116.622818,,,
729716942.431239,-51.060299,7.433965,100.730001,-0.076691,-0.753235,0.621094,-0.538165,-0.078768,-0.301745,91.181549,70.7957,-116.622818,,,
729716942.431549,-51.060312,7.433962,136.266361,-0.076691,-0.753235,0.621094,-0.538165,-0.078768,-0.301745,91.181549,70.7957,-116.622818,,,
729716942.43415,-51.060317,7.433962,97.653155,-0.076691,-0.753235,0.621094,-0.538165,-0.078768,-0.301745,91.181549,70.7957,-116.622818,,,
729716942.434391,-51.060299,7.433965,100.730001,-0.076691,-0.753235,0.621094,-0.538165,-0.078768,-0.301745,91.181549,70.7957,-116.622818,,,
729716942.434512,-51.060312,7.433962,136.266361,-0.076691,-0.753235,0.621094,-0.538165,-0.078768,-0.301745,91.181549,70.7957,-116.622818,,,
729716942.438516,-51.228139,7.33401,97.549801,-0.073395,-0.759155,0.617996,-0.553334,-0.060157,-0.298991,91.181549,70.7957,-116.622818,,,
729716942.440495,-51.228121,7.334013,100.626648,-0.073395,-0.759155,0.617996,-0.553334,-0.060157,-0.298991,91.181549,70.7957,-116.622818,,,
729716942.44067,-51.397728,7.237679,136.060497,-0.073395,-0.759155,0.617996,-0.553334,-0.060157,-0.298991,91.181549,70.7957,-116.622818,,,
729716942.441567,-51.397733,7.237679,97.447293,-0.073395,-0.759155,0.617996,-0.553334,-0.060157,-0.298991,91.181549,70.7957,-116.622818,,,
729716942.44173,-51.397728,7.237679,136.060497,-0.073395,-0.759155,0.617996,-0.553334,-0.060157,-0.298991,91.181549,70.7957,-116.622818,,,
729716942.443381,-51.397733,7.237679,97.447293,-0.073395,-0.759155,0.617996,-0.553334,-0.060157,-0.298991,91.181549,70.7957,-116.622818,,,
729716942.44432,-51.397715,7.237682,100.52414,-0.073395,-0.759155,0.617996,-0.553334,-0.060157,-0.298991,91.181549,70.7957,-116.622818,,,
