Time (sec),Pitch (deg),Roll (deg),Yaw(deg),X-Acceleration (g),Y-Acceleration (g),Z-Acceleration (g),Pitch Rate (deg/sec),Roll Rate (deg/sec),Yaw Rate (deg/sec),Magnetic Field in X direction (uT),Magnetic Field in Y direction (uT),Magnetic Field in Z Direction (uT),Latitude (deg),Longitude (deg),Altitude (m)
729706813.034254,3.871179,-1.126736,-26.824724,0.009766,0.063126,0.994949,-0.019936,0.025393,0.007347,57.656235,26.105377,-146.060745,,,
729706813.036791,3.864888,-1.118988,117.08923,0.009186,0.060486,0.997742,-0.020058,0.030381,0.012542,57.656235,26.105377,-146.060745,,,
729706813.038448,3.864881,-1.119022,-26.820957,0.009186,0.060486,0.997742,-0.020058,0.030381,0.012542,57.656235,26.105377,-146.060745,,,
729706813.040112,3.859155,-1.113363,117.093321,0.009186,0.060486,0.997742,-0.020058,0.030381,0.012542,57.656235,26.105377,-146.060745,,,
729706813.041262,3.859148,-1.113397,-26.816858,0.009186,0.060486,0.997742,-0.020058,0.030381,0.012542,57.656235,26.105377,-146.060745,,,
729706813.043464,3.859155,-1.113363,117.093321,0.009186,0.060486,0.997742,-0.020058,0.030381,0.012542,57.656235,26.105377,-146.060745,,,
729706813.04425,3.859148,-1.113397,-26.816858,0.009186,0.060486,0.997742,-0.020058,0.030381,0.012542,57.656235,26.105377,-146.060745,,,
729706813.046862,3.850694,-1.106217,117.09784,0.008636,0.062057,0.994827,-0.02892,0.028728,0.016483,57.656235,26.105377,-146.060745,,,
729706813.048808,3.850687,-1.106251,-26.812338,0.008636,0.062057,0.994827,-0.02892,0.028728,0.016483,57.656235,26.105377,-146.060745,,,
729706813.050122,3.843254,-1.100305,117.102742,0.008636,0.062057,0.994827,-0.02892,0.028728,0.016483,57.656235,26.105377,-146.060745,,,
729706813.051543,3.843247,-1.100339,-26.807431,0.008636,0.062057,0.994827,-0.02892,0.028728,0.016483,57.656235,26.105377,-146.060745,,,
729706813.053467,3.843254,-1.100305,117.102742,0.008636,0.062057,0.994827,-0.02892,0.028728,0.016483,57.656235,26.105377,-146.060745,,,
729706813.054255,3.843247,-1.100339,-26.807431,0.008636,0.062057,0.994827,-0.02892,0.028728,0.016483,57.656235,26.105377,-146.060745,,,
729706813.056772,3.833452,-1.095726,117.107603,0.00882,0.064453,0.996063,-0.033677,0.016322,0.016488,57.656235,26.105377,-146.060745,,,
729706813.058536,3.833445,-1.095761,-26.802566,0.00882,0.064453,0.996063,-0.033677,0.016322,0.016488,57.656235,26.105377,-146.060745,,,
729706813.060138,3.826027,-1.093562,117.112983,0.00882,0.064453,0.996063,-0.033677,0.016322,0.016488,57.656235,26.105377,-146.060745,,,
729706813.061261,3.82602,-1.093597,-26.797184,0.00882,0.064453,0.996063,-0.033677,0.016322,0.016488,57.656235,26.105377,-146.060745,,,
729706813.063445,3.826027,-1.093562,117.112983,0.00882,0.064453,0.996063,-0.033677,0.016322,0.016488,57.656235,26.105377,-146.060745,,,
729706813.064254,3.82602,-1.093597,-26.797184,0.00882,0.064453,0.996063,-0.033677,0.016322,0.016488,57.656235,26.105377,-146.060745,,,
729706813.066769,3.818653,-1.094041,117.118851,0.009735,0.062042,0.998993,-0.023848,-0.002189,0.019692,57.656235,26.105377,-146.060745,,,
729706813.070025,3.818646,-1.094075,-26.791318,0.009735,0.062042,0.998993,-0.023848,-0.002189,0.019692,57.79953,26.105423,-146.148468,,,
729706813.070302,3.812568,-1.096319,117.1242,0.009735,0.062042,0.998993,-0.023848,-0.002189,0.019692,57.79953,26.105423,-146.148468,,,
729706813.071602,3.812562,-1.096353,-26.785969,0.009735,0.062042,0.998993,-0.023848,-0.002189,0.019692,57.79953,26.105423,-146.148468,,,
729706813.073392,3.812568,-1.096319,117.1242,0.009735,0.062042,0.998993,-0.023848,-0.002189,0.019692,57.79953,26.105423,-146.148468,,,
729706813.074276,3.812562,-1.096353,-26.785969,0.009735,0.062042,0.998993,-0.023848,-0.002189,0.019692,57.79953,26.105423,-146.148468,,,
729706813.076798,3.80625,-1.10228,117.129647,0.011154,0.059494,1.003937,-0.019732,-0.020548,0.01976,57.79953,26.105423,-146.148468,,,
729706813.07809,3.806243,-1.102314,-26.780525,0.011154,0.059494,1.003937,-0.019732,-0.020548,0.01976,57.79953,26.105423,-146.148468,,,
729706813.080147,3.801522,-1.10961,117.135465,0.011154,0.059494,1.003937,-0.019732,-0.020548,0.01976,57.79953,26.105423,-146.148468,,,
729706813.081798,3.801515,-1.109645,-26.774708,0.011154,0.059494,1.003937,-0.019732,-0.020548,0.01976,57.79953,26.105423,-146.148468,,,
729706813.083473,3.801522,-1.10961,117.135465,0.011154,0.059494,1.003937,-0.019732,-0.020548,0.01976,57.79953,26.105423,-146.148468,,,
729706813.084254,3.801515,-1.109645,-26.774708,0.011154,0.059494,1.003937,-0.019732,-0.020548,0.01976,57.79953,26.105423,-146.148468,,,
729706813.086859,3.79826,-1.120955,117.141123,0.01915,0.060165,1.003571,-0.00789,-0.038645,0.017798,57.79953,26.105423,-146.148468,,,
729706813.088535,3.798253,-1.120989,-26.769052,0.01915,0.060165,1.003571,-0.00789,-0.038645,0.017798,57.79953,26.105423,-146.148468,,,
729706813.090117,3.796561,-1.130975,117.146418,0.01915,0.060165,1.003571,-0.00789,-0.038645,0.017798,57.79953,26.105423,-146.148468,,,
729706813.09146,3.796554,-1.13101,-26.763765,0.01915,0.060165,1.003571,-0.00789,-0.038645,0.017798,57.79953,26.105423,-146.148468,,,
729706813.093463,3.796561,-1.130975,117.146418,0.01915,0.060165,1.003571,-0.00789,-0.038645,0.017798,57.79953,26.105423,-146.148468,,,
729706813.094252,3.796554,-1.13101,-26.763765,0.01915,0.060165,1.003571,-0.00789,-0.038645,0.017798,57.79953,26.105423,-146.148468,,,
729706813.096871,3.797263,-1.141929,117.15167,0.026001,0.058105,1.010101,0.006846,-0.031291,0.016312,57.79953,26.105423,-146.148468,,,
729706813.099727,3.797256,-1.141964,-26.758514,0.026001,0.058105,1.010101,0.006846,-0.031291,0.016312,57.79953,26.105423,-146.148468,,,
729706813.100121,3.798311,-1.149028,117.156174,0.026001,0.058105,1.010101,0.006846,-0.031291,0.016312,57.79953,26.105423,-146.148468,,,
729706813.101499,3.798304,-1.149063,-26.754004,0.026001,0.058105,1.010101,0.006846,-0.031291,0.016312,57.79953,26.105423,-146.148468,,,
729706813.103472,3.798311,-1.149028,117.156174,0.026001,0.058105,1.010101,0.006846,-0.031291,0.016312,57.79953,26.105423,-146.148468,,,
729706813.104253,3.798304,-1.149063,-26.754004,0.026001,0.058105,1.010101,0.006846,-0.031291,0.016312,57.79953,26.105423,-146.148468,,,
729706813.106778,3.800035,-1.155963,117.160138,0.031952,0.05867,1.011505,0.007225,-0.017696,0.011635,57.79953,26.105423,-146.148468,,,
729706813.108383,3.800028,-1.155998,-26.750039,0.031952,0.05867,1.011505,0.007225,-0.017696,0.011635,57.79953,26.105423,-146.148468,,,
729706813.11015,3.801162,-1.158792,117.16421,0.031952,0.05867,1.011505,0.007225,-0.017696,0.011635,57.447311,26.054916,-145.902237,,,
729706813.111617,3.801155,-1.158826,-26.74596,0.031952,0.05867,1.011505,0.007225,-0.017696,0.011635,57.447311,26.054916,-145.902237,,,
729706813.113503,3.801162,-1.158792,117.16421,0.031952,0.05867,1.011505,0.007225,-0.017696,0.011635,57.447311,26.054916,-145.902237,,,
729706813.11431,3.801155,-1.158826,-26.74596,0.031952,0.05867,1.011505,0.007225,-0.017696,0.011635,57.447311,26.054916,-145.902237,,,
729706813.116819,3.801884,-1.160028,117.168433,0.036667,0.059891,1.005783,0.000202,0.006122,0.012,57.447311,26.054916,-145.902237,,,
729706813.119712,3.801877,-1.160062,-26.741733,0.036667,0.059891,1.005783,0.000202,0.006122,0.012,57.447311,26.054916,-145.902237,,,
729706813.120163,3.800398,-1.155645,117.172306,0.036667,0.059891,1.005783,0.000202,0.006122,0.012,57.447311,26.054916,-145.902237,,,
729706813.120959,3.800391,-1.155679,-26.737858,0.036667,0.059891,1.005783,0.000202,0.006122,0.012,57.447311,26.054916,-145.902237,,,
729706813.123472,3.800398,-1.155645,117.172306,0.036667,0.059891,1.005783,0.000202,0.006122,0.012,57.447311,26.054916,-145.902237,,,
729706813.124256,3.800391,-1.155679,-26.737858,0.036667,0.059891,1.005783,0.000202,0.006122,0.012,57.447311,26.054916,-145.902237,,,
729706813.126774,3.799282,-1.15018,117.176608,0.034042,0.060883,0.999878,-0.004194,0.027213,0.014171,57.447311,26.054916,-145.902237,,,
729706813.130097,3.799275,-1.150215,-26.733555,0.034042,0.060883,0.999878,-0.004194,0.027213,0.014171,57.447311,26.054916,-145.902237,,,
729706813.130676,3.797132,-1.139605,117.181401,0.034042,0.060883,0.999878,-0.004194,0.027213,0.014171,57.447311,26.054916,-145.902237,,,
729706813.131358,3.797125,-1.13964,-26.728784,0.034042,0.060883,0.999878,-0.004194,0.027213,0.014171,57.447311,26.054916,-145.902237,,,
729706813.133459,3.797132,-1.139605,117.181401,0.034042,0.060883,0.999878,-0.004194,0.027213,0.014171,57.447311,26.054916,-145.902237,,,
729706813.134308,3.797125,-1.13964,-26.728784,0.034042,0.060883,0.999878,-0.004194,0.027213,0.014171,57.447311,26.054916,-145.902237,,,
729706813.136741,3.795015,-1.12774,117.187293,0.032547,0.063202,0.99707,-0.00614,0.049997,0.02109,57.447311,26.054916,-145.902237,,,
729706813.138359,3.795008,-1.127774,-26.722893,0.032547,0.063202,0.99707,-0.00614,0.049997,0.02109,57.447311,26.054916,-145.902237,,,
729706813.140107,3.792109,-1.112014,117.193871,0.032547,0.063202,0.99707,-0.00614,0.049997,0.02109,57.447311,26.054916,-145.902237,,,
729706813.141249,3.792102,-1.112048,-26.716312,0.032547,0.063202,0.99707,-0.00614,0.049997,0.02109,57.447311,26.054916,-145.902237,,,
729706813.143388,3.792109,-1.112014,117.193871,0.032547,0.063202,0.99707,-0.00614,0.049997,0.02109,57.447311,26.054916,-145.902237,,,
729706813.144157,3.792102,-1.112048,-26.716312,0.032547,0.063202,0.99707,-0.00614,0.049997,0.02109,57.447311,26.054916,-145.902237,,,
729706813.146798,3.788609,-1.098173,117.201104,0.029251,0.063507,0.992233,-0.01349,0.048586,0.02499,57.447311,26.054916,-145.902237,,,
729706813.147857,3.788602,-1.098207,-26.709083,0.029251,0.063507,0.992233,-0.01349,0.048586,0.02499,57.447311,26.054916,-145.902237,,,
729706813.150108,3.782642,-1.085235,117.209072,0.029251,0.063507,0.992233,-0.01349,0.048586,0.02499,57.455261,26.431702,-146.08168,,,
729706813.151367,3.782635,-1.085269,-26.7011,0.029251,0.063507,0.992233,-0.01349,0.048586,0.02499,57.455261,26.431702,-146.08168,,,
729706813.153374,3.782642,-1.085235,117.209072,0.029251,0.063507,0.992233,-0.01349,0.048586,0.02499,57.455261,26.431702,-146.08168,,,
729706813.154113,3.782635,-1.085269,-26.7011,0.029251,0.063507,0.992233,-0.01349,0.048586,0.02499,57.455261,26.431702,-146.08168,,,
729706813.156701,3.775755,-1.076151,117.218427,0.020721,0.063873,0.981262,-0.026167,0.033223,0.034038,57.455261,26.431702,-146.08168,,,
729706813.157987,3.775748,-1.076185,-26.691746,0.020721,0.063873,0.981262,-0.026167,0.033223,0.034038,57.455261,26.431702,-146.08168,,,
729706813.160053,3.766055,-1.06938,117.228339,0.020721,0.063873,0.981262,-0.026167,0.033223,0.034038,57.455261,26.431702,-146.08168,,,
729706813.161047,3.766048,-1.069415,-26.681829,0.020721,0.063873,0.981262,-0.026167,0.033223,0.034038,57.455261,26.431702,-146.08168,,,
729706813.163368,3.766055,-1.06938,117.228339,0.020721,0.063873,0.981262,-0.026167,0.033223,0.034038,57.455261,26.431702,-146.08168,,,
729706813.164115,3.766048,-1.069415,-26.681829,0.020721,0.063873,0.981262,-0.026167,0.033223,0.034038,57.455261,26.431702,-146.08168,,,
729706813.166683,3.75581,-1.067656,117.23787,0.017426,0.065475,0.978622,-0.037791,0.003674,0.031255,57.455261,26.431702,-146.08168,,,
729706813.167825,3.755803,-1.067691,-26.672302,0.017426,0.065475,0.978622,-0.037791,0.003674,0.031255,57.455261,26.431702,-146.08168,,,
729706813.170091,3.743158,-1.070551,117.246881,0.017426,0.065475,0.978622,-0.037791,0.003674,0.031255,57.455261,26.431702,-146.08168,,,
729706813.170953,3.743151,-1.070586,-26.66329,0.017426,0.065475,0.978622,-0.037791,0.003674,0.031255,57.455261,26.431702,-146.08168,,,
729706813.173086,3.743158,-1.070551,117.246881,0.017426,0.065475,0.978622,-0.037791,0.003674,0.031255,57.455261,26.431702,-146.08168,,,
729706813.174146,3.743151,-1.070586,-26.66329,0.017426,0.065475,0.978622,-0.037791,0.003674,0.031255,57.455261,26.431702,-146.08168,,,
729706813.176688,3.731005,-1.075279,117.255663,0.019058,0.064209,0.980652,-0.041267,-0.014755,0.030069,57.455261,26.431702,-146.08168,,,
729706813.178301,3.730998,-1.075313,-26.654511,0.019058,0.064209,0.980652,-0.041267,-0.014755,0.030069,57.455261,26.431702,-146.08168,,,
729706813.180028,3.718192,-1.083473,117.265022,0.019058,0.064209,0.980652,-0.041267,-0.014755,0.030069,57.455261,26.431702,-146.08168,,,
729706813.180902,3.718185,-1.083507,-26.645151,0.019058,0.064209,0.980652,-0.041267,-0.014755,0.030069,57.455261,26.431702,-146.08168,,,
729706813.183367,3.718192,-1.083473,117.265022,0.019058,0.064209,0.980652,-0.041267,-0.014755,0.030069,57.455261,26.431702,-146.08168,,,
729706813.184218,3.718185,-1.083507,-26.645151,0.019058,0.064209,0.980652,-0.041267,-0.014755,0.030069,57.455261,26.431702,-146.08168,,,
729706813.186688,3.70767,-1.09241,117.274518,0.01857,0.060074,0.989182,-0.032591,-0.030803,0.031564,57.455261,26.431702,-146.08168,,,
729706813.187965,3.707663,-1.092444,-26.635654,0.01857,0.060074,0.989182,-0.032591,-0.030803,0.031564,57.455261,26.431702,-146.08168,,,
729706813.190097,3.70767,-1.09241,117.274518,0.01857,0.060074,0.989182,-0.032591,-0.030803,0.031564,57.488174,26.368881,-146.046555,,,
729706813.19123,3.69729,-1.106473,-26.626165,0.01857,0.060074,0.989182,-0.032591,-0.030803,0.031564,57.488174,26.368881,-146.046555,,,
729706813.193365,3.697297,-1.106439,117.284009,0.01857,0.060074,0.989182,-0.032591,-0.030803,0.031564,57.488174,26.368881,-146.046555,,,
729706813.194114,3.69729,-1.106473,-26.626165,0.01857,0.060074,0.989182,-0.032591,-0.030803,0.031564,57.488174,26.368881,-146.046555,,,
729706813.196723,3.688203,-1.119691,117.293123,0.023056,0.062637,0.991394,-0.02995,-0.043073,0.03003,57.488174,26.368881,-146.046555,,,
729706813.197827,3.688196,-1.119726,-26.617055,0.023056,0.062637,0.991394,-0.02995,-0.043073,0.03003,57.488174,26.368881,-146.046555,,,
729706813.2001,3.678043,-1.135831,117.30182,0.023056,0.062637,0.991394,-0.02995,-0.043073,0.03003,57.488174,26.368881,-146.046555,,,
729706813.20108,3.678036,-1.135865,-26.60835,0.023056,0.062637,0.991394,-0.02995,-0.043073,0.03003,57.488174,26.368881,-146.046555,,,
729706813.203355,3.678043,-1.135831,117.30182,0.023056,0.062637,0.991394,-0.02995,-0.043073,0.03003,57.488174,26.368881,-146.046555,,,
729706813.204112,3.678036,-1.135865,-26.60835,0.023056,0.062637,0.991394,-0.02995,-0.043073,0.03003,57.488174,26.368881,-146.046555,,,
729706813.206476,3.66677,-1.148718,117.309538,0.028763,0.065933,0.991455,-0.042367,-0.038931,0.024596,57.488174,26.368881,-146.046555,,,
729706813.207998,3.666763,-1.148752,-26.600636,0.028763,0.065933,0.991455,-0.042367,-0.038931,0.024596,57.488174,26.368881,-146.046555,,,
729706813.210024,3.66677,-1.148718,117.316257,0.028763,0.065933,0.991455,-0.042367,-0.038931,0.024596,57.488174,26.368881,-146.046555,,,
729706813.211038,3.653046,-1.162443,-26.593916,0.028763,0.065933,0.991455,-0.042367,-0.038931,0.024596,57.488174,26.368881,-146.046555,,,
729706813.213354,3.653053,-1.162409,117.316257,0.028763,0.065933,0.991455,-0.042367,-0.038931,0.024596,57.488174,26.368881,-146.046555,,,
729706813.21411,3.653046,-1.162443,-26.593916,0.028763,0.065933,0.991455,-0.042367,-0.038931,0.024596,57.488174,26.368881,-146.046555,,,
729706813.216683,3.637845,-1.172254,117.321814,0.029846,0.067505,0.993835,-0.055404,-0.027741,0.017749,57.488174,26.368881,-146.046555,,,
729706813.217792,3.637838,-1.172289,-26.588354,0.029846,0.067505,0.993835,-0.055404,-0.027741,0.017749,57.488174,26.368881,-146.046555,,,
729706813.220046,3.621104,-1.181958,117.326492,0.029846,0.067505,0.993835,-0.055404,-0.027741,0.017749,57.488174,26.368881,-146.046555,,,
729706813.221047,3.621097,-1.181993,-26.583674,0.029846,0.067505,0.993835,-0.055404,-0.027741,0.017749,57.488174,26.368881,-146.046555,,,
729706813.223351,3.621104,-1.181958,117.326492,0.029846,0.067505,0.993835,-0.055404,-0.027741,0.017749,57.488174,26.368881,-146.046555,,,
729706813.22411,3.621097,-1.181993,-26.583674,0.029846,0.067505,0.993835,-0.055404,-0.027741,0.017749,57.488174,26.368881,-146.046555,,,
729706813.226682,3.602303,-1.187699,117.330207,0.030563,0.066605,0.993729,-0.069621,-0.011945,0.012066,57.488174,26.368881,-146.046555,,,
729706813.227834,3.602296,-1.187733,-26.57996,0.030563,0.066605,0.993729,-0.069621,-0.011945,0.012066,57.488174,26.368881,-146.046555,,,
729706813.230099,3.582326,-1.192172,117.333296,0.030563,0.066605,0.993729,-0.069621,-0.011945,0.012066,57.488174,26.368881,-146.046555,,,
729706813.231253,3.582319,-1.192206,-26.576876,0.030563,0.066605,0.993729,-0.069621,-0.011945,0.012066,57.39299,26.589401,-145.524872,,,
729706813.233349,3.582326,-1.192172,117.333296,0.030563,0.066605,0.993729,-0.069621,-0.011945,0.012066,57.39299,26.589401,-145.524872,,,
729706813.234116,3.582319,-1.192206,-26.576876,0.030563,0.066605,0.993729,-0.069621,-0.011945,0.012066,57.39299,26.589401,-145.524872,,,
729706813.236698,3.561861,-1.194276,117.336121,0.030304,0.06044,0.998306,-0.071771,-0.001356,0.010649,57.39299,26.589401,-145.524872,,,
729706813.237849,3.561854,-1.194311,-26.574053,0.030304,0.06044,0.998306,-0.071771,-0.001356,0.010649,57.39299,26.589401,-145.524872,,,
729706813.239841,3.561861,-1.194276,117.336121,0.030304,0.06044,0.998306,-0.071771,-0.001356,0.010649,57.39299,26.589401,-145.524872,,,
729706813.240907,3.542298,-1.194311,-26.571114,0.030304,0.06044,0.998306,-0.071771,-0.001356,0.010649,57.39299,26.589401,-145.524872,,,
729706813.243356,3.542305,-1.194276,117.339059,0.030304,0.06044,0.998306,-0.071771,-0.001356,0.010649,57.39299,26.589401,-145.524872,,,
729706813.244109,3.542298,-1.194311,-26.571114,0.030304,0.06044,0.998306,-0.071771,-0.001356,0.010649,57.39299,26.589401,-145.524872,,,
729706813.246691,3.52395,-1.194035,117.342624,0.024109,0.057343,1.003281,-0.060257,0.004892,0.01444,57.39299,26.589401,-145.524872,,,
729706813.248289,3.523943,-1.194069,-26.567548,0.024109,0.057343,1.003281,-0.060257,0.004892,0.01444,57.39299,26.589401,-145.524872,,,
729706813.250029,3.52395,-1.194035,117.342624,0.024109,0.057343,1.003281,-0.060257,0.004892,0.01444,57.39299,26.589401,-145.524872,,,
729706813.251084,3.50754,-1.193021,-26.563066,0.024109,0.057343,1.003281,-0.060257,0.004892,0.01444,57.39299,26.589401,-145.524872,,,
729706813.253356,3.507547,-1.192987,117.347103,0.024109,0.057343,1.003281,-0.060257,0.004892,0.01444,57.39299,26.589401,-145.524872,,,
729706813.254114,3.50754,-1.193021,-26.563066,0.024109,0.057343,1.003281,-0.060257,0.004892,0.01444,57.39299,26.589401,-145.524872,,,
729706813.256688,3.491695,-1.19188,117.352645,0.017746,0.052094,1.006622,-0.050437,0.007767,0.021505,57.39299,26.589401,-145.524872,,,
729706813.257895,3.491688,-1.191914,-26.55753,0.017746,0.052094,1.006622,-0.050437,0.007767,0.021505,57.39299,26.589401,-145.524872,,,
729706813.260025,3.491695,-1.19188,117.352645,0.017746,0.052094,1.006622,-0.050437,0.007767,0.021505,57.39299,26.589401,-145.524872,,,
729706813.260947,3.478809,-1.189428,-26.550908,0.017746,0.052094,1.006622,-0.050437,0.007767,0.021505,57.39299,26.589401,-145.524872,,,
729706813.263363,3.478816,-1.189393,117.359263,0.017746,0.052094,1.006622,-0.050437,0.007767,0.021505,57.39299,26.589401,-145.524872,,,
729706813.264112,3.478809,-1.189428,-26.550908,0.017746,0.052094,1.006622,-0.050437,0.007767,0.021505,57.39299,26.589401,-145.524872,,,
729706813.266769,3.468123,-1.184532,117.36641,0.021057,0.05304,1.008148,-0.033014,0.026122,0.024646,57.39299,26.589401,-145.524872,,,
729706813.267896,3.468116,-1.184566,-26.543763,0.021057,0.05304,1.008148,-0.033014,0.026122,0.024646,57.39299,26.589401,-145.524872,,,
729706813.270024,3.468123,-1.184532,117.36641,0.021057,0.05304,1.008148,-0.033014,0.026122,0.024646,57.39299,26.589401,-145.524872,,,
729706813.270884,3.459485,-1.177001,-26.537031,0.021057,0.05304,1.008148,-0.033014,0.026122,0.024646,57.39299,26.589401,-145.524872,,,
729706813.273313,3.459493,-1.176966,117.373144,0.021057,0.05304,1.008148,-0.033014,0.026122,0.024646,57.38826,26.518417,-146.029831,,,
729706813.274343,3.459485,-1.177001,-26.537031,0.021057,0.05304,1.008148,-0.033014,0.026122,0.024646,57.38826,26.518417,-146.029831,,,
729706813.276688,3.452601,-1.168042,117.379602,0.020248,0.053558,1.006561,-0.020699,0.035778,0.022441,57.38826,26.518417,-146.029831,,,
729706813.27789,3.452594,-1.168076,-26.530574,0.020248,0.053558,1.006561,-0.020699,0.035778,0.022441,57.38826,26.518417,-146.029831,,,
729706813.280097,3.452601,-1.168042,117.385876,0.020248,0.053558,1.006561,-0.020699,0.035778,0.022441,57.38826,26.518417,-146.029831,,,
729706813.280993,3.447288,-1.159794,-26.524302,0.020248,0.053558,1.006561,-0.020699,0.035778,0.022441,57.38826,26.518417,-146.029831,,,
729706813.283361,3.447295,-1.159759,117.385876,0.020248,0.053558,1.006561,-0.020699,0.035778,0.022441,57.38826,26.518417,-146.029831,,,
729706813.28411,3.447288,-1.159794,-26.524302,0.020248,0.053558,1.006561,-0.020699,0.035778,0.022441,57.38826,26.518417,-146.029831,,,
729706813.286684,3.441771,-1.150702,117.391722,0.014191,0.054535,0.996307,-0.017172,0.033156,0.019847,57.38826,26.518417,-146.029831,,,
729706813.287852,3.441764,-1.150737,-26.518458,0.014191,0.054535,0.996307,-0.017172,0.033156,0.019847,57.38826,26.518417,-146.029831,,,
729706813.289879,3.441771,-1.150702,117.391722,0.014191,0.054535,0.996307,-0.017172,0.033156,0.019847,57.38826,26.518417,-146.029831,,,
729706813.290987,3.437409,-1.144236,-26.51297,0.014191,0.054535,0.996307,-0.017172,0.033156,0.019847,57.38826,26.518417,-146.029831,,,
729706813.293354,3.437416,-1.144202,117.397208,0.014191,0.054535,0.996307,-0.017172,0.033156,0.019847,57.38826,26.518417,-146.029831,,,
729706813.294109,3.437409,-1.144236,-26.51297,0.014191,0.054535,0.996307,-0.017172,0.033156,0.019847,57.38826,26.518417,-146.029831,,,
729706813.296694,3.431218,-1.137617,117.402056,0.014252,0.05748,0.990433,-0.022464,0.023256,0.016117,57.38826,26.518417,-146.029831,,,
729706813.297765,3.43121,-1.137651,-26.508128,0.014252,0.05748,0.990433,-0.022464,0.023256,0.016117,57.38826,26.518417,-146.029831,,,
729706813.30002,3.431218,-1.137617,117.402056,0.014252,0.05748,0.990433,-0.022464,0.023256,0.016117,57.38826,26.518417,-146.029831,,,
729706813.300849,3.425161,-1.135373,-26.503146,0.014252,0.05748,0.990433,-0.022464,0.023256,0.016117,57.38826,26.518417,-146.029831,,,
729706813.303351,3.425168,-1.135338,117.407038,0.014252,0.05748,0.990433,-0.022464,0.023256,0.016117,57.38826,26.518417,-146.029831,,,
729706813.304109,3.425161,-1.135373,-26.503146,0.014252,0.05748,0.990433,-0.022464,0.023256,0.016117,57.38826,26.518417,-146.029831,,,
729706813.306687,3.41703,-1.134523,117.411651,0.012115,0.058517,0.986176,-0.028245,0.000255,0.014385,57.38826,26.518417,-146.029831,,,
729706813.30787,3.417023,-1.134558,-26.498532,0.012115,0.058517,0.986176,-0.028245,0.000255,0.014385,57.38826,26.518417,-146.029831,,,
729706813.310042,3.41703,-1.134523,117.411651,0.012115,0.058517,0.986176,-0.028245,0.000255,0.014385,57.38826,26.518417,-146.029831,,,
729706813.311067,3.4091,-1.138781,-26.494295,0.012115,0.058517,0.986176,-0.028245,0.000255,0.014385,57.38826,26.518417,-146.029831,,,
729706813.313381,3.409107,-1.138747,117.41589,0.012115,0.058517,0.986176,-0.028245,0.000255,0.014385,57.43335,26.744629,-146.10675,,,
729706813.314313,3.4091,-1.138781,-26.494295,0.012115,0.058517,0.986176,-0.028245,0.000255,0.014385,57.43335,26.744629,-146.10675,,,
729706813.316701,3.400477,-1.144448,117.419313,0.014099,0.058395,0.991486,-0.028992,-0.021642,0.009354,57.43335,26.744629,-146.10675,,,
729706813.319567,3.40047,-1.144482,-26.490875,0.014099,0.058395,0.991486,-0.028992,-0.021642,0.009354,57.43335,26.744629,-146.10675,,,
729706813.320132,3.400477,-1.144448,117.419313,0.014099,0.058395,0.991486,-0.028992,-0.021642,0.009354,57.43335,26.744629,-146.10675,,,
729706813.321608,3.391983,-1.153547,-26.488126,0.014099,0.058395,0.991486,-0.028992,-0.021642,0.009354,57.43335,26.744629,-146.10675,,,
729706813.323284,3.39199,-1.153513,117.422049,0.014099,0.058395,0.991486,-0.028992,-0.021642,0.009354,57.43335,26.744629,-146.10675,,,
729706813.324329,3.391983,-1.153547,-26.488126,0.014099,0.058395,0.991486,-0.028992,-0.021642,0.009354,57.43335,26.744629,-146.10675,,,
729706813.326775,3.384052,-1.162418,117.424435,0.018799,0.059784,0.999008,-0.025406,-0.030362,0.007336,57.43335,26.744629,-146.10675,,,
729706813.328963,3.384045,-1.162452,-26.485733,0.018799,0.059784,0.999008,-0.025406,-0.030362,0.007336,57.43335,26.744629,-146.10675,,,
729706813.330128,3.384052,-1.162418,117.424435,0.018799,0.059784,0.999008,-0.025406,-0.030362,0.007336,57.43335,26.744629,-146.10675,,,
729706813.331508,3.376387,-1.172709,-26.483662,0.018799,0.059784,0.999008,-0.025406,-0.030362,0.007336,57.43335,26.744629,-146.10675,,,
729706813.333456,3.376394,-1.172675,117.426503,0.018799,0.059784,0.999008,-0.025406,-0.030362,0.007336,57.43335,26.744629,-146.10675,,,
729706813.334257,3.376387,-1.172709,-26.483662,0.018799,0.059784,0.999008,-0.025406,-0.030362,0.007336,57.43335,26.744629,-146.10675,,,
729706813.33678,3.371366,-1.183689,117.428654,0.023926,0.058868,1.004288,-0.012921,-0.033996,0.00744,57.43335,26.744629,-146.10675,,,
729706813.338433,3.371359,-1.183723,-26.481529,0.023926,0.058868,1.004288,-0.012921,-0.033996,0.00744,57.43335,26.744629,-146.10675,,,
729706813.340184,3.371366,-1.183689,117.428654,0.023926,0.058868,1.004288,-0.012921,-0.033996,0.00744,57.43335,26.744629,-146.10675,,,
729706813.341278,3.366774,-1.193074,-26.479427,0.023926,0.058868,1.004288,-0.012921,-0.033996,0.00744,57.43335,26.744629,-146.10675,,,
729706813.343453,3.366781,-1.19304,117.430754,0.023926,0.058868,1.004288,-0.012921,-0.033996,0.00744,57.43335,26.744629,-146.10675,,,
729706813.344254,3.366774,-1.193074,-26.479427,0.023926,0.058868,1.004288,-0.012921,-0.033996,0.00744,57.43335,26.744629,-146.10675,,,
729706813.346858,3.364375,-1.199901,117.431726,0.032242,0.059158,1.009094,-0.005962,-0.015306,-0.00061,57.43335,26.744629,-146.10675,,,
729706813.350067,3.364368,-1.199935,-26.478451,0.032242,0.059158,1.009094,-0.005962,-0.015306,-0.00061,57.43335,26.744629,-146.10675,,,
729706813.350337,3.364375,-1.199901,117.431726,0.032242,0.059158,1.009094,-0.005962,-0.015306,-0.00061,57.43335,26.744629,-146.10675,,,
729706813.350998,3.363191,-1.20316,-26.478578,0.032242,0.059158,1.009094,-0.005962,-0.015306,-0.00061,57.43335,26.744629,-146.10675,,,
729706813.353452,3.363198,-1.203126,117.431601,0.032242,0.059158,1.009094,-0.005962,-0.015306,-0.00061,57.43335,26.744629,-146.10675,,,
729706813.35475,3.363191,-1.20316,-26.478578,0.032242,0.059158,1.009094,-0.005962,-0.015306,-0.00061,57.274002,26.734161,-146.114014,,,
729706813.356781,3.364988,-1.201985,117.430961,0.040649,0.057541,1.012436,0.009054,0.014217,-0.004409,57.274002,26.734161,-146.114014,,,
729706813.359955,3.364981,-1.202019,-26.479217,0.040649,0.057541,1.012436,0.009054,0.014217,-0.004409,57.274002,26.734161,-146.114014,,,
729706813.360225,3.364988,-1.201985,117.430961,0.040649,0.057541,1.012436,0.009054,0.014217,-0.004409,57.274002,26.734161,-146.114014,,,
729706813.361338,3.367274,-1.196793,-26.479783,0.040649,0.057541,1.012436,0.009054,0.014217,-0.004409,57.274002,26.734161,-146.114014,,,
729706813.363451,3.367281,-1.196758,117.430392,0.040649,0.057541,1.012436,0.009054,0.014217,-0.004409,57.274002,26.734161,-146.114014,,,
729706813.364253,3.367274,-1.196793,-26.479783,0.040649,0.057541,1.012436,0.009054,0.014217,-0.004409,57.274002,26.734161,-146.114014,,,
729706813.366778,3.372091,-1.189589,117.430529,0.040161,0.055161,1.008743,0.020991,0.031699,1.8e-05,57.274002,26.734161,-146.114014,,,
729706813.369499,3.372084,-1.189624,-26.479647,0.040161,0.055161,1.008743,0.020991,0.031699,1.8e-05,57.274002,26.734161,-146.114014,,,
729706813.370155,3.372091,-1.189589,117.430529,0.040161,0.055161,1.008743,0.020991,0.031699,1.8e-05,57.274002,26.734161,-146.114014,,,
729706813.371585,3.378252,-1.179079,-26.479083,0.040161,0.055161,1.008743,0.020991,0.031699,1.8e-05,57.274002,26.734161,-146.114014,,,
729706813.373449,3.378259,-1.179045,117.43109,0.040161,0.055161,1.008743,0.020991,0.031699,1.8e-05,57.274002,26.734161,-146.114014,,,
729706813.374256,3.378252,-1.179079,-26.479083,0.040161,0.055161,1.008743,0.020991,0.031699,1.8e-05,57.274002,26.734161,-146.114014,,,
729706813.376767,3.386108,-1.16802,117.432058,0.036301,0.057175,1.00592,0.030895,0.043841,0.00222,57.274002,26.734161,-146.114014,,,
729706813.378627,3.386101,-1.168054,-26.47811,0.036301,0.057175,1.00592,0.030895,0.043841,0.00222,57.274002,26.734161,-146.114014,,,
729706813.380207,3.386108,-1.16802,117.432058,0.036301,0.057175,1.00592,0.030895,0.043841,0.00222,57.274002,26.734161,-146.114014,,,
729706813.381322,3.394766,-1.154801,-26.476947,0.036301,0.057175,1.00592,0.030895,0.043841,0.00222,57.274002,26.734161,-146.114014,,,
729706813.383466,3.394773,-1.154767,117.433224,0.036301,0.057175,1.00592,0.030895,0.043841,0.00222,57.274002,26.734161,-146.114014,,,
729706813.384255,3.394766,-1.154801,-26.476947,0.036301,0.057175,1.00592,0.030895,0.043841,0.00222,57.274002,26.734161,-146.114014,,,
729706813.386782,3.403627,-1.142012,117.434644,0.03186,0.059631,1.000122,0.031075,0.047323,0.003565,57.274002,26.734161,-146.114014,,,
729706813.38897,3.40362,-1.142047,-26.475528,0.03186,0.059631,1.000122,0.031075,0.047323,0.003565,57.274002,26.734161,-146.114014,,,
729706813.390112,3.403627,-1.142012,117.434644,0.03186,0.059631,1.000122,0.031075,0.047323,0.003565,57.274002,26.734161,-146.114014,,,
729706813.391853,3.41189,-1.12889,-26.473638,0.03186,0.059631,1.000122,0.031075,0.047323,0.003565,57.274002,26.734161,-146.114014,,,
729706813.39354,3.411897,-1.128856,117.436536,0.03186,0.059631,1.000122,0.031075,0.047323,0.003565,57.274002,26.734161,-146.114014,,,
729706813.394291,3.41189,-1.12889,-26.473638,0.03186,0.059631,1.000122,0.031075,0.047323,0.003565,57.274002,26.734161,-146.114014,,,
729706813.39683,3.419154,-1.118158,117.438431,0.026947,0.062454,0.993454,0.023695,0.037921,0.003272,57.477142,26.654099,-146.074295,,,
729706813.399676,3.419147,-1.118192,-26.471748,0.026947,0.062454,0.993454,0.023695,0.037921,0.003272,57.477142,26.654099,-146.074295,,,
729706813.400215,3.419154,-1.118158,117.438431,0.026947,0.062454,0.993454,0.023695,0.037921,0.003272,57.477142,26.654099,-146.074295,,,
729706813.401706,3.425121,-1.10872,-26.470669,0.026947,0.062454,0.993454,0.023695,0.037921,0.003272,57.477142,26.654099,-146.074295,,,
729706813.403482,3.425128,-1.108686,117.439517,0.026947,0.062454,0.993454,0.023695,0.037921,0.003272,57.477142,26.654099,-146.074295,,,
729706813.404265,3.425121,-1.10872,-26.470669,0.026947,0.062454,0.993454,0.023695,0.037921,0.003272,57.477142,26.654099,-146.074295,,,
729706813.406779,3.430205,-1.101584,117.43969,0.025284,0.066559,0.988892,0.017133,0.023943,-0.00311,57.477142,26.654099,-146.074295,,,
729706813.409693,3.430198,-1.101618,-26.470497,0.025284,0.066559,0.988892,0.017133,0.023943,-0.00311,57.477142,26.654099,-146.074295,,,
729706813.410124,3.430205,-1.101584,117.43969,0.025284,0.066559,0.988892,0.017133,0.023943,-0.00311,57.477142,26.654099,-146.074295,,,
729706813.410931,3.434015,-1.096978,-26.471282,0.025284,0.066559,0.988892,0.017133,0.023943,-0.00311,57.477142,26.654099,-146.074295,,,
729706813.41344,3.434022,-1.096944,117.438905,0.025284,0.066559,0.988892,0.017133,0.023943,-0.00311,57.477142,26.654099,-146.074295,,,
729706813.414257,3.434015,-1.096978,-26.471282,0.025284,0.066559,0.988892,0.017133,0.023943,-0.00311,57.477142,26.654099,-146.074295,,,
729706813.416777,3.436734,-1.093914,117.436936,0.024734,0.070343,0.987244,0.007872,0.010412,-0.010992,57.477142,26.654099,-146.074295,,,
729706813.419064,3.436727,-1.093949,-26.473234,0.024734,0.070343,0.987244,0.007872,0.010412,-0.010992,57.477142,26.654099,-146.074295,,,
729706813.420108,3.436734,-1.093914,117.436936,0.024734,0.070343,0.987244,0.007872,0.010412,-0.010992,57.477142,26.654099,-146.074295,,,
729706813.421167,3.438551,-1.093535,-26.476471,0.024734,0.070343,0.987244,0.007872,0.010412,-0.010992,57.477142,26.654099,-146.074295,,,
729706813.423489,3.438558,-1.0935,117.433698,0.024734,0.070343,0.987244,0.007872,0.010412,-0.010992,57.477142,26.654099,-146.074295,,,
729706813.424338,3.438551,-1.093535,-26.476471,0.024734,0.070343,0.987244,0.007872,0.010412,-0.010992,57.477142,26.654099,-146.074295,,,
729706813.426779,3.440124,-1.093216,117.429375,0.02446,0.069885,0.986389,0.004477,3.4e-05,-0.017935,57.477142,26.654099,-146.074295,,,
729706813.427789,3.440117,-1.09325,-26.480793,0.02446,0.069885,0.986389,0.004477,3.4e-05,-0.017935,57.477142,26.654099,-146.074295,,,
729706813.430214,3.440124,-1.093216,117.429375,0.02446,0.069885,0.986389,0.004477,3.4e-05,-0.017935,57.477142,26.654099,-146.074295,,,
729706813.431623,3.441308,-1.097339,-26.485363,0.02446,0.069885,0.986389,0.004477,3.4e-05,-0.017935,57.477142,26.654099,-146.074295,,,
729706813.433359,3.441316,-1.097305,117.424807,0.02446,0.069885,0.986389,0.004477,3.4e-05,-0.017935,57.477142,26.654099,-146.074295,,,
729706813.434112,3.441308,-1.097339,-26.485363,0.02446,0.069885,0.986389,0.004477,3.4e-05,-0.017935,57.477142,26.654099,-146.074295,,,
729706813.436691,3.442668,-1.099275,117.420551,0.022781,0.068283,0.986115,0.003576,-0.005675,-0.014474,57.549469,26.725525,-145.625229,,,
729706813.438252,3.442661,-1.099309,-26.489615,0.022781,0.068283,0.986115,0.003576,-0.005675,-0.014474,57.549469,26.725525,-145.625229,,,
729706813.440084,3.442668,-1.099275,117.420551,0.022781,0.068283,0.986115,0.003576,-0.005675,-0.014474,57.549469,26.725525,-145.625229,,,
729706813.440776,3.443579,-1.104686,-26.493003,0.022781,0.068283,0.986115,0.003576,-0.005675,-0.014474,57.549469,26.725525,-145.625229,,,
729706813.443223,3.443586,-1.104652,117.417164,0.022781,0.068283,0.986115,0.003576,-0.005675,-0.014474,57.549469,26.725525,-145.625229,,,
729706813.444125,3.443579,-1.104686,-26.493003,0.022781,0.068283,0.986115,0.003576,-0.005675,-0.014474,57.549469,26.725525,-145.625229,,,
729706813.446706,3.44525,-1.105784,117.413935,0.019196,0.065155,0.984741,0.003846,2.6e-05,-0.011976,57.549469,26.725525,-145.625229,,,
729706813.448404,3.445243,-1.105818,-26.496234,0.019196,0.065155,0.984741,0.003846,2.6e-05,-0.011976,57.549469,26.725525,-145.625229,,,
729706813.450031,3.44525,-1.105784,117.413935,0.019196,0.065155,0.984741,0.003846,2.6e-05,-0.011976,57.549469,26.725525,-145.625229,,,
729706813.450791,3.445155,-1.108377,-26.498872,0.019196,0.065155,0.984741,0.003846,2.6e-05,-0.011976,57.549469,26.725525,-145.625229,,,
729706813.453408,3.445162,-1.108342,117.411297,0.019196,0.065155,0.984741,0.003846,2.6e-05,-0.011976,57.549469,26.725525,-145.625229,,,
729706813.454148,3.445155,-1.108377,-26.498872,0.019196,0.065155,0.984741,0.003846,2.6e-05,-0.011976,57.549469,26.725525,-145.625229,,,
729706813.456511,3.444599,-1.106115,117.409103,0.018219,0.066193,0.985596,-0.004426,0.013458,-0.007483,57.549469,26.725525,-145.625229,,,
729706813.458351,3.444592,-1.106149,-26.50107,0.018219,0.066193,0.985596,-0.004426,0.013458,-0.007483,57.549469,26.725525,-145.625229,,,
729706813.460037,3.444599,-1.106115,117.409103,0.018219,0.066193,0.985596,-0.004426,0.013458,-0.007483,57.549469,26.725525,-145.625229,,,
729706813.460896,3.442636,-1.104428,-26.502541,0.018219,0.066193,0.985596,-0.004426,0.013458,-0.007483,57.549469,26.725525,-145.625229,,,
729706813.463431,3.442643,-1.104393,117.407634,0.018219,0.066193,0.985596,-0.004426,0.013458,-0.007483,57.549469,26.725525,-145.625229,,,
729706813.464109,3.442636,-1.104428,-26.502541,0.018219,0.066193,0.985596,-0.004426,0.013458,-0.007483,57.549469,26.725525,-145.625229,,,
729706813.466688,3.440012,-1.097894,117.406282,0.014954,0.067413,0.985672,-0.011019,0.03032,-0.005581,57.549469,26.725525,-145.625229,,,
729706813.467714,3.440005,-1.097928,-26.503893,0.014954,0.067413,0.985672,-0.011019,0.03032,-0.005581,57.549469,26.725525,-145.625229,,,
729706813.470025,3.440012,-1.097894,117.406282,0.014954,0.067413,0.985672,-0.011019,0.03032,-0.005581,57.549469,26.725525,-145.625229,,,
729706813.471007,3.43604,-1.091284,-26.504808,0.014954,0.067413,0.985672,-0.011019,0.03032,-0.005581,57.549469,26.725525,-145.625229,,,
729706813.47335,3.436047,-1.091249,117.405363,0.014954,0.067413,0.985672,-0.011019,0.03032,-0.005581,57.549469,26.725525,-145.625229,,,
729706813.474113,3.43604,-1.091284,-26.504808,0.014954,0.067413,0.985672,-0.011019,0.03032,-0.005581,57.549469,26.725525,-145.625229,,,
729706813.476688,3.430498,-1.08232,117.405094,0.00975,0.066574,0.986725,-0.020994,0.034803,-0.000166,57.661041,26.834732,-146.060165,,,
729706813.478065,3.430491,-1.082354,-26.505075,0.00975,0.066574,0.986725,-0.020994,0.034803,-0.000166,57.661041,26.834732,-146.060165,,,
729706813.480114,3.430498,-1.08232,117.405094,0.00975,0.066574,0.986725,-0.020994,0.034803,-0.000166,57.661041,26.834732,-146.060165,,,
729706813.481053,3.424872,-1.074641,-26.504389,0.00975,0.066574,0.986725,-0.020994,0.034803,-0.000166,57.661041,26.834732,-146.060165,,,
729706813.483372,3.424879,-1.074606,117.405783,0.00975,0.066574,0.986725,-0.020994,0.034803,-0.000166,57.661041,26.834732,-146.060165,,,
729706813.484115,3.424872,-1.074641,-26.504389,0.00975,0.066574,0.986725,-0.020994,0.034803,-0.000166,57.661041,26.834732,-146.060165,,,
729706813.486689,3.417962,-1.067735,117.407078,0.004532,0.060684,0.989914,-0.024953,0.021787,0.004545,57.661041,26.834732,-146.060165,,,
729706813.488217,3.417955,-1.06777,-26.503097,0.004532,0.060684,0.989914,-0.024953,0.021787,0.004545,57.661041,26.834732,-146.060165,,,
729706813.490037,3.417962,-1.067735,117.407078,0.004532,0.060684,0.989914,-0.024953,0.021787,0.004545,57.661041,26.834732,-146.060165,,,
729706813.491048,3.411915,-1.064693,-26.500986,0.004532,0.060684,0.989914,-0.024953,0.021787,0.004545,57.661041,26.834732,-146.060165,,,
729706813.493359,3.411923,-1.064659,117.409193,0.004532,0.060684,0.989914,-0.024953,0.021787,0.004545,57.661041,26.834732,-146.060165,,,
729706813.494112,3.411915,-1.064693,-26.500986,0.004532,0.060684,0.989914,-0.024953,0.021787,0.004545,57.661041,26.834732,-146.060165,,,
729706813.496688,3.404032,-1.062035,117.411992,-0.002045,0.056,0.992691,-0.026877,0.010354,0.009859,57.661041,26.834732,-146.060165,,,
729706813.498268,3.404025,-1.062069,-26.498191,-0.002045,0.056,0.992691,-0.026877,0.010354,0.009859,57.661041,26.834732,-146.060165,,,
729706813.500034,3.404032,-1.062035,117.411992,-0.002045,0.056,0.992691,-0.026877,0.010354,0.009859,57.661041,26.834732,-146.060165,,,
729706813.500821,3.398326,-1.061459,-26.495136,-0.002045,0.056,0.992691,-0.026877,0.010354,0.009859,57.661041,26.834732,-146.060165,,,
729706813.503362,3.398333,-1.061425,117.415046,-0.002045,0.056,0.992691,-0.026877,0.010354,0.009859,57.661041,26.834732,-146.060165,,,
729706813.504112,3.398326,-1.061459,-26.495136,-0.002045,0.056,0.992691,-0.026877,0.010354,0.009859,57.661041,26.834732,-146.060165,,,
729706813.506685,3.391297,-1.060937,117.418208,-0.002335,0.055237,0.998367,-0.023942,0.003444,0.010844,57.661041,26.834732,-146.060165,,,
729706813.507861,3.39129,-1.060971,-26.491976,-0.002335,0.055237,0.998367,-0.023942,0.003444,0.010844,57.661041,26.834732,-146.060165,,,
729706813.510022,3.391297,-1.060937,117.418208,-0.002335,0.055237,0.998367,-0.023942,0.003444,0.010844,57.661041,26.834732,-146.060165,,,
729706813.510797,3.386378,-1.062023,-26.488193,-0.002335,0.055237,0.998367,-0.023942,0.003444,0.010844,57.661041,26.834732,-146.060165,,,
729706813.513419,3.386385,-1.061988,117.421993,-0.002335,0.055237,0.998367,-0.023942,0.003444,0.010844,57.661041,26.834732,-146.060165,,,
729706813.514188,3.386378,-1.062023,-26.488193,-0.002335,0.055237,0.998367,-0.023942,0.003444,0.010844,57.661041,26.834732,-146.060165,,,
729706813.516683,3.381103,-1.061904,117.426502,-0.000397,0.052826,0.998901,-0.013986,0.00457,0.016107,57.661041,26.834732,-146.060165,,,
729706813.51808,3.381096,-1.061938,-26.483683,-0.000397,0.052826,0.998901,-0.013986,0.00457,0.016107,57.711823,26.759964,-146.073547,,,
729706813.520029,3.381103,-1.061904,117.426502,-0.000397,0.052826,0.998901,-0.013986,0.00457,0.016107,57.711823,26.759964,-146.073547,,,
729706813.520777,3.378372,-1.061707,-26.47802,-0.000397,0.052826,0.998901,-0.013986,0.00457,0.016107,57.711823,26.759964,-146.073547,,,
729706813.523504,3.378379,-1.061672,117.43216,-0.000397,0.052826,0.998901,-0.013986,0.00457,0.016107,57.711823,26.759964,-146.073547,,,
729706813.52428,3.378372,-1.061707,-26.47802,-0.000397,0.052826,0.998901,-0.013986,0.00457,0.016107,57.711823,26.759964,-146.073547,,,
729706813.526796,3.375379,-1.060518,117.438888,0.002304,0.050735,0.997543,-0.007271,0.008286,0.023662,57.711823,26.759964,-146.073547,,,
729706813.529429,3.375372,-1.060553,-26.471286,0.002304,0.050735,0.997543,-0.007271,0.008286,0.023662,57.711823,26.759964,-146.073547,,,
729706813.530152,3.375379,-1.060518,117.438888,0.002304,0.050735,0.997543,-0.007271,0.008286,0.023662,57.711823,26.759964,-146.073547,,,
729706813.531612,3.374313,-1.05884,-26.463661,0.002304,0.050735,0.997543,-0.007271,0.008286,0.023662,57.711823,26.759964,-146.073547,,,
729706813.533527,3.374321,-1.058806,117.446507,0.002304,0.050735,0.997543,-0.007271,0.008286,0.023662,57.711823,26.759964,-146.073547,,,
729706813.534251,3.374313,-1.05884,-26.463661,0.002304,0.050735,0.997543,-0.007271,0.008286,0.023662,57.711823,26.759964,-146.073547,,,
729706813.53677,3.372148,-1.055713,117.454691,0.004013,0.051239,0.995438,-0.00691,0.017327,0.02766,57.711823,26.759964,-146.073547,,,
729706813.538042,3.372141,-1.055748,-26.455477,0.004013,0.051239,0.995438,-0.00691,0.017327,0.02766,57.711823,26.759964,-146.073547,,,
729706813.540111,3.372148,-1.055713,117.454691,0.004013,0.051239,0.995438,-0.00691,0.017327,0.02766,57.711823,26.759964,-146.073547,,,
729706813.541487,3.37082,-1.051421,-26.446667,0.004013,0.051239,0.995438,-0.00691,0.017327,0.02766,57.711823,26.759964,-146.073547,,,
729706813.543452,3.370827,-1.051386,117.463499,0.004013,0.051239,0.995438,-0.00691,0.017327,0.02766,57.711823,26.759964,-146.073547,,,
729706813.544251,3.37082,-1.051421,-26.446667,0.004013,0.051239,0.995438,-0.00691,0.017327,0.02766,57.711823,26.759964,-146.073547,,,
729706813.546871,3.367517,-1.047665,117.47341,0.008362,0.054489,0.984528,-0.012018,0.015798,0.035275,57.711823,26.759964,-146.073547,,,
729706813.548502,3.36751,-1.047699,-26.436757,0.008362,0.054489,0.984528,-0.012018,0.015798,0.035275,57.711823,26.759964,-146.073547,,,
729706813.550134,3.367517,-1.047665,117.47341,0.008362,0.054489,0.984528,-0.012018,0.015798,0.035275,57.711823,26.759964,-146.073547,,,
729706813.550948,3.36751,-1.047699,-26.436757,0.008362,0.054489,0.984528,-0.012018,0.015798,0.035275,57.711823,26.759964,-146.073547,,,
729706813.553447,3.364284,-1.044114,117.484309,0.008362,0.054489,0.984528,-0.012018,0.015798,0.035275,57.711823,26.759964,-146.073547,,,
729706813.5551,3.364276,-1.044149,-26.425859,0.008362,0.054489,0.984528,-0.012018,0.015798,0.035275,57.711823,26.759964,-146.073547,,,
729706813.556782,3.357475,-1.041639,117.496401,0.007797,0.056305,0.974701,-0.026096,0.015203,0.043444,57.711823,26.759964,-146.073547,,,
729706813.55904,3.357468,-1.041673,-26.41377,0.007797,0.056305,0.974701,-0.026096,0.015203,0.043444,57.696976,26.693832,-145.977585,,,
729706813.560113,3.357475,-1.041639,117.496401,0.007797,0.056305,0.974701,-0.026096,0.015203,0.043444,57.696976,26.693832,-145.977585,,,
729706813.561474,3.349852,-1.03777,-26.401118,0.007797,0.056305,0.974701,-0.026096,0.015203,0.043444,57.696976,26.693832,-145.977585,,,
729706813.56345,3.349859,-1.037736,117.509055,0.007797,0.056305,0.974701,-0.026096,0.015203,0.043444,57.696976,26.693832,-145.977585,,,
729706813.564249,3.349852,-1.03777,-26.401118,0.007797,0.056305,0.974701,-0.026096,0.015203,0.043444,57.696976,26.693832,-145.977585,,,
729706813.566776,3.339613,-1.036649,117.521806,0.014725,0.05864,0.973282,-0.037295,0.008442,0.043589,57.696976,26.693832,-145.977585,,,
729706813.568533,3.339606,-1.036684,-26.388369,0.014725,0.05864,0.973282,-0.037295,0.008442,0.043589,57.696976,26.693832,-145.977585,,,
729706813.570191,3.339613,-1.036649,117.521806,0.014725,0.05864,0.973282,-0.037295,0.008442,0.043589,57.696976,26.693832,-145.977585,,,
729706813.570934,3.339606,-1.036684,-26.388369,0.014725,0.05864,0.973282,-0.037295,0.008442,0.043589,57.696976,26.693832,-145.977585,,,
729706813.573436,3.327829,-1.033623,117.534466,0.014725,0.05864,0.973282,-0.037295,0.008442,0.043589,57.696976,26.693832,-145.977585,,,
729706813.575164,3.327822,-1.033657,-26.375716,0.014725,0.05864,0.973282,-0.037295,0.008442,0.043589,57.696976,26.693832,-145.977585,,,
729706813.576782,3.3151,-1.033617,117.546984,0.024551,0.060272,0.975296,-0.043543,0.004926,0.041705,57.696976,26.693832,-145.977585,,,
729706813.57873,3.315093,-1.033652,-26.363196,0.024551,0.060272,0.975296,-0.043543,0.004926,0.041705,57.696976,26.693832,-145.977585,,,
729706813.580115,3.3151,-1.033617,117.546984,0.024551,0.060272,0.975296,-0.043543,0.004926,0.041705,57.696976,26.693832,-145.977585,,,
729706813.581495,3.301324,-1.030367,-26.352036,0.024551,0.060272,0.975296,-0.043543,0.004926,0.041705,57.696976,26.693832,-145.977585,,,
729706813.583531,3.301331,-1.030333,117.55815,0.024551,0.060272,0.975296,-0.043543,0.004926,0.041705,57.696976,26.693832,-145.977585,,,
729706813.584268,3.301324,-1.030367,-26.352036,0.024551,0.060272,0.975296,-0.043543,0.004926,0.041705,57.696976,26.693832,-145.977585,,,
729706813.586777,3.28696,-1.030013,117.568202,0.027618,0.059052,0.980469,-0.049849,0.005843,0.032834,57.696976,26.693832,-145.977585,,,
729706813.588937,3.286953,-1.030047,-26.341984,0.027618,0.059052,0.980469,-0.049849,0.005843,0.032834,57.696976,26.693832,-145.977585,,,
729706813.590121,3.28696,-1.030013,117.568202,0.027618,0.059052,0.980469,-0.049849,0.005843,0.032834,57.696976,26.693832,-145.977585,,,
729706813.591241,3.286953,-1.026659,-26.332796,0.027618,0.059052,0.980469,-0.049849,0.005843,0.032834,57.696976,26.693832,-145.977585,,,
729706813.593466,3.271702,-1.026624,117.577389,0.027618,0.059052,0.980469,-0.049849,0.005843,0.032834,57.696976,26.693832,-145.977585,,,
729706813.594583,3.271695,-1.026659,-26.332796,0.027618,0.059052,0.980469,-0.049849,0.005843,0.032834,57.696976,26.693832,-145.977585,,,
729706813.596781,3.256475,-1.024728,117.586087,0.032883,0.057907,0.980804,-0.053176,0.012952,0.028562,57.696976,26.693832,-145.977585,,,
729706813.598427,3.256468,-1.024763,-26.324085,0.032883,0.057907,0.980804,-0.053176,0.012952,0.028562,57.696976,26.693832,-145.977585,,,
729706813.600112,3.256475,-1.024728,117.586087,0.032883,0.057907,0.980804,-0.053176,0.012952,0.028562,57.630692,26.979126,-145.845215,,,
729706813.60158,3.256468,-1.019223,-26.316038,0.032883,0.057907,0.980804,-0.053176,0.012952,0.028562,57.630692,26.979126,-145.845215,,,
729706813.603465,3.239461,-1.019189,117.594136,0.032883,0.057907,0.980804,-0.053176,0.012952,0.028562,57.630692,26.979126,-145.845215,,,
729706813.604574,3.239454,-1.019223,-26.316038,0.032883,0.057907,0.980804,-0.053176,0.012952,0.028562,57.630692,26.979126,-145.845215,,,
729706813.606759,3.222488,-1.015104,117.602484,0.037033,0.056091,0.988312,-0.057131,0.019307,0.029812,57.630692,26.979126,-145.845215,,,
729706813.608895,3.222481,-1.015139,-26.307692,0.037033,0.056091,0.988312,-0.057131,0.019307,0.029812,57.630692,26.979126,-145.845215,,,
729706813.610113,3.222488,-1.015104,117.602484,0.037033,0.056091,0.988312,-0.057131,0.019307,0.029812,57.630692,26.979126,-145.845215,,,
729706813.610919,3.222481,-1.015139,-26.307692,0.037033,0.056091,0.988312,-0.057131,0.019307,0.029812,57.630692,26.979126,-145.845215,,,
729706813.61344,3.204299,-1.008248,117.611108,0.037033,0.056091,0.988312,-0.057131,0.019307,0.029812,57.630692,26.979126,-145.845215,,,
729706813.615081,3.204292,-1.008282,-26.299068,0.037033,0.056091,0.988312,-0.057131,0.019307,0.029812,57.630692,26.979126,-145.845215,,,
729706813.616793,3.185973,-1.002392,117.619735,0.037918,0.05397,0.992783,-0.063468,0.027363,0.029057,57.630692,26.979126,-145.845215,,,
729706813.618872,3.185966,-1.002427,-26.290445,0.037918,0.05397,0.992783,-0.063468,0.027363,0.029057,57.630692,26.979126,-145.845215,,,
729706813.620103,3.185973,-1.002392,117.619735,0.037918,0.05397,0.992783,-0.063468,0.027363,0.029057,57.630692,26.979126,-145.845215,,,
729706813.620959,3.185966,-1.002427,-26.290445,0.037918,0.05397,0.992783,-0.063468,0.027363,0.029057,57.630692,26.979126,-145.845215,,,
729706813.623414,3.167304,-0.993368,117.62776,0.037918,0.05397,0.992783,-0.063468,0.027363,0.029057,57.630692,26.979126,-145.845215,,,
729706813.625166,3.167297,-0.993403,-26.282423,0.037918,0.05397,0.992783,-0.063468,0.027363,0.029057,57.630692,26.979126,-145.845215,,,
729706813.626799,3.148805,-0.984843,117.634656,0.039261,0.055817,0.996887,-0.064912,0.034998,0.02057,57.630692,26.979126,-145.845215,,,
729706813.628808,3.148798,-0.984877,-26.275529,0.039261,0.055817,0.996887,-0.064912,0.034998,0.02057,57.630692,26.979126,-145.845215,,,
729706813.630117,3.148805,-0.984843,117.634656,0.039261,0.055817,0.996887,-0.064912,0.034998,0.02057,57.630692,26.979126,-145.845215,,,
729706813.630925,3.148798,-0.984877,-26.275529,0.039261,0.055817,0.996887,-0.064912,0.034998,0.02057,57.630692,26.979126,-145.845215,,,
729706813.633468,3.130357,-0.973344,117.6401,0.039261,0.055817,0.996887,-0.064912,0.034998,0.02057,57.630692,26.979126,-145.845215,,,
729706813.635078,3.13035,-0.973378,-26.270083,0.039261,0.055817,0.996887,-0.064912,0.034998,0.02057,57.630692,26.979126,-145.845215,,,
729706813.63678,3.111656,-0.960768,117.643659,0.042252,0.057953,1.001785,-0.064799,0.05149,0.006865,57.630692,26.979126,-145.845215,,,
729706813.638607,3.111649,-0.960802,-26.26653,0.042252,0.057953,1.001785,-0.064799,0.05149,0.006865,57.630692,26.979126,-145.845215,,,
729706813.640114,3.111656,-0.960768,117.643659,0.042252,0.057953,1.001785,-0.064799,0.05149,0.006865,57.799515,26.927948,-146.042969,,,
729706813.64157,3.111649,-0.960802,-26.26653,0.042252,0.057953,1.001785,-0.064799,0.05149,0.006865,57.799515,26.927948,-146.042969,,,
729706813.643468,3.093367,-0.944571,117.644769,0.042252,0.057953,1.001785,-0.064799,0.05149,0.006865,57.799515,26.927948,-146.042969,,,
729706813.644857,3.093359,-0.944605,-26.265402,0.042252,0.057953,1.001785,-0.064799,0.05149,0.006865,57.799515,26.927948,-146.042969,,,
729706813.64678,3.074736,-0.927953,117.644133,0.03949,0.056534,1.008255,-0.063512,0.061093,-0.005835,57.799515,26.927948,-146.042969,,,
729706813.649829,3.074729,-0.927987,-26.266037,0.03949,0.056534,1.008255,-0.063512,0.061093,-0.005835,57.799515,26.927948,-146.042969,,,
729706813.650153,3.074736,-0.927953,117.644133,0.03949,0.056534,1.008255,-0.063512,0.061093,-0.005835,57.799515,26.927948,-146.042969,,,
729706813.65093,3.074729,-0.927987,-26.266037,0.03949,0.056534,1.008255,-0.063512,0.061093,-0.005835,57.799515,26.927948,-146.042969,,,
729706813.653487,3.058173,-0.911851,117.641825,0.03949,0.056534,1.008255,-0.063512,0.061093,-0.005835,57.799515,26.927948,-146.042969,,,
729706813.654933,3.058166,-0.911885,-26.268347,0.03949,0.056534,1.008255,-0.063512,0.061093,-0.005835,57.799515,26.927948,-146.042969,,,
729706813.656781,3.041225,-0.895342,117.637904,0.031631,0.056076,1.00914,-0.056711,0.058866,-0.016973,57.799515,26.927948,-146.042969,,,
729706813.658629,3.041218,-0.895376,-26.272269,0.031631,0.056076,1.00914,-0.056711,0.058866,-0.016973,57.799515,26.927948,-146.042969,,,
729706813.660132,3.041225,-0.895342,117.637904,0.031631,0.056076,1.00914,-0.056711,0.058866,-0.016973,57.799515,26.927948,-146.042969,,,
729706813.660921,3.041218,-0.895376,-26.272269,0.031631,0.056076,1.00914,-0.056711,0.058866,-0.016973,57.799515,26.927948,-146.042969,,,
729706813.663437,3.02616,-0.880193,117.633075,0.031631,0.056076,1.00914,-0.056711,0.058866,-0.016973,57.799515,26.927948,-146.042969,,,
729706813.665099,3.026153,-0.880227,-26.277104,0.031631,0.056076,1.00914,-0.056711,0.058866,-0.016973,57.799515,26.927948,-146.042969,,,
729706813.666775,3.011357,-0.862998,117.628153,0.022385,0.053391,1.010437,-0.047705,0.060473,-0.017082,57.799515,26.927948,-146.042969,,,
729706813.668804,3.01135,-0.863033,-26.282032,0.022385,0.053391,1.010437,-0.047705,0.060473,-0.017082,57.799515,26.927948,-146.042969,,,
729706813.670129,3.011357,-0.862998,117.628153,0.022385,0.053391,1.010437,-0.047705,0.060473,-0.017082,57.799515,26.927948,-146.042969,,,
729706813.670917,3.01135,-0.863033,-26.282032,0.022385,0.053391,1.010437,-0.047705,0.060473,-0.017082,57.799515,26.927948,-146.042969,,,
729706813.673478,2.998299,-0.848996,117.623903,0.022385,0.053391,1.010437,-0.047705,0.060473,-0.017082,57.799515,26.927948,-146.042969,,,
729706813.67509,2.998292,-0.84903,-26.286278,0.022385,0.053391,1.010437,-0.047705,0.060473,-0.017082,57.799515,26.927948,-146.042969,,,
729706813.676782,2.984122,-0.834008,117.62072,0.013214,0.048645,1.006195,-0.047414,0.049807,-0.00874,57.799515,26.927948,-146.042969,,,
729706813.678808,2.984115,-0.834042,-26.289466,0.013214,0.048645,1.006195,-0.047414,0.049807,-0.00874,57.799515,26.927948,-146.042969,,,
729706813.680202,2.984122,-0.834008,117.62072,0.013214,0.048645,1.006195,-0.047414,0.049807,-0.00874,57.799515,26.927948,-146.042969,,,
729706813.680968,2.984115,-0.834042,-26.289466,0.013214,0.048645,1.006195,-0.047414,0.049807,-0.00874,57.799515,26.927948,-146.042969,,,
729706813.683468,2.971538,-0.82482,117.619208,0.013214,0.048645,1.006195,-0.047414,0.049807,-0.00874,57.570908,27.238266,-146.329468,,,
729706813.68557,2.97153,-0.824854,-26.290963,0.013214,0.048645,1.006195,-0.047414,0.049807,-0.00874,57.570908,27.238266,-146.329468,,,
729706813.686786,2.95812,-0.814324,117.618531,0.005478,0.045258,1.006226,-0.04686,0.034854,-0.001777,57.570908,27.238266,-146.329468,,,
729706813.688607,2.958113,-0.814358,-26.291639,0.005478,0.045258,1.006226,-0.04686,0.034854,-0.001777,57.570908,27.238266,-146.329468,,,
729706813.690167,2.95812,-0.814324,117.618531,0.005478,0.045258,1.006226,-0.04686,0.034854,-0.001777,57.570908,27.238266,-146.329468,,,
729706813.690926,2.958113,-0.814358,-26.291639,0.005478,0.045258,1.006226,-0.04686,0.034854,-0.001777,57.570908,27.238266,-146.329468,,,
729706813.693468,2.945239,-0.80983,117.619219,0.005478,0.045258,1.006226,-0.04686,0.034854,-0.001777,57.570908,27.238266,-146.329468,,,
729706813.694629,2.945231,-0.809864,-26.290954,0.005478,0.045258,1.006226,-0.04686,0.034854,-0.001777,57.570908,27.238266,-146.329468,,,
729706813.696781,2.93296,-0.803501,117.620667,0.00325,0.044083,1.011429,-0.038359,0.022235,0.004753,57.570908,27.238266,-146.329468,,,
729706813.70026,2.932952,-0.803536,-26.289507,0.00325,0.044083,1.011429,-0.038359,0.022235,0.004753,57.570908,27.238266,-146.329468,,,
729706813.700534,2.93296,-0.803501,117.620667,0.00325,0.044083,1.011429,-0.038359,0.022235,0.004753,57.570908,27.238266,-146.329468,,,
729706813.700865,2.932952,-0.803536,-26.289507,0.00325,0.044083,1.011429,-0.038359,0.022235,0.004753,57.570908,27.238266,-146.329468,,,
729706813.703529,2.922272,-0.802582,117.622779,0.00325,0.044083,1.011429,-0.038359,0.022235,0.004753,57.570908,27.238266,-146.329468,,,
729706813.704576,2.922265,-0.802616,-26.287394,0.00325,0.044083,1.011429,-0.038359,0.022235,0.004753,57.570908,27.238266,-146.329468,,,
729706813.706778,2.912122,-0.798209,117.624473,0.003357,0.044479,1.016464,-0.031808,0.018633,0.003127,57.570908,27.238266,-146.329468,,,
729706813.708322,2.912115,-0.798243,-26.285699,0.003357,0.044479,1.016464,-0.031808,0.018633,0.003127,57.570908,27.238266,-146.329468,,,
729706813.710143,2.912122,-0.798209,117.624473,0.003357,0.044479,1.016464,-0.031808,0.018633,0.003127,57.570908,27.238266,-146.329468,,,
729706813.710913,2.912115,-0.798243,-26.285699,0.003357,0.044479,1.016464,-0.031808,0.018633,0.003127,57.570908,27.238266,-146.329468,,,
729706813.713456,2.905098,-0.798163,117.625612,0.003357,0.044479,1.016464,-0.031808,0.018633,0.003127,57.570908,27.238266,-146.329468,,,
729706813.714489,2.905091,-0.798197,-26.284563,0.003357,0.044479,1.016464,-0.031808,0.018633,0.003127,57.570908,27.238266,-146.329468,,,
729706813.716837,2.899422,-0.79344,117.625828,0.004211,0.044998,1.017624,-0.015226,0.020015,-0.001958,57.570908,27.238266,-146.329468,,,
729706813.719434,2.899415,-0.793475,-26.284344,0.004211,0.044998,1.017624,-0.015226,0.020015,-0.001958,57.570908,27.238266,-146.329468,,,
729706813.720103,2.899422,-0.79344,117.625828,0.004211,0.044998,1.017624,-0.015226,0.020015,-0.001958,57.570908,27.238266,-146.329468,,,
729706813.72088,2.899415,-0.793475,-26.284344,0.004211,0.044998,1.017624,-0.015226,0.020015,-0.001958,57.570908,27.238266,-146.329468,,,
729706813.723421,2.895853,-0.792918,117.62528,0.004211,0.044998,1.017624,-0.015226,0.020015,-0.001958,57.849976,27.341949,-145.839645,,,
729706813.724723,2.895845,-0.792952,-26.284896,0.004211,0.044998,1.017624,-0.015226,0.020015,-0.001958,57.849976,27.341949,-145.839645,,,
729706813.726746,2.892553,-0.788533,117.623572,0.005524,0.043625,1.016586,-0.007187,0.01631,-0.008543,57.849976,27.341949,-145.839645,,,
729706813.728388,2.892546,-0.788567,-26.286598,0.005524,0.043625,1.016586,-0.007187,0.01631,-0.008543,57.849976,27.341949,-145.839645,,,
729706813.730142,2.892553,-0.788533,117.623572,0.005524,0.043625,1.016586,-0.007187,0.01631,-0.008543,57.849976,27.341949,-145.839645,,,
729706813.730832,2.892546,-0.788567,-26.286598,0.005524,0.043625,1.016586,-0.007187,0.01631,-0.008543,57.849976,27.341949,-145.839645,,,
729706813.733386,2.890925,-0.78824,117.621561,0.005524,0.043625,1.016586,-0.007187,0.01631,-0.008543,57.849976,27.341949,-145.839645,,,
729706813.73415,2.890918,-0.788274,-26.288608,0.005524,0.043625,1.016586,-0.007187,0.01631,-0.008543,57.849976,27.341949,-145.839645,,,
729706813.73671,2.888808,-0.78513,117.619454,0.005066,0.047333,1.012054,-0.005682,0.011818,-0.008041,57.849976,27.341949,-145.839645,,,
729706813.737881,2.888801,-0.785164,-26.290713,0.005066,0.047333,1.012054,-0.005682,0.011818,-0.008041,57.849976,27.341949,-145.839645,,,
729706813.740076,2.888808,-0.78513,117.619454,0.005066,0.047333,1.012054,-0.005682,0.011818,-0.008041,57.849976,27.341949,-145.839645,,,
729706813.740791,2.888801,-0.785164,-26.290713,0.005066,0.047333,1.012054,-0.005682,0.011818,-0.008041,57.849976,27.341949,-145.839645,,,
729706813.743375,2.887561,-0.784059,117.617847,0.005066,0.047333,1.012054,-0.005682,0.011818,-0.008041,57.849976,27.341949,-145.839645,,,
729706813.744287,2.887554,-0.784093,-26.292337,0.005066,0.047333,1.012054,-0.005682,0.011818,-0.008041,57.849976,27.341949,-145.839645,,,
729706813.74674,2.885507,-0.781154,117.617235,0.003845,0.046799,1.01181,-0.006248,0.0104,-0.000294,57.849976,27.341949,-145.839645,,,
729706813.747641,2.8855,-0.781189,-26.292952,0.003845,0.046799,1.01181,-0.006248,0.0104,-0.000294,57.849976,27.341949,-145.839645,,,
729706813.750024,2.885507,-0.781154,117.617235,0.003845,0.046799,1.01181,-0.006248,0.0104,-0.000294,57.849976,27.341949,-145.839645,,,
729706813.750777,2.8855,-0.781189,-26.292952,0.003845,0.046799,1.01181,-0.006248,0.0104,-0.000294,57.849976,27.341949,-145.839645,,,
729706813.753355,2.883218,-0.779124,117.618006,0.003845,0.046799,1.01181,-0.006248,0.0104,-0.000294,57.849976,27.341949,-145.839645,,,
729706813.754304,2.88321,-0.779158,-26.292175,0.003845,0.046799,1.01181,-0.006248,0.0104,-0.000294,57.849976,27.341949,-145.839645,,,
729706813.756698,2.880741,-0.776243,117.62011,0.002228,0.045441,1.007431,-0.006348,0.01251,0.00921,57.849976,27.341949,-145.839645,,,
729706813.758003,2.880734,-0.776278,-26.290066,0.002228,0.045441,1.007431,-0.006348,0.01251,0.00921,57.849976,27.341949,-145.839645,,,
729706813.760107,2.880741,-0.776243,117.62011,0.002228,0.045441,1.007431,-0.006348,0.01251,0.00921,57.849976,27.341949,-145.839645,,,
729706813.760771,2.880734,-0.776278,-26.290066,0.002228,0.045441,1.007431,-0.006348,0.01251,0.00921,57.849976,27.341949,-145.839645,,,
729706813.763357,2.878267,-0.77139,117.623529,0.002228,0.045441,1.007431,-0.006348,0.01251,0.00921,57.861557,27.28772,-146.046143,,,
729706813.764509,2.87826,-0.771424,-26.286641,0.002228,0.045441,1.007431,-0.006348,0.01251,0.00921,57.861557,27.28772,-146.046143,,,
