Time (sec),Pitch (deg),Roll (deg),Yaw(deg),X-Acceleration (g),Y-Acceleration (g),Z-Acceleration (g),Pitch Rate (deg/sec),Roll Rate (deg/sec),Yaw Rate (deg/sec),Magnetic Field in X direction (uT),Magnetic Field in Y direction (uT),Magnetic Field in Z Direction (uT),Latitude (deg),Longitude (deg),Altitude (m)
729716273.920627,-1.669633,-2.57515,-80.304884,0.034851,-0.02504,0.980942,0.012733,0.030914,0.015291,62.783356,14.22113,-150.770096,,,
729716273.922785,-1.669634,-2.575147,-83.381763,0.034851,-0.02504,0.980942,0.012733,0.030914,0.015291,62.783356,14.22113,-150.770096,,,
729716273.923025,-1.667563,-2.56895,-80.300789,0.034851,-0.02504,0.980942,0.009162,0.01436,0.008105,62.783356,14.22113,-150.770096,,,
729716273.927084,-1.667564,-2.568947,-83.377667,0.034851,-0.02504,0.980942,0.009162,0.01436,0.008105,62.783356,14.22113,-150.770096,,,
729716273.927305,-1.667563,-2.56895,-80.300789,0.034851,-0.02504,0.980942,0.009162,0.01436,0.008105,62.776978,14.069031,-151.015762,,,
729716273.930913,-1.666823,-2.563649,-83.374699,0.038605,-0.024506,0.978302,0.009162,0.01436,0.008105,62.776978,14.069031,-151.015762,,,
729716273.931207,-1.666823,-2.563652,-80.29782,0.038605,-0.024506,0.978302,0.009162,0.01436,0.008105,62.776978,14.069031,-151.015762,,,
729716273.932786,-1.666823,-2.563649,-83.374699,0.038605,-0.024506,0.978302,0.009162,0.01436,0.008105,62.776978,14.069031,-151.015762,,,
729716273.933015,-1.665205,-2.562005,-80.295966,0.038605,-0.024506,0.978302,0.009162,0.01436,0.008105,62.776978,14.069031,-151.015762,,,
729716273.936482,-1.665205,-2.562002,-83.372844,0.038605,-0.024506,0.978302,0.002849,0.006427,0.005272,62.776978,14.069031,-151.015762,,,
729716273.936699,-1.665205,-2.562005,-80.295966,0.038605,-0.024506,0.978302,0.002849,0.006427,0.005272,62.776978,14.069031,-151.015762,,,
729716273.940392,-1.664882,-2.559796,-83.370945,0.047104,-0.026031,0.979126,0.002849,0.006427,0.005272,62.776978,14.069031,-151.015762,,,
729716273.940659,-1.664881,-2.559799,-80.294066,0.047104,-0.026031,0.979126,0.002849,0.006427,0.005272,62.776978,14.069031,-151.015762,,,
729716273.94277,-1.664882,-2.559796,-83.370945,0.047104,-0.026031,0.979126,0.002849,0.006427,0.005272,62.776978,14.069031,-151.015762,,,
729716273.942966,-1.66463,-2.55882,-80.291991,0.047104,-0.026031,0.979126,0.002849,0.006427,0.005272,62.776978,14.069031,-151.015762,,,
729716273.946467,-1.664631,-2.558817,-83.368869,0.047104,-0.026031,0.979126,0.000832,0.003706,0.007739,62.776978,14.069031,-151.015762,,,
729716273.946697,-1.66463,-2.55882,-80.291991,0.047104,-0.026031,0.979126,0.000832,0.003706,0.007739,62.776978,14.069031,-151.015762,,,
729716273.950063,-1.665216,-2.556834,-83.366566,0.042297,-0.025894,0.981628,0.000832,0.003706,0.007739,62.776978,14.069031,-151.015762,,,
729716273.95028,-1.665216,-2.556837,-80.289687,0.042297,-0.025894,0.981628,0.000832,0.003706,0.007739,62.776978,14.069031,-151.015762,,,
729716273.952856,-1.665216,-2.556834,-83.366566,0.042297,-0.025894,0.981628,0.000832,0.003706,0.007739,62.776978,14.069031,-151.015762,,,
729716273.953047,-1.665979,-2.556994,-80.287486,0.042297,-0.025894,0.981628,0.000832,0.003706,0.007739,62.776978,14.069031,-151.015762,,,
729716273.958858,-1.665979,-2.556991,-83.364364,0.042297,-0.025894,0.981628,-0.005048,-0.002088,0.005886,62.776978,14.069031,-151.015762,,,
729716273.959136,-1.668158,-2.558137,-80.285883,0.045853,-0.020767,0.976379,-0.005048,-0.002088,0.005886,62.776978,14.069031,-151.015762,,,
729716273.959612,-1.668158,-2.558137,-80.285883,0.045853,-0.020767,0.976379,-0.005048,-0.002088,0.005886,62.776978,14.069031,-151.015762,,,
729716273.963837,-1.668159,-2.558134,-83.362761,0.045853,-0.020767,0.976379,-0.014891,-0.013992,0.0002,62.776978,14.069031,-151.015762,,,
729716273.964073,-1.671037,-2.561521,-80.284951,0.045853,-0.020767,0.976379,-0.014891,-0.013992,0.0002,62.776978,14.069031,-151.015762,,,
729716273.96609,-1.671037,-2.561518,-83.36183,0.045853,-0.020767,0.976379,-0.014891,-0.013992,0.0002,62.776978,14.069031,-151.015762,,,
729716273.96629,-1.671037,-2.561521,-80.284951,0.045853,-0.020767,0.976379,-0.014891,-0.013992,0.0002,62.776978,14.069031,-151.015762,,,
729716273.97052,-1.675608,-2.564736,-83.360864,0.047043,-0.020767,0.977829,-0.014891,-0.013992,0.0002,62.926254,13.961304,-150.806686,,,
729716273.970789,-1.675607,-2.564739,-80.283985,0.047043,-0.020767,0.977829,-0.014891,-0.013992,0.0002,62.926254,13.961304,-150.806686,,,
729716273.972716,-1.675608,-2.564736,-83.360864,0.047043,-0.020767,0.977829,-0.014891,-0.013992,0.0002,62.926254,13.961304,-150.806686,,,
729716273.973049,-1.680432,-2.569703,-80.283043,0.047043,-0.020767,0.977829,-0.014891,-0.013992,0.0002,62.926254,13.961304,-150.806686,,,
729716273.978274,-1.680433,-2.569701,-83.359921,0.047043,-0.020767,0.977829,-0.020831,-0.016224,-0.001129,62.926254,13.961304,-150.806686,,,
729716273.978544,-1.685261,-2.574929,-80.282517,0.041611,-0.026489,0.985352,-0.020831,-0.016224,-0.001129,62.926254,13.961304,-150.806686,,,
729716273.980358,-1.685261,-2.574926,-83.359395,0.041611,-0.026489,0.985352,-0.020831,-0.016224,-0.001129,62.926254,13.961304,-150.806686,,,
729716273.980588,-1.685261,-2.574929,-80.282517,0.041611,-0.026489,0.985352,-0.020831,-0.016224,-0.001129,62.926254,13.961304,-150.806686,,,
729716273.98274,-1.685261,-2.574926,-83.359395,0.041611,-0.026489,0.985352,-0.020831,-0.016224,-0.001129,62.926254,13.961304,-150.806686,,,
729716273.983013,-1.685261,-2.579346,-80.28248,0.041611,-0.026489,0.985352,-0.020831,-0.016224,-0.001129,62.926254,13.961304,-150.806686,,,
729716273.986959,-1.690609,-2.579343,-83.359359,0.041611,-0.026489,0.985352,-0.011576,-0.011373,-0.000168,62.926254,13.961304,-150.806686,,,
729716273.987179,-1.690609,-2.579346,-80.28248,0.041611,-0.026489,0.985352,-0.011576,-0.011373,-0.000168,62.926254,13.961304,-150.806686,,,
729716273.989556,-1.693675,-2.582997,-83.3589,0.041336,-0.029297,0.987869,-0.011576,-0.011373,-0.000168,62.926254,13.961304,-150.806686,,,
729716273.989753,-1.693674,-2.583,-80.282021,0.041336,-0.029297,0.987869,-0.011576,-0.011373,-0.000168,62.926254,13.961304,-150.806686,,,
729716273.992963,-1.693675,-2.582997,-83.3589,0.041336,-0.029297,0.987869,-0.011576,-0.011373,-0.000168,62.926254,13.961304,-150.806686,,,
729716273.99317,-1.696335,-2.587675,-80.280515,0.041336,-0.029297,0.987869,-0.004657,-0.018135,0.008271,62.926254,13.961304,-150.806686,,,
729716273.998748,-1.696336,-2.587672,-83.357393,0.041336,-0.029297,0.987869,-0.004657,-0.018135,0.008271,62.926254,13.961304,-150.806686,,,
729716273.999056,-1.697554,-2.590547,-80.278182,0.049286,-0.033905,0.997131,-0.004657,-0.018135,0.008271,62.926254,13.961304,-150.806686,,,
729716274.000097,-1.697554,-2.590545,-83.355061,0.049286,-0.033905,0.997131,-0.004657,-0.018135,0.008271,62.926254,13.961304,-150.806686,,,
729716274.000321,-1.697554,-2.590547,-80.278182,0.049286,-0.033905,0.997131,-0.004657,-0.018135,0.008271,62.926254,13.961304,-150.806686,,,
729716274.002856,-1.697554,-2.590545,-83.355061,0.049286,-0.033905,0.997131,-0.004657,-0.018135,0.008271,62.926254,13.961304,-150.806686,,,
729716274.003158,-1.699022,-2.594989,-80.27506,0.049286,-0.033905,0.997131,-0.004657,-0.018135,0.008271,62.926254,13.961304,-150.806686,,,
729716274.006875,-1.699022,-2.594986,-83.351938,0.049286,-0.033905,0.997131,-0.004321,-0.008491,0.011151,62.926254,13.961304,-150.806686,,,
729716274.007121,-1.699022,-2.594989,-80.27506,0.049286,-0.033905,0.997131,-0.004321,-0.008491,0.011151,62.926254,13.961304,-150.806686,,,
729716274.010388,-1.69945,-2.597411,-83.348618,0.048141,-0.036911,1.002487,-0.004321,-0.008491,0.011151,62.9646,13.95517,-151.184921,,,
729716274.010594,-1.69945,-2.597414,-80.27174,0.048141,-0.036911,1.002487,-0.004321,-0.008491,0.011151,62.9646,13.95517,-151.184921,,,
729716274.01271,-1.69945,-2.597411,-83.348618,0.048141,-0.036911,1.002487,-0.004321,-0.008491,0.011151,62.9646,13.95517,-151.184921,,,
729716274.012935,-1.69945,-2.597414,-80.27174,0.048141,-0.036911,1.002487,-0.004321,-0.008491,0.011151,62.9646,13.95517,-151.184921,,,
729716274.017833,-1.702005,-2.598649,-83.345794,0.048141,-0.036911,1.002487,-0.013055,0.0032,0.008691,62.9646,13.95517,-151.184921,,,
729716274.018119,-1.702004,-2.599046,-80.266376,0.048141,-0.036911,1.002487,-0.013055,0.0032,0.008691,62.9646,13.95517,-151.184921,,,
729716274.019802,-1.704876,-2.599043,-83.343254,0.052582,-0.029602,0.999252,-0.013055,0.0032,0.008691,62.9646,13.95517,-151.184921,,,
729716274.020018,-1.704876,-2.599046,-80.266376,0.052582,-0.029602,0.999252,-0.013055,0.0032,0.008691,62.9646,13.95517,-151.184921,,,
729716274.022878,-1.704876,-2.599043,-83.343254,0.052582,-0.029602,0.999252,-0.013055,0.0032,0.008691,62.9646,13.95517,-151.184921,,,
729716274.023094,-1.708671,-2.597722,-80.264273,0.052582,-0.029602,0.999252,-0.013055,0.0032,0.008691,62.9646,13.95517,-151.184921,,,
729716274.027148,-1.708671,-2.597719,-83.341152,0.052582,-0.029602,0.999252,-0.013782,0.010903,0.001911,62.9646,13.95517,-151.184921,,,
729716274.027386,-1.708671,-2.597722,-80.264273,0.052582,-0.029602,0.999252,-0.013782,0.010903,0.001911,62.9646,13.95517,-151.184921,,,
729716274.029769,-1.711274,-2.59462,-83.33968,0.051132,-0.026062,0.99881,-0.013782,0.010903,0.001911,62.9646,13.95517,-151.184921,,,
729716274.030009,-1.711273,-2.594623,-80.262801,0.051132,-0.026062,0.99881,-0.013782,0.010903,0.001911,62.9646,13.95517,-151.184921,,,
729716274.032825,-1.711274,-2.59462,-83.33968,0.051132,-0.026062,0.99881,-0.013782,0.010903,0.001911,62.9646,13.95517,-151.184921,,,
729716274.033054,-1.711273,-2.594623,-80.262217,0.051132,-0.026062,0.99881,-0.013782,0.010903,0.001911,62.9646,13.95517,-151.184921,,,
729716274.037527,-1.714521,-2.591659,-83.339095,0.051132,-0.026062,0.99881,-0.007321,0.012315,-0.004535,62.9646,13.95517,-151.184921,,,
729716274.037761,-1.714521,-2.591662,-80.262217,0.051132,-0.026062,0.99881,-0.007321,0.012315,-0.004535,62.9646,13.95517,-151.184921,,,
729716274.039388,-1.714943,-2.589815,-83.339443,0.052124,-0.028839,1.000931,-0.007321,0.012315,-0.004535,62.9646,13.95517,-151.184921,,,
729716274.039632,-1.714943,-2.589818,-80.262565,0.052124,-0.028839,1.000931,-0.007321,0.012315,-0.004535,62.9646,13.95517,-151.184921,,,
729716274.042949,-1.714943,-2.589815,-83.339443,0.052124,-0.028839,1.000931,-0.007321,0.012315,-0.004535,62.9646,13.95517,-151.184921,,,
729716274.043141,-1.715474,-2.586661,-80.263655,0.052124,-0.028839,1.000931,-0.007321,0.012315,-0.004535,62.9646,13.95517,-151.184921,,,
729716274.048319,-1.715474,-2.586659,-83.340533,0.052124,-0.028839,1.000931,0.006509,0.019666,-0.007368,62.9646,13.95517,-151.184921,,,
729716274.04859,-1.712681,-2.582529,-80.264807,0.049469,-0.032181,1.004608,0.006509,0.019666,-0.007368,62.9646,13.95517,-151.184921,,,
729716274.050598,-1.712682,-2.582526,-83.341686,0.049469,-0.032181,1.004608,0.006509,0.019666,-0.007368,63.040207,13.967346,-150.868591,,,
729716274.050861,-1.712681,-2.582529,-80.264807,0.049469,-0.032181,1.004608,0.006509,0.019666,-0.007368,63.040207,13.967346,-150.868591,,,
729716274.052735,-1.712682,-2.582526,-83.341686,0.049469,-0.032181,1.004608,0.006509,0.019666,-0.007368,63.040207,13.967346,-150.868591,,,
729716274.052992,-1.712681,-2.582529,-80.264807,0.049469,-0.032181,1.004608,0.006509,0.019666,-0.007368,63.040207,13.967346,-150.868591,,,
729716274.05679,-1.709836,-2.5775,-83.34215,0.049469,-0.032181,1.004608,0.016117,0.020674,-0.003251,63.040207,13.967346,-150.868591,,,
729716274.057024,-1.709836,-2.577502,-80.265272,0.049469,-0.032181,1.004608,0.016117,0.020674,-0.003251,63.040207,13.967346,-150.868591,,,
729716274.06004,-1.705509,-2.571219,-83.342655,0.046814,-0.034912,1.007919,0.016117,0.020674,-0.003251,63.040207,13.967346,-150.868591,,,
729716274.060256,-1.705508,-2.571222,-80.265777,0.046814,-0.034912,1.007919,0.016117,0.020674,-0.003251,63.040207,13.967346,-150.868591,,,
729716274.062805,-1.705509,-2.571219,-83.342655,0.046814,-0.034912,1.007919,0.016117,0.020674,-0.003251,63.040207,13.967346,-150.868591,,,
729716274.063031,-1.705508,-2.571222,-80.265777,0.046814,-0.034912,1.007919,0.016117,0.020674,-0.003251,63.040207,13.967346,-150.868591,,,
729716274.066834,-1.700975,-2.566754,-83.34355,0.046814,-0.034912,1.007919,0.015068,0.014961,-0.002968,63.040207,13.967346,-150.868591,,,
729716274.067069,-1.700975,-2.566757,-80.266672,0.046814,-0.034912,1.007919,0.015068,0.014961,-0.002968,63.040207,13.967346,-150.868591,,,
729716274.070015,-1.697175,-2.563432,-83.34454,0.049088,-0.028473,0.998505,0.015068,0.014961,-0.002968,63.040207,13.967346,-150.868591,,,
729716274.070232,-1.697174,-2.563435,-80.267662,0.049088,-0.028473,0.998505,0.015068,0.014961,-0.002968,63.040207,13.967346,-150.868591,,,
729716274.072774,-1.697175,-2.563432,-83.34454,0.049088,-0.028473,0.998505,0.015068,0.014961,-0.002968,63.040207,13.967346,-150.868591,,,
729716274.072981,-1.697174,-2.563435,-80.267662,0.049088,-0.028473,0.998505,0.015068,0.014961,-0.002968,63.040207,13.967346,-150.868591,,,
729716274.077927,-1.695278,-2.560919,-83.345701,0.049088,-0.028473,0.998505,-0.000833,0.014059,-0.005226,63.040207,13.967346,-150.868591,,,
729716274.07823,-1.695277,-2.560922,-80.270063,0.049088,-0.028473,0.998505,-0.000833,0.014059,-0.005226,63.040207,13.967346,-150.868591,,,
729716274.079765,-1.696523,-2.559494,-83.346942,0.043961,-0.027405,0.99321,-0.000833,0.014059,-0.005226,63.040207,13.967346,-150.868591,,,
729716274.080005,-1.696522,-2.559497,-80.270063,0.043961,-0.027405,0.99321,-0.000833,0.014059,-0.005226,63.040207,13.967346,-150.868591,,,
729716274.082885,-1.696523,-2.559494,-83.346942,0.043961,-0.027405,0.99321,-0.000833,0.014059,-0.005226,63.040207,13.967346,-150.868591,,,
729716274.083137,-1.696522,-2.559497,-80.270063,0.043961,-0.027405,0.99321,-0.000833,0.014059,-0.005226,63.040207,13.967346,-150.868591,,,
729716274.086836,-1.698061,-2.556027,-83.348031,0.043961,-0.027405,0.99321,-0.007586,0.016454,-0.004116,63.040207,13.967346,-150.868591,,,
729716274.087075,-1.698061,-2.55603,-80.271153,0.043961,-0.027405,0.99321,-0.007586,0.016454,-0.004116,63.040207,13.967346,-150.868591,,,
729716274.089908,-1.701978,-2.55274,-83.34927,0.039902,-0.02562,0.994812,-0.007586,0.016454,-0.004116,63.040207,13.967346,-150.868591,,,
729716274.090136,-1.701977,-2.552743,-80.272391,0.039902,-0.02562,0.994812,-0.007586,0.016454,-0.004116,63.040207,13.967346,-150.868591,,,
729716274.093583,-1.701978,-2.55274,-83.34927,0.039902,-0.02562,0.994812,-0.007586,0.016454,-0.004116,62.916672,14.127594,-150.590393,,,
729716274.093804,-1.705263,-2.550187,-80.273635,0.039902,-0.02562,0.994812,-0.011825,0.000981,-0.00354,62.916672,14.127594,-150.590393,,,
729716274.096692,-1.705263,-2.550184,-83.350514,0.039902,-0.02562,0.994812,-0.011825,0.000981,-0.00354,62.916672,14.127594,-150.590393,,,
729716274.096911,-1.705263,-2.550187,-80.273635,0.039902,-0.02562,0.994812,-0.011825,0.000981,-0.00354,62.916672,14.127594,-150.590393,,,
729716274.09975,-1.708892,-2.551906,-83.351334,0.039169,-0.024506,0.991028,-0.011825,0.000981,-0.00354,62.916672,14.127594,-150.590393,,,
729716274.099966,-1.708891,-2.551909,-80.274456,0.039169,-0.024506,0.991028,-0.011825,0.000981,-0.00354,62.916672,14.127594,-150.590393,,,
729716274.102832,-1.708892,-2.551906,-83.351334,0.039169,-0.024506,0.991028,-0.011825,0.000981,-0.00354,62.916672,14.127594,-150.590393,,,
729716274.103018,-1.708891,-2.551909,-80.274456,0.039169,-0.024506,0.991028,-0.011825,0.000981,-0.00354,62.916672,14.127594,-150.590393,,,
729716274.107523,-1.713436,-2.553663,-83.35205,0.039169,-0.024506,0.991028,-0.014305,-0.008683,-0.002756,62.916672,14.127594,-150.590393,,,
729716274.107756,-1.713435,-2.553666,-80.275171,0.039169,-0.024506,0.991028,-0.014305,-0.008683,-0.002756,62.916672,14.127594,-150.590393,,,
729716274.110248,-1.716843,-2.558121,-83.353074,0.03981,-0.027161,0.990601,-0.014305,-0.008683,-0.002756,62.916672,14.127594,-150.590393,,,
729716274.110468,-1.716842,-2.558124,-80.276195,0.03981,-0.027161,0.990601,-0.014305,-0.008683,-0.002756,62.916672,14.127594,-150.590393,,,
729716274.112759,-1.716843,-2.558121,-83.353074,0.03981,-0.027161,0.990601,-0.014305,-0.008683,-0.002756,62.916672,14.127594,-150.590393,,,
729716274.113023,-1.716842,-2.558124,-80.276195,0.03981,-0.027161,0.990601,-0.014305,-0.008683,-0.002756,62.916672,14.127594,-150.590393,,,
729716274.116289,-1.720395,-2.561802,-83.353482,0.03981,-0.027161,0.990601,-0.008518,-0.012848,-0.002888,62.916672,14.127594,-150.590393,,,
729716274.116485,-1.720394,-2.561805,-80.276604,0.03981,-0.027161,0.990601,-0.008518,-0.012848,-0.002888,62.916672,14.127594,-150.590393,,,
729716274.120152,-1.722894,-2.567748,-83.353634,0.039612,-0.028152,0.997894,-0.008518,-0.012848,-0.002888,62.916672,14.127594,-150.590393,,,
729716274.120372,-1.722894,-2.567751,-80.276755,0.039612,-0.028152,0.997894,-0.008518,-0.012848,-0.002888,62.916672,14.127594,-150.590393,,,
729716274.122828,-1.722894,-2.567748,-83.353634,0.039612,-0.028152,0.997894,-0.008518,-0.012848,-0.002888,62.916672,14.127594,-150.590393,,,
729716274.12304,-1.722894,-2.567751,-80.276755,0.039612,-0.028152,0.997894,-0.008518,-0.012848,-0.002888,62.916672,14.127594,-150.590393,,,
729716274.12714,-1.725017,-2.573461,-83.354411,0.039612,-0.028152,0.997894,-0.005678,-0.020585,-0.00657,62.916672,14.127594,-150.590393,,,
729716274.127377,-1.725016,-2.573464,-80.277532,0.039612,-0.028152,0.997894,-0.005678,-0.020585,-0.00657,62.916672,14.127594,-150.590393,,,
729716274.129984,-1.727696,-2.580771,-83.355501,0.042053,-0.028793,1.001038,-0.005678,-0.020585,-0.00657,62.916672,14.127594,-150.590393,,,
729716274.130199,-1.727696,-2.580774,-80.278622,0.042053,-0.028793,1.001038,-0.005678,-0.020585,-0.00657,62.916672,14.127594,-150.590393,,,
729716274.133538,-1.727696,-2.580771,-83.355501,0.042053,-0.028793,1.001038,-0.005678,-0.020585,-0.00657,62.755585,14.101685,-150.863907,,,
729716274.13376,-1.730201,-2.586095,-80.279852,0.042053,-0.028793,1.001038,-0.004639,-0.004658,-0.004609,62.755585,14.101685,-150.863907,,,
729716274.137077,-1.730201,-2.586092,-83.356731,0.042053,-0.028793,1.001038,-0.004639,-0.004658,-0.004609,62.755585,14.101685,-150.863907,,,
729716274.137301,-1.730201,-2.586095,-80.279852,0.042053,-0.028793,1.001038,-0.004639,-0.004658,-0.004609,62.755585,14.101685,-150.863907,,,
729716274.139424,-1.732817,-2.589482,-83.358146,0.042191,-0.030762,1.00354,-0.004639,-0.004658,-0.004609,62.755585,14.101685,-150.863907,,,
729716274.139651,-1.732816,-2.589485,-80.281268,0.042191,-0.030762,1.00354,-0.004639,-0.004658,-0.004609,62.755585,14.101685,-150.863907,,,
729716274.142847,-1.732817,-2.589482,-83.358146,0.042191,-0.030762,1.00354,-0.004639,-0.004658,-0.004609,62.755585,14.101685,-150.863907,,,
729716274.143039,-1.732816,-2.589485,-80.281268,0.042191,-0.030762,1.00354,-0.004639,-0.004658,-0.004609,62.755585,14.101685,-150.863907,,,
729716274.147588,-1.733939,-2.590458,-83.359368,0.042191,-0.030762,1.00354,-0.00088,0.005101,-0.002498,62.755585,14.101685,-150.863907,,,
729716274.147813,-1.733938,-2.590461,-80.282489,0.042191,-0.030762,1.00354,-0.00088,0.005101,-0.002498,62.755585,14.101685,-150.863907,,,
729716274.149843,-1.734296,-2.591385,-83.359829,0.038879,-0.037521,1.007111,-0.00088,0.005101,-0.002498,62.755585,14.101685,-150.863907,,,
729716274.150065,-1.734295,-2.591388,-80.282951,0.038879,-0.037521,1.007111,-0.00088,0.005101,-0.002498,62.755585,14.101685,-150.863907,,,
729716274.15291,-1.734296,-2.591385,-83.359829,0.038879,-0.037521,1.007111,-0.00088,0.005101,-0.002498,62.755585,14.101685,-150.863907,,,
729716274.153111,-1.734295,-2.591388,-80.282951,0.038879,-0.037521,1.007111,-0.00088,0.005101,-0.002498,62.755585,14.101685,-150.863907,,,
729716274.158397,-1.735351,-2.591244,-83.35886,0.038879,-0.037521,1.007111,-0.005965,0.003858,0.005242,62.755585,14.101685,-150.863907,,,
729716274.158673,-1.736649,-2.590017,-80.279578,0.046234,-0.037354,1.003647,-0.005965,0.003858,0.005242,62.755585,14.101685,-150.863907,,,
729716274.159751,-1.73665,-2.590014,-83.356456,0.046234,-0.037354,1.003647,-0.005965,0.003858,0.005242,62.755585,14.101685,-150.863907,,,
729716274.159968,-1.736649,-2.590017,-80.279578,0.046234,-0.037354,1.003647,-0.005965,0.003858,0.005242,62.755585,14.101685,-150.863907,,,
729716274.16286,-1.73665,-2.590014,-83.356456,0.046234,-0.037354,1.003647,-0.005965,0.003858,0.005242,62.755585,14.101685,-150.863907,,,
729716274.163059,-1.736649,-2.590017,-80.279578,0.046234,-0.037354,1.003647,-0.005965,0.003858,0.005242,62.755585,14.101685,-150.863907,,,
729716274.167106,-1.740387,-2.588408,-83.352339,0.046234,-0.037354,1.003647,-0.018013,0.010219,0.016799,62.755585,14.101685,-150.863907,,,
729716274.167336,-1.740386,-2.588411,-80.275461,0.046234,-0.037354,1.003647,-0.018013,0.010219,0.016799,62.755585,14.101685,-150.863907,,,
729716274.170173,-1.744874,-2.584651,-83.347369,0.039383,-0.03418,0.99826,-0.018013,0.010219,0.016799,62.755585,14.101685,-150.863907,,,
729716274.170392,-1.744874,-2.584654,-80.27049,0.039383,-0.03418,0.99826,-0.018013,0.010219,0.016799,62.755585,14.101685,-150.863907,,,
729716274.173673,-1.744874,-2.584651,-83.347369,0.039383,-0.03418,0.99826,-0.018013,0.010219,0.016799,62.906616,14.262421,-151.024353,,,
729716274.173927,-1.751526,-2.581707,-80.265789,0.039383,-0.03418,0.99826,-0.02076,0.014001,0.012659,62.906616,14.262421,-151.024353,,,
729716274.177008,-1.751527,-2.581704,-83.342668,0.039383,-0.03418,0.99826,-0.02076,0.014001,0.012659,62.906616,14.262421,-151.024353,,,
729716274.177254,-1.751526,-2.581707,-80.265789,0.039383,-0.03418,0.99826,-0.02076,0.014001,0.012659,62.906616,14.262421,-151.024353,,,
729716274.179769,-1.757888,-2.577163,-83.33865,0.044769,-0.026566,0.997177,-0.02076,0.014001,0.012659,62.906616,14.262421,-151.024353,,,
729716274.179989,-1.757888,-2.577166,-80.261772,0.044769,-0.026566,0.997177,-0.02076,0.014001,0.012659,62.906616,14.262421,-151.024353,,,
729716274.182843,-1.757888,-2.577163,-83.33865,0.044769,-0.026566,0.997177,-0.02076,0.014001,0.012659,62.906616,14.262421,-151.024353,,,
729716274.183032,-1.757888,-2.577166,-80.261772,0.044769,-0.026566,0.997177,-0.02076,0.014001,0.012659,62.906616,14.262421,-151.024353,,,
729716274.18707,-1.765342,-2.574502,-83.335757,0.044769,-0.026566,0.997177,-0.02663,0.007396,0.008557,62.906616,14.262421,-151.024353,,,
729716274.187296,-1.765342,-2.574505,-80.258878,0.044769,-0.026566,0.997177,-0.02663,0.007396,0.008557,62.906616,14.262421,-151.024353,,,
729716274.189992,-1.771654,-2.571673,-83.333862,0.045029,-0.028137,0.99678,-0.02663,0.007396,0.008557,62.906616,14.262421,-151.024353,,,
729716274.190215,-1.771654,-2.571676,-80.256984,0.045029,-0.028137,0.99678,-0.02663,0.007396,0.008557,62.906616,14.262421,-151.024353,,,
729716274.192774,-1.771654,-2.571673,-83.333862,0.045029,-0.028137,0.99678,-0.02663,0.007396,0.008557,62.906616,14.262421,-151.024353,,,
729716274.193036,-1.771654,-2.571676,-80.256984,0.045029,-0.028137,0.99678,-0.02663,0.007396,0.008557,62.906616,14.262421,-151.024353,,,
729716274.198507,-1.777152,-2.571701,-83.332875,0.045029,-0.028137,0.99678,-0.012502,0.001562,-0.000702,62.906616,14.262421,-151.024353,,,
729716274.198781,-1.78042,-2.571505,-80.255524,0.04541,-0.030624,0.998749,-0.012502,0.001562,-0.000702,62.906616,14.262421,-151.024353,,,
729716274.199337,-1.78042,-2.571502,-83.332403,0.04541,-0.030624,0.998749,-0.012502,0.001562,-0.000702,62.906616,14.262421,-151.024353,,,
729716274.199602,-1.78042,-2.571505,-80.255524,0.04541,-0.030624,0.998749,-0.012502,0.001562,-0.000702,62.906616,14.262421,-151.024353,,,
729716274.202964,-1.78042,-2.571502,-83.332403,0.04541,-0.030624,0.998749,-0.012502,0.001562,-0.000702,62.906616,14.262421,-151.024353,,,
729716274.203181,-1.78042,-2.571505,-80.255524,0.04541,-0.030624,0.998749,-0.012502,0.001562,-0.000702,62.906616,14.262421,-151.024353,,,
729716274.209374,-1.782025,-2.572091,-83.331826,0.04541,-0.030624,0.998749,0.002774,-0.000493,0.00212,62.906616,14.262421,-151.024353,,,
729716274.209671,-1.781468,-2.572101,-80.253614,0.046555,-0.034698,1.002502,0.002774,-0.000493,0.00212,62.906616,14.262421,-151.024353,,,
729716274.212914,-1.781468,-2.572098,-83.330493,0.046555,-0.034698,1.002502,0.002774,-0.000493,0.00212,62.906616,14.262421,-151.024353,,,
729716274.213149,-1.781468,-2.572101,-80.253614,0.046555,-0.034698,1.002502,0.002774,-0.000493,0.00212,62.906616,14.262421,-151.024353,,,
729716274.217194,-1.780809,-2.573871,-83.32878,0.046555,-0.034698,1.002502,0.004014,-0.010329,0.004822,62.997147,14.225952,-150.823135,,,
729716274.217444,-1.780808,-2.573874,-80.251901,0.046555,-0.034698,1.002502,0.004014,-0.010329,0.004822,62.997147,14.225952,-150.823135,,,
729716274.219754,-1.77984,-2.576397,-83.326816,0.048676,-0.034744,0.999359,0.004014,-0.010329,0.004822,62.997147,14.225952,-150.823135,,,
729716274.219958,-1.77984,-2.5764,-80.249938,0.048676,-0.034744,0.999359,0.004014,-0.010329,0.004822,62.997147,14.225952,-150.823135,,,
729716274.222837,-1.77984,-2.576397,-83.326816,0.048676,-0.034744,0.999359,0.004014,-0.010329,0.004822,62.997147,14.225952,-150.823135,,,
729716274.223027,-1.77984,-2.5764,-80.249938,0.048676,-0.034744,0.999359,0.004014,-0.010329,0.004822,62.997147,14.225952,-150.823135,,,
729716274.22691,-1.778421,-2.581183,-83.324695,0.048676,-0.034744,0.999359,0.004078,-0.016487,0.005695,62.997147,14.225952,-150.823135,,,
729716274.227134,-1.77842,-2.581186,-80.247816,0.048676,-0.034744,0.999359,0.004078,-0.016487,0.005695,62.997147,14.225952,-150.823135,,,
729716274.229777,-1.778172,-2.586045,-83.322672,0.047974,-0.034271,0.998154,0.004078,-0.016487,0.005695,62.997147,14.225952,-150.823135,,,
729716274.229993,-1.778172,-2.586048,-80.245794,0.047974,-0.034271,0.998154,0.004078,-0.016487,0.005695,62.997147,14.225952,-150.823135,,,
729716274.232843,-1.778172,-2.586045,-83.322672,0.047974,-0.034271,0.998154,0.004078,-0.016487,0.005695,62.997147,14.225952,-150.823135,,,
729716274.233035,-1.778172,-2.586048,-80.245794,0.047974,-0.034271,0.998154,0.004078,-0.016487,0.005695,62.997147,14.225952,-150.823135,,,
729716274.237894,-1.776299,-2.594085,-83.321558,0.047974,-0.034271,0.998154,0.011164,-0.032617,-0.002953,62.997147,14.225952,-150.823135,,,
729716274.238145,-1.776298,-2.594088,-80.244679,0.047974,-0.034271,0.998154,0.011164,-0.032617,-0.002953,62.997147,14.225952,-150.823135,,,
729716274.239753,-1.775438,-2.603707,-83.321766,0.051758,-0.027176,0.997513,0.011164,-0.032617,-0.002953,62.997147,14.225952,-150.823135,,,
729716274.239981,-1.775438,-2.60371,-80.244888,0.051758,-0.027176,0.997513,0.011164,-0.032617,-0.002953,62.997147,14.225952,-150.823135,,,
729716274.242816,-1.775438,-2.603707,-83.321766,0.051758,-0.027176,0.997513,0.011164,-0.032617,-0.002953,62.997147,14.225952,-150.823135,,,
729716274.243016,-1.775438,-2.60371,-80.244888,0.051758,-0.027176,0.997513,0.011164,-0.032617,-0.002953,62.997147,14.225952,-150.823135,,,
729716274.24738,-1.772699,-2.61332,-83.323172,0.051758,-0.027176,0.997513,0.008452,-0.024669,-0.013077,62.997147,14.225952,-150.823135,,,
729716274.247613,-1.772698,-2.613323,-80.246293,0.051758,-0.027176,0.997513,0.008452,-0.024669,-0.013077,62.997147,14.225952,-150.823135,,,
729716274.250167,-1.770649,-2.620377,-83.325901,0.056198,-0.026566,0.998581,0.008452,-0.024669,-0.013077,62.997147,14.225952,-150.823135,,,
729716274.250398,-1.770648,-2.62038,-80.249022,0.056198,-0.026566,0.998581,0.008452,-0.024669,-0.013077,62.997147,14.225952,-150.823135,,,
729716274.252873,-1.770649,-2.620377,-83.325901,0.056198,-0.026566,0.998581,0.008452,-0.024669,-0.013077,62.997147,14.225952,-150.823135,,,
729716274.2531,-1.770648,-2.62038,-80.249022,0.056198,-0.026566,0.998581,0.008452,-0.024669,-0.013077,62.997147,14.225952,-150.823135,,,
729716274.257728,-1.768998,-2.626811,-83.32974,0.056198,-0.026566,0.998581,0.006229,-0.012866,-0.016365,62.770752,14.179062,-151.100754,,,
729716274.258173,-1.768998,-2.626814,-80.252861,0.056198,-0.026566,0.998581,0.006229,-0.012866,-0.016365,62.770752,14.179062,-151.100754,,,
729716274.259323,-1.766466,-2.631969,-83.334087,0.055191,-0.028412,1.001511,0.006229,-0.012866,-0.016365,62.770752,14.179062,-151.100754,,,
729716274.259606,-1.766465,-2.631972,-80.257208,0.055191,-0.028412,1.001511,0.006229,-0.012866,-0.016365,62.770752,14.179062,-151.100754,,,
729716274.262944,-1.766466,-2.631969,-83.334087,0.055191,-0.028412,1.001511,0.006229,-0.012866,-0.016365,62.770752,14.179062,-151.100754,,,
729716274.263137,-1.766465,-2.631972,-80.257208,0.055191,-0.028412,1.001511,0.006229,-0.012866,-0.016365,62.770752,14.179062,-151.100754,,,
729716274.267231,-1.765386,-2.636678,-83.3381,0.055191,-0.028412,1.001511,0.00142,-0.011173,-0.013474,62.770752,14.179062,-151.100754,,,
729716274.26743,-1.765386,-2.636681,-80.261221,0.055191,-0.028412,1.001511,0.00142,-0.011173,-0.013474,62.770752,14.179062,-151.100754,,,
729716274.269394,-1.765004,-2.640822,-83.341399,0.056808,-0.028351,0.995987,0.00142,-0.011173,-0.013474,62.770752,14.179062,-151.100754,,,
729716274.269611,-1.765003,-2.640825,-80.26452,0.056808,-0.028351,0.995987,0.00142,-0.011173,-0.013474,62.770752,14.179062,-151.100754,,,
729716274.272923,-1.765004,-2.640822,-83.341399,0.056808,-0.028351,0.995987,0.00142,-0.011173,-0.013474,62.770752,14.179062,-151.100754,,,
729716274.273124,-1.765003,-2.640825,-80.26452,0.056808,-0.028351,0.995987,0.00142,-0.011173,-0.013474,62.770752,14.179062,-151.100754,,,
729716274.277558,-1.766009,-2.644501,-83.343992,0.056808,-0.028351,0.995987,-0.005069,-0.007264,-0.009658,62.770752,14.179062,-151.100754,,,
729716274.277796,-1.766008,-2.644504,-80.267113,0.056808,-0.028351,0.995987,-0.005069,-0.007264,-0.009658,62.770752,14.179062,-151.100754,,,
729716274.279918,-1.767793,-2.64721,-83.346249,0.05455,-0.031631,0.996078,-0.005069,-0.007264,-0.009658,62.770752,14.179062,-151.100754,,,
729716274.28009,-1.767793,-2.647213,-80.26937,0.05455,-0.031631,0.996078,-0.005069,-0.007264,-0.009658,62.770752,14.179062,-151.100754,,,
729716274.282649,-1.767793,-2.64721,-83.346249,0.05455,-0.031631,0.996078,-0.005069,-0.007264,-0.009658,62.770752,14.179062,-151.100754,,,
729716274.282904,-1.767793,-2.647213,-80.26937,0.05455,-0.031631,0.996078,-0.005069,-0.007264,-0.009658,62.770752,14.179062,-151.100754,,,
729716274.28743,-1.770259,-2.649245,-83.348378,0.05455,-0.031631,0.996078,-0.009359,0.0008,-0.010835,62.770752,14.179062,-151.100754,,,
729716274.287673,-1.770259,-2.649248,-80.2715,0.05455,-0.031631,0.996078,-0.009359,0.0008,-0.010835,62.770752,14.179062,-151.100754,,,
729716274.289414,-1.774457,-2.649044,-83.350598,0.053177,-0.026764,0.99646,-0.009359,0.0008,-0.010835,62.770752,14.179062,-151.100754,,,
729716274.28964,-1.774457,-2.649047,-80.273719,0.053177,-0.026764,0.99646,-0.009359,0.0008,-0.010835,62.770752,14.179062,-151.100754,,,
729716274.292974,-1.774457,-2.649044,-83.350598,0.053177,-0.026764,0.99646,-0.009359,0.0008,-0.010835,62.770752,14.179062,-151.100754,,,
729716274.293192,-1.774457,-2.649047,-80.273719,0.053177,-0.026764,0.99646,-0.009359,0.0008,-0.010835,62.770752,14.179062,-151.100754,,,
729716274.297517,-1.778482,-2.646094,-83.352998,0.053177,-0.026764,0.99646,-0.014145,0.019579,-0.006761,62.933441,14.171219,-150.956879,,,
729716274.297789,-1.778482,-2.646097,-80.27612,0.053177,-0.026764,0.99646,-0.014145,0.019579,-0.006761,62.933441,14.171219,-150.956879,,,
729716274.299963,-1.783689,-2.641985,-83.354452,0.051453,-0.024704,0.997681,-0.014145,0.019579,-0.006761,62.933441,14.171219,-150.956879,,,
729716274.300186,-1.783689,-2.641988,-80.277574,0.051453,-0.024704,0.997681,-0.014145,0.019579,-0.006761,62.933441,14.171219,-150.956879,,,
729716274.302815,-1.783689,-2.641985,-83.354452,0.051453,-0.024704,0.997681,-0.014145,0.019579,-0.006761,62.933441,14.171219,-150.956879,,,
729716274.303004,-1.783689,-2.641988,-80.277574,0.051453,-0.024704,0.997681,-0.014145,0.019579,-0.006761,62.933441,14.171219,-150.956879,,,
729716274.307754,-1.788089,-2.636608,-83.354535,0.051453,-0.024704,0.997681,-0.01433,0.018668,0.001843,62.933441,14.171219,-150.956879,,,
729716274.308003,-1.788089,-2.636611,-80.277657,0.051453,-0.024704,0.997681,-0.01433,0.018668,0.001843,62.933441,14.171219,-150.956879,,,
729716274.310203,-1.7923,-2.63307,-83.353897,0.045517,-0.02858,0.993484,-0.01433,0.018668,0.001843,62.933441,14.171219,-150.956879,,,
729716274.310441,-1.7923,-2.633073,-80.277019,0.045517,-0.02858,0.993484,-0.01433,0.018668,0.001843,62.933441,14.171219,-150.956879,,,
729716274.312769,-1.7923,-2.63307,-83.353897,0.045517,-0.02858,0.993484,-0.01433,0.018668,0.001843,62.933441,14.171219,-150.956879,,,
729716274.312987,-1.7923,-2.633073,-80.277019,0.045517,-0.02858,0.993484,-0.01433,0.018668,0.001843,62.933441,14.171219,-150.956879,,,
729716274.316749,-1.794909,-2.631288,-83.352699,0.045517,-0.02858,0.993484,-0.002758,0.00352,0.004478,62.933441,14.171219,-150.956879,,,
729716274.316966,-1.794909,-2.631291,-80.27582,0.045517,-0.02858,0.993484,-0.002758,0.00352,0.004478,62.933441,14.171219,-150.956879,,,
729716274.319806,-1.795698,-2.632951,-83.351258,0.052811,-0.032852,0.990829,-0.002758,0.00352,0.004478,62.933441,14.171219,-150.956879,,,
729716274.320007,-1.795697,-2.632954,-80.27438,0.052811,-0.032852,0.990829,-0.002758,0.00352,0.004478,62.933441,14.171219,-150.956879,,,
729716274.322832,-1.795698,-2.632951,-83.351258,0.052811,-0.032852,0.990829,-0.002758,0.00352,0.004478,62.933441,14.171219,-150.956879,,,
729716274.323031,-1.795697,-2.632954,-80.27438,0.052811,-0.032852,0.990829,-0.002758,0.00352,0.004478,62.933441,14.171219,-150.956879,,,
729716274.329462,-1.796725,-2.634154,-83.35,0.052811,-0.032852,0.990829,0.007712,-0.001604,-0.000812,62.933441,14.171219,-150.956879,,,
729716274.329736,-1.794674,-2.638396,-80.273022,0.048309,-0.035477,0.994141,0.007712,-0.001604,-0.000812,62.933441,14.171219,-150.956879,,,
729716274.333891,-1.794674,-2.638393,-83.3499,0.048309,-0.035477,0.994141,0.007712,-0.001604,-0.000812,62.933441,14.171219,-150.956879,,,
729716274.33413,-1.791282,-2.641232,-80.275306,0.048309,-0.035477,0.994141,0.016393,-0.009023,-0.017639,62.933441,14.171219,-150.956879,,,
729716274.337455,-1.791282,-2.641229,-83.352184,0.048309,-0.035477,0.994141,0.016393,-0.009023,-0.017639,62.98558,14.132736,-151.101028,,,
729716274.337716,-1.791282,-2.641232,-80.275306,0.048309,-0.035477,0.994141,0.016393,-0.009023,-0.017639,62.98558,14.132736,-151.101028,,,
729716274.340373,-1.786399,-2.646857,-83.356487,0.051392,-0.029037,1.00116,0.016393,-0.009023,-0.017639,62.98558,14.132736,-151.101028,,,
729716274.340608,-1.786399,-2.64686,-80.279608,0.051392,-0.029037,1.00116,0.016393,-0.009023,-0.017639,62.98558,14.132736,-151.101028,,,
729716274.342728,-1.786399,-2.646857,-83.356487,0.051392,-0.029037,1.00116,0.016393,-0.009023,-0.017639,62.98558,14.132736,-151.101028,,,
729716274.34294,-1.786399,-2.64686,-80.279608,0.051392,-0.029037,1.00116,0.016393,-0.009023,-0.017639,62.98558,14.132736,-151.101028,,,
729716274.347009,-1.781377,-2.650669,-83.362079,0.051392,-0.029037,1.00116,0.014656,-0.011904,-0.027339,62.98558,14.132736,-151.101028,,,
729716274.34723,-1.781376,-2.650672,-80.2852,0.051392,-0.029037,1.00116,0.014656,-0.011904,-0.027339,62.98558,14.132736,-151.101028,,,
729716274.349964,-1.77626,-2.657583,-83.36897,0.050217,-0.027283,1.00238,0.014656,-0.011904,-0.027339,62.98558,14.132736,-151.101028,,,
729716274.350184,-1.77626,-2.657586,-80.292092,0.050217,-0.027283,1.00238,0.014656,-0.011904,-0.027339,62.98558,14.132736,-151.101028,,,
729716274.352825,-1.77626,-2.657583,-83.36897,0.050217,-0.027283,1.00238,0.014656,-0.011904,-0.027339,62.98558,14.132736,-151.101028,,,
729716274.353012,-1.77626,-2.657586,-80.292092,0.050217,-0.027283,1.00238,0.014656,-0.011904,-0.027339,62.98558,14.132736,-151.101028,,,
729716274.357116,-1.772245,-2.662832,-83.376011,0.050217,-0.027283,1.00238,0.012932,-0.014385,-0.023111,62.98558,14.132736,-151.101028,,,
729716274.357385,-1.772245,-2.662835,-80.299133,0.050217,-0.027283,1.00238,0.012932,-0.014385,-0.023111,62.98558,14.132736,-151.101028,,,
729716274.359974,-1.768793,-2.668997,-83.3828,0.04451,-0.025269,1.001328,0.012932,-0.014385,-0.023111,62.98558,14.132736,-151.101028,,,
729716274.360195,-1.768792,-2.669,-80.305922,0.04451,-0.025269,1.001328,0.012932,-0.014385,-0.023111,62.98558,14.132736,-151.101028,,,
729716274.362815,-1.768793,-2.668997,-83.3828,0.04451,-0.025269,1.001328,0.012932,-0.014385,-0.023111,62.98558,14.132736,-151.101028,,,
729716274.363003,-1.768792,-2.669,-80.305922,0.04451,-0.025269,1.001328,0.012932,-0.014385,-0.023111,62.98558,14.132736,-151.101028,,,
729716274.366729,-1.765707,-2.672088,-83.388444,0.04451,-0.025269,1.001328,0.006028,-0.003812,-0.015944,62.98558,14.132736,-151.101028,,,
729716274.366979,-1.765706,-2.672091,-80.311566,0.04451,-0.025269,1.001328,0.006028,-0.003812,-0.015944,62.98558,14.132736,-151.101028,,,
729716274.370306,-1.76245,-2.675308,-83.393024,0.041763,-0.028305,1.005966,0.006028,-0.003812,-0.015944,62.98558,14.132736,-151.101028,,,
729716274.37053,-1.76245,-2.675311,-80.316146,0.041763,-0.028305,1.005966,0.006028,-0.003812,-0.015944,62.98558,14.132736,-151.101028,,,
729716274.372733,-1.76245,-2.675308,-83.393024,0.041763,-0.028305,1.005966,0.006028,-0.003812,-0.015944,62.98558,14.132736,-151.101028,,,
729716274.37295,-1.76245,-2.675311,-80.316146,0.041763,-0.028305,1.005966,0.006028,-0.003812,-0.015944,62.98558,14.132736,-151.101028,,,
729716274.379671,-1.761815,-2.676025,-83.396832,0.041763,-0.028305,1.005966,-0.001258,0.00474,-0.008594,62.772278,14.027924,-150.549774,,,
729716274.379981,-1.761088,-2.676603,-80.321991,0.043121,-0.030716,1.002823,-0.001258,0.00474,-0.008594,62.772278,14.027924,-150.549774,,,
729716274.383108,-1.761088,-2.6766,-83.39887,0.043121,-0.030716,1.002823,-0.001258,0.00474,-0.008594,62.772278,14.027924,-150.549774,,,
729716274.383322,-1.761088,-2.676603,-80.321991,0.043121,-0.030716,1.002823,-0.001258,0.00474,-0.008594,62.772278,14.027924,-150.549774,,,
729716274.386616,-1.762274,-2.676436,-83.399532,0.043121,-0.030716,1.002823,-0.00512,0.001168,-0.002665,62.772278,14.027924,-150.549774,,,
729716274.386833,-1.762273,-2.676439,-80.322654,0.043121,-0.030716,1.002823,-0.00512,0.001168,-0.002665,62.772278,14.027924,-150.549774,,,
729716274.389516,-1.763214,-2.677397,-83.40021,0.038315,-0.028488,1.001892,-0.00512,0.001168,-0.002665,62.772278,14.027924,-150.549774,,,
729716274.389733,-1.763214,-2.6774,-80.323332,0.038315,-0.028488,1.001892,-0.00512,0.001168,-0.002665,62.772278,14.027924,-150.549774,,,
729716274.392741,-1.763214,-2.677397,-83.40021,0.038315,-0.028488,1.001892,-0.00512,0.001168,-0.002665,62.772278,14.027924,-150.549774,,,
729716274.392982,-1.763214,-2.6774,-80.323332,0.038315,-0.028488,1.001892,-0.00512,0.001168,-0.002665,62.772278,14.027924,-150.549774,,,
729716274.398923,-1.763666,-2.67918,-83.401301,0.038315,-0.028488,1.001892,0.003475,-0.00687,-0.007216,62.772278,14.027924,-150.549774,,,
729716274.399238,-1.763909,-2.683254,-80.326237,0.039612,-0.028748,0.999786,0.003475,-0.00687,-0.007216,62.772278,14.027924,-150.549774,,,
729716274.399687,-1.763909,-2.683254,-80.326237,0.039612,-0.028748,0.999786,0.003475,-0.00687,-0.007216,62.772278,14.027924,-150.549774,,,
729716274.402975,-1.763909,-2.683252,-83.403115,0.039612,-0.028748,0.999786,0.003475,-0.00687,-0.007216,62.772278,14.027924,-150.549774,,,
729716274.40319,-1.763909,-2.683254,-80.326237,0.039612,-0.028748,0.999786,0.003475,-0.00687,-0.007216,62.772278,14.027924,-150.549774,,,
729716274.4073,-1.762439,-2.686373,-83.405873,0.039612,-0.028748,0.999786,0.013164,-0.010814,-0.01591,62.772278,14.027924,-150.549774,,,
729716274.407555,-1.762439,-2.686376,-80.328994,0.039612,-0.028748,0.999786,0.013164,-0.010814,-0.01591,62.772278,14.027924,-150.549774,,,
729716274.40937,-1.759996,-2.690685,-83.409417,0.0401,-0.032043,1.002243,0.013164,-0.010814,-0.01591,62.772278,14.027924,-150.549774,,,
729716274.409605,-1.759996,-2.690687,-80.332538,0.0401,-0.032043,1.002243,0.013164,-0.010814,-0.01591,62.772278,14.027924,-150.549774,,,
729716274.412874,-1.759996,-2.690685,-83.409417,0.0401,-0.032043,1.002243,0.013164,-0.010814,-0.01591,62.772278,14.027924,-150.549774,,,
729716274.413062,-1.759996,-2.690687,-80.332538,0.0401,-0.032043,1.002243,0.013164,-0.010814,-0.01591,62.772278,14.027924,-150.549774,,,
729716274.417198,-1.754966,-2.695052,-83.413296,0.0401,-0.032043,1.002243,0.02146,-0.00825,-0.016721,62.772278,14.027924,-150.549774,,,
729716274.417452,-1.754966,-2.695055,-80.336417,0.0401,-0.032043,1.002243,0.02146,-0.00825,-0.016721,62.772278,14.027924,-150.549774,,,
729716274.420452,-1.747901,-2.699082,-83.417001,0.039093,-0.035294,1.000793,0.02146,-0.00825,-0.016721,62.83992,14.086273,-150.724075,,,
729716274.420708,-1.747901,-2.699085,-80.340123,0.039093,-0.035294,1.000793,0.02146,-0.00825,-0.016721,62.83992,14.086273,-150.724075,,,
729716274.422777,-1.747901,-2.699082,-83.417001,0.039093,-0.035294,1.000793,0.02146,-0.00825,-0.016721,62.83992,14.086273,-150.724075,,,
729716274.423001,-1.747901,-2.699085,-80.340123,0.039093,-0.035294,1.000793,0.02146,-0.00825,-0.016721,62.83992,14.086273,-150.724075,,,
729716274.428316,-1.739843,-2.700245,-83.419672,0.039093,-0.035294,1.000793,0.031619,0.002117,-0.007275,62.83992,14.086273,-150.724075,,,
729716274.428585,-1.739842,-2.700248,-80.342794,0.039093,-0.035294,1.000793,0.031619,0.002117,-0.007275,62.83992,14.086273,-150.724075,,,
729716274.429847,-1.729888,-2.700786,-83.420555,0.033997,-0.038406,1.003448,0.031619,0.002117,-0.007275,62.83992,14.086273,-150.724075,,,
729716274.430082,-1.729888,-2.700789,-80.343677,0.033997,-0.038406,1.003448,0.031619,0.002117,-0.007275,62.83992,14.086273,-150.724075,,,
729716274.432834,-1.729888,-2.700786,-83.420555,0.033997,-0.038406,1.003448,0.031619,0.002117,-0.007275,62.83992,14.086273,-150.724075,,,
729716274.433023,-1.729888,-2.700789,-80.343677,0.033997,-0.038406,1.003448,0.031619,0.002117,-0.007275,62.83992,14.086273,-150.724075,,,
729716274.437917,-1.721426,-2.700961,-83.419513,0.033997,-0.038406,1.003448,0.024801,0.000203,0.007014,62.83992,14.086273,-150.724075,,,
729716274.438175,-1.721426,-2.700964,-80.342634,0.033997,-0.038406,1.003448,0.024801,0.000203,0.007014,62.83992,14.086273,-150.724075,,,
729716274.439731,-1.714615,-2.700482,-83.416322,0.030518,-0.037262,0.997711,0.024801,0.000203,0.007014,62.83992,14.086273,-150.724075,,,
729716274.439967,-1.714615,-2.700485,-80.339444,0.030518,-0.037262,0.997711,0.024801,0.000203,0.007014,62.83992,14.086273,-150.724075,,,
729716274.442819,-1.714615,-2.700482,-83.416322,0.030518,-0.037262,0.997711,0.024801,0.000203,0.007014,62.83992,14.086273,-150.724075,,,
729716274.443009,-1.714615,-2.700485,-80.339444,0.030518,-0.037262,0.997711,0.024801,0.000203,0.007014,62.83992,14.086273,-150.724075,,,
729716274.448058,-1.710744,-2.70194,-83.411304,0.030518,-0.037262,0.997711,0.010845,-0.007722,0.015964,62.83992,14.086273,-150.724075,,,
729716274.448307,-1.710743,-2.701943,-80.334425,0.030518,-0.037262,0.997711,0.010845,-0.007722,0.015964,62.83992,14.086273,-150.724075,,,
729716274.449772,-1.707865,-2.703855,-83.405474,0.032928,-0.030624,0.990204,0.010845,-0.007722,0.015964,62.83992,14.086273,-150.724075,,,
729716274.449992,-1.707864,-2.703858,-80.328595,0.032928,-0.030624,0.990204,0.010845,-0.007722,0.015964,62.83992,14.086273,-150.724075,,,
729716274.452899,-1.707865,-2.703855,-83.405474,0.032928,-0.030624,0.990204,0.010845,-0.007722,0.015964,62.83992,14.086273,-150.724075,,,
729716274.45309,-1.707864,-2.703858,-80.328595,0.032928,-0.030624,0.990204,0.010845,-0.007722,0.015964,62.83992,14.086273,-150.724075,,,
729716274.457327,-1.70549,-2.708619,-83.399925,0.032928,-0.030624,0.990204,0.009333,-0.022652,0.01345,62.83992,14.086273,-150.724075,,,
729716274.457598,-1.705489,-2.708622,-80.323047,0.032928,-0.030624,0.990204,0.009333,-0.022652,0.01345,62.83992,14.086273,-150.724075,,,
729716274.460563,-1.702859,-2.713863,-83.395557,0.036102,-0.026978,0.99234,0.009333,-0.022652,0.01345,62.784271,14.127853,-150.598175,,,
729716274.460817,-1.702859,-2.713866,-80.318678,0.036102,-0.026978,0.99234,0.009333,-0.022652,0.01345,62.784271,14.127853,-150.598175,,,
729716274.462747,-1.702859,-2.713863,-83.395557,0.036102,-0.026978,0.99234,0.009333,-0.022652,0.01345,62.784271,14.127853,-150.598175,,,
729716274.462962,-1.702859,-2.713866,-80.318678,0.036102,-0.026978,0.99234,0.009333,-0.022652,0.01345,62.784271,14.127853,-150.598175,,,
729716274.467257,-1.700263,-2.721923,-83.393035,0.036102,-0.026978,0.99234,0.014326,-0.028893,0.004701,62.784271,14.127853,-150.598175,,,
729716274.467531,-1.700263,-2.721926,-80.316157,0.036102,-0.026978,0.99234,0.014326,-0.028893,0.004701,62.784271,14.127853,-150.598175,,,
729716274.469983,-1.696548,-2.728895,-83.391776,0.043121,-0.030212,0.995697,0.014326,-0.028893,0.004701,62.784271,14.127853,-150.598175,,,
729716274.470201,-1.696548,-2.728898,-80.314897,0.043121,-0.030212,0.995697,0.014326,-0.028893,0.004701,62.784271,14.127853,-150.598175,,,
729716274.472775,-1.696548,-2.728895,-83.391776,0.043121,-0.030212,0.995697,0.014326,-0.028893,0.004701,62.784271,14.127853,-150.598175,,,
729716274.472981,-1.696548,-2.728898,-80.314897,0.043121,-0.030212,0.995697,0.014326,-0.028893,0.004701,62.784271,14.127853,-150.598175,,,
729716274.478353,-1.692338,-2.737729,-83.390824,0.043121,-0.030212,0.995697,0.0167,-0.028845,-2.8e-05,62.784271,14.127853,-150.598175,,,
729716274.47862,-1.692338,-2.737732,-80.313945,0.043121,-0.030212,0.995697,0.0167,-0.028845,-2.8e-05,62.784271,14.127853,-150.598175,,,
729716274.479939,-1.68746,-2.745003,-83.389531,0.046936,-0.034393,1.001297,0.0167,-0.028845,-2.8e-05,62.784271,14.127853,-150.598175,,,
729716274.48021,-1.68746,-2.745006,-80.312653,0.046936,-0.034393,1.001297,0.0167,-0.028845,-2.8e-05,62.784271,14.127853,-150.598175,,,
729716274.482814,-1.68746,-2.745003,-83.389531,0.046936,-0.034393,1.001297,0.0167,-0.028845,-2.8e-05,62.784271,14.127853,-150.598175,,,
729716274.483005,-1.68746,-2.745006,-80.312653,0.046936,-0.034393,1.001297,0.0167,-0.028845,-2.8e-05,62.784271,14.127853,-150.598175,,,
729716274.487896,-1.681701,-2.753955,-83.388437,0.046936,-0.034393,1.001297,0.022071,-0.021022,0.0036,62.784271,14.127853,-150.598175,,,
729716274.488154,-1.681701,-2.753958,-80.311558,0.046936,-0.034393,1.001297,0.022071,-0.021022,0.0036,62.784271,14.127853,-150.598175,,,
729716274.489882,-1.676264,-2.759405,-83.386865,0.05307,-0.033951,1.000671,0.022071,-0.021022,0.0036,62.784271,14.127853,-150.598175,,,
729716274.490099,-1.676264,-2.759408,-80.309987,0.05307,-0.033951,1.000671,0.022071,-0.021022,0.0036,62.784271,14.127853,-150.598175,,,
729716274.492803,-1.676264,-2.759405,-83.386865,0.05307,-0.033951,1.000671,0.022071,-0.021022,0.0036,62.784271,14.127853,-150.598175,,,
729716274.492992,-1.676264,-2.759408,-80.309987,0.05307,-0.033951,1.000671,0.022071,-0.021022,0.0036,62.784271,14.127853,-150.598175,,,
729716274.497268,-1.670519,-2.763849,-83.384157,0.05307,-0.033951,1.000671,0.020438,-0.002267,0.0074,62.784271,14.127853,-150.598175,,,
729716274.497498,-1.670518,-2.763852,-80.307278,0.05307,-0.033951,1.000671,0.020438,-0.002267,0.0074,62.784271,14.127853,-150.598175,,,
729716274.499494,-1.667322,-2.763692,-83.381133,0.053421,-0.030319,1.000961,0.020438,-0.002267,0.0074,62.784271,14.127853,-150.598175,,,
729716274.499733,-1.667322,-2.763694,-80.304255,0.053421,-0.030319,1.000961,0.020438,-0.002267,0.0074,62.469345,14.213699,-150.895187,,,
729716274.503723,-1.667322,-2.763692,-83.381133,0.053421,-0.030319,1.000961,0.020438,-0.002267,0.0074,62.469345,14.213699,-150.895187,,,
729716274.504023,-1.667322,-2.763694,-80.304255,0.053421,-0.030319,1.000961,0.020438,-0.002267,0.0074,62.469345,14.213699,-150.895187,,,
729716274.507958,-1.663415,-2.763966,-83.378112,0.053421,-0.030319,1.000961,0.011734,0.006732,0.010405,62.469345,14.213699,-150.895187,,,
729716274.508222,-1.663414,-2.763969,-80.301233,0.053421,-0.030319,1.000961,0.011734,0.006732,0.010405,62.469345,14.213699,-150.895187,,,
729716274.509836,-1.663415,-2.759486,-83.374296,0.056595,-0.026855,0.995621,0.011734,0.006732,0.010405,62.469345,14.213699,-150.895187,,,
729716274.510081,-1.662964,-2.759489,-80.297418,0.056595,-0.026855,0.995621,0.011734,0.006732,0.010405,62.469345,14.213699,-150.895187,,,
729716274.512822,-1.662964,-2.759486,-83.374296,0.056595,-0.026855,0.995621,0.011734,0.006732,0.010405,62.469345,14.213699,-150.895187,,,
729716274.513012,-1.662964,-2.759489,-80.297418,0.056595,-0.026855,0.995621,0.011734,0.006732,0.010405,62.469345,14.213699,-150.895187,,,
729716274.516268,-1.661341,-2.757931,-83.370365,0.056595,-0.026855,0.995621,0.009255,0.008755,0.01073,62.469345,14.213699,-150.895187,,,
729716274.516466,-1.661341,-2.757934,-80.293486,0.056595,-0.026855,0.995621,0.009255,0.008755,0.01073,62.469345,14.213699,-150.895187,,,
729716274.520159,-1.660956,-2.752791,-83.36663,0.057632,-0.025253,0.993469,0.009255,0.008755,0.01073,62.469345,14.213699,-150.895187,,,
729716274.520371,-1.660956,-2.752794,-80.289751,0.057632,-0.025253,0.993469,0.009255,0.008755,0.01073,62.469345,14.213699,-150.895187,,,
729716274.522819,-1.660956,-2.752791,-83.36663,0.057632,-0.025253,0.993469,0.009255,0.008755,0.01073,62.469345,14.213699,-150.895187,,,
729716274.523031,-1.660956,-2.752794,-80.289751,0.057632,-0.025253,0.993469,0.009255,0.008755,0.01073,62.469345,14.213699,-150.895187,,,
729716274.527157,-1.658299,-2.752231,-83.36375,0.057632,-0.025253,0.993469,0.015281,0.001301,0.002223,62.469345,14.213699,-150.895187,,,
729716274.527392,-1.658299,-2.752234,-80.286871,0.057632,-0.025253,0.993469,0.015281,0.001301,0.002223,62.469345,14.213699,-150.895187,,,
729716274.529832,-1.658299,-2.749777,-83.362465,0.060165,-0.023956,0.99556,0.015281,0.001301,0.002223,62.469345,14.213699,-150.895187,,,
729716274.530053,-1.654357,-2.74978,-80.285587,0.060165,-0.023956,0.99556,0.015281,0.001301,0.002223,62.469345,14.213699,-150.895187,,,
729716274.533214,-1.654358,-2.749777,-83.362465,0.060165,-0.023956,0.99556,0.015281,0.001301,0.002223,62.469345,14.213699,-150.895187,,,
729716274.533443,-1.654357,-2.74978,-80.285587,0.060165,-0.023956,0.99556,0.015281,0.001301,0.002223,62.469345,14.213699,-150.895187,,,
729716274.538595,-1.648517,-2.752494,-83.363377,0.060165,-0.023956,0.99556,0.027029,-0.013175,-0.011351,62.469345,14.213699,-150.895187,,,
729716274.538856,-1.648517,-2.752497,-80.286499,0.060165,-0.023956,0.99556,0.027029,-0.013175,-0.011351,62.469345,14.213699,-150.895187,,,
729716274.539269,-1.648517,-2.752494,-83.363377,0.060165,-0.023956,0.99556,0.027029,-0.013175,-0.011351,62.469345,14.213699,-150.895187,,,
729716274.539625,-1.640576,-2.755145,-80.289041,0.061844,-0.024429,0.996078,0.027029,-0.013175,-0.011351,62.469345,14.213699,-150.895187,,,
729716274.544508,-1.640576,-2.755142,-83.365919,0.061844,-0.024429,0.996078,0.027029,-0.013175,-0.011351,62.815033,14.058212,-150.834869,,,
729716274.544766,-1.630824,-2.761201,-80.292841,0.061844,-0.024429,0.996078,0.038915,-0.016366,-0.019386,62.815033,14.058212,-150.834869,,,
729716274.546969,-1.630824,-2.761198,-83.36972,0.061844,-0.024429,0.996078,0.038915,-0.016366,-0.019386,62.815033,14.058212,-150.834869,,,
729716274.547202,-1.630824,-2.761201,-80.292841,0.061844,-0.024429,0.996078,0.038915,-0.016366,-0.019386,62.815033,14.058212,-150.834869,,,
729716274.550276,-1.620118,-2.766288,-83.374518,0.06131,-0.028564,0.998016,0.038915,-0.016366,-0.019386,62.815033,14.058212,-150.834869,,,
729716274.550504,-1.620117,-2.766291,-80.297639,0.06131,-0.028564,0.998016,0.038915,-0.016366,-0.019386,62.815033,14.058212,-150.834869,,,
729716274.552819,-1.620118,-2.766288,-83.374518,0.06131,-0.028564,0.998016,0.038915,-0.016366,-0.019386,62.815033,14.058212,-150.834869,,,
729716274.553005,-1.620117,-2.766291,-80.297639,0.06131,-0.028564,0.998016,0.038915,-0.016366,-0.019386,62.815033,14.058212,-150.834869,,,
729716274.557146,-1.608188,-2.771494,-83.380014,0.06131,-0.028564,0.998016,0.038332,-0.011825,-0.021985,62.815033,14.058212,-150.834869,,,
729716274.557385,-1.608187,-2.771497,-80.303136,0.06131,-0.028564,0.998016,0.038332,-0.011825,-0.021985,62.815033,14.058212,-150.834869,,,
729716274.560371,-1.597988,-2.77625,-83.385332,0.05896,-0.026627,0.997482,0.038332,-0.011825,-0.021985,62.815033,14.058212,-150.834869,,,
729716274.560622,-1.597988,-2.776253,-80.308453,0.05896,-0.026627,0.997482,0.038332,-0.011825,-0.021985,62.815033,14.058212,-150.834869,,,
729716274.562758,-1.597988,-2.77625,-83.385332,0.05896,-0.026627,0.997482,0.038332,-0.011825,-0.021985,62.815033,14.058212,-150.834869,,,
729716274.562982,-1.597988,-2.776253,-80.308453,0.05896,-0.026627,0.997482,0.038332,-0.011825,-0.021985,62.815033,14.058212,-150.834869,,,
729716274.56793,-1.587194,-2.779205,-83.390045,0.05896,-0.026627,0.997482,0.036258,0.002755,-0.018399,62.815033,14.058212,-150.834869,,,
729716274.568195,-1.587194,-2.779208,-80.313166,0.05896,-0.026627,0.997482,0.036258,0.002755,-0.018399,62.815033,14.058212,-150.834869,,,
729716274.569337,-1.587194,-2.779205,-83.390045,0.05896,-0.026627,0.997482,0.036258,0.002755,-0.018399,62.815033,14.058212,-150.834869,,,
729716274.569601,-1.578502,-2.780661,-80.317428,0.056152,-0.024887,0.991714,0.036258,0.002755,-0.018399,62.815033,14.058212,-150.834869,,,
729716274.573724,-1.578503,-2.780658,-83.394306,0.056152,-0.024887,0.991714,0.036258,0.002755,-0.018399,62.815033,14.058212,-150.834869,,,
729716274.573953,-1.578502,-2.780661,-80.317428,0.056152,-0.024887,0.991714,0.036258,0.002755,-0.018399,62.815033,14.058212,-150.834869,,,
729716274.577046,-1.569415,-2.77963,-83.397837,0.056152,-0.024887,0.991714,0.029979,0.011442,-0.015763,62.815033,14.058212,-150.834869,,,
729716274.57727,-1.569415,-2.779633,-80.320959,0.056152,-0.024887,0.991714,0.029979,0.011442,-0.015763,62.815033,14.058212,-150.834869,,,
729716274.580295,-1.561303,-2.778749,-83.401413,0.054245,-0.025253,0.98793,0.029979,0.011442,-0.015763,62.815033,14.058212,-150.834869,,,
729716274.580535,-1.561303,-2.778752,-80.324534,0.054245,-0.025253,0.98793,0.029979,0.011442,-0.015763,62.815033,14.058212,-150.834869,,,
729716274.583431,-1.561303,-2.778749,-83.401413,0.054245,-0.025253,0.98793,0.029979,0.011442,-0.015763,62.714752,13.762466,-150.748505,,,
729716274.583671,-1.561303,-2.778752,-80.324534,0.054245,-0.025253,0.98793,0.029979,0.011442,-0.015763,62.714752,13.762466,-150.748505,,,
729716274.587013,-1.553176,-2.775061,-83.405651,0.054245,-0.025253,0.98793,0.02624,0.02216,-0.017315,62.714752,13.762466,-150.748505,,,
729716274.587263,-1.553176,-2.775064,-80.328772,0.054245,-0.025253,0.98793,0.02624,0.02216,-0.017315,62.714752,13.762466,-150.748505,,,
729716274.589913,-1.545737,-2.771422,-83.409747,0.053146,-0.025513,0.987366,0.02624,0.02216,-0.017315,62.714752,13.762466,-150.748505,,,
729716274.590129,-1.545737,-2.771425,-80.332869,0.053146,-0.025513,0.987366,0.02624,0.02216,-0.017315,62.714752,13.762466,-150.748505,,,
729716274.592894,-1.545737,-2.771422,-83.409747,0.053146,-0.025513,0.987366,0.02624,0.02216,-0.017315,62.714752,13.762466,-150.748505,,,
729716274.593096,-1.545737,-2.771425,-80.332869,0.053146,-0.025513,0.987366,0.02624,0.02216,-0.017315,62.714752,13.762466,-150.748505,,,
729716274.597076,-1.539897,-2.765135,-83.413212,0.053146,-0.025513,0.987366,0.01849,0.023176,-0.013299,62.714752,13.762466,-150.748505,,,
729716274.597301,-1.539896,-2.765138,-80.336334,0.053146,-0.025513,0.987366,0.01849,0.023176,-0.013299,62.714752,13.762466,-150.748505,,,
729716274.600582,-1.534568,-2.761869,-83.41588,0.044067,-0.029678,0.98616,0.01849,0.023176,-0.013299,62.714752,13.762466,-150.748505,,,
729716274.600824,-1.534567,-2.761872,-80.339001,0.044067,-0.029678,0.98616,0.01849,0.023176,-0.013299,62.714752,13.762466,-150.748505,,,
729716274.602736,-1.534568,-2.761869,-83.41588,0.044067,-0.029678,0.98616,0.01849,0.023176,-0.013299,62.714752,13.762466,-150.748505,,,
729716274.602957,-1.534567,-2.761872,-80.339001,0.044067,-0.029678,0.98616,0.01849,0.023176,-0.013299,62.714752,13.762466,-150.748505,,,
729716274.606669,-1.530405,-2.758021,-83.417788,0.044067,-0.029678,0.98616,0.008414,0.007389,-0.010733,62.714752,13.762466,-150.748505,,,
729716274.606888,-1.530405,-2.758024,-80.34091,0.044067,-0.029678,0.98616,0.008414,0.007389,-0.010733,62.714752,13.762466,-150.748505,,,
729716274.609704,-1.530405,-2.758021,-83.417788,0.041245,-0.032532,0.983368,0.008414,0.007389,-0.010733,62.714752,13.762466,-150.748505,,,
729716274.609917,-1.527369,-2.759461,-80.343175,0.041245,-0.032532,0.983368,0.008414,0.007389,-0.010733,62.714752,13.762466,-150.748505,,,
729716274.612859,-1.52737,-2.759458,-83.420053,0.041245,-0.032532,0.983368,0.008414,0.007389,-0.010733,62.714752,13.762466,-150.748505,,,
729716274.613053,-1.527369,-2.759461,-80.343175,0.041245,-0.032532,0.983368,0.008414,0.007389,-0.010733,62.714752,13.762466,-150.748505,,,
729716274.617713,-1.527028,-2.760655,-83.422571,0.041245,-0.032532,0.983368,0.000118,-0.011127,-0.008921,62.714752,13.762466,-150.748505,,,
729716274.617973,-1.527028,-2.760658,-80.345692,0.041245,-0.032532,0.983368,0.000118,-0.011127,-0.008921,62.714752,13.762466,-150.748505,,,
729716274.61944,-1.527028,-2.760655,-83.422571,0.041245,-0.032532,0.983368,0.000118,-0.011127,-0.008921,62.714752,13.762466,-150.748505,,,
729716274.619661,-1.527617,-2.767826,-80.348483,0.038605,-0.031311,0.981796,0.000118,-0.011127,-0.008921,62.714752,13.762466,-150.748505,,,
729716274.624234,-1.527617,-2.767823,-83.425362,0.038605,-0.031311,0.981796,0.000118,-0.011127,-0.008921,62.682648,13.913757,-150.710754,,,
729716274.624476,-1.529059,-2.773047,-80.351084,0.038605,-0.031311,0.981796,-0.005303,-0.014428,-0.008178,62.682648,13.913757,-150.710754,,,
729716274.627252,-1.529059,-2.773044,-83.427962,0.038605,-0.031311,0.981796,-0.005303,-0.014428,-0.008178,62.682648,13.913757,-150.710754,,,
729716274.627493,-1.529059,-2.773047,-80.351084,0.038605,-0.031311,0.981796,-0.005303,-0.014428,-0.008178,62.682648,13.913757,-150.710754,,,
729716274.629496,-1.529059,-2.773044,-83.427962,0.038605,-0.031311,0.981796,-0.005303,-0.014428,-0.008178,62.682648,13.913757,-150.710754,,,
729716274.629702,-1.531382,-2.780651,-80.353442,0.041153,-0.0298,0.98613,-0.005303,-0.014428,-0.008178,62.682648,13.913757,-150.710754,,,
729716274.633651,-1.531382,-2.780648,-83.430321,0.041153,-0.0298,0.98613,-0.005303,-0.014428,-0.008178,62.682648,13.913757,-150.710754,,,
729716274.633886,-1.531382,-2.780651,-80.353442,0.041153,-0.0298,0.98613,-0.005303,-0.014428,-0.008178,62.682648,13.913757,-150.710754,,,
729716274.636086,-1.533651,-2.784801,-83.432197,0.041153,-0.0298,0.98613,-0.008516,-0.009204,-0.007115,62.682648,13.913757,-150.710754,,,
729716274.636299,-1.533651,-2.784804,-80.355319,0.041153,-0.0298,0.98613,-0.008516,-0.009204,-0.007115,62.682648,13.913757,-150.710754,,,
729716274.640545,-1.536003,-2.790813,-83.434204,0.045227,-0.027359,0.99202,-0.008516,-0.009204,-0.007115,62.682648,13.913757,-150.710754,,,
729716274.640787,-1.536002,-2.790816,-80.357325,0.045227,-0.027359,0.99202,-0.008516,-0.009204,-0.007115,62.682648,13.913757,-150.710754,,,
729716274.642776,-1.536003,-2.790813,-83.434204,0.045227,-0.027359,0.99202,-0.008516,-0.009204,-0.007115,62.682648,13.913757,-150.710754,,,
729716274.642984,-1.536002,-2.790816,-80.357325,0.045227,-0.027359,0.99202,-0.008516,-0.009204,-0.007115,62.682648,13.913757,-150.710754,,,
729716274.646699,-1.538493,-2.794289,-83.436282,0.045227,-0.027359,0.99202,-0.006006,-0.005882,-0.004409,62.682648,13.913757,-150.710754,,,
729716274.646949,-1.538493,-2.794292,-80.359404,0.045227,-0.027359,0.99202,-0.006006,-0.005882,-0.004409,62.682648,13.913757,-150.710754,,,
729716274.649447,-1.538493,-2.794289,-83.436282,0.048492,-0.02771,0.993698,-0.006006,-0.005882,-0.004409,62.682648,13.913757,-150.710754,,,
729716274.649647,-1.540437,-2.798975,-80.360739,0.048492,-0.02771,0.993698,-0.006006,-0.005882,-0.004409,62.682648,13.913757,-150.710754,,,
729716274.65321,-1.540438,-2.798972,-83.437618,0.048492,-0.02771,0.993698,-0.006006,-0.005882,-0.004409,62.682648,13.913757,-150.710754,,,
