Time (sec),Pitch (deg),Roll (deg),Yaw(deg),X-Acceleration (g),Y-Acceleration (g),Z-Acceleration (g),Pitch Rate (deg/sec),Roll Rate (deg/sec),Yaw Rate (deg/sec),Magnetic Field in X direction (uT),Magnetic Field in Y direction (uT),Magnetic Field in Z Direction (uT),Latitude (deg),Longitude (deg),Altitude (m)
729705355.156717,-3.085515,2.145109,75.789227,-0.037766,-0.055786,0.995239,0.036098,-0.000578,-0.00332,89.132736,38.260895,-147.779175,,,
729705355.160108,-3.085515,2.145109,75.789227,-0.037766,-0.055786,0.995239,0.036098,-0.000578,-0.00332,89.132736,38.260895,-147.779175,,,
729705355.16327,-3.077594,2.144038,75.788248,-0.037766,-0.055786,0.995239,0.036098,-0.000578,-0.00332,88.958771,38.112381,-147.731506,,,
729705355.166717,-3.067771,2.143825,75.788353,-0.039856,-0.049835,0.990829,0.037049,0.005045,0.000286,88.958771,38.112381,-147.731506,,,
729705355.170008,-3.067771,2.143825,75.788353,-0.039856,-0.049835,0.990829,0.037049,0.005045,0.000286,88.958771,38.112381,-147.731506,,,
729705355.173408,-3.059902,2.144584,75.788993,-0.039856,-0.049835,0.990829,0.037049,0.005045,0.000286,88.958771,38.112381,-147.731506,,,
729705355.176677,-3.051709,2.1443,75.788958,-0.043701,-0.042252,0.985703,0.027317,0.00017,-0.000573,88.958771,38.112381,-147.731506,,,
729705355.179976,-3.051709,2.1443,75.788958,-0.043701,-0.042252,0.985703,0.027317,0.00017,-0.000573,88.958771,38.112381,-147.731506,,,
729705355.183407,-3.046143,2.143234,75.788137,-0.043701,-0.042252,0.985703,0.027317,0.00017,-0.000573,88.958771,38.112381,-147.731506,,,
729705355.186675,-3.041096,2.140622,75.786013,-0.038986,-0.03215,0.980682,0.014112,-0.008672,-0.010223,88.958771,38.112381,-147.731506,,,
729705355.190109,-3.041096,2.140622,75.786013,-0.038986,-0.03215,0.980682,0.014112,-0.008672,-0.010223,88.958771,38.112381,-147.731506,,,
729705355.193358,-3.039329,2.137496,75.783001,-0.038986,-0.03215,0.980682,0.014112,-0.008672,-0.010223,88.958771,38.112381,-147.731506,,,
729705355.196397,-3.038982,2.131519,75.779181,-0.034775,-0.025818,0.979309,-0.000747,-0.022628,-0.01781,88.958771,38.112381,-147.731506,,,
729705355.20016,-3.038982,2.131519,75.779181,-0.034775,-0.025818,0.979309,-0.000747,-0.022628,-0.01781,88.958771,38.112381,-147.731506,,,
729705355.203394,-3.042092,2.124844,75.774195,-0.034775,-0.025818,0.979309,-0.000747,-0.022628,-0.01781,88.958771,38.105515,-147.718719,,,
729705355.206692,-3.046286,2.114587,75.768295,-0.033844,-0.023849,0.976807,-0.020815,-0.035297,-0.024259,89.162979,38.105515,-147.718719,,,
729705355.21011,-3.046286,2.114587,75.768295,-0.033844,-0.023849,0.976807,-0.020815,-0.035297,-0.024259,89.162979,38.105515,-147.718719,,,
729705355.213065,-3.054248,2.104533,75.761628,-0.033844,-0.023849,0.976807,-0.020815,-0.035297,-0.024259,89.162979,38.105515,-147.718719,,,
729705355.216788,-3.062716,2.090582,75.754247,-0.032562,-0.025696,0.975586,-0.033577,-0.050148,-0.028918,89.162979,38.105515,-147.718719,,,
729705355.220003,-3.062716,2.090582,75.754247,-0.032562,-0.025696,0.975586,-0.033577,-0.050148,-0.028918,89.162979,38.105515,-147.718719,,,
729705355.223372,-3.074038,2.07514,75.746649,-0.032562,-0.025696,0.975586,-0.033577,-0.050148,-0.028918,89.162979,38.105515,-147.718719,,,
729705355.226691,-3.085852,2.056069,75.739669,-0.0327,-0.032913,0.975586,-0.042126,-0.069838,-0.024512,89.162979,38.105515,-147.718719,,,
729705355.229747,-3.085852,2.056069,75.739669,-0.0327,-0.032913,0.975586,-0.042126,-0.069838,-0.024512,89.162979,38.105515,-147.718719,,,
729705355.233413,-3.099683,2.035208,75.733743,-0.0327,-0.032913,0.975586,-0.042126,-0.069838,-0.024512,89.162979,38.105515,-147.718719,,,
729705355.236671,-3.113736,2.012111,75.728462,-0.03418,-0.036087,0.97612,-0.050434,-0.07851,-0.018147,89.162979,38.105515,-147.718719,,,
729705355.240037,-3.113736,2.012111,75.728462,-0.03418,-0.036087,0.97612,-0.050434,-0.07851,-0.018147,89.162979,38.105515,-147.718719,,,
729705355.243361,-3.128108,1.989118,75.724272,-0.03418,-0.036087,0.97612,-0.050434,-0.07851,-0.018147,89.162979,38.105515,-147.718719,,,
729705355.24635,-3.143401,1.966754,75.720891,-0.026718,-0.036804,0.98407,-0.053059,-0.06509,-0.015376,88.945694,38.23703,-147.767502,,,
729705355.250122,-3.143401,1.966754,75.720891,-0.026718,-0.036804,0.98407,-0.053059,-0.06509,-0.015376,88.945694,38.23703,-147.767502,,,
729705355.253352,-3.158215,1.948809,75.718252,-0.026718,-0.036804,0.98407,-0.053059,-0.06509,-0.015376,88.945694,38.23703,-147.767502,,,
729705355.256712,-3.174749,1.934699,75.715758,-0.018967,-0.035324,0.99025,-0.060061,-0.032071,-0.012853,88.945694,38.23703,-147.767502,,,
729705355.260146,-3.174749,1.934699,75.715758,-0.018967,-0.035324,0.99025,-0.060061,-0.032071,-0.012853,88.945694,38.23703,-147.767502,,,
729705355.263109,-3.189646,1.926799,75.713795,-0.018967,-0.035324,0.99025,-0.060061,-0.032071,-0.012853,88.945694,38.23703,-147.767502,,,
729705355.266766,-3.207033,1.921491,75.712814,-0.021637,-0.038864,0.991608,-0.059808,-0.007026,-0.005206,88.945694,38.23703,-147.767502,,,
729705355.270014,-3.207033,1.921491,75.712814,-0.021637,-0.038864,0.991608,-0.059808,-0.007026,-0.005206,88.945694,38.23703,-147.767502,,,
729705355.273372,-3.220938,1.91959,75.712661,-0.021637,-0.038864,0.991608,-0.059808,-0.007026,-0.005206,88.945694,38.23703,-147.767502,,,
729705355.276689,-3.238692,1.918586,75.713328,-0.024429,-0.037872,0.991318,-0.064787,0.001052,0.001021,88.945694,38.23703,-147.767502,,,
729705355.279709,-3.238692,1.918586,75.713328,-0.024429,-0.037872,0.991318,-0.064787,0.001052,0.001021,88.945694,38.23703,-147.767502,,,
729705355.283402,-3.253406,1.918393,75.714297,-0.024429,-0.037872,0.991318,-0.064787,0.001052,0.001021,88.945694,38.23703,-147.767502,,,
729705355.28667,-3.273715,1.917921,75.715044,-0.025177,-0.037186,0.986938,-0.072568,-0.003079,-0.003315,88.826843,38.397308,-147.850082,,,
729705355.290074,-3.273715,1.917921,75.715044,-0.025177,-0.037186,0.986938,-0.072568,-0.003079,-0.003315,88.826843,38.397308,-147.850082,,,
729705355.293384,-3.291126,1.915797,75.715418,-0.025177,-0.037186,0.986938,-0.072568,-0.003079,-0.003315,88.826843,38.397308,-147.850082,,,
729705355.29644,-3.313805,1.911089,75.714764,-0.025177,-0.037186,0.986938,-0.072568,-0.003079,-0.003315,88.826843,38.397308,-147.850082,,,
729705355.300062,-3.313805,1.911089,75.714764,-0.025284,-0.036499,0.983536,-0.083434,-0.020485,-0.009189,88.826843,38.397308,-147.850082,,,
729705355.303339,-3.335322,1.903693,75.712955,-0.025284,-0.036499,0.983536,-0.083434,-0.020485,-0.009189,88.826843,38.397308,-147.850082,,,
729705355.306688,-3.362629,1.894753,75.710117,-0.024673,-0.041412,0.982986,-0.095039,-0.031555,-0.017794,88.826843,38.397308,-147.850082,,,
729705355.310032,-3.362629,1.894753,75.710117,-0.024673,-0.041412,0.982986,-0.095039,-0.031555,-0.017794,88.826843,38.397308,-147.850082,,,
729705355.3131,-3.362629,1.894753,75.710117,-0.024673,-0.041412,0.982986,-0.095039,-0.031555,-0.017794,88.826843,38.397308,-147.850082,,,
729705355.316729,-3.418491,1.873807,75.700535,-0.029617,-0.051468,0.98674,-0.107802,-0.034714,-0.026909,88.826843,38.397308,-147.850082,,,
729705355.320034,-3.418491,1.873807,75.700535,-0.029617,-0.051468,0.98674,-0.107802,-0.034714,-0.026909,88.826843,38.397308,-147.850082,,,
729705355.324249,-3.447127,1.861613,75.695303,-0.029617,-0.051468,0.98674,-0.107802,-0.034714,-0.026909,88.826843,38.397308,-147.850082,,,
729705355.326589,-3.479283,1.848296,75.690343,-0.035461,-0.061371,0.985046,-0.111214,-0.044227,-0.021118,88.745041,38.582336,-147.985718,,,
729705355.330028,-3.479283,1.848296,75.690343,-0.035461,-0.061371,0.985046,-0.111214,-0.044227,-0.021118,88.745041,38.582336,-147.985718,,,
729705355.333352,-3.509452,1.83326,75.68563,-0.035461,-0.061371,0.985046,-0.111214,-0.044227,-0.021118,88.745041,38.582336,-147.985718,,,
729705355.336702,-3.542056,1.818802,75.682161,-0.038055,-0.066269,0.988098,-0.111908,-0.048766,-0.012933,88.745041,38.582336,-147.985718,,,
729705355.34009,-3.542056,1.818802,75.682161,-0.038055,-0.066269,0.988098,-0.111908,-0.048766,-0.012933,88.745041,38.582336,-147.985718,,,
729705355.343359,-3.571941,1.803017,75.680318,-0.038055,-0.066269,0.988098,-0.111908,-0.048766,-0.012933,88.745041,38.582336,-147.985718,,,
729705355.346428,-3.571941,1.803017,75.680318,-0.038055,-0.066269,0.988098,-0.111908,-0.048766,-0.012933,88.745041,38.582336,-147.985718,,,
729705355.350068,-3.603703,1.789529,75.680408,-0.037277,-0.07312,0.994995,-0.104971,-0.038469,0.00048,88.745041,38.582336,-147.985718,,,
729705355.353346,-3.631041,1.776379,75.682349,-0.037277,-0.07312,0.994995,-0.104971,-0.038469,0.00048,88.745041,38.582336,-147.985718,,,
729705355.356695,-3.660156,1.764203,75.685581,-0.03743,-0.082245,1.005432,-0.099025,-0.044671,0.007766,88.745041,38.582336,-147.985718,,,
729705355.360044,-3.660156,1.764203,75.685581,-0.03743,-0.082245,1.005432,-0.099025,-0.044671,0.007766,88.745041,38.582336,-147.985718,,,
729705355.363068,-3.684403,1.749841,75.689009,-0.03743,-0.082245,1.005432,-0.099025,-0.044671,0.007766,88.745041,38.582336,-147.985718,,,
729705355.366756,-3.710527,1.734259,75.692555,-0.037781,-0.087051,1.007751,-0.086811,-0.057561,0.006495,88.745041,38.582336,-147.985718,,,
729705355.370016,-3.710527,1.734259,75.692555,-0.037781,-0.087051,1.007751,-0.086811,-0.057561,0.006495,88.636658,38.760284,-147.720947,,,
729705355.373363,-3.730285,1.71599,75.695005,-0.037781,-0.087051,1.007751,-0.086811,-0.057561,0.006495,88.636658,38.760284,-147.720947,,,
729705355.37671,-3.753506,1.696141,75.696036,-0.040436,-0.088577,1.009308,-0.081219,-0.073966,-0.002491,88.636658,38.760284,-147.720947,,,
729705355.379719,-3.753506,1.696141,75.696036,-0.040436,-0.088577,1.009308,-0.081219,-0.073966,-0.002491,88.636658,38.760284,-147.720947,,,
729705355.383381,-3.772645,1.672615,75.695875,-0.040436,-0.088577,1.009308,-0.081219,-0.073966,-0.002491,88.636658,38.760284,-147.720947,,,
729705355.386664,-3.796471,1.645359,75.694339,-0.040726,-0.090393,1.00415,-0.08096,-0.103836,-0.015652,88.636658,38.760284,-147.720947,,,
729705355.389831,-3.796471,1.645359,75.694339,-0.040726,-0.090393,1.00415,-0.08096,-0.103836,-0.015652,88.636658,38.760284,-147.720947,,,
729705355.39339,-3.817494,1.612207,75.691744,-0.040726,-0.090393,1.00415,-0.08096,-0.103836,-0.015652,88.636658,38.760284,-147.720947,,,
729705355.396425,-3.817494,1.612207,75.691744,-0.040726,-0.090393,1.00415,-0.08096,-0.103836,-0.015652,88.636658,38.760284,-147.720947,,,
729705355.400052,-3.840487,1.574175,75.68924,-0.043732,-0.098984,1.000534,-0.078919,-0.141834,-0.007049,88.636658,38.760284,-147.720947,,,
729705355.403341,-3.860742,1.532956,75.688014,-0.043732,-0.098984,1.000534,-0.078919,-0.141834,-0.007049,88.636658,38.760284,-147.720947,,,
729705355.406741,-3.880082,1.489421,75.688349,-0.046692,-0.107437,1.009995,-0.056297,-0.148322,0.003669,88.636658,38.760284,-147.720947,,,
729705355.410016,-3.880082,1.489421,75.688349,-0.046692,-0.107437,1.009995,-0.056297,-0.148322,0.003669,88.330643,38.823196,-147.502045,,,
729705355.413036,-3.895051,1.448607,75.690289,-0.046692,-0.107437,1.009995,-0.056297,-0.148322,0.003669,88.330643,38.823196,-147.502045,,,
729705355.416716,-3.90552,1.41173,75.693451,-0.033218,-0.105286,1.026688,-0.019413,-0.107884,0.010618,88.330643,38.823196,-147.502045,,,
729705355.420004,-3.90552,1.41173,75.693451,-0.033218,-0.105286,1.026688,-0.019413,-0.107884,0.010618,88.330643,38.823196,-147.502045,,,
729705355.423376,-3.910488,1.383737,75.697523,-0.033218,-0.105286,1.026688,-0.019413,-0.107884,0.010618,88.330643,38.823196,-147.502045,,,
729705355.426717,-3.909379,1.36335,75.701851,-0.016785,-0.098404,1.040176,0.01882,-0.046963,0.020066,88.330643,38.823196,-147.502045,,,
729705355.429787,-3.909379,1.36335,75.701851,-0.016785,-0.098404,1.040176,0.01882,-0.046963,0.020066,88.330643,38.823196,-147.502045,,,
729705355.433403,-3.904084,1.354236,75.707187,-0.016785,-0.098404,1.040176,0.01882,-0.046963,0.020066,88.330643,38.823196,-147.502045,,,
729705355.436696,-3.893418,1.351393,75.71403,-0.012741,-0.095352,1.032288,0.047909,0.007981,0.028619,88.330643,38.823196,-147.502045,,,
729705355.440085,-3.893418,1.351393,75.71403,-0.012741,-0.095352,1.032288,0.047909,0.007981,0.028619,88.330643,38.823196,-147.502045,,,
729705355.443356,-3.882815,1.35655,75.722998,-0.012741,-0.095352,1.032288,0.047909,0.007981,0.028619,88.330643,38.823196,-147.502045,,,
729705355.446355,-3.882815,1.35655,75.722998,-0.012741,-0.095352,1.032288,0.047909,0.007981,0.028619,88.330643,38.823196,-147.502045,,,
729705355.450061,-3.868459,1.365146,75.734144,-0.019485,-0.091751,1.0177,0.055182,0.039401,0.044517,88.100861,39.005447,-147.899384,,,
729705355.453335,-3.855993,1.379642,75.747654,-0.019485,-0.091751,1.0177,0.055182,0.039401,0.044517,88.100861,39.005447,-147.899384,,,
729705355.456729,-3.855993,1.393813,75.762564,-0.019485,-0.091751,1.0177,0.057721,0.052795,0.05548,88.100861,39.005447,-147.899384,,,
729705355.460032,-3.839533,1.393813,75.762564,-0.021713,-0.085236,1.008728,0.057721,0.052795,0.05548,88.100861,39.005447,-147.899384,,,
729705355.463114,-3.825476,1.411751,75.778289,-0.021713,-0.085236,1.008728,0.057721,0.052795,0.05548,88.100861,39.005447,-147.899384,,,
729705355.4667,-3.825476,1.411751,75.778289,-0.021713,-0.085236,1.008728,0.057721,0.052795,0.05548,88.100861,39.005447,-147.899384,,,
729705355.470016,-3.808682,1.427181,75.792748,-0.021515,-0.077469,1.000717,0.055114,0.052053,0.04452,88.100861,39.005447,-147.899384,,,
729705355.473348,-3.796291,1.444061,75.805186,-0.021515,-0.077469,1.000717,0.055114,0.052053,0.04452,88.100861,39.005447,-147.899384,,,
729705355.47673,-3.796291,1.444061,75.805186,-0.021515,-0.077469,1.000717,0.055114,0.052053,0.04452,88.100861,39.005447,-147.899384,,,
729705355.479702,-3.780859,1.457478,75.815814,-0.025864,-0.067535,0.993515,0.049294,0.045827,0.031129,88.100861,39.005447,-147.899384,,,
729705355.483383,-3.772007,1.472284,75.824687,-0.025864,-0.067535,0.993515,0.049294,0.045827,0.031129,88.100861,39.005447,-147.899384,,,
729705355.486673,-3.772007,1.472284,75.824687,-0.025864,-0.067535,0.993515,0.049294,0.045827,0.031129,88.100861,39.005447,-147.899384,,,
729705355.490034,-3.760315,1.482439,75.830473,-0.025955,-0.058563,0.989334,0.035524,0.03379,0.012003,88.409988,38.884628,-147.999039,,,
729705355.493337,-3.756047,1.492499,75.833015,-0.025955,-0.058563,0.989334,0.035524,0.03379,0.012003,88.409988,38.884628,-147.999039,,,
729705355.496505,-3.756047,1.492499,75.833015,-0.025955,-0.058563,0.989334,0.035524,0.03379,0.012003,88.409988,38.884628,-147.999039,,,
729705355.500039,-3.748398,1.498661,75.832295,-0.023148,-0.054291,0.984634,0.019687,0.019386,-0.011114,88.409988,38.884628,-147.999039,,,
729705355.503343,-3.747984,1.502086,75.828655,-0.023148,-0.054291,0.984634,0.019687,0.019386,-0.011114,88.409988,38.884628,-147.999039,,,
729705355.506759,-3.747984,1.502086,75.828655,-0.023148,-0.054291,0.984634,0.019687,0.019386,-0.011114,88.409988,38.884628,-147.999039,,,
729705355.51002,-3.746162,1.503111,75.822122,-0.020905,-0.051636,0.982239,-0.001005,0.003171,-0.02954,88.409988,38.884628,-147.999039,,,
729705355.513064,-3.751296,1.500212,75.813607,-0.020905,-0.051636,0.982239,-0.001005,0.003171,-0.02954,88.409988,38.884628,-147.999039,,,
729705355.516763,-3.751296,1.500212,75.804296,-0.020905,-0.051636,0.982239,-0.001005,0.003171,-0.02954,88.409988,38.884628,-147.999039,,,
729705355.519993,-3.754071,1.498735,75.804296,-0.020737,-0.050064,0.985809,-0.01261,-0.000727,-0.035965,88.409988,38.884628,-147.999039,,,
729705355.52337,-3.763259,1.495292,75.79427,-0.020737,-0.050064,0.985809,-0.01261,-0.000727,-0.035965,88.409988,38.884628,-147.999039,,,
729705355.526699,-3.763259,1.495292,75.79427,-0.020737,-0.050064,0.985809,-0.01261,-0.000727,-0.035965,88.409988,38.884628,-147.999039,,,
729705355.52978,-3.770225,1.493695,75.784705,-0.020416,-0.051926,0.993103,-0.028972,-0.000745,-0.034504,88.409988,38.884628,-147.999039,,,
729705355.533381,-3.782137,1.491053,75.776003,-0.020416,-0.051926,0.993103,-0.028972,-0.000745,-0.034504,88.472534,38.713821,-147.920029,,,
729705355.536732,-3.782137,1.491053,75.776003,-0.020416,-0.051926,0.993103,-0.028972,-0.000745,-0.034504,88.472534,38.713821,-147.920029,,,
729705355.540014,-3.79094,1.488598,75.768958,-0.020691,-0.057892,0.99321,-0.030684,-0.003708,-0.023238,88.472534,38.713821,-147.920029,,,
729705355.543344,-3.802398,1.48456,75.763574,-0.020691,-0.057892,0.99321,-0.030684,-0.003708,-0.023238,88.472534,38.713821,-147.920029,,,
729705355.546381,-3.802398,1.48456,75.763574,-0.020691,-0.057892,0.99321,-0.030684,-0.003708,-0.023238,88.472534,38.713821,-147.920029,,,
729705355.550052,-3.811708,1.480118,75.75986,-0.020508,-0.059357,0.994644,-0.028341,-0.013952,-0.010855,88.472534,38.713821,-147.920029,,,
729705355.553341,-3.821036,1.475013,75.757457,-0.020508,-0.059357,0.994644,-0.028341,-0.013952,-0.010855,88.472534,38.713821,-147.920029,,,
729705355.556768,-3.821036,1.475013,75.757457,-0.020508,-0.059357,0.994644,-0.028341,-0.013952,-0.010855,88.472534,38.713821,-147.920029,,,
729705355.56002,-3.827462,1.470706,75.755934,-0.01799,-0.054504,0.997833,-0.014621,-0.00963,-0.003198,88.472534,38.713821,-147.920029,,,
729705355.563122,-3.83013,1.467423,75.755293,-0.01799,-0.054504,0.997833,-0.014621,-0.00963,-0.003198,88.472534,38.713821,-147.920029,,,
729705355.566879,-3.83013,1.467423,75.755734,-0.01799,-0.054504,0.997833,-0.014621,-0.00963,-0.003198,88.472534,38.713821,-147.920029,,,
729705355.570007,-3.831015,1.4662,75.755734,-0.017502,-0.051758,0.999451,0.000899,0.006894,2.8e-05,88.472534,38.713821,-147.920029,,,
729705355.573357,-3.828478,1.467409,75.756521,-0.017502,-0.051758,0.999451,0.000899,0.006894,2.8e-05,88.51767,38.958893,-148.22673,,,
729705355.576745,-3.828478,1.467409,75.756521,-0.017502,-0.051758,0.999451,0.000899,0.006894,2.8e-05,88.51767,38.958893,-148.22673,,,
729705355.579776,-3.826318,1.470547,75.757296,-0.013641,-0.050888,0.997406,0.006584,0.01855,0.001714,88.51767,38.958893,-148.22673,,,
729705355.58337,-3.821681,1.473571,75.758408,-0.013641,-0.050888,0.997406,0.006584,0.01855,0.001714,88.51767,38.958893,-148.22673,,,
729705355.586719,-3.821681,1.473571,75.758408,-0.013641,-0.050888,0.997406,0.006584,0.01855,0.001714,88.51767,38.958893,-148.22673,,,
729705355.590034,-3.819429,1.476603,75.759736,-0.014465,-0.053131,0.983704,0.005188,0.011391,0.00263,88.51767,38.958893,-148.22673,,,
729705355.593345,-3.816041,1.47771,75.761278,-0.014465,-0.053131,0.983704,0.005188,0.011391,0.00263,88.51767,38.958893,-148.22673,,,
729705355.596469,-3.816041,1.47771,75.761278,-0.014465,-0.053131,0.983704,0.005188,0.011391,0.00263,88.51767,38.958893,-148.22673,,,
729705355.600051,-3.816567,1.478507,75.762014,-0.01265,-0.051804,0.976547,-0.005988,0.00842,-0.000961,88.51767,38.958893,-148.22673,,,
729705355.603333,-3.816452,1.478341,75.760909,-0.01265,-0.051804,0.976547,-0.005988,0.00842,-0.000961,88.51767,38.958893,-148.22673,,,
729705355.606752,-3.816452,1.478341,75.760909,-0.01265,-0.051804,0.976547,-0.005988,0.00842,-0.000961,88.51767,38.958893,-148.22673,,,
729705355.610011,-3.821708,1.478737,75.758053,-0.008667,-0.045258,0.975769,-0.024445,0.00426,-0.014651,88.51767,38.958893,-148.22673,,,
729705355.613043,-3.827692,1.477545,75.753617,-0.008667,-0.045258,0.975769,-0.024445,0.00426,-0.014651,88.324356,38.680099,-147.929459,,,
729705355.616824,-3.827692,1.477545,75.753617,-0.008667,-0.045258,0.975769,-0.024445,0.00426,-0.014651,88.324356,38.680099,-147.929459,,,
729705355.619996,-3.83802,1.477393,75.747693,-0.008392,-0.046616,0.975723,-0.039916,0.006457,-0.030308,88.324356,38.680099,-147.929459,,,
729705355.623364,-3.849316,1.477374,75.739748,-0.008392,-0.046616,0.975723,-0.039916,0.006457,-0.030308,88.324356,38.680099,-147.929459,,,
729705355.626706,-3.849316,1.477374,75.739748,-0.008392,-0.046616,0.975723,-0.039916,0.006457,-0.030308,88.324356,38.680099,-147.929459,,,
729705355.629786,-3.86268,1.479969,75.73084,-0.012955,-0.052612,0.978165,-0.045475,0.019695,-0.037831,88.324356,38.680099,-147.929459,,,
729705355.633372,-3.874741,1.483486,75.720717,-0.012955,-0.052612,0.978165,-0.045475,0.019695,-0.037831,88.324356,38.680099,-147.929459,,,
729705355.636686,-3.874741,1.483486,75.720717,-0.012955,-0.052612,0.978165,-0.045475,0.019695,-0.037831,88.324356,38.680099,-147.929459,,,
729705355.6401,-3.888132,1.488813,75.709375,-0.016998,-0.056213,0.983658,-0.04502,0.023371,-0.043844,88.324356,38.680099,-147.929459,,,
729705355.643336,-3.899279,1.492723,75.697063,-0.016998,-0.056213,0.983658,-0.04502,0.023371,-0.043844,88.324356,38.680099,-147.929459,,,
729705355.646411,-3.899279,1.492723,75.697063,-0.016998,-0.056213,0.983658,-0.04502,0.023371,-0.043844,88.324356,38.680099,-147.929459,,,
729705355.650077,-3.911545,1.496867,75.683893,-0.020203,-0.062607,0.977768,-0.035705,0.021009,-0.051773,88.324356,38.680099,-147.929459,,,
729705355.653379,-3.91982,1.499434,75.669796,-0.020203,-0.062607,0.977768,-0.035705,0.021009,-0.051773,88.442902,39.104782,-147.935165,,,
729705355.656706,-3.91982,1.499434,75.669796,-0.020203,-0.062607,0.977768,-0.035705,0.021009,-0.051773,88.442902,39.104782,-147.935165,,,
729705355.66004,-3.928883,1.503773,75.654754,-0.024719,-0.065659,0.975433,-0.025808,0.025479,-0.055975,88.442902,39.104782,-147.935165,,,
729705355.663127,-3.935336,1.506705,75.639554,-0.024719,-0.065659,0.975433,-0.025808,0.025479,-0.055975,88.442902,39.104782,-147.935165,,,
729705355.666707,-3.935336,1.506705,75.639554,-0.024719,-0.065659,0.975433,-0.025808,0.025479,-0.055975,88.442902,39.104782,-147.935165,,,
729705355.670028,-3.943209,1.510789,75.624793,-0.027664,-0.066818,0.972839,-0.022482,0.021123,-0.052784,88.442902,39.104782,-147.935165,,,
729705355.673452,-3.948817,1.513866,75.609818,-0.027664,-0.066818,0.972839,-0.022482,0.021123,-0.052784,88.442902,39.104782,-147.935165,,,
729705355.676754,-3.948817,1.513866,75.609818,-0.027664,-0.066818,0.972839,-0.022482,0.021123,-0.052784,88.442902,39.104782,-147.935165,,,
729705355.679743,-3.956387,1.519321,75.59514,-0.025787,-0.067276,0.972778,-0.025637,0.031438,-0.05108,88.442902,39.104782,-147.935165,,,
729705355.683375,-3.96297,1.524967,75.580679,-0.025787,-0.067276,0.972778,-0.025637,0.031438,-0.05108,88.442902,39.104782,-147.935165,,,
729705355.686674,-3.96297,1.524967,75.580679,-0.025787,-0.067276,0.972778,-0.025637,0.031438,-0.05108,88.442902,39.104782,-147.935165,,,
729705355.690027,-3.973524,1.534594,75.566245,-0.021561,-0.069901,0.976257,-0.043579,0.048152,-0.053074,88.442902,39.104782,-147.935165,,,
729705355.693336,-3.983638,1.545015,75.55139,-0.021561,-0.069901,0.976257,-0.043579,0.048152,-0.053074,88.442902,39.104782,-147.935165,,,
729705355.696482,-3.983638,1.545015,75.55139,-0.021561,-0.069901,0.976257,-0.043579,0.048152,-0.053074,88.698563,38.85289,-148.152115,,,
729705355.700045,-3.998708,1.559861,75.53616,-0.023605,-0.071381,0.97644,-0.058914,0.066952,-0.056951,88.698563,38.85289,-148.152115,,,
729705355.70334,-4.015323,1.57584,75.519842,-0.023605,-0.071381,0.97644,-0.058914,0.066952,-0.056951,88.698563,38.85289,-148.152115,,,
729705355.706674,-4.015323,1.57584,75.519842,-0.023605,-0.071381,0.97644,-0.058914,0.066952,-0.056951,88.698563,38.85289,-148.152115,,,
729705355.710005,-4.035032,1.595631,75.502504,-0.026779,-0.069397,0.978409,-0.068099,0.080008,-0.067591,88.698563,38.85289,-148.152115,,,
729705355.713052,-4.053223,1.614953,75.483843,-0.026779,-0.069397,0.978409,-0.068099,0.080008,-0.067591,88.698563,38.85289,-148.152115,,,
729705355.716711,-4.053223,1.614953,75.483843,-0.026779,-0.069397,0.978409,-0.068099,0.080008,-0.067591,88.698563,38.85289,-148.152115,,,
729705355.720025,-4.072419,1.635209,75.464257,-0.036331,-0.074493,0.983932,-0.061537,0.075813,-0.073635,88.698563,38.85289,-148.152115,,,
729705355.723364,-4.08952,1.653401,75.444213,-0.036331,-0.074493,0.983932,-0.061537,0.075813,-0.073635,88.698563,38.85289,-148.152115,,,
729705355.726694,-4.08952,1.653401,75.444213,-0.036331,-0.074493,0.983932,-0.061537,0.075813,-0.073635,88.698563,38.85289,-148.152115,,,
729705355.729785,-4.106111,1.669909,75.423675,-0.049301,-0.0811,0.98587,-0.050015,0.059139,-0.078396,88.698563,38.85289,-148.152115,,,
729705355.733377,-4.121071,1.683138,75.401919,-0.049301,-0.0811,0.98587,-0.050015,0.059139,-0.078396,88.698563,38.85289,-148.152115,,,
729705355.736671,-4.121071,1.683138,75.401919,-0.049301,-0.0811,0.98587,-0.050015,0.059139,-0.078396,88.466354,39.270691,-148.072281,,,
729705355.740028,-4.135403,1.693742,75.379168,-0.052734,-0.080383,0.989151,-0.043814,0.037924,-0.083763,88.466354,39.270691,-148.072281,,,
729705355.743339,-4.14841,1.700451,75.355994,-0.052734,-0.080383,0.989151,-0.043814,0.037924,-0.083763,88.466354,39.270691,-148.072281,,,
729705355.746392,-4.14841,1.700451,75.355994,-0.052734,-0.080383,0.989151,-0.043814,0.037924,-0.083763,88.466354,39.270691,-148.072281,,,
729705355.750061,-4.161265,1.703367,75.332856,-0.057877,-0.082184,0.989929,-0.038981,0.008743,-0.080787,88.466354,39.270691,-148.072281,,,
729705355.753336,-4.172982,1.703485,75.310159,-0.057877,-0.082184,0.989929,-0.038981,0.008743,-0.080787,88.466354,39.270691,-148.072281,,,
729705355.756702,-4.172982,1.703485,75.310159,-0.057877,-0.082184,0.989929,-0.038981,0.008743,-0.080787,88.466354,39.270691,-148.072281,,,
729705355.76004,-4.183971,1.702481,75.288136,-0.056732,-0.083755,0.996689,-0.035706,0.002841,-0.076843,88.466354,39.270691,-148.072281,,,
729705355.763133,-4.193891,1.700857,75.267269,-0.056732,-0.083755,0.996689,-0.035706,0.002841,-0.076843,88.466354,39.270691,-148.072281,,,
729705355.766747,-4.193891,1.700857,75.267269,-0.056732,-0.083755,0.996689,-0.035706,0.002841,-0.076843,88.466354,39.270691,-148.072281,,,
729705355.770022,-4.203284,1.701275,75.247697,-0.052048,-0.084244,1.006744,-0.02952,0.015511,-0.068874,88.466354,39.270691,-148.072281,,,
729705355.773333,-4.211505,1.703673,75.229436,-0.052048,-0.084244,1.006744,-0.02952,0.015511,-0.068874,88.466354,39.270691,-148.072281,,,
729705355.776673,-4.211505,1.703673,75.229436,-0.052048,-0.084244,1.006744,-0.02952,0.015511,-0.068874,88.76712,39.251511,-148.028137,,,
729705355.779832,-4.217867,1.709814,75.212796,-0.045471,-0.086838,1.014847,-0.016422,0.036351,-0.055625,88.76712,39.251511,-148.028137,,,
729705355.783367,-4.221504,1.717828,75.19774,-0.045471,-0.086838,1.014847,-0.016422,0.036351,-0.055625,88.76712,39.251511,-148.028137,,,
729705355.786687,-4.221504,1.717828,75.19774,-0.045471,-0.086838,1.014847,-0.016422,0.036351,-0.055625,88.76712,39.251511,-148.028137,,,
729705355.790033,-4.223026,1.730121,75.184538,-0.037018,-0.086197,1.018951,0.003468,0.058644,-0.043334,88.76712,39.251511,-148.028137,,,
729705355.793341,-4.222396,1.746225,75.173439,-0.037018,-0.086197,1.018951,0.003468,0.058644,-0.043334,88.76712,39.251511,-148.028137,,,
729705355.796485,-4.222396,1.746225,75.173439,-0.037018,-0.086197,1.018951,0.003468,0.058644,-0.043334,88.76712,39.251511,-148.028137,,,
729705355.800038,-4.220102,1.765577,75.164071,-0.033783,-0.084518,1.021286,0.014835,0.080426,-0.029303,88.76712,39.251511,-148.028137,,,
729705355.80333,-4.217174,1.789732,75.156388,-0.033783,-0.084518,1.021286,0.014835,0.080426,-0.029303,88.76712,39.251511,-148.028137,,,
729705355.806677,-4.217174,1.789732,75.156388,-0.033783,-0.084518,1.021286,0.014835,0.080426,-0.029303,88.76712,39.251511,-148.028137,,,
729705355.809998,-4.212128,1.810996,75.150319,-0.033112,-0.081604,1.01593,0.02073,0.074985,-0.019775,88.76712,39.251511,-148.028137,,,
729705355.813053,-4.20812,1.833392,75.145424,-0.033112,-0.081604,1.01593,0.02073,0.074985,-0.019775,88.76712,39.251511,-148.028137,,,
729705355.816753,-4.20812,1.833392,75.145424,-0.033112,-0.081604,1.01593,0.02073,0.074985,-0.019775,88.740219,39.310638,-148.093658,,,
729705355.819992,-4.202999,1.849237,75.140156,-0.027878,-0.074371,1.00177,0.014798,0.050833,-0.019467,88.740219,39.310638,-148.093658,,,
729705355.823371,-4.200354,1.86561,75.134115,-0.027878,-0.074371,1.00177,0.014798,0.050833,-0.019467,88.740219,39.310638,-148.093658,,,
729705355.826716,-4.200354,1.86561,75.134115,-0.027878,-0.074371,1.00177,0.014798,0.050833,-0.019467,88.740219,39.310638,-148.093658,,,
729705355.829871,-4.198292,1.87527,75.126313,-0.023239,-0.064789,0.998672,0.004724,0.028098,-0.032459,88.740219,39.310638,-148.093658,,,
729705355.833368,-4.198876,1.885677,75.116872,-0.023239,-0.064789,0.998672,0.004724,0.028098,-0.032459,88.740219,39.310638,-148.093658,,,
729705355.836679,-4.198876,1.885677,75.116872,-0.023239,-0.064789,0.998672,0.004724,0.028098,-0.032459,88.740219,39.310638,-148.093658,,,
729705355.840024,-4.19888,1.889015,75.104262,-0.021881,-0.057648,1.000854,-0.002555,0.011571,-0.054273,88.740219,39.310638,-148.093658,,,
729705355.843334,-4.201967,1.893392,75.088676,-0.021881,-0.057648,1.000854,-0.002555,0.011571,-0.054273,88.740219,39.310638,-148.093658,,,
729705355.846399,-4.201967,1.893392,75.088676,-0.021881,-0.057648,1.000854,-0.002555,0.011571,-0.054273,88.740219,39.310638,-148.093658,,,
729705355.850034,-4.203749,1.891767,75.070087,-0.017426,-0.055054,0.998123,-0.0024,-0.003676,-0.070181,88.740219,39.310638,-148.093658,,,
729705355.853336,-4.207489,1.891145,75.050028,-0.017426,-0.055054,0.998123,-0.0024,-0.003676,-0.070181,88.740219,39.310638,-148.093658,,,
729705355.856701,-4.207489,1.891145,75.050028,-0.017426,-0.055054,0.998123,-0.0024,-0.003676,-0.070181,88.740219,39.310638,-148.093658,,,
729705355.860035,-4.209372,1.888028,75.028903,-0.019608,-0.054886,1.000519,0.000292,-0.002347,-0.078221,88.791382,39.3284,-148.338501,,,
729705355.863137,-4.21239,1.887035,75.007199,-0.019608,-0.054886,1.000519,0.000292,-0.002347,-0.078221,88.791382,39.3284,-148.338501,,,
729705355.866782,-4.21239,1.887035,75.007199,-0.019608,-0.054886,1.000519,0.000292,-0.002347,-0.078221,88.791382,39.3284,-148.338501,,,
729705355.870022,-4.212984,1.885256,74.985664,-0.019684,-0.056732,1.002686,0.00272,0.001173,-0.072795,88.791382,39.3284,-148.338501,,,
729705355.87334,-4.215289,1.883313,74.965725,-0.019684,-0.056732,1.002686,0.00272,0.001173,-0.072795,88.791382,39.3284,-148.338501,,,
729705355.876682,-4.215289,1.883313,74.965725,-0.019684,-0.056732,1.002686,0.00272,0.001173,-0.072795,88.791382,39.3284,-148.338501,,,
729705355.879754,-4.215443,1.880426,74.948315,-0.023376,-0.062454,0.995605,0.005818,-0.004805,-0.054209,88.791382,39.3284,-148.338501,,,
729705355.883376,-4.215518,1.877775,74.933309,-0.023376,-0.062454,0.995605,0.005818,-0.004805,-0.054209,88.791382,39.3284,-148.338501,,,
729705355.886686,-4.215518,1.877775,74.933309,-0.023376,-0.062454,0.995605,0.005818,-0.004805,-0.054209,88.791382,39.3284,-148.338501,,,
729705355.890042,-4.214023,1.876042,74.92037,-0.025192,-0.065109,0.997208,0.007411,0.005177,-0.03719,88.791382,39.3284,-148.338501,,,
729705355.893352,-4.213179,1.875711,74.910064,-0.025192,-0.065109,0.997208,0.007411,0.005177,-0.03719,88.791382,39.3284,-148.338501,,,
729705355.896477,-4.213179,1.875711,74.910064,-0.025192,-0.065109,0.997208,0.007411,0.005177,-0.03719,88.791382,39.3284,-148.338501,,,
729705355.900064,-4.211913,1.877544,74.902251,-0.023727,-0.066559,1.000687,0.003347,0.014017,-0.023653,88.839783,39.398422,-147.807739,,,
729705355.903341,-4.210946,1.879153,74.895666,-0.023727,-0.066559,1.000687,0.003347,0.014017,-0.023653,88.839783,39.398422,-147.807739,,,
729705355.90667,-4.210946,1.879153,74.895666,-0.023727,-0.066559,1.000687,0.003347,0.014017,-0.023653,88.839783,39.398422,-147.807739,,,
729705355.910021,-4.211715,1.882735,74.889726,-0.024963,-0.065781,0.998169,-0.00527,0.022112,-0.01925,88.839783,39.398422,-147.807739,,,
729705355.913059,-4.211949,1.885723,74.884004,-0.024963,-0.065781,0.998169,-0.00527,0.022112,-0.01925,88.839783,39.398422,-147.807739,,,
729705355.916751,-4.211949,1.885723,74.884004,-0.024963,-0.065781,0.998169,-0.00527,0.022112,-0.01925,88.839783,39.398422,-147.807739,,,
729705355.920009,-4.215588,1.890524,74.877692,-0.024994,-0.060669,1.000229,-0.015062,0.022614,-0.026623,88.839783,39.398422,-147.807739,,,
729705355.923366,-4.217386,1.892947,74.869753,-0.024994,-0.060669,1.000229,-0.015062,0.022614,-0.026623,88.839783,39.398422,-147.807739,,,
729705355.926696,-4.217386,1.892947,74.869753,-0.024994,-0.060669,1.000229,-0.015062,0.022614,-0.026623,88.839783,39.398422,-147.807739,,,
729705355.929794,-4.222562,1.897285,74.860642,-0.027512,-0.05928,1.003937,-0.019246,0.01941,-0.040215,88.839783,39.398422,-147.807739,,,
729705355.933366,-4.224571,1.898326,74.85006,-0.027512,-0.05928,1.003937,-0.019246,0.01941,-0.040215,88.839783,39.398422,-147.807739,,,
729705355.93666,-4.224571,1.898326,74.85006,-0.027512,-0.05928,1.003937,-0.019246,0.01941,-0.040215,88.839783,39.398422,-147.807739,,,
729705355.940001,-4.229258,1.900148,74.838219,-0.036148,-0.062103,1.002396,-0.012944,0.006183,-0.046459,88.759979,39.397537,-147.915619,,,
729705355.943333,-4.230379,1.897458,74.825154,-0.036148,-0.062103,1.002396,-0.012944,0.006183,-0.046459,88.759979,39.397537,-147.915619,,,
729705355.946467,-4.230379,1.897458,74.825154,-0.036148,-0.062103,1.002396,-0.012944,0.006183,-0.046459,88.759979,39.397537,-147.915619,,,
729705355.950075,-4.23283,1.894674,74.811767,-0.039383,-0.067413,1.001007,-0.002029,-0.011145,-0.046384,88.759979,39.397537,-147.915619,,,
729705355.953329,-4.2313,1.887664,74.797777,-0.039383,-0.067413,1.001007,-0.002029,-0.011145,-0.046384,88.759979,39.397537,-147.915619,,,
729705355.956695,-4.2313,1.887664,74.797777,-0.039383,-0.067413,1.001007,-0.002029,-0.011145,-0.046384,88.759979,39.397537,-147.915619,,,
729705355.960028,-4.230788,1.880465,74.783867,-0.041306,-0.070755,1.002792,0.00979,-0.024866,-0.047419,88.759979,39.397537,-147.915619,,,
729705355.963133,-4.227156,1.869867,74.770479,-0.041306,-0.070755,1.002792,0.00979,-0.024866,-0.047419,88.759979,39.397537,-147.915619,,,
729705355.966698,-4.227156,1.869867,74.770479,-0.041306,-0.070755,1.002792,0.00979,-0.024866,-0.047419,88.759979,39.397537,-147.915619,,,
729705355.970012,-4.22345,1.859363,74.758252,-0.040314,-0.072906,1.000656,0.019626,-0.033809,-0.039975,88.759979,39.397537,-147.915619,,,
729705355.973337,-4.21702,1.847024,74.747082,-0.040314,-0.072906,1.000656,0.019626,-0.033809,-0.039975,88.759979,39.397537,-147.915619,,,
729705355.976679,-4.21702,1.847024,74.747082,-0.040314,-0.072906,1.000656,0.019626,-0.033809,-0.039975,88.759979,39.397537,-147.915619,,,
729705355.979797,-4.211139,1.83562,74.736687,-0.040344,-0.074249,1.001068,0.02282,-0.035401,-0.035716,88.759979,39.397537,-147.915619,,,
729705355.983356,-4.204697,1.82257,74.726486,-0.040344,-0.074249,1.001068,0.02282,-0.035401,-0.035716,88.565094,39.395462,-147.924774,,,
729705355.986762,-4.204697,1.82257,74.726486,-0.040344,-0.074249,1.001068,0.02282,-0.035401,-0.035716,88.565094,39.395462,-147.924774,,,
729705355.990111,-4.199593,1.810361,74.71718,-0.041779,-0.078903,1.001266,0.019508,-0.037214,-0.028926,88.565094,39.395462,-147.924774,,,
729705355.993335,-4.193452,1.796839,74.708819,-0.041779,-0.078903,1.001266,0.019508,-0.037214,-0.028926,88.565094,39.395462,-147.924774,,,
729705355.996501,-4.193452,1.796839,74.708819,-0.041779,-0.078903,1.001266,0.019508,-0.037214,-0.028926,88.565094,39.395462,-147.924774,,,
729705356.000047,-4.189465,1.785216,74.701539,-0.040741,-0.076904,1.002731,0.012213,-0.028382,-0.022332,88.565094,39.395462,-147.924774,,,
729705356.00333,-4.183806,1.77503,74.69516,-0.040741,-0.076904,1.002731,0.012213,-0.028382,-0.022332,88.565094,39.395462,-147.924774,,,
729705356.0067,-4.183806,1.77503,74.69516,-0.040741,-0.076904,1.002731,0.012213,-0.028382,-0.022332,88.565094,39.395462,-147.924774,,,
729705356.010002,-4.180505,1.767851,74.689806,-0.036636,-0.074982,1.006744,0.013751,-0.01726,-0.016874,88.565094,39.395462,-147.924774,,,
729705356.013056,-4.174496,1.762235,74.685666,-0.036636,-0.074982,1.006744,0.013751,-0.01726,-0.016874,88.565094,39.395462,-147.924774,,,
729705356.016769,-4.174496,1.762235,74.685666,-0.036636,-0.074982,1.006744,0.013751,-0.01726,-0.016874,88.565094,39.395462,-147.924774,,,
729705356.019998,-4.169189,1.758629,74.682633,-0.038147,-0.078491,1.012177,0.022617,-0.002646,-0.009259,88.565094,39.395462,-147.924774,,,
729705356.023367,-4.16128,1.758444,74.681005,-0.038147,-0.078491,1.012177,0.022617,-0.002646,-0.009259,88.499725,39.590302,-148.100021,,,
729705356.026627,-4.16128,1.758444,74.681005,-0.038147,-0.078491,1.012177,0.022617,-0.002646,-0.009259,88.499725,39.590302,-148.100021,,,
729705356.029808,-4.153511,1.758786,74.680412,-0.034668,-0.078552,1.013687,0.033076,0.008626,-5e-05,88.499725,39.590302,-148.100021,,,
729705356.033361,-4.143632,1.761945,74.680213,-0.034668,-0.078552,1.013687,0.033076,0.008626,-5e-05,88.499725,39.590302,-148.100021,,,
729705356.03669,-4.143632,1.761945,74.680213,-0.034668,-0.078552,1.013687,0.033076,0.008626,-5e-05,88.499725,39.590302,-148.100021,,,
729705356.040008,-4.132256,1.764091,74.679701,-0.031464,-0.075485,1.004013,0.042618,0.011481,-0.003086,88.499725,39.590302,-148.100021,,,
729705356.043333,-4.119288,1.768086,74.678832,-0.031464,-0.075485,1.004013,0.042618,0.011481,-0.003086,88.499725,39.590302,-148.100021,,,
729705356.046408,-4.119288,1.768086,74.678832,-0.031464,-0.075485,1.004013,0.042618,0.011481,-0.003086,88.499725,39.590302,-148.100021,,,
729705356.05004,-4.105134,1.770207,74.677528,-0.029129,-0.072098,1.001343,0.04856,0.005913,-0.005944,88.499725,39.590302,-148.100021,,,
729705356.053339,-4.09049,1.771996,74.675544,-0.029129,-0.072098,1.001343,0.04856,0.005913,-0.005944,88.499725,39.590302,-148.100021,,,
729705356.056696,-4.09049,1.771996,74.675544,-0.029129,-0.072098,1.001343,0.04856,0.005913,-0.005944,88.499725,39.590302,-148.100021,,,
729705356.060023,-4.076677,1.769392,74.672748,-0.026993,-0.067612,0.989944,0.04627,-0.01126,-0.01102,88.499725,39.590302,-148.100021,,,
729705356.063141,-4.065734,1.766292,74.669746,-0.026993,-0.067612,0.989944,0.04627,-0.01126,-0.01102,88.756012,39.175781,-148.322296,,,
729705356.066748,-4.065734,1.766292,74.669746,-0.026993,-0.067612,0.989944,0.04627,-0.01126,-0.01102,88.756012,39.175781,-148.322296,,,
729705356.070009,-4.055763,1.760684,74.665556,-0.026459,-0.067459,0.983704,0.030647,-0.018389,-0.01664,88.756012,39.175781,-148.322296,,,
729705356.073338,-4.049565,1.756088,74.660085,-0.026459,-0.067459,0.983704,0.030647,-0.018389,-0.01664,88.756012,39.175781,-148.322296,,,
729705356.076682,-4.049565,1.756088,74.660085,-0.026459,-0.067459,0.983704,0.030647,-0.018389,-0.01664,88.756012,39.175781,-148.322296,,,
729705356.079788,-4.045109,1.749498,74.654227,-0.028183,-0.070801,0.98082,0.009855,-0.017961,-0.02131,88.756012,39.175781,-148.322296,,,
729705356.083358,-4.043364,1.744384,74.648366,-0.028183,-0.070801,0.98082,0.009855,-0.017961,-0.02131,88.756012,39.175781,-148.322296,,,
729705356.086666,-4.043364,1.744384,74.648366,-0.028183,-0.070801,0.98082,0.009855,-0.017961,-0.02131,88.756012,39.175781,-148.322296,,,
729705356.090035,-4.042346,1.738927,74.641973,-0.026367,-0.072906,0.980286,0.001701,-0.0115,-0.025329,88.756012,39.175781,-148.322296,,,
729705356.093336,-4.042989,1.735972,74.6353,-0.026367,-0.072906,0.980286,0.001701,-0.0115,-0.025329,88.756012,39.175781,-148.322296,,,
729705356.096496,-4.042989,1.735972,74.6353,-0.026367,-0.072906,0.980286,0.001701,-0.0115,-0.025329,88.756012,39.175781,-148.322296,,,
729705356.100038,-4.043526,1.733649,74.627985,-0.02507,-0.072464,0.985977,-0.004171,0.002075,-0.025323,88.756012,39.175781,-148.322296,,,
729705356.103328,-4.045982,1.734424,74.620686,-0.02507,-0.072464,0.985977,-0.004171,0.002075,-0.025323,88.688477,39.189804,-148.182266,,,
729705356.106669,-4.045982,1.734424,74.620686,-0.02507,-0.072464,0.985977,-0.004171,0.002075,-0.025323,88.688477,39.189804,-148.182266,,,
729705356.109998,-4.047232,1.735781,74.61371,-0.032028,-0.075363,0.98941,-0.000897,0.014399,-0.021972,88.688477,39.189804,-148.182266,,,
729705356.11316,-4.049421,1.738956,74.607971,-0.032028,-0.075363,0.98941,-0.000897,0.014399,-0.021972,88.688477,39.189804,-148.182266,,,
729705356.116763,-4.049421,1.738956,74.607971,-0.032028,-0.075363,0.98941,-0.000897,0.014399,-0.021972,88.688477,39.189804,-148.182266,,,
729705356.120009,-4.050724,1.743589,74.603558,-0.03363,-0.079239,0.991318,-0.006177,0.025308,-0.014403,88.688477,39.189804,-148.182266,,,
729705356.123365,-4.052423,1.749678,74.600074,-0.03363,-0.079239,0.991318,-0.006177,0.025308,-0.014403,88.688477,39.189804,-148.182266,,,
729705356.126666,-4.052423,1.749678,74.600074,-0.03363,-0.079239,0.991318,-0.006177,0.025308,-0.014403,88.688477,39.189804,-148.182266,,,
729705356.12982,-4.054365,1.755568,74.597865,-0.032349,-0.080658,0.990448,-0.01012,0.02382,-0.005556,88.688477,39.189804,-148.182266,,,
729705356.13337,-4.057142,1.759996,74.596743,-0.032349,-0.080658,0.990448,-0.01012,0.02382,-0.005556,88.688477,39.189804,-148.182266,,,
729705356.136677,-4.057142,1.759996,74.596743,-0.032349,-0.080658,0.990448,-0.01012,0.02382,-0.005556,88.688477,39.189804,-148.182266,,,
729705356.140026,-4.06021,1.763261,74.59637,-0.033493,-0.08316,0.985489,-0.011392,0.009866,-0.003008,88.688477,39.189804,-148.182266,,,
729705356.143345,-4.062924,1.763957,74.596396,-0.033493,-0.08316,0.985489,-0.011392,0.009866,-0.003008,88.688477,39.189804,-148.182266,,,
729705356.146419,-4.062924,1.763957,74.596396,-0.033493,-0.08316,0.985489,-0.011392,0.009866,-0.003008,88.581635,39.383682,-148.219254,,,
729705356.150046,-4.066528,1.763699,74.595782,-0.037354,-0.082397,0.987991,-0.009214,-0.001541,-0.006545,88.581635,39.383682,-148.219254,,,
729705356.153322,-4.069536,1.761891,74.594645,-0.037354,-0.082397,0.987991,-0.009214,-0.001541,-0.006545,88.581635,39.383682,-148.219254,,,
729705356.156703,-4.069536,1.761891,74.594645,-0.037354,-0.082397,0.987991,-0.009214,-0.001541,-0.006545,88.581635,39.383682,-148.219254,,,
729705356.159992,-4.071542,1.759234,74.593341,-0.038528,-0.078323,0.99231,-0.004402,-0.009957,-0.007618,88.581635,39.383682,-148.219254,,,
729705356.163192,-4.072552,1.754948,74.590828,-0.038528,-0.078323,0.99231,-0.004402,-0.009957,-0.007618,88.581635,39.383682,-148.219254,,,
729705356.1667,-4.072552,1.754948,74.590828,-0.038528,-0.078323,0.99231,-0.004402,-0.009957,-0.007618,88.581635,39.383682,-148.219254,,,
729705356.170005,-4.072382,1.750089,74.587356,-0.037415,-0.078842,0.992813,0.003084,-0.016279,-0.014721,88.581635,39.383682,-148.219254,,,
729705356.173426,-4.072201,1.743386,74.583209,-0.037415,-0.078842,0.992813,0.003084,-0.016279,-0.014721,88.581635,39.383682,-148.219254,,,
729705356.176675,-4.072201,1.743386,74.583209,-0.037415,-0.078842,0.992813,0.003084,-0.016279,-0.014721,88.581635,39.383682,-148.219254,,,
729705356.179805,-4.070748,1.736478,74.578484,-0.031723,-0.077621,0.993927,0.009408,-0.02289,-0.019207,88.581635,39.383682,-148.219254,,,
729705356.183398,-4.069001,1.727873,74.572716,-0.031723,-0.077621,0.993927,0.009408,-0.02289,-0.019207,88.581635,39.383682,-148.219254,,,
729705356.186683,-4.069001,1.727873,74.572716,-0.031723,-0.077621,0.993927,0.009408,-0.02289,-0.019207,88.49205,39.378616,-148.081451,,,
729705356.19011,-4.065977,1.718556,74.566066,-0.025742,-0.073944,0.991211,0.012373,-0.027123,-0.025565,88.49205,39.378616,-148.081451,,,
729705356.193409,-4.064219,1.709934,74.559348,-0.025742,-0.073944,0.991211,0.012373,-0.027123,-0.025565,88.49205,39.378616,-148.081451,,,
729705356.196508,-4.064219,1.709934,74.559348,-0.025742,-0.073944,0.991211,0.012373,-0.027123,-0.025565,88.49205,39.378616,-148.081451,,,
729705356.200039,-4.061318,1.70141,74.552631,-0.024292,-0.068665,0.990982,0.011932,-0.019428,-0.023861,88.49205,39.378616,-148.081451,,,
729705356.20336,-4.059865,1.695296,74.54638,-0.024292,-0.068665,0.990982,0.011932,-0.019428,-0.023861,88.49205,39.378616,-148.081451,,,
729705356.206738,-4.059865,1.695296,74.54638,-0.024292,-0.068665,0.990982,0.011932,-0.019428,-0.023861,88.49205,39.378616,-148.081451,,,
729705356.210016,-4.058204,1.690716,74.541121,-0.019165,-0.065918,0.99231,0.003552,-0.009155,-0.019433,88.49205,39.378616,-148.081451,,,
729705356.2131,-4.058204,1.690716,74.537037,-0.019165,-0.065918,0.99231,0.003552,-0.009155,-0.019433,88.49205,39.378616,-148.081451,,,
729705356.21676,-4.059819,1.68776,74.537037,-0.019165,-0.065918,0.99231,0.003552,-0.009155,-0.019433,88.49205,39.378616,-148.081451,,,
729705356.220066,-4.06075,1.684771,74.533969,-0.015381,-0.061996,0.985794,-0.006022,-0.004225,-0.011775,88.49205,39.378616,-148.081451,,,
729705356.223356,-4.066145,1.683777,74.531812,-0.015381,-0.061996,0.985794,-0.006022,-0.004225,-0.011775,88.49205,39.378616,-148.081451,,,
729705356.226678,-4.066145,1.683777,74.531812,-0.015381,-0.061996,0.985794,-0.006022,-0.004225,-0.011775,88.552109,39.250732,-148.106781,,,
729705356.229834,-4.073017,1.681833,74.529544,-0.016785,-0.05661,0.979614,-0.033319,-0.004397,-0.012128,88.552109,39.250732,-148.106781,,,
729705356.233415,-4.085233,1.680285,74.527189,-0.016785,-0.05661,0.979614,-0.033319,-0.004397,-0.012128,88.552109,39.250732,-148.106781,,,
729705356.236679,-4.085233,1.680285,74.527189,-0.016785,-0.05661,0.979614,-0.033319,-0.004397,-0.012128,88.552109,39.250732,-148.106781,,,
729705356.240027,-4.09873,1.67616,74.524381,-0.017563,-0.051361,0.977905,-0.051612,-0.016264,-0.017002,88.552109,39.250732,-148.106781,,,
729705356.243396,-4.115642,1.671701,74.520086,-0.017563,-0.051361,0.977905,-0.051612,-0.016264,-0.017002,88.552109,39.250732,-148.106781,,,
729705356.246485,-4.115642,1.671701,74.520086,-0.017563,-0.051361,0.977905,-0.051612,-0.016264,-0.017002,88.552109,39.250732,-148.106781,,,
729705356.250035,-4.132566,1.664257,74.513627,-0.014618,-0.048752,0.979416,-0.059797,-0.020232,-0.031279,88.552109,39.250732,-148.106781,,,
729705356.253369,-4.151115,1.656988,74.505014,-0.014618,-0.048752,0.979416,-0.059797,-0.020232,-0.031279,88.552109,39.250732,-148.106781,,,
729705356.256702,-4.151115,1.656988,74.505014,-0.014618,-0.048752,0.979416,-0.059797,-0.020232,-0.031279,88.552109,39.250732,-148.106781,,,
729705356.259999,-4.169247,1.648404,74.494348,-0.012436,-0.052582,0.984253,-0.06174,-0.022743,-0.042804,88.552109,39.250732,-148.106781,,,
729705356.26318,-4.169247,1.648404,74.494348,-0.012436,-0.052582,0.984253,-0.06174,-0.022743,-0.042804,88.552109,39.250732,-148.106781,,,
729705356.266697,-4.187785,1.639773,74.482501,-0.012436,-0.052582,0.984253,-0.06174,-0.022743,-0.042804,88.502533,39.599335,-148.074783,,,
729705356.269995,-4.203817,1.63118,74.470196,-0.011734,-0.055008,0.988617,-0.047659,-0.022118,-0.047376,88.502533,39.599335,-148.074783,,,
729705356.273375,-4.216657,1.622592,74.457435,-0.011734,-0.055008,0.988617,-0.047659,-0.022118,-0.047376,88.502533,39.599335,-148.074783,,,
729705356.276682,-4.216657,1.622592,74.457435,-0.011734,-0.055008,0.988617,-0.047659,-0.022118,-0.047376,88.502533,39.599335,-148.074783,,,
729705356.279748,-4.227583,1.614036,74.444502,-0.00972,-0.059906,0.990845,-0.031686,-0.025101,-0.047181,88.502533,39.599335,-148.074783,,,
729705356.283465,-4.236181,1.603679,74.431726,-0.00972,-0.059906,0.990845,-0.031686,-0.025101,-0.047181,88.502533,39.599335,-148.074783,,,
729705356.286673,-4.236181,1.603679,74.431726,-0.00972,-0.059906,0.990845,-0.031686,-0.025101,-0.047181,88.502533,39.599335,-148.074783,,,
729705356.290026,-4.244529,1.59456,74.419458,-0.01268,-0.063568,0.988144,-0.027043,-0.023468,-0.042177,88.502533,39.599335,-148.074783,,,
729705356.293393,-4.251229,1.585157,74.407562,-0.01268,-0.063568,0.988144,-0.027043,-0.023468,-0.042177,88.502533,39.599335,-148.074783,,,
729705356.296506,-4.251229,1.585157,74.407562,-0.01268,-0.063568,0.988144,-0.027043,-0.023468,-0.042177,88.502533,39.599335,-148.074783,,,
729705356.300047,-4.26069,1.578543,74.396151,-0.018265,-0.069809,0.990875,-0.033319,-0.015101,-0.04162,88.502533,39.599335,-148.074783,,,
729705356.303389,-4.269725,1.570162,74.384986,-0.018265,-0.069809,0.990875,-0.033319,-0.015101,-0.04162,88.502533,39.599335,-148.074783,,,
729705356.306682,-4.269725,1.570162,74.384986,-0.018265,-0.069809,0.990875,-0.033319,-0.015101,-0.04162,88.502533,39.599335,-148.074783,,,
729705356.310099,-4.28233,1.563112,74.374002,-0.019409,-0.068237,0.98822,-0.043118,-0.021709,-0.040048,88.497894,39.608444,-147.964249,,,
729705356.313111,-4.28233,1.563112,74.374002,-0.019409,-0.068237,0.98822,-0.043118,-0.021709,-0.040048,88.497894,39.608444,-147.964249,,,
729705356.316707,-4.293324,1.553988,74.362913,-0.019409,-0.068237,0.98822,-0.043118,-0.021709,-0.040048,88.497894,39.608444,-147.964249,,,
729705356.320005,-4.309077,1.546829,74.351965,-0.021606,-0.067886,0.990921,-0.056548,-0.017268,-0.038089,88.497894,39.608444,-147.964249,,,
729705356.323401,-4.309077,1.538319,74.340367,-0.021606,-0.067886,0.990921,-0.056548,-0.017268,-0.038089,88.497894,39.608444,-147.964249,,,
729705356.32646,-4.321587,1.538319,74.340367,-0.021606,-0.067886,0.990921,-0.056548,-0.017268,-0.038089,88.497894,39.608444,-147.964249,,,
729705356.329824,-4.338311,1.531721,74.328249,-0.022247,-0.068253,0.99791,-0.056423,-0.013819,-0.046564,88.497894,39.608444,-147.964249,,,
729705356.333443,-4.351394,1.52377,74.315531,-0.022247,-0.068253,0.99791,-0.056423,-0.013819,-0.046564,88.497894,39.608444,-147.964249,,,
729705356.336673,-4.351394,1.52377,74.315531,-0.022247,-0.068253,0.99791,-0.056423,-0.013819,-0.046564,88.497894,39.608444,-147.964249,,,
729705356.340016,-4.367699,1.518097,74.302807,-0.023148,-0.071472,1.002243,-0.049011,-0.013098,-0.048463,88.497894,39.608444,-147.964249,,,
729705356.343341,-4.367699,1.518097,74.302807,-0.023148,-0.071472,1.002243,-0.049011,-0.013098,-0.048463,88.497894,39.608444,-147.964249,,,
729705356.346488,-4.379101,1.509977,74.289847,-0.023148,-0.071472,1.002243,-0.049011,-0.013098,-0.048463,88.497894,39.608444,-147.964249,,,
729705356.350023,-4.392926,1.503832,74.276718,-0.026474,-0.075653,1.003464,-0.042053,-0.016374,-0.050553,88.140152,39.859848,-148.084167,,,
729705356.353349,-4.392926,1.503832,74.276718,-0.026474,-0.075653,1.003464,-0.042053,-0.016374,-0.050553,88.140152,39.859848,-148.084167,,,
729705356.356781,-4.402604,1.494728,74.262862,-0.026474,-0.075653,1.003464,-0.042053,-0.016374,-0.050553,88.140152,39.859848,-148.084167,,,
729705356.359993,-4.413717,1.487259,74.2488,-0.028809,-0.074478,1.005585,-0.031595,-0.020811,-0.050563,88.140152,39.859848,-148.084167,,,
729705356.363154,-4.413717,1.487259,74.2488,-0.028809,-0.074478,1.005585,-0.031595,-0.020811,-0.050563,88.140152,39.859848,-148.084167,,,
729705356.366719,-4.42103,1.476264,74.234515,-0.028809,-0.074478,1.005585,-0.031595,-0.020811,-0.050563,88.140152,39.859848,-148.084167,,,
729705356.370055,-4.431135,1.466822,74.220789,-0.033661,-0.076401,1.003098,-0.033864,-0.029107,-0.047367,88.140152,39.859848,-148.084167,,,
729705356.373338,-4.431135,1.466822,74.220789,-0.033661,-0.076401,1.003098,-0.033864,-0.029107,-0.047367,88.140152,39.859848,-148.084167,,,
729705356.376685,-4.440478,1.454598,74.207312,-0.033661,-0.076401,1.003098,-0.033864,-0.029107,-0.047367,88.140152,39.859848,-148.084167,,,
729705356.379764,-4.452337,1.442263,74.194001,-0.036896,-0.079819,1.002945,-0.045476,-0.040525,-0.047627,88.140152,39.859848,-148.084167,,,
729705356.383429,-4.452337,1.442263,74.194001,-0.036896,-0.079819,1.002945,-0.045476,-0.040525,-0.047627,88.140152,39.859848,-148.084167,,,
729705356.38665,-4.4654,1.427312,74.181143,-0.036896,-0.079819,1.002945,-0.045476,-0.040525,-0.047627,88.140152,39.859848,-148.084167,,,
729705356.390033,-4.48204,1.411836,74.168879,-0.037506,-0.079269,0.999557,-0.061255,-0.050504,-0.043407,88.176315,39.844406,-147.844589,,,
729705356.393354,-4.48204,1.411836,74.168879,-0.037506,-0.079269,0.999557,-0.061255,-0.050504,-0.043407,88.176315,39.844406,-147.844589,,,
729705356.396509,-4.498009,1.39456,74.157661,-0.037506,-0.079269,0.999557,-0.061255,-0.050504,-0.043407,88.176315,39.844406,-147.844589,,,
729705356.400032,-4.51475,1.378107,74.147851,-0.039642,-0.088104,1.004578,-0.050687,-0.050426,-0.03552,88.176315,39.844406,-147.844589,,,
729705356.403346,-4.51475,1.378107,74.147851,-0.039642,-0.088104,1.004578,-0.050687,-0.050426,-0.03552,88.176315,39.844406,-147.844589,,,
729705356.406686,-4.528064,1.362832,74.138804,-0.039642,-0.088104,1.004578,-0.050687,-0.050426,-0.03552,88.176315,39.844406,-147.844589,,,
729705356.410003,-4.540357,1.349401,74.130829,-0.037521,-0.090851,1.017685,-0.031412,-0.036799,-0.027842,88.176315,39.844406,-147.844589,,,
729705356.413106,-4.540357,1.349401,74.130829,-0.037521,-0.090851,1.017685,-0.031412,-0.036799,-0.027842,88.176315,39.844406,-147.844589,,,
729705356.416709,-4.547268,1.337572,74.1235,-0.037521,-0.090851,1.017685,-0.031412,-0.036799,-0.027842,88.176315,39.844406,-147.844589,,,
729705356.419998,-4.552114,1.328117,74.117281,-0.03064,-0.090073,1.022034,-0.008797,-0.023298,-0.020311,88.176315,39.844406,-147.844589,,,
729705356.423359,-4.552114,1.328117,74.117281,-0.03064,-0.090073,1.022034,-0.008797,-0.023298,-0.020311,88.176315,39.844406,-147.844589,,,
729705356.426717,-4.553139,1.321423,74.112787,-0.03064,-0.090073,1.022034,-0.008797,-0.023298,-0.020311,88.176315,39.844406,-147.844589,,,
729705356.42986,-4.552289,1.317109,74.109573,-0.032883,-0.091614,1.018066,0.009493,-0.001866,-0.009338,88.160675,39.85173,-148.0224,,,
729705356.433424,-4.552289,1.317109,74.109573,-0.032883,-0.091614,1.018066,0.009493,-0.001866,-0.009338,88.160675,39.85173,-148.0224,,,
729705356.436673,-4.54869,1.315625,74.107702,-0.032883,-0.091614,1.018066,0.009493,-0.001866,-0.009338,88.160675,39.85173,-148.0224,,,
729705356.440001,-4.544037,1.314929,74.107067,-0.032318,-0.093124,1.015182,0.021049,0.00154,-0.001846,88.160675,39.85173,-148.0224,,,
729705356.443341,-4.544037,1.314929,74.107067,-0.032318,-0.093124,1.015182,0.021049,0.00154,-0.001846,88.160675,39.85173,-148.0224,,,
729705356.446495,-4.537611,1.315946,74.107935,-0.032318,-0.093124,1.015182,0.021049,0.00154,-0.001846,88.160675,39.85173,-148.0224,,,
729705356.450019,-4.531688,1.316068,74.109255,-0.028351,-0.087921,1.003204,0.020071,0.005014,0.001874,88.160675,39.85173,-148.0224,,,
729705356.453337,-4.531688,1.316068,74.109255,-0.028351,-0.087921,1.003204,0.020071,0.005014,0.001874,88.160675,39.85173,-148.0224,,,
729705356.456694,-4.525002,1.318637,74.110464,-0.028351,-0.087921,1.003204,0.020071,0.005014,0.001874,88.160675,39.85173,-148.0224,,,
729705356.460001,-4.518245,1.319406,74.111488,-0.023468,-0.083389,0.998672,0.021405,0.004549,-5.9e-05,88.160675,39.85173,-148.0224,,,
729705356.463193,-4.518245,1.319406,74.111488,-0.023468,-0.083389,0.998672,0.021405,0.004549,-5.9e-05,88.160675,39.85173,-148.0224,,,
729705356.466689,-4.511802,1.322193,74.111794,-0.023468,-0.083389,0.998672,0.021405,0.004549,-5.9e-05,88.160675,39.85173,-148.0224,,,
729705356.469997,-4.505618,1.322357,74.110381,-0.019913,-0.078201,0.989365,0.020818,0.006407,-0.010039,88.160675,39.85173,-148.0224,,,
729705356.473354,-4.505618,1.322357,74.110381,-0.019913,-0.078201,0.989365,0.020818,0.006407,-0.010039,88.197174,39.736893,-147.906464,,,
729705356.47668,-4.500789,1.325179,74.108059,-0.019913,-0.078201,0.989365,0.020818,0.006407,-0.010039,88.197174,39.736893,-147.906464,,,
729705356.479759,-4.49536,1.325519,74.104565,-0.018005,-0.078583,0.986313,0.023022,0.005937,-0.013556,88.197174,39.736893,-147.906464,,,
729705356.483448,-4.49536,1.325519,74.104565,-0.018005,-0.078583,0.986313,0.023022,0.005937,-0.013556,88.197174,39.736893,-147.906464,,,
729705356.486674,-4.490392,1.328306,74.100892,-0.018005,-0.078583,0.986313,0.023022,0.005937,-0.013556,88.197174,39.736893,-147.906464,,,
729705356.490031,-4.482933,1.328346,74.097586,-0.022766,-0.085693,0.985245,0.031088,0.004298,-0.013141,88.197174,39.736893,-147.906464,,,
729705356.493368,-4.482933,1.328346,74.097586,-0.022766,-0.085693,0.985245,0.031088,0.004298,-0.013141,88.197174,39.736893,-147.906464,,,
729705356.496518,-4.476145,1.329348,74.095109,-0.022766,-0.085693,0.985245,0.031088,0.004298,-0.013141,88.197174,39.736893,-147.906464,,,
729705356.500044,-4.46661,1.327985,74.092985,-0.026031,-0.088577,0.9841,0.035907,-0.001879,-0.005937,88.197174,39.736893,-147.906464,,,
729705356.50334,-4.46661,1.327985,74.092985,-0.026031,-0.088577,0.9841,0.035907,-0.001879,-0.005937,88.197174,39.736893,-147.906464,,,
729705356.506689,-4.457865,1.326502,74.091474,-0.026031,-0.088577,0.9841,0.035907,-0.001879,-0.005937,88.197174,39.736893,-147.906464,,,
729705356.509993,-4.447376,1.323355,74.090489,-0.022675,-0.084122,0.978195,0.038947,-0.008538,-0.003977,88.197174,39.736893,-147.906464,,,
729705356.513098,-4.447376,1.323355,74.090489,-0.022675,-0.084122,0.978195,0.038947,-0.008538,-0.003977,88.201736,39.663071,-147.849426,,,
729705356.516715,-4.439,1.322325,74.089579,-0.022675,-0.084122,0.978195,0.038947,-0.008538,-0.003977,88.201736,39.663071,-147.849426,,,
729705356.519995,-4.427752,1.321189,74.088021,-0.018982,-0.077774,0.982498,0.04154,0.002967,-0.008489,88.201736,39.663071,-147.849426,,,
729705356.523352,-4.427752,1.321189,74.088021,-0.018982,-0.077774,0.982498,0.04154,0.002967,-0.008489,88.201736,39.663071,-147.849426,,,
729705356.526684,-4.417448,1.322929,74.086014,-0.018982,-0.077774,0.982498,0.04154,0.002967,-0.008489,88.201736,39.663071,-147.849426,,,
729705356.529845,-4.404536,1.325739,74.083354,-0.015457,-0.076141,0.98259,0.048914,0.021581,-0.008996,88.201736,39.663071,-147.849426,,,
729705356.533408,-4.404536,1.325739,74.083354,-0.015457,-0.076141,0.98259,0.048914,0.021581,-0.008996,88.201736,39.663071,-147.849426,,,
729705356.536673,-4.392426,1.331722,74.080331,-0.015457,-0.076141,0.98259,0.048914,0.021581,-0.008996,88.201736,39.663071,-147.849426,,,
729705356.539999,-4.377556,1.340123,74.077421,-0.01239,-0.073441,0.97818,0.056218,0.042974,-0.01041,88.201736,39.663071,-147.849426,,,
729705356.543343,-4.377556,1.340123,74.077421,-0.01239,-0.073441,0.97818,0.056218,0.042974,-0.01041,88.201736,39.663071,-147.849426,,,
729705356.546501,-4.362205,1.351302,74.074544,-0.01239,-0.073441,0.97818,0.056218,0.042974,-0.01041,88.201736,39.663071,-147.849426,,,
729705356.550024,-4.346439,1.364687,74.071906,-0.010986,-0.070236,0.974136,0.054301,0.053342,-0.006622,88.201736,39.663071,-147.849426,,,
729705356.553331,-4.346439,1.364687,74.071906,-0.010986,-0.070236,0.974136,0.054301,0.053342,-0.006622,88.309082,39.467392,-148.140533,,,
729705356.556745,-4.332311,1.377209,74.070178,-0.010986,-0.070236,0.974136,0.054301,0.053342,-0.006622,88.309082,39.467392,-148.140533,,,
729705356.559998,-4.320033,1.388897,74.069853,-0.016174,-0.067719,0.961212,0.034892,0.036096,0.003274,88.309082,39.467392,-148.140533,,,
729705356.563183,-4.320033,1.388897,74.069853,-0.016174,-0.067719,0.961212,0.034892,0.036096,0.003274,88.309082,39.467392,-148.140533,,,
729705356.566688,-4.312839,1.397015,74.070957,-0.016174,-0.067719,0.961212,0.034892,0.036096,0.003274,88.309082,39.467392,-148.140533,,,
729705356.569998,-4.309722,1.403192,74.073087,-0.018341,-0.063812,0.954895,0.002435,0.016717,0.007266,88.309082,39.467392,-148.140533,,,
729705356.57333,-4.309722,1.403192,74.073087,-0.018341,-0.063812,0.954895,0.002435,0.016717,0.007266,88.309082,39.467392,-148.140533,,,
729705356.576699,-4.31316,1.408155,74.075338,-0.018341,-0.063812,0.954895,0.002435,0.016717,0.007266,88.309082,39.467392,-148.140533,,,
729705356.579802,-4.318635,1.411998,74.077039,-0.01474,-0.060364,0.960358,-0.030006,0.014635,0.002323,88.309082,39.467392,-148.140533,,,
729705356.583461,-4.318635,1.411998,74.077039,-0.01474,-0.060364,0.960358,-0.030006,0.014635,0.002323,88.309082,39.467392,-148.140533,,,
729705356.586668,-4.329244,1.415462,74.077196,-0.01474,-0.060364,0.960358,-0.030006,0.014635,0.002323,88.309082,39.467392,-148.140533,,,
729705356.590033,-4.340521,1.419277,74.074992,-0.010941,-0.056946,0.966293,-0.045077,0.02243,-0.015517,88.309082,39.467392,-148.140533,,,
729705356.593323,-4.340521,1.419277,74.074992,-0.010941,-0.056946,0.966293,-0.045077,0.02243,-0.015517,88.206039,39.649368,-148.317459,,,
729705356.596517,-4.353953,1.4248,74.070744,-0.010941,-0.056946,0.966293,-0.045077,0.02243,-0.015517,88.206039,39.649368,-148.317459,,,
