Time (sec),Pitch (deg),Roll (deg),Yaw(deg),X-Acceleration (g),Y-Acceleration (g),Z-Acceleration (g),Pitch Rate (deg/sec),Roll Rate (deg/sec),Yaw Rate (deg/sec),Magnetic Field in X direction (uT),Magnetic Field in Y direction (uT),Magnetic Field in Z Direction (uT),Latitude (deg),Longitude (deg),Altitude (m)
729716404.384226,-5.736726,-0.094323,-78.641323,-0.001007,-0.125336,1.004776,0.735282,-0.039759,0.06184,64.822647,18.36586,-151.168167,,,
729716404.384562,-5.515472,-0.108498,-75.545551,-0.001007,-0.125336,1.004776,0.735282,-0.039759,0.06184,64.822647,18.36586,-151.168167,,,
729716404.386521,-5.515473,-0.108494,-78.622429,-0.001007,-0.125336,1.004776,0.808441,-0.076554,0.066582,64.822647,18.36586,-151.168167,,,
729716404.386766,-5.515472,-0.108498,-75.545551,-0.001007,-0.125336,1.004776,0.808441,-0.076554,0.066582,64.822647,18.36586,-151.168167,,,
729716404.388521,-5.515473,-0.108494,-78.622429,-0.001007,-0.125336,1.004776,0.808441,-0.076554,0.066582,64.822647,18.36586,-151.168167,,,
729716404.388729,-5.515472,-0.108498,-75.545551,-0.001007,-0.125336,1.004776,0.808441,-0.076554,0.066582,64.822647,18.36586,-151.168167,,,
729716404.393461,-5.284076,-0.129696,-78.602562,-0.010483,-0.121719,1.006851,0.808441,-0.076554,0.066582,64.822647,18.36586,-151.168167,,,
729716404.393708,-5.284075,-0.1297,-75.525684,-0.010483,-0.121719,1.006851,0.808441,-0.076554,0.066582,64.822647,18.36586,-151.168167,,,
729716404.396574,-5.043669,-0.162503,-78.581436,-0.010483,-0.121719,1.006851,0.862935,-0.16284,0.077039,64.822647,18.36586,-151.168167,,,
729716404.396807,-5.043668,-0.162506,-75.504558,-0.010483,-0.121719,1.006851,0.862935,-0.16284,0.077039,64.822647,18.36586,-151.168167,,,
729716404.398505,-5.043669,-0.162503,-78.581436,-0.010483,-0.121719,1.006851,0.862935,-0.16284,0.077039,64.822647,18.36586,-151.168167,,,
729716404.398721,-5.043668,-0.162506,-75.504558,-0.010483,-0.121719,1.006851,0.862935,-0.16284,0.077039,64.822647,18.36586,-151.168167,,,
729716404.404152,-4.796478,-0.20795,-78.558472,-0.01918,-0.110794,0.991318,0.862935,-0.16284,0.077039,64.506073,16.447876,-150.599228,,,
729716404.404447,-4.796477,-0.207953,-75.481594,-0.01918,-0.110794,0.991318,0.862935,-0.16284,0.077039,64.506073,16.447876,-150.599228,,,
729716404.406254,-4.54208,-0.264522,-78.533978,-0.01918,-0.110794,0.991318,0.913882,-0.231208,0.082517,64.506073,16.447876,-150.599228,,,
729716404.406497,-4.542079,-0.264526,-75.4571,-0.01918,-0.110794,0.991318,0.913882,-0.231208,0.082517,64.506073,16.447876,-150.599228,,,
729716404.408561,-4.54208,-0.264522,-78.533978,-0.01918,-0.110794,0.991318,0.913882,-0.231208,0.082517,64.506073,16.447876,-150.599228,,,
729716404.408785,-4.542079,-0.264526,-75.4571,-0.01918,-0.110794,0.991318,0.913882,-0.231208,0.082517,64.506073,16.447876,-150.599228,,,
729716404.413638,-4.279185,-0.329864,-78.508123,-0.025665,-0.100327,0.975998,0.913882,-0.231208,0.082517,64.506073,16.447876,-150.599228,,,
729716404.413871,-4.279184,-0.329868,-75.431245,-0.025665,-0.100327,0.975998,0.913882,-0.231208,0.082517,64.506073,16.447876,-150.599228,,,
729716404.416304,-4.006845,-0.40319,-78.481794,-0.025665,-0.100327,0.975998,0.983322,-0.292339,0.083545,64.506073,16.447876,-150.599228,,,
729716404.416532,-4.006844,-0.403193,-75.404916,-0.025665,-0.100327,0.975998,0.983322,-0.292339,0.083545,64.506073,16.447876,-150.599228,,,
729716404.418537,-4.006845,-0.40319,-78.481794,-0.025665,-0.100327,0.975998,0.983322,-0.292339,0.083545,64.506073,16.447876,-150.599228,,,
729716404.418746,-4.006844,-0.403193,-75.404916,-0.025665,-0.100327,0.975998,0.983322,-0.292339,0.083545,64.506073,16.447876,-150.599228,,,
729716404.423409,-3.724445,-0.486208,-78.455154,-0.017914,-0.090057,0.993881,0.983322,-0.292339,0.083545,64.506073,16.447876,-150.599228,,,
729716404.423638,-3.724444,-0.486211,-75.378276,-0.017914,-0.090057,0.993881,0.983322,-0.292339,0.083545,64.506073,16.447876,-150.599228,,,
729716404.426559,-3.432572,-0.579931,-78.426563,-0.017914,-0.090057,0.993881,1.054878,-0.365096,0.099193,64.506073,16.447876,-150.599228,,,
729716404.426786,-3.432572,-0.579935,-75.349685,-0.017914,-0.090057,0.993881,1.054878,-0.365096,0.099193,64.506073,16.447876,-150.599228,,,
729716404.428482,-3.432572,-0.579931,-78.426563,-0.017914,-0.090057,0.993881,1.054878,-0.365096,0.099193,64.506073,16.447876,-150.599228,,,
729716404.428788,-3.432572,-0.579935,-75.349685,-0.017914,-0.090057,0.993881,1.054878,-0.365096,0.099193,64.506073,16.447876,-150.599228,,,
729716404.433142,-3.130464,-0.683532,-78.394422,-0.020782,-0.086349,0.98407,1.054878,-0.365096,0.099193,64.506073,16.447876,-150.599228,,,
729716404.433375,-3.130464,-0.683536,-75.317544,-0.020782,-0.086349,0.98407,1.054878,-0.365096,0.099193,64.506073,16.447876,-150.599228,,,
729716404.43664,-2.817198,-0.79811,-78.357752,-0.020782,-0.086349,0.98407,1.13425,-0.447702,0.124881,64.506073,16.447876,-150.599228,,,
729716404.436885,-2.817198,-0.798113,-75.280874,-0.020782,-0.086349,0.98407,1.13425,-0.447702,0.124881,64.506073,16.447876,-150.599228,,,
729716404.438475,-2.817198,-0.79811,-78.357752,-0.020782,-0.086349,0.98407,1.13425,-0.447702,0.124881,64.506073,16.447876,-150.599228,,,
729716404.438725,-2.817198,-0.798113,-75.280874,-0.020782,-0.086349,0.98407,1.13425,-0.447702,0.124881,64.506073,16.447876,-150.599228,,,
729716404.443424,-2.492498,-0.926081,-78.316125,-0.031769,-0.081909,0.990662,1.13425,-0.447702,0.124881,64.506073,16.447876,-150.599228,,,
729716404.443654,-2.492497,-0.926084,-75.239247,-0.031769,-0.081909,0.990662,1.13425,-0.447702,0.124881,64.506073,16.447876,-150.599228,,,
729716404.447187,-2.156869,-1.067549,-78.268653,-0.031769,-0.081909,0.990662,1.201521,-0.534886,0.156744,63.481964,14.410126,-150.560577,,,
729716404.447445,-2.156868,-1.067553,-75.191775,-0.031769,-0.081909,0.990662,1.201521,-0.534886,0.156744,63.481964,14.410126,-150.560577,,,
729716404.44844,-2.156869,-1.067549,-78.268653,-0.031769,-0.081909,0.990662,1.201521,-0.534886,0.156744,63.481964,14.410126,-150.560577,,,
729716404.448753,-2.156868,-1.067553,-75.191775,-0.031769,-0.081909,0.990662,1.201521,-0.534886,0.156744,63.481964,14.410126,-150.560577,,,
729716404.453177,-1.813516,-1.219396,-78.215951,-0.022537,-0.077744,0.991531,1.201521,-0.534886,0.156744,63.481964,14.410126,-150.560577,,,
729716404.453413,-1.813516,-1.219399,-75.139073,-0.022537,-0.077744,0.991531,1.201521,-0.534886,0.156744,63.481964,14.410126,-150.560577,,,
729716404.456585,-1.466716,-1.3772,-78.159136,-0.022537,-0.077744,0.991531,1.212921,-0.561714,0.175919,63.481964,14.410126,-150.560577,,,
729716404.45683,-1.466716,-1.377203,-75.082258,-0.022537,-0.077744,0.991531,1.212921,-0.561714,0.175919,63.481964,14.410126,-150.560577,,,
729716404.458507,-1.466716,-1.3772,-78.159136,-0.022537,-0.077744,0.991531,1.212921,-0.561714,0.175919,63.481964,14.410126,-150.560577,,,
729716404.458736,-1.466716,-1.377203,-75.082258,-0.022537,-0.077744,0.991531,1.212921,-0.561714,0.175919,63.481964,14.410126,-150.560577,,,
729716404.463283,-1.120627,-1.537553,-78.10005,-0.011795,-0.062057,0.988846,1.212921,-0.561714,0.175919,63.481964,14.410126,-150.560577,,,
729716404.463515,-1.120627,-1.537556,-75.023172,-0.011795,-0.062057,0.988846,1.212921,-0.561714,0.175919,63.481964,14.410126,-150.560577,,,
729716404.466603,-0.781515,-1.698242,-78.040167,-0.011795,-0.062057,0.988846,1.138954,-0.546904,0.174721,63.481964,14.410126,-150.560577,,,
729716404.466837,-0.781515,-1.698245,-74.963288,-0.011795,-0.062057,0.988846,1.138954,-0.546904,0.174721,63.481964,14.410126,-150.560577,,,
729716404.468506,-0.781515,-1.698242,-78.040167,-0.011795,-0.062057,0.988846,1.138954,-0.546904,0.174721,63.481964,14.410126,-150.560577,,,
729716404.468729,-0.781515,-1.698245,-74.963288,-0.011795,-0.062057,0.988846,1.138954,-0.546904,0.174721,63.481964,14.410126,-150.560577,,,
729716404.47438,-0.456898,-1.854738,-77.979593,0.014557,-0.02037,0.967255,1.138954,-0.546904,0.174721,63.481964,14.410126,-150.560577,,,
729716404.474729,-0.151101,-1.998876,-74.842718,0.014557,-0.02037,0.967255,1.138954,-0.546904,0.174721,63.481964,14.410126,-150.560577,,,
729716404.476491,-0.1511,-1.998873,-77.919596,0.014557,-0.02037,0.967255,1.000193,-0.436177,0.163737,63.481964,14.410126,-150.560577,,,
729716404.476733,-0.151101,-1.998876,-74.842718,0.014557,-0.02037,0.967255,1.000193,-0.436177,0.163737,63.481964,14.410126,-150.560577,,,
729716404.478509,-0.1511,-1.998873,-77.919596,0.014557,-0.02037,0.967255,1.000193,-0.436177,0.163737,63.481964,14.410126,-150.560577,,,
729716404.478777,-0.151101,-1.998876,-74.842718,0.014557,-0.02037,0.967255,1.000193,-0.436177,0.163737,63.481964,14.410126,-150.560577,,,
729716404.484432,0.134147,-2.12458,-77.861932,0.036438,0.02037,0.94014,1.000193,-0.436177,0.163737,63.481964,14.410126,-150.560577,,,
729716404.484723,0.3988,-2.230487,-74.730021,0.036438,0.02037,0.94014,1.000193,-0.436177,0.163737,63.481964,14.410126,-150.560577,,,
729716404.486517,0.3988,-2.230484,-77.806899,0.036438,0.02037,0.94014,0.862537,-0.298769,0.146866,62.277573,12.134445,-149.878006,,,
729716404.486703,0.3988,-2.230487,-74.730021,0.036438,0.02037,0.94014,0.862537,-0.298769,0.146866,62.277573,12.134445,-149.878006,,,
729716404.488488,0.3988,-2.230484,-77.806899,0.036438,0.02037,0.94014,0.862537,-0.298769,0.146866,62.277573,12.134445,-149.878006,,,
729716404.4887,0.3988,-2.230487,-74.730021,0.036438,0.02037,0.94014,0.862537,-0.298769,0.146866,62.277573,12.134445,-149.878006,,,
729716404.492928,0.644314,-2.316872,-77.754732,0.064407,0.052094,0.94281,0.862537,-0.298769,0.146866,62.277573,12.134445,-149.878006,,,
729716404.4931,0.644313,-2.316875,-74.677854,0.064407,0.052094,0.94281,0.862537,-0.298769,0.146866,62.277573,12.134445,-149.878006,,,
729716404.496376,0.873982,-2.385384,-77.704709,0.064407,0.052094,0.94281,0.761751,-0.180933,0.135126,62.277573,12.134445,-149.878006,,,
729716404.496581,0.873981,-2.385387,-74.62783,0.064407,0.052094,0.94281,0.761751,-0.180933,0.135126,62.277573,12.134445,-149.878006,,,
729716404.498504,0.873982,-2.385384,-77.704709,0.064407,0.052094,0.94281,0.761751,-0.180933,0.135126,62.277573,12.134445,-149.878006,,,
729716404.498699,0.873981,-2.385387,-74.62783,0.064407,0.052094,0.94281,0.761751,-0.180933,0.135126,62.277573,12.134445,-149.878006,,,
729716404.502958,1.091662,-2.438699,-77.657114,0.071075,0.055588,0.94783,0.761751,-0.180933,0.135126,62.277573,12.134445,-149.878006,,,
729716404.503087,1.091662,-2.438702,-74.580235,0.071075,0.055588,0.94783,0.761751,-0.180933,0.135126,62.277573,12.134445,-149.878006,,,
729716404.506815,1.301429,-2.478397,-77.612657,0.071075,0.055588,0.94783,0.721124,-0.083573,0.110965,62.277573,12.134445,-149.878006,,,
729716404.50709,1.301428,-2.4784,-74.535779,0.071075,0.055588,0.94783,0.721124,-0.083573,0.110965,62.277573,12.134445,-149.878006,,,
729716404.508462,1.301429,-2.478397,-77.612657,0.071075,0.055588,0.94783,0.721124,-0.083573,0.110965,62.277573,12.134445,-149.878006,,,
729716404.508737,1.301428,-2.4784,-74.535779,0.071075,0.055588,0.94783,0.721124,-0.083573,0.110965,62.277573,12.134445,-149.878006,,,
729716404.513527,1.507099,-2.505179,-77.571607,0.078613,0.047028,0.960892,0.721124,-0.083573,0.110965,62.277573,12.134445,-149.878006,,,
729716404.513764,1.507098,-2.505182,-74.494729,0.078613,0.047028,0.960892,0.721124,-0.083573,0.110965,62.277573,12.134445,-149.878006,,,
729716404.516408,1.711838,-2.520969,-77.53353,0.078613,0.047028,0.960892,0.723575,-0.016329,0.097051,62.277573,12.134445,-149.878006,,,
729716404.516646,1.711838,-2.520972,-74.456651,0.078613,0.047028,0.960892,0.723575,-0.016329,0.097051,62.277573,12.134445,-149.878006,,,
729716404.518522,1.711838,-2.520969,-77.53353,0.078613,0.047028,0.960892,0.723575,-0.016329,0.097051,62.277573,12.134445,-149.878006,,,
729716404.518744,1.711838,-2.520972,-74.456651,0.078613,0.047028,0.960892,0.723575,-0.016329,0.097051,62.277573,12.134445,-149.878006,,,
729716404.52338,1.918042,-2.529271,-77.495585,0.073975,0.0327,0.987137,0.723575,-0.016329,0.097051,62.277573,12.134445,-149.878006,,,
729716404.523628,1.918041,-2.529274,-74.418707,0.073975,0.0327,0.987137,0.723575,-0.016329,0.097051,62.277573,12.134445,-149.878006,,,
729716404.527133,2.125827,-2.536279,-77.456121,0.073975,0.0327,0.987137,0.7357,-0.031118,0.1089,61.839951,10.520432,-149.371719,,,
729716404.527426,2.125826,-2.536282,-74.379242,0.073975,0.0327,0.987137,0.7357,-0.031118,0.1089,61.839951,10.520432,-149.371719,,,
729716404.52846,2.125827,-2.536279,-77.456121,0.073975,0.0327,0.987137,0.7357,-0.031118,0.1089,61.839951,10.520432,-149.371719,,,
729716404.528797,2.125826,-2.536282,-74.379242,0.073975,0.0327,0.987137,0.7357,-0.031118,0.1089,61.839951,10.520432,-149.371719,,,
729716404.533422,2.335093,-2.547064,-77.4152,0.05542,0.016068,0.983673,0.7357,-0.031118,0.1089,61.839951,10.520432,-149.371719,,,
729716404.53365,2.335092,-2.547067,-74.338321,0.05542,0.016068,0.983673,0.7357,-0.031118,0.1089,61.839951,10.520432,-149.371719,,,
729716404.536354,2.545837,-2.561365,-77.373585,0.05542,0.016068,0.983673,0.748165,-0.050487,0.111602,61.839951,10.520432,-149.371719,,,
729716404.536579,2.545836,-2.561368,-74.296706,0.05542,0.016068,0.983673,0.748165,-0.050487,0.111602,61.839951,10.520432,-149.371719,,,
729716404.538509,2.545837,-2.561365,-77.373585,0.05542,0.016068,0.983673,0.748165,-0.050487,0.111602,61.839951,10.520432,-149.371719,,,
729716404.538735,2.545836,-2.561368,-74.296706,0.05542,0.016068,0.983673,0.748165,-0.050487,0.111602,61.839951,10.520432,-149.371719,,,
729716404.543402,2.758534,-2.579359,-77.331604,0.041199,0.04274,0.972153,0.748165,-0.050487,0.111602,61.839951,10.520432,-149.371719,,,
729716404.543634,2.758533,-2.579362,-74.254726,0.041199,0.04274,0.972153,0.748165,-0.050487,0.111602,61.839951,10.520432,-149.371719,,,
729716404.546362,2.972531,-2.604915,-77.287974,0.041199,0.04274,0.972153,0.75427,-0.121542,0.126059,61.839951,10.520432,-149.371719,,,
729716404.546587,2.97253,-2.604918,-74.211095,0.041199,0.04274,0.972153,0.75427,-0.121542,0.126059,61.839951,10.520432,-149.371719,,,
729716404.548581,2.972531,-2.604915,-77.287974,0.041199,0.04274,0.972153,0.75427,-0.121542,0.126059,61.839951,10.520432,-149.371719,,,
729716404.548786,2.97253,-2.604918,-74.211095,0.041199,0.04274,0.972153,0.75427,-0.121542,0.126059,61.839951,10.520432,-149.371719,,,
729716404.553212,3.186151,-2.643097,-77.241781,0.024704,0.0448,0.976151,0.75427,-0.121542,0.126059,61.839951,10.520432,-149.371719,,,
729716404.553434,3.186149,-2.6431,-74.164902,0.024704,0.0448,0.976151,0.75427,-0.121542,0.126059,61.839951,10.520432,-149.371719,,,
729716404.556593,3.395072,-2.697303,-77.194983,0.024704,0.0448,0.976151,0.704033,-0.235033,0.123183,61.839951,10.520432,-149.371719,,,
729716404.556843,3.395071,-2.697306,-74.118104,0.024704,0.0448,0.976151,0.704033,-0.235033,0.123183,61.839951,10.520432,-149.371719,,,
729716404.558477,3.395072,-2.697303,-77.194983,0.024704,0.0448,0.976151,0.704033,-0.235033,0.123183,61.839951,10.520432,-149.371719,,,
729716404.55873,3.395071,-2.697306,-74.118104,0.024704,0.0448,0.976151,0.704033,-0.235033,0.123183,61.839951,10.520432,-149.371719,,,
729716404.563222,3.59536,-2.768057,-77.149653,0.022552,0.040161,0.9487,0.704033,-0.235033,0.123183,61.839951,10.520432,-149.371719,,,
729716404.563457,3.595359,-2.76806,-74.072775,0.022552,0.040161,0.9487,0.704033,-0.235033,0.123183,61.839951,10.520432,-149.371719,,,
729716404.566742,3.784689,-2.851863,-77.106391,0.022552,0.040161,0.9487,0.629416,-0.318505,0.107549,61.839951,10.520432,-149.371719,,,
729716404.567043,3.784687,-2.851865,-74.029513,0.022552,0.040161,0.9487,0.629416,-0.318505,0.107549,61.839951,10.520432,-149.371719,,,
729716404.569122,3.784689,-2.851863,-77.106391,0.022552,0.040161,0.9487,0.629416,-0.318505,0.107549,61.514832,9.317856,-149.093384,,,
729716404.569356,3.784687,-2.851865,-74.029513,0.022552,0.040161,0.9487,0.629416,-0.318505,0.107549,61.514832,9.317856,-149.093384,,,
729716404.573348,3.963585,-2.946858,-77.065981,0.048508,0.069748,0.928009,0.629416,-0.318505,0.107549,61.514832,9.317856,-149.093384,,,
729716404.573587,3.963583,-2.946861,-73.989103,0.048508,0.069748,0.928009,0.629416,-0.318505,0.107549,61.514832,9.317856,-149.093384,,,
729716404.576603,4.132387,-3.050776,-77.029518,0.048508,0.069748,0.928009,0.557208,-0.36842,0.07664,61.514832,9.317856,-149.093384,,,
729716404.576838,4.132385,-3.050779,-73.952639,0.048508,0.069748,0.928009,0.557208,-0.36842,0.07664,61.514832,9.317856,-149.093384,,,
729716404.578489,4.132387,-3.050776,-77.029518,0.048508,0.069748,0.928009,0.557208,-0.36842,0.07664,61.514832,9.317856,-149.093384,,,
729716404.578779,4.132385,-3.050779,-73.952639,0.048508,0.069748,0.928009,0.557208,-0.36842,0.07664,61.514832,9.317856,-149.093384,,,
729716404.583413,4.290684,-3.158527,-76.997589,0.059387,0.09227,0.942078,0.557208,-0.36842,0.07664,61.514832,9.317856,-149.093384,,,
729716404.583646,4.290682,-3.158529,-73.920711,0.059387,0.09227,0.942078,0.557208,-0.36842,0.07664,61.514832,9.317856,-149.093384,,,
729716404.586665,4.438779,-3.264003,-76.970099,0.059387,0.09227,0.942078,0.483393,-0.328579,0.047069,61.514832,9.317856,-149.093384,,,
729716404.586908,4.438778,-3.264005,-73.893221,0.059387,0.09227,0.942078,0.483393,-0.328579,0.047069,61.514832,9.317856,-149.093384,,,
729716404.588467,4.438779,-3.264003,-76.970099,0.059387,0.09227,0.942078,0.483393,-0.328579,0.047069,61.514832,9.317856,-149.093384,,,
729716404.588731,4.438778,-3.264005,-73.893221,0.059387,0.09227,0.942078,0.483393,-0.328579,0.047069,61.514832,9.317856,-149.093384,,,
729716404.59342,4.577048,-3.360187,-76.947166,0.076263,0.103424,0.960861,0.483393,-0.328579,0.047069,61.514832,9.317856,-149.093384,,,
729716404.593648,4.577046,-3.36019,-73.870287,0.076263,0.103424,0.960861,0.483393,-0.328579,0.047069,61.514832,9.317856,-149.093384,,,
729716404.596549,4.706265,-3.443269,-76.928137,0.076263,0.103424,0.960861,0.428903,-0.23586,0.032246,61.514832,9.317856,-149.093384,,,
729716404.596802,4.706263,-3.443272,-73.851258,0.076263,0.103424,0.960861,0.428903,-0.23586,0.032246,61.514832,9.317856,-149.093384,,,
729716404.598567,4.706265,-3.443269,-76.928137,0.076263,0.103424,0.960861,0.428903,-0.23586,0.032246,61.514832,9.317856,-149.093384,,,
729716404.598787,4.706263,-3.443272,-73.851258,0.076263,0.103424,0.960861,0.428903,-0.23586,0.032246,61.514832,9.317856,-149.093384,,,
729716404.60344,4.828775,-3.514074,-76.911047,0.092804,0.105957,0.988464,0.428903,-0.23586,0.032246,61.514832,9.317856,-149.093384,,,
729716404.603675,4.828773,-3.514077,-73.834168,0.092804,0.105957,0.988464,0.428903,-0.23586,0.032246,61.514832,9.317856,-149.093384,,,
729716404.606618,4.9456,-3.57376,-76.895068,0.092804,0.105957,0.988464,0.388499,-0.164909,0.02196,61.514832,9.317856,-149.093384,,,
729716404.606851,4.945599,-3.573762,-73.818189,0.092804,0.105957,0.988464,0.388499,-0.164909,0.02196,61.514832,9.317856,-149.093384,,,
729716404.609148,4.9456,-3.57376,-76.895068,0.092804,0.105957,0.988464,0.388499,-0.164909,0.02196,61.104584,7.862793,-149.0242,,,
729716404.609393,4.945599,-3.573762,-73.818189,0.092804,0.105957,0.988464,0.388499,-0.164909,0.02196,61.104584,7.862793,-149.0242,,,
729716404.613352,5.056039,-3.622973,-76.881283,0.103378,0.097168,0.995178,0.388499,-0.164909,0.02196,61.104584,7.862793,-149.0242,,,
729716404.613583,5.056037,-3.622976,-73.804405,0.103378,0.097168,0.995178,0.388499,-0.164909,0.02196,61.104584,7.862793,-149.0242,,,
729716404.617711,5.159127,-3.660436,-76.87087,0.103378,0.097168,0.995178,0.330031,-0.079034,-0.003428,61.104584,7.862793,-149.0242,,,
729716404.61799,5.159125,-3.660439,-73.793991,0.103378,0.097168,0.995178,0.330031,-0.079034,-0.003428,61.104584,7.862793,-149.0242,,,
729716404.618332,5.159127,-3.660436,-76.87087,0.103378,0.097168,0.995178,0.330031,-0.079034,-0.003428,61.104584,7.862793,-149.0242,,,
729716404.618768,5.159125,-3.660439,-73.793991,0.103378,0.097168,0.995178,0.330031,-0.079034,-0.003428,61.104584,7.862793,-149.0242,,,
729716404.623238,5.253446,-3.684538,-76.865098,0.116547,0.103668,0.987366,0.330031,-0.079034,-0.003428,61.104584,7.862793,-149.0242,,,
729716404.623469,5.253444,-3.684541,-73.78822,0.116547,0.103668,0.987366,0.330031,-0.079034,-0.003428,61.104584,7.862793,-149.0242,,,
729716404.626651,5.336981,-3.696401,-76.865445,0.116547,0.103668,0.987366,0.250823,-0.007025,-0.04022,61.104584,7.862793,-149.0242,,,
729716404.626938,5.336979,-3.696404,-73.788566,0.116547,0.103668,0.987366,0.250823,-0.007025,-0.04022,61.104584,7.862793,-149.0242,,,
729716404.628514,5.336981,-3.696401,-76.865445,0.116547,0.103668,0.987366,0.250823,-0.007025,-0.04022,61.104584,7.862793,-149.0242,,,
729716404.628829,5.336979,-3.696404,-73.788566,0.116547,0.103668,0.987366,0.250823,-0.007025,-0.04022,61.104584,7.862793,-149.0242,,,
729716404.63296,5.409416,-3.698974,-76.872027,0.119949,0.125702,0.977463,0.250823,-0.007025,-0.04022,61.104584,7.862793,-149.0242,,,
729716404.633218,5.409414,-3.698977,-73.795149,0.119949,0.125702,0.977463,0.250823,-0.007025,-0.04022,61.104584,7.862793,-149.0242,,,
729716404.637529,5.471825,-3.69504,-76.885434,0.119949,0.125702,0.977463,0.181024,0.029012,-0.084182,61.104584,7.862793,-149.0242,,,
729716404.637829,5.471823,-3.695042,-73.808555,0.119949,0.125702,0.977463,0.181024,0.029012,-0.084182,61.104584,7.862793,-149.0242,,,
729716404.638374,5.471825,-3.69504,-76.885434,0.119949,0.125702,0.977463,0.181024,0.029012,-0.084182,61.104584,7.862793,-149.0242,,,
729716404.638766,5.471823,-3.695042,-73.808555,0.119949,0.125702,0.977463,0.181024,0.029012,-0.084182,61.104584,7.862793,-149.0242,,,
729716404.643292,5.525087,-3.685501,-76.905343,0.117554,0.136795,0.95784,0.181024,0.029012,-0.084182,61.104584,7.862793,-149.0242,,,
729716404.643515,5.525085,-3.685503,-73.828464,0.117554,0.136795,0.95784,0.181024,0.029012,-0.084182,61.104584,7.862793,-149.0242,,,
729716404.645853,5.525087,-3.685501,-76.905343,0.117554,0.136795,0.95784,0.135431,0.050806,-0.093378,61.104584,7.862793,-149.0242,,,
729716404.646082,5.570354,-3.671464,-73.852194,0.117554,0.136795,0.95784,0.135431,0.050806,-0.093378,61.104584,7.862793,-149.0242,,,
729716404.650049,5.570355,-3.671461,-76.929073,0.117554,0.136795,0.95784,0.135431,0.050806,-0.093378,61.162888,7.40007,-148.64183,,,
729716404.650296,5.610762,-3.655846,-73.87622,0.097733,0.124771,0.960724,0.135431,0.050806,-0.093378,61.162888,7.40007,-148.64183,,,
729716404.653026,5.610764,-3.655843,-76.953098,0.097733,0.124771,0.960724,0.135431,0.050806,-0.093378,61.162888,7.40007,-148.64183,,,
729716404.653258,5.610762,-3.655846,-73.87622,0.097733,0.124771,0.960724,0.135431,0.050806,-0.093378,61.162888,7.40007,-148.64183,,,
729716404.656829,5.649148,-3.641698,-76.975752,0.097733,0.124771,0.960724,0.123847,0.030041,-0.077399,61.162888,7.40007,-148.64183,,,
729716404.657075,5.649147,-3.641701,-73.898874,0.097733,0.124771,0.960724,0.123847,0.030041,-0.077399,61.162888,7.40007,-148.64183,,,
729716404.658463,5.649148,-3.641698,-76.975752,0.097733,0.124771,0.960724,0.123847,0.030041,-0.077399,61.162888,7.40007,-148.64183,,,
729716404.658735,5.649147,-3.641701,-73.898874,0.097733,0.124771,0.960724,0.123847,0.030041,-0.077399,61.162888,7.40007,-148.64183,,,
729716404.663448,5.685888,-3.631642,-76.996096,0.075043,0.104172,0.96907,0.123847,0.030041,-0.077399,61.162888,7.40007,-148.64183,,,
729716404.663679,5.685886,-3.631645,-73.919218,0.075043,0.104172,0.96907,0.123847,0.030041,-0.077399,61.162888,7.40007,-148.64183,,,
729716404.666423,5.718596,-3.62591,-77.012984,0.075043,0.104172,0.96907,0.08924,0.009881,-0.0589,61.162888,7.40007,-148.64183,,,
729716404.666655,5.718594,-3.625912,-73.936106,0.075043,0.104172,0.96907,0.08924,0.009881,-0.0589,61.162888,7.40007,-148.64183,,,
729716404.66852,5.718596,-3.62591,-77.012984,0.075043,0.104172,0.96907,0.08924,0.009881,-0.0589,61.162888,7.40007,-148.64183,,,
729716404.668741,5.718594,-3.625912,-73.936106,0.075043,0.104172,0.96907,0.08924,0.009881,-0.0589,61.162888,7.40007,-148.64183,,,
729716404.673403,5.744964,-3.622924,-77.02723,0.065353,0.092255,0.959259,0.08924,0.009881,-0.0589,61.162888,7.40007,-148.64183,,,
729716404.673637,5.744962,-3.622926,-73.950351,0.065353,0.092255,0.959259,0.08924,0.009881,-0.0589,61.162888,7.40007,-148.64183,,,
729716404.677423,5.764052,-3.622743,-77.039747,0.065353,0.092255,0.959259,0.042386,-0.010288,-0.042406,61.162888,7.40007,-148.64183,,,
729716404.677695,5.76405,-3.622746,-73.962868,0.065353,0.092255,0.959259,0.042386,-0.010288,-0.042406,61.162888,7.40007,-148.64183,,,
729716404.6784,5.764052,-3.622743,-77.039747,0.065353,0.092255,0.959259,0.042386,-0.010288,-0.042406,61.162888,7.40007,-148.64183,,,
729716404.678815,5.76405,-3.622746,-73.962868,0.065353,0.092255,0.959259,0.042386,-0.010288,-0.042406,61.162888,7.40007,-148.64183,,,
729716404.68352,5.776952,-3.626366,-77.050999,0.064941,0.104828,0.945648,0.042386,-0.010288,-0.042406,61.162888,7.40007,-148.64183,,,
729716404.683767,5.77695,-3.626369,-73.97412,0.064941,0.104828,0.945648,0.042386,-0.010288,-0.042406,61.162888,7.40007,-148.64183,,,
729716404.685116,5.776952,-3.626366,-77.050999,0.064941,0.104828,0.945648,0.042386,-0.010288,-0.042406,61.162888,7.40007,-148.64183,,,
729716404.685406,5.785346,-3.63442,-73.986062,0.064941,0.104828,0.945648,0.012541,-0.043689,-0.053508,61.162888,7.40007,-148.64183,,,
729716404.690248,5.785348,-3.634418,-77.062941,0.064941,0.104828,0.945648,0.012541,-0.043689,-0.053508,61.162888,7.288376,-148.566223,,,
729716404.690482,5.790442,-3.646227,-74.000912,0.067566,0.116592,0.950241,0.012541,-0.043689,-0.053508,61.271286,7.288376,-148.566223,,,
729716404.692935,5.790444,-3.646224,-77.07779,0.067566,0.116592,0.950241,0.012541,-0.043689,-0.053508,61.271286,7.288376,-148.566223,,,
729716404.69317,5.790442,-3.646227,-74.000912,0.067566,0.116592,0.950241,0.012541,-0.043689,-0.053508,61.271286,7.288376,-148.566223,,,
729716404.697274,5.790996,-3.65874,-77.095923,0.067566,0.116592,0.950241,-0.022013,-0.045097,-0.075071,61.271286,7.288376,-148.566223,,,
729716404.697532,5.790994,-3.658743,-74.019045,0.067566,0.116592,0.950241,-0.022013,-0.045097,-0.075071,61.271286,7.288376,-148.566223,,,
729716404.698475,5.790996,-3.65874,-77.095923,0.067566,0.116592,0.950241,-0.022013,-0.045097,-0.075071,61.271286,7.288376,-148.566223,,,
729716404.698732,5.790994,-3.658743,-74.019045,0.067566,0.116592,0.950241,-0.022013,-0.045097,-0.075071,61.271286,7.288376,-148.566223,,,
729716404.703259,5.784968,-3.669789,-77.11735,0.072815,0.113846,0.958786,-0.022013,-0.045097,-0.075071,61.271286,7.288376,-148.566223,,,
729716404.703494,5.784966,-3.669791,-74.040471,0.072815,0.113846,0.958786,-0.022013,-0.045097,-0.075071,61.271286,7.288376,-148.566223,,,
729716404.705209,5.784968,-3.669789,-77.11735,0.072815,0.113846,0.958786,-0.022013,-0.045097,-0.075071,61.271286,7.288376,-148.566223,,,
729716404.705401,5.771667,-3.678995,-74.065234,0.072815,0.113846,0.958786,-0.079669,-0.028591,-0.090486,61.271286,7.288376,-148.566223,,,
729716404.710116,5.771669,-3.678992,-77.142113,0.072815,0.113846,0.958786,-0.079669,-0.028591,-0.090486,61.271286,7.288376,-148.566223,,,
729716404.710345,5.750365,-3.684962,-74.092267,0.076691,0.121185,0.952057,-0.079669,-0.028591,-0.090486,61.271286,7.288376,-148.566223,,,
729716404.712937,5.750366,-3.684959,-77.169145,0.076691,0.121185,0.952057,-0.079669,-0.028591,-0.090486,61.271286,7.288376,-148.566223,,,
729716404.713169,5.750365,-3.684962,-74.092267,0.076691,0.121185,0.952057,-0.079669,-0.028591,-0.090486,61.271286,7.288376,-148.566223,,,
729716404.717439,5.721773,-3.685879,-77.197337,0.076691,0.121185,0.952057,-0.119928,0.007533,-0.089458,61.271286,7.288376,-148.566223,,,
729716404.717701,5.721771,-3.685882,-74.120458,0.076691,0.121185,0.952057,-0.119928,0.007533,-0.089458,61.271286,7.288376,-148.566223,,,
729716404.7184,5.721773,-3.685879,-77.197337,0.076691,0.121185,0.952057,-0.119928,0.007533,-0.089458,61.271286,7.288376,-148.566223,,,
729716404.718756,5.721771,-3.685882,-74.120458,0.076691,0.121185,0.952057,-0.119928,0.007533,-0.089458,61.271286,7.288376,-148.566223,,,
729716404.722837,5.689229,-3.682107,-77.225406,0.079117,0.119522,0.954315,-0.119928,0.007533,-0.089458,61.271286,7.288376,-148.566223,,,
729716404.723047,5.689227,-3.68211,-74.148527,0.079117,0.119522,0.954315,-0.119928,0.007533,-0.089458,61.271286,7.288376,-148.566223,,,
729716404.726217,5.656076,-3.675612,-77.252115,0.079117,0.119522,0.954315,-0.116293,0.019377,-0.082333,61.271286,7.288376,-148.566223,,,
729716404.726433,5.656074,-3.675615,-74.175237,0.079117,0.119522,0.954315,-0.116293,0.019377,-0.082333,61.271286,7.288376,-148.566223,,,
729716404.728536,5.656076,-3.675612,-77.252115,0.079117,0.119522,0.954315,-0.116293,0.019377,-0.082333,61.271286,7.288376,-148.566223,,,
729716404.728802,5.656074,-3.675615,-74.175237,0.079117,0.119522,0.954315,-0.116293,0.019377,-0.082333,61.271286,7.288376,-148.566223,,,
729716404.733594,5.62485,-3.66915,-77.277325,0.07959,0.093292,0.978653,-0.116293,0.019377,-0.082333,61.148895,7.316589,-148.573929,,,
729716404.733835,5.624848,-3.669152,-74.200446,0.07959,0.093292,0.978653,-0.116293,0.019377,-0.082333,61.148895,7.316589,-148.573929,,,
729716404.735138,5.62485,-3.66915,-77.277325,0.07959,0.093292,0.978653,-0.116293,0.019377,-0.082333,61.148895,7.316589,-148.573929,,,
729716404.73543,5.596379,-3.664123,-74.224963,0.07959,0.093292,0.978653,-0.096261,0.010969,-0.077845,61.148895,7.316589,-148.573929,,,
729716404.739876,5.596381,-3.664121,-77.301842,0.07959,0.093292,0.978653,-0.096261,0.010969,-0.077845,61.148895,7.316589,-148.573929,,,
729716404.740126,5.596379,-3.664123,-74.224963,0.07959,0.093292,0.978653,-0.096261,0.010969,-0.077845,61.148895,7.316589,-148.573929,,,
729716404.742753,5.571431,-3.661997,-77.325572,0.072266,0.068161,0.983246,-0.096261,0.010969,-0.077845,61.148895,7.316589,-148.573929,,,
729716404.742969,5.571429,-3.661999,-74.248693,0.072266,0.068161,0.983246,-0.096261,0.010969,-0.077845,61.148895,7.316589,-148.573929,,,
729716404.745211,5.571431,-3.661997,-77.325572,0.072266,0.068161,0.983246,-0.096261,0.010969,-0.077845,61.148895,7.316589,-148.573929,,,
729716404.745439,5.5485,-3.657258,-74.270894,0.072266,0.068161,0.983246,-0.077296,0.011958,-0.06611,61.148895,7.316589,-148.573929,,,
729716404.749655,5.548502,-3.657255,-77.347773,0.072266,0.068161,0.983246,-0.077296,0.011958,-0.06611,61.148895,7.316589,-148.573929,,,
729716404.749873,5.5485,-3.657258,-74.270894,0.072266,0.068161,0.983246,-0.077296,0.011958,-0.06611,61.148895,7.316589,-148.573929,,,
729716404.753085,5.527455,-3.653136,-77.367953,0.060989,0.071686,0.992188,-0.077296,0.011958,-0.06611,61.148895,7.316589,-148.573929,,,
729716404.753324,5.527454,-3.653139,-74.291074,0.060989,0.071686,0.992188,-0.077296,0.011958,-0.06611,61.148895,7.316589,-148.573929,,,
729716404.755256,5.527455,-3.653136,-77.367953,0.060989,0.071686,0.992188,-0.077296,0.011958,-0.06611,61.148895,7.316589,-148.573929,,,
729716404.755516,5.506912,-3.64758,-74.309881,0.060989,0.071686,0.992188,-0.071817,0.017621,-0.054514,61.148895,7.316589,-148.573929,,,
729716404.759947,5.506914,-3.647577,-77.38676,0.060989,0.071686,0.992188,-0.071817,0.017621,-0.054514,61.148895,7.316589,-148.573929,,,
729716404.760221,5.506912,-3.64758,-74.309881,0.060989,0.071686,0.992188,-0.071817,0.017621,-0.054514,61.148895,7.316589,-148.573929,,,
729716404.763083,5.491356,-3.642278,-77.403806,0.054398,0.08313,0.991074,-0.071817,0.017621,-0.054514,61.148895,7.316589,-148.573929,,,
729716404.763309,5.491354,-3.64228,-74.326928,0.054398,0.08313,0.991074,-0.071817,0.017621,-0.054514,61.148895,7.316589,-148.573929,,,
729716404.765223,5.491356,-3.642278,-77.403806,0.054398,0.08313,0.991074,-0.071817,0.017621,-0.054514,61.148895,7.316589,-148.573929,,,
729716404.765468,5.472226,-3.634632,-74.342344,0.054398,0.08313,0.991074,-0.066992,0.025021,-0.046813,61.148895,7.316589,-148.573929,,,
729716404.769677,5.472227,-3.634629,-77.419223,0.054398,0.08313,0.991074,-0.066992,0.025021,-0.046813,61.148895,7.316589,-148.573929,,,
729716404.769891,5.472226,-3.634632,-74.342344,0.054398,0.08313,0.991074,-0.066992,0.025021,-0.046813,61.148895,7.316589,-148.573929,,,
729716404.773259,5.458387,-3.629212,-77.433361,0.055405,0.080353,0.989136,-0.066992,0.025021,-0.046813,61.187332,7.804672,-148.350296,,,
729716404.773495,5.458385,-3.629214,-74.356482,0.055405,0.080353,0.989136,-0.066992,0.025021,-0.046813,61.187332,7.804672,-148.350296,,,
729716404.775198,5.458387,-3.629212,-77.433361,0.055405,0.080353,0.989136,-0.066992,0.025021,-0.046813,61.187332,7.804672,-148.350296,,,
729716404.775421,5.438098,-3.62389,-74.370906,0.055405,0.080353,0.989136,-0.080161,0.010604,-0.047586,61.187332,7.804672,-148.350296,,,
729716404.779932,5.4381,-3.623887,-77.447785,0.055405,0.080353,0.989136,-0.080161,0.010604,-0.047586,61.187332,7.804672,-148.350296,,,
729716404.780215,5.438098,-3.62389,-74.370906,0.055405,0.080353,0.989136,-0.080161,0.010604,-0.047586,61.187332,7.804672,-148.350296,,,
729716404.782571,5.419974,-3.622169,-77.46249,0.06131,0.08078,0.981094,-0.080161,0.010604,-0.047586,61.187332,7.804672,-148.350296,,,
729716404.782818,5.419973,-3.622171,-74.385611,0.06131,0.08078,0.981094,-0.080161,0.010604,-0.047586,61.187332,7.804672,-148.350296,,,
729716404.785297,5.419974,-3.622169,-77.46249,0.06131,0.08078,0.981094,-0.080161,0.010604,-0.047586,61.187332,7.804672,-148.350296,,,
729716404.785519,5.394441,-3.614746,-74.401175,0.06131,0.08078,0.981094,-0.102829,0.038024,-0.05283,61.187332,7.804672,-148.350296,,,
729716404.789931,5.394443,-3.614743,-77.478054,0.06131,0.08078,0.981094,-0.102829,0.038024,-0.05283,61.187332,7.804672,-148.350296,,,
729716404.790206,5.394441,-3.614746,-74.401175,0.06131,0.08078,0.981094,-0.102829,0.038024,-0.05283,61.187332,7.804672,-148.350296,,,
729716404.792564,5.371688,-3.606255,-77.494948,0.06012,0.090607,0.981781,-0.102829,0.038024,-0.05283,61.187332,7.804672,-148.350296,,,
729716404.792776,5.371686,-3.606257,-74.418069,0.06012,0.090607,0.981781,-0.102829,0.038024,-0.05283,61.187332,7.804672,-148.350296,,,
729716404.795287,5.371688,-3.606255,-77.494948,0.06012,0.090607,0.981781,-0.102829,0.038024,-0.05283,61.187332,7.804672,-148.350296,,,
729716404.795473,5.337102,-3.591703,-74.437216,0.06012,0.090607,0.981781,-0.102829,0.038024,-0.05283,61.187332,7.804672,-148.350296,,,
729716404.800073,5.337103,-3.5917,-77.514094,0.06012,0.090607,0.981781,-0.145937,0.05049,-0.062165,61.187332,7.804672,-148.350296,,,
729716404.800348,5.337102,-3.591703,-74.437216,0.06012,0.090607,0.981781,-0.145937,0.05049,-0.062165,61.187332,7.804672,-148.350296,,,
729716404.802893,5.301083,-3.580056,-77.534576,0.064636,0.099091,0.977493,-0.145937,0.05049,-0.062165,61.187332,7.804672,-148.350296,,,
729716404.803121,5.301081,-3.580059,-74.457698,0.064636,0.099091,0.977493,-0.145937,0.05049,-0.062165,61.187332,7.804672,-148.350296,,,
729716404.805231,5.301083,-3.580056,-77.534576,0.064636,0.099091,0.977493,-0.145937,0.05049,-0.062165,61.187332,7.804672,-148.350296,,,
729716404.805457,5.252228,-3.56196,-74.481474,0.064636,0.099091,0.977493,-0.145937,0.05049,-0.062165,61.187332,7.804672,-148.350296,,,
729716404.810093,5.252229,-3.561958,-77.558352,0.064636,0.099091,0.977493,-0.199317,0.064369,-0.085719,61.187332,7.804672,-148.350296,,,
729716404.810366,5.252228,-3.56196,-74.481474,0.064636,0.099091,0.977493,-0.199317,0.064369,-0.085719,61.187332,7.804672,-148.350296,,,
729716404.813664,5.195198,-3.544907,-77.585971,0.067139,0.09996,0.964066,-0.199317,0.064369,-0.085719,61.366913,7.857941,-148.864914,,,
729716404.813911,5.195196,-3.54491,-74.509093,0.067139,0.09996,0.964066,-0.199317,0.064369,-0.085719,61.366913,7.857941,-148.864914,,,
729716404.815135,5.195198,-3.544907,-77.585971,0.067139,0.09996,0.964066,-0.199317,0.064369,-0.085719,61.366913,7.857941,-148.864914,,,
729716404.815477,5.132999,-3.523785,-74.54088,0.067139,0.09996,0.964066,-0.235664,0.0603,-0.103028,61.366913,7.857941,-148.864914,,,
729716404.82008,5.133,-3.523782,-77.617758,0.067139,0.09996,0.964066,-0.235664,0.0603,-0.103028,61.366913,7.857941,-148.864914,,,
729716404.820364,5.132999,-3.523785,-74.54088,0.067139,0.09996,0.964066,-0.235664,0.0603,-0.103028,61.366913,7.857941,-148.864914,,,
729716404.822644,5.062875,-3.505728,-77.651615,0.066299,0.10466,0.962509,-0.235664,0.0603,-0.103028,61.366913,7.857941,-148.864914,,,
729716404.822859,5.062873,-3.505731,-74.574737,0.066299,0.10466,0.962509,-0.235664,0.0603,-0.103028,61.366913,7.857941,-148.864914,,,
729716404.825384,5.062875,-3.505728,-77.651615,0.066299,0.10466,0.962509,-0.235664,0.0603,-0.103028,61.366913,7.857941,-148.864914,,,
729716404.825613,4.996461,-3.48692,-74.610279,0.066299,0.10466,0.962509,-0.235096,0.052413,-0.116367,61.366913,7.857941,-148.864914,,,
729716404.830021,4.996463,-3.486917,-77.687157,0.066299,0.10466,0.962509,-0.235096,0.052413,-0.116367,61.366913,7.857941,-148.864914,,,
729716404.830306,4.996461,-3.48692,-74.610279,0.066299,0.10466,0.962509,-0.235096,0.052413,-0.116367,61.366913,7.857941,-148.864914,,,
729716404.833223,4.928524,-3.469029,-77.724686,0.056885,0.092606,0.978287,-0.235096,0.052413,-0.116367,61.366913,7.857941,-148.864914,,,
729716404.833456,4.928523,-3.469032,-74.647808,0.056885,0.092606,0.978287,-0.235096,0.052413,-0.116367,61.366913,7.857941,-148.864914,,,
729716404.835178,4.928524,-3.469029,-77.724686,0.056885,0.092606,0.978287,-0.235096,0.052413,-0.116367,61.366913,7.857941,-148.864914,,,
729716404.835454,4.866379,-3.454489,-74.687642,0.056885,0.092606,0.978287,-0.235096,0.052413,-0.116367,61.366913,7.857941,-148.864914,,,
729716404.840158,4.866381,-3.454486,-77.76452,0.056885,0.092606,0.978287,-0.208081,0.030068,-0.134243,61.366913,7.857941,-148.864914,,,
729716404.84043,4.866379,-3.454489,-74.687642,0.056885,0.092606,0.978287,-0.208081,0.030068,-0.134243,61.366913,7.857941,-148.864914,,,
729716404.842996,4.809307,-3.441717,-77.806274,0.058655,0.073914,0.989975,-0.208081,0.030068,-0.134243,61.366913,7.857941,-148.864914,,,
729716404.843236,4.809305,-3.441719,-74.729396,0.058655,0.073914,0.989975,-0.208081,0.030068,-0.134243,61.366913,7.857941,-148.864914,,,
729716404.845181,4.809307,-3.441717,-77.806274,0.058655,0.073914,0.989975,-0.208081,0.030068,-0.134243,61.366913,7.857941,-148.864914,,,
729716404.845499,4.759033,-3.432362,-74.771065,0.058655,0.073914,0.989975,-0.208081,0.030068,-0.134243,61.366913,7.857941,-148.864914,,,
729716404.849696,4.759035,-3.432359,-77.847944,0.058655,0.073914,0.989975,-0.159155,0.027332,-0.130209,61.366913,7.857941,-148.864914,,,
729716404.849938,4.759033,-3.432362,-74.771065,0.058655,0.073914,0.989975,-0.159155,0.027332,-0.130209,61.366913,7.857941,-148.864914,,,
729716404.853281,4.714392,-3.42181,-77.887452,0.05127,0.058517,1.001129,-0.159155,0.027332,-0.130209,61.366913,7.857941,-148.864914,,,
729716404.853514,4.714391,-3.421812,-74.810574,0.05127,0.058517,1.001129,-0.159155,0.027332,-0.130209,61.715546,8.093735,-148.910065,,,
729716404.855827,4.714392,-3.42181,-77.887452,0.05127,0.058517,1.001129,-0.159155,0.027332,-0.130209,61.715546,8.093735,-148.910065,,,
729716404.856041,4.677202,-3.410152,-74.846068,0.05127,0.058517,1.001129,-0.108631,0.041454,-0.100221,61.715546,8.093735,-148.910065,,,
729716404.860007,4.677204,-3.410149,-77.922947,0.05127,0.058517,1.001129,-0.108631,0.041454,-0.100221,61.715546,8.093735,-148.910065,,,
729716404.860237,4.677202,-3.410152,-74.846068,0.05127,0.058517,1.001129,-0.108631,0.041454,-0.100221,61.715546,8.093735,-148.910065,,,
729716404.863199,4.647139,-3.397387,-77.953154,0.040375,0.049728,1.012787,-0.108631,0.041454,-0.100221,61.715546,8.093735,-148.910065,,,
729716404.863433,4.647138,-3.39739,-74.876275,0.040375,0.049728,1.012787,-0.108631,0.041454,-0.100221,61.715546,8.093735,-148.910065,,,
729716404.86522,4.647139,-3.397387,-77.953154,0.040375,0.049728,1.012787,-0.108631,0.041454,-0.100221,61.715546,8.093735,-148.910065,,,
729716404.865449,4.647138,-3.39739,-74.876275,0.040375,0.049728,1.012787,-0.108631,0.041454,-0.100221,61.715546,8.093735,-148.910065,,,
729716404.870111,4.6221,-3.379596,-77.976932,0.040375,0.049728,1.012787,-0.06979,0.073461,-0.051934,61.715546,8.093735,-148.910065,,,
729716404.870373,4.622098,-3.379599,-74.900053,0.040375,0.049728,1.012787,-0.06979,0.073461,-0.051934,61.715546,8.093735,-148.910065,,,
729716404.872813,4.609457,-3.360432,-77.992865,0.037598,0.04599,1.016403,-0.06979,0.073461,-0.051934,61.715546,8.093735,-148.910065,,,
729716404.873046,4.609455,-3.360435,-74.915986,0.037598,0.04599,1.016403,-0.06979,0.073461,-0.051934,61.715546,8.093735,-148.910065,,,
729716404.875249,4.609457,-3.360432,-77.992865,0.037598,0.04599,1.016403,-0.06979,0.073461,-0.051934,61.715546,8.093735,-148.910065,,,
729716404.875463,4.609455,-3.360435,-74.915986,0.037598,0.04599,1.016403,-0.06979,0.073461,-0.051934,61.715546,8.093735,-148.910065,,,
729716404.880089,4.593733,-3.337624,-78.002064,0.037598,0.04599,1.016403,-0.05168,0.084353,-0.014983,61.715546,8.093735,-148.910065,,,
729716404.88035,4.593732,-3.337627,-74.925185,0.037598,0.04599,1.016403,-0.05168,0.084353,-0.014983,61.715546,8.093735,-148.910065,,,
729716404.88274,4.590597,-3.317783,-78.006097,0.038712,0.044647,1.008057,-0.05168,0.084353,-0.014983,61.715546,8.093735,-148.910065,,,
729716404.882974,4.590595,-3.317786,-74.929218,0.038712,0.044647,1.008057,-0.05168,0.084353,-0.014983,61.715546,8.093735,-148.910065,,,
729716404.885221,4.590597,-3.317783,-78.006097,0.038712,0.044647,1.008057,-0.05168,0.084353,-0.014983,61.715546,8.093735,-148.910065,,,
729716404.885444,4.590595,-3.317786,-74.929218,0.038712,0.044647,1.008057,-0.05168,0.084353,-0.014983,61.715546,8.093735,-148.910065,,,
729716404.890905,4.576024,-3.293351,-78.007194,0.038712,0.044647,1.008057,-0.053037,0.086191,0.001025,61.715546,8.093735,-148.910065,,,
729716404.891177,4.57449,-3.276144,-74.92966,0.041702,0.062454,0.98703,-0.053037,0.086191,0.001025,61.715546,8.093735,-148.910065,,,
729716404.8928,4.574491,-3.276142,-78.006539,0.041702,0.062454,0.98703,-0.053037,0.086191,0.001025,61.715546,8.093735,-148.910065,,,
729716404.893028,4.57449,-3.276144,-74.92966,0.041702,0.062454,0.98703,-0.053037,0.086191,0.001025,61.715546,8.093735,-148.910065,,,
729716404.896075,4.574491,-3.276142,-78.006539,0.041702,0.062454,0.98703,-0.053037,0.086191,0.001025,61.853409,8.398102,-148.850601,,,
729716404.896361,4.557832,-3.254869,-74.93053,0.041702,0.062454,0.98703,-0.073307,0.064309,-0.008619,61.853409,8.398102,-148.850601,,,
729716404.901041,4.557834,-3.254866,-78.007408,0.041702,0.062454,0.98703,-0.073307,0.064309,-0.008619,61.853409,8.398102,-148.850601,,,
729716404.901321,4.550896,-3.24152,-74.933193,0.039383,0.082291,0.971405,-0.073307,0.064309,-0.008619,61.853409,8.398102,-148.850601,,,
729716404.902741,4.550897,-3.241517,-78.010071,0.039383,0.082291,0.971405,-0.073307,0.064309,-0.008619,61.853409,8.398102,-148.850601,,,
729716404.902967,4.550896,-3.24152,-74.933193,0.039383,0.082291,0.971405,-0.073307,0.064309,-0.008619,61.853409,8.398102,-148.850601,,,
729716404.905225,4.550897,-3.241517,-78.010071,0.039383,0.082291,0.971405,-0.073307,0.064309,-0.008619,61.853409,8.398102,-148.850601,,,
729716404.905471,4.550896,-3.24152,-74.933193,0.039383,0.082291,0.971405,-0.073307,0.064309,-0.008619,61.853409,8.398102,-148.850601,,,
729716404.910128,4.525191,-3.225458,-78.015786,0.039383,0.082291,0.971405,-0.107698,0.053908,-0.026001,61.853409,8.398102,-148.850601,,,
729716404.910382,4.52519,-3.225461,-74.938908,0.039383,0.082291,0.971405,-0.107698,0.053908,-0.026001,61.853409,8.398102,-148.850601,,,
729716404.912834,4.499469,-3.211328,-78.023989,0.039185,0.090698,0.953995,-0.107698,0.053908,-0.026001,61.853409,8.398102,-148.850601,,,
729716404.913062,4.499468,-3.21133,-74.947111,0.039185,0.090698,0.953995,-0.107698,0.053908,-0.026001,61.853409,8.398102,-148.850601,,,
729716404.915287,4.499469,-3.211328,-78.023989,0.039185,0.090698,0.953995,-0.107698,0.053908,-0.026001,61.853409,8.398102,-148.850601,,,
729716404.91551,4.499468,-3.21133,-74.947111,0.039185,0.090698,0.953995,-0.107698,0.053908,-0.026001,61.853409,8.398102,-148.850601,,,
729716404.919954,4.464771,-3.198648,-78.033653,0.039185,0.090698,0.953995,-0.138494,0.028857,-0.030654,61.853409,8.398102,-148.850601,,,
729716404.920217,4.46477,-3.19865,-74.956775,0.039185,0.090698,0.953995,-0.138494,0.028857,-0.030654,61.853409,8.398102,-148.850601,,,
729716404.92306,4.423512,-3.192121,-78.044242,0.034348,0.091156,0.959412,-0.138494,0.028857,-0.030654,61.853409,8.398102,-148.850601,,,
729716404.923297,4.42351,-3.192124,-74.967364,0.034348,0.091156,0.959412,-0.138494,0.028857,-0.030654,61.853409,8.398102,-148.850601,,,
729716404.925185,4.423512,-3.192121,-78.044242,0.034348,0.091156,0.959412,-0.138494,0.028857,-0.030654,61.853409,8.398102,-148.850601,,,
729716404.925401,4.42351,-3.192124,-74.967364,0.034348,0.091156,0.959412,-0.138494,0.028857,-0.030654,61.853409,8.398102,-148.850601,,,
729716404.930969,4.382882,-3.190037,-78.056388,0.034348,0.091156,0.959412,-0.148678,-0.008253,-0.038815,61.853409,8.398102,-148.850601,,,
729716404.931239,4.33399,-3.188786,-74.993014,0.037872,0.083389,0.959106,-0.148678,-0.008253,-0.038815,61.853409,8.398102,-148.850601,,,
729716404.932655,4.333991,-3.188783,-78.069893,0.037872,0.083389,0.959106,-0.148678,-0.008253,-0.038815,61.853409,8.398102,-148.850601,,,
729716404.93289,4.33399,-3.188786,-74.993014,0.037872,0.083389,0.959106,-0.148678,-0.008253,-0.038815,61.853409,8.398102,-148.850601,,,
729716404.935923,4.333991,-3.188783,-78.069893,0.037872,0.083389,0.959106,-0.148678,-0.008253,-0.038815,61.822586,8.58255,-149.170959,,,
729716404.936143,4.293661,-3.193169,-75.006876,0.037872,0.083389,0.959106,-0.135927,-0.023904,-0.045169,61.822586,8.58255,-149.170959,,,
729716404.939735,4.293663,-3.193166,-78.083755,0.037872,0.083389,0.959106,-0.135927,-0.023904,-0.045169,61.822586,8.58255,-149.170959,,,
729716404.939958,4.293661,-3.193169,-75.006876,0.037872,0.083389,0.959106,-0.135927,-0.023904,-0.045169,61.822586,8.58255,-149.170959,,,
729716404.942781,4.245518,-3.19255,-78.098959,0.040222,0.069504,0.980286,-0.135927,-0.023904,-0.045169,61.822586,8.58255,-149.170959,,,
729716404.943014,4.245517,-3.192552,-75.022081,0.040222,0.069504,0.980286,-0.135927,-0.023904,-0.045169,61.822586,8.58255,-149.170959,,,
729716404.945211,4.245518,-3.19255,-78.098959,0.040222,0.069504,0.980286,-0.135927,-0.023904,-0.045169,61.822586,8.58255,-149.170959,,,
729716404.945483,4.245517,-3.192552,-75.022081,0.040222,0.069504,0.980286,-0.135927,-0.023904,-0.045169,61.822586,8.58255,-149.170959,,,
729716404.949846,4.209348,-3.198495,-78.113777,0.040222,0.069504,0.980286,-0.113736,-0.019698,-0.045165,61.822586,8.58255,-149.170959,,,
729716404.950112,4.209347,-3.198498,-75.036898,0.040222,0.069504,0.980286,-0.113736,-0.019698,-0.045165,61.822586,8.58255,-149.170959,,,
729716404.952962,4.166295,-3.197153,-78.128276,0.045685,0.063919,0.994614,-0.113736,-0.019698,-0.045165,61.822586,8.58255,-149.170959,,,
729716404.95319,4.166294,-3.197156,-75.051398,0.045685,0.063919,0.994614,-0.113736,-0.019698,-0.045165,61.822586,8.58255,-149.170959,,,
729716404.955182,4.166295,-3.197153,-78.128276,0.045685,0.063919,0.994614,-0.113736,-0.019698,-0.045165,61.822586,8.58255,-149.170959,,,
729716404.955388,4.166294,-3.197156,-75.051398,0.045685,0.063919,0.994614,-0.113736,-0.019698,-0.045165,61.822586,8.58255,-149.170959,,,
729716404.959843,4.139541,-3.202116,-78.140125,0.045685,0.063919,0.994614,-0.073104,-0.013653,-0.025305,61.822586,8.58255,-149.170959,,,
729716404.960073,4.139539,-3.202118,-75.063247,0.045685,0.063919,0.994614,-0.073104,-0.013653,-0.025305,61.822586,8.58255,-149.170959,,,
729716404.962592,4.107584,-3.197491,-78.148856,0.049347,0.055283,1.010834,-0.073104,-0.013653,-0.025305,61.822586,8.58255,-149.170959,,,
729716404.962817,4.107583,-3.197493,-75.071978,0.049347,0.055283,1.010834,-0.073104,-0.013653,-0.025305,61.822586,8.58255,-149.170959,,,
729716404.96532,4.107584,-3.197491,-78.148856,0.049347,0.055283,1.010834,-0.073104,-0.013653,-0.025305,61.822586,8.58255,-149.170959,,,
729716404.965535,4.107583,-3.197493,-75.071978,0.049347,0.055283,1.010834,-0.073104,-0.013653,-0.025305,61.822586,8.58255,-149.170959,,,
729716404.971338,4.092277,-3.196281,-78.152825,0.049347,0.055283,1.010834,-0.037711,0.024927,0.002633,61.822586,8.58255,-149.170959,,,
729716404.971625,4.079974,-3.184865,-75.075959,0.050766,0.050034,1.026947,-0.037711,0.024927,0.002633,61.822586,8.58255,-149.170959,,,
729716404.972073,4.079974,-3.184865,-75.075959,0.050766,0.050034,1.026947,-0.037711,0.024927,0.002633,61.822586,8.58255,-149.170959,,,
729716404.977802,4.079975,-3.184862,-78.152837,0.050766,0.050034,1.026947,-0.027175,0.040259,0.026506,61.737183,9.032501,-149.116074,,,
729716404.978082,4.070746,-3.17668,-75.071839,0.050766,0.050034,1.026947,-0.027175,0.040259,0.026506,61.737183,9.032501,-149.116074,,,
729716404.978882,4.070748,-3.176677,-78.148717,0.050766,0.050034,1.026947,-0.027175,0.040259,0.026506,61.737183,9.032501,-149.116074,,,
729716404.979104,4.070746,-3.17668,-75.071839,0.050766,0.050034,1.026947,-0.027175,0.040259,0.026506,61.737183,9.032501,-149.116074,,,
729716404.983096,4.070006,-3.159465,-78.142093,0.059082,0.056046,1.016663,-0.027175,0.040259,0.026506,61.737183,9.032501,-149.116074,,,
729716404.98337,4.070005,-3.159468,-75.065214,0.059082,0.056046,1.016663,-0.027175,0.040259,0.026506,61.737183,9.032501,-149.116074,,,
729716404.985178,4.070006,-3.159465,-78.142093,0.059082,0.056046,1.016663,-0.027175,0.040259,0.026506,61.737183,9.032501,-149.116074,,,
729716404.985395,4.070005,-3.159468,-75.065214,0.059082,0.056046,1.016663,-0.027175,0.040259,0.026506,61.737183,9.032501,-149.116074,,,
729716404.989817,4.065299,-3.144549,-78.134103,0.059082,0.056046,1.016663,-0.003927,0.068897,0.024442,61.737183,9.032501,-149.116074,,,
729716404.990048,4.065298,-3.144552,-75.057224,0.059082,0.056046,1.016663,-0.003927,0.068897,0.024442,61.737183,9.032501,-149.116074,,,
729716404.992381,4.073878,-3.120818,-78.127221,0.063019,0.067368,1.017899,-0.003927,0.068897,0.024442,61.737183,9.032501,-149.116074,,,
729716404.992617,4.073876,-3.12082,-75.050342,0.063019,0.067368,1.017899,-0.003927,0.068897,0.024442,61.737183,9.032501,-149.116074,,,
729716404.995253,4.073878,-3.120818,-78.127221,0.063019,0.067368,1.017899,-0.003927,0.068897,0.024442,61.737183,9.032501,-149.116074,,,
729716404.99546,4.073876,-3.12082,-75.050342,0.063019,0.067368,1.017899,-0.003927,0.068897,0.024442,61.737183,9.032501,-149.116074,,,
729716405.000763,4.074867,-3.103385,-78.121544,0.063019,0.067368,1.017899,0.007052,0.057657,0.006584,61.737183,9.032501,-149.116074,,,
729716405.001022,4.085291,-3.080618,-75.042068,0.066544,0.073975,1.010757,0.007052,0.057657,0.006584,61.737183,9.032501,-149.116074,,,
729716405.002773,4.085293,-3.080615,-78.118946,0.066544,0.073975,1.010757,0.007052,0.057657,0.006584,61.737183,9.032501,-149.116074,,,
729716405.002997,4.085291,-3.080618,-75.042068,0.066544,0.073975,1.010757,0.007052,0.057657,0.006584,61.737183,9.032501,-149.116074,,,
729716405.00521,4.085293,-3.080615,-78.118946,0.066544,0.073975,1.010757,0.007052,0.057657,0.006584,61.737183,9.032501,-149.116074,,,
729716405.005427,4.085291,-3.080618,-75.042068,0.066544,0.073975,1.010757,0.007052,0.057657,0.006584,61.737183,9.032501,-149.116074,,,
729716405.011319,4.085312,-3.066383,-78.118585,0.066544,0.073975,1.010757,-0.013196,0.04614,-0.009873,61.737183,9.032501,-149.116074,,,
729716405.011597,4.085285,-3.048246,-75.044516,0.062759,0.08252,0.991653,-0.013196,0.04614,-0.009873,61.737183,9.032501,-149.116074,,,
729716405.01215,4.085285,-3.048246,-75.044516,0.062759,0.08252,0.991653,-0.013196,0.04614,-0.009873,61.737183,9.032501,-149.116074,,,
729716405.017642,4.085286,-3.048243,-78.121395,0.062759,0.08252,0.991653,-0.05185,0.033321,-0.021385,61.958496,8.903702,-149.097916,,,
729716405.017915,4.075905,-3.037524,-75.049455,0.062759,0.08252,0.991653,-0.05185,0.033321,-0.021385,61.958496,8.903702,-149.097916,,,
729716405.01919,4.075906,-3.037521,-78.126334,0.062759,0.08252,0.991653,-0.05185,0.033321,-0.021385,61.958496,8.903702,-149.097916,,,
729716405.019416,4.075905,-3.037524,-75.049455,0.062759,0.08252,0.991653,-0.05185,0.033321,-0.021385,61.958496,8.903702,-149.097916,,,
729716405.022937,4.060583,-3.02361,-78.133307,0.062927,0.091614,0.981918,-0.05185,0.033321,-0.021385,61.958496,8.903702,-149.097916,,,
729716405.023192,4.060581,-3.023613,-75.056429,0.062927,0.091614,0.981918,-0.05185,0.033321,-0.021385,61.958496,8.903702,-149.097916,,,
729716405.025205,4.060583,-3.02361,-78.133307,0.062927,0.091614,0.981918,-0.05185,0.033321,-0.021385,61.958496,8.903702,-149.097916,,,
729716405.025422,4.060581,-3.023613,-75.056429,0.062927,0.091614,0.981918,-0.05185,0.033321,-0.021385,61.958496,8.903702,-149.097916,,,
729716405.030294,4.041352,-3.013781,-78.140799,0.062927,0.091614,0.981918,-0.085977,0.039942,-0.025936,61.958496,8.903702,-149.097916,,,
729716405.030533,4.041351,-3.013784,-75.06392,0.062927,0.091614,0.981918,-0.085977,0.039942,-0.025936,61.958496,8.903702,-149.097916,,,
729716405.032784,4.013906,-3.000564,-78.149171,0.062653,0.095154,0.981674,-0.085977,0.039942,-0.025936,61.958496,8.903702,-149.097916,,,
729716405.033038,4.013905,-3.000567,-75.072292,0.062653,0.095154,0.981674,-0.085977,0.039942,-0.025936,61.958496,8.903702,-149.097916,,,
729716405.035222,4.013906,-3.000564,-78.149171,0.062653,0.095154,0.981674,-0.085977,0.039942,-0.025936,61.958496,8.903702,-149.097916,,,
729716405.035435,4.013905,-3.000567,-75.072292,0.062653,0.095154,0.981674,-0.085977,0.039942,-0.025936,61.958496,8.903702,-149.097916,,,
729716405.039877,3.986132,-2.990829,-78.158243,0.062653,0.095154,0.981674,-0.107602,0.030651,-0.030075,61.958496,8.903702,-149.097916,,,
729716405.040101,3.986131,-2.990832,-75.081365,0.062653,0.095154,0.981674,-0.107602,0.030651,-0.030075,61.958496,8.903702,-149.097916,,,
729716405.043023,3.948107,-2.980356,-78.16827,0.066315,0.089233,0.980957,-0.107602,0.030651,-0.030075,61.958496,8.903702,-149.097916,,,
729716405.043261,3.948105,-2.980359,-75.091392,0.066315,0.089233,0.980957,-0.107602,0.030651,-0.030075,61.958496,8.903702,-149.097916,,,
729716405.045171,3.948107,-2.980356,-78.16827,0.066315,0.089233,0.980957,-0.107602,0.030651,-0.030075,61.958496,8.903702,-149.097916,,,
729716405.045437,3.948105,-2.980359,-75.091392,0.066315,0.089233,0.980957,-0.107602,0.030651,-0.030075,61.958496,8.903702,-149.097916,,,
729716405.050119,3.915926,-2.970428,-78.178981,0.066315,0.089233,0.980957,-0.11682,0.047528,-0.035538,61.958496,8.903702,-149.097916,,,
729716405.050379,3.915925,-2.970431,-75.102103,0.066315,0.089233,0.980957,-0.11682,0.047528,-0.035538,61.958496,8.903702,-149.097916,,,
729716405.053002,3.874556,-2.956513,-78.190758,0.062775,0.076553,0.98436,-0.11682,0.047528,-0.035538,61.958496,8.903702,-149.097916,,,
729716405.053234,3.874555,-2.956516,-75.113879,0.062775,0.076553,0.98436,-0.11682,0.047528,-0.035538,61.958496,8.903702,-149.097916,,,
729716405.055167,3.874556,-2.956513,-78.190758,0.062775,0.076553,0.98436,-0.11682,0.047528,-0.035538,61.958496,8.903702,-149.097916,,,
729716405.055393,3.874555,-2.956516,-75.113879,0.062775,0.076553,0.98436,-0.11682,0.047528,-0.035538,61.958496,8.903702,-149.097916,,,
729716405.060278,3.841086,-2.938497,-78.20327,0.062775,0.076553,0.98436,-0.116945,0.075186,-0.036224,62.056442,9.04718,-148.730087,,,
729716405.060517,3.841084,-2.9385,-75.126391,0.062775,0.076553,0.98436,-0.116945,0.075186,-0.036224,62.056442,9.04718,-148.730087,,,
729716405.06298,3.803619,-2.921024,-78.215039,0.060577,0.074234,1.001083,-0.116945,0.075186,-0.036224,62.056442,9.04718,-148.730087,,,
729716405.063212,3.803617,-2.921027,-75.13816,0.060577,0.074234,1.001083,-0.116945,0.075186,-0.036224,62.056442,9.04718,-148.730087,,,
729716405.065269,3.803619,-2.921024,-78.215039,0.060577,0.074234,1.001083,-0.116945,0.075186,-0.036224,62.056442,9.04718,-148.730087,,,
729716405.065466,3.803617,-2.921027,-75.13816,0.060577,0.074234,1.001083,-0.116945,0.075186,-0.036224,62.056442,9.04718,-148.730087,,,
729716405.070096,3.770878,-2.898789,-78.225457,0.060577,0.074234,1.001083,-0.111978,0.072609,-0.030186,62.056442,9.04718,-148.730087,,,
729716405.070337,3.770876,-2.898792,-75.148578,0.060577,0.074234,1.001083,-0.111978,0.072609,-0.030186,62.056442,9.04718,-148.730087,,,
729716405.072817,3.740279,-2.885933,-78.234282,0.052002,0.06749,0.994247,-0.111978,0.072609,-0.030186,62.056442,9.04718,-148.730087,,,
729716405.073069,3.740278,-2.885936,-75.157403,0.052002,0.06749,0.994247,-0.111978,0.072609,-0.030186,62.056442,9.04718,-148.730087,,,
729716405.075217,3.740279,-2.885933,-78.234282,0.052002,0.06749,0.994247,-0.111978,0.072609,-0.030186,62.056442,9.04718,-148.730087,,,
729716405.07543,3.740278,-2.885936,-75.157403,0.052002,0.06749,0.994247,-0.111978,0.072609,-0.030186,62.056442,9.04718,-148.730087,,,
729716405.079953,3.712764,-2.871274,-78.243186,0.052002,0.06749,0.994247,-0.072723,0.035203,-0.02875,62.056442,9.04718,-148.730087,,,
729716405.080207,3.712763,-2.871277,-75.166308,0.052002,0.06749,0.994247,-0.072723,0.035203,-0.02875,62.056442,9.04718,-148.730087,,,
729716405.082752,3.696862,-2.868175,-78.251315,0.047287,0.05542,0.996613,-0.072723,0.035203,-0.02875,62.056442,9.04718,-148.730087,,,
729716405.08298,3.696861,-2.868178,-75.174436,0.047287,0.05542,0.996613,-0.072723,0.035203,-0.02875,62.056442,9.04718,-148.730087,,,
729716405.085224,3.696862,-2.868175,-78.251315,0.047287,0.05542,0.996613,-0.072723,0.035203,-0.02875,62.056442,9.04718,-148.730087,,,
729716405.085441,3.696861,-2.868178,-75.174436,0.047287,0.05542,0.996613,-0.072723,0.035203,-0.02875,62.056442,9.04718,-148.730087,,,
729716405.089873,3.684892,-2.860178,-78.259926,0.047287,0.05542,0.996613,-0.013059,0.023257,-0.027501,62.056442,9.04718,-148.730087,,,
729716405.090124,3.684891,-2.860181,-75.183048,0.047287,0.05542,0.996613,-0.013059,0.023257,-0.027501,62.056442,9.04718,-148.730087,,,
729716405.092941,3.691111,-2.86088,-78.267675,0.03743,0.042465,1.021332,-0.013059,0.023257,-0.027501,62.056442,9.04718,-148.730087,,,
729716405.09317,3.69111,-2.860883,-75.190796,0.03743,0.042465,1.021332,-0.013059,0.023257,-0.027501,62.056442,9.04718,-148.730087,,,
729716405.09519,3.691111,-2.86088,-78.267675,0.03743,0.042465,1.021332,-0.013059,0.023257,-0.027501,62.056442,9.04718,-148.730087,,,
729716405.095435,3.69111,-2.860883,-75.190796,0.03743,0.042465,1.021332,-0.013059,0.023257,-0.027501,62.056442,9.04718,-148.730087,,,
729716405.101713,3.692731,-2.857341,-78.27425,0.03743,0.042465,1.021332,0.014977,-0.001161,-0.020454,62.218613,8.91803,-149.062485,,,
729716405.102035,3.710867,-2.864926,-75.201893,0.0336,0.046448,1.022278,0.014977,-0.001161,-0.020454,62.218613,8.91803,-149.062485,,,
729716405.106928,3.710868,-2.864923,-78.278772,0.0336,0.046448,1.022278,0.003602,-0.028853,-0.006817,62.218613,8.91803,-149.062485,,,
729716405.107196,3.714125,-2.87082,-75.205221,0.0336,0.046448,1.022278,0.003602,-0.028853,-0.006817,62.218613,8.91803,-149.062485,,,
729716405.108813,3.714126,-2.870817,-78.2821,0.0336,0.046448,1.022278,0.003602,-0.028853,-0.006817,62.218613,8.91803,-149.062485,,,
729716405.109023,3.714125,-2.87082,-75.205221,0.0336,0.046448,1.022278,0.003602,-0.028853,-0.006817,62.218613,8.91803,-149.062485,,,
729716405.113226,3.729106,-2.886125,-78.283364,0.039886,0.06282,0.996109,0.003602,-0.028853,-0.006817,62.218613,8.91803,-149.062485,,,
729716405.113462,3.729104,-2.886128,-75.206486,0.039886,0.06282,0.996109,0.003602,-0.028853,-0.006817,62.218613,8.91803,-149.062485,,,
729716405.115199,3.729106,-2.886125,-78.283364,0.039886,0.06282,0.996109,0.003602,-0.028853,-0.006817,62.218613,8.91803,-149.062485,,,
729716405.115445,3.729104,-2.886128,-75.206486,0.039886,0.06282,0.996109,0.003602,-0.028853,-0.006817,62.218613,8.91803,-149.062485,,,
729716405.121825,3.726944,-2.891401,-78.284175,0.039886,0.06282,0.996109,-0.014133,0.012517,0.002161,62.218613,8.91803,-149.062485,,,
729716405.122103,3.733122,-2.896838,-75.206576,0.044052,0.072662,0.998245,-0.014133,0.012517,0.002161,62.218613,8.91803,-149.062485,,,
