Time (sec),Pitch (deg),Roll (deg),Yaw(deg),X-Acceleration (g),Y-Acceleration (g),Z-Acceleration (g),Pitch Rate (deg/sec),Roll Rate (deg/sec),Yaw Rate (deg/sec),Magnetic Field in X direction (uT),Magnetic Field in Y direction (uT),Magnetic Field in Z Direction (uT),Latitude (deg),Longitude (deg),Altitude (m)
729706048.144674,-10.029928,5.334531,174.634286,-0.077835,-0.163574,0.955307,0.08158,0.005621,0.010048,89.267181,18.951721,-146.728592,,,
729706048.148001,-10.029928,5.334531,174.634286,-0.077835,-0.163574,0.955307,0.08158,0.005621,0.010048,89.267181,18.951721,-146.728592,,,
729706048.151357,-10.009131,5.334849,174.633938,-0.078934,-0.159332,0.95314,0.070167,0.004139,0.0028,89.267181,18.951721,-146.728592,,,
729706048.15467,-9.990041,5.335643,174.633405,-0.078934,-0.159332,0.95314,0.070167,0.004139,0.0028,89.009949,18.980194,-146.580948,,,
729706048.157991,-9.990041,5.335643,174.633405,-0.078934,-0.159332,0.95314,0.070167,0.004139,0.0028,89.009949,18.980194,-146.580948,,,
729706048.161357,-9.973866,5.335636,174.632661,-0.078003,-0.160339,0.952377,0.051173,0.004502,0.000559,89.009949,18.980194,-146.580948,,,
729706048.164667,-9.96041,5.337084,174.632122,-0.078003,-0.160339,0.952377,0.051173,0.004502,0.000559,89.009949,18.980194,-146.580948,,,
729706048.168008,-9.96041,5.337084,174.632122,-0.078003,-0.160339,0.952377,0.051173,0.004502,0.000559,89.009949,18.980194,-146.580948,,,
729706048.171385,-9.948579,5.33776,174.631638,-0.081039,-0.161987,0.954254,0.039058,0.005734,0.000998,89.009949,18.980194,-146.580948,,,
729706048.174721,-9.938223,5.338932,174.631891,-0.081039,-0.161987,0.954254,0.039058,0.005734,0.000998,89.009949,18.980194,-146.580948,,,
729706048.178072,-9.938223,5.338932,174.631891,-0.081039,-0.161987,0.954254,0.039058,0.005734,0.000998,89.009949,18.980194,-146.580948,,,
729706048.181362,-9.928945,5.339592,174.632494,-0.084274,-0.163681,0.955978,0.028608,0.005281,0.003062,89.009949,18.980194,-146.580948,,,
729706048.184675,-9.920849,5.340252,174.633623,-0.084274,-0.163681,0.955978,0.028608,0.005281,0.003062,89.009949,18.980194,-146.580948,,,
729706048.187995,-9.920849,5.340252,174.633623,-0.084274,-0.163681,0.955978,0.028608,0.005281,0.003062,89.009949,18.980194,-146.580948,,,
729706048.191328,-9.912318,5.340583,174.636044,-0.084778,-0.161346,0.955795,0.027917,0.001988,0.011994,89.009949,18.980194,-146.580948,,,
729706048.194669,-9.904376,5.340435,174.639485,-0.084778,-0.161346,0.955795,0.027917,0.001988,0.011994,89.009949,18.980194,-146.580948,,,
729706048.197994,-9.904376,5.340435,174.639485,-0.084778,-0.161346,0.955795,0.027917,0.001988,0.011994,89.160049,18.883316,-146.606659,,,
729706048.20133,-9.89636,5.340019,174.64303,-0.081451,-0.161392,0.955231,0.027306,-0.001815,0.01235,89.160049,18.883316,-146.606659,,,
729706048.204666,-9.8889,5.338836,174.646062,-0.081451,-0.161392,0.955231,0.027306,-0.001815,0.01235,89.160049,18.883316,-146.606659,,,
729706048.208002,-9.8889,5.338836,174.646062,-0.081451,-0.161392,0.955231,0.027306,-0.001815,0.01235,89.160049,18.883316,-146.606659,,,
729706048.211368,-9.882676,5.337773,174.648635,-0.078247,-0.162155,0.954758,0.01873,-0.003022,0.007961,89.160049,18.883316,-146.606659,,,
729706048.214735,-9.877473,5.335481,174.650473,-0.078247,-0.162155,0.954758,0.01873,-0.003022,0.007961,89.160049,18.883316,-146.606659,,,
729706048.217995,-9.877473,5.335481,174.650473,-0.078247,-0.162155,0.954758,0.01873,-0.003022,0.007961,89.160049,18.883316,-146.606659,,,
729706048.221328,-9.873415,5.333265,174.65127,-0.075668,-0.162643,0.958923,0.011483,-0.003795,-0.000312,89.160049,18.883316,-146.606659,,,
729706048.224663,-9.869982,5.330905,174.650444,-0.075668,-0.162643,0.958923,0.011483,-0.003795,-0.000312,89.160049,18.883316,-146.606659,,,
729706048.227994,-9.869982,5.330905,174.650444,-0.075668,-0.162643,0.958923,0.011483,-0.003795,-0.000312,89.160049,18.883316,-146.606659,,,
729706048.231396,-9.866574,5.329241,174.648713,-0.071732,-0.167068,0.966232,0.013346,-0.000259,-0.006763,89.160049,18.883316,-146.606659,,,
729706048.234658,-9.863312,5.327628,174.646741,-0.071732,-0.167068,0.966232,0.013346,-0.000259,-0.006763,89.160049,18.883316,-146.606659,,,
729706048.237995,-9.863312,5.327628,174.646741,-0.071732,-0.167068,0.966232,0.013346,-0.000259,-0.006763,89.313309,18.838791,-146.751785,,,
729706048.241398,-9.860732,5.325856,174.644299,-0.073853,-0.168182,0.969116,0.010444,-0.003111,-0.010685,89.313309,18.838791,-146.751785,,,
729706048.244654,-9.858381,5.322644,174.640786,-0.073853,-0.168182,0.969116,0.010444,-0.003111,-0.010685,89.313309,18.838791,-146.751785,,,
729706048.247994,-9.858381,5.322644,174.640786,-0.073853,-0.168182,0.969116,0.010444,-0.003111,-0.010685,89.313309,18.838791,-146.751785,,,
729706048.251348,-9.85616,5.318305,174.637242,-0.075684,-0.169037,0.966919,0.010892,-0.013218,-0.011242,89.313309,18.838791,-146.751785,,,
729706048.25466,-9.85352,5.3129,174.633559,-0.075684,-0.169037,0.966919,0.010892,-0.013218,-0.011242,89.313309,18.838791,-146.751785,,,
729706048.257832,-9.85352,5.3129,174.633559,-0.075684,-0.169037,0.966919,0.010892,-0.013218,-0.011242,89.313309,18.838791,-146.751785,,,
729706048.261354,-9.851685,5.307311,174.628354,-0.075363,-0.166824,0.967926,0.007082,-0.014034,-0.022308,89.313309,18.838791,-146.751785,,,
729706048.26466,-9.850902,5.301245,174.622137,-0.075363,-0.166824,0.967926,0.007082,-0.014034,-0.022308,89.313309,18.838791,-146.751785,,,
729706048.268104,-9.850902,5.301245,174.622137,-0.075363,-0.166824,0.967926,0.007082,-0.014034,-0.022308,89.313309,18.838791,-146.751785,,,
729706048.271333,-9.851998,5.29544,174.615447,-0.075851,-0.165924,0.968719,-0.004779,-0.012669,-0.026856,89.313309,18.838791,-146.751785,,,
729706048.274686,-9.854697,5.290368,174.608108,-0.075851,-0.165924,0.968719,-0.004779,-0.012669,-0.026856,89.313309,18.838791,-146.751785,,,
729706048.278007,-9.854697,5.290368,174.608108,-0.075851,-0.165924,0.968719,-0.004779,-0.012669,-0.026856,89.162186,18.856735,-146.745712,,,
729706048.281422,-9.859287,5.287014,174.60072,-0.078552,-0.166016,0.969788,-0.016634,-0.001926,-0.028536,89.162186,18.856735,-146.745712,,,
729706048.284658,-9.865855,5.284616,174.593123,-0.078552,-0.166016,0.969788,-0.016634,-0.001926,-0.028536,89.162186,18.856735,-146.745712,,,
729706048.28802,-9.865855,5.284616,174.593123,-0.078552,-0.166016,0.969788,-0.016634,-0.001926,-0.028536,89.162186,18.856735,-146.745712,,,
729706048.291354,-9.873477,5.284293,174.585785,-0.078201,-0.168945,0.976074,-0.023281,0.010125,-0.027693,89.162186,18.856735,-146.745712,,,
729706048.294672,-9.881568,5.286427,174.578691,-0.078201,-0.168945,0.976074,-0.023281,0.010125,-0.027693,89.162186,18.856735,-146.745712,,,
729706048.297944,-9.881568,5.286427,174.578691,-0.078201,-0.168945,0.976074,-0.023281,0.010125,-0.027693,89.162186,18.856735,-146.745712,,,
729706048.301346,-9.889572,5.292184,174.572292,-0.081757,-0.176682,0.988403,-0.021824,0.031763,-0.023236,89.162186,18.856735,-146.745712,,,
729706048.304665,-9.89557,5.300331,174.566721,-0.081757,-0.176682,0.988403,-0.021824,0.031763,-0.023236,89.162186,18.856735,-146.745712,,,
729706048.308075,-9.89557,5.300331,174.566721,-0.081757,-0.176682,0.988403,-0.021824,0.031763,-0.023236,89.162186,18.856735,-146.745712,,,
729706048.31133,-9.900279,5.311687,174.562113,-0.087952,-0.180206,0.996185,-0.012132,0.047879,-0.016575,89.162186,18.856735,-146.745712,,,
729706048.314503,-9.902884,5.322868,174.558554,-0.087952,-0.180206,0.996185,-0.012132,0.047879,-0.016575,89.162186,18.856735,-146.745712,,,
729706048.318015,-9.902884,5.322868,174.558554,-0.087952,-0.180206,0.996185,-0.012132,0.047879,-0.016575,88.945068,18.987671,-146.581528,,,
729706048.321424,-9.902582,5.335248,174.556271,-0.093964,-0.183182,0.998032,0.007587,0.048278,-0.007042,88.945068,18.987671,-146.581528,,,
729706048.32474,-9.898676,5.345921,174.554597,-0.093964,-0.183182,0.998032,0.007587,0.048278,-0.007042,88.945068,18.987671,-146.581528,,,
729706048.327995,-9.898676,5.345921,174.554597,-0.093964,-0.183182,0.998032,0.007587,0.048278,-0.007042,88.945068,18.987671,-146.581528,,,
729706048.331331,-9.89198,5.355868,174.55338,-0.096436,-0.182281,0.993896,0.026915,0.035107,-0.0034,88.945068,18.987671,-146.581528,,,
729706048.334663,-9.883545,5.362412,174.551502,-0.096436,-0.182281,0.993896,0.026915,0.035107,-0.0034,88.945068,18.987671,-146.581528,,,
729706048.338009,-9.883545,5.362412,174.551502,-0.096436,-0.182281,0.993896,0.026915,0.035107,-0.0034,88.945068,18.987671,-146.581528,,,
729706048.341333,-9.873855,5.367955,174.549385,-0.099991,-0.178055,0.988388,0.036432,0.019564,-0.005693,88.945068,18.987671,-146.581528,,,
729706048.344665,-9.862339,5.369269,174.54675,-0.099991,-0.178055,0.988388,0.036432,0.019564,-0.005693,88.945068,18.987671,-146.581528,,,
729706048.348052,-9.862339,5.369269,174.54675,-0.099991,-0.178055,0.988388,0.036432,0.019564,-0.005693,88.945068,18.987671,-146.581528,,,
729706048.351337,-9.849367,5.369063,174.54356,-0.101501,-0.174911,0.986084,0.048863,0.001165,-0.009777,88.945068,18.987671,-146.581528,,,
729706048.35466,-9.835414,5.364699,174.539202,-0.101501,-0.174911,0.986084,0.048863,0.001165,-0.009777,88.945068,18.987671,-146.581528,,,
729706048.357996,-9.835414,5.364699,174.539202,-0.101501,-0.174911,0.986084,0.048863,0.001165,-0.009777,88.945068,18.987671,-146.581528,,,
729706048.361341,-9.821021,5.358814,174.534617,-0.102097,-0.175568,0.983963,0.053537,-0.017203,-0.012271,89.134445,18.907013,-146.788345,,,
729706048.364659,-9.805818,5.350478,174.529585,-0.102097,-0.175568,0.983963,0.053537,-0.017203,-0.012271,89.134445,18.907013,-146.788345,,,
729706048.368007,-9.805818,5.350478,174.529585,-0.102097,-0.175568,0.983963,0.053537,-0.017203,-0.012271,89.134445,18.907013,-146.788345,,,
729706048.371438,-9.791096,5.342636,174.524263,-0.098755,-0.174576,0.983444,0.051958,-0.020516,-0.015659,89.134445,18.907013,-146.788345,,,
729706048.374653,-9.777558,5.333846,174.518777,-0.098755,-0.174576,0.983444,0.051958,-0.020516,-0.015659,89.134445,18.907013,-146.788345,,,
729706048.378026,-9.777558,5.333846,174.518777,-0.098755,-0.174576,0.983444,0.051958,-0.020516,-0.015659,89.134445,18.907013,-146.788345,,,
729706048.381334,-9.764645,5.326412,174.514763,-0.102783,-0.179001,0.984818,0.045056,-0.020103,-0.007451,89.134445,18.907013,-146.788345,,,
729706048.384714,-9.753322,5.319115,174.512859,-0.102783,-0.179001,0.984818,0.045056,-0.020103,-0.007451,89.134445,18.907013,-146.788345,,,
729706048.387988,-9.753322,5.319115,174.512859,-0.102783,-0.179001,0.984818,0.045056,-0.020103,-0.007451,89.134445,18.907013,-146.788345,,,
729706048.391349,-9.742563,5.313135,174.513034,-0.104156,-0.180267,0.979248,0.035378,-0.017411,0.005286,89.134445,18.907013,-146.788345,,,
729706048.394667,-9.733746,5.307579,174.515463,-0.104156,-0.180267,0.979248,0.035378,-0.017411,0.005286,89.134445,18.907013,-146.788345,,,
729706048.398047,-9.733746,5.307579,174.515463,-0.104156,-0.180267,0.979248,0.035378,-0.017411,0.005286,89.134445,18.907013,-146.788345,,,
729706048.401336,-9.725287,5.303148,174.520082,-0.104736,-0.180008,0.977783,0.026511,-0.012928,0.019382,89.213623,18.777542,-146.44989,,,
729706048.40467,-9.717415,5.300162,174.525649,-0.104736,-0.180008,0.977783,0.026511,-0.012928,0.019382,89.213623,18.777542,-146.44989,,,
729706048.408001,-9.717415,5.300162,174.525649,-0.104736,-0.180008,0.977783,0.026511,-0.012928,0.019382,89.213623,18.777542,-146.44989,,,
729706048.411391,-9.707525,5.297895,174.531936,-0.108521,-0.17923,0.980362,0.032872,-0.007228,0.025183,89.213623,18.777542,-146.44989,,,
729706048.414685,-9.698249,5.297071,174.539055,-0.108521,-0.17923,0.980362,0.032872,-0.007228,0.025183,89.213623,18.777542,-146.44989,,,
729706048.418014,-9.698249,5.297071,174.539055,-0.108521,-0.17923,0.980362,0.032872,-0.007228,0.025183,89.213623,18.777542,-146.44989,,,
729706048.421339,-9.687885,5.295829,174.546405,-0.105118,-0.176529,0.973755,0.035112,-0.006575,0.027614,89.213623,18.777542,-146.44989,,,
729706048.424669,-9.677625,5.295027,174.554256,-0.105118,-0.176529,0.973755,0.035112,-0.006575,0.027614,89.213623,18.777542,-146.44989,,,
729706048.428014,-9.677625,5.295027,174.554256,-0.105118,-0.176529,0.973755,0.035112,-0.006575,0.027614,89.213623,18.777542,-146.44989,,,
729706048.431347,-9.666996,5.293002,174.561856,-0.102112,-0.172394,0.968674,0.033952,-0.009199,0.026742,89.213623,18.777542,-146.44989,,,
729706048.43468,-9.657997,5.291467,174.569193,-0.102112,-0.172394,0.968674,0.033952,-0.009199,0.026742,89.213623,18.777542,-146.44989,,,
729706048.438077,-9.657997,5.291467,174.569193,-0.102112,-0.172394,0.968674,0.033952,-0.009199,0.026742,89.213623,18.777542,-146.44989,,,
729706048.441321,-9.650148,5.288773,174.575685,-0.099167,-0.168518,0.966309,0.02331,-0.009872,0.020998,89.081528,18.655579,-146.475861,,,
729706048.444654,-9.644356,5.286938,174.581778,-0.099167,-0.168518,0.966309,0.02331,-0.009872,0.020998,89.081528,18.655579,-146.475861,,,
729706048.447996,-9.644356,5.286938,174.581778,-0.099167,-0.168518,0.966309,0.02331,-0.009872,0.020998,89.081528,18.655579,-146.475861,,,
729706048.45133,-9.639703,5.285259,174.587955,-0.099045,-0.166168,0.968994,0.011339,-0.004079,0.021271,89.081528,18.655579,-146.475861,,,
729706048.454664,-9.637708,5.285544,174.594606,-0.099045,-0.166168,0.968994,0.011339,-0.004079,0.021271,89.081528,18.655579,-146.475861,,,
729706048.458005,-9.637708,5.285544,174.594606,-0.099045,-0.166168,0.968994,0.011339,-0.004079,0.021271,89.081528,18.655579,-146.475861,,,
729706048.46141,-9.637615,5.286817,174.601342,-0.099686,-0.162643,0.97525,-0.006126,0.007874,0.021127,89.081528,18.655579,-146.475861,,,
729706048.464662,-9.641401,5.291601,174.608803,-0.099686,-0.162643,0.97525,-0.006126,0.007874,0.021127,89.081528,18.655579,-146.475861,,,
729706048.468015,-9.641401,5.291601,174.608803,-0.099686,-0.162643,0.97525,-0.006126,0.007874,0.021127,89.081528,18.655579,-146.475861,,,
729706048.471334,-9.647395,5.296999,174.616972,-0.101181,-0.163986,0.975983,-0.028804,0.018832,0.025149,89.081528,18.655579,-146.475861,,,
729706048.474706,-9.657087,5.30427,174.62608,-0.101181,-0.163986,0.975983,-0.028804,0.018832,0.025149,89.081528,18.655579,-146.475861,,,
729706048.477999,-9.657087,5.30427,174.62608,-0.101181,-0.163986,0.975983,-0.028804,0.018832,0.025149,89.081528,18.655579,-146.475861,,,
729706048.481361,-9.66726,5.311085,174.635937,-0.103363,-0.167252,0.980957,-0.040019,0.02211,0.03045,89.081528,18.655579,-146.475861,,,
729706048.484654,-9.679166,5.320099,174.646833,-0.103363,-0.167252,0.980957,-0.040019,0.02211,0.03045,89.009521,18.766769,-146.438477,,,
729706048.488079,-9.679166,5.320099,174.646833,-0.103363,-0.167252,0.980957,-0.040019,0.02211,0.03045,89.009521,18.766769,-146.438477,,,
729706048.491345,-9.690416,5.328053,174.65836,-0.107025,-0.168167,0.985825,-0.042613,0.023144,0.036084,89.009521,18.766769,-146.438477,,,
729706048.49468,-9.702107,5.336876,174.670935,-0.107025,-0.168167,0.985825,-0.042613,0.023144,0.036084,89.009521,18.766769,-146.438477,,,
729706048.498004,-9.702107,5.336876,174.670935,-0.107025,-0.168167,0.985825,-0.042613,0.023144,0.036084,89.009521,18.766769,-146.438477,,,
729706048.501329,-9.711414,5.343183,174.683995,-0.108322,-0.171371,0.98851,-0.032201,0.014693,0.04201,89.009521,18.766769,-146.438477,,,
729706048.504666,-9.719585,5.349411,174.697896,-0.108322,-0.171371,0.98851,-0.032201,0.014693,0.04201,89.009521,18.766769,-146.438477,,,
729706048.508005,-9.719585,5.349411,174.697896,-0.108322,-0.171371,0.98851,-0.032201,0.014693,0.04201,89.009521,18.766769,-146.438477,,,
729706048.511362,-9.725348,5.353908,174.711807,-0.101639,-0.170425,0.990341,-0.019514,0.009593,0.044465,89.009521,18.766769,-146.438477,,,
729706048.514734,-9.72959,5.358499,174.724614,-0.101639,-0.170425,0.990341,-0.019514,0.009593,0.044465,89.009521,18.766769,-146.438477,,,
729706048.518037,-9.72959,5.358499,174.724614,-0.101639,-0.170425,0.990341,-0.019514,0.009593,0.044465,89.009521,18.766769,-146.438477,,,
729706048.521326,-9.733105,5.361834,174.735237,-0.095551,-0.16275,0.992233,-0.015476,0.009363,0.030807,89.009521,18.766769,-146.438477,,,
729706048.524705,-9.736999,5.366328,174.74423,-0.095551,-0.16275,0.992233,-0.015476,0.009363,0.030807,89.241531,18.740433,-146.54332,,,
729706048.528065,-9.736999,5.366328,174.74423,-0.095551,-0.16275,0.992233,-0.015476,0.009363,0.030807,89.241531,18.740433,-146.54332,,,
729706048.53134,-9.741415,5.370537,174.751258,-0.091705,-0.161942,0.988495,-0.018212,0.0144,0.017792,89.241531,18.740433,-146.54332,,,
729706048.534677,-9.746297,5.375176,174.757208,-0.091705,-0.161942,0.988495,-0.018212,0.0144,0.017792,89.241531,18.740433,-146.54332,,,
729706048.538002,-9.746297,5.375176,174.757208,-0.091705,-0.161942,0.988495,-0.018212,0.0144,0.017792,89.241531,18.740433,-146.54332,,,
729706048.541392,-9.75227,5.378594,174.762499,-0.094635,-0.165085,0.984726,-0.023296,0.011341,0.01356,89.241531,18.740433,-146.54332,,,
729706048.544672,-9.758429,5.382485,174.767464,-0.094635,-0.165085,0.984726,-0.023296,0.011341,0.01356,89.241531,18.740433,-146.54332,,,
729706048.548006,-9.758429,5.382485,174.767464,-0.094635,-0.165085,0.984726,-0.023296,0.011341,0.01356,89.241531,18.740433,-146.54332,,,
729706048.551332,-9.765748,5.385896,174.77241,-0.096451,-0.16629,0.981461,-0.028093,0.012888,0.013824,89.241531,18.740433,-146.54332,,,
729706048.554671,-9.773549,5.390506,174.7783,-0.096451,-0.16629,0.981461,-0.028093,0.012888,0.013824,89.241531,18.740433,-146.54332,,,
729706048.558008,-9.773549,5.390506,174.7783,-0.096451,-0.16629,0.981461,-0.028093,0.012888,0.013824,89.241531,18.740433,-146.54332,,,
729706048.561338,-9.782008,5.394212,174.784712,-0.096741,-0.165604,0.979782,-0.031129,0.012011,0.018205,89.241531,18.740433,-146.54332,,,
729706048.564707,-9.790717,5.398936,174.791399,-0.096741,-0.165604,0.979782,-0.031129,0.012011,0.018205,89.279617,18.439484,-146.388351,,,
729706048.568074,-9.790717,5.398936,174.791399,-0.096741,-0.165604,0.979782,-0.031129,0.012011,0.018205,89.279617,18.439484,-146.388351,,,
729706048.571349,-9.800507,5.40293,174.797822,-0.093842,-0.162994,0.975967,-0.037168,0.014042,0.017011,89.279617,18.439484,-146.388351,,,
729706048.574695,-9.81107,5.409464,174.804611,-0.093842,-0.162994,0.975967,-0.037168,0.014042,0.017011,89.279617,18.439484,-146.388351,,,
729706048.578002,-9.81107,5.409464,174.804611,-0.093842,-0.162994,0.975967,-0.037168,0.014042,0.017011,89.279617,18.439484,-146.388351,,,
729706048.581388,-9.822525,5.415981,174.8112,-0.091721,-0.162872,0.976654,-0.042529,0.023103,0.016686,89.279617,18.439484,-146.388351,,,
729706048.584695,-9.834577,5.42457,174.81816,-0.091721,-0.162872,0.976654,-0.042529,0.023103,0.016686,89.279617,18.439484,-146.388351,,,
729706048.587996,-9.834577,5.42457,174.81816,-0.091721,-0.162872,0.976654,-0.042529,0.023103,0.016686,89.279617,18.439484,-146.388351,,,
729706048.591347,-9.847369,5.434175,174.824957,-0.09082,-0.163574,0.980164,-0.047611,0.036686,0.016137,89.279617,18.439484,-146.388351,,,
729706048.594655,-9.847369,5.434175,174.824957,-0.09082,-0.163574,0.980164,-0.047611,0.036686,0.016137,89.279617,18.439484,-146.388351,,,
729706048.598007,-9.860351,5.445383,174.831132,-0.09082,-0.163574,0.980164,-0.047611,0.036686,0.016137,89.279617,18.439484,-146.388351,,,
729706048.601345,-9.873988,5.456257,174.836179,-0.088089,-0.161301,0.978622,-0.048076,0.038354,0.008778,89.279617,18.439484,-146.388351,,,
729706048.60466,-9.873988,5.456257,174.840581,-0.088089,-0.161301,0.978622,-0.048076,0.038354,0.008778,89.249496,18.685379,-146.409988,,,
729706048.60799,-9.88585,5.466705,174.840581,-0.088089,-0.161301,0.978622,-0.048076,0.038354,0.008778,89.249496,18.685379,-146.409988,,,
729706048.611333,-9.896817,5.476421,174.845215,-0.092026,-0.166718,0.981094,-0.03481,0.031777,0.011399,89.249496,18.685379,-146.409988,,,
729706048.614723,-9.896817,5.484889,174.849398,-0.092026,-0.166718,0.981094,-0.03481,0.031777,0.011399,89.249496,18.685379,-146.409988,,,
729706048.618028,-9.904308,5.484889,174.849398,-0.092026,-0.166718,0.981094,-0.03481,0.031777,0.011399,89.249496,18.685379,-146.409988,,,
729706048.621327,-9.910707,5.492575,174.852957,-0.094894,-0.169815,0.982437,-0.021511,0.026022,0.008194,89.249496,18.685379,-146.409988,,,
729706048.624665,-9.910707,5.492575,174.852957,-0.094894,-0.169815,0.982437,-0.021511,0.026022,0.008194,89.249496,18.685379,-146.409988,,,
729706048.628003,-9.91475,5.499156,174.856185,-0.094894,-0.169815,0.982437,-0.021511,0.026022,0.008194,89.249496,18.685379,-146.409988,,,
729706048.631405,-9.917237,5.503363,174.85819,-0.092972,-0.168564,0.977081,-0.006149,0.012192,0.001482,89.249496,18.685379,-146.409988,,,
729706048.634666,-9.917237,5.503363,174.85819,-0.092972,-0.168564,0.977081,-0.006149,0.012192,0.001482,89.249496,18.685379,-146.409988,,,
729706048.638032,-9.918015,5.505913,174.858914,-0.092972,-0.168564,0.977081,-0.006149,0.012192,0.001482,89.249496,18.685379,-146.409988,,,
729706048.641336,-9.91882,5.507537,174.858691,-0.089645,-0.166443,0.976288,-0.002456,0.008258,-0.004503,89.249496,18.685379,-146.409988,,,
729706048.644742,-9.91882,5.507537,174.858691,-0.089645,-0.166443,0.976288,-0.002456,0.008258,-0.004503,89.249496,18.685379,-146.409988,,,
729706048.648004,-9.919909,5.509133,174.857409,-0.089645,-0.166443,0.976288,-0.002456,0.008258,-0.004503,89.244797,18.719177,-146.38591,,,
729706048.651326,-9.923582,5.511045,174.855505,-0.089554,-0.164719,0.975525,-0.015168,0.011183,-0.010015,89.244797,18.719177,-146.38591,,,
729706048.654666,-9.923582,5.511045,174.855505,-0.089554,-0.164719,0.975525,-0.015168,0.011183,-0.010015,89.244797,18.719177,-146.38591,,,
729706048.658058,-9.92869,5.513214,174.853051,-0.089554,-0.164719,0.975525,-0.015168,0.011183,-0.010015,89.244797,18.719177,-146.38591,,,
729706048.661338,-9.93632,5.516536,174.850301,-0.088959,-0.16806,0.976608,-0.027561,0.018948,-0.013363,89.244797,18.719177,-146.38591,,,
729706048.664669,-9.93632,5.516536,174.850301,-0.088959,-0.16806,0.976608,-0.027561,0.018948,-0.013363,89.244797,18.719177,-146.38591,,,
729706048.667999,-9.944799,5.520837,174.848076,-0.088959,-0.16806,0.976608,-0.027561,0.018948,-0.013363,89.244797,18.719177,-146.38591,,,
729706048.671407,-9.954868,5.52693,174.84704,-0.092514,-0.174667,0.980042,-0.034256,0.02802,-0.006192,89.244797,18.719177,-146.38591,,,
729706048.674672,-9.954868,5.52693,174.84704,-0.092514,-0.174667,0.980042,-0.034256,0.02802,-0.006192,89.244797,18.719177,-146.38591,,,
729706048.678004,-9.96432,5.533396,174.846932,-0.092514,-0.174667,0.980042,-0.034256,0.02802,-0.006192,89.244797,18.719177,-146.38591,,,
729706048.68133,-9.97433,5.540548,174.847639,-0.093903,-0.174301,0.983566,-0.032852,0.028772,-0.000961,89.244797,18.719177,-146.38591,,,
729706048.684716,-9.97433,5.540548,174.847639,-0.093903,-0.174301,0.983566,-0.032852,0.028772,-0.000961,89.244797,18.719177,-146.38591,,,
729706048.68801,-9.982092,5.547152,174.848881,-0.093903,-0.174301,0.983566,-0.032852,0.028772,-0.000961,89.39859,18.699326,-146.554916,,,
729706048.691331,-9.988621,5.55355,174.85042,-0.093002,-0.175186,0.984207,-0.019038,0.023013,0.001749,89.39859,18.699326,-146.554916,,,
729706048.694676,-9.988621,5.55355,174.85042,-0.093002,-0.175186,0.984207,-0.019038,0.023013,0.001749,89.39859,18.699326,-146.554916,,,
729706048.698062,-9.993156,5.559199,174.851743,-0.093002,-0.175186,0.984207,-0.019038,0.023013,0.001749,89.39859,18.699326,-146.554916,,,
729706048.701324,-9.996066,5.563749,174.852443,-0.094299,-0.177628,0.98114,-0.0052,0.015368,-0.001328,89.39859,18.699326,-146.554916,,,
729706048.704675,-9.996066,5.563749,174.852443,-0.094299,-0.177628,0.98114,-0.0052,0.015368,-0.001328,89.39859,18.699326,-146.554916,,,
729706048.708019,-9.997074,5.566878,174.852497,-0.094299,-0.177628,0.98114,-0.0052,0.015368,-0.001328,89.39859,18.699326,-146.554916,,,
729706048.71133,-9.997836,5.568859,174.851927,-0.09549,-0.176483,0.976746,-0.000385,0.00781,-0.005231,89.39859,18.699326,-146.554916,,,
729706048.714682,-9.997836,5.568859,174.851927,-0.09549,-0.176483,0.976746,-0.000385,0.00781,-0.005231,89.39859,18.699326,-146.554916,,,
729706048.718023,-9.997223,5.568342,174.849824,-0.09549,-0.176483,0.976746,-0.000385,0.00781,-0.005231,89.39859,18.699326,-146.554916,,,
729706048.721329,-9.996498,5.566222,174.846438,-0.09108,-0.174774,0.969925,0.004031,-0.003986,-0.014073,89.39859,18.699326,-146.554916,,,
729706048.724739,-9.996498,5.566222,174.846438,-0.09108,-0.174774,0.969925,0.004031,-0.003986,-0.014073,89.39859,18.699326,-146.554916,,,
729706048.727988,-9.994782,5.562147,174.842322,-0.09108,-0.174774,0.969925,0.004031,-0.003986,-0.014073,89.333466,18.80986,-146.717163,,,
729706048.731322,-9.993338,5.557692,174.83769,-0.088562,-0.172867,0.970016,0.007181,-0.009888,-0.018031,89.333466,18.80986,-146.717163,,,
729706048.73468,-9.993338,5.557692,174.83769,-0.088562,-0.172867,0.970016,0.007181,-0.009888,-0.018031,89.333466,18.80986,-146.717163,,,
729706048.73802,-9.991949,5.55271,174.831941,-0.088562,-0.172867,0.970016,0.007181,-0.009888,-0.018031,89.333466,18.80986,-146.717163,,,
729706048.741357,-9.992406,5.548667,174.825935,-0.085373,-0.172302,0.96701,-0.001335,-0.006344,-0.021204,89.333466,18.80986,-146.717163,,,
729706048.744681,-9.992406,5.548667,174.825935,-0.085373,-0.172302,0.96701,-0.001335,-0.006344,-0.021204,89.333466,18.80986,-146.717163,,,
729706048.74802,-9.993349,5.544994,174.819797,-0.085373,-0.172302,0.96701,-0.001335,-0.006344,-0.021204,89.333466,18.80986,-146.717163,,,
729706048.751347,-9.994969,5.542766,174.81369,-0.085617,-0.174866,0.968872,-0.005037,0.00122,-0.021787,89.333466,18.80986,-146.717163,,,
729706048.754664,-9.994969,5.542766,174.81369,-0.085617,-0.174866,0.968872,-0.005037,0.00122,-0.021787,89.333466,18.80986,-146.717163,,,
729706048.758015,-9.997311,5.542162,174.807818,-0.085617,-0.174866,0.968872,-0.005037,0.00122,-0.021787,89.333466,18.80986,-146.717163,,,
729706048.761345,-9.999546,5.543842,174.802445,-0.087433,-0.177231,0.974274,-0.005516,0.015517,-0.018565,89.333466,18.80986,-146.717163,,,
729706048.764756,-9.999546,5.543842,174.802445,-0.087433,-0.177231,0.974274,-0.005516,0.015517,-0.018565,89.333466,18.80986,-146.717163,,,
729706048.767987,-10.001681,5.547441,174.797692,-0.087433,-0.177231,0.974274,-0.005516,0.015517,-0.018565,89.216629,18.62291,-146.713501,,,
729706048.771341,-10.003835,5.552594,174.793264,-0.090042,-0.174713,0.974808,-0.005911,0.024833,-0.016585,89.216629,18.62291,-146.713501,,,
729706048.774659,-10.003835,5.552594,174.793264,-0.090042,-0.174713,0.974808,-0.005911,0.024833,-0.016585,89.216629,18.62291,-146.713501,,,
729706048.778076,-10.006553,5.558371,174.789212,-0.090042,-0.174713,0.974808,-0.005911,0.024833,-0.016585,89.216629,18.62291,-146.713501,,,
729706048.781324,-10.009523,5.56458,174.785282,-0.092987,-0.175369,0.973068,-0.009531,0.026547,-0.016321,89.216629,18.62291,-146.713501,,,
729706048.784679,-10.009523,5.56458,174.785282,-0.092987,-0.175369,0.973068,-0.009531,0.026547,-0.016321,89.216629,18.62291,-146.713501,,,
729706048.788002,-10.013363,5.569989,174.781459,-0.092987,-0.175369,0.973068,-0.009531,0.026547,-0.016321,89.216629,18.62291,-146.713501,,,
729706048.791329,-10.017524,5.574371,174.778113,-0.094803,-0.17247,0.967453,-0.014405,0.019352,-0.013454,89.216629,18.62291,-146.713501,,,
729706048.794699,-10.017524,5.574371,174.778113,-0.094803,-0.17247,0.967453,-0.014405,0.019352,-0.013454,89.216629,18.62291,-146.713501,,,
729706048.79801,-10.022647,5.576893,174.774166,-0.094803,-0.17247,0.967453,-0.014405,0.019352,-0.013454,89.216629,18.62291,-146.713501,,,
729706048.801329,-10.028387,5.577665,174.768966,-0.092773,-0.172516,0.965576,-0.019553,0.007346,-0.022847,89.216629,18.62291,-146.713501,,,
729706048.80473,-10.028387,5.577665,174.768966,-0.092773,-0.172516,0.965576,-0.019553,0.007346,-0.022847,89.216629,18.62291,-146.713501,,,
729706048.808,-10.035411,5.577599,174.762945,-0.092773,-0.172516,0.965576,-0.019553,0.007346,-0.022847,89.216629,18.62291,-146.713501,,,
729706048.811323,-10.043882,5.577853,174.756752,-0.092331,-0.169861,0.966614,-0.030307,0.00742,-0.025518,89.472992,18.763229,-146.505066,,,
729706048.814673,-10.043882,5.577853,174.756752,-0.092331,-0.169861,0.966614,-0.030307,0.00742,-0.025518,89.472992,18.763229,-146.505066,,,
729706048.818062,-10.053271,5.577657,174.750861,-0.092331,-0.169861,0.966614,-0.030307,0.00742,-0.025518,89.472992,18.763229,-146.505066,,,
729706048.821325,-10.063301,5.578334,174.745633,-0.09285,-0.174637,0.968735,-0.034937,0.008134,-0.022205,89.472992,18.763229,-146.505066,,,
729706048.82467,-10.063301,5.578334,174.745633,-0.09285,-0.174637,0.968735,-0.034937,0.008134,-0.022205,89.472992,18.763229,-146.505066,,,
729706048.82801,-10.073746,5.578827,174.740527,-0.09285,-0.174637,0.968735,-0.034937,0.008134,-0.022205,89.472992,18.763229,-146.505066,,,
729706048.831326,-10.083333,5.581374,174.736155,-0.093323,-0.181076,0.974045,-0.029666,0.016019,-0.017637,89.472992,18.763229,-146.505066,,,
729706048.834664,-10.083333,5.581374,174.736155,-0.093323,-0.181076,0.974045,-0.029666,0.016019,-0.017637,89.472992,18.763229,-146.505066,,,
729706048.838007,-10.091426,5.584525,174.732589,-0.093323,-0.181076,0.974045,-0.029666,0.016019,-0.017637,89.472992,18.763229,-146.505066,,,
729706048.841327,-10.096957,5.589719,174.729851,-0.097961,-0.181656,0.98053,-0.013844,0.024435,-0.011269,89.472992,18.763229,-146.505066,,,
729706048.844748,-10.096957,5.589719,174.729851,-0.097961,-0.181656,0.98053,-0.013844,0.024435,-0.011269,89.472992,18.763229,-146.505066,,,
729706048.848009,-10.101195,5.595346,174.727955,-0.097961,-0.181656,0.98053,-0.013844,0.024435,-0.011269,89.472992,18.763229,-146.505066,,,
729706048.851331,-10.10409,5.602205,174.726748,-0.096634,-0.180435,0.98024,-0.005868,0.027924,-0.006521,89.396988,18.931808,-146.398224,,,
729706048.854669,-10.10409,5.602205,174.726748,-0.096634,-0.180435,0.98024,-0.005868,0.027924,-0.006521,89.396988,18.931808,-146.398224,,,
729706048.857997,-10.105974,5.608459,174.726069,-0.096634,-0.180435,0.98024,-0.005868,0.027924,-0.006521,89.396988,18.931808,-146.398224,,,
729706048.861328,-10.107232,5.615043,174.725576,-0.09697,-0.177246,0.974777,-0.001777,0.027631,-0.005247,89.396988,18.931808,-146.398224,,,
729706048.864671,-10.107232,5.615043,174.725576,-0.09697,-0.177246,0.974777,-0.001777,0.027631,-0.005247,89.396988,18.931808,-146.398224,,,
729706048.868016,-10.107718,5.621052,174.724108,-0.09697,-0.177246,0.974777,-0.001777,0.027631,-0.005247,89.396988,18.931808,-146.398224,,,
729706048.871328,-10.108082,5.626118,174.722288,-0.094467,-0.177429,0.977386,-0.000871,0.020511,-0.007793,89.396988,18.931808,-146.398224,,,
729706048.874743,-10.108082,5.626118,174.722288,-0.094467,-0.177429,0.977386,-0.000871,0.020511,-0.007793,89.396988,18.931808,-146.398224,,,
729706048.878005,-10.108893,5.630218,174.720286,-0.094467,-0.177429,0.977386,-0.000871,0.020511,-0.007793,89.396988,18.931808,-146.398224,,,
729706048.881324,-10.110855,5.633231,174.718287,-0.095108,-0.17627,0.972702,-0.008405,0.01271,-0.008565,89.396988,18.931808,-146.398224,,,
729706048.884722,-10.110855,5.633231,174.718287,-0.095108,-0.17627,0.972702,-0.008405,0.01271,-0.008565,89.396988,18.931808,-146.398224,,,
729706048.888,-10.114073,5.634685,174.716626,-0.095108,-0.17627,0.972702,-0.008405,0.01271,-0.008565,89.396988,18.931808,-146.398224,,,
729706048.891327,-10.118529,5.634895,174.715294,-0.095657,-0.176819,0.967499,-0.015976,0.001579,-0.007423,89.484833,18.938812,-146.373962,,,
729706048.894672,-10.118529,5.634895,174.715294,-0.095657,-0.176819,0.967499,-0.015976,0.001579,-0.007423,89.484833,18.938812,-146.373962,,,
729706048.898056,-10.123886,5.633621,174.71475,-0.095657,-0.176819,0.967499,-0.015976,0.001579,-0.007423,89.484833,18.938812,-146.373962,,,
729706048.901319,-10.130413,5.631709,174.715087,-0.096588,-0.180786,0.968979,-0.02306,-0.005294,-0.00229,89.484833,18.938812,-146.373962,,,
729706048.904783,-10.130413,5.631709,174.715087,-0.096588,-0.180786,0.968979,-0.02306,-0.005294,-0.00229,89.484833,18.938812,-146.373962,,,
729706048.908019,-10.138231,5.629264,174.715507,-0.096588,-0.180786,0.968979,-0.02306,-0.005294,-0.00229,89.484833,18.938812,-146.373962,,,
729706048.911334,-10.14635,5.627258,174.716009,-0.094543,-0.182831,0.974167,-0.027147,-0.003888,-0.002407,89.484833,18.938812,-146.373962,,,
729706048.914684,-10.14635,5.627258,174.716009,-0.094543,-0.182831,0.974167,-0.027147,-0.003888,-0.002407,89.484833,18.938812,-146.373962,,,
729706048.918024,-10.154324,5.625832,174.716344,-0.094543,-0.182831,0.974167,-0.027147,-0.003888,-0.002407,89.484833,18.938812,-146.373962,,,
729706048.921329,-10.159861,5.625004,174.716741,-0.090363,-0.183212,0.980209,-0.013419,-0.000438,-0.000722,89.484833,18.938812,-146.373962,,,
729706048.924756,-10.159861,5.625004,174.716741,-0.090363,-0.183212,0.980209,-0.013419,-0.000438,-0.000722,89.484833,18.938812,-146.373962,,,
729706048.928005,-10.16266,5.624446,174.716675,-0.090363,-0.183212,0.980209,-0.013419,-0.000438,-0.000722,89.484833,18.938812,-146.373962,,,
729706048.931318,-10.162152,5.624862,174.715354,-0.089706,-0.185135,0.986343,0.007737,0.008627,-0.007179,89.501724,19.035919,-146.507797,,,
729706048.93467,-10.162152,5.624862,174.715354,-0.089706,-0.185135,0.986343,0.007737,0.008627,-0.007179,89.501724,19.035919,-146.507797,,,
729706048.938075,-10.159279,5.626586,174.713328,-0.089706,-0.185135,0.986343,0.007737,0.008627,-0.007179,89.501724,19.035919,-146.507797,,,
729706048.94132,-10.153498,5.628468,174.711096,-0.090439,-0.18779,0.988174,0.026627,0.010203,-0.00671,89.501724,19.035919,-146.507797,,,
729706048.944672,-10.153498,5.628468,174.711096,-0.090439,-0.18779,0.988174,0.026627,0.010203,-0.00671,89.501724,19.035919,-146.507797,,,
729706048.948013,-10.145451,5.630392,174.709152,-0.090439,-0.18779,0.988174,0.026627,0.010203,-0.00671,89.501724,19.035919,-146.507797,,,
729706048.951326,-10.135994,5.631807,174.707805,-0.093109,-0.183182,0.981903,0.035009,0.006172,-0.001702,89.501724,19.035919,-146.507797,,,
729706048.954677,-10.135994,5.631807,174.707805,-0.093109,-0.183182,0.981903,0.035009,0.006172,-0.001702,89.501724,19.035919,-146.507797,,,
729706048.958008,-10.127252,5.631398,174.706981,-0.093109,-0.183182,0.981903,0.035009,0.006172,-0.001702,89.501724,19.035919,-146.507797,,,
729706048.961329,-10.119737,5.629767,174.706382,-0.094177,-0.178818,0.974289,0.024904,-0.003784,-0.001371,89.501724,19.035919,-146.507797,,,
729706048.964752,-10.119737,5.629767,174.706382,-0.094177,-0.178818,0.974289,0.024904,-0.003784,-0.001371,89.501724,19.035919,-146.507797,,,
729706048.967948,-10.114471,5.627643,174.705973,-0.094177,-0.178818,0.974289,0.024904,-0.003784,-0.001371,89.501724,19.035919,-146.507797,,,
729706048.971418,-10.111583,5.625002,174.705922,-0.094681,-0.177521,0.974228,0.007008,-0.007765,-0.000701,89.501724,19.035919,-146.507797,,,
729706048.974654,-10.111583,5.625002,174.705922,-0.094681,-0.177521,0.974228,0.007008,-0.007765,-0.000701,89.381027,18.910187,-146.52092,,,
729706048.978081,-10.111084,5.62185,174.705886,-0.094681,-0.177521,0.974228,0.007008,-0.007765,-0.000701,89.381027,18.910187,-146.52092,,,
729706048.981345,-10.111092,5.618288,174.705704,-0.098114,-0.177826,0.976791,0.000162,-0.009964,-0.002263,89.381027,18.910187,-146.52092,,,
729706048.984677,-10.111092,5.618288,174.705704,-0.098114,-0.177826,0.976791,0.000162,-0.009964,-0.002263,89.381027,18.910187,-146.52092,,,
729706048.987999,-10.11176,5.61435,174.705605,-0.098114,-0.177826,0.976791,0.000162,-0.009964,-0.002263,89.381027,18.910187,-146.52092,,,
729706048.991324,-10.111507,5.610277,174.705786,-0.100372,-0.18074,0.980301,0.001645,-0.010556,-6.6e-05,89.381027,18.910187,-146.52092,,,
729706048.994679,-10.111507,5.610277,174.705786,-0.100372,-0.18074,0.980301,0.001645,-0.010556,-6.6e-05,89.381027,18.910187,-146.52092,,,
729706048.998012,-10.110874,5.606084,174.706619,-0.100372,-0.18074,0.980301,0.001645,-0.010556,-6.6e-05,89.381027,18.910187,-146.52092,,,
729706049.001324,-10.10772,5.602084,174.708131,-0.096573,-0.182968,0.983444,0.014375,-0.011812,0.005534,89.381027,18.910187,-146.52092,,,
729706049.004722,-10.10772,5.602084,174.708131,-0.096573,-0.182968,0.983444,0.014375,-0.011812,0.005534,89.381027,18.910187,-146.52092,,,
729706049.007997,-10.103934,5.597924,174.709904,-0.096573,-0.182968,0.983444,0.014375,-0.011812,0.005534,89.381027,18.910187,-146.52092,,,
729706049.011327,-10.098655,5.5947,174.711643,-0.094254,-0.182068,0.985382,0.020792,-0.008976,0.00527,89.381027,18.910187,-146.52092,,,
729706049.014653,-10.098655,5.5947,174.711643,-0.094254,-0.182068,0.985382,0.020792,-0.008976,0.00527,89.387543,18.965958,-146.463409,,,
729706049.018033,-10.093538,5.591735,174.713323,-0.094254,-0.182068,0.985382,0.020792,-0.008976,0.00527,89.387543,18.965958,-146.463409,,,
729706049.021327,-10.087639,5.589961,174.714823,-0.090469,-0.178726,0.984558,0.020496,-0.004052,0.003353,89.387543,18.965958,-146.463409,,,
729706049.024674,-10.087639,5.589961,174.714823,-0.090469,-0.178726,0.984558,0.020496,-0.004052,0.003353,89.387543,18.965958,-146.463409,,,
729706049.028081,-10.082274,5.588144,174.715477,-0.090469,-0.178726,0.984558,0.020496,-0.004052,0.003353,89.387543,18.965958,-146.463409,,,
729706049.031318,-10.076026,5.586816,174.715215,-0.091019,-0.175232,0.979126,0.022053,-0.002264,-0.003265,89.387543,18.965958,-146.463409,,,
729706049.034668,-10.076026,5.586816,174.715215,-0.091019,-0.175232,0.979126,0.022053,-0.002264,-0.003265,89.387543,18.965958,-146.463409,,,
729706049.038013,-10.071174,5.583832,174.714186,-0.091019,-0.175232,0.979126,0.022053,-0.002264,-0.003265,89.387543,18.965958,-146.463409,,,
729706049.041326,-10.06758,5.578706,174.712868,-0.091751,-0.172485,0.969269,0.010307,-0.017781,-0.006606,89.387543,18.965958,-146.463409,,,
729706049.044675,-10.06758,5.578706,174.712868,-0.091751,-0.172485,0.969269,0.010307,-0.017781,-0.006606,89.387543,18.965958,-146.463409,,,
729706049.048016,-10.066472,5.571624,174.711179,-0.091751,-0.172485,0.969269,0.010307,-0.017781,-0.006606,89.387543,18.965958,-146.463409,,,
729706049.051325,-10.066739,5.564179,174.709461,-0.094086,-0.170822,0.966049,-0.001984,-0.021144,-0.008131,89.387543,18.965958,-146.463409,,,
729706049.054657,-10.066739,5.564179,174.709461,-0.094086,-0.170822,0.966049,-0.001984,-0.021144,-0.008131,89.375824,18.579681,-146.644073,,,
729706049.058013,-10.068427,5.557131,174.707649,-0.094086,-0.170822,0.966049,-0.001984,-0.021144,-0.008131,89.375824,18.579681,-146.644073,,,
729706049.061325,-10.070609,5.550549,174.705981,-0.092804,-0.176086,0.972839,-0.00756,-0.017474,-0.007573,89.375824,18.579681,-146.644073,,,
729706049.064652,-10.070609,5.550549,174.705981,-0.092804,-0.176086,0.972839,-0.00756,-0.017474,-0.007573,89.375824,18.579681,-146.644073,,,
729706049.068015,-10.073565,5.545752,174.704586,-0.092804,-0.176086,0.972839,-0.00756,-0.017474,-0.007573,89.375824,18.579681,-146.644073,,,
729706049.071325,-10.076071,5.542769,174.702976,-0.092697,-0.177231,0.97522,-0.006684,-0.001643,-0.008478,89.375824,18.579681,-146.644073,,,
729706049.07467,-10.076071,5.542769,174.702976,-0.092697,-0.177231,0.97522,-0.006684,-0.001643,-0.008478,89.375824,18.579681,-146.644073,,,
729706049.078057,-10.078727,5.542563,174.701239,-0.092697,-0.177231,0.97522,-0.006684,-0.001643,-0.008478,89.375824,18.579681,-146.644073,,,
729706049.081315,-10.08025,5.544591,174.69978,-0.090103,-0.174545,0.978043,-0.002703,0.015122,-0.005881,89.375824,18.579681,-146.644073,,,
729706049.084687,-10.08025,5.544591,174.69978,-0.090103,-0.174545,0.978043,-0.002703,0.015122,-0.005881,89.375824,18.579681,-146.644073,,,
729706049.088008,-10.082737,5.549071,174.698556,-0.090103,-0.174545,0.978043,-0.002703,0.015122,-0.005881,89.375824,18.579681,-146.644073,,,
729706049.091327,-10.085262,5.555121,174.69718,-0.090317,-0.172363,0.975693,-0.006661,0.026535,-0.007281,89.375824,18.579681,-146.644073,,,
729706049.094709,-10.085262,5.555121,174.69718,-0.090317,-0.172363,0.975693,-0.006661,0.026535,-0.007281,89.375824,18.579681,-146.644073,,,
729706049.098012,-10.089118,5.56155,174.695569,-0.090317,-0.172363,0.975693,-0.006661,0.026535,-0.007281,89.349564,18.960754,-146.380936,,,
729706049.101329,-10.094333,5.568315,174.69445,-0.095474,-0.172104,0.970413,-0.019306,0.026158,-0.005454,89.349564,18.960754,-146.380936,,,
729706049.10476,-10.094333,5.568315,174.69445,-0.095474,-0.172104,0.970413,-0.019306,0.026158,-0.005454,89.349564,18.960754,-146.380936,,,
729706049.108004,-10.101351,5.574098,174.693408,-0.095474,-0.172104,0.970413,-0.019306,0.026158,-0.005454,89.349564,18.960754,-146.380936,,,
729706049.111341,-10.110226,5.578999,174.69234,-0.09845,-0.171051,0.964355,-0.032492,0.017012,-0.007487,89.349564,18.960754,-146.380936,,,
729706049.114679,-10.110226,5.578999,174.69234,-0.09845,-0.171051,0.964355,-0.032492,0.017012,-0.007487,89.349564,18.960754,-146.380936,,,
729706049.118064,-10.120778,5.581495,174.691412,-0.09845,-0.171051,0.964355,-0.032492,0.017012,-0.007487,89.349564,18.960754,-146.380936,,,
729706049.121312,-10.132793,5.582442,174.690448,-0.099167,-0.172256,0.962906,-0.042164,0.003724,-0.009146,89.349564,18.960754,-146.380936,,,
729706049.124794,-10.132793,5.582442,174.690448,-0.099167,-0.172256,0.962906,-0.042164,0.003724,-0.009146,89.349564,18.960754,-146.380936,,,
729706049.128012,-10.145246,5.581922,174.689107,-0.099167,-0.172256,0.962906,-0.042164,0.003724,-0.009146,89.349564,18.960754,-146.380936,,,
729706049.131334,-10.158252,5.580448,174.68722,-0.101425,-0.173721,0.967545,-0.044377,-0.002859,-0.013221,89.349564,18.960754,-146.380936,,,
729706049.134678,-10.158252,5.580448,174.68722,-0.101425,-0.173721,0.967545,-0.044377,-0.002859,-0.013221,89.349564,18.960754,-146.380936,,,
729706049.138007,-10.17126,5.577863,174.684782,-0.101425,-0.173721,0.967545,-0.044377,-0.002859,-0.013221,89.409225,19.076294,-146.310501,,,
729706049.141331,-10.184147,5.574764,174.682123,-0.09964,-0.175064,0.972946,-0.042958,-0.007139,-0.014759,89.409225,19.076294,-146.310501,,,
729706049.144698,-10.184147,5.574764,174.682123,-0.09964,-0.175064,0.972946,-0.042958,-0.007139,-0.014759,89.409225,19.076294,-146.310501,,,
729706049.147997,-10.196987,5.571037,174.679204,-0.09964,-0.175064,0.972946,-0.042958,-0.007139,-0.014759,89.409225,19.076294,-146.310501,,,
729706049.151327,-10.20943,5.567079,174.676161,-0.100037,-0.177063,0.973633,-0.040565,-0.010296,-0.01572,89.409225,19.076294,-146.310501,,,
729706049.15474,-10.20943,5.567079,174.676161,-0.100037,-0.177063,0.973633,-0.040565,-0.010296,-0.01572,89.409225,19.076294,-146.310501,,,
729706049.15799,-10.221554,5.562447,174.673073,-0.100037,-0.177063,0.973633,-0.040565,-0.010296,-0.01572,89.409225,19.076294,-146.310501,,,
729706049.161324,-10.233514,5.558467,174.669814,-0.100143,-0.177841,0.977554,-0.039148,-0.007266,-0.017042,89.409225,19.076294,-146.310501,,,
729706049.164678,-10.233514,5.558467,174.669814,-0.100143,-0.177841,0.977554,-0.039148,-0.007266,-0.017042,89.409225,19.076294,-146.310501,,,
729706049.168049,-10.24541,5.555325,174.666657,-0.100143,-0.177841,0.977554,-0.039148,-0.007266,-0.017042,89.409225,19.076294,-146.310501,,,
729706049.171378,-10.258628,5.553104,174.664049,-0.09935,-0.17514,0.975494,-0.046074,-0.004597,-0.014504,89.409225,19.076294,-146.310501,,,
729706049.174763,-10.258628,5.553104,174.664049,-0.09935,-0.17514,0.975494,-0.046074,-0.004597,-0.014504,89.409225,19.076294,-146.310501,,,
729706049.177984,-10.272999,5.55105,174.661526,-0.09935,-0.17514,0.975494,-0.046074,-0.004597,-0.014504,89.413483,19.247864,-146.512344,,,
729706049.181323,-10.288828,5.549541,174.659919,-0.102951,-0.176483,0.971573,-0.054506,-0.002662,-0.009153,89.413483,19.247864,-146.512344,,,
729706049.184673,-10.288828,5.549541,174.659919,-0.102951,-0.176483,0.971573,-0.054506,-0.002662,-0.009153,89.413483,19.247864,-146.512344,,,
729706049.188,-10.304866,5.548104,174.659429,-0.102951,-0.176483,0.971573,-0.054506,-0.002662,-0.009153,89.413483,19.247864,-146.512344,,,
729706049.191319,-10.321802,5.546377,174.659403,-0.104187,-0.180557,0.971176,-0.058327,-0.003935,-0.006055,89.413483,19.247864,-146.512344,,,
729706049.194742,-10.321802,5.546377,174.659403,-0.104187,-0.180557,0.971176,-0.058327,-0.003935,-0.006055,89.413483,19.247864,-146.512344,,,
729706049.198007,-10.338911,5.544311,174.660003,-0.104187,-0.180557,0.971176,-0.058327,-0.003935,-0.006055,89.413483,19.247864,-146.512344,,,
729706049.20133,-10.357468,5.54067,174.660206,-0.101166,-0.17955,0.968658,-0.06533,-0.010957,-0.008845,89.413483,19.247864,-146.512344,,,
729706049.204663,-10.357468,5.54067,174.660206,-0.101166,-0.17955,0.968658,-0.06533,-0.010957,-0.008845,89.413483,19.247864,-146.512344,,,
729706049.208088,-10.376334,5.536373,174.660484,-0.101166,-0.17955,0.968658,-0.06533,-0.010957,-0.008845,89.413483,19.247864,-146.512344,,,
729706049.211314,-10.396454,5.52974,174.660124,-0.098038,-0.177231,0.962524,-0.071163,-0.022509,-0.013103,89.413483,19.247864,-146.512344,,,
729706049.214671,-10.396454,5.52974,174.660124,-0.098038,-0.177231,0.962524,-0.071163,-0.022509,-0.013103,89.413483,19.247864,-146.512344,,,
729706049.217993,-10.417823,5.521959,174.658861,-0.098038,-0.177231,0.962524,-0.071163,-0.022509,-0.013103,89.197769,19.451218,-146.713318,,,
729706049.221321,-10.441416,5.512779,174.657186,-0.096817,-0.178635,0.962112,-0.083759,-0.028022,-0.016459,89.197769,19.451218,-146.713318,,,
729706049.224672,-10.441416,5.512779,174.657186,-0.096817,-0.178635,0.962112,-0.083759,-0.028022,-0.016459,89.197769,19.451218,-146.713318,,,
729706049.227995,-10.465889,5.504445,174.654441,-0.096817,-0.178635,0.962112,-0.083759,-0.028022,-0.016459,89.197769,19.451218,-146.713318,,,
729706049.231328,-10.491403,5.496899,174.650666,-0.094803,-0.183792,0.969833,-0.088236,-0.018171,-0.023392,89.197769,19.451218,-146.713318,,,
729706049.234717,-10.491403,5.496899,174.650666,-0.094803,-0.183792,0.969833,-0.088236,-0.018171,-0.023392,89.197769,19.451218,-146.713318,,,
729706049.238003,-10.518077,5.490868,174.646728,-0.094803,-0.183792,0.969833,-0.088236,-0.018171,-0.023392,89.197769,19.451218,-146.713318,,,
729706049.24132,-10.546186,5.485038,174.643115,-0.096497,-0.186493,0.973694,-0.096503,-0.013744,-0.021313,89.197769,19.451218,-146.713318,,,
729706049.244668,-10.546186,5.485038,174.643115,-0.096497,-0.186493,0.973694,-0.096503,-0.013744,-0.021313,89.197769,19.451218,-146.713318,,,
729706049.248059,-10.574412,5.479675,174.641024,-0.096497,-0.186493,0.973694,-0.096503,-0.013744,-0.021313,89.197769,19.451218,-146.713318,,,
729706049.251318,-10.604126,5.472347,174.639667,-0.097519,-0.188324,0.967545,-0.103837,-0.02505,-0.016348,89.197769,19.451218,-146.713318,,,
729706049.254652,-10.604126,5.472347,174.639667,-0.097519,-0.188324,0.967545,-0.103837,-0.02505,-0.016348,89.197769,19.451218,-146.713318,,,
729706049.257992,-10.635117,5.463304,174.638702,-0.097519,-0.188324,0.967545,-0.103837,-0.02505,-0.016348,89.197769,19.451218,-146.713318,,,
729706049.261352,-10.669246,5.451088,174.638103,-0.098724,-0.187531,0.963272,-0.121301,-0.043892,-0.014744,89.202972,19.635117,-146.736984,,,
729706049.264685,-10.669246,5.451088,174.638103,-0.098724,-0.187531,0.963272,-0.121301,-0.043892,-0.014744,89.202972,19.635117,-146.736984,,,
729706049.268004,-10.70636,5.435613,174.637449,-0.098724,-0.187531,0.963272,-0.121301,-0.043892,-0.014744,89.202972,19.635117,-146.736984,,,
729706049.271321,-10.748291,5.411349,174.635138,-0.099289,-0.180176,0.951126,-0.15126,-0.095839,-0.027525,89.202972,19.635117,-146.736984,,,
729706049.27472,-10.748291,5.411349,174.635138,-0.099289,-0.180176,0.951126,-0.15126,-0.095839,-0.027525,89.202972,19.635117,-146.736984,,,
729706049.278001,-10.795007,5.378395,174.630628,-0.099289,-0.180176,0.951126,-0.15126,-0.095839,-0.027525,89.202972,19.635117,-146.736984,,,
729706049.281369,-10.848168,5.335348,174.623454,-0.098648,-0.176727,0.937958,-0.192045,-0.156954,-0.048354,89.202972,19.635117,-146.736984,,,
729706049.284682,-10.848168,5.335348,174.623454,-0.098648,-0.176727,0.937958,-0.192045,-0.156954,-0.048354,89.202972,19.635117,-146.736984,,,
729706049.287995,-10.907785,5.284211,174.613655,-0.098648,-0.176727,0.937958,-0.192045,-0.156954,-0.048354,89.202972,19.635117,-146.736984,,,
729706049.291319,-10.974967,5.223939,174.600644,-0.098389,-0.175064,0.933685,-0.23927,-0.212293,-0.073566,89.202972,19.635117,-146.736984,,,
729706049.294674,-10.974967,5.223939,174.600644,-0.098389,-0.175064,0.933685,-0.23927,-0.212293,-0.073566,89.202972,19.635117,-146.736984,,,
729706049.298003,-11.049127,5.156913,174.584844,-0.098389,-0.175064,0.933685,-0.23927,-0.212293,-0.073566,89.202972,19.635117,-146.736984,,,
729706049.30132,-11.132755,5.083634,174.56653,-0.095184,-0.175552,0.935089,-0.300034,-0.24848,-0.094841,88.938995,19.969528,-146.69519,,,
729706049.304673,-11.132755,5.083634,174.56653,-0.095184,-0.175552,0.935089,-0.300034,-0.24848,-0.094841,88.938995,19.969528,-146.69519,,,
729706049.308007,-11.225234,5.005626,174.546035,-0.095184,-0.175552,0.935089,-0.300034,-0.24848,-0.094841,88.938995,19.969528,-146.69519,,,
729706049.311322,-11.327736,4.923329,174.524418,-0.089905,-0.179886,0.937836,-0.365969,-0.273754,-0.106771,88.938995,19.969528,-146.69519,,,
729706049.314716,-11.327736,4.923329,174.524418,-0.089905,-0.179886,0.937836,-0.365969,-0.273754,-0.106771,88.938995,19.969528,-146.69519,,,
729706049.317987,-11.440664,4.839668,174.502532,-0.089905,-0.179886,0.937836,-0.365969,-0.273754,-0.106771,88.938995,19.969528,-146.69519,,,
729706049.321437,-11.564526,4.754334,174.480179,-0.089706,-0.184967,0.938538,-0.439329,-0.281376,-0.114246,88.938995,19.969528,-146.69519,,,
729706049.324678,-11.564526,4.754334,174.480179,-0.089706,-0.184967,0.938538,-0.439329,-0.281376,-0.114246,88.938995,19.969528,-146.69519,,,
729706049.328001,-11.697002,4.66999,174.45723,-0.089706,-0.184967,0.938538,-0.439329,-0.281376,-0.114246,88.938995,19.969528,-146.69519,,,
729706049.331361,-11.841535,4.58722,174.432285,-0.080475,-0.179443,0.947784,-0.519759,-0.263635,-0.132279,88.938995,19.969528,-146.69519,,,
729706049.334672,-11.841535,4.58722,174.432285,-0.080475,-0.179443,0.947784,-0.519759,-0.263635,-0.132279,88.938995,19.969528,-146.69519,,,
729706049.337989,-12.002084,4.508378,174.405911,-0.080475,-0.179443,0.947784,-0.519759,-0.263635,-0.132279,88.938995,19.969528,-146.69519,,,
729706049.341376,-12.180817,4.433852,174.378168,-0.070312,-0.177826,0.931656,-0.643107,-0.226951,-0.148826,88.609741,21.054596,-147.268051,,,
729706049.344657,-12.180817,4.433852,174.378168,-0.070312,-0.177826,0.931656,-0.643107,-0.226951,-0.148826,88.609741,21.054596,-147.268051,,,
729706049.347996,-12.376525,4.364947,174.349562,-0.070312,-0.177826,0.931656,-0.643107,-0.226951,-0.148826,88.609741,21.054596,-147.268051,,,
729706049.351357,-12.591796,4.300407,174.320632,-0.072678,-0.189713,0.928543,-0.775446,-0.191224,-0.158434,88.609741,21.054596,-147.268051,,,
729706049.354665,-12.591796,4.300407,174.320632,-0.072678,-0.189713,0.928543,-0.775446,-0.191224,-0.158434,88.609741,21.054596,-147.268051,,,
729706049.357996,-12.827169,4.240805,174.290898,-0.072678,-0.189713,0.928543,-0.775446,-0.191224,-0.158434,88.609741,21.054596,-147.268051,,,
729706049.361418,-13.082497,4.186371,174.259559,-0.067566,-0.194336,0.918152,-0.913966,-0.151909,-0.177767,88.609741,21.054596,-147.268051,,,
729706049.364721,-13.082497,4.186371,174.259559,-0.067566,-0.194336,0.918152,-0.913966,-0.151909,-0.177767,88.609741,21.054596,-147.268051,,,
729706049.367999,-13.357647,4.135981,174.226015,-0.067566,-0.194336,0.918152,-0.913966,-0.151909,-0.177767,88.609741,21.054596,-147.268051,,,
729706049.371331,-13.651238,4.086795,174.190496,-0.067566,-0.194336,0.918152,-1.041878,-0.13924,-0.198485,88.609741,21.054596,-147.268051,,,
729706049.374659,-13.651238,4.086795,174.190496,-0.070389,-0.193558,0.904861,-1.041878,-0.13924,-0.198485,88.609741,21.054596,-147.268051,,,
729706049.378055,-13.962853,4.0362,174.153446,-0.070389,-0.193558,0.904861,-1.041878,-0.13924,-0.198485,88.609741,21.054596,-147.268051,,,
729706049.381311,-14.292466,3.982274,174.114564,-0.073151,-0.201599,0.890518,-1.166926,-0.157984,-0.217345,88.069794,23.140762,-147.121948,,,
729706049.384655,-14.292466,3.982274,174.114564,-0.073151,-0.201599,0.890518,-1.166926,-0.157984,-0.217345,88.069794,23.140762,-147.121948,,,
729706049.387985,-14.64052,3.922732,174.074194,-0.073151,-0.201599,0.890518,-1.166926,-0.157984,-0.217345,88.069794,23.140762,-147.121948,,,
729706049.391355,-14.64052,3.856629,174.032625,-0.072174,-0.219086,0.865799,-1.3041,-0.19993,-0.231698,88.069794,23.140762,-147.121948,,,
729706049.394667,-15.008245,3.856629,174.032625,-0.072174,-0.219086,0.865799,-1.3041,-0.19993,-0.231698,88.069794,23.140762,-147.121948,,,
729706049.397991,-15.394453,3.784923,173.991149,-0.072174,-0.219086,0.865799,-1.3041,-0.19993,-0.231698,88.069794,23.140762,-147.121948,,,
729706049.401363,-15.394453,3.784923,173.991149,-0.072174,-0.219086,0.865799,-1.395083,-0.237055,-0.215532,88.069794,23.140762,-147.121948,,,
729706049.404668,-15.793413,3.708353,173.952377,-0.082642,-0.256729,0.858047,-1.395083,-0.237055,-0.215532,88.069794,23.140762,-147.121948,,,
729706049.407969,-16.199779,3.627041,173.917935,-0.082642,-0.256729,0.858047,-1.395083,-0.237055,-0.215532,88.069794,23.140762,-147.121948,,,
729706049.41143,-16.199779,3.539907,173.888306,-0.082642,-0.256729,0.858047,-1.395083,-0.237055,-0.215532,88.069794,23.140762,-147.121948,,,
729706049.414745,-16.61032,3.539907,173.888306,-0.086823,-0.293991,0.882233,-1.427319,-0.285543,-0.180728,88.069794,23.140762,-147.121948,,,
729706049.417982,-17.022934,3.445556,173.864074,-0.086823,-0.293991,0.882233,-1.427319,-0.285543,-0.180728,88.069794,23.140762,-147.121948,,,
729706049.421403,-17.022934,3.445556,173.864074,-0.086823,-0.293991,0.882233,-1.427319,-0.285543,-0.180728,88.069794,23.140762,-147.121948,,,
729706049.424679,-17.435149,3.34489,173.845512,-0.077042,-0.317291,0.887573,-1.42793,-0.340196,-0.13773,87.500504,26.026749,-147.108368,,,
729706049.428018,-17.845677,3.23914,173.832005,-0.077042,-0.317291,0.887573,-1.42793,-0.340196,-0.13773,87.500504,26.026749,-147.108368,,,
729706049.431371,-17.845677,3.23914,173.832005,-0.077042,-0.317291,0.887573,-1.42793,-0.340196,-0.13773,87.500504,26.026749,-147.108368,,,
729706049.434665,-18.253605,3.129383,173.82375,-0.065506,-0.327881,0.895828,-1.412842,-0.37895,-0.09647,87.500504,26.026749,-147.108368,,,
729706049.438092,-18.659868,3.017941,173.820409,-0.065506,-0.327881,0.895828,-1.412842,-0.37895,-0.09647,87.500504,26.026749,-147.108368,,,
729706049.441337,-18.659868,3.017941,173.820409,-0.065506,-0.327881,0.895828,-1.412842,-0.37895,-0.09647,87.500504,26.026749,-147.108368,,,
729706049.444682,-19.064892,2.907834,173.821681,-0.058365,-0.333557,0.900574,-1.406699,-0.380017,-0.060176,87.500504,26.026749,-147.108368,,,
729706049.447722,-19.469953,2.801673,173.828308,-0.058365,-0.333557,0.900574,-1.406699,-0.380017,-0.060176,87.500504,26.026749,-147.108368,,,
729706049.451511,-19.877068,2.700318,173.838895,-0.058365,-0.333557,0.900574,-1.406699,-0.380017,-0.060176,87.500504,26.026749,-147.108368,,,
729706049.454656,-19.877068,2.700318,173.838895,-0.054489,-0.340012,0.904694,-1.422974,-0.356274,-0.029914,87.500504,26.026749,-147.108368,,,
729706049.458004,-20.288893,2.604718,173.851413,-0.054489,-0.340012,0.904694,-1.422974,-0.356274,-0.029914,87.500504,26.026749,-147.108368,,,
729706049.461375,-20.288893,2.604718,173.851413,-0.054489,-0.340012,0.904694,-1.422974,-0.356274,-0.029914,87.500504,26.026749,-147.108368,,,
729706049.464725,-20.708679,2.516005,173.864234,-0.038528,-0.34491,0.890564,-1.479125,-0.309745,-0.026031,86.908951,28.837326,-147.113464,,,
729706049.467979,-21.139284,2.433469,173.875379,-0.038528,-0.34491,0.890564,-1.479125,-0.309745,-0.026031,86.908951,28.837326,-147.113464,,,
729706049.471339,-21.139284,2.433469,173.875379,-0.038528,-0.34491,0.890564,-1.479125,-0.309745,-0.026031,86.908951,28.837326,-147.113464,,,
729706049.474659,-21.582803,2.356334,173.882394,-0.016602,-0.346741,0.875534,-1.568582,-0.262294,-0.05259,86.908951,28.837326,-147.113464,,,
729706049.477984,-22.040164,2.283129,173.880728,-0.016602,-0.346741,0.875534,-1.568582,-0.262294,-0.05259,86.908951,28.837326,-147.113464,,,
729706049.481402,-22.040164,2.283129,173.880728,-0.016602,-0.346741,0.875534,-1.568582,-0.262294,-0.05259,86.908951,28.837326,-147.113464,,,
729706049.484642,-22.511001,2.214959,173.867595,0.020172,-0.353897,0.869507,-1.660309,-0.196927,-0.126233,86.908951,28.837326,-147.113464,,,
729706049.488016,-22.996832,2.155607,173.844834,0.020172,-0.353897,0.869507,-1.660309,-0.196927,-0.126233,86.908951,28.837326,-147.113464,,,
729706049.49135,-22.996832,2.155607,173.844834,0.020172,-0.353897,0.869507,-1.660309,-0.196927,-0.126233,86.908951,28.837326,-147.113464,,,
729706049.494669,-23.498278,2.106122,173.81609,0.007339,-0.369659,0.870087,-1.768571,-0.110532,-0.164881,86.908951,28.837326,-147.113464,,,
729706049.497981,-24.016791,2.063975,173.783811,0.007339,-0.369659,0.870087,-1.768571,-0.110532,-0.164881,86.908951,28.837326,-147.113464,,,
729706049.501382,-24.016791,2.063975,173.783811,0.007339,-0.369659,0.870087,-1.768571,-0.110532,-0.164881,86.908951,28.837326,-147.113464,,,
729706049.504417,-24.554212,2.025545,173.748803,-0.014542,-0.392517,0.834396,-1.900588,-0.074953,-0.183578,86.286957,32.308411,-146.135376,,,
729706049.508013,-25.111746,1.9872,173.710582,-0.014542,-0.392517,0.834396,-1.900588,-0.074953,-0.183578,86.286957,32.308411,-146.135376,,,
729706049.511378,-25.111746,1.9872,173.710582,-0.014542,-0.392517,0.834396,-1.900588,-0.074953,-0.183578,86.286957,32.308411,-146.135376,,,
729706049.514736,-25.688601,1.945518,173.66845,-0.00708,-0.414597,0.797913,-2.035415,-0.084158,-0.209023,86.286957,32.308411,-146.135376,,,
729706049.517986,-26.283297,1.898171,173.622126,-0.00708,-0.414597,0.797913,-2.035415,-0.084158,-0.209023,86.286957,32.308411,-146.135376,,,
729706049.521358,-26.283297,1.898171,173.622126,-0.00708,-0.414597,0.797913,-2.035415,-0.084158,-0.209023,86.286957,32.308411,-146.135376,,,
729706049.524666,-26.894789,1.842949,173.572639,-0.000565,-0.441803,0.782974,-2.152994,-0.12615,-0.227406,86.286957,32.308411,-146.135376,,,
729706049.527996,-27.522345,1.777596,173.522656,-0.000565,-0.441803,0.782974,-2.152994,-0.12615,-0.227406,86.286957,32.308411,-146.135376,,,
729706049.531313,-27.522345,1.777596,173.522656,-0.000565,-0.441803,0.782974,-2.152994,-0.12615,-0.227406,86.286957,32.308411,-146.135376,,,
729706049.534667,-28.163842,1.700093,173.473749,-0.017242,-0.475769,0.762146,-2.251744,-0.210919,-0.216593,86.286957,32.308411,-146.135376,,,
729706049.537987,-28.818409,1.608492,173.427231,-0.017242,-0.475769,0.762146,-2.251744,-0.210919,-0.216593,86.286957,32.308411,-146.135376,,,
729706049.541335,-28.818409,1.608492,173.427231,-0.017242,-0.475769,0.762146,-2.251744,-0.210919,-0.216593,86.286957,32.308411,-146.135376,,,
729706049.544658,-29.485582,1.501744,173.385898,-0.034073,-0.505249,0.747437,-2.342062,-0.330857,-0.177865,85.602005,36.824203,-145.510803,,,
729706049.548049,-30.164858,1.379249,173.353174,-0.034073,-0.505249,0.747437,-2.342062,-0.330857,-0.177865,85.602005,36.824203,-145.510803,,,
729706049.551349,-30.164858,1.379249,173.353174,-0.034073,-0.505249,0.747437,-2.342062,-0.330857,-0.177865,85.602005,36.824203,-145.510803,,,
729706049.554753,-30.855276,1.240505,173.331322,-0.054565,-0.540329,0.728622,-2.422851,-0.480308,-0.102321,85.602005,36.824203,-145.510803,,,
729706049.557987,-31.557428,1.086151,173.322095,-0.054565,-0.540329,0.728622,-2.422851,-0.480308,-0.102321,85.602005,36.824203,-145.510803,,,
729706049.561355,-31.557428,1.086151,173.322095,-0.054565,-0.540329,0.728622,-2.422851,-0.480308,-0.102321,85.602005,36.824203,-145.510803,,,
729706049.564655,-32.271941,0.917496,173.326686,-0.059097,-0.565582,0.706451,-2.511815,-0.630367,-0.007958,85.602005,36.824203,-145.510803,,,
729706049.56799,-33.000287,0.73525,173.345921,-0.059097,-0.565582,0.706451,-2.511815,-0.630367,-0.007958,85.602005,36.824203,-145.510803,,,
