Time (sec),Pitch (deg),Roll (deg),Yaw(deg),X-Acceleration (g),Y-Acceleration (g),Z-Acceleration (g),Pitch Rate (deg/sec),Roll Rate (deg/sec),Yaw Rate (deg/sec),Magnetic Field in X direction (uT),Magnetic Field in Y direction (uT),Magnetic Field in Z Direction (uT),Latitude (deg),Longitude (deg),Altitude (m)
729717208.394704,-2.611182,1.981303,107.399297,-0.024734,-0.057327,1.00769,-0.030012,0.045407,0.023626,90.521515,38.547684,-148.747696,,,
729717208.394912,-2.619815,1.995227,142.942669,-0.024734,-0.057327,1.00769,-0.030012,0.045407,0.023626,90.521515,38.547684,-148.747696,,,
729717208.39602,-2.619817,1.995227,104.329467,-0.024734,-0.057327,1.00769,-0.030012,0.045407,0.023626,90.521515,38.547684,-148.747696,,,
729717208.397089,-2.619815,1.99523,107.406318,-0.024734,-0.057327,1.00769,-0.030012,0.045407,0.023626,90.521515,38.547684,-148.747696,,,
729717208.39727,-2.619815,1.995227,142.942669,-0.024734,-0.057327,1.00769,-0.030012,0.045407,0.023626,90.521515,38.547684,-148.747696,,,
729717208.398242,-2.619817,1.995227,104.329467,-0.024734,-0.057327,1.00769,-0.030012,0.045407,0.023626,90.521515,38.547684,-148.747696,,,
729717208.398746,-2.619815,1.99523,107.406318,-0.024734,-0.057327,1.00769,-0.030012,0.045407,0.023626,90.521515,38.547684,-148.747696,,,
729717208.399282,-2.628241,2.011722,142.949639,-0.01915,-0.053543,1.006577,-0.029772,0.061911,0.023314,90.521515,38.547684,-148.747696,,,
729717208.40301,-2.628242,2.011722,104.336437,-0.01915,-0.053543,1.006577,-0.029772,0.061911,0.023314,90.521515,38.547684,-148.747696,,,
729717208.404321,-2.628241,2.011725,107.413288,-0.01915,-0.053543,1.006577,-0.029772,0.061911,0.023314,90.521515,38.547684,-148.747696,,,
729717208.40451,-2.635816,2.028145,142.957131,-0.01915,-0.053543,1.006577,-0.029772,0.061911,0.023314,90.521515,38.547684,-148.747696,,,
729717208.405377,-2.635817,2.028145,104.34393,-0.01915,-0.053543,1.006577,-0.029772,0.061911,0.023314,90.521515,38.547684,-148.747696,,,
729717208.406224,-2.635816,2.028148,107.420781,-0.01915,-0.053543,1.006577,-0.029772,0.061911,0.023314,90.521515,38.547684,-148.747696,,,
729717208.40638,-2.635816,2.028145,142.957131,-0.01915,-0.053543,1.006577,-0.029772,0.061911,0.023314,90.521515,38.547684,-148.747696,,,
729717208.408325,-2.635817,2.028145,104.34393,-0.01915,-0.053543,1.006577,-0.029772,0.061911,0.023314,90.521515,38.547684,-148.747696,,,
729717208.408627,-2.635816,2.028148,107.420781,-0.01915,-0.053543,1.006577,-0.029772,0.061911,0.023314,90.521515,38.547684,-148.747696,,,
729717208.409268,-2.644183,2.045428,142.964108,-0.020096,-0.049316,1.001175,-0.03239,0.060382,0.019327,90.521515,38.547684,-148.747696,,,
729717208.412545,-2.644185,2.045427,104.350902,-0.020096,-0.049316,1.001175,-0.03239,0.060382,0.019327,90.521515,38.547684,-148.747696,,,
729717208.413583,-2.644183,2.04543,107.427753,-0.020096,-0.049316,1.001175,-0.03239,0.060382,0.019327,90.521515,38.547684,-148.747696,,,
729717208.413768,-2.644183,2.045428,142.964108,-0.020096,-0.049316,1.001175,-0.03239,0.060382,0.019327,90.521515,38.547684,-148.747696,,,
729717208.415743,-2.653047,2.058141,104.356678,-0.020096,-0.049316,1.001175,-0.03239,0.060382,0.019327,90.521515,38.547684,-148.747696,,,
729717208.416644,-2.653046,2.058144,107.433529,-0.020096,-0.049316,1.001175,-0.03239,0.060382,0.019327,90.521515,38.547684,-148.747696,,,
729717208.416819,-2.653046,2.058141,142.969884,-0.020096,-0.049316,1.001175,-0.03239,0.060382,0.019327,90.521515,38.547684,-148.747696,,,
729717208.419097,-2.653047,2.058141,104.356678,-0.020096,-0.049316,1.001175,-0.03239,0.060382,0.019327,90.641449,38.340393,-148.624756,,,
729717208.421819,-2.662892,2.069812,107.438097,-0.023743,-0.042374,0.992584,-0.03522,0.037787,0.010072,90.641449,38.340393,-148.624756,,,
729717208.422075,-2.662891,2.069809,142.974452,-0.023743,-0.042374,0.992584,-0.03522,0.037787,0.010072,90.641449,38.340393,-148.624756,,,
729717208.423468,-2.662893,2.069809,104.361245,-0.023743,-0.042374,0.992584,-0.03522,0.037787,0.010072,90.641449,38.340393,-148.624756,,,
729717208.423637,-2.662891,2.069809,142.974452,-0.023743,-0.042374,0.992584,-0.03522,0.037787,0.010072,90.641449,38.340393,-148.624756,,,
729717208.425386,-2.67304,2.075174,104.363441,-0.023743,-0.042374,0.992584,-0.03522,0.037787,0.010072,90.641449,38.340393,-148.624756,,,
729717208.426049,-2.673039,2.075177,107.440292,-0.023743,-0.042374,0.992584,-0.03522,0.037787,0.010072,90.641449,38.340393,-148.624756,,,
729717208.426198,-2.673038,2.075174,142.976646,-0.023743,-0.042374,0.992584,-0.03522,0.037787,0.010072,90.641449,38.340393,-148.624756,,,
729717208.428331,-2.67304,2.075174,104.363441,-0.023743,-0.042374,0.992584,-0.03522,0.037787,0.010072,90.641449,38.340393,-148.624756,,,
729717208.428587,-2.673039,2.075177,107.440292,-0.023743,-0.042374,0.992584,-0.03522,0.037787,0.010072,90.641449,38.340393,-148.624756,,,
729717208.429263,-2.684032,2.080186,142.976424,-0.022156,-0.038208,0.990692,-0.038524,0.015812,-0.007821,90.641449,38.340393,-148.624756,,,
729717208.433078,-2.684034,2.080186,104.363218,-0.022156,-0.038208,0.990692,-0.038524,0.015812,-0.007821,90.641449,38.340393,-148.624756,,,
729717208.434511,-2.684033,2.080189,107.440069,-0.022156,-0.038208,0.990692,-0.038524,0.015812,-0.007821,90.641449,38.340393,-148.624756,,,
729717208.434682,-2.69607,2.080172,142.973469,-0.022156,-0.038208,0.990692,-0.038524,0.015812,-0.007821,90.641449,38.340393,-148.624756,,,
729717208.435137,-2.696072,2.080172,104.360264,-0.022156,-0.038208,0.990692,-0.038524,0.015812,-0.007821,90.641449,38.340393,-148.624756,,,
729717208.435594,-2.696071,2.080175,107.437115,-0.022156,-0.038208,0.990692,-0.038524,0.015812,-0.007821,90.641449,38.340393,-148.624756,,,
729717208.435927,-2.69607,2.080172,142.973469,-0.022156,-0.038208,0.990692,-0.038524,0.015812,-0.007821,90.641449,38.340393,-148.624756,,,
729717208.438377,-2.696072,2.080172,104.360264,-0.022156,-0.038208,0.990692,-0.038524,0.015812,-0.007821,90.641449,38.340393,-148.624756,,,
729717208.438634,-2.696071,2.080175,107.437115,-0.022156,-0.038208,0.990692,-0.038524,0.015812,-0.007821,90.641449,38.340393,-148.624756,,,
729717208.439355,-2.707498,2.079094,142.968521,-0.0289,-0.037598,0.995743,-0.039775,-0.006651,-0.022452,90.641449,38.340393,-148.624756,,,
729717208.443241,-2.7075,2.079093,104.355317,-0.0289,-0.037598,0.995743,-0.039775,-0.006651,-0.022452,90.641449,38.340393,-148.624756,,,
729717208.445075,-2.707499,2.079096,107.432168,-0.0289,-0.037598,0.995743,-0.039775,-0.006651,-0.022452,90.641449,38.340393,-148.624756,,,
729717208.445242,-2.720574,2.072062,142.962258,-0.0289,-0.037598,0.995743,-0.039775,-0.006651,-0.022452,90.641449,38.340393,-148.624756,,,
729717208.445992,-2.720575,2.072062,104.349054,-0.0289,-0.037598,0.995743,-0.039775,-0.006651,-0.022452,90.641449,38.340393,-148.624756,,,
729717208.446101,-2.720574,2.072062,142.962258,-0.0289,-0.037598,0.995743,-0.039775,-0.006651,-0.022452,90.641449,38.340393,-148.624756,,,
729717208.448352,-2.720575,2.072062,104.349054,-0.0289,-0.037598,0.995743,-0.039775,-0.006651,-0.022452,90.641449,38.340393,-148.624756,,,
729717208.449434,-2.720574,2.072065,107.425905,-0.034149,-0.040359,0.998535,-0.035918,-0.02418,-0.031012,90.641449,38.340393,-148.624756,,,
729717208.4496,-2.731874,2.064885,142.954861,-0.034149,-0.040359,0.998535,-0.035918,-0.02418,-0.031012,90.641449,38.340393,-148.624756,,,
729717208.452557,-2.731876,2.064885,104.341658,-0.034149,-0.040359,0.998535,-0.035918,-0.02418,-0.031012,90.641449,38.340393,-148.624756,,,
729717208.453365,-2.731874,2.064888,107.418509,-0.034149,-0.040359,0.998535,-0.035918,-0.02418,-0.031012,90.641449,38.340393,-148.624756,,,
729717208.453499,-2.731874,2.064885,142.954861,-0.034149,-0.040359,0.998535,-0.035918,-0.02418,-0.031012,90.641449,38.340393,-148.624756,,,
729717208.455272,-2.744343,2.053612,104.333069,-0.034149,-0.040359,0.998535,-0.035918,-0.02418,-0.031012,90.641449,38.340393,-148.624756,,,
729717208.455818,-2.744341,2.053615,107.40992,-0.034149,-0.040359,0.998535,-0.035918,-0.02418,-0.031012,90.641449,38.340393,-148.624756,,,
729717208.455926,-2.744341,2.053612,142.946272,-0.034149,-0.040359,0.998535,-0.035918,-0.02418,-0.031012,90.641449,38.340393,-148.624756,,,
729717208.458909,-2.744343,2.053612,104.333069,-0.034149,-0.040359,0.998535,-0.035918,-0.02418,-0.031012,90.397476,38.634888,-148.806686,,,
729717208.460639,-2.754928,2.044206,107.40088,-0.033524,-0.040054,1.005112,-0.03389,-0.029054,-0.03494,90.397476,38.634888,-148.806686,,,
729717208.460825,-2.754928,2.044203,142.937231,-0.033524,-0.040054,1.005112,-0.03389,-0.029054,-0.03494,90.397476,38.634888,-148.806686,,,
729717208.46254,-2.754929,2.044203,104.32403,-0.033524,-0.040054,1.005112,-0.03389,-0.029054,-0.03494,90.397476,38.634888,-148.806686,,,
729717208.462768,-2.754928,2.044206,107.40088,-0.033524,-0.040054,1.005112,-0.03389,-0.029054,-0.03494,90.397476,38.634888,-148.806686,,,
729717208.462891,-2.754928,2.044203,142.937231,-0.033524,-0.040054,1.005112,-0.03389,-0.029054,-0.03494,90.397476,38.634888,-148.806686,,,
729717208.465588,-2.766096,2.032794,104.314918,-0.033524,-0.040054,1.005112,-0.03389,-0.029054,-0.03494,90.397476,38.634888,-148.806686,,,
729717208.466393,-2.766095,2.032797,107.391769,-0.033524,-0.040054,1.005112,-0.03389,-0.029054,-0.03494,90.397476,38.634888,-148.806686,,,
729717208.466549,-2.766095,2.032794,142.928119,-0.033524,-0.040054,1.005112,-0.03389,-0.029054,-0.03494,90.397476,38.634888,-148.806686,,,
729717208.468293,-2.766096,2.032794,104.314918,-0.033524,-0.040054,1.005112,-0.03389,-0.029054,-0.03494,90.397476,38.634888,-148.806686,,,
729717208.468608,-2.766095,2.032797,107.391769,-0.033524,-0.040054,1.005112,-0.03389,-0.029054,-0.03494,90.397476,38.634888,-148.806686,,,
729717208.469257,-2.772791,2.025646,142.919353,-0.03595,-0.042572,1.014389,-0.015919,-0.017937,-0.032727,90.397476,38.634888,-148.806686,,,
729717208.472177,-2.772793,2.025646,104.306147,-0.03595,-0.042572,1.014389,-0.015919,-0.017937,-0.032727,90.397476,38.634888,-148.806686,,,
729717208.473004,-2.772791,2.025649,107.382998,-0.03595,-0.042572,1.014389,-0.015919,-0.017937,-0.032727,90.397476,38.634888,-148.806686,,,
729717208.473163,-2.772791,2.025646,142.919353,-0.03595,-0.042572,1.014389,-0.015919,-0.017937,-0.032727,90.397476,38.634888,-148.806686,,,
729717208.475596,-2.778425,2.015814,104.297447,-0.03595,-0.042572,1.014389,-0.015919,-0.017937,-0.032727,90.397476,38.634888,-148.806686,,,
729717208.476411,-2.778424,2.015817,107.374298,-0.03595,-0.042572,1.014389,-0.015919,-0.017937,-0.032727,90.397476,38.634888,-148.806686,,,
729717208.476566,-2.778423,2.015814,142.910652,-0.03595,-0.042572,1.014389,-0.015919,-0.017937,-0.032727,90.397476,38.634888,-148.806686,,,
729717208.478291,-2.778425,2.015814,104.297447,-0.03595,-0.042572,1.014389,-0.015919,-0.017937,-0.032727,90.397476,38.634888,-148.806686,,,
729717208.478608,-2.778424,2.015817,107.374298,-0.03595,-0.042572,1.014389,-0.015919,-0.017937,-0.032727,90.397476,38.634888,-148.806686,,,
729717208.479257,-2.779845,2.011302,142.903207,-0.036194,-0.045731,1.017563,0.002732,-0.00808,-0.024596,90.397476,38.634888,-148.806686,,,
729717208.483547,-2.779846,2.011302,104.290002,-0.036194,-0.045731,1.017563,0.002732,-0.00808,-0.024596,90.397476,38.634888,-148.806686,,,
729717208.485412,-2.779845,2.011305,107.366853,-0.036194,-0.045731,1.017563,0.002732,-0.00808,-0.024596,90.397476,38.634888,-148.806686,,,
729717208.48559,-2.778584,2.005295,142.89709,-0.036194,-0.045731,1.017563,0.002732,-0.00808,-0.024596,90.397476,38.634888,-148.806686,,,
729717208.485978,-2.778585,2.005295,104.283886,-0.036194,-0.045731,1.017563,0.002732,-0.00808,-0.024596,90.397476,38.634888,-148.806686,,,
729717208.486129,-2.778584,2.005295,142.89709,-0.036194,-0.045731,1.017563,0.002732,-0.00808,-0.024596,90.397476,38.634888,-148.806686,,,
729717208.48836,-2.778585,2.005295,104.283886,-0.036194,-0.045731,1.017563,0.002732,-0.00808,-0.024596,90.397476,38.634888,-148.806686,,,
729717208.488845,-2.778584,2.005298,107.360737,-0.036194,-0.045731,1.017563,0.002732,-0.00808,-0.024596,90.397476,38.634888,-148.806686,,,
729717208.489352,-2.774411,2.005035,142.892934,-0.038193,-0.054169,1.019501,0.020308,0.004309,-0.011644,90.397476,38.634888,-148.806686,,,
729717208.493126,-2.774413,2.005035,104.279728,-0.038193,-0.054169,1.019501,0.020308,0.004309,-0.011644,90.397476,38.634888,-148.806686,,,
729717208.494711,-2.774411,2.005038,107.356579,-0.038193,-0.054169,1.019501,0.020308,0.004309,-0.011644,90.397476,38.634888,-148.806686,,,
729717208.494874,-2.766546,2.003227,142.890528,-0.038193,-0.054169,1.019501,0.020308,0.004309,-0.011644,90.397476,38.634888,-148.806686,,,
729717208.495331,-2.766548,2.003227,104.27732,-0.038193,-0.054169,1.019501,0.020308,0.004309,-0.011644,90.397476,38.634888,-148.806686,,,
729717208.495962,-2.766546,2.00323,107.354171,-0.038193,-0.054169,1.019501,0.020308,0.004309,-0.011644,90.397476,38.634888,-148.806686,,,
729717208.496115,-2.766546,2.003227,142.890528,-0.038193,-0.054169,1.019501,0.020308,0.004309,-0.011644,90.397476,38.634888,-148.806686,,,
729717208.498359,-2.766548,2.003227,104.27732,-0.038193,-0.054169,1.019501,0.020308,0.004309,-0.011644,90.397476,38.634888,-148.806686,,,
729717208.498591,-2.766546,2.00323,107.354171,-0.038193,-0.054169,1.019501,0.020308,0.004309,-0.011644,90.397476,38.634888,-148.806686,,,
729717208.49929,-2.757362,2.005421,142.889747,-0.043564,-0.053741,1.015198,0.036558,0.013018,-0.000688,90.418213,38.600647,-148.856674,,,
729717208.503229,-2.757364,2.00542,104.27654,-0.043564,-0.053741,1.015198,0.036558,0.013018,-0.000688,90.418213,38.600647,-148.856674,,,
729717208.504828,-2.757362,2.005423,107.353391,-0.043564,-0.053741,1.015198,0.036558,0.013018,-0.000688,90.418213,38.600647,-148.856674,,,
729717208.505,-2.74462,2.006194,142.889139,-0.043564,-0.053741,1.015198,0.036558,0.013018,-0.000688,90.418213,38.600647,-148.856674,,,
729717208.505443,-2.744621,2.006194,104.275933,-0.043564,-0.053741,1.015198,0.036558,0.013018,-0.000688,90.418213,38.600647,-148.856674,,,
729717208.505768,-2.74462,2.006197,107.352785,-0.043564,-0.053741,1.015198,0.036558,0.013018,-0.000688,90.418213,38.600647,-148.856674,,,
729717208.506015,-2.74462,2.006194,142.889139,-0.043564,-0.053741,1.015198,0.036558,0.013018,-0.000688,90.418213,38.600647,-148.856674,,,
729717208.508361,-2.744621,2.006194,104.275933,-0.043564,-0.053741,1.015198,0.036558,0.013018,-0.000688,90.418213,38.600647,-148.856674,,,
729717208.508582,-2.74462,2.006197,107.352785,-0.043564,-0.053741,1.015198,0.036558,0.013018,-0.000688,90.418213,38.600647,-148.856674,,,
729717208.509309,-2.73287,2.011293,142.887813,-0.03804,-0.045929,1.008041,0.044818,0.022733,-0.006363,90.418213,38.600647,-148.856674,,,
729717208.512593,-2.732871,2.011293,104.274607,-0.03804,-0.045929,1.008041,0.044818,0.022733,-0.006363,90.418213,38.600647,-148.856674,,,
729717208.513502,-2.73287,2.011296,107.351458,-0.03804,-0.045929,1.008041,0.044818,0.022733,-0.006363,90.418213,38.600647,-148.856674,,,
729717208.513644,-2.73287,2.011293,142.887813,-0.03804,-0.045929,1.008041,0.044818,0.022733,-0.006363,90.418213,38.600647,-148.856674,,,
729717208.515365,-2.716772,2.015282,104.271759,-0.03804,-0.045929,1.008041,0.044818,0.022733,-0.006363,90.418213,38.600647,-148.856674,,,
729717208.516029,-2.716771,2.015285,107.348611,-0.03804,-0.045929,1.008041,0.044818,0.022733,-0.006363,90.418213,38.600647,-148.856674,,,
729717208.51618,-2.716771,2.015282,142.884967,-0.03804,-0.045929,1.008041,0.044818,0.022733,-0.006363,90.418213,38.600647,-148.856674,,,
729717208.518335,-2.716772,2.015282,104.271759,-0.03804,-0.045929,1.008041,0.044818,0.022733,-0.006363,90.418213,38.600647,-148.856674,,,
729717208.518586,-2.716771,2.015285,107.348611,-0.03804,-0.045929,1.008041,0.044818,0.022733,-0.006363,90.418213,38.600647,-148.856674,,,
729717208.519298,-2.701975,2.020931,142.880628,-0.033218,-0.036728,1.005753,0.053617,0.021677,-0.017039,90.418213,38.600647,-148.856674,,,
729717208.522559,-2.701977,2.020931,104.267421,-0.033218,-0.036728,1.005753,0.053617,0.021677,-0.017039,90.418213,38.600647,-148.856674,,,
729717208.52375,-2.701976,2.020934,107.344272,-0.033218,-0.036728,1.005753,0.053617,0.021677,-0.017039,90.418213,38.600647,-148.856674,,,
729717208.523898,-2.701975,2.020931,142.880628,-0.033218,-0.036728,1.005753,0.053617,0.021677,-0.017039,90.418213,38.600647,-148.856674,,,
729717208.525259,-2.684588,2.024129,104.261745,-0.033218,-0.036728,1.005753,0.053617,0.021677,-0.017039,90.418213,38.600647,-148.856674,,,
729717208.52571,-2.684587,2.024132,107.338596,-0.033218,-0.036728,1.005753,0.053617,0.021677,-0.017039,90.418213,38.600647,-148.856674,,,
729717208.52593,-2.684587,2.024129,142.874951,-0.033218,-0.036728,1.005753,0.053617,0.021677,-0.017039,90.418213,38.600647,-148.856674,,,
729717208.528375,-2.684588,2.024129,104.261745,-0.033218,-0.036728,1.005753,0.053617,0.021677,-0.017039,90.418213,38.600647,-148.856674,,,
729717208.52859,-2.684587,2.024132,107.338596,-0.033218,-0.036728,1.005753,0.053617,0.021677,-0.017039,90.418213,38.600647,-148.856674,,,
729717208.529299,-2.669051,2.025855,142.868489,-0.041611,-0.035217,0.999817,0.053983,0.008287,-0.022618,90.418213,38.600647,-148.856674,,,
729717208.532718,-2.669053,2.025854,104.255283,-0.041611,-0.035217,0.999817,0.053983,0.008287,-0.022618,90.418213,38.600647,-148.856674,,,
729717208.534011,-2.669051,2.025858,107.332134,-0.041611,-0.035217,0.999817,0.053983,0.008287,-0.022618,90.418213,38.600647,-148.856674,,,
729717208.534166,-2.651995,2.025632,142.861558,-0.041611,-0.035217,0.999817,0.053983,0.008287,-0.022618,90.418213,38.600647,-148.856674,,,
729717208.535403,-2.651997,2.025632,104.248351,-0.041611,-0.035217,0.999817,0.053983,0.008287,-0.022618,90.418213,38.600647,-148.856674,,,
729717208.536018,-2.651996,2.025635,107.325202,-0.041611,-0.035217,0.999817,0.053983,0.008287,-0.022618,90.418213,38.600647,-148.856674,,,
729717208.536222,-2.651995,2.025632,142.861558,-0.041611,-0.035217,0.999817,0.053983,0.008287,-0.022618,90.418213,38.600647,-148.856674,,,
729717208.538462,-2.651997,2.025632,104.248351,-0.041611,-0.035217,0.999817,0.053983,0.008287,-0.022618,90.418213,38.600647,-148.856674,,,
729717208.538722,-2.651996,2.025635,107.325202,-0.041611,-0.035217,0.999817,0.053983,0.008287,-0.022618,90.418213,38.600647,-148.856674,,,
729717208.539369,-2.636063,2.024735,142.854297,-0.043777,-0.035583,0.993195,0.057683,0.000218,-0.024972,90.418213,38.600647,-148.856674,,,
729717208.543831,-2.636065,2.024734,104.24109,-0.043777,-0.035583,0.993195,0.057683,0.000218,-0.024972,90.499619,38.454742,-148.914307,,,
729717208.546201,-2.6182,2.022812,107.311731,-0.043777,-0.035583,0.993195,0.057683,0.000218,-0.024972,90.499619,38.454742,-148.914307,,,
729717208.546431,-2.6182,2.022809,142.848088,-0.043777,-0.035583,0.993195,0.057683,0.000218,-0.024972,90.499619,38.454742,-148.914307,,,
729717208.547028,-2.618201,2.022809,104.23488,-0.043777,-0.035583,0.993195,0.057683,0.000218,-0.024972,90.499619,38.454742,-148.914307,,,
729717208.548221,-2.618201,2.022809,104.23488,-0.043777,-0.035583,0.993195,0.057683,0.000218,-0.024972,90.499619,38.454742,-148.914307,,,
729717208.548653,-2.6182,2.022812,107.311731,-0.043777,-0.035583,0.993195,0.057683,0.000218,-0.024972,90.499619,38.454742,-148.914307,,,
729717208.54926,-2.600352,2.019639,142.843578,-0.046722,-0.038086,0.99408,0.064653,-0.010622,-0.013056,90.499619,38.454742,-148.914307,,,
729717208.553214,-2.600354,2.019638,104.230376,-0.046722,-0.038086,0.99408,0.064653,-0.010622,-0.013056,90.499619,38.454742,-148.914307,,,
729717208.554783,-2.600352,2.019642,107.307227,-0.046722,-0.038086,0.99408,0.064653,-0.010622,-0.013056,90.499619,38.454742,-148.914307,,,
729717208.55495,-2.582305,2.015344,142.839868,-0.046722,-0.038086,0.99408,0.064653,-0.010622,-0.013056,90.499619,38.454742,-148.914307,,,
729717208.555418,-2.582306,2.015344,104.226665,-0.046722,-0.038086,0.99408,0.064653,-0.010622,-0.013056,90.499619,38.454742,-148.914307,,,
729717208.556039,-2.582305,2.015347,107.303516,-0.046722,-0.038086,0.99408,0.064653,-0.010622,-0.013056,90.499619,38.454742,-148.914307,,,
729717208.556194,-2.582305,2.015344,142.839868,-0.046722,-0.038086,0.99408,0.064653,-0.010622,-0.013056,90.499619,38.454742,-148.914307,,,
729717208.558349,-2.582306,2.015344,104.226665,-0.046722,-0.038086,0.99408,0.064653,-0.010622,-0.013056,90.499619,38.454742,-148.914307,,,
729717208.558592,-2.582305,2.015347,107.303516,-0.046722,-0.038086,0.99408,0.064653,-0.010622,-0.013056,90.499619,38.454742,-148.914307,,,
729717208.559295,-2.565507,2.010394,142.837118,-0.044983,-0.036407,0.9879,0.058412,-0.014331,-0.006537,90.499619,38.454742,-148.914307,,,
729717208.56262,-2.565509,2.010394,104.223915,-0.044983,-0.036407,0.9879,0.058412,-0.014331,-0.006537,90.499619,38.454742,-148.914307,,,
729717208.563494,-2.565507,2.010397,107.300766,-0.044983,-0.036407,0.9879,0.058412,-0.014331,-0.006537,90.499619,38.454742,-148.914307,,,
729717208.563635,-2.565507,2.010394,142.837118,-0.044983,-0.036407,0.9879,0.058412,-0.014331,-0.006537,90.499619,38.454742,-148.914307,,,
729717208.565171,-2.551854,2.00547,104.221788,-0.044983,-0.036407,0.9879,0.058412,-0.014331,-0.006537,90.499619,38.454742,-148.914307,,,
729717208.565617,-2.551853,2.005473,107.298639,-0.044983,-0.036407,0.9879,0.058412,-0.014331,-0.006537,90.499619,38.454742,-148.914307,,,
729717208.565919,-2.551853,2.00547,142.83499,-0.044983,-0.036407,0.9879,0.058412,-0.014331,-0.006537,90.499619,38.454742,-148.914307,,,
729717208.568406,-2.551854,2.00547,104.221788,-0.044983,-0.036407,0.9879,0.058412,-0.014331,-0.006537,90.499619,38.454742,-148.914307,,,
729717208.568617,-2.551853,2.005473,107.298639,-0.044983,-0.036407,0.9879,0.058412,-0.014331,-0.006537,90.499619,38.454742,-148.914307,,,
729717208.569273,-2.538884,2.000097,142.832382,-0.037552,-0.031845,0.984238,0.042939,-0.015089,-0.010291,90.499619,38.454742,-148.914307,,,
729717208.572868,-2.538885,2.000097,104.219176,-0.037552,-0.031845,0.984238,0.042939,-0.015089,-0.010291,90.499619,38.454742,-148.914307,,,
729717208.574143,-2.538884,2.0001,107.296027,-0.037552,-0.031845,0.984238,0.042939,-0.015089,-0.010291,90.499619,38.454742,-148.914307,,,
729717208.574296,-2.529699,1.996815,142.82885,-0.037552,-0.031845,0.984238,0.042939,-0.015089,-0.010291,90.499619,38.454742,-148.914307,,,
729717208.575089,-2.529701,1.996815,104.215643,-0.037552,-0.031845,0.984238,0.042939,-0.015089,-0.010291,90.499619,38.454742,-148.914307,,,
729717208.575779,-2.5297,1.996818,107.292494,-0.037552,-0.031845,0.984238,0.042939,-0.015089,-0.010291,90.499619,38.454742,-148.914307,,,
729717208.575963,-2.529699,1.996815,142.82885,-0.037552,-0.031845,0.984238,0.042939,-0.015089,-0.010291,90.499619,38.454742,-148.914307,,,
729717208.578377,-2.529701,1.996815,104.215643,-0.037552,-0.031845,0.984238,0.042939,-0.015089,-0.010291,90.499619,38.454742,-148.914307,,,
729717208.578595,-2.5297,1.996818,107.292494,-0.037552,-0.031845,0.984238,0.042939,-0.015089,-0.010291,90.499619,38.454742,-148.914307,,,
729717208.579311,-2.519368,1.992776,142.824032,-0.029205,-0.029968,0.983643,0.03551,-0.008261,-0.018984,90.499619,38.454742,-148.914307,,,
729717208.583304,-2.519369,1.992776,104.210826,-0.029205,-0.029968,0.983643,0.03551,-0.008261,-0.018984,90.577332,38.348053,-149.096603,,,
729717208.584865,-2.519368,1.992779,107.287677,-0.029205,-0.029968,0.983643,0.03551,-0.008261,-0.018984,90.577332,38.348053,-149.096603,,,
729717208.585029,-2.510086,1.991454,142.819021,-0.029205,-0.029968,0.983643,0.03551,-0.008261,-0.018984,90.577332,38.348053,-149.096603,,,
729717208.585466,-2.510088,1.991454,104.205815,-0.029205,-0.029968,0.983643,0.03551,-0.008261,-0.018984,90.577332,38.348053,-149.096603,,,
729717208.585981,-2.510086,1.991457,107.282666,-0.029205,-0.029968,0.983643,0.03551,-0.008261,-0.018984,90.577332,38.348053,-149.096603,,,
729717208.586085,-2.510086,1.991454,142.819021,-0.029205,-0.029968,0.983643,0.03551,-0.008261,-0.018984,90.577332,38.348053,-149.096603,,,
729717208.588351,-2.510088,1.991454,104.205815,-0.029205,-0.029968,0.983643,0.03551,-0.008261,-0.018984,90.577332,38.348053,-149.096603,,,
729717208.588587,-2.510086,1.991457,107.282666,-0.029205,-0.029968,0.983643,0.03551,-0.008261,-0.018984,90.577332,38.348053,-149.096603,,,
729717208.589337,-2.499422,1.989553,142.814565,-0.026337,-0.031265,0.987961,0.03861,-0.003053,-0.014599,90.577332,38.348053,-149.096603,,,
729717208.592562,-2.499424,1.989553,104.201359,-0.026337,-0.031265,0.987961,0.03861,-0.003053,-0.014599,90.577332,38.348053,-149.096603,,,
729717208.593476,-2.499423,1.989556,107.27821,-0.026337,-0.031265,0.987961,0.03861,-0.003053,-0.014599,90.577332,38.348053,-149.096603,,,
729717208.593616,-2.499422,1.989553,142.814565,-0.026337,-0.031265,0.987961,0.03861,-0.003053,-0.014599,90.577332,38.348053,-149.096603,,,
729717208.595136,-2.486892,1.986552,104.197907,-0.026337,-0.031265,0.987961,0.03861,-0.003053,-0.014599,90.577332,38.348053,-149.096603,,,
729717208.595739,-2.486891,1.986556,107.274758,-0.026337,-0.031265,0.987961,0.03861,-0.003053,-0.014599,90.577332,38.348053,-149.096603,,,
729717208.595918,-2.48689,1.986553,142.811111,-0.026337,-0.031265,0.987961,0.03861,-0.003053,-0.014599,90.577332,38.348053,-149.096603,,,
729717208.598366,-2.486892,1.986552,104.197907,-0.026337,-0.031265,0.987961,0.03861,-0.003053,-0.014599,90.577332,38.348053,-149.096603,,,
729717208.598584,-2.486891,1.986556,107.274758,-0.026337,-0.031265,0.987961,0.03861,-0.003053,-0.014599,90.577332,38.348053,-149.096603,,,
729717208.599372,-2.474513,1.982397,142.808694,-0.02507,-0.037003,0.984329,0.04551,-0.014812,-0.007278,90.577332,38.348053,-149.096603,,,
729717208.602864,-2.474514,1.982397,104.195489,-0.02507,-0.037003,0.984329,0.04551,-0.014812,-0.007278,90.577332,38.348053,-149.096603,,,
729717208.604157,-2.474513,1.9824,107.272341,-0.02507,-0.037003,0.984329,0.04551,-0.014812,-0.007278,90.577332,38.348053,-149.096603,,,
729717208.604327,-2.459636,1.978198,142.807377,-0.02507,-0.037003,0.984329,0.04551,-0.014812,-0.007278,90.577332,38.348053,-149.096603,,,
729717208.605187,-2.459638,1.978198,104.194173,-0.02507,-0.037003,0.984329,0.04551,-0.014812,-0.007278,90.577332,38.348053,-149.096603,,,
729717208.60563,-2.459637,1.978201,107.271024,-0.02507,-0.037003,0.984329,0.04551,-0.014812,-0.007278,90.577332,38.348053,-149.096603,,,
729717208.605941,-2.459636,1.978198,142.807377,-0.02507,-0.037003,0.984329,0.04551,-0.014812,-0.007278,90.577332,38.348053,-149.096603,,,
729717208.608372,-2.459638,1.978198,104.194173,-0.02507,-0.037003,0.984329,0.04551,-0.014812,-0.007278,90.577332,38.348053,-149.096603,,,
729717208.608588,-2.459637,1.978201,107.271024,-0.02507,-0.037003,0.984329,0.04551,-0.014812,-0.007278,90.577332,38.348053,-149.096603,,,
729717208.609261,-2.446765,1.973003,142.806939,-0.02507,-0.037003,0.984329,0.044625,-0.013528,-0.000823,90.577332,38.348053,-149.096603,,,
729717208.612654,-2.446767,1.973003,104.193734,-0.024353,-0.038788,0.98082,0.044625,-0.013528,-0.000823,90.577332,38.348053,-149.096603,,,
729717208.613769,-2.446766,1.973006,107.270585,-0.024353,-0.038788,0.98082,0.044625,-0.013528,-0.000823,90.577332,38.348053,-149.096603,,,
729717208.613924,-2.446765,1.973003,142.806939,-0.024353,-0.038788,0.98082,0.044625,-0.013528,-0.000823,90.577332,38.348053,-149.096603,,,
729717208.615222,-2.433317,1.971077,104.193091,-0.024353,-0.038788,0.98082,0.044625,-0.013528,-0.000823,90.577332,38.348053,-149.096603,,,
729717208.615849,-2.433316,1.971081,107.269942,-0.024353,-0.038788,0.98082,0.044625,-0.013528,-0.000823,90.577332,38.348053,-149.096603,,,
729717208.616046,-2.433316,1.971078,142.806296,-0.024353,-0.038788,0.98082,0.044625,-0.013528,-0.000823,90.577332,38.348053,-149.096603,,,
729717208.618397,-2.433317,1.971077,104.193091,-0.024353,-0.038788,0.98082,0.044625,-0.013528,-0.000823,90.577332,38.348053,-149.096603,,,
729717208.618686,-2.433316,1.971081,107.269942,-0.024353,-0.038788,0.98082,0.044625,-0.013528,-0.000823,90.577332,38.348053,-149.096603,,,
729717208.619367,-2.42313,1.968159,142.804862,-0.024353,-0.038788,0.98082,0.035231,-0.004419,-0.005975,90.577332,38.348053,-149.096603,,,
729717208.623364,-2.423132,1.968159,104.191657,-0.015152,-0.030624,0.982178,0.035231,-0.004419,-0.005975,90.549789,38.431076,-149.035538,,,
729717208.62521,-2.423131,1.968162,107.268508,-0.015152,-0.030624,0.982178,0.035231,-0.004419,-0.005975,90.549789,38.431076,-149.035538,,,
729717208.625422,-2.412903,1.969212,142.802564,-0.015152,-0.030624,0.982178,0.035231,-0.004419,-0.005975,90.549789,38.431076,-149.035538,,,
729717208.626009,-2.412905,1.969212,104.189358,-0.015152,-0.030624,0.982178,0.035231,-0.004419,-0.005975,90.549789,38.431076,-149.035538,,,
729717208.626156,-2.412903,1.969212,142.802564,-0.015152,-0.030624,0.982178,0.035231,-0.004419,-0.005975,90.549789,38.431076,-149.035538,,,
729717208.628374,-2.412905,1.969212,104.189358,-0.015152,-0.030624,0.982178,0.035231,-0.004419,-0.005975,90.549789,38.431076,-149.035538,,,
729717208.628885,-2.412904,1.969215,107.266209,-0.015152,-0.030624,0.982178,0.035231,-0.004419,-0.005975,90.549789,38.431076,-149.035538,,,
729717208.62927,-2.405579,1.967831,142.798952,-0.015152,-0.030624,0.982178,0.023628,-0.001189,-0.0147,90.549789,38.431076,-149.035538,,,
729717208.632036,-2.40558,1.967831,104.185748,-0.011658,-0.026611,0.981674,0.023628,-0.001189,-0.0147,90.549789,38.431076,-149.035538,,,
729717208.632793,-2.405579,1.967834,107.262599,-0.011658,-0.026611,0.981674,0.023628,-0.001189,-0.0147,90.549789,38.431076,-149.035538,,,
729717208.633005,-2.405579,1.967831,142.798952,-0.011658,-0.026611,0.981674,0.023628,-0.001189,-0.0147,90.549789,38.431076,-149.035538,,,
729717208.635566,-2.399121,1.969595,104.181511,-0.011658,-0.026611,0.981674,0.023628,-0.001189,-0.0147,90.549789,38.431076,-149.035538,,,
729717208.636166,-2.39912,1.969598,107.258361,-0.011658,-0.026611,0.981674,0.023628,-0.001189,-0.0147,90.549789,38.431076,-149.035538,,,
729717208.636358,-2.39912,1.969595,142.794714,-0.011658,-0.026611,0.981674,0.023628,-0.001189,-0.0147,90.549789,38.431076,-149.035538,,,
729717208.638354,-2.399121,1.969595,104.181511,-0.011658,-0.026611,0.981674,0.023628,-0.001189,-0.0147,90.549789,38.431076,-149.035538,,,
729717208.638647,-2.39912,1.969598,107.258361,-0.011658,-0.026611,0.981674,0.023628,-0.001189,-0.0147,90.549789,38.431076,-149.035538,,,
729717208.639417,-2.395906,1.969494,142.789438,-0.01709,-0.028519,0.982285,0.009085,0.005906,-0.021565,90.549789,38.431076,-149.035538,,,
729717208.643771,-2.395908,1.969494,104.176234,-0.01709,-0.028519,0.982285,0.009085,0.005906,-0.021565,90.549789,38.431076,-149.035538,,,
729717208.646053,-2.395907,1.969497,107.253085,-0.01709,-0.028519,0.982285,0.009085,0.005906,-0.021565,90.549789,38.431076,-149.035538,,,
729717208.646276,-2.392444,1.972033,142.783236,-0.01709,-0.028519,0.982285,0.009085,0.005906,-0.021565,90.549789,38.431076,-149.035538,,,
729717208.647118,-2.392445,1.972033,104.170033,-0.01709,-0.028519,0.982285,0.009085,0.005906,-0.021565,90.549789,38.431076,-149.035538,,,
729717208.648252,-2.392445,1.972033,104.170033,-0.01709,-0.028519,0.982285,0.009085,0.005906,-0.021565,90.549789,38.431076,-149.035538,,,
729717208.649231,-2.392444,1.972036,107.246884,-0.01709,-0.028519,0.982285,0.009085,0.005906,-0.021565,90.549789,38.431076,-149.035538,,,
729717208.649477,-2.391622,1.973162,142.776423,-0.021576,-0.032883,0.985123,0.004409,0.007115,-0.025502,90.549789,38.431076,-149.035538,,,
729717208.652649,-2.391623,1.973162,104.16322,-0.021576,-0.032883,0.985123,0.004409,0.007115,-0.025502,90.549789,38.431076,-149.035538,,,
729717208.653808,-2.391622,1.973165,107.240071,-0.021576,-0.032883,0.985123,0.004409,0.007115,-0.025502,90.549789,38.431076,-149.035538,,,
729717208.654012,-2.391622,1.973162,142.776423,-0.021576,-0.032883,0.985123,0.004409,0.007115,-0.025502,90.549789,38.431076,-149.035538,,,
729717208.654891,-2.388443,1.972968,104.155849,-0.021576,-0.032883,0.985123,0.004409,0.007115,-0.025502,90.549789,38.431076,-149.035538,,,
729717208.655591,-2.388442,1.972971,107.2327,-0.021576,-0.032883,0.985123,0.004409,0.007115,-0.025502,90.549789,38.431076,-149.035538,,,
729717208.656144,-2.388442,1.972968,142.769052,-0.021576,-0.032883,0.985123,0.004409,0.007115,-0.025502,90.549789,38.431076,-149.035538,,,
729717208.658389,-2.388443,1.972968,104.155849,-0.021576,-0.032883,0.985123,0.004409,0.007115,-0.025502,90.549789,38.431076,-149.035538,,,
729717208.658672,-2.388442,1.972971,107.2327,-0.021576,-0.032883,0.985123,0.004409,0.007115,-0.025502,90.549789,38.431076,-149.035538,,,
729717208.659323,-2.388442,1.972968,142.769052,-0.021576,-0.032883,0.985123,0.004409,0.007115,-0.025502,90.549789,38.431076,-149.035538,,,
729717208.66454,-2.38859,1.972577,104.1484,-0.026871,-0.039612,0.988342,-6.7e-05,0.000384,-0.026395,90.407043,38.13324,-149.022995,,,
729717208.667435,-2.38655,1.969682,107.218045,-0.026871,-0.039612,0.988342,-6.7e-05,0.000384,-0.026395,90.407043,38.13324,-149.022995,,,
729717208.66768,-2.38655,1.969679,142.754398,-0.026871,-0.039612,0.988342,-6.7e-05,0.000384,-0.026395,90.407043,38.13324,-149.022995,,,
729717208.668349,-2.386552,1.969679,104.141194,-0.026871,-0.039612,0.988342,-6.7e-05,0.000384,-0.026395,90.407043,38.13324,-149.022995,,,
729717208.668625,-2.38655,1.969682,107.218045,-0.026871,-0.039612,0.988342,-6.7e-05,0.000384,-0.026395,90.407043,38.13324,-149.022995,,,
729717208.669308,-2.38655,1.969679,142.754398,-0.026871,-0.039612,0.988342,0.001779,-0.002126,-0.024506,90.407043,38.13324,-149.022995,,,
729717208.67357,-2.386718,1.968061,104.134317,-0.031128,-0.0448,0.991058,0.001779,-0.002126,-0.024506,90.407043,38.13324,-149.022995,,,
729717208.675606,-2.386717,1.968064,107.211168,-0.031128,-0.0448,0.991058,0.001779,-0.002126,-0.024506,90.407043,38.13324,-149.022995,,,
729717208.675791,-2.384537,1.964459,142.740673,-0.031128,-0.0448,0.991058,0.001779,-0.002126,-0.024506,90.407043,38.13324,-149.022995,,,
729717208.676708,-2.384538,1.964459,104.127468,-0.031128,-0.0448,0.991058,0.001779,-0.002126,-0.024506,90.407043,38.13324,-149.022995,,,
729717208.678269,-2.384538,1.964459,104.127468,-0.031128,-0.0448,0.991058,0.001779,-0.002126,-0.024506,90.407043,38.13324,-149.022995,,,
729717208.679353,-2.384537,1.964462,107.204319,-0.031128,-0.0448,0.991058,0.001779,-0.002126,-0.024506,90.407043,38.13324,-149.022995,,,
729717208.679545,-2.381967,1.963494,142.733682,-0.035004,-0.048386,0.999115,0.012854,0.002584,-0.025668,90.407043,38.13324,-149.022995,,,
729717208.683364,-2.381968,1.963494,104.120477,-0.035004,-0.048386,0.999115,0.012854,0.002584,-0.025668,90.407043,38.13324,-149.022995,,,
729717208.684994,-2.381967,1.963497,107.197328,-0.035004,-0.048386,0.999115,0.012854,0.002584,-0.025668,90.407043,38.13324,-149.022995,,,
729717208.685108,-2.377473,1.961904,142.726882,-0.035004,-0.048386,0.999115,0.012854,0.002584,-0.025668,90.407043,38.13324,-149.022995,,,
729717208.685368,-2.377474,1.961903,104.113675,-0.035004,-0.048386,0.999115,0.012854,0.002584,-0.025668,90.407043,38.13324,-149.022995,,,
729717208.685609,-2.377473,1.961906,107.190527,-0.035004,-0.048386,0.999115,0.012854,0.002584,-0.025668,90.407043,38.13324,-149.022995,,,
729717208.685835,-2.377473,1.961904,142.726882,-0.035004,-0.048386,0.999115,0.012854,0.002584,-0.025668,90.407043,38.13324,-149.022995,,,
729717208.688378,-2.377474,1.961903,104.113675,-0.035004,-0.048386,0.999115,0.012854,0.002584,-0.025668,90.407043,38.13324,-149.022995,,,
729717208.688587,-2.377473,1.961906,107.190527,-0.035004,-0.048386,0.999115,0.012854,0.002584,-0.025668,90.407043,38.13324,-149.022995,,,
729717208.689434,-2.371068,1.964165,142.720857,-0.035004,-0.048386,0.999115,0.028368,0.014464,-0.02038,90.407043,38.13324,-149.022995,,,
729717208.692419,-2.37107,1.964165,104.10765,-0.038467,-0.050674,1.004898,0.028368,0.014464,-0.02038,90.407043,38.13324,-149.022995,,,
729717208.693484,-2.371069,1.964168,107.184501,-0.038467,-0.050674,1.004898,0.028368,0.014464,-0.02038,90.407043,38.13324,-149.022995,,,
729717208.693643,-2.371068,1.964165,142.720857,-0.038467,-0.050674,1.004898,0.028368,0.014464,-0.02038,90.407043,38.13324,-149.022995,,,
729717208.695325,-2.360477,1.963805,104.102388,-0.038467,-0.050674,1.004898,0.028368,0.014464,-0.02038,90.407043,38.13324,-149.022995,,,
729717208.695779,-2.360475,1.963808,107.179239,-0.038467,-0.050674,1.004898,0.028368,0.014464,-0.02038,90.407043,38.13324,-149.022995,,,
729717208.69595,-2.360475,1.963805,142.715594,-0.038467,-0.050674,1.004898,0.028368,0.014464,-0.02038,90.407043,38.13324,-149.022995,,,
729717208.698365,-2.360477,1.963805,104.102388,-0.038467,-0.050674,1.004898,0.028368,0.014464,-0.02038,90.407043,38.13324,-149.022995,,,
729717208.698587,-2.360475,1.963808,107.179239,-0.038467,-0.050674,1.004898,0.028368,0.014464,-0.02038,90.407043,38.13324,-149.022995,,,
729717208.699305,-2.360475,1.963805,142.715594,-0.038467,-0.050674,1.004898,0.028368,0.014464,-0.02038,90.407043,38.13324,-149.022995,,,
729717208.702751,-2.350001,1.96886,104.098564,-0.040543,-0.054993,1.006729,0.04028,0.023941,-0.011079,90.407043,38.13324,-149.022995,,,
729717208.704527,-2.349999,1.968863,107.175415,-0.040543,-0.054993,1.006729,0.04028,0.023941,-0.011079,90.403885,38.146896,-149.251984,,,
729717208.704723,-2.33558,1.969993,142.709046,-0.040543,-0.054993,1.006729,0.04028,0.023941,-0.011079,90.403885,38.146896,-149.251984,,,
729717208.705608,-2.335582,1.969992,104.09584,-0.040543,-0.054993,1.006729,0.04028,0.023941,-0.011079,90.403885,38.146896,-149.251984,,,
729717208.706224,-2.335581,1.969995,107.172691,-0.040543,-0.054993,1.006729,0.04028,0.023941,-0.011079,90.403885,38.146896,-149.251984,,,
729717208.706412,-2.33558,1.969993,142.709046,-0.040543,-0.054993,1.006729,0.04028,0.023941,-0.011079,90.403885,38.146896,-149.251984,,,
729717208.708318,-2.335582,1.969992,104.09584,-0.040543,-0.054993,1.006729,0.04028,0.023941,-0.011079,90.403885,38.146896,-149.251984,,,
729717208.708595,-2.335581,1.969995,107.172691,-0.040543,-0.054993,1.006729,0.04028,0.023941,-0.011079,90.403885,38.146896,-149.251984,,,
729717208.70929,-2.33558,1.969993,142.709046,-0.040543,-0.054993,1.006729,0.04028,0.023941,-0.011079,90.403885,38.146896,-149.251984,,,
729717208.712786,-2.324788,1.978489,104.094173,-0.04216,-0.055161,1.002518,0.0373,0.037481,-0.005328,90.403885,38.146896,-149.251984,,,
729717208.713891,-2.324787,1.978492,107.171024,-0.04216,-0.055161,1.002518,0.0373,0.037481,-0.005328,90.403885,38.146896,-149.251984,,,
729717208.714045,-2.324787,1.97849,142.70738,-0.04216,-0.055161,1.002518,0.0373,0.037481,-0.005328,90.403885,38.146896,-149.251984,,,
729717208.715305,-2.311962,1.985079,104.093299,-0.04216,-0.055161,1.002518,0.0373,0.037481,-0.005328,90.403885,38.146896,-149.251984,,,
729717208.715993,-2.311961,1.985082,107.17015,-0.04216,-0.055161,1.002518,0.0373,0.037481,-0.005328,90.403885,38.146896,-149.251984,,,
729717208.716151,-2.311961,1.985079,142.706505,-0.04216,-0.055161,1.002518,0.0373,0.037481,-0.005328,90.403885,38.146896,-149.251984,,,
729717208.718333,-2.311962,1.985079,104.093299,-0.04216,-0.055161,1.002518,0.0373,0.037481,-0.005328,90.403885,38.146896,-149.251984,,,
729717208.718592,-2.311961,1.985082,107.17015,-0.04216,-0.055161,1.002518,0.0373,0.037481,-0.005328,90.403885,38.146896,-149.251984,,,
729717208.719299,-2.311961,1.985079,142.706505,-0.04216,-0.055161,1.002518,0.0373,0.037481,-0.005328,90.403885,38.146896,-149.251984,,,
729717208.723651,-2.303303,1.998191,104.09392,-0.045685,-0.053345,1.001984,0.029562,0.051213,0.003533,90.403885,38.146896,-149.251984,,,
729717208.725745,-2.303302,1.998194,107.170771,-0.045685,-0.053345,1.001984,0.029562,0.051213,0.003533,90.403885,38.146896,-149.251984,,,
729717208.725923,-2.293313,2.009126,142.708408,-0.045685,-0.053345,1.001984,0.029562,0.051213,0.003533,90.403885,38.146896,-149.251984,,,
729717208.726678,-2.293314,2.009126,104.095202,-0.045685,-0.053345,1.001984,0.029562,0.051213,0.003533,90.403885,38.146896,-149.251984,,,
729717208.728227,-2.293314,2.009126,104.095202,-0.045685,-0.053345,1.001984,0.029562,0.051213,0.003533,90.403885,38.146896,-149.251984,,,
729717208.728885,-2.293313,2.009129,107.172053,-0.045685,-0.053345,1.001984,0.029562,0.051213,0.003533,90.403885,38.146896,-149.251984,,,
729717208.729227,-2.293313,2.009126,142.708408,-0.045685,-0.053345,1.001984,0.029562,0.051213,0.003533,90.403885,38.146896,-149.251984,,,
729717208.732061,-2.286388,2.023834,104.097892,-0.048096,-0.050552,0.995193,0.021345,0.05347,0.012119,90.403885,38.146896,-149.251984,,,
729717208.732595,-2.286387,2.023837,107.174743,-0.048096,-0.050552,0.995193,0.021345,0.05347,0.012119,90.403885,38.146896,-149.251984,,,
729717208.732715,-2.286386,2.023834,142.711098,-0.048096,-0.050552,0.995193,0.021345,0.05347,0.012119,90.403885,38.146896,-149.251984,,,
729717208.735491,-2.280008,2.035445,104.102326,-0.048096,-0.050552,0.995193,0.021345,0.05347,0.012119,90.403885,38.146896,-149.251984,,,
729717208.736313,-2.280007,2.035448,107.179177,-0.048096,-0.050552,0.995193,0.021345,0.05347,0.012119,90.403885,38.146896,-149.251984,,,
729717208.736465,-2.280006,2.035445,142.715533,-0.048096,-0.050552,0.995193,0.021345,0.05347,0.012119,90.403885,38.146896,-149.251984,,,
729717208.738301,-2.280008,2.035445,104.102326,-0.048096,-0.050552,0.995193,0.021345,0.05347,0.012119,90.403885,38.146896,-149.251984,,,
729717208.738603,-2.280007,2.035448,107.179177,-0.048096,-0.050552,0.995193,0.021345,0.05347,0.012119,90.403885,38.146896,-149.251984,,,
729717208.739318,-2.280006,2.035445,142.715533,-0.048096,-0.050552,0.995193,0.021345,0.05347,0.012119,90.403885,38.146896,-149.251984,,,
729717208.742749,-2.274382,2.048245,104.108147,-0.049942,-0.05011,0.992111,0.019195,0.044979,0.021044,90.403885,38.146896,-149.251984,,,
729717208.743879,-2.274381,2.048248,107.184999,-0.049942,-0.05011,0.992111,0.019195,0.044979,0.021044,90.403885,38.146896,-149.251984,,,
729717208.744031,-2.27438,2.048245,142.721354,-0.049942,-0.05011,0.992111,0.019195,0.044979,0.021044,90.403885,38.146896,-149.251984,,,
729717208.745524,-2.27015,2.058238,104.114392,-0.049942,-0.05011,0.992111,0.019195,0.044979,0.021044,90.568954,38.217056,-148.926788,,,
729717208.746583,-2.270149,2.058242,107.191243,-0.049942,-0.05011,0.992111,0.019195,0.044979,0.021044,90.568954,38.217056,-148.926788,,,
729717208.74676,-2.270149,2.058239,142.727595,-0.049942,-0.05011,0.992111,0.019195,0.044979,0.021044,90.568954,38.217056,-148.926788,,,
729717208.748264,-2.27015,2.058238,104.114392,-0.049942,-0.05011,0.992111,0.019195,0.044979,0.021044,90.568954,38.217056,-148.926788,,,
729717208.748611,-2.270149,2.058242,107.191243,-0.049942,-0.05011,0.992111,0.019195,0.044979,0.021044,90.568954,38.217056,-148.926788,,,
729717208.749252,-2.270149,2.058239,142.727595,-0.049942,-0.05011,0.992111,0.019195,0.044979,0.021044,90.568954,38.217056,-148.926788,,,
729717208.752423,-2.26612,2.067246,104.120794,-0.046844,-0.045654,0.991013,0.011623,0.02933,0.02158,90.568954,38.217056,-148.926788,,,
729717208.753345,-2.266119,2.067249,107.197645,-0.046844,-0.045654,0.991013,0.011623,0.02933,0.02158,90.568954,38.217056,-148.926788,,,
729717208.753483,-2.266119,2.067246,142.733996,-0.046844,-0.045654,0.991013,0.011623,0.02933,0.02158,90.568954,38.217056,-148.926788,,,
729717208.755306,-2.264642,2.073209,104.126561,-0.046844,-0.045654,0.991013,0.011623,0.02933,0.02158,90.568954,38.217056,-148.926788,,,
729717208.755743,-2.264641,2.073212,107.203412,-0.046844,-0.045654,0.991013,0.011623,0.02933,0.02158,90.568954,38.217056,-148.926788,,,
729717208.755989,-2.264641,2.073209,142.739764,-0.046844,-0.045654,0.991013,0.011623,0.02933,0.02158,90.568954,38.217056,-148.926788,,,
729717208.75836,-2.264642,2.073209,104.126561,-0.046844,-0.045654,0.991013,0.011623,0.02933,0.02158,90.568954,38.217056,-148.926788,,,
729717208.758586,-2.264641,2.073212,107.203412,-0.046844,-0.045654,0.991013,0.011623,0.02933,0.02158,90.568954,38.217056,-148.926788,,,
729717208.759258,-2.264641,2.073209,142.739764,-0.046844,-0.045654,0.991013,0.011623,0.02933,0.02158,90.568954,38.217056,-148.926788,,,
729717208.762625,-2.262517,2.076519,104.131319,-0.04512,-0.038544,0.989548,0.002785,0.008492,0.014085,90.568954,38.217056,-148.926788,,,
729717208.763839,-2.262516,2.076522,107.20817,-0.04512,-0.038544,0.989548,0.002785,0.008492,0.014085,90.568954,38.217056,-148.926788,,,
729717208.763993,-2.262516,2.07652,142.744521,-0.04512,-0.038544,0.989548,0.002785,0.008492,0.014085,90.568954,38.217056,-148.926788,,,
729717208.764831,-2.264837,2.077143,104.134492,-0.04512,-0.038544,0.989548,0.002785,0.008492,0.014085,90.568954,38.217056,-148.926788,,,
729717208.765314,-2.264835,2.077146,107.211343,-0.04512,-0.038544,0.989548,0.002785,0.008492,0.014085,90.568954,38.217056,-148.926788,,,
729717208.765918,-2.264835,2.077143,142.747693,-0.04512,-0.038544,0.989548,0.002785,0.008492,0.014085,90.568954,38.217056,-148.926788,,,
729717208.768369,-2.264837,2.077143,104.134492,-0.04512,-0.038544,0.989548,0.002785,0.008492,0.014085,90.568954,38.217056,-148.926788,,,
729717208.768586,-2.264835,2.077146,107.211343,-0.04512,-0.038544,0.989548,0.002785,0.008492,0.014085,90.568954,38.217056,-148.926788,,,
729717208.769258,-2.264835,2.077143,142.747693,-0.04512,-0.038544,0.989548,0.002785,0.008492,0.014085,90.568954,38.217056,-148.926788,,,
729717208.77416,-2.266005,2.074651,104.136126,-0.043304,-0.035721,0.986847,-0.006604,-0.010198,0.003216,90.568954,38.217056,-148.926788,,,
729717208.776598,-2.266004,2.074654,107.212977,-0.043304,-0.035721,0.986847,-0.006604,-0.010198,0.003216,90.568954,38.217056,-148.926788,,,
729717208.776781,-2.272133,2.070992,142.749618,-0.043304,-0.035721,0.986847,-0.006604,-0.010198,0.003216,90.568954,38.217056,-148.926788,,,
729717208.777191,-2.272134,2.070991,104.136411,-0.043304,-0.035721,0.986847,-0.006604,-0.010198,0.003216,90.568954,38.217056,-148.926788,,,
729717208.778164,-2.272134,2.070991,104.136411,-0.043304,-0.035721,0.986847,-0.006604,-0.010198,0.003216,90.568954,38.217056,-148.926788,,,
729717208.778574,-2.272133,2.070994,107.213262,-0.043304,-0.035721,0.986847,-0.006604,-0.010198,0.003216,90.568954,38.217056,-148.926788,,,
729717208.779236,-2.272133,2.070992,142.749618,-0.043304,-0.035721,0.986847,-0.006604,-0.010198,0.003216,90.568954,38.217056,-148.926788,,,
729717208.78344,-2.276143,2.064329,104.135488,-0.034683,-0.030579,0.991074,-0.015373,-0.02431,-0.005367,90.568954,38.217056,-148.926788,,,
729717208.784902,-2.276142,2.064332,107.212339,-0.034683,-0.030579,0.991074,-0.015373,-0.02431,-0.005367,90.568954,38.217056,-148.926788,,,
729717208.78506,-2.285234,2.057357,142.747535,-0.034683,-0.030579,0.991074,-0.015373,-0.02431,-0.005367,90.568954,38.217056,-148.926788,,,
729717208.785779,-2.285235,2.057356,104.134333,-0.034683,-0.030579,0.991074,-0.015373,-0.02431,-0.005367,90.349487,38.305145,-148.811478,,,
729717208.786402,-2.285234,2.057359,107.211184,-0.034683,-0.030579,0.991074,-0.015373,-0.02431,-0.005367,90.349487,38.305145,-148.811478,,,
729717208.786522,-2.285234,2.057357,142.747535,-0.034683,-0.030579,0.991074,-0.015373,-0.02431,-0.005367,90.349487,38.305145,-148.811478,,,
729717208.788269,-2.285235,2.057356,104.134333,-0.034683,-0.030579,0.991074,-0.015373,-0.02431,-0.005367,90.349487,38.305145,-148.811478,,,
729717208.788561,-2.285234,2.057359,107.211184,-0.034683,-0.030579,0.991074,-0.015373,-0.02431,-0.005367,90.349487,38.305145,-148.811478,,,
729717208.789315,-2.285234,2.057357,142.747535,-0.034683,-0.030579,0.991074,-0.015373,-0.02431,-0.005367,90.349487,38.305145,-148.811478,,,
729717208.792087,-2.292249,2.048436,104.132795,-0.029495,-0.033463,0.991562,-0.026558,-0.028021,-0.008056,90.349487,38.305145,-148.811478,,,
729717208.792612,-2.292248,2.048439,107.209646,-0.029495,-0.033463,0.991562,-0.026558,-0.028021,-0.008056,90.349487,38.305145,-148.811478,,,
729717208.792724,-2.292247,2.048436,142.745998,-0.029495,-0.033463,0.991562,-0.026558,-0.028021,-0.008056,90.349487,38.305145,-148.811478,,,
729717208.795362,-2.304496,2.042424,104.131772,-0.029495,-0.033463,0.991562,-0.026558,-0.028021,-0.008056,90.349487,38.305145,-148.811478,,,
729717208.795817,-2.304495,2.042427,107.208623,-0.029495,-0.033463,0.991562,-0.026558,-0.028021,-0.008056,90.349487,38.305145,-148.811478,,,
729717208.795924,-2.304495,2.042424,142.744974,-0.029495,-0.033463,0.991562,-0.026558,-0.028021,-0.008056,90.349487,38.305145,-148.811478,,,
729717208.798332,-2.304496,2.042424,104.131772,-0.029495,-0.033463,0.991562,-0.026558,-0.028021,-0.008056,90.349487,38.305145,-148.811478,,,
729717208.798551,-2.304495,2.042427,107.208623,-0.029495,-0.033463,0.991562,-0.026558,-0.028021,-0.008056,90.349487,38.305145,-148.811478,,,
729717208.799227,-2.304495,2.042424,142.744974,-0.029495,-0.033463,0.991562,-0.026558,-0.028021,-0.008056,90.349487,38.305145,-148.811478,,,
729717208.8027,-2.31575,2.036629,104.131442,-0.025772,-0.035019,0.997238,-0.042679,-0.012838,-0.003219,90.349487,38.305145,-148.811478,,,
729717208.803902,-2.315749,2.036632,107.208293,-0.025772,-0.035019,0.997238,-0.042679,-0.012838,-0.003219,90.349487,38.305145,-148.811478,,,
729717208.804065,-2.315749,2.036629,142.744644,-0.025772,-0.035019,0.997238,-0.042679,-0.012838,-0.003219,90.349487,38.305145,-148.811478,,,
729717208.805057,-2.331569,2.037058,104.131814,-0.025772,-0.035019,0.997238,-0.042679,-0.012838,-0.003219,90.349487,38.305145,-148.811478,,,
729717208.805537,-2.331568,2.037061,107.208666,-0.025772,-0.035019,0.997238,-0.042679,-0.012838,-0.003219,90.349487,38.305145,-148.811478,,,
729717208.805962,-2.331567,2.037058,142.745021,-0.025772,-0.035019,0.997238,-0.042679,-0.012838,-0.003219,90.349487,38.305145,-148.811478,,,
729717208.808369,-2.331569,2.037058,104.131814,-0.025772,-0.035019,0.997238,-0.042679,-0.012838,-0.003219,90.349487,38.305145,-148.811478,,,
729717208.808588,-2.331568,2.037061,107.208666,-0.025772,-0.035019,0.997238,-0.042679,-0.012838,-0.003219,90.349487,38.305145,-148.811478,,,
729717208.809264,-2.331567,2.037058,142.745021,-0.025772,-0.035019,0.997238,-0.042679,-0.012838,-0.003219,90.349487,38.305145,-148.811478,,,
729717208.813133,-2.346777,2.038024,104.13254,-0.020782,-0.035294,0.99855,-0.055133,0.012431,-0.000438,90.349487,38.305145,-148.811478,,,
729717208.814733,-2.346776,2.038027,107.209391,-0.020782,-0.035294,0.99855,-0.055133,0.012431,-0.000438,90.349487,38.305145,-148.811478,,,
729717208.814896,-2.36492,2.04657,142.747169,-0.020782,-0.035294,0.99855,-0.055133,0.012431,-0.000438,90.349487,38.305145,-148.811478,,,
729717208.815571,-2.364922,2.04657,104.133963,-0.020782,-0.035294,0.99855,-0.055133,0.012431,-0.000438,90.349487,38.305145,-148.811478,,,
729717208.81624,-2.364921,2.046573,107.210814,-0.020782,-0.035294,0.99855,-0.055133,0.012431,-0.000438,90.349487,38.305145,-148.811478,,,
729717208.816402,-2.36492,2.04657,142.747169,-0.020782,-0.035294,0.99855,-0.055133,0.012431,-0.000438,90.349487,38.305145,-148.811478,,,
729717208.81828,-2.364922,2.04657,104.133963,-0.020782,-0.035294,0.99855,-0.055133,0.012431,-0.000438,90.349487,38.305145,-148.811478,,,
729717208.818561,-2.364921,2.046573,107.210814,-0.020782,-0.035294,0.99855,-0.055133,0.012431,-0.000438,90.349487,38.305145,-148.811478,,,
729717208.819228,-2.36492,2.04657,142.747169,-0.020782,-0.035294,0.99855,-0.055133,0.012431,-0.000438,90.349487,38.305145,-148.811478,,,
729717208.823437,-2.380026,2.055071,104.136373,-0.020493,-0.039886,1.004517,-0.050089,0.036591,0.007586,90.349487,38.305145,-148.811478,,,
729717208.82499,-2.380025,2.055074,107.213224,-0.020493,-0.039886,1.004517,-0.050089,0.036591,0.007586,90.349487,38.305145,-148.811478,,,
729717208.825106,-2.39503,2.068673,142.753825,-0.020493,-0.039886,1.004517,-0.050089,0.036591,0.007586,90.349487,38.305145,-148.811478,,,
729717208.825711,-2.395032,2.068673,104.140619,-0.020493,-0.039886,1.004517,-0.050089,0.036591,0.007586,90.349487,38.305145,-148.811478,,,
729717208.826606,-2.395031,2.068676,107.217471,-0.020493,-0.039886,1.004517,-0.050089,0.036591,0.007586,90.646408,38.391464,-148.870178,,,
729717208.826734,-2.39503,2.068673,142.753825,-0.020493,-0.039886,1.004517,-0.050089,0.036591,0.007586,90.646408,38.391464,-148.870178,,,
729717208.828565,-2.395032,2.068673,104.140619,-0.020493,-0.039886,1.004517,-0.050089,0.036591,0.007586,90.646408,38.391464,-148.870178,,,
729717208.828716,-2.395031,2.068676,107.217471,-0.020493,-0.039886,1.004517,-0.050089,0.036591,0.007586,90.646408,38.391464,-148.870178,,,
729717208.829216,-2.39503,2.068673,142.753825,-0.020493,-0.039886,1.004517,-0.050089,0.036591,0.007586,90.646408,38.391464,-148.870178,,,
729717208.832592,-2.40666,2.079859,104.146838,-0.025833,-0.048584,1.008835,-0.038498,0.04064,0.022618,90.646408,38.391464,-148.870178,,,
729717208.833564,-2.406659,2.079862,107.223689,-0.025833,-0.048584,1.008835,-0.038498,0.04064,0.022618,90.646408,38.391464,-148.870178,,,
729717208.833668,-2.406659,2.079859,142.760042,-0.025833,-0.048584,1.008835,-0.038498,0.04064,0.022618,90.646408,38.391464,-148.870178,,,
729717208.83517,-2.416402,2.092692,104.154805,-0.025833,-0.048584,1.008835,-0.038498,0.04064,0.022618,90.646408,38.391464,-148.870178,,,
729717208.835721,-2.416401,2.092695,107.231656,-0.025833,-0.048584,1.008835,-0.038498,0.04064,0.022618,90.646408,38.391464,-148.870178,,,
729717208.835877,-2.416401,2.092692,142.76801,-0.025833,-0.048584,1.008835,-0.038498,0.04064,0.022618,90.646408,38.391464,-148.870178,,,
729717208.838301,-2.416402,2.092692,104.154805,-0.025833,-0.048584,1.008835,-0.038498,0.04064,0.022618,90.646408,38.391464,-148.870178,,,
729717208.838547,-2.416401,2.092695,107.231656,-0.025833,-0.048584,1.008835,-0.038498,0.04064,0.022618,90.646408,38.391464,-148.870178,,,
729717208.839301,-2.416401,2.092692,142.76801,-0.025833,-0.048584,1.008835,-0.038498,0.04064,0.022618,90.646408,38.391464,-148.870178,,,
729717208.842717,-2.424982,2.102061,104.163523,-0.030228,-0.048538,1.004272,-0.027804,0.032287,0.028914,90.646408,38.391464,-148.870178,,,
729717208.843932,-2.424981,2.102064,107.240374,-0.030228,-0.048538,1.004272,-0.027804,0.032287,0.028914,90.646408,38.391464,-148.870178,,,
729717208.844084,-2.42498,2.102061,142.776726,-0.030228,-0.048538,1.004272,-0.027804,0.032287,0.028914,90.646408,38.391464,-148.870178,,,
729717208.845198,-2.430963,2.112069,104.172319,-0.030228,-0.048538,1.004272,-0.027804,0.032287,0.028914,90.646408,38.391464,-148.870178,,,
729717208.845749,-2.430962,2.112072,107.24917,-0.030228,-0.048538,1.004272,-0.027804,0.032287,0.028914,90.646408,38.391464,-148.870178,,,
729717208.845873,-2.430961,2.112069,142.785523,-0.030228,-0.048538,1.004272,-0.027804,0.032287,0.028914,90.646408,38.391464,-148.870178,,,
729717208.848373,-2.430963,2.112069,104.172319,-0.030228,-0.048538,1.004272,-0.027804,0.032287,0.028914,90.646408,38.391464,-148.870178,,,
729717208.848588,-2.430962,2.112072,107.24917,-0.030228,-0.048538,1.004272,-0.027804,0.032287,0.028914,90.646408,38.391464,-148.870178,,,
729717208.849258,-2.430961,2.112069,142.785523,-0.030228,-0.048538,1.004272,-0.027804,0.032287,0.028914,90.646408,38.391464,-148.870178,,,
729717208.852752,-2.437215,2.118125,104.180582,-0.032806,-0.044418,1.004105,-0.020752,0.018581,0.025994,90.646408,38.391464,-148.870178,,,
729717208.854034,-2.437214,2.118128,107.257433,-0.032806,-0.044418,1.004105,-0.020752,0.018581,0.025994,90.646408,38.391464,-148.870178,,,
729717208.854153,-2.437213,2.118125,142.793785,-0.032806,-0.044418,1.004105,-0.020752,0.018581,0.025994,90.646408,38.391464,-148.870178,,,
729717208.854761,-2.437215,2.118125,104.180582,-0.032806,-0.044418,1.004105,-0.020752,0.018581,0.025994,90.646408,38.391464,-148.870178,,,
729717208.855245,-2.440391,2.121933,107.264935,-0.032806,-0.044418,1.004105,-0.020752,0.018581,0.025994,90.646408,38.391464,-148.870178,,,
729717208.855903,-2.44039,2.12193,142.801287,-0.032806,-0.044418,1.004105,-0.020752,0.018581,0.025994,90.646408,38.391464,-148.870178,,,
729717208.858578,-2.440392,2.12193,104.188084,-0.032806,-0.044418,1.004105,-0.020752,0.018581,0.025994,90.646408,38.391464,-148.870178,,,
729717208.858792,-2.440391,2.121933,107.264935,-0.032806,-0.044418,1.004105,-0.020752,0.018581,0.025994,90.646408,38.391464,-148.870178,,,
729717208.859241,-2.44039,2.12193,142.801287,-0.032806,-0.044418,1.004105,-0.020752,0.018581,0.025994,90.646408,38.391464,-148.870178,,,
729717208.862283,-2.446023,2.123402,104.194812,-0.034348,-0.04422,1.002426,-0.019637,0.003091,0.020637,90.646408,38.391464,-148.870178,,,
729717208.8632,-2.446022,2.123405,107.271663,-0.034348,-0.04422,1.002426,-0.019637,0.003091,0.020637,90.646408,38.391464,-148.870178,,,
729717208.863365,-2.446022,2.123403,142.808015,-0.034348,-0.04422,1.002426,-0.019637,0.003091,0.020637,90.646408,38.391464,-148.870178,,,
729717208.865023,-2.449757,2.121479,104.200234,-0.034348,-0.04422,1.002426,-0.019637,0.003091,0.020637,90.646408,38.391464,-148.870178,,,
729717208.865338,-2.449756,2.121482,107.277085,-0.034348,-0.04422,1.002426,-0.019637,0.003091,0.020637,90.646408,38.391464,-148.870178,,,
729717208.865897,-2.449756,2.121479,142.81344,-0.034348,-0.04422,1.002426,-0.019637,0.003091,0.020637,90.646408,38.391464,-148.870178,,,
729717208.868864,-2.449757,2.121479,104.200234,-0.034348,-0.04422,1.002426,-0.019637,0.003091,0.020637,90.596848,38.185196,-148.963104,,,
729717208.869597,-2.449756,2.121482,107.277085,-0.034348,-0.04422,1.002426,-0.019637,0.003091,0.020637,90.596848,38.185196,-148.963104,,,
729717208.869758,-2.449756,2.121479,142.817409,-0.034348,-0.04422,1.002426,-0.022766,-0.005702,0.009917,90.596848,38.185196,-148.963104,,,
729717208.872907,-2.456228,2.119566,104.204203,-0.034668,-0.04129,1.001419,-0.022766,-0.005702,0.009917,90.596848,38.185196,-148.963104,,,
729717208.874332,-2.456227,2.119569,107.281054,-0.034668,-0.04129,1.001419,-0.022766,-0.005702,0.009917,90.596848,38.185196,-148.963104,,,
729717208.874489,-2.456227,2.119566,142.817409,-0.034668,-0.04129,1.001419,-0.022766,-0.005702,0.009917,90.596848,38.185196,-148.963104,,,
729717208.874854,-2.456228,2.119566,104.204203,-0.034668,-0.04129,1.001419,-0.022766,-0.005702,0.009917,90.596848,38.185196,-148.963104,,,
729717208.87557,-2.461532,2.11401,107.28345,-0.034668,-0.04129,1.001419,-0.022766,-0.005702,0.009917,90.596848,38.185196,-148.963104,,,
729717208.875929,-2.461532,2.114007,142.819804,-0.034668,-0.04129,1.001419,-0.022766,-0.005702,0.009917,90.596848,38.185196,-148.963104,,,
729717208.878781,-2.461533,2.114007,104.206599,-0.034668,-0.04129,1.001419,-0.022766,-0.005702,0.009917,90.596848,38.185196,-148.963104,,,
729717208.878994,-2.461532,2.11401,107.28345,-0.034668,-0.04129,1.001419,-0.022766,-0.005702,0.009917,90.596848,38.185196,-148.963104,,,
729717208.8792,-2.461532,2.114007,142.819804,-0.034668,-0.04129,1.001419,-0.022766,-0.005702,0.009917,90.596848,38.185196,-148.963104,,,
729717208.883048,-2.469368,2.109481,104.207198,-0.032837,-0.039001,1.001419,-0.027925,-0.016225,-0.003562,90.596848,38.185196,-148.963104,,,
729717208.8846,-2.469366,2.109484,107.284049,-0.032837,-0.039001,1.001419,-0.027925,-0.016225,-0.003562,90.596848,38.185196,-148.963104,,,
729717208.884759,-2.469366,2.109481,142.819549,-0.032837,-0.039001,1.001419,-0.027925,-0.016225,-0.003562,90.596848,38.185196,-148.963104,,,
729717208.885426,-2.47604,2.100217,104.206346,-0.032837,-0.039001,1.001419,-0.027925,-0.016225,-0.003562,90.596848,38.185196,-148.963104,,,
729717208.8861,-2.476039,2.10022,107.283197,-0.032837,-0.039001,1.001419,-0.027925,-0.016225,-0.003562,90.596848,38.185196,-148.963104,,,
729717208.886269,-2.476038,2.100217,142.819549,-0.032837,-0.039001,1.001419,-0.027925,-0.016225,-0.003562,90.596848,38.185196,-148.963104,,,
729717208.888331,-2.47604,2.100217,104.206346,-0.032837,-0.039001,1.001419,-0.027925,-0.016225,-0.003562,90.596848,38.185196,-148.963104,,,
729717208.88859,-2.476039,2.10022,107.283197,-0.032837,-0.039001,1.001419,-0.027925,-0.016225,-0.003562,90.596848,38.185196,-148.963104,,,
