Time (sec),Pitch (deg),Roll (deg),Yaw(deg),X-Acceleration (g),Y-Acceleration (g),Z-Acceleration (g),Pitch Rate (deg/sec),Roll Rate (deg/sec),Yaw Rate (deg/sec),Magnetic Field in X direction (uT),Magnetic Field in Y direction (uT),Magnetic Field in Z Direction (uT),Latitude (deg),Longitude (deg),Altitude (m)
729705868.98942,0.773067,-4.445976,71.709146,0.062012,0.031754,0.968964,-0.014508,0.006179,-0.097188,82.682205,34.538895,-150.00563,,,
729705868.992756,0.771392,-4.445704,71.68112,0.062012,0.031754,0.968964,-0.014508,0.006179,-0.097188,82.682205,34.538895,-150.00563,,,
729705868.996094,0.771392,-4.445704,71.68112,0.062012,0.031754,0.968964,-0.014508,0.006179,-0.097188,82.682205,34.538895,-150.00563,,,
729705868.999494,0.765519,-4.447162,71.652549,0.058701,0.03334,0.967712,-0.030669,-0.007249,-0.09972,82.682205,34.538895,-150.00563,,,
729705869.002818,0.758945,-4.448813,71.624024,0.058701,0.03334,0.967712,-0.030669,-0.007249,-0.09972,82.682205,34.538895,-150.00563,,,
729705869.006103,0.758945,-4.448813,71.624024,0.058701,0.03334,0.967712,-0.030669,-0.007249,-0.09972,82.682205,34.538895,-150.00563,,,
729705869.009422,0.749814,-4.454232,71.596003,0.058136,0.032013,0.962357,-0.040177,-0.021506,-0.095548,82.682205,34.538895,-150.00563,,,
729705869.012751,0.7393,-4.460801,71.568245,0.058136,0.032013,0.962357,-0.040177,-0.021506,-0.095548,82.682205,34.538895,-150.00563,,,
729705869.016092,0.7393,-4.460801,71.568245,0.058136,0.032013,0.962357,-0.040177,-0.021506,-0.095548,82.682205,34.538895,-150.00563,,,
729705869.019417,0.724979,-4.470445,71.540567,0.056198,0.029434,0.962463,-0.06045,-0.033627,-0.093483,82.617325,34.732498,-150.457123,,,
729705869.022748,0.710035,-4.480458,71.51269,0.056198,0.029434,0.962463,-0.06045,-0.033627,-0.093483,82.617325,34.732498,-150.457123,,,
729705869.026135,0.710035,-4.480458,71.51269,0.056198,0.029434,0.962463,-0.06045,-0.033627,-0.093483,82.617325,34.732498,-150.457123,,,
729705869.029429,0.69192,-4.492145,71.484501,0.056122,0.02742,0.966522,-0.072653,-0.039304,-0.094725,82.617325,34.732498,-150.457123,,,
729705869.032756,0.675001,-4.503943,71.456364,0.056122,0.02742,0.966522,-0.072653,-0.039304,-0.094725,82.617325,34.732498,-150.457123,,,
729705869.036169,0.675001,-4.503943,71.456364,0.056122,0.02742,0.966522,-0.072653,-0.039304,-0.094725,82.617325,34.732498,-150.457123,,,
729705869.039421,0.656021,-4.517751,71.429137,0.054047,0.025635,0.974457,-0.07049,-0.047093,-0.088624,82.617325,34.732498,-150.457123,,,
729705869.042747,0.640241,-4.531509,71.403629,0.054047,0.025635,0.974457,-0.07049,-0.047093,-0.088624,82.617325,34.732498,-150.457123,,,
729705869.046115,0.640241,-4.531509,71.403629,0.054047,0.025635,0.974457,-0.07049,-0.047093,-0.088624,82.617325,34.732498,-150.457123,,,
729705869.049411,0.623114,-4.547316,71.380145,0.052612,0.018402,0.980499,-0.064541,-0.054829,-0.07497,82.617325,34.732498,-150.457123,,,
729705869.052745,0.609941,-4.562246,71.358758,0.052612,0.018402,0.980499,-0.064541,-0.054829,-0.07497,82.617325,34.732498,-150.457123,,,
729705869.056078,0.609941,-4.562246,71.358758,0.052612,0.018402,0.980499,-0.064541,-0.054829,-0.07497,82.617325,34.732498,-150.457123,,,
729705869.05942,0.595504,-4.576513,71.33996,0.053497,0.014771,0.986618,-0.054973,-0.042973,-0.057645,82.476257,34.938095,-150.401917,,,
729705869.062744,0.583619,-4.586494,71.324696,0.053497,0.014771,0.986618,-0.054973,-0.042973,-0.057645,82.476257,34.938095,-150.401917,,,
729705869.066146,0.583619,-4.586494,71.324696,0.053497,0.014771,0.986618,-0.054973,-0.042973,-0.057645,82.476257,34.938095,-150.401917,,,
729705869.069522,0.568947,-4.594975,71.31233,0.056396,0.015244,0.988266,-0.055582,-0.022068,-0.037543,82.476257,34.938095,-150.401917,,,
729705869.072757,0.555564,-4.598263,71.302253,0.056396,0.015244,0.988266,-0.055582,-0.022068,-0.037543,82.476257,34.938095,-150.401917,,,
729705869.076104,0.555564,-4.598263,71.302253,0.056396,0.015244,0.988266,-0.055582,-0.022068,-0.037543,82.476257,34.938095,-150.401917,,,
729705869.079298,0.537748,-4.60014,71.293869,0.062408,0.011536,0.989014,-0.068166,0.00261,-0.024836,82.476257,34.938095,-150.401917,,,
729705869.082756,0.52093,-4.596212,71.285563,0.062408,0.011536,0.989014,-0.068166,0.00261,-0.024836,82.476257,34.938095,-150.401917,,,
729705869.086079,0.52093,-4.596212,71.285563,0.062408,0.011536,0.989014,-0.068166,0.00261,-0.024836,82.476257,34.938095,-150.401917,,,
729705869.089419,0.499805,-4.591885,71.277167,0.068649,0.013428,0.988724,-0.079152,0.021979,-0.024727,82.476257,34.938095,-150.401917,,,
729705869.092747,0.478626,-4.582573,71.267981,0.068649,0.013428,0.988724,-0.079152,0.021979,-0.024727,82.476257,34.938095,-150.401917,,,
729705869.096071,0.478626,-4.582573,71.267981,0.068649,0.013428,0.988724,-0.079152,0.021979,-0.024727,82.476257,34.938095,-150.401917,,,
729705869.099445,0.45254,-4.574783,71.257969,0.073288,0.018387,0.987076,-0.095427,0.029054,-0.029394,82.476257,34.938095,-150.401917,,,
729705869.102818,0.42757,-4.565339,71.24827,0.073288,0.018387,0.987076,-0.095427,0.029054,-0.029394,82.485474,34.997238,-150.074173,,,
729705869.10613,0.42757,-4.565339,71.24827,0.073288,0.018387,0.987076,-0.095427,0.029054,-0.029394,82.485474,34.997238,-150.074173,,,
729705869.109435,0.399686,-4.560334,71.239282,0.068573,0.013596,0.987518,-0.097886,0.017487,-0.024357,82.485474,34.997238,-150.074173,,,
729705869.112759,0.374598,-4.555261,71.231121,0.068573,0.013596,0.987518,-0.097886,0.017487,-0.024357,82.485474,34.997238,-150.074173,,,
729705869.116166,0.374598,-4.555261,71.231121,0.068573,0.013596,0.987518,-0.097886,0.017487,-0.024357,82.485474,34.997238,-150.074173,,,
729705869.119448,0.347831,-4.556705,71.223837,0.068863,0.002014,0.99144,-0.092314,-0.007268,-0.018755,82.485474,34.997238,-150.074173,,,
729705869.122753,0.323972,-4.557729,71.217142,0.068863,0.002014,0.99144,-0.092314,-0.007268,-0.018755,82.485474,34.997238,-150.074173,,,
729705869.126107,0.323972,-4.557729,71.217142,0.068863,0.002014,0.99144,-0.092314,-0.007268,-0.018755,82.485474,34.997238,-150.074173,,,
729705869.129477,0.298944,-4.565555,71.211214,0.072037,0.000595,0.995239,-0.085071,-0.030805,-0.014178,82.485474,34.997238,-150.074173,,,
729705869.132739,0.276209,-4.571512,71.205659,0.072037,0.000595,0.995239,-0.085071,-0.030805,-0.014178,82.485474,34.997238,-150.074173,,,
729705869.136125,0.276209,-4.571512,71.205659,0.072037,0.000595,0.995239,-0.085071,-0.030805,-0.014178,82.485474,34.997238,-150.074173,,,
729705869.139408,0.252535,-4.581779,71.2004,0.082047,0.002151,1.001205,-0.080914,-0.032828,-0.012539,82.485474,34.997238,-150.074173,,,
729705869.142752,0.231334,-4.587274,71.194899,0.082047,0.002151,1.001205,-0.080914,-0.032828,-0.012539,82.495636,35.287048,-150.026077,,,
729705869.145919,0.231334,-4.587274,71.194899,0.082047,0.002151,1.001205,-0.080914,-0.032828,-0.012539,82.495636,35.287048,-150.026077,,,
729705869.149451,0.209182,-4.595543,71.189063,0.092133,-0.000671,1.010101,-0.074813,-0.02156,-0.015508,82.495636,35.287048,-150.026077,,,
729705869.152739,0.19059,-4.597588,71.183807,0.092133,-0.000671,1.010101,-0.074813,-0.02156,-0.015508,82.495636,35.287048,-150.026077,,,
729705869.156079,0.19059,-4.597588,71.183807,0.092133,-0.000671,1.010101,-0.074813,-0.02156,-0.015508,82.495636,35.287048,-150.026077,,,
729705869.159426,0.171784,-4.603632,71.179157,0.100037,-0.002975,1.013596,-0.059978,-0.016107,-0.012631,82.495636,35.287048,-150.026077,,,
729705869.16275,0.157893,-4.604159,71.17562,0.100037,-0.002975,1.013596,-0.059978,-0.016107,-0.012631,82.495636,35.287048,-150.026077,,,
729705869.166096,0.157893,-4.604159,71.17562,0.100037,-0.002975,1.013596,-0.059978,-0.016107,-0.012631,82.495636,35.287048,-150.026077,,,
729705869.169416,0.143317,-4.607817,71.173442,0.101059,0.000275,1.015182,-0.048411,-0.008447,-0.004125,82.495636,35.287048,-150.026077,,,
729705869.172791,0.133506,-4.607704,71.172102,0.101059,0.000275,1.015182,-0.048411,-0.008447,-0.004125,82.495636,35.287048,-150.026077,,,
729705869.176089,0.133506,-4.607704,71.172102,0.101059,0.000275,1.015182,-0.048411,-0.008447,-0.004125,82.495636,35.287048,-150.026077,,,
729705869.179443,0.120341,-4.607606,71.171902,0.105225,0.006058,1.011658,-0.045133,0.006216,0.003481,82.495636,35.287048,-150.026077,,,
729705869.18275,0.111862,-4.602965,71.172324,0.105225,0.006058,1.011658,-0.045133,0.006216,0.003481,82.524368,35.391174,-149.692108,,,
729705869.18617,0.111862,-4.602965,71.172324,0.105225,0.006058,1.011658,-0.045133,0.006216,0.003481,82.524368,35.391174,-149.692108,,,
729705869.189417,0.098741,-4.598536,71.173366,0.110474,0.00853,1.008514,-0.045934,0.021557,0.007848,82.524368,35.391174,-149.692108,,,
729705869.192778,0.086348,-4.588271,71.174982,0.110474,0.00853,1.008514,-0.045934,0.021557,0.007848,82.524368,35.391174,-149.692108,,,
729705869.196088,0.086348,-4.588271,71.174982,0.110474,0.00853,1.008514,-0.045934,0.021557,0.007848,82.524368,35.391174,-149.692108,,,
729705869.199415,0.070389,-4.578112,71.17655,0.113495,0.010727,1.000229,-0.059739,0.044059,0.008551,82.524368,35.391174,-149.692108,,,
729705869.202806,0.052187,-4.561924,71.177626,0.113495,0.010727,1.000229,-0.059739,0.044059,0.008551,82.524368,35.391174,-149.692108,,,
729705869.206096,0.052187,-4.561924,71.177626,0.113495,0.010727,1.000229,-0.059739,0.044059,0.008551,82.524368,35.391174,-149.692108,,,
729705869.209429,0.032941,-4.546572,71.177516,0.11937,0.015152,0.996857,-0.069853,0.059629,0.001027,82.524368,35.391174,-149.692108,,,
729705869.212748,0.013064,-4.528599,71.175921,0.11937,0.015152,0.996857,-0.069853,0.059629,0.001027,82.524368,35.391174,-149.692108,,,
729705869.216092,0.013064,-4.528599,71.175921,0.11937,0.015152,0.996857,-0.069853,0.059629,0.001027,82.524368,35.391174,-149.692108,,,
729705869.219484,-0.006841,-4.509577,71.172142,0.117004,0.013779,0.996384,-0.068594,0.072145,-0.01445,82.524368,35.391174,-149.692108,,,
729705869.222782,-0.026225,-4.492044,71.165561,0.117004,0.013779,0.996384,-0.068594,0.072145,-0.01445,82.568008,35.571426,-150.145874,,,
729705869.226073,-0.026225,-4.492044,71.165561,0.117004,0.013779,0.996384,-0.068594,0.072145,-0.01445,82.568008,35.571426,-150.145874,,,
729705869.229437,-0.045728,-4.471844,71.155886,0.110977,0.012833,0.994598,-0.068922,0.073782,-0.036127,82.568008,35.571426,-150.145874,,,
729705869.232792,-0.064158,-4.456656,71.14313,0.110977,0.012833,0.994598,-0.068922,0.073782,-0.036127,82.568008,35.571426,-150.145874,,,
729705869.236176,-0.064158,-4.456656,71.14313,0.110977,0.012833,0.994598,-0.068922,0.073782,-0.036127,82.568008,35.571426,-150.145874,,,
729705869.239402,-0.080825,-4.437593,71.127251,0.101654,0.008835,0.995087,-0.060419,0.065462,-0.058586,82.568008,35.571426,-150.145874,,,
729705869.242752,-0.096749,-4.428167,71.108714,0.101654,0.008835,0.995087,-0.060419,0.065462,-0.058586,82.568008,35.571426,-150.145874,,,
729705869.246164,-0.096749,-4.428167,71.108714,0.101654,0.008835,0.995087,-0.060419,0.065462,-0.058586,82.568008,35.571426,-150.145874,,,
729705869.249424,-0.111292,-4.416752,71.088984,0.084824,0.000473,0.991898,-0.051779,0.035453,-0.067724,82.568008,35.571426,-150.145874,,,
729705869.252752,-0.123644,-4.417125,71.068484,0.084824,0.000473,0.991898,-0.051779,0.035453,-0.067724,82.568008,35.571426,-150.145874,,,
729705869.25608,-0.123644,-4.417125,71.068484,0.084824,0.000473,0.991898,-0.051779,0.035453,-0.067724,82.568008,35.571426,-150.145874,,,
729705869.259437,-0.137225,-4.415465,71.047391,0.070099,-0.005234,0.988678,-0.051143,0.002098,-0.07195,82.568008,35.571426,-150.145874,,,
729705869.262749,-0.148047,-4.426615,71.026232,0.070099,-0.005234,0.988678,-0.051143,0.002098,-0.07195,82.568008,35.571426,-150.145874,,,
729705869.266192,-0.148047,-4.426615,71.026232,0.070099,-0.005234,0.988678,-0.051143,0.002098,-0.07195,82.517319,35.65155,-150.135971,,,
729705869.269471,-0.162606,-4.432611,71.005953,0.060043,-0.009781,0.988693,-0.056984,-0.02375,-0.065432,82.517319,35.65155,-150.135971,,,
729705869.272746,-0.174454,-4.451555,70.987428,0.060043,-0.009781,0.988693,-0.056984,-0.02375,-0.065432,82.517319,35.65155,-150.135971,,,
729705869.276096,-0.174454,-4.451555,70.987428,0.060043,-0.009781,0.988693,-0.056984,-0.02375,-0.065432,82.517319,35.65155,-150.135971,,,
729705869.279422,-0.190427,-4.463058,70.970002,0.057419,-0.013138,0.992371,-0.061672,-0.039824,-0.057518,82.517319,35.65155,-150.135971,,,
729705869.282745,-0.202927,-4.486094,70.952803,0.057419,-0.013138,0.992371,-0.061672,-0.039824,-0.057518,82.517319,35.65155,-150.135971,,,
729705869.286095,-0.202927,-4.486094,70.952803,0.057419,-0.013138,0.992371,-0.061672,-0.039824,-0.057518,82.517319,35.65155,-150.135971,,,
729705869.289464,-0.220281,-4.497195,70.935766,0.060623,-0.009705,1.000229,-0.064143,-0.0337,-0.056457,82.517319,35.65155,-150.135971,,,
729705869.292745,-0.232532,-4.518039,70.918194,0.060623,-0.009705,1.000229,-0.064143,-0.0337,-0.056457,82.517319,35.65155,-150.135971,,,
729705869.296144,-0.232532,-4.518039,70.918194,0.060623,-0.009705,1.000229,-0.064143,-0.0337,-0.056457,82.517319,35.65155,-150.135971,,,
729705869.299418,-0.250293,-4.525895,70.900114,0.06337,-0.006104,1.007523,-0.0674,-0.020654,-0.06002,82.517319,35.65155,-150.135971,,,
729705869.302742,-0.264338,-4.540593,70.882362,0.06337,-0.006104,1.007523,-0.0674,-0.020654,-0.06002,82.517319,35.65155,-150.135971,,,
729705869.306084,-0.264338,-4.540593,70.882362,0.06337,-0.006104,1.007523,-0.0674,-0.020654,-0.06002,82.537506,35.951752,-149.908585,,,
729705869.309498,-0.282356,-4.545779,70.86527,0.060883,-0.006775,1.008911,-0.06681,-0.014797,-0.055601,82.537506,35.951752,-149.908585,,,
729705869.312738,-0.297012,-4.556506,70.848603,0.060883,-0.006775,1.008911,-0.06681,-0.014797,-0.055601,82.537506,35.951752,-149.908585,,,
729705869.316138,-0.297012,-4.556506,70.848603,0.060883,-0.006775,1.008911,-0.06681,-0.014797,-0.055601,82.537506,35.951752,-149.908585,,,
729705869.319427,-0.314851,-4.560971,70.832848,0.057388,-0.009827,1.010452,-0.064388,-0.013079,-0.0496,82.537506,35.951752,-149.908585,,,
729705869.322421,-0.33,-4.568636,70.818153,0.057388,-0.009827,1.010452,-0.064388,-0.013079,-0.0496,82.537506,35.951752,-149.908585,,,
729705869.326152,-0.33,-4.568636,70.818153,0.057388,-0.009827,1.010452,-0.064388,-0.013079,-0.0496,82.537506,35.951752,-149.908585,,,
729705869.3294,-0.346324,-4.572568,70.804278,0.057877,-0.010147,1.00824,-0.059471,-0.008312,-0.044296,82.537506,35.951752,-149.908585,,,
729705869.332798,-0.361403,-4.575241,70.791653,0.057877,-0.010147,1.00824,-0.059471,-0.008312,-0.044296,82.537506,35.951752,-149.908585,,,
729705869.336135,-0.361403,-4.575241,70.791653,0.057877,-0.010147,1.00824,-0.059471,-0.008312,-0.044296,82.537506,35.951752,-149.908585,,,
729705869.339405,-0.375267,-4.577627,70.780702,0.054657,-0.011475,1.010468,-0.046542,-0.003502,-0.033603,82.537506,35.951752,-149.908585,,,
729705869.342763,-0.387134,-4.577211,70.771414,0.054657,-0.011475,1.010468,-0.046542,-0.003502,-0.033603,82.537506,35.951752,-149.908585,,,
729705869.346083,-0.387134,-4.577211,70.771414,0.054657,-0.011475,1.010468,-0.046542,-0.003502,-0.033603,82.498779,35.915649,-149.974991,,,
729705869.349443,-0.396257,-4.580146,70.763957,0.052505,-0.013397,1.012024,-0.027558,-0.007391,-0.022183,82.498779,35.915649,-149.974991,,,
729705869.352746,-0.403599,-4.579449,70.757958,0.052505,-0.013397,1.012024,-0.027558,-0.007391,-0.022183,82.498779,35.915649,-149.974991,,,
729705869.356075,-0.403599,-4.579449,70.757958,0.052505,-0.013397,1.012024,-0.027558,-0.007391,-0.022183,82.498779,35.915649,-149.974991,,,
729705869.359422,-0.407997,-4.58458,70.753145,0.052414,-0.010651,1.008377,-0.013721,-0.016817,-0.014815,82.498779,35.915649,-149.974991,,,
729705869.362761,-0.412587,-4.585986,70.748734,0.052414,-0.010651,1.008377,-0.013721,-0.016817,-0.014815,82.498779,35.915649,-149.974991,,,
729705869.366099,-0.412587,-4.585986,70.748734,0.052414,-0.010651,1.008377,-0.013721,-0.016817,-0.014815,82.498779,35.915649,-149.974991,,,
729705869.36943,-0.415989,-4.594241,70.744133,0.049789,-0.008591,1.004333,-0.013333,-0.028223,-0.015901,82.498779,35.915649,-149.974991,,,
729705869.372749,-0.419884,-4.598561,70.740187,0.049789,-0.008591,1.004333,-0.013333,-0.028223,-0.015901,82.498779,35.915649,-149.974991,,,
729705869.376144,-0.419884,-4.598561,70.740187,0.049789,-0.008591,1.004333,-0.013333,-0.028223,-0.015901,82.498779,35.915649,-149.974991,,,
729705869.379405,-0.424269,-4.609643,70.736923,0.046738,-0.006424,0.999557,-0.016946,-0.037435,-0.010567,82.498779,35.915649,-149.974991,,,
729705869.382751,-0.428652,-4.615889,70.73436,0.046738,-0.006424,0.999557,-0.016946,-0.037435,-0.010567,82.498779,35.915649,-149.974991,,,
729705869.386081,-0.428652,-4.615889,70.73436,0.046738,-0.006424,0.999557,-0.016946,-0.037435,-0.010567,82.311493,35.981628,-150.102386,,,
729705869.389413,-0.432929,-4.627005,70.732837,0.050949,-0.011078,1.002167,-0.011787,-0.034897,-0.003445,82.311493,35.981628,-150.102386,,,
729705869.39275,-0.436431,-4.630709,70.73227,0.050949,-0.011078,1.002167,-0.011787,-0.034897,-0.003445,82.311493,35.981628,-150.102386,,,
729705869.396101,-0.436431,-4.630709,70.73227,0.050949,-0.011078,1.002167,-0.011787,-0.034897,-0.003445,82.311493,35.981628,-150.102386,,,
729705869.399419,-0.438608,-4.639844,70.732823,0.055649,-0.01152,1.007477,-0.004052,-0.026727,0.004021,82.311493,35.981628,-150.102386,,,
729705869.402747,-0.440645,-4.640376,70.734276,0.055649,-0.01152,1.007477,-0.004052,-0.026727,0.004021,82.311493,35.981628,-150.102386,,,
729705869.406074,-0.440645,-4.640376,70.734276,0.055649,-0.01152,1.007477,-0.004052,-0.026727,0.004021,82.311493,35.981628,-150.102386,,,
729705869.409424,-0.441842,-4.645662,70.736318,0.058716,-0.010193,1.0056,-0.001888,-0.011988,0.008359,82.311493,35.981628,-150.102386,,,
729705869.412745,-0.443805,-4.64048,70.739513,0.058716,-0.010193,1.0056,-0.001888,-0.011988,0.008359,82.311493,35.981628,-150.102386,,,
729705869.416172,-0.443805,-4.64048,70.739513,0.058716,-0.010193,1.0056,-0.001888,-0.011988,0.008359,82.311493,35.981628,-150.102386,,,
729705869.419422,-0.445563,-4.640156,70.744036,0.057907,-0.008881,1.003906,-0.00532,0.007037,0.018322,82.311493,35.981628,-150.102386,,,
729705869.422745,-0.449228,-4.630406,70.750345,0.057907,-0.008881,1.003906,-0.00532,0.007037,0.018322,82.311493,35.981628,-150.102386,,,
729705869.426091,-0.449228,-4.630406,70.750345,0.057907,-0.008881,1.003906,-0.00532,0.007037,0.018322,82.311493,35.981628,-150.102386,,,
729705869.429485,-0.451196,-4.627791,70.758048,0.060104,-0.011337,0.998032,-0.003137,0.012968,0.028349,82.269455,35.924759,-150.096466,,,
729705869.432731,-0.453692,-4.615639,70.766781,0.060104,-0.011337,0.998032,-0.003137,0.012968,0.028349,82.269455,35.924759,-150.096466,,,
729705869.436105,-0.453692,-4.615639,70.766781,0.060104,-0.011337,0.998032,-0.003137,0.012968,0.028349,82.269455,35.924759,-150.096466,,,
729705869.43942,-0.454951,-4.611655,70.776093,0.066681,-0.01001,0.992279,-7.6e-05,0.016079,0.032609,82.269455,35.924759,-150.096466,,,
729705869.44275,-0.456188,-4.599463,70.785626,0.066681,-0.01001,0.992279,-7.6e-05,0.016079,0.032609,82.269455,35.924759,-150.096466,,,
729705869.446098,-0.456188,-4.599463,70.785626,0.066681,-0.01001,0.992279,-7.6e-05,0.016079,0.032609,82.269455,35.924759,-150.096466,,,
729705869.449454,-0.455862,-4.596735,70.794647,0.072174,-0.006668,0.989578,0.006143,0.008223,0.029002,82.269455,35.924759,-150.096466,,,
729705869.452742,-0.454054,-4.586048,70.802824,0.072174,-0.006668,0.989578,0.006143,0.008223,0.029002,82.269455,35.924759,-150.096466,,,
729705869.456076,-0.454054,-4.586048,70.802824,0.072174,-0.006668,0.989578,0.006143,0.008223,0.029002,82.269455,35.924759,-150.096466,,,
729705869.459446,-0.451925,-4.586755,70.810081,0.073273,-0.006271,0.983963,0.011215,-0.004512,0.022749,82.269455,35.924759,-150.096466,,,
729705869.462793,-0.449706,-4.580424,70.817137,0.073273,-0.006271,0.983963,0.011215,-0.004512,0.022749,82.269455,35.924759,-150.096466,,,
729705869.466081,-0.449706,-4.580424,70.817137,0.073273,-0.006271,0.983963,0.011215,-0.004512,0.022749,82.269455,35.924759,-150.096466,,,
729705869.469492,-0.447456,-4.585434,70.823603,0.072327,-0.006302,0.980637,0.010515,-0.018285,0.019199,82.126175,36.151566,-149.9711,,,
729705869.472732,-0.447197,-4.584277,70.829988,0.072327,-0.006302,0.980637,0.010515,-0.018285,0.019199,82.126175,36.151566,-149.9711,,,
729705869.476108,-0.447197,-4.584277,70.829988,0.072327,-0.006302,0.980637,0.010515,-0.018285,0.019199,82.126175,36.151566,-149.9711,,,
729705869.479418,-0.447462,-4.592251,70.836204,0.078018,-0.004013,0.975708,-0.001221,-0.027629,0.019371,82.126175,36.151566,-149.9711,,,
729705869.482827,-0.450912,-4.593738,70.841624,0.078018,-0.004013,0.975708,-0.001221,-0.027629,0.019371,82.126175,36.151566,-149.9711,,,
729705869.486091,-0.450912,-4.593738,70.841624,0.078018,-0.004013,0.975708,-0.001221,-0.027629,0.019371,82.126175,36.151566,-149.9711,,,
729705869.489414,-0.456847,-4.600386,70.846094,0.082733,-0.001724,0.973862,-0.024059,-0.017108,0.014958,82.126175,36.151566,-149.9711,,,
729705869.492744,-0.466165,-4.598144,70.849727,0.082733,-0.001724,0.973862,-0.024059,-0.017108,0.014958,82.126175,36.151566,-149.9711,,,
729705869.496148,-0.466165,-4.598144,70.849727,0.082733,-0.001724,0.973862,-0.024059,-0.017108,0.014958,82.126175,36.151566,-149.9711,,,
729705869.499421,-0.478251,-4.598889,70.852371,0.08815,0.001678,0.979172,-0.045488,0.006827,0.01012,82.126175,36.151566,-149.9711,,,
729705869.502753,-0.493713,-4.589778,70.854421,0.08815,0.001678,0.979172,-0.045488,0.006827,0.01012,82.126175,36.151566,-149.9711,,,
729705869.506122,-0.493713,-4.589778,70.854421,0.08815,0.001678,0.979172,-0.045488,0.006827,0.01012,82.126175,36.151566,-149.9711,,,
729705869.509426,-0.510628,-4.584398,70.85668,0.088638,0.000397,0.982864,-0.058882,0.026302,0.013089,82.389954,36.144562,-149.299988,,,
729705869.512778,-0.529139,-4.571749,70.859707,0.088638,0.000397,0.982864,-0.058882,0.026302,0.013089,82.389954,36.144562,-149.299988,,,
729705869.516101,-0.529139,-4.571749,70.859707,0.088638,0.000397,0.982864,-0.058882,0.026302,0.013089,82.389954,36.144562,-149.299988,,,
729705869.519483,-0.547745,-4.56254,70.863263,0.090668,-0.005478,0.986282,-0.062867,0.036739,0.017409,82.389954,36.144562,-149.299988,,,
729705869.522739,-0.566771,-4.5499,70.867228,0.090668,-0.005478,0.986282,-0.062867,0.036739,0.017409,82.389954,36.144562,-149.299988,,,
729705869.526095,-0.566771,-4.5499,70.867228,0.090668,-0.005478,0.986282,-0.062867,0.036739,0.017409,82.389954,36.144562,-149.299988,,,
729705869.529413,-0.586846,-4.539347,70.871794,0.091232,-0.007553,0.989578,-0.067762,0.038802,0.022074,82.389954,36.144562,-149.299988,,,
729705869.532788,-0.606401,-4.52796,70.877138,0.091232,-0.007553,0.989578,-0.067762,0.038802,0.022074,82.389954,36.144562,-149.299988,,,
729705869.536078,-0.606401,-4.52796,70.877138,0.091232,-0.007553,0.989578,-0.067762,0.038802,0.022074,82.389954,36.144562,-149.299988,,,
729705869.539411,-0.627302,-4.519302,70.882642,0.08812,-0.007462,0.989471,-0.069362,0.031303,0.023482,82.389954,36.144562,-149.299988,,,
729705869.542787,-0.645852,-4.51078,70.887757,0.08812,-0.007462,0.989471,-0.069362,0.031303,0.023482,82.389954,36.144562,-149.299988,,,
729705869.546135,-0.645852,-4.51078,70.887757,0.08812,-0.007462,0.989471,-0.069362,0.031303,0.023482,82.389954,36.144562,-149.299988,,,
729705869.549429,-0.664666,-4.505843,70.891819,0.091614,-0.005447,0.989792,-0.063811,0.015265,0.01578,82.370804,36.276627,-149.84462,,,
729705869.552755,-0.682317,-4.502506,70.894904,0.091614,-0.005447,0.989792,-0.063811,0.015265,0.01578,82.370804,36.276627,-149.84462,,,
729705869.55609,-0.682317,-4.502506,70.894904,0.091614,-0.005447,0.989792,-0.063811,0.015265,0.01578,82.370804,36.276627,-149.84462,,,
729705869.559404,-0.702392,-4.500887,70.897295,0.089645,-0.007172,0.991241,-0.071408,0.008622,0.011564,82.370804,36.276627,-149.84462,,,
729705869.562766,-0.722045,-4.500111,70.899964,0.089645,-0.007172,0.991241,-0.071408,0.008622,0.011564,82.370804,36.276627,-149.84462,,,
729705869.566075,-0.722045,-4.500111,70.899964,0.089645,-0.007172,0.991241,-0.071408,0.008622,0.011564,82.370804,36.276627,-149.84462,,,
729705869.569423,-0.745877,-4.497412,70.903669,0.083878,-0.013016,0.99617,-0.083274,0.012844,0.019576,82.370804,36.276627,-149.84462,,,
729705869.572834,-0.76776,-4.496845,70.908368,0.083878,-0.013016,0.99617,-0.083274,0.012844,0.019576,82.370804,36.276627,-149.84462,,,
729705869.576187,-0.76776,-4.496845,70.908368,0.083878,-0.013016,0.99617,-0.083274,0.012844,0.019576,82.370804,36.276627,-149.84462,,,
729705869.579441,-0.794575,-4.493578,70.913373,0.083908,-0.01506,0.997864,-0.092873,0.013897,0.022172,82.370804,36.276627,-149.84462,,,
729705869.582797,-0.818051,-4.492967,70.917561,0.083908,-0.01506,0.997864,-0.092873,0.013897,0.022172,82.370804,36.276627,-149.84462,,,
729705869.586112,-0.818051,-4.492967,70.917561,0.083908,-0.01506,0.997864,-0.092873,0.013897,0.022172,82.370804,36.276627,-149.84462,,,
729705869.589434,-0.84627,-4.48589,70.920212,0.091919,-0.01532,1.003387,-0.097416,0.033512,0.011469,82.370804,36.276627,-149.84462,,,
729705869.592801,-0.87078,-4.479812,70.920761,0.091919,-0.01532,1.003387,-0.097416,0.033512,0.011469,82.456497,36.270935,-149.443527,,,
729705869.596087,-0.87078,-4.479812,70.920761,0.091919,-0.01532,1.003387,-0.097416,0.033512,0.011469,82.456497,36.270935,-149.443527,,,
729705869.599408,-0.898411,-4.469228,70.919204,0.092621,-0.01268,1.007462,-0.095582,0.039848,-0.003844,82.456497,36.270935,-149.443527,,,
729705869.602766,-0.898411,-4.463816,70.91554,0.092621,-0.01268,1.007462,-0.095582,0.039848,-0.003844,82.456497,36.270935,-149.443527,,,
729705869.606071,-0.922716,-4.463816,70.91554,0.092621,-0.01268,1.007462,-0.095582,0.039848,-0.003844,82.456497,36.270935,-149.443527,,,
729705869.609418,-0.948178,-4.455546,70.910172,0.086716,-0.011978,1.003906,-0.088525,0.029855,-0.016842,82.456497,36.270935,-149.443527,,,
729705869.612772,-0.970733,-4.452181,70.903655,0.086716,-0.011978,1.003906,-0.088525,0.029855,-0.016842,82.456497,36.270935,-149.443527,,,
729705869.616125,-0.970733,-4.452181,70.903655,0.086716,-0.011978,1.003906,-0.088525,0.029855,-0.016842,82.456497,36.270935,-149.443527,,,
729705869.619419,-0.994214,-4.447826,70.897331,0.079529,-0.017776,1.002365,-0.079462,0.013037,-0.016563,82.456497,36.270935,-149.443527,,,
729705869.622744,-0.994214,-4.447826,70.897331,0.079529,-0.017776,1.002365,-0.079462,0.013037,-0.016563,82.456497,36.270935,-149.443527,,,
729705869.62607,-1.01316,-4.450218,70.891922,0.079529,-0.017776,1.002365,-0.079462,0.013037,-0.016563,82.456497,36.270935,-149.443527,,,
729705869.629411,-1.032257,-4.452741,70.887859,0.072586,-0.025787,1.001938,-0.05973,-0.013043,-0.009036,82.456497,36.270935,-149.443527,,,
729705869.632773,-1.044321,-4.463996,70.885157,0.072586,-0.025787,1.001938,-0.05973,-0.013043,-0.009036,82.292221,36.593857,-149.289825,,,
729705869.63607,-1.044321,-4.463996,70.885157,0.072586,-0.025787,1.001938,-0.05973,-0.013043,-0.009036,82.292221,36.593857,-149.289825,,,
729705869.639435,-1.055452,-4.476207,70.883891,0.069565,-0.028259,1.003693,-0.03035,-0.047378,-0.001751,82.292221,36.593857,-149.289825,,,
729705869.642736,-1.055452,-4.476207,70.883891,0.069565,-0.028259,1.003693,-0.03035,-0.047378,-0.001751,82.292221,36.593857,-149.289825,,,
729705869.646092,-1.060922,-4.495322,70.883388,0.069565,-0.028259,1.003693,-0.03035,-0.047378,-0.001751,82.292221,36.593857,-149.289825,,,
729705869.649507,-1.06534,-4.51479,70.883301,0.070282,-0.026215,1.005142,-0.008243,-0.067943,-0.000834,82.292221,36.593857,-149.289825,,,
729705869.652756,-1.06534,-4.51479,70.883136,0.070282,-0.026215,1.005142,-0.008243,-0.067943,-0.000834,82.292221,36.593857,-149.289825,,,
729705869.656079,-1.066096,-4.535769,70.883136,0.070282,-0.026215,1.005142,-0.008243,-0.067943,-0.000834,82.292221,36.593857,-149.289825,,,
729705869.659405,-1.066864,-4.555609,70.882683,0.072235,-0.023682,1.008972,-0.000677,-0.066063,-0.003483,82.292221,36.593857,-149.289825,,,
729705869.662827,-1.066864,-4.555609,70.882683,0.072235,-0.023682,1.008972,-0.000677,-0.066063,-0.003483,82.292221,36.593857,-149.289825,,,
729705869.666065,-1.06532,-4.577309,70.881734,0.072235,-0.023682,1.008972,-0.000677,-0.066063,-0.003483,82.292221,36.593857,-149.289825,,,
729705869.669416,-1.063206,-4.594663,70.880586,0.075455,-0.022339,1.008881,0.009583,-0.054111,-0.00605,82.292221,36.593857,-149.289825,,,
729705869.672837,-1.063206,-4.61354,70.879885,0.075455,-0.022339,1.008881,0.009583,-0.054111,-0.00605,82.188904,36.590591,-149.444016,,,
729705869.676116,-1.058712,-4.61354,70.879885,0.075455,-0.022339,1.008881,0.009583,-0.054111,-0.00605,82.188904,36.590591,-149.444016,,,
729705869.679426,-1.054138,-4.626931,70.879934,0.078232,-0.023315,1.013489,0.01929,-0.041087,-0.002041,82.188904,36.590591,-149.444016,,,
729705869.682747,-1.054138,-4.626931,70.879934,0.078232,-0.023315,1.013489,0.01929,-0.041087,-0.002041,82.188904,36.590591,-149.444016,,,
729705869.686073,-1.046698,-4.641072,70.880174,0.078232,-0.023315,1.013489,0.01929,-0.041087,-0.002041,82.188904,36.590591,-149.444016,,,
729705869.689407,-1.040848,-4.652288,70.881093,0.078018,-0.024765,1.011139,0.022164,-0.036971,0.002168,82.188904,36.590591,-149.444016,,,
729705869.692735,-1.040848,-4.652288,70.881093,0.078018,-0.024765,1.011139,0.022164,-0.036971,0.002168,82.188904,36.590591,-149.444016,,,
729705869.696094,-1.033513,-4.663832,70.882109,0.078018,-0.024765,1.011139,0.022164,-0.036971,0.002168,82.188904,36.590591,-149.444016,,,
729705869.699406,-1.027013,-4.675568,70.882288,0.080292,-0.018799,1.005585,0.022917,-0.040123,-0.003772,82.188904,36.590591,-149.444016,,,
729705869.702808,-1.027013,-4.675568,70.882288,0.080292,-0.018799,1.005585,0.022917,-0.040123,-0.003772,82.188904,36.590591,-149.444016,,,
729705869.706065,-1.020963,-4.686547,70.881459,0.080292,-0.018799,1.005585,0.022917,-0.040123,-0.003772,82.188904,36.590591,-149.444016,,,
729705869.709407,-1.012061,-4.700077,70.878992,0.083008,-0.014801,1.001801,0.034884,-0.045575,-0.016039,82.188904,36.590591,-149.444016,,,
729705869.712742,-1.012061,-4.700077,70.878992,0.083008,-0.014801,1.001801,0.034884,-0.045575,-0.016039,82.188904,36.590591,-149.444016,,,
729705869.71613,-1.003396,-4.711431,70.8755,0.083008,-0.014801,1.001801,0.034884,-0.045575,-0.016039,82.150406,36.6315,-149.811249,,,
729705869.719404,-0.990951,-4.727204,70.87145,0.082123,-0.016205,1.003845,0.044696,-0.05174,-0.020326,82.150406,36.6315,-149.811249,,,
729705869.722737,-0.990951,-4.727204,70.87145,0.082123,-0.016205,1.003845,0.044696,-0.05174,-0.020326,82.150406,36.6315,-149.811249,,,
729705869.726089,-0.979841,-4.73886,70.867171,0.082123,-0.016205,1.003845,0.044696,-0.05174,-0.020326,82.150406,36.6315,-149.811249,,,
729705869.729401,-0.964907,-4.754606,70.863437,0.078949,-0.01973,1.000809,0.053067,-0.051944,-0.016879,82.150406,36.6315,-149.811249,,,
729705869.732751,-0.964907,-4.754606,70.863437,0.078949,-0.01973,1.000809,0.053067,-0.051944,-0.016879,82.150406,36.6315,-149.811249,,,
729705869.736076,-0.951572,-4.766588,70.861293,0.078949,-0.01973,1.000809,0.053067,-0.051944,-0.016879,82.150406,36.6315,-149.811249,,,
729705869.739406,-0.936989,-4.780824,70.860892,0.078537,-0.018616,1.000214,0.048609,-0.04318,-0.003976,82.150406,36.6315,-149.811249,,,
729705869.742782,-0.936989,-4.780824,70.860892,0.078537,-0.018616,1.000214,0.048609,-0.04318,-0.003976,82.150406,36.6315,-149.811249,,,
729705869.746074,-0.925408,-4.789793,70.861827,0.078537,-0.018616,1.000214,0.048609,-0.04318,-0.003976,82.150406,36.6315,-149.811249,,,
729705869.749404,-0.913109,-4.79967,70.863321,0.082092,-0.016846,0.995911,0.041796,-0.026711,0.000825,82.150406,36.6315,-149.811249,,,
729705869.752758,-0.913109,-4.79967,70.863321,0.082092,-0.016846,0.995911,0.041796,-0.026711,0.000825,82.150406,36.6315,-149.811249,,,
729705869.755771,-0.903576,-4.805335,70.865582,0.082092,-0.016846,0.995911,0.041796,-0.026711,0.000825,82.086136,36.474411,-149.664536,,,
729705869.759444,-0.89316,-4.811869,70.86875,0.08548,-0.01387,0.992432,0.036751,-0.018237,0.007856,82.086136,36.474411,-149.664536,,,
729705869.762756,-0.89316,-4.811869,70.86875,0.08548,-0.01387,0.992432,0.036751,-0.018237,0.007856,82.086136,36.474411,-149.664536,,,
729705869.766086,-0.885346,-4.815978,70.872482,0.08548,-0.01387,0.992432,0.036751,-0.018237,0.007856,82.086136,36.474411,-149.664536,,,
729705869.769403,-0.875673,-4.821229,70.876081,0.085678,-0.012268,0.987869,0.034249,-0.013556,0.007318,82.086136,36.474411,-149.664536,,,
729705869.772734,-0.875673,-4.821229,70.876081,0.085678,-0.012268,0.987869,0.034249,-0.013556,0.007318,82.086136,36.474411,-149.664536,,,
729705869.776097,-0.868402,-4.824282,70.879683,0.085678,-0.012268,0.987869,0.034249,-0.013556,0.007318,82.086136,36.474411,-149.664536,,,
729705869.779401,-0.860301,-4.828879,70.883244,0.082016,-0.013275,0.983841,0.026744,-0.012852,0.007756,82.086136,36.474411,-149.664536,,,
729705869.782828,-0.860301,-4.828879,70.883244,0.082016,-0.013275,0.983841,0.026744,-0.012852,0.007756,82.086136,36.474411,-149.664536,,,
729705869.786097,-0.853692,-4.833275,70.886838,0.082016,-0.013275,0.983841,0.026744,-0.012852,0.007756,82.086136,36.474411,-149.664536,,,
729705869.789412,-0.848311,-4.839348,70.890929,0.084259,-0.013611,0.977173,0.018504,-0.020712,0.011986,82.086136,36.474411,-149.664536,,,
729705869.792739,-0.848311,-4.839348,70.890929,0.084259,-0.013611,0.977173,0.018504,-0.020712,0.011986,82.086136,36.474411,-149.664536,,,
729705869.796084,-0.844588,-4.84617,70.895262,0.084259,-0.013611,0.977173,0.018504,-0.020712,0.011986,82.043167,36.62207,-149.822021,,,
729705869.799407,-0.842503,-4.854681,70.899692,0.086884,-0.012177,0.976425,0.006287,-0.028116,0.013741,82.043167,36.62207,-149.822021,,,
729705869.802755,-0.842503,-4.854681,70.899692,0.086884,-0.012177,0.976425,0.006287,-0.028116,0.013741,82.043167,36.62207,-149.822021,,,
729705869.806078,-0.842253,-4.863249,70.904002,0.086884,-0.012177,0.976425,0.006287,-0.028116,0.013741,82.043167,36.62207,-149.822021,,,
729705869.809425,-0.841858,-4.873294,70.907608,0.088516,-0.013031,0.980118,0.001215,-0.030593,0.00936,82.043167,36.62207,-149.822021,,,
729705869.812766,-0.841858,-4.873294,70.907608,0.088516,-0.013031,0.980118,0.001215,-0.030593,0.00936,82.043167,36.62207,-149.822021,,,
729705869.816091,-0.8432,-4.881142,70.910276,0.088516,-0.013031,0.980118,0.001215,-0.030593,0.00936,82.043167,36.62207,-149.822021,,,
729705869.81941,-0.842968,-4.891722,70.911852,0.093674,-0.012238,0.985077,0.003315,-0.03519,0.001729,82.043167,36.62207,-149.822021,,,
729705869.822734,-0.842968,-4.891722,70.911852,0.093674,-0.012238,0.985077,0.003315,-0.03519,0.001729,82.043167,36.62207,-149.822021,,,
729705869.826098,-0.843312,-4.901073,70.911964,0.093674,-0.012238,0.985077,0.003315,-0.03519,0.001729,82.043167,36.62207,-149.822021,,,
729705869.82941,-0.843439,-4.91277,70.910087,0.096298,-0.012909,0.987106,-0.0013,-0.038195,-0.011557,82.043167,36.62207,-149.822021,,,
729705869.832748,-0.843439,-4.91277,70.910087,0.096298,-0.012909,0.987106,-0.0013,-0.038195,-0.011557,82.043167,36.62207,-149.822021,,,
729705869.836079,-0.843938,-4.923763,70.906524,0.096298,-0.012909,0.987106,-0.0013,-0.038195,-0.011557,81.871719,36.440506,-149.745163,,,
729705869.839441,-0.845148,-4.934535,70.902519,0.095581,-0.015839,0.988983,-0.008497,-0.035115,-0.013981,81.871719,36.440506,-149.745163,,,
729705869.842748,-0.845148,-4.934535,70.902519,0.095581,-0.015839,0.988983,-0.008497,-0.035115,-0.013981,81.871719,36.440506,-149.745163,,,
729705869.846087,-0.84658,-4.945438,70.898599,0.095581,-0.015839,0.988983,-0.008497,-0.035115,-0.013981,81.871719,36.440506,-149.745163,,,
729705869.849408,-0.848651,-4.955985,70.895511,0.091476,-0.017395,0.988266,-0.008659,-0.033311,-0.008152,81.871719,36.440506,-149.745163,,,
729705869.852769,-0.848651,-4.955985,70.895511,0.091476,-0.017395,0.988266,-0.008659,-0.033311,-0.008152,81.871719,36.440506,-149.745163,,,
729705869.856077,-0.850466,-4.965727,70.893241,0.091476,-0.017395,0.988266,-0.008659,-0.033311,-0.008152,81.871719,36.440506,-149.745163,,,
729705869.859413,-0.852449,-4.975712,70.891417,0.095261,-0.02002,0.990341,-0.005868,-0.031086,-0.005192,81.871719,36.440506,-149.745163,,,
729705869.862799,-0.852449,-4.975712,70.891417,0.095261,-0.02002,0.990341,-0.005868,-0.031086,-0.005192,81.871719,36.440506,-149.745163,,,
729705869.866093,-0.853008,-4.983936,70.890611,0.095261,-0.02002,0.990341,-0.005868,-0.031086,-0.005192,81.871719,36.440506,-149.745163,,,
729705869.869409,-0.851873,-4.991985,70.890083,0.098541,-0.020233,0.993988,0.007612,-0.023046,-0.004314,81.871719,36.440506,-149.745163,,,
729705869.872799,-0.851873,-4.991985,70.890083,0.098541,-0.020233,0.993988,0.007612,-0.023046,-0.004314,81.871719,36.440506,-149.745163,,,
729705869.876137,-0.849239,-4.998681,70.890043,0.098541,-0.020233,0.993988,0.007612,-0.023046,-0.004314,81.871719,36.440506,-149.745163,,,
729705869.879404,-0.846803,-5.003167,70.890194,0.098969,-0.016678,0.998093,0.009805,-0.010727,-0.003207,81.816116,36.653763,-149.744049,,,
729705869.882752,-0.846803,-5.003167,70.890194,0.098969,-0.016678,0.998093,0.009805,-0.010727,-0.003207,81.816116,36.653763,-149.744049,,,
729705869.886087,-0.843533,-5.006155,70.889875,0.098969,-0.016678,0.998093,0.009805,-0.010727,-0.003207,81.816116,36.653763,-149.744049,,,
729705869.88942,-0.841416,-5.00661,70.888911,0.099655,-0.013519,0.994644,0.005912,0.005771,-0.007407,81.816116,36.653763,-149.744049,,,
729705869.892754,-0.841416,-5.00661,70.888911,0.099655,-0.013519,0.994644,0.005912,0.005771,-0.007407,81.816116,36.653763,-149.744049,,,
729705869.896096,-0.840148,-5.00609,70.886834,0.099655,-0.013519,0.994644,0.005912,0.005771,-0.007407,81.816116,36.653763,-149.744049,,,
729705869.899411,-0.840792,-5.000766,70.883916,0.099197,-0.011368,0.991318,-0.004979,0.028941,-0.012469,81.816116,36.653763,-149.744049,,,
729705869.902836,-0.840792,-5.000766,70.883916,0.099197,-0.011368,0.991318,-0.004979,0.028941,-0.012469,81.816116,36.653763,-149.744049,,,
729705869.906066,-0.842482,-4.995789,70.881147,0.099197,-0.011368,0.991318,-0.004979,0.028941,-0.012469,81.816116,36.653763,-149.744049,,,
729705869.909411,-0.845916,-4.988399,70.879944,0.090546,-0.015961,0.991623,-0.011357,0.028698,-0.001208,81.816116,36.653763,-149.744049,,,
729705869.912755,-0.845916,-4.988399,70.879944,0.090546,-0.015961,0.991623,-0.011357,0.028698,-0.001208,81.816116,36.653763,-149.744049,,,
729705869.916147,-0.849453,-4.984276,70.880104,0.090546,-0.015961,0.991623,-0.011357,0.028698,-0.001208,81.816116,36.653763,-149.744049,,,
729705869.919396,-0.853003,-4.978459,70.880713,0.086929,-0.018936,0.99176,-0.010761,0.020506,0.00161,82.096222,36.615997,-149.688065,,,
729705869.922739,-0.853003,-4.978459,70.880713,0.086929,-0.018936,0.99176,-0.010761,0.020506,0.00161,82.096222,36.615997,-149.688065,,,
729705869.926091,-0.856658,-4.976755,70.880937,0.086929,-0.018936,0.99176,-0.010761,0.020506,0.00161,82.096222,36.615997,-149.688065,,,
729705869.929405,-0.859249,-4.975498,70.880045,0.088959,-0.011139,0.990952,-0.008416,0.002631,-0.006663,82.096222,36.615997,-149.688065,,,
729705869.932766,-0.859249,-4.975498,70.880045,0.088959,-0.011139,0.990952,-0.008416,0.002631,-0.006663,82.096222,36.615997,-149.688065,,,
729705869.936065,-0.862749,-4.978507,70.877346,0.088959,-0.011139,0.990952,-0.008416,0.002631,-0.006663,82.096222,36.615997,-149.688065,,,
729705869.939402,-0.865329,-4.981628,70.872549,0.085693,-0.005707,0.991455,-0.009983,-0.01092,-0.02138,82.096222,36.615997,-149.688065,,,
729705869.942735,-0.865329,-4.981628,70.872549,0.085693,-0.005707,0.991455,-0.009983,-0.01092,-0.02138,82.096222,36.615997,-149.688065,,,
729705869.946092,-0.869867,-4.989567,70.865659,0.085693,-0.005707,0.991455,-0.009983,-0.01092,-0.02138,82.096222,36.615997,-149.688065,,,
729705869.949406,-0.873681,-4.996656,70.85735,0.084412,-0.004608,0.990021,-0.016482,-0.025973,-0.031115,82.096222,36.615997,-149.688065,,,
729705869.952757,-0.873681,-4.996656,70.85735,0.084412,-0.004608,0.990021,-0.016482,-0.025973,-0.031115,82.096222,36.615997,-149.688065,,,
729705869.955766,-0.878945,-5.008981,70.848373,0.084412,-0.004608,0.990021,-0.016482,-0.025973,-0.031115,82.096222,36.615997,-149.688065,,,
729705869.959442,-0.883336,-5.018644,70.839369,0.083908,-0.010651,0.989441,-0.016597,-0.030224,-0.03161,81.838593,36.609421,-149.771378,,,
729705869.962759,-0.883336,-5.018644,70.839369,0.083908,-0.010651,0.989441,-0.016597,-0.030224,-0.03161,81.838593,36.609421,-149.771378,,,
729705869.966073,-0.887691,-5.031997,70.830845,0.083908,-0.010651,0.989441,-0.016597,-0.030224,-0.03161,81.838593,36.609421,-149.771378,,,
729705869.969417,-0.891803,-5.041011,70.823285,0.086456,-0.015549,0.991714,-0.01413,-0.02545,-0.025477,81.838593,36.609421,-149.771378,,,
729705869.972836,-0.891803,-5.041011,70.823285,0.086456,-0.015549,0.991714,-0.01413,-0.02545,-0.025477,81.838593,36.609421,-149.771378,,,
729705869.976127,-0.894635,-5.051,70.816366,0.086456,-0.015549,0.991714,-0.01413,-0.02545,-0.025477,81.838593,36.609421,-149.771378,,,
729705869.979411,-0.898913,-5.054012,70.809257,0.086548,-0.014633,0.995102,-0.016636,-0.001448,-0.026877,81.838593,36.609421,-149.771378,,,
729705869.982836,-0.898913,-5.054012,70.809257,0.086548,-0.014633,0.995102,-0.016636,-0.001448,-0.026877,81.838593,36.609421,-149.771378,,,
729705869.986101,-0.901653,-5.056532,70.801902,0.086548,-0.014633,0.995102,-0.016636,-0.001448,-0.026877,81.838593,36.609421,-149.771378,,,
729705869.989502,-0.903601,-5.055378,70.796007,0.085938,-0.015457,0.997986,-0.004529,0.007119,-0.018128,81.838593,36.609421,-149.771378,,,
729705869.992749,-0.903601,-5.055378,70.796007,0.085938,-0.015457,0.997986,-0.004529,0.007119,-0.018128,81.838593,36.609421,-149.771378,,,
729705869.996088,-0.905153,-5.05467,70.79213,0.085938,-0.015457,0.997986,-0.004529,0.007119,-0.018128,81.838593,36.609421,-149.771378,,,
729705869.999425,-0.90514,-5.054733,70.790024,0.08316,-0.018173,0.997253,0.002397,0.002561,-0.006315,81.981339,36.57782,-149.884888,,,
729705870.002764,-0.90514,-5.054733,70.790024,0.08316,-0.018173,0.997253,0.002397,0.002561,-0.006315,81.981339,36.57782,-149.884888,,,
729705870.006078,-0.9047,-5.055063,70.789162,0.08316,-0.018173,0.997253,0.002397,0.002561,-0.006315,81.981339,36.57782,-149.884888,,,
729705870.009427,-0.904438,-5.055674,70.789296,0.079788,-0.020615,0.996445,0.00106,-0.001206,0.000731,81.981339,36.57782,-149.884888,,,
729705870.01276,-0.904438,-5.055674,70.789296,0.079788,-0.020615,0.996445,0.00106,-0.001206,0.000731,81.981339,36.57782,-149.884888,,,
729705870.015893,-0.902383,-5.057407,70.790327,0.079788,-0.020615,0.996445,0.00106,-0.001206,0.000731,81.981339,36.57782,-149.884888,,,
729705870.019456,-0.901982,-5.059546,70.791987,0.078003,-0.019638,0.997925,0.005467,-0.004447,0.004728,81.981339,36.57782,-149.884888,,,
729705870.022829,-0.901982,-5.059546,70.791987,0.078003,-0.019638,0.997925,0.005467,-0.004447,0.004728,81.981339,36.57782,-149.884888,,,
729705870.026107,-0.897753,-5.060637,70.79352,0.078003,-0.019638,0.997925,0.005467,-0.004447,0.004728,81.981339,36.57782,-149.884888,,,
729705870.029513,-0.895328,-5.061493,70.794603,0.084061,-0.017166,1.003403,0.011965,0.002662,0.001087,81.981339,36.57782,-149.884888,,,
729705870.03281,-0.895328,-5.061493,70.794603,0.084061,-0.017166,1.003403,0.011965,0.002662,0.001087,81.981339,36.57782,-149.884888,,,
729705870.036107,-0.889307,-5.059378,70.795494,0.084061,-0.017166,1.003403,0.011965,0.002662,0.001087,81.981339,36.57782,-149.884888,,,
729705870.039409,-0.883974,-5.056086,70.79582,0.089615,-0.013412,1.002029,0.022595,0.017331,-0.003711,81.981339,36.57782,-149.884888,,,
729705870.042745,-0.883974,-5.056086,70.79582,0.089615,-0.013412,1.002029,0.022595,0.017331,-0.003711,81.89064,36.592789,-149.783844,,,
729705870.046076,-0.877148,-5.050271,70.795761,0.089615,-0.013412,1.002029,0.022595,0.017331,-0.003711,81.89064,36.592789,-149.783844,,,
729705870.049402,-0.870367,-5.043861,70.796095,0.085571,-0.013214,0.998093,0.02478,0.028003,-0.001092,81.89064,36.592789,-149.783844,,,
729705870.052745,-0.870367,-5.043861,70.796095,0.085571,-0.013214,0.998093,0.02478,0.028003,-0.001092,81.89064,36.592789,-149.783844,,,
729705870.056072,-0.863459,-5.036454,70.798191,0.085571,-0.013214,0.998093,0.02478,0.028003,-0.001092,81.89064,36.592789,-149.783844,,,
729705870.059405,-0.856184,-5.028817,70.802591,0.086258,-0.015121,0.993851,0.028577,0.029716,0.014689,81.89064,36.592789,-149.783844,,,
729705870.06274,-0.856184,-5.028817,70.802591,0.086258,-0.015121,0.993851,0.028577,0.029716,0.014689,81.89064,36.592789,-149.783844,,,
729705870.06607,-0.84806,-5.020882,70.808457,0.086258,-0.015121,0.993851,0.028577,0.029716,0.014689,81.89064,36.592789,-149.783844,,,
729705870.069408,-0.840134,-5.014047,70.814887,0.091232,-0.014221,0.989304,0.029585,0.024577,0.018565,81.89064,36.592789,-149.783844,,,
729705870.072734,-0.840134,-5.014047,70.814887,0.091232,-0.014221,0.989304,0.029585,0.024577,0.018565,81.89064,36.592789,-149.783844,,,
729705870.076073,-0.833074,-5.007402,70.820657,0.091232,-0.014221,0.989304,0.029585,0.024577,0.018565,81.89064,36.592789,-149.783844,,,
729705870.079406,-0.825966,-5.002445,70.824898,0.098312,-0.005981,0.984909,0.025098,0.018751,0.00835,81.89064,36.592789,-149.783844,,,
729705870.082733,-0.825966,-5.002445,70.824898,0.098312,-0.005981,0.984909,0.025098,0.018751,0.00835,81.898941,36.626175,-149.770096,,,
729705870.086072,-0.821173,-4.996848,70.827202,0.098312,-0.005981,0.984909,0.025098,0.018751,0.00835,81.898941,36.626175,-149.770096,,,
729705870.089406,-0.81566,-4.993607,70.82736,0.096725,-0.000916,0.984344,0.018634,0.012883,-0.005933,81.898941,36.626175,-149.770096,,,
729705870.092762,-0.81566,-4.993607,70.82736,0.096725,-0.000916,0.984344,0.018634,0.012883,-0.005933,81.898941,36.626175,-149.770096,,,
729705870.096084,-0.812407,-4.989531,70.825552,0.096725,-0.000916,0.984344,0.018634,0.012883,-0.005933,81.898941,36.626175,-149.770096,,,
729705870.09941,-0.807656,-4.99046,70.822442,0.100876,-0.003235,0.984009,0.016838,-0.005236,-0.014661,81.898941,36.626175,-149.770096,,,
729705870.10276,-0.807656,-4.99046,70.822442,0.100876,-0.003235,0.984009,0.016838,-0.005236,-0.014661,81.898941,36.626175,-149.770096,,,
729705870.10608,-0.803686,-4.991724,70.818998,0.100876,-0.003235,0.984009,0.016838,-0.005236,-0.014661,81.898941,36.626175,-149.770096,,,
729705870.109411,-0.7982,-4.996553,70.815542,0.1017,-0.00882,0.98349,0.020097,-0.01498,-0.0148,81.898941,36.626175,-149.770096,,,
729705870.112741,-0.7982,-4.996553,70.815542,0.1017,-0.00882,0.98349,0.020097,-0.01498,-0.0148,81.898941,36.626175,-149.770096,,,
729705870.116101,-0.79254,-5.001764,70.812102,0.1017,-0.00882,0.98349,0.020097,-0.01498,-0.0148,81.898941,36.626175,-149.770096,,,
729705870.119404,-0.785618,-5.007162,70.808809,0.102753,-0.010406,0.988937,0.026044,-0.015635,-0.014291,81.898941,36.626175,-149.770096,,,
729705870.122751,-0.785618,-5.007162,70.808809,0.102753,-0.010406,0.988937,0.026044,-0.015635,-0.014291,82.015076,36.59436,-149.863358,,,
729705870.126089,-0.777717,-5.011905,70.805619,0.102753,-0.010406,0.988937,0.026044,-0.015635,-0.014291,82.015076,36.59436,-149.863358,,,
729705870.129407,-0.77042,-5.014216,70.802183,0.104004,-0.007324,0.986679,0.023858,-0.000456,-0.015772,82.015076,36.59436,-149.863358,,,
729705870.132777,-0.77042,-5.014216,70.802183,0.104004,-0.007324,0.986679,0.023858,-0.000456,-0.015772,82.015076,36.59436,-149.863358,,,
729705870.136107,-0.763961,-5.013192,70.79844,0.104004,-0.007324,0.986679,0.023858,-0.000456,-0.015772,82.015076,36.59436,-149.863358,,,
729705870.139401,-0.758971,-5.00977,70.794431,0.104813,-0.003143,0.986145,0.013233,0.020609,-0.016626,82.015076,36.59436,-149.863358,,,
729705870.142746,-0.758971,-5.00977,70.794431,0.104813,-0.003143,0.986145,0.013233,0.020609,-0.016626,82.015076,36.59436,-149.863358,,,
729705870.146069,-0.756043,-5.003628,70.790252,0.104813,-0.003143,0.986145,0.013233,0.020609,-0.016626,82.015076,36.59436,-149.863358,,,
729705870.149405,-0.753318,-4.994466,70.786043,0.107101,-0.006577,0.987381,0.007848,0.038587,-0.01637,82.015076,36.59436,-149.863358,,,
729705870.152745,-0.753318,-4.994466,70.786043,0.107101,-0.006577,0.987381,0.007848,0.038587,-0.01637,82.015076,36.59436,-149.863358,,,
729705870.156076,-0.750783,-4.986272,70.781968,0.107101,-0.006577,0.987381,0.007848,0.038587,-0.01637,82.015076,36.59436,-149.863358,,,
729705870.159402,-0.749266,-4.97477,70.77804,0.106201,-0.010025,0.987518,0.004793,0.042739,-0.015322,82.015076,36.59436,-149.863358,,,
729705870.162846,-0.749266,-4.97477,70.77804,0.106201,-0.010025,0.987518,0.004793,0.042739,-0.015322,82.015076,36.59436,-149.863358,,,
729705870.166087,-0.745598,-4.967147,70.773998,0.106201,-0.010025,0.987518,0.004793,0.042739,-0.015322,82.095932,36.590134,-150.098923,,,
729705870.169408,-0.74517,-4.957516,70.76966,0.103561,-0.010086,0.984329,0.00029,0.033272,-0.017368,82.095932,36.590134,-150.098923,,,
729705870.172739,-0.74517,-4.957516,70.76966,0.103561,-0.010086,0.984329,0.00029,0.033272,-0.017368,82.095932,36.590134,-150.098923,,,
729705870.176142,-0.741754,-4.95331,70.764673,0.103561,-0.010086,0.984329,0.00029,0.033272,-0.017368,82.095932,36.590134,-150.098923,,,
729705870.179397,-0.741798,-4.947826,70.758258,0.107071,-0.00972,0.984909,-0.003187,0.018167,-0.027382,82.095932,36.590134,-150.098923,,,
729705870.182755,-0.741798,-4.947826,70.758258,0.107071,-0.00972,0.984909,-0.003187,0.018167,-0.027382,82.095932,36.590134,-150.098923,,,
729705870.186198,-0.740432,-4.949389,70.749587,0.107071,-0.00972,0.984909,-0.003187,0.018167,-0.027382,82.095932,36.590134,-150.098923,,,
729705870.189388,-0.741571,-4.948412,70.738817,0.114487,-0.00853,0.985901,-0.008684,0.003204,-0.041999,82.095932,36.590134,-150.098923,,,
729705870.192742,-0.741571,-4.948412,70.738817,0.114487,-0.00853,0.985901,-0.008684,0.003204,-0.041999,82.095932,36.590134,-150.098923,,,
729705870.196082,-0.742411,-4.95397,70.725183,0.114487,-0.00853,0.985901,-0.008684,0.003204,-0.041999,82.095932,36.590134,-150.098923,,,
729705870.199403,-0.743999,-4.956172,70.709131,0.121185,-0.010818,0.985901,-0.010492,-0.007997,-0.059196,82.095932,36.590134,-150.098923,,,
729705870.202824,-0.743999,-4.956172,70.709131,0.121185,-0.010818,0.985901,-0.010492,-0.007997,-0.059196,82.095932,36.590134,-150.098923,,,
729705870.20606,-0.744752,-4.966058,70.691982,0.121185,-0.010818,0.985901,-0.010492,-0.007997,-0.059196,82.115128,36.330109,-149.99823,,,
729705870.209411,-0.746342,-4.972879,70.673862,0.122925,-0.015106,0.984436,-0.010686,-0.021013,-0.066384,82.115128,36.330109,-149.99823,,,
729705870.212745,-0.746342,-4.972879,70.673862,0.122925,-0.015106,0.984436,-0.010686,-0.021013,-0.066384,82.115128,36.330109,-149.99823,,,
729705870.216119,-0.746883,-4.985873,70.654817,0.122925,-0.015106,0.984436,-0.010686,-0.021013,-0.066384,82.115128,36.330109,-149.99823,,,
729705870.219395,-0.751041,-4.993744,70.634649,0.120331,-0.019119,0.987411,-0.022406,-0.022968,-0.073672,82.115128,36.330109,-149.99823,,,
729705870.222736,-0.751041,-4.993744,70.634649,0.120331,-0.019119,0.987411,-0.022406,-0.022968,-0.073672,82.115128,36.330109,-149.99823,,,
729705870.226093,-0.754437,-5.006146,70.611944,0.120331,-0.019119,0.987411,-0.022406,-0.022968,-0.073672,82.115128,36.330109,-149.99823,,,
729705870.2294,-0.761583,-5.011934,70.58678,0.120422,-0.020432,0.991226,-0.032449,-0.013667,-0.090429,82.115128,36.330109,-149.99823,,,
729705870.232741,-0.761583,-5.011934,70.58678,0.120422,-0.020432,0.991226,-0.032449,-0.013667,-0.090429,82.115128,36.330109,-149.99823,,,
729705870.236072,-0.768221,-5.022783,70.558998,0.120422,-0.020432,0.991226,-0.032449,-0.013667,-0.090429,82.115128,36.330109,-149.99823,,,
729705870.239406,-0.777605,-5.026293,70.528894,0.115875,-0.025055,0.993729,-0.044604,-0.003572,-0.10621,82.115128,36.330109,-149.99823,,,
729705870.242773,-0.777605,-5.026293,70.528894,0.115875,-0.025055,0.993729,-0.044604,-0.003572,-0.10621,82.115128,36.330109,-149.99823,,,
729705870.24609,-0.787064,-5.032795,70.497188,0.115875,-0.025055,0.993729,-0.044604,-0.003572,-0.10621,81.905502,36.603851,-149.68222,,,
729705870.249403,-0.797518,-5.032407,70.464741,0.106415,-0.034027,0.997025,-0.046274,0.009403,-0.111765,81.905502,36.603851,-149.68222,,,
729705870.252736,-0.797518,-5.032407,70.464741,0.106415,-0.034027,0.997025,-0.046274,0.009403,-0.111765,81.905502,36.603851,-149.68222,,,
729705870.255781,-0.806919,-5.035218,70.431634,0.106415,-0.034027,0.997025,-0.046274,0.009403,-0.111765,81.905502,36.603851,-149.68222,,,
729705870.25944,-0.816956,-5.030831,70.398696,0.095001,-0.039536,1.003021,-0.042875,0.024294,-0.111351,81.905502,36.603851,-149.68222,,,
729705870.262742,-0.816956,-5.030831,70.398696,0.095001,-0.039536,1.003021,-0.042875,0.024294,-0.111351,81.905502,36.603851,-149.68222,,,
729705870.266075,-0.824943,-5.031487,70.365967,0.095001,-0.039536,1.003021,-0.042875,0.024294,-0.111351,81.905502,36.603851,-149.68222,,,
729705870.269401,-0.833576,-5.024223,70.334079,0.083786,-0.042908,1.002228,-0.035666,0.032282,-0.106798,81.905502,36.603851,-149.68222,,,
729705870.272736,-0.833576,-5.024223,70.334079,0.083786,-0.042908,1.002228,-0.035666,0.032282,-0.106798,81.905502,36.603851,-149.68222,,,
729705870.276066,-0.839746,-5.024641,70.303748,0.083786,-0.042908,1.002228,-0.035666,0.032282,-0.106798,81.905502,36.603851,-149.68222,,,
729705870.279405,-0.847316,-5.014819,70.275672,0.073044,-0.043182,1.000381,-0.033337,0.041609,-0.092295,81.905502,36.603851,-149.68222,,,
729705870.282826,-0.847316,-5.014819,70.275672,0.073044,-0.043182,1.000381,-0.033337,0.041609,-0.092295,81.905502,36.603851,-149.68222,,,
729705870.28607,-0.854255,-5.014298,70.24953,0.073044,-0.043182,1.000381,-0.033337,0.041609,-0.092295,81.850296,36.735794,-149.902344,,,
729705870.289414,-0.86168,-5.003826,70.225195,0.069214,-0.037842,0.996704,-0.031704,0.039823,-0.080858,81.850296,36.735794,-149.902344,,,
729705870.292763,-0.86168,-5.003826,70.225195,0.069214,-0.037842,0.996704,-0.031704,0.039823,-0.080858,81.850296,36.735794,-149.902344,,,
729705870.296148,-0.869062,-5.004012,70.201523,0.069214,-0.037842,0.996704,-0.031704,0.039823,-0.080858,81.850296,36.735794,-149.902344,,,
729705870.299396,-0.874716,-4.995518,70.178274,0.069275,-0.033691,0.990341,-0.023262,0.030316,-0.079815,81.850296,36.735794,-149.902344,,,
729705870.302754,-0.874716,-4.995518,70.178274,0.069275,-0.033691,0.990341,-0.023262,0.030316,-0.079815,81.850296,36.735794,-149.902344,,,
729705870.306067,-0.881861,-4.998592,70.155043,0.069275,-0.033691,0.990341,-0.023262,0.030316,-0.079815,81.850296,36.735794,-149.902344,,,
729705870.309424,-0.888753,-4.993519,70.13229,0.065308,-0.027695,0.988708,-0.031418,0.019598,-0.076816,81.850296,36.735794,-149.902344,,,
729705870.312754,-0.888753,-4.993519,70.13229,0.065308,-0.027695,0.988708,-0.031418,0.019598,-0.076816,81.850296,36.735794,-149.902344,,,
729705870.316074,-0.897678,-4.999151,70.109742,0.065308,-0.027695,0.988708,-0.031418,0.019598,-0.076816,81.850296,36.735794,-149.902344,,,
729705870.319402,-0.905559,-4.999064,70.086731,0.066086,-0.021683,0.988678,-0.035887,-0.00067,-0.080464,81.850296,36.735794,-149.902344,,,
729705870.322735,-0.905559,-4.999064,70.086731,0.066086,-0.021683,0.988678,-0.035887,-0.00067,-0.080464,81.850296,36.735794,-149.902344,,,
729705870.326074,-0.917223,-5.008045,70.063203,0.066086,-0.021683,0.988678,-0.035887,-0.00067,-0.080464,81.850296,36.735794,-149.902344,,,
729705870.329401,-0.926428,-5.01408,70.040068,0.069702,-0.018585,0.987549,-0.039273,-0.020241,-0.078051,81.855713,36.882187,-150.114716,,,
729705870.332752,-0.926428,-5.01408,70.040068,0.069702,-0.018585,0.987549,-0.039273,-0.020241,-0.078051,81.855713,36.882187,-150.114716,,,
729705870.336066,-0.939865,-5.024896,70.016944,0.069702,-0.018585,0.987549,-0.039273,-0.020241,-0.078051,81.855713,36.882187,-150.114716,,,
729705870.339467,-0.948822,-5.034803,69.993734,0.06839,-0.015884,0.990051,-0.038237,-0.032839,-0.079062,81.855713,36.882187,-150.114716,,,
729705870.342739,-0.948822,-5.034803,69.993734,0.06839,-0.015884,0.990051,-0.038237,-0.032839,-0.079062,81.855713,36.882187,-150.114716,,,
729705870.346074,-0.962284,-5.045648,69.970568,0.06839,-0.015884,0.990051,-0.038237,-0.032839,-0.079062,81.855713,36.882187,-150.114716,,,
729705870.349403,-0.970337,-5.056486,69.948008,0.07016,-0.013153,0.99263,-0.033283,-0.034318,-0.075219,81.855713,36.882187,-150.114716,,,
729705870.352753,-0.970337,-5.056486,69.948008,0.07016,-0.013153,0.99263,-0.033283,-0.034318,-0.075219,81.855713,36.882187,-150.114716,,,
729705870.356069,-0.983478,-5.064718,69.926532,0.07016,-0.013153,0.99263,-0.033283,-0.034318,-0.075219,81.855713,36.882187,-150.114716,,,
729705870.359394,-0.990074,-5.07439,69.906848,0.068466,-0.014603,0.99794,-0.025723,-0.028725,-0.063029,81.855713,36.882187,-150.114716,,,
729705870.362821,-0.990074,-5.07439,69.906848,0.068466,-0.014603,0.99794,-0.025723,-0.028725,-0.063029,81.855713,36.882187,-150.114716,,,
729705870.366113,-1.001468,-5.078195,69.890019,0.068466,-0.014603,0.99794,-0.025723,-0.028725,-0.063029,81.855713,36.882187,-150.114716,,,
729705870.369404,-1.006968,-5.085672,69.875529,0.071548,-0.016388,0.998352,-0.020446,-0.020634,-0.046501,81.836319,37.005951,-149.880234,,,
729705870.372751,-1.006968,-5.085672,69.875529,0.071548,-0.016388,0.998352,-0.020446,-0.020634,-0.046501,81.836319,37.005951,-149.880234,,,
729705870.376069,-1.01654,-5.08667,69.862295,0.071548,-0.016388,0.998352,-0.020446,-0.020634,-0.046501,81.836319,37.005951,-149.880234,,,
729705870.379402,-1.020877,-5.091561,69.850098,0.077103,-0.010864,0.997971,-0.017253,-0.011435,-0.038951,81.836319,37.005951,-149.880234,,,
729705870.382755,-1.020877,-5.091561,69.850098,0.077103,-0.010864,0.997971,-0.017253,-0.011435,-0.038951,81.836319,37.005951,-149.880234,,,
729705870.386138,-1.0287,-5.090244,69.839257,0.077103,-0.010864,0.997971,-0.017253,-0.011435,-0.038951,81.836319,37.005951,-149.880234,,,
729705870.3894,-1.03328,-5.094231,69.828748,0.077957,-0.005051,0.996155,-0.018109,-0.009083,-0.035793,81.836319,37.005951,-149.880234,,,
729705870.392753,-1.03328,-5.094231,69.828748,0.077957,-0.005051,0.996155,-0.018109,-0.009083,-0.035793,81.836319,37.005951,-149.880234,,,
729705870.39608,-1.039137,-5.090588,69.818765,0.077957,-0.005051,0.996155,-0.018109,-0.009083,-0.035793,81.836319,37.005951,-149.880234,,,
729705870.399474,-1.042407,-5.092643,69.808833,0.080688,-0.002899,0.995117,-0.012395,-0.001955,-0.035078,81.836319,37.005951,-149.880234,,,
729705870.402738,-1.042407,-5.092643,69.808833,0.080688,-0.002899,0.995117,-0.012395,-0.001955,-0.035078,81.836319,37.005951,-149.880234,,,
729705870.40607,-1.046083,-5.088593,69.799117,0.080688,-0.002899,0.995117,-0.012395,-0.001955,-0.035078,81.836319,37.005951,-149.880234,,,
729705870.409411,-1.049591,-5.089563,69.789546,0.081741,-0.001633,0.993851,-0.014799,0.001953,-0.033176,81.793472,37.069672,-149.927963,,,
729705870.412797,-1.049591,-5.089563,69.789546,0.081741,-0.001633,0.993851,-0.014799,0.001953,-0.033176,81.793472,37.069672,-149.927963,,,
729705870.416068,-1.053683,-5.084641,69.78034,0.081741,-0.001633,0.993851,-0.014799,0.001953,-0.033176,81.793472,37.069672,-149.927963,,,
729705870.419393,-1.058799,-5.085086,69.771206,0.082321,0.00296,0.990524,-0.021593,0.002719,-0.031405,81.793472,37.069672,-149.927963,,,
729705870.422732,-1.058799,-5.085086,69.771206,0.082321,0.00296,0.990524,-0.021593,0.002719,-0.031405,81.793472,37.069672,-149.927963,,,
729705870.426067,-1.063474,-5.079962,69.761996,0.082321,0.00296,0.990524,-0.021593,0.002719,-0.031405,81.793472,37.069672,-149.927963,,,
729705870.429404,-1.06965,-5.080561,69.752462,0.083878,0.003799,0.99025,-0.024264,0.000871,-0.032721,81.793472,37.069672,-149.927963,,,
729705870.432745,-1.06965,-5.080561,69.752462,0.083878,0.003799,0.99025,-0.024264,0.000871,-0.032721,81.793472,37.069672,-149.927963,,,
