Time (sec),Pitch (deg),Roll (deg),Yaw(deg),X-Acceleration (g),Y-Acceleration (g),Z-Acceleration (g),Pitch Rate (deg/sec),Roll Rate (deg/sec),Yaw Rate (deg/sec),Magnetic Field in X direction (uT),Magnetic Field in Y direction (uT),Magnetic Field in Z Direction (uT),Latitude (deg),Longitude (deg),Altitude (m)
729706985.924015,0.442403,2.881951,-22.593379,-0.042313,0.013336,0.988342,0.016682,0.016334,-0.013843,61.677139,30.130264,-147.538727,,,
729706985.926568,0.442413,2.881984,121.316788,-0.042313,0.013336,0.988342,0.016682,0.016334,-0.013843,61.677139,30.130264,-147.538727,,,
729706985.928453,0.444789,2.888938,-22.597113,-0.042313,0.013336,0.988342,0.009978,0.022116,-0.015547,61.677139,30.130264,-147.538727,,,
729706985.929867,0.444799,2.888971,121.313054,-0.042313,0.013336,0.988342,0.009978,0.022116,-0.015547,61.677139,30.130264,-147.538727,,,
729706985.930713,0.444789,2.888938,-22.597113,-0.042313,0.013336,0.988342,0.009978,0.022116,-0.015547,61.677139,30.130264,-147.538727,,,
729706985.933229,0.447089,2.893794,121.308779,-0.046249,0.014114,0.983154,0.009978,0.022116,-0.015547,61.677139,30.130264,-147.538727,,,
729706985.935327,0.447079,2.893761,-22.601404,-0.046249,0.014114,0.983154,0.009978,0.022116,-0.015547,61.673752,30.159943,-147.271088,,,
729706985.93651,0.447089,2.893794,121.308779,-0.046249,0.014114,0.983154,0.009978,0.022116,-0.015547,61.673752,30.159943,-147.271088,,,
729706985.938246,0.447632,2.897732,-22.605896,-0.046249,0.014114,0.983154,0.004123,0.011331,-0.017257,61.673752,30.159943,-147.271088,,,
729706985.939838,0.447641,2.897766,121.304287,-0.046249,0.014114,0.983154,0.004123,0.011331,-0.017257,61.673752,30.159943,-147.271088,,,
729706985.940652,0.447632,2.897732,-22.605896,-0.046249,0.014114,0.983154,0.004123,0.011331,-0.017257,61.673752,30.159943,-147.271088,,,
729706985.94322,0.44797,2.898675,121.299836,-0.050934,0.012329,0.981506,0.004123,0.011331,-0.017257,61.673752,30.159943,-147.271088,,,
729706985.944087,0.44796,2.898642,-22.610334,-0.050934,0.012329,0.981506,0.004123,0.011331,-0.017257,61.673752,30.159943,-147.271088,,,
729706985.946595,0.44797,2.898675,121.299836,-0.050934,0.012329,0.981506,0.004123,0.011331,-0.017257,61.673752,30.159943,-147.271088,,,
729706985.948763,0.446521,2.89706,-22.614902,-0.050934,0.012329,0.981506,0.001415,-0.013045,-0.01819,61.673752,30.159943,-147.271088,,,
729706985.949877,0.446531,2.897093,121.295277,-0.050934,0.012329,0.981506,0.001415,-0.013045,-0.01819,61.673752,30.159943,-147.271088,,,
729706985.950655,0.446521,2.89706,-22.614902,-0.050934,0.012329,0.981506,0.001415,-0.013045,-0.01819,61.673752,30.159943,-147.271088,,,
729706985.953166,0.446916,2.891444,121.290788,-0.053665,0.009247,0.981812,0.001415,-0.013045,-0.01819,61.673752,30.159943,-147.271088,,,
729706985.954639,0.446907,2.891411,-22.619392,-0.053665,0.009247,0.981812,0.001415,-0.013045,-0.01819,61.673752,30.159943,-147.271088,,,
729706985.956501,0.446916,2.891444,121.290788,-0.053665,0.009247,0.981812,0.001415,-0.013045,-0.01819,61.673752,30.159943,-147.271088,,,
729706985.958099,0.446853,2.884006,-22.623425,-0.053665,0.009247,0.981812,0.004471,-0.027553,-0.014826,61.673752,30.159943,-147.271088,,,
729706985.959843,0.446862,2.884039,121.286755,-0.053665,0.009247,0.981812,0.004471,-0.027553,-0.014826,61.673752,30.159943,-147.271088,,,
729706985.960652,0.446853,2.884006,-22.623425,-0.053665,0.009247,0.981812,0.004471,-0.027553,-0.014826,61.673752,30.159943,-147.271088,,,
729706985.963167,0.447539,2.875238,121.282654,-0.051895,0.006729,0.986038,0.004471,-0.027553,-0.014826,61.673752,30.159943,-147.271088,,,
729706985.96449,0.447529,2.875204,-22.627523,-0.051895,0.006729,0.986038,0.004471,-0.027553,-0.014826,61.673752,30.159943,-147.271088,,,
729706985.966569,0.447539,2.875238,121.282654,-0.051895,0.006729,0.986038,0.004471,-0.027553,-0.014826,61.673752,30.159943,-147.271088,,,
729706985.967877,0.447321,2.865646,-22.631989,-0.051895,0.006729,0.986038,0.000468,-0.030117,-0.017687,61.673752,30.159943,-147.271088,,,
729706985.969839,0.447331,2.86568,121.278182,-0.051895,0.006729,0.986038,0.000468,-0.030117,-0.017687,61.673752,30.159943,-147.271088,,,
729706985.970645,0.447321,2.865646,-22.631989,-0.051895,0.006729,0.986038,0.000468,-0.030117,-0.017687,61.673752,30.159943,-147.271088,,,
729706985.973166,0.446635,2.857274,121.274008,-0.04538,0.010818,0.98999,0.000468,-0.030117,-0.017687,61.673752,30.159943,-147.271088,,,
729706985.974589,0.446626,2.857241,-22.636175,-0.04538,0.010818,0.98999,0.000468,-0.030117,-0.017687,61.673752,30.159943,-147.271088,,,
729706985.97665,0.446635,2.857274,121.274008,-0.04538,0.010818,0.98999,0.000468,-0.030117,-0.017687,61.642075,30.166656,-147.167236,,,
729706985.980137,0.444761,2.850213,-22.640009,-0.04538,0.010818,0.98999,-0.005803,-0.017489,-0.015585,61.642075,30.166656,-147.167236,,,
729706985.98044,0.444771,2.850247,121.270174,-0.04538,0.010818,0.98999,-0.005803,-0.017489,-0.015585,61.642075,30.166656,-147.167236,,,
729706985.980719,0.444761,2.850213,-22.640009,-0.04538,0.010818,0.98999,-0.005803,-0.017489,-0.015585,61.642075,30.166656,-147.167236,,,
729706985.983258,0.442749,2.846405,121.26602,-0.041107,0.013016,0.995316,-0.005803,-0.017489,-0.015585,61.642075,30.166656,-147.167236,,,
729706985.984573,0.44274,2.846372,-22.644167,-0.041107,0.013016,0.995316,-0.005803,-0.017489,-0.015585,61.642075,30.166656,-147.167236,,,
729706985.986556,0.442749,2.846405,121.26602,-0.041107,0.013016,0.995316,-0.005803,-0.017489,-0.015585,61.642075,30.166656,-147.167236,,,
729706985.989118,0.440036,2.84561,-22.648792,-0.041107,0.013016,0.995316,-0.009794,0.011754,-0.019154,61.642075,30.166656,-147.167236,,,
729706985.989891,0.440046,2.845643,121.261392,-0.041107,0.013016,0.995316,-0.009794,0.011754,-0.019154,61.642075,30.166656,-147.167236,,,
729706985.990696,0.440036,2.84561,-22.648792,-0.041107,0.013016,0.995316,-0.009794,0.011754,-0.019154,61.642075,30.166656,-147.167236,,,
729706985.993178,0.436422,2.849567,121.256705,-0.037643,0.012283,1.00029,-0.009794,0.011754,-0.019154,61.642075,30.166656,-147.167236,,,
729706985.993993,0.436412,2.849534,-22.653478,-0.037643,0.012283,1.00029,-0.009794,0.011754,-0.019154,61.642075,30.166656,-147.167236,,,
729706985.99663,0.436422,2.849567,121.256705,-0.037643,0.012283,1.00029,-0.009794,0.011754,-0.019154,61.642075,30.166656,-147.167236,,,
729706985.998152,0.43386,2.854649,-22.658063,-0.037643,0.012283,1.00029,-0.007613,0.030741,-0.018426,61.642075,30.166656,-147.167236,,,
729706985.999859,0.43387,2.854682,121.252123,-0.037643,0.012283,1.00029,-0.007613,0.030741,-0.018426,61.642075,30.166656,-147.167236,,,
729706986.000649,0.43386,2.854649,-22.658063,-0.037643,0.012283,1.00029,-0.007613,0.030741,-0.018426,61.642075,30.166656,-147.167236,,,
729706986.003169,0.43083,2.863522,121.247769,-0.039444,0.010605,0.99971,-0.007613,0.030741,-0.018426,61.642075,30.166656,-147.167236,,,
729706986.004351,0.430821,2.863489,-22.662412,-0.039444,0.010605,0.99971,-0.007613,0.030741,-0.018426,61.642075,30.166656,-147.167236,,,
729706986.006527,0.43083,2.863522,121.247769,-0.039444,0.010605,0.99971,-0.007613,0.030741,-0.018426,61.642075,30.166656,-147.167236,,,
729706986.007872,0.428334,2.871938,-22.666729,-0.039444,0.010605,0.99971,-0.010511,0.034881,-0.018332,61.642075,30.166656,-147.167236,,,
729706986.009843,0.428344,2.871971,121.243454,-0.039444,0.010605,0.99971,-0.010511,0.034881,-0.018332,61.642075,30.166656,-147.167236,,,
729706986.010648,0.428334,2.871938,-22.666729,-0.039444,0.010605,0.99971,-0.010511,0.034881,-0.018332,61.642075,30.166656,-147.167236,,,
729706986.013167,0.424833,2.880704,121.239309,-0.041397,0.011139,0.993835,-0.010511,0.034881,-0.018332,61.642075,30.166656,-147.167236,,,
729706986.014882,0.424823,2.88067,-22.670873,-0.041397,0.011139,0.993835,-0.010511,0.034881,-0.018332,61.642075,30.166656,-147.167236,,,
729706986.01653,0.424833,2.880704,121.239309,-0.041397,0.011139,0.993835,-0.010511,0.034881,-0.018332,61.697571,30.12854,-147.156982,,,
729706986.018267,0.422521,2.888479,-22.674748,-0.041397,0.011139,0.993835,-0.009031,0.029767,-0.016396,61.697571,30.12854,-147.156982,,,
729706986.019937,0.422531,2.888512,121.235432,-0.041397,0.011139,0.993835,-0.009031,0.029767,-0.016396,61.697571,30.12854,-147.156982,,,
729706986.020657,0.422521,2.888479,-22.674748,-0.041397,0.011139,0.993835,-0.009031,0.029767,-0.016396,61.697571,30.12854,-147.156982,,,
729706986.023166,0.419487,2.895946,121.231215,-0.046722,0.012894,0.992233,-0.009031,0.029767,-0.016396,61.697571,30.12854,-147.156982,,,
729706986.024867,0.419477,2.895912,-22.678968,-0.046722,0.012894,0.992233,-0.009031,0.029767,-0.016396,61.697571,30.12854,-147.156982,,,
729706986.026508,0.419487,2.895946,121.231215,-0.046722,0.012894,0.992233,-0.009031,0.029767,-0.016396,61.697571,30.12854,-147.156982,,,
729706986.027585,0.416857,2.902567,-22.683296,-0.046722,0.012894,0.992233,-0.009563,0.020579,-0.017224,61.697571,30.12854,-147.156982,,,
729706986.029853,0.416866,2.9026,121.226883,-0.046722,0.012894,0.992233,-0.009563,0.020579,-0.017224,61.697571,30.12854,-147.156982,,,
729706986.030648,0.416857,2.902567,-22.683296,-0.046722,0.012894,0.992233,-0.009563,0.020579,-0.017224,61.697571,30.12854,-147.156982,,,
729706986.03316,0.413609,2.906751,121.222342,-0.05098,0.010742,0.99118,-0.009563,0.020579,-0.017224,61.697571,30.12854,-147.156982,,,
729706986.034848,0.413599,2.906718,-22.687838,-0.05098,0.010742,0.99118,-0.009563,0.020579,-0.017224,61.697571,30.12854,-147.156982,,,
729706986.036505,0.413609,2.906751,121.222342,-0.05098,0.010742,0.99118,-0.009563,0.020579,-0.017224,61.697571,30.12854,-147.156982,,,
729706986.037665,0.410415,2.909637,-22.692296,-0.05098,0.010742,0.99118,-0.009517,0.006535,-0.016662,61.697571,30.12854,-147.156982,,,
729706986.039857,0.410425,2.90967,121.217877,-0.05098,0.010742,0.99118,-0.009517,0.006535,-0.016662,61.697571,30.12854,-147.156982,,,
729706986.040647,0.410415,2.909637,-22.692296,-0.05098,0.010742,0.99118,-0.009517,0.006535,-0.016662,61.697571,30.12854,-147.156982,,,
729706986.043172,0.407743,2.909486,121.213719,-0.050781,0.009186,0.993561,-0.009517,0.006535,-0.016662,61.697571,30.12854,-147.156982,,,
729706986.044257,0.407734,2.909453,-22.696456,-0.050781,0.009186,0.993561,-0.009517,0.006535,-0.016662,61.697571,30.12854,-147.156982,,,
729706986.04654,0.407743,2.909486,121.213719,-0.050781,0.009186,0.993561,-0.009517,0.006535,-0.016662,61.697571,30.12854,-147.156982,,,
729706986.048821,0.405437,2.907118,-22.700216,-0.050781,0.009186,0.993561,-0.00762,-0.006024,-0.013798,61.697571,30.12854,-147.156982,,,
729706986.049874,0.405447,2.907151,121.209958,-0.050781,0.009186,0.993561,-0.00762,-0.006024,-0.013798,61.697571,30.12854,-147.156982,,,
729706986.050652,0.405437,2.907118,-22.700216,-0.050781,0.009186,0.993561,-0.00762,-0.006024,-0.013798,61.697571,30.12854,-147.156982,,,
729706986.053176,0.403004,2.904514,121.206634,-0.053558,0.009018,0.998245,-0.00762,-0.006024,-0.013798,61.697571,30.12854,-147.156982,,,
729706986.054917,0.402995,2.904481,-22.703538,-0.053558,0.009018,0.998245,-0.00762,-0.006024,-0.013798,61.697571,30.12854,-147.156982,,,
729706986.056514,0.403004,2.904514,121.206634,-0.053558,0.009018,0.998245,-0.00762,-0.006024,-0.013798,61.702179,30.140457,-147.141159,,,
729706986.058055,0.401434,2.900487,-22.70636,-0.053558,0.009018,0.998245,-0.008091,-0.006114,-0.010394,61.702179,30.140457,-147.141159,,,
729706986.059859,0.401444,2.90052,121.203815,-0.053558,0.009018,0.998245,-0.008091,-0.006114,-0.010394,61.702179,30.140457,-147.141159,,,
729706986.060649,0.401434,2.900487,-22.70636,-0.053558,0.009018,0.998245,-0.008091,-0.006114,-0.010394,61.702179,30.140457,-147.141159,,,
729706986.063168,0.398829,2.898091,121.20157,-0.053833,0.008728,0.999466,-0.008091,-0.006114,-0.010394,61.702179,30.140457,-147.141159,,,
729706986.064007,0.398819,2.898058,-22.708605,-0.053833,0.008728,0.999466,-0.008091,-0.006114,-0.010394,61.702179,30.140457,-147.141159,,,
729706986.066492,0.398829,2.898091,121.20157,-0.053833,0.008728,0.999466,-0.008091,-0.006114,-0.010394,61.702179,30.140457,-147.141159,,,
729706986.06789,0.396699,2.894219,-22.710195,-0.053833,0.008728,0.999466,-0.010927,-0.001122,-0.006074,61.702179,30.140457,-147.141159,,,
729706986.069836,0.396708,2.894252,121.199984,-0.053833,0.008728,0.999466,-0.010927,-0.001122,-0.006074,61.702179,30.140457,-147.141159,,,
729706986.070642,0.396699,2.894219,-22.710195,-0.053833,0.008728,0.999466,-0.010927,-0.001122,-0.006074,61.702179,30.140457,-147.141159,,,
729706986.073166,0.393826,2.893688,121.198912,-0.049408,0.00853,1.001999,-0.010927,-0.001122,-0.006074,61.702179,30.140457,-147.141159,,,
729706986.074349,0.393816,2.893655,-22.711263,-0.049408,0.00853,1.001999,-0.010927,-0.001122,-0.006074,61.702179,30.140457,-147.141159,,,
729706986.076599,0.393826,2.893688,121.198912,-0.049408,0.00853,1.001999,-0.010927,-0.001122,-0.006074,61.702179,30.140457,-147.141159,,,
729706986.078636,0.391907,2.892708,-22.712508,-0.049408,0.00853,1.001999,-0.010002,0.013337,-0.007382,61.702179,30.140457,-147.141159,,,
729706986.079909,0.391917,2.892742,121.197669,-0.049408,0.00853,1.001999,-0.010002,0.013337,-0.007382,61.702179,30.140457,-147.141159,,,
729706986.080644,0.391907,2.892708,-22.712508,-0.049408,0.00853,1.001999,-0.010002,0.013337,-0.007382,61.702179,30.140457,-147.141159,,,
729706986.08316,0.388655,2.896621,121.196118,-0.0466,0.011459,1.003784,-0.010002,0.013337,-0.007382,61.702179,30.140457,-147.141159,,,
729706986.084371,0.388645,2.896588,-22.714059,-0.0466,0.011459,1.003784,-0.010002,0.013337,-0.007382,61.702179,30.140457,-147.141159,,,
729706986.086499,0.388655,2.896621,121.196118,-0.0466,0.011459,1.003784,-0.010002,0.013337,-0.007382,61.702179,30.140457,-147.141159,,,
729706986.087806,0.385882,2.90031,-22.716309,-0.0466,0.011459,1.003784,-0.009939,0.026351,-0.012393,61.702179,30.140457,-147.141159,,,
729706986.089836,0.385892,2.900343,121.193864,-0.0466,0.011459,1.003784,-0.009939,0.026351,-0.012393,61.702179,30.140457,-147.141159,,,
729706986.090648,0.385882,2.90031,-22.716309,-0.0466,0.011459,1.003784,-0.009939,0.026351,-0.012393,61.702179,30.140457,-147.141159,,,
729706986.093175,0.383284,2.90768,121.190861,-0.047302,0.013275,1.001785,-0.009939,0.026351,-0.012393,61.702179,30.140457,-147.141159,,,
729706986.09464,0.383274,2.907647,-22.719311,-0.047302,0.013275,1.001785,-0.009939,0.026351,-0.012393,61.702179,30.140457,-147.141159,,,
729706986.096578,0.383284,2.90768,121.190861,-0.047302,0.013275,1.001785,-0.009939,0.026351,-0.012393,61.702179,30.140457,-147.141159,,,
729706986.098408,0.382009,2.915344,-22.721801,-0.047302,0.013275,1.001785,-0.006699,0.036695,-0.00866,61.679138,30.178558,-147.139069,,,
729706986.099863,0.382018,2.915377,121.188371,-0.047302,0.013275,1.001785,-0.006699,0.036695,-0.00866,61.679138,30.178558,-147.139069,,,
729706986.100655,0.382009,2.915344,-22.721801,-0.047302,0.013275,1.001785,-0.006699,0.036695,-0.00866,61.679138,30.178558,-147.139069,,,
729706986.103169,0.380717,2.925425,121.186143,-0.048462,0.011063,0.99884,-0.006699,0.036695,-0.00866,61.679138,30.178558,-147.139069,,,
729706986.104345,0.380707,2.925392,-22.724025,-0.048462,0.011063,0.99884,-0.006699,0.036695,-0.00866,61.679138,30.178558,-147.139069,,,
729706986.1065,0.380717,2.925425,121.186143,-0.048462,0.011063,0.99884,-0.006699,0.036695,-0.00866,61.679138,30.178558,-147.139069,,,
729706986.108199,0.381232,2.935425,-22.726141,-0.048462,0.011063,0.99884,-0.000233,0.038098,-0.007543,61.679138,30.178558,-147.139069,,,
729706986.1099,0.381241,2.935458,121.184026,-0.048462,0.011063,0.99884,-0.000233,0.038098,-0.007543,61.679138,30.178558,-147.139069,,,
729706986.110646,0.381232,2.935425,-22.726141,-0.048462,0.011063,0.99884,-0.000233,0.038098,-0.007543,61.679138,30.178558,-147.139069,,,
729706986.113165,0.380864,2.944984,121.183525,-0.056931,0.009338,0.993576,-0.000233,0.038098,-0.007543,61.679138,30.178558,-147.139069,,,
729706986.114447,0.380855,2.94495,-22.726646,-0.056931,0.009338,0.993576,-0.000233,0.038098,-0.007543,61.679138,30.178558,-147.139069,,,
729706986.116531,0.380864,2.944984,121.183525,-0.056931,0.009338,0.993576,-0.000233,0.038098,-0.007543,61.679138,30.178558,-147.139069,,,
729706986.11924,0.38023,2.953415,-22.72547,-0.056931,0.009338,0.993576,-0.006059,0.03017,0.003877,61.679138,30.178558,-147.139069,,,
729706986.119861,0.38024,2.953448,121.184695,-0.056931,0.009338,0.993576,-0.006059,0.03017,0.003877,61.679138,30.178558,-147.139069,,,
729706986.120654,0.38023,2.953415,-22.72547,-0.056931,0.009338,0.993576,-0.006059,0.03017,0.003877,61.679138,30.178558,-147.139069,,,
729706986.123161,0.377987,2.95996,121.187245,-0.062775,0.009201,0.989578,-0.006059,0.03017,0.003877,61.679138,30.178558,-147.139069,,,
729706986.124575,0.377977,2.959927,-22.722921,-0.062775,0.009201,0.989578,-0.006059,0.03017,0.003877,61.679138,30.178558,-147.139069,,,
729706986.126503,0.377987,2.95996,121.187245,-0.062775,0.009201,0.989578,-0.006059,0.03017,0.003877,61.679138,30.178558,-147.139069,,,
729706986.128282,0.374805,2.96428,-22.718992,-0.062775,0.009201,0.989578,-0.015624,0.013989,0.013009,61.679138,30.178558,-147.139069,,,
729706986.129862,0.374815,2.964313,121.191173,-0.062775,0.009201,0.989578,-0.015624,0.013989,0.013009,61.679138,30.178558,-147.139069,,,
729706986.130645,0.374805,2.96428,-22.718992,-0.062775,0.009201,0.989578,-0.015624,0.013989,0.013009,61.679138,30.178558,-147.139069,,,
729706986.133166,0.369666,2.966155,121.195756,-0.062698,0.015244,0.988663,-0.015624,0.013989,0.013009,61.679138,30.178558,-147.139069,,,
729706986.134731,0.369656,2.966122,-22.714428,-0.062698,0.015244,0.988663,-0.015624,0.013989,0.013009,61.679138,30.178558,-147.139069,,,
729706986.136503,0.369666,2.966155,121.195756,-0.062698,0.015244,0.988663,-0.015624,0.013989,0.013009,61.679138,30.178558,-147.139069,,,
729706986.13963,0.364197,2.966046,-22.709316,-0.062698,0.015244,0.988663,-0.020813,-0.002395,0.016586,61.701813,30.157074,-147.304581,,,
729706986.139943,0.364206,2.966079,121.200871,-0.062698,0.015244,0.988663,-0.020813,-0.002395,0.016586,61.701813,30.157074,-147.304581,,,
729706986.140696,0.364197,2.966046,-22.709316,-0.062698,0.015244,0.988663,-0.020813,-0.002395,0.016586,61.701813,30.157074,-147.304581,,,
729706986.143271,0.3582,2.963395,121.206228,-0.062668,0.01329,0.988586,-0.020813,-0.002395,0.016586,61.701813,30.157074,-147.304581,,,
729706986.144853,0.35819,2.963361,-22.703946,-0.062668,0.01329,0.988586,-0.020813,-0.002395,0.016586,61.701813,30.157074,-147.304581,,,
729706986.146541,0.3582,2.963395,121.206228,-0.062668,0.01329,0.988586,-0.020813,-0.002395,0.016586,61.701813,30.157074,-147.304581,,,
729706986.14812,0.351786,2.958529,-22.698493,-0.062668,0.01329,0.988586,-0.026191,-0.017676,0.016914,61.701813,30.157074,-147.304581,,,
729706986.149929,0.351796,2.958562,121.211675,-0.062668,0.01329,0.988586,-0.026191,-0.017676,0.016914,61.701813,30.157074,-147.304581,,,
729706986.150652,0.351786,2.958529,-22.698493,-0.062668,0.01329,0.988586,-0.026191,-0.017676,0.016914,61.701813,30.157074,-147.304581,,,
729706986.153165,0.344754,2.951399,121.216957,-0.061218,0.008545,0.99437,-0.026191,-0.017676,0.016914,61.701813,30.157074,-147.304581,,,
729706986.154882,0.344744,2.951366,-22.69321,-0.061218,0.008545,0.99437,-0.026191,-0.017676,0.016914,61.701813,30.157074,-147.304581,,,
729706986.15653,0.344754,2.951399,121.216957,-0.061218,0.008545,0.99437,-0.026191,-0.017676,0.016914,61.701813,30.157074,-147.304581,,,
729706986.158094,0.339412,2.941036,-22.688076,-0.061218,0.008545,0.99437,-0.018134,-0.033573,0.016297,61.701813,30.157074,-147.304581,,,
729706986.15992,0.339422,2.941069,121.222097,-0.061218,0.008545,0.99437,-0.018134,-0.033573,0.016297,61.701813,30.157074,-147.304581,,,
729706986.160645,0.339412,2.941036,-22.688076,-0.061218,0.008545,0.99437,-0.018134,-0.033573,0.016297,61.701813,30.157074,-147.304581,,,
729706986.163175,0.335338,2.929583,121.227264,-0.057419,0.005905,1.000168,-0.018134,-0.033573,0.016297,61.701813,30.157074,-147.304581,,,
729706986.164759,0.335329,2.92955,-22.682911,-0.057419,0.005905,1.000168,-0.018134,-0.033573,0.016297,61.701813,30.157074,-147.304581,,,
729706986.166525,0.335338,2.929583,121.227264,-0.057419,0.005905,1.000168,-0.018134,-0.033573,0.016297,61.701813,30.157074,-147.304581,,,
729706986.168391,0.334366,2.916518,-22.677947,-0.057419,0.005905,1.000168,-0.004255,-0.038185,0.015526,61.701813,30.157074,-147.304581,,,
729706986.169838,0.334375,2.916551,121.232227,-0.057419,0.005905,1.000168,-0.004255,-0.038185,0.015526,61.701813,30.157074,-147.304581,,,
729706986.170651,0.334366,2.916518,-22.677947,-0.057419,0.005905,1.000168,-0.004255,-0.038185,0.015526,61.701813,30.157074,-147.304581,,,
729706986.173166,0.33403,2.905809,121.237232,-0.052185,0.004364,1.007965,-0.004255,-0.038185,0.015526,61.701813,30.157074,-147.304581,,,
729706986.175133,0.33402,2.905775,-22.672939,-0.052185,0.004364,1.007965,-0.004255,-0.038185,0.015526,61.701813,30.157074,-147.304581,,,
729706986.176508,0.33403,2.905809,121.237232,-0.052185,0.004364,1.007965,-0.004255,-0.038185,0.015526,61.701813,30.157074,-147.304581,,,
729706986.179849,0.33402,2.897157,-22.66791,-0.052185,0.004364,1.007965,0.005885,-0.018856,0.016147,61.733902,30.202301,-147.062256,,,
729706986.180135,0.336156,2.89719,121.24226,-0.052185,0.004364,1.007965,0.005885,-0.018856,0.016147,61.733902,30.202301,-147.062256,,,
729706986.180984,0.336146,2.897157,-22.66791,-0.052185,0.004364,1.007965,0.005885,-0.018856,0.016147,61.733902,30.202301,-147.062256,,,
729706986.18318,0.338051,2.892283,121.24771,-0.046066,0.003555,1.012238,0.005885,-0.018856,0.016147,61.733902,30.202301,-147.062256,,,
729706986.184538,0.338041,2.89225,-22.662464,-0.046066,0.003555,1.012238,0.005885,-0.018856,0.016147,61.733902,30.202301,-147.062256,,,
729706986.186296,0.338051,2.892283,121.24771,-0.046066,0.003555,1.012238,0.005885,-0.018856,0.016147,61.733902,30.202301,-147.062256,,,
729706986.188492,0.340957,2.891117,-22.655973,-0.046066,0.003555,1.012238,0.00725,0.004267,0.023489,61.733902,30.202301,-147.062256,,,
729706986.189933,0.340966,2.89115,121.254201,-0.046066,0.003555,1.012238,0.00725,0.004267,0.023489,61.733902,30.202301,-147.062256,,,
729706986.190645,0.340957,2.891117,-22.655973,-0.046066,0.003555,1.012238,0.00725,0.004267,0.023489,61.733902,30.202301,-147.062256,,,
729706986.193175,0.343486,2.893207,121.261134,-0.042389,0.004791,1.010117,0.00725,0.004267,0.023489,61.733902,30.202301,-147.062256,,,
729706986.194464,0.343476,2.893174,-22.649045,-0.042389,0.004791,1.010117,0.00725,0.004267,0.023489,61.733902,30.202301,-147.062256,,,
729706986.196502,0.343486,2.893207,121.261134,-0.042389,0.004791,1.010117,0.00725,0.004267,0.023489,61.733902,30.202301,-147.062256,,,
729706986.198311,0.343476,2.900832,-22.641833,-0.042389,0.004791,1.010117,0.008695,0.028161,0.02571,61.733902,30.202301,-147.062256,,,
729706986.199858,0.346714,2.900865,121.268349,-0.042389,0.004791,1.010117,0.008695,0.028161,0.02571,61.733902,30.202301,-147.062256,,,
729706986.200983,0.346704,2.900832,-22.641833,-0.042389,0.004791,1.010117,0.008695,0.028161,0.02571,61.733902,30.202301,-147.062256,,,
729706986.203173,0.349516,2.910273,121.275295,-0.038849,0.007416,1.012024,0.008695,0.028161,0.02571,61.733902,30.202301,-147.062256,,,
729706986.204724,0.349506,2.91024,-22.634887,-0.038849,0.007416,1.012024,0.008695,0.028161,0.02571,61.733902,30.202301,-147.062256,,,
729706986.206523,0.349516,2.910273,121.275295,-0.038849,0.007416,1.012024,0.008695,0.028161,0.02571,61.733902,30.202301,-147.062256,,,
729706986.208293,0.35431,2.92511,-22.628697,-0.038849,0.007416,1.012024,0.015565,0.047402,0.020932,61.733902,30.202301,-147.062256,,,
729706986.209927,0.354319,2.925143,121.281487,-0.038849,0.007416,1.012024,0.015565,0.047402,0.020932,61.733902,30.202301,-147.062256,,,
729706986.210649,0.35431,2.92511,-22.628697,-0.038849,0.007416,1.012024,0.015565,0.047402,0.020932,61.733902,30.202301,-147.062256,,,
729706986.213162,0.359193,2.937955,121.28764,-0.041122,0.010574,1.01001,0.015565,0.047402,0.020932,61.733902,30.202301,-147.062256,,,
729706986.214908,0.359184,2.937922,-22.622546,-0.041122,0.010574,1.01001,0.015565,0.047402,0.020932,61.733902,30.202301,-147.062256,,,
729706986.216507,0.359193,2.937955,121.28764,-0.041122,0.010574,1.01001,0.015565,0.047402,0.020932,61.733902,30.202301,-147.062256,,,
729706986.2176,0.359184,2.937922,-22.622546,-0.041122,0.010574,1.01001,0.023894,0.044291,0.019277,61.733902,30.202301,-147.062256,,,
729706986.219857,0.366711,2.952438,121.293472,-0.041122,0.010574,1.01001,0.023894,0.044291,0.019277,61.733902,30.202301,-147.062256,,,
729706986.221892,0.366701,2.952405,-22.616714,-0.041122,0.010574,1.01001,0.023894,0.044291,0.019277,61.698837,30.088455,-147.222748,,,
729706986.223172,0.374147,2.963281,121.298615,-0.042862,0.010666,1.004257,0.023894,0.044291,0.019277,61.698837,30.088455,-147.222748,,,
729706986.224728,0.374137,2.963248,-22.611556,-0.042862,0.010666,1.004257,0.023894,0.044291,0.019277,61.698837,30.088455,-147.222748,,,
729706986.226506,0.374147,2.963281,121.298615,-0.042862,0.010666,1.004257,0.023894,0.044291,0.019277,61.698837,30.088455,-147.222748,,,
729706986.22811,0.374137,2.963248,-22.607692,-0.042862,0.010666,1.004257,0.033658,0.028906,0.010913,61.698837,30.088455,-147.222748,,,
729706986.229906,0.383491,2.974022,121.302478,-0.042862,0.010666,1.004257,0.033658,0.028906,0.010913,61.698837,30.088455,-147.222748,,,
729706986.23125,0.383481,2.973989,-22.607692,-0.042862,0.010666,1.004257,0.033658,0.028906,0.010913,61.698837,30.088455,-147.222748,,,
729706986.233169,0.393635,2.98041,121.30462,-0.043945,0.010269,0.995071,0.033658,0.028906,0.010913,61.698837,30.088455,-147.222748,,,
729706986.23459,0.393625,2.980377,-22.605546,-0.043945,0.010269,0.995071,0.033658,0.028906,0.010913,61.698837,30.088455,-147.222748,,,
729706986.236502,0.393635,2.98041,121.30462,-0.043945,0.010269,0.995071,0.033658,0.028906,0.010913,61.698837,30.088455,-147.222748,,,
729706986.238045,0.393625,2.980377,-22.605546,-0.043945,0.010269,0.995071,0.039637,0.014908,0.000834,61.698837,30.088455,-147.222748,,,
729706986.239866,0.404559,2.986317,121.305278,-0.043945,0.010269,0.995071,0.039637,0.014908,0.000834,61.698837,30.088455,-147.222748,,,
729706986.241518,0.404549,2.986284,-22.604907,-0.043945,0.010269,0.995071,0.039637,0.014908,0.000834,61.698837,30.088455,-147.222748,,,
729706986.243175,0.415358,2.988385,121.304832,-0.042831,0.012665,0.992264,0.039637,0.014908,0.000834,61.698837,30.088455,-147.222748,,,
729706986.244748,0.415348,2.988352,-22.605339,-0.042831,0.012665,0.992264,0.039637,0.014908,0.000834,61.698837,30.088455,-147.222748,,,
729706986.246524,0.415358,2.988385,121.304832,-0.042831,0.012665,0.992264,0.039637,0.014908,0.000834,61.698837,30.088455,-147.222748,,,
729706986.249056,0.415348,2.989071,-22.60636,-0.042831,0.012665,0.992264,0.030256,0.00232,-0.003731,61.698837,30.088455,-147.222748,,,
729706986.249868,0.424418,2.989104,121.303814,-0.042831,0.012665,0.992264,0.030256,0.00232,-0.003731,61.698837,30.088455,-147.222748,,,
729706986.25065,0.424408,2.989071,-22.60636,-0.042831,0.012665,0.992264,0.030256,0.00232,-0.003731,61.698837,30.088455,-147.222748,,,
729706986.253171,0.432515,2.98867,121.302443,-0.045349,0.014648,0.987793,0.030256,0.00232,-0.003731,61.698837,30.088455,-147.222748,,,
729706986.25459,0.432505,2.988636,-22.607736,-0.045349,0.014648,0.987793,0.030256,0.00232,-0.003731,61.698837,30.088455,-147.222748,,,
729706986.256577,0.432515,2.98867,121.302443,-0.045349,0.014648,0.987793,0.030256,0.00232,-0.003731,61.698837,30.088455,-147.222748,,,
729706986.257802,0.432505,2.988636,-22.607736,-0.045349,0.014648,0.987793,0.022249,0.000324,-0.005871,61.698837,30.088455,-147.222748,,,
729706986.259842,0.439058,2.987247,121.300822,-0.045349,0.014648,0.987793,0.022249,0.000324,-0.005871,61.698837,30.088455,-147.222748,,,
729706986.261438,0.439048,2.987214,-22.609359,-0.045349,0.014648,0.987793,0.022249,0.000324,-0.005871,61.541397,30.092499,-147.37323,,,
729706986.263175,0.444269,2.986911,121.299221,-0.048325,0.013351,0.985565,0.022249,0.000324,-0.005871,61.541397,30.092499,-147.37323,,,
729706986.263985,0.444259,2.986877,-22.610957,-0.048325,0.013351,0.985565,0.022249,0.000324,-0.005871,61.541397,30.092499,-147.37323,,,
729706986.266515,0.444269,2.986911,121.299221,-0.048325,0.013351,0.985565,0.022249,0.000324,-0.005871,61.541397,30.092499,-147.37323,,,
729706986.267962,0.444259,2.986877,-22.610957,-0.048325,0.013351,0.985565,0.009267,0.006644,-0.003159,61.541397,30.092499,-147.37323,,,
729706986.269841,0.447026,2.985648,121.298127,-0.048325,0.013351,0.985565,0.009267,0.006644,-0.003159,61.541397,30.092499,-147.37323,,,
729706986.270978,0.447017,2.985615,-22.612056,-0.048325,0.013351,0.985565,0.009267,0.006644,-0.003159,61.541397,30.092499,-147.37323,,,
729706986.273171,0.449062,2.987583,121.298169,-0.048904,0.01178,0.985794,0.009267,0.006644,-0.003159,61.541397,30.092499,-147.37323,,,
729706986.273983,0.449053,2.98755,-22.612009,-0.048904,0.01178,0.985794,0.009267,0.006644,-0.003159,61.541397,30.092499,-147.37323,,,
729706986.276588,0.449062,2.987583,121.298169,-0.048904,0.01178,0.985794,0.009267,0.006644,-0.003159,61.541397,30.092499,-147.37323,,,
729706986.277316,0.449053,2.98755,-22.612009,-0.048904,0.01178,0.985794,0.009267,0.006644,-0.003159,61.541397,30.092499,-147.37323,,,
729706986.27987,0.449927,2.989073,121.299864,-0.048904,0.01178,0.985794,0.002614,0.020413,0.007925,61.541397,30.092499,-147.37323,,,
729706986.282336,0.449917,2.98904,-22.610312,-0.048904,0.01178,0.985794,0.002614,0.020413,0.007925,61.541397,30.092499,-147.37323,,,
729706986.283187,0.450925,2.995773,121.302852,-0.051743,0.006943,0.989349,0.002614,0.020413,0.007925,61.541397,30.092499,-147.37323,,,
729706986.284356,0.450915,2.99574,-22.607319,-0.051743,0.006943,0.989349,0.002614,0.020413,0.007925,61.541397,30.092499,-147.37323,,,
729706986.286578,0.450925,2.995773,121.302852,-0.051743,0.006943,0.989349,0.002614,0.020413,0.007925,61.541397,30.092499,-147.37323,,,
729706986.287879,0.450915,2.99574,-22.607319,-0.051743,0.006943,0.989349,0.006607,0.034495,0.010923,61.541397,30.092499,-147.37323,,,
729706986.289851,0.452663,3.001868,121.306269,-0.051743,0.006943,0.989349,0.006607,0.034495,0.010923,61.541397,30.092499,-147.37323,,,
729706986.290895,0.452654,3.001835,-22.603907,-0.051743,0.006943,0.989349,0.006607,0.034495,0.010923,61.541397,30.092499,-147.37323,,,
729706986.293175,0.455212,3.010606,121.309971,-0.052994,0.004715,0.995392,0.006607,0.034495,0.010923,61.541397,30.092499,-147.37323,,,
729706986.295032,0.455203,3.010573,-22.600206,-0.052994,0.004715,0.995392,0.006607,0.034495,0.010923,61.541397,30.092499,-147.37323,,,
729706986.296579,0.455212,3.010606,121.309971,-0.052994,0.004715,0.995392,0.006607,0.034495,0.010923,61.541397,30.092499,-147.37323,,,
729706986.297327,0.455203,3.010573,-22.600206,-0.052994,0.004715,0.995392,0.006607,0.034495,0.010923,61.541397,30.092499,-147.37323,,,
729706986.299859,0.458319,3.01596,121.31436,-0.052994,0.004715,0.995392,0.006265,0.025154,0.015558,61.541397,30.092499,-147.37323,,,
729706986.301199,0.45831,3.015926,-22.595822,-0.052994,0.004715,0.995392,0.006265,0.025154,0.015558,61.541397,30.092499,-147.37323,,,
729706986.303173,0.459789,3.021669,121.319299,-0.057632,0.006699,0.991867,0.006265,0.025154,0.015558,61.788498,29.984161,-147.505981,,,
729706986.305394,0.45978,3.021636,-22.590884,-0.057632,0.006699,0.991867,0.006265,0.025154,0.015558,61.788498,29.984161,-147.505981,,,
729706986.306503,0.459789,3.021669,121.319299,-0.057632,0.006699,0.991867,0.006265,0.025154,0.015558,61.788498,29.984161,-147.505981,,,
729706986.307317,0.45978,3.021636,-22.590884,-0.057632,0.006699,0.991867,0.006265,0.025154,0.015558,61.788498,29.984161,-147.505981,,,
729706986.309836,0.460947,3.024286,121.323681,-0.057632,0.006699,0.991867,0.002063,0.016434,0.011455,61.788498,29.984161,-147.505981,,,
729706986.31133,0.460937,3.024253,-22.58649,-0.057632,0.006699,0.991867,0.002063,0.016434,0.011455,61.788498,29.984161,-147.505981,,,
729706986.313272,0.461531,3.027708,121.327356,-0.059616,0.009491,0.993622,0.002063,0.016434,0.011455,61.788498,29.984161,-147.505981,,,
729706986.314629,0.461521,3.027675,-22.582813,-0.059616,0.009491,0.993622,0.002063,0.016434,0.011455,61.788498,29.984161,-147.505981,,,
729706986.316541,0.461531,3.027708,121.327356,-0.059616,0.009491,0.993622,0.002063,0.016434,0.011455,61.788498,29.984161,-147.505981,,,
729706986.317357,0.461521,3.027675,-22.582813,-0.059616,0.009491,0.993622,0.002063,0.016434,0.011455,61.788498,29.984161,-147.505981,,,
729706986.319824,0.463005,3.028685,121.331211,-0.059616,0.009491,0.993622,0.00468,0.011906,0.012743,61.788498,29.984161,-147.505981,,,
729706986.320911,0.462995,3.028652,-22.578956,-0.059616,0.009491,0.993622,0.00468,0.011906,0.012743,61.788498,29.984161,-147.505981,,,
729706986.323169,0.464086,3.03074,121.33471,-0.057144,0.007568,0.998856,0.00468,0.011906,0.012743,61.788498,29.984161,-147.505981,,,
729706986.32423,0.464076,3.030707,-22.575457,-0.057144,0.007568,0.998856,0.00468,0.011906,0.012743,61.788498,29.984161,-147.505981,,,
729706986.326505,0.464086,3.03074,121.33471,-0.057144,0.007568,0.998856,0.00468,0.011906,0.012743,61.788498,29.984161,-147.505981,,,
729706986.327351,0.464076,3.030707,-22.575457,-0.057144,0.007568,0.998856,0.00468,0.011906,0.012743,61.788498,29.984161,-147.505981,,,
729706986.329839,0.46631,3.030165,121.337987,-0.057144,0.007568,0.998856,0.00565,0.005937,0.011,61.788498,29.984161,-147.505981,,,
729706986.331427,0.4663,3.030132,-22.572198,-0.057144,0.007568,0.998856,0.00565,0.005937,0.011,61.788498,29.984161,-147.505981,,,
729706986.333171,0.46792,3.030343,121.341562,-0.057632,0.002945,0.998016,0.00565,0.005937,0.011,61.788498,29.984161,-147.505981,,,
729706986.334223,0.467911,3.03031,-22.568623,-0.057632,0.002945,0.998016,0.00565,0.005937,0.011,61.788498,29.984161,-147.505981,,,
729706986.336503,0.46792,3.030343,121.341562,-0.057632,0.002945,0.998016,0.00565,0.005937,0.011,61.788498,29.984161,-147.505981,,,
729706986.337387,0.467911,3.03031,-22.568623,-0.057632,0.002945,0.998016,0.00565,0.005937,0.011,61.788498,29.984161,-147.505981,,,
729706986.339836,0.470869,3.02857,121.345967,-0.057632,0.002945,0.998016,0.00859,-0.000548,0.016847,61.788498,29.984161,-147.505981,,,
729706986.342419,0.470859,3.028537,-22.564217,-0.057632,0.002945,0.998016,0.00859,-0.000548,0.016847,61.788498,29.984161,-147.505981,,,
729706986.343264,0.47352,3.027494,121.351107,-0.057175,0.003204,1.001862,0.00859,-0.000548,0.016847,61.69902,30.062668,-147.222763,,,
729706986.344647,0.47351,3.027461,-22.559079,-0.057175,0.003204,1.001862,0.00859,-0.000548,0.016847,61.69902,30.062668,-147.222763,,,
729706986.346522,0.47352,3.027494,121.351107,-0.057175,0.003204,1.001862,0.00859,-0.000548,0.016847,61.69902,30.062668,-147.222763,,,
729706986.347364,0.47351,3.027461,-22.559079,-0.057175,0.003204,1.001862,0.00859,-0.000548,0.016847,61.69902,30.062668,-147.222763,,,
729706986.349921,0.476949,3.025943,121.356373,-0.057175,0.003204,1.001862,0.007989,0.001082,0.017752,61.69902,30.062668,-147.222763,,,
729706986.3525,0.47694,3.02591,-22.553799,-0.057175,0.003204,1.001862,0.007989,0.001082,0.017752,61.69902,30.062668,-147.222763,,,
729706986.353193,0.479626,3.025923,121.362292,-0.054749,0.005173,1.004944,0.007989,0.001082,0.017752,61.69902,30.062668,-147.222763,,,
729706986.354454,0.479616,3.02589,-22.547877,-0.054749,0.005173,1.004944,0.007989,0.001082,0.017752,61.69902,30.062668,-147.222763,,,
729706986.356533,0.479626,3.025923,121.362292,-0.054749,0.005173,1.004944,0.007989,0.001082,0.017752,61.69902,30.062668,-147.222763,,,
729706986.357354,0.479616,3.02589,-22.547877,-0.054749,0.005173,1.004944,0.007989,0.001082,0.017752,61.69902,30.062668,-147.222763,,,
729706986.359911,0.482545,3.025918,121.368396,-0.054749,0.005173,1.004944,0.008512,0.004301,0.019014,61.69902,30.062668,-147.222763,,,
729706986.360934,0.482535,3.025885,-22.541772,-0.054749,0.005173,1.004944,0.008512,0.004301,0.019014,61.69902,30.062668,-147.222763,,,
729706986.363173,0.484973,3.026358,121.374149,-0.051468,0.007568,1.005325,0.008512,0.004301,0.019014,61.69902,30.062668,-147.222763,,,
729706986.364235,0.484963,3.026325,-22.536018,-0.051468,0.007568,1.005325,0.008512,0.004301,0.019014,61.69902,30.062668,-147.222763,,,
729706986.366523,0.484973,3.026358,121.374149,-0.051468,0.007568,1.005325,0.008512,0.004301,0.019014,61.69902,30.062668,-147.222763,,,
729706986.367346,0.484963,3.026325,-22.536018,-0.051468,0.007568,1.005325,0.008512,0.004301,0.019014,61.69902,30.062668,-147.222763,,,
729706986.369837,0.486504,3.026908,121.379353,-0.051468,0.007568,1.005325,0.006126,0.005681,0.015038,61.69902,30.062668,-147.222763,,,
729706986.371437,0.486494,3.026874,-22.530817,-0.051468,0.007568,1.005325,0.006126,0.005681,0.015038,61.69902,30.062668,-147.222763,,,
729706986.373171,0.487723,3.027485,121.383892,-0.048233,0.006454,1.006485,0.006126,0.005681,0.015038,61.69902,30.062668,-147.222763,,,
729706986.373981,0.487713,3.027452,-22.526274,-0.048233,0.006454,1.006485,0.006126,0.005681,0.015038,61.69902,30.062668,-147.222763,,,
729706986.376501,0.487723,3.027485,121.383892,-0.048233,0.006454,1.006485,0.006126,0.005681,0.015038,61.69902,30.062668,-147.222763,,,
729706986.377353,0.487713,3.027452,-22.526274,-0.048233,0.006454,1.006485,0.006126,0.005681,0.015038,61.69902,30.062668,-147.222763,,,
729706986.379834,0.4885,3.028582,121.388011,-0.048233,0.006454,1.006485,0.006405,0.006866,0.012042,61.69902,30.062668,-147.222763,,,
729706986.38114,0.48849,3.028549,-22.522176,-0.048233,0.006454,1.006485,0.006405,0.006866,0.012042,61.69902,30.062668,-147.222763,,,
729706986.383167,0.490641,3.029262,121.391249,-0.046356,0.003738,1.008911,0.006405,0.006866,0.012042,61.69902,30.062668,-147.222763,,,
729706986.384833,0.490631,3.029229,-22.518936,-0.046356,0.003738,1.008911,0.006405,0.006866,0.012042,61.687851,30.196915,-147.324722,,,
729706986.386334,0.490641,3.029262,121.391249,-0.046356,0.003738,1.008911,0.006405,0.006866,0.012042,61.687851,30.196915,-147.324722,,,
729706986.387374,0.490631,3.029229,-22.518936,-0.046356,0.003738,1.008911,0.006405,0.006866,0.012042,61.687851,30.196915,-147.324722,,,
729706986.389902,0.493485,3.030071,121.393445,-0.046356,0.003738,1.008911,0.011576,-0.002031,0.005177,61.687851,30.196915,-147.324722,,,
729706986.391896,0.493475,3.030038,-22.516726,-0.046356,0.003738,1.008911,0.011576,-0.002031,0.005177,61.687851,30.196915,-147.324722,,,
729706986.393188,0.496974,3.028219,121.394955,-0.045395,0.002899,1.007217,0.011576,-0.002031,0.005177,61.687851,30.196915,-147.324722,,,
729706986.394382,0.496964,3.028186,-22.515216,-0.045395,0.002899,1.007217,0.011576,-0.002031,0.005177,61.687851,30.196915,-147.324722,,,
729706986.396531,0.496974,3.028219,121.394955,-0.045395,0.002899,1.007217,0.011576,-0.002031,0.005177,61.687851,30.196915,-147.324722,,,
729706986.397351,0.496964,3.028186,-22.515216,-0.045395,0.002899,1.007217,0.011576,-0.002031,0.005177,61.687851,30.196915,-147.324722,,,
729706986.399838,0.501779,3.026662,121.395993,-0.045395,0.002899,1.007217,0.019805,-0.006929,0.002359,61.687851,30.196915,-147.324722,,,
729706986.401537,0.501769,3.026628,-22.514177,-0.045395,0.002899,1.007217,0.019805,-0.006929,0.002359,61.687851,30.196915,-147.324722,,,
729706986.403168,0.5078,3.024234,121.396251,-0.041916,0.007874,1.010666,0.019805,-0.006929,0.002359,61.687851,30.196915,-147.324722,,,
729706986.405027,0.50779,3.024201,-22.513922,-0.041916,0.007874,1.010666,0.019805,-0.006929,0.002359,61.687851,30.196915,-147.324722,,,
729706986.406523,0.5078,3.024234,121.396251,-0.041916,0.007874,1.010666,0.019805,-0.006929,0.002359,61.687851,30.196915,-147.324722,,,
729706986.407307,0.50779,3.024201,-22.513922,-0.041916,0.007874,1.010666,0.019805,-0.006929,0.002359,61.687851,30.196915,-147.324722,,,
729706986.409916,0.514239,3.023059,121.395475,-0.041916,0.007874,1.010666,0.026278,-0.004545,-0.004435,61.687851,30.196915,-147.324722,,,
729706986.412247,0.514229,3.023026,-22.514696,-0.041916,0.007874,1.010666,0.026278,-0.004545,-0.004435,61.687851,30.196915,-147.324722,,,
729706986.413193,0.52233,3.021726,121.393984,-0.040405,0.013779,1.012589,0.026278,-0.004545,-0.004435,61.687851,30.196915,-147.324722,,,
729706986.414601,0.52232,3.021693,-22.516186,-0.040405,0.013779,1.012589,0.026278,-0.004545,-0.004435,61.687851,30.196915,-147.324722,,,
729706986.416585,0.52233,3.021726,121.393984,-0.040405,0.013779,1.012589,0.026278,-0.004545,-0.004435,61.687851,30.196915,-147.324722,,,
729706986.417309,0.52232,3.021693,-22.516186,-0.040405,0.013779,1.012589,0.026278,-0.004545,-0.004435,61.687851,30.196915,-147.324722,,,
729706986.419827,0.530314,3.022596,121.391815,-0.040405,0.013779,1.012589,0.033576,0.004939,-0.008717,61.687851,30.196915,-147.324722,,,
729706986.422334,0.530304,3.022563,-22.518351,-0.040405,0.013779,1.012589,0.033576,0.004939,-0.008717,61.687851,30.196915,-147.324722,,,
729706986.423189,0.539598,3.023064,121.388783,-0.039215,0.01181,1.009155,0.033576,0.004939,-0.008717,61.687851,30.196915,-147.324722,,,
729706986.424404,0.539588,3.02303,-22.521398,-0.039215,0.01181,1.009155,0.033576,0.004939,-0.008717,61.687851,30.196915,-147.324722,,,
729706986.426508,0.539598,3.023064,121.388783,-0.039215,0.01181,1.009155,0.033576,0.004939,-0.008717,61.700974,30.019531,-147.386383,,,
729706986.428048,0.539588,3.02303,-22.521398,-0.039215,0.01181,1.009155,0.033576,0.004939,-0.008717,61.700974,30.019531,-147.386383,,,
729706986.429837,0.547961,3.024262,121.38475,-0.039215,0.01181,1.009155,0.033432,0.005607,-0.01561,61.700974,30.019531,-147.386383,,,
729706986.431627,0.547951,3.024229,-22.525433,-0.039215,0.01181,1.009155,0.033432,0.005607,-0.01561,61.700974,30.019531,-147.386383,,,
729706986.433182,0.557474,3.025156,121.380063,-0.043442,0.014496,1.005386,0.033432,0.005607,-0.01561,61.700974,30.019531,-147.386383,,,
729706986.434614,0.557464,3.025123,-22.530121,-0.043442,0.014496,1.005386,0.033432,0.005607,-0.01561,61.700974,30.019531,-147.386383,,,
729706986.436504,0.557474,3.025156,121.380063,-0.043442,0.014496,1.005386,0.033432,0.005607,-0.01561,61.700974,30.019531,-147.386383,,,
729706986.437311,0.557464,3.025123,-22.530121,-0.043442,0.014496,1.005386,0.033432,0.005607,-0.01561,61.700974,30.019531,-147.386383,,,
729706986.439833,0.56674,3.025879,121.374807,-0.043442,0.014496,1.005386,0.035049,0.004743,-0.019486,61.700974,30.019531,-147.386383,,,
729706986.441674,0.56673,3.025846,-22.535377,-0.043442,0.014496,1.005386,0.035049,0.004743,-0.019486,61.700974,30.019531,-147.386383,,,
729706986.443167,0.576897,3.02629,121.369428,-0.047607,0.012131,1.007095,0.035049,0.004743,-0.019486,61.700974,30.019531,-147.386383,,,
729706986.444538,0.576887,3.026257,-22.540756,-0.047607,0.012131,1.007095,0.035049,0.004743,-0.019486,61.700974,30.019531,-147.386383,,,
729706986.446531,0.576897,3.02629,121.369428,-0.047607,0.012131,1.007095,0.035049,0.004743,-0.019486,61.700974,30.019531,-147.386383,,,
729706986.447311,0.576887,3.026257,-22.540756,-0.047607,0.012131,1.007095,0.035049,0.004743,-0.019486,61.700974,30.019531,-147.386383,,,
729706986.44984,0.587564,3.025243,121.364174,-0.047607,0.012131,1.007095,0.040984,-0.00039,-0.018374,61.700974,30.019531,-147.386383,,,
729706986.452368,0.587555,3.02521,-22.546011,-0.047607,0.012131,1.007095,0.040984,-0.00039,-0.018374,61.700974,30.019531,-147.386383,,,
729706986.452949,0.59941,3.024774,121.358708,-0.052475,0.009125,1.005676,0.040984,-0.00039,-0.018374,61.700974,30.019531,-147.386383,,,
729706986.454731,0.5994,3.02474,-22.551478,-0.052475,0.009125,1.005676,0.040984,-0.00039,-0.018374,61.700974,30.019531,-147.386383,,,
729706986.456528,0.59941,3.024774,121.358708,-0.052475,0.009125,1.005676,0.040984,-0.00039,-0.018374,61.700974,30.019531,-147.386383,,,
729706986.457316,0.5994,3.02474,-22.551478,-0.052475,0.009125,1.005676,0.040984,-0.00039,-0.018374,61.700974,30.019531,-147.386383,,,
729706986.459841,0.611399,3.023603,121.353311,-0.052475,0.009125,1.005676,0.048284,0.003278,-0.017533,61.700974,30.019531,-147.386383,,,
729706986.462608,0.611389,3.02357,-22.556874,-0.052475,0.009125,1.005676,0.048284,0.003278,-0.017533,61.700974,30.019531,-147.386383,,,
729706986.463187,0.624847,3.023908,121.348734,-0.056015,0.009171,1.003754,0.048284,0.003278,-0.017533,61.700974,30.019531,-147.386383,,,
729706986.464786,0.624838,3.023875,-22.561449,-0.056015,0.009171,1.003754,0.048284,0.003278,-0.017533,61.700974,30.019531,-147.386383,,,
729706986.466508,0.624847,3.023908,121.348734,-0.056015,0.009171,1.003754,0.048284,0.003278,-0.017533,61.706589,29.939728,-147.468094,,,
729706986.468035,0.624838,3.023875,-22.561449,-0.056015,0.009171,1.003754,0.048284,0.003278,-0.017533,61.706589,29.939728,-147.468094,,,
729706986.469841,0.63712,3.023171,121.345316,-0.056015,0.009171,1.003754,0.047194,0.005407,-0.009706,61.706589,29.939728,-147.468094,,,
729706986.471389,0.637111,3.023137,-22.564868,-0.056015,0.009171,1.003754,0.047194,0.005407,-0.009706,61.706589,29.939728,-147.468094,,,
729706986.473173,0.65062,3.023971,121.34229,-0.056,0.009247,1.001724,0.047194,0.005407,-0.009706,61.706589,29.939728,-147.468094,,,
729706986.474529,0.65061,3.023938,-22.567897,-0.056,0.009247,1.001724,0.047194,0.005407,-0.009706,61.706589,29.939728,-147.468094,,,
729706986.476593,0.65062,3.023971,121.34229,-0.056,0.009247,1.001724,0.047194,0.005407,-0.009706,61.706589,29.939728,-147.468094,,,
729706986.477311,0.65061,3.023938,-22.567897,-0.056,0.009247,1.001724,0.047194,0.005407,-0.009706,61.706589,29.939728,-147.468094,,,
729706986.479838,0.663066,3.022821,121.339981,-0.056,0.009247,1.001724,0.046986,0.005297,-0.004868,61.706589,29.939728,-147.468094,,,
729706986.481304,0.663056,3.022788,-22.570206,-0.056,0.009247,1.001724,0.046986,0.005297,-0.004868,61.706589,29.939728,-147.468094,,,
729706986.483171,0.676042,3.02338,121.338111,-0.057953,0.012329,1.000412,0.046986,0.005297,-0.004868,61.706589,29.939728,-147.468094,,,
729706986.484338,0.676032,3.023347,-22.572077,-0.057953,0.012329,1.000412,0.046986,0.005297,-0.004868,61.706589,29.939728,-147.468094,,,
729706986.486502,0.676042,3.02338,121.338111,-0.057953,0.012329,1.000412,0.046986,0.005297,-0.004868,61.706589,29.939728,-147.468094,,,
729706986.487308,0.676032,3.023347,-22.572077,-0.057953,0.012329,1.000412,0.046986,0.005297,-0.004868,61.706589,29.939728,-147.468094,,,
729706986.489903,0.688355,3.021428,121.336194,-0.057953,0.012329,1.000412,0.043136,0.003896,-0.005516,61.706589,29.939728,-147.468094,,,
729706986.491597,0.688345,3.021395,-22.57398,-0.057953,0.012329,1.000412,0.043136,0.003896,-0.005516,61.706589,29.939728,-147.468094,,,
729706986.493267,0.700167,3.02178,121.334178,-0.056976,0.015656,0.996918,0.043136,0.003896,-0.005516,61.706589,29.939728,-147.468094,,,
729706986.494801,0.700157,3.021746,-22.575995,-0.056976,0.015656,0.996918,0.043136,0.003896,-0.005516,61.706589,29.939728,-147.468094,,,
729706986.49654,0.700167,3.02178,121.334178,-0.056976,0.015656,0.996918,0.043136,0.003896,-0.005516,61.706589,29.939728,-147.468094,,,
729706986.497314,0.700157,3.021746,-22.575995,-0.056976,0.015656,0.996918,0.043136,0.003896,-0.005516,61.706589,29.939728,-147.468094,,,
729706986.499851,0.711576,3.019238,121.331867,-0.056976,0.015656,0.996918,0.039479,0.001961,-0.007947,61.706589,29.939728,-147.468094,,,
729706986.501001,0.711567,3.019205,-22.578309,-0.056976,0.015656,0.996918,0.039479,0.001961,-0.007947,61.706589,29.939728,-147.468094,,,
729706986.503002,0.723022,3.018272,121.3295,-0.058365,0.012451,0.993851,0.039479,0.001961,-0.007947,61.706589,29.939728,-147.468094,,,
729706986.504757,0.723012,3.018238,-22.580674,-0.058365,0.012451,0.993851,0.039479,0.001961,-0.007947,61.706589,29.939728,-147.468094,,,
729706986.506559,0.723022,3.018272,121.3295,-0.058365,0.012451,0.993851,0.039479,0.001961,-0.007947,61.706589,29.939728,-147.468094,,,
729706986.508114,0.723012,3.018238,-22.580674,-0.058365,0.012451,0.993851,0.039479,0.001961,-0.007947,61.869568,30.111191,-147.545502,,,
729706986.509849,0.734891,3.013183,121.327385,-0.058365,0.012451,0.993851,0.042566,-0.008719,-0.006303,61.869568,30.111191,-147.545502,,,
729706986.512563,0.734882,3.01315,-22.582795,-0.058365,0.012451,0.993851,0.042566,-0.008719,-0.006303,61.869568,30.111191,-147.545502,,,
729706986.513185,0.746362,3.009499,121.325725,-0.058655,0.007401,0.991562,0.042566,-0.008719,-0.006303,61.869568,30.111191,-147.545502,,,
729706986.514355,0.746352,3.009466,-22.58446,-0.058655,0.007401,0.991562,0.042566,-0.008719,-0.006303,61.869568,30.111191,-147.545502,,,
729706986.516587,0.746362,3.009499,121.325725,-0.058655,0.007401,0.991562,0.042566,-0.008719,-0.006303,61.869568,30.111191,-147.545502,,,
729706986.517312,0.746352,3.009466,-22.58446,-0.058655,0.007401,0.991562,0.042566,-0.008719,-0.006303,61.869568,30.111191,-147.545502,,,
729706986.519839,0.757135,3.003124,121.324535,-0.058655,0.007401,0.991562,0.037413,-0.017794,-0.003409,61.869568,30.111191,-147.545502,,,
729706986.521931,0.757126,3.003091,-22.585649,-0.058655,0.007401,0.991562,0.037413,-0.017794,-0.003409,61.869568,30.111191,-147.545502,,,
729706986.523172,0.766597,2.996339,121.324231,-0.061691,0.007141,0.986145,0.037413,-0.017794,-0.003409,61.869568,30.111191,-147.545502,,,
729706986.524313,0.766587,2.996305,-22.585951,-0.061691,0.007141,0.986145,0.037413,-0.017794,-0.003409,61.869568,30.111191,-147.545502,,,
729706986.526506,0.766597,2.996339,121.324231,-0.061691,0.007141,0.986145,0.037413,-0.017794,-0.003409,61.869568,30.111191,-147.545502,,,
729706986.52731,0.766587,2.996305,-22.585951,-0.061691,0.007141,0.986145,0.037413,-0.017794,-0.003409,61.869568,30.111191,-147.545502,,,
729706986.529874,0.77301,2.986749,121.325398,-0.061691,0.007141,0.986145,0.019246,-0.032814,0.005733,61.869568,30.111191,-147.545502,,,
729706986.532761,0.773,2.986716,-22.584785,-0.061691,0.007141,0.986145,0.019246,-0.032814,0.005733,61.869568,30.111191,-147.545502,,,
729706986.533191,0.776894,2.976249,121.326904,-0.059204,0.010971,0.980438,0.019246,-0.032814,0.005733,61.869568,30.111191,-147.545502,,,
729706986.534845,0.776884,2.976216,-22.583284,-0.059204,0.010971,0.980438,0.019246,-0.032814,0.005733,61.869568,30.111191,-147.545502,,,
729706986.536508,0.776894,2.976249,121.326904,-0.059204,0.010971,0.980438,0.019246,-0.032814,0.005733,61.869568,30.111191,-147.545502,,,
729706986.537321,0.776884,2.976216,-22.583284,-0.059204,0.010971,0.980438,0.019246,-0.032814,0.005733,61.869568,30.111191,-147.545502,,,
729706986.53984,0.7778,2.965363,121.328617,-0.059204,0.010971,0.980438,0.003507,-0.039406,0.006527,61.869568,30.111191,-147.545502,,,
729706986.541592,0.77779,2.96533,-22.581555,-0.059204,0.010971,0.980438,0.003507,-0.039406,0.006527,61.869568,30.111191,-147.545502,,,
729706986.543249,0.777543,2.953456,121.331586,-0.055008,0.011322,0.98082,0.003507,-0.039406,0.006527,61.869568,30.111191,-147.545502,,,
729706986.544364,0.777533,2.953423,-22.578587,-0.055008,0.011322,0.98082,0.003507,-0.039406,0.006527,61.869568,30.111191,-147.545502,,,
729706986.546584,0.777543,2.953456,121.331586,-0.055008,0.011322,0.98082,0.003507,-0.039406,0.006527,61.869568,30.111191,-147.545502,,,
729706986.548098,0.777533,2.953423,-22.578587,-0.055008,0.011322,0.98082,0.003507,-0.039406,0.006527,61.929993,30.034927,-146.913513,,,
729706986.549852,0.774809,2.94271,121.335174,-0.055008,0.011322,0.98082,-0.007696,-0.037431,0.010291,61.929993,30.034927,-146.913513,,,
729706986.552496,0.774799,2.942677,-22.575002,-0.055008,0.011322,0.98082,-0.007696,-0.037431,0.010291,61.929993,30.034927,-146.913513,,,
729706986.552951,0.772742,2.931358,121.338272,-0.049789,0.010315,0.984253,-0.007696,-0.037431,0.010291,61.929993,30.034927,-146.913513,,,
729706986.554803,0.772732,2.931325,-22.571907,-0.049789,0.010315,0.984253,-0.007696,-0.037431,0.010291,61.929993,30.034927,-146.913513,,,
729706986.556511,0.772742,2.931358,121.338272,-0.049789,0.010315,0.984253,-0.007696,-0.037431,0.010291,61.929993,30.034927,-146.913513,,,
729706986.557312,0.772732,2.931325,-22.571907,-0.049789,0.010315,0.984253,-0.007696,-0.037431,0.010291,61.929993,30.034927,-146.913513,,,
729706986.559924,0.769648,2.921481,121.340902,-0.049789,0.010315,0.984253,-0.0123,-0.034431,0.006898,61.929993,30.034927,-146.913513,,,
729706986.561276,0.769638,2.921447,-22.569275,-0.049789,0.010315,0.984253,-0.0123,-0.034431,0.006898,61.929993,30.034927,-146.913513,,,
729706986.563174,0.766022,2.911638,121.343037,-0.045944,0.008865,0.985413,-0.0123,-0.034431,0.006898,61.929993,30.034927,-146.913513,,,
729706986.564556,0.766012,2.911604,-22.567143,-0.045944,0.008865,0.985413,-0.0123,-0.034431,0.006898,61.929993,30.034927,-146.913513,,,
729706986.566579,0.766022,2.911638,121.343037,-0.045944,0.008865,0.985413,-0.0123,-0.034431,0.006898,61.929993,30.034927,-146.913513,,,
729706986.567307,0.766012,2.911604,-22.567143,-0.045944,0.008865,0.985413,-0.0123,-0.034431,0.006898,61.929993,30.034927,-146.913513,,,
729706986.569838,0.762285,2.904673,121.344212,-0.045944,0.008865,0.985413,-0.013816,-0.024197,0.000226,61.929993,30.034927,-146.913513,,,
729706986.571703,0.762275,2.90464,-22.565972,-0.045944,0.008865,0.985413,-0.013816,-0.024197,0.000226,61.929993,30.034927,-146.913513,,,
729706986.573172,0.757789,2.898168,121.344833,-0.04335,0.011185,0.984909,-0.013816,-0.024197,0.000226,61.929993,30.034927,-146.913513,,,
729706986.574428,0.757779,2.898135,-22.565353,-0.04335,0.011185,0.984909,-0.013816,-0.024197,0.000226,61.929993,30.034927,-146.913513,,,
729706986.57663,0.757789,2.898168,121.344833,-0.04335,0.011185,0.984909,-0.013816,-0.024197,0.000226,61.929993,30.034927,-146.913513,,,
729706986.577323,0.757779,2.898135,-22.565353,-0.04335,0.011185,0.984909,-0.013816,-0.024197,0.000226,61.929993,30.034927,-146.913513,,,
729706986.579831,0.752903,2.895348,121.34491,-0.04335,0.011185,0.984909,-0.018575,-0.00805,-0.003658,61.929993,30.034927,-146.913513,,,
729706986.582669,0.752893,2.895315,-22.56527,-0.04335,0.011185,0.984909,-0.018575,-0.00805,-0.003658,61.929993,30.034927,-146.913513,,,
729706986.58319,0.747415,2.89299,121.345104,-0.039413,0.011017,0.987015,-0.018575,-0.00805,-0.003658,61.929993,30.034927,-146.913513,,,
729706986.584574,0.747406,2.892957,-22.565076,-0.039413,0.011017,0.987015,-0.018575,-0.00805,-0.003658,61.929993,30.034927,-146.913513,,,
729706986.586374,0.747415,2.89299,121.345104,-0.039413,0.011017,0.987015,-0.018575,-0.00805,-0.003658,61.929993,30.034927,-146.913513,,,
729706986.58734,0.747406,2.892957,-22.565076,-0.039413,0.011017,0.987015,-0.018575,-0.00805,-0.003658,61.929993,30.034927,-146.913513,,,
729706986.589834,0.741765,2.894197,121.345553,-0.039413,0.011017,0.987015,-0.016087,0.004558,-0.00155,61.651337,30.239639,-146.940399,,,
729706986.592985,0.741756,2.894164,-22.564629,-0.039413,0.011017,0.987015,-0.016087,0.004558,-0.00155,61.651337,30.239639,-146.940399,,,
729706986.593469,0.736642,2.894801,121.345634,-0.037766,0.011261,0.986282,-0.016087,0.004558,-0.00155,61.651337,30.239639,-146.940399,,,
729706986.593972,0.736632,2.894768,-22.564548,-0.037766,0.011261,0.986282,-0.016087,0.004558,-0.00155,61.651337,30.239639,-146.940399,,,
729706986.596504,0.736642,2.894801,121.345634,-0.037766,0.011261,0.986282,-0.016087,0.004558,-0.00155,61.651337,30.239639,-146.940399,,,
729706986.597314,0.736632,2.894768,-22.564548,-0.037766,0.011261,0.986282,-0.016087,0.004558,-0.00155,61.651337,30.239639,-146.940399,,,
729706986.599836,0.729936,2.898527,121.345649,-0.037766,0.011261,0.986282,-0.019611,0.013226,-0.002004,61.651337,30.239639,-146.940399,,,
729706986.601531,0.729926,2.898494,-22.564535,-0.037766,0.011261,0.986282,-0.019611,0.013226,-0.002004,61.651337,30.239639,-146.940399,,,
729706986.603163,0.723848,2.902206,121.345503,-0.041428,0.012146,0.985474,-0.019611,0.013226,-0.002004,61.651337,30.239639,-146.940399,,,
729706986.604316,0.723838,2.902173,-22.564668,-0.041428,0.012146,0.985474,-0.019611,0.013226,-0.002004,61.651337,30.239639,-146.940399,,,
729706986.606521,0.723848,2.902206,121.345503,-0.041428,0.012146,0.985474,-0.019611,0.013226,-0.002004,61.651337,30.239639,-146.940399,,,
729706986.60731,0.723838,2.902173,-22.564668,-0.041428,0.012146,0.985474,-0.019611,0.013226,-0.002004,61.651337,30.239639,-146.940399,,,
729706986.609922,0.716685,2.909885,121.344837,-0.041428,0.012146,0.985474,-0.023524,0.024554,-0.005706,61.651337,30.239639,-146.940399,,,
729706986.611772,0.716675,2.909852,-22.565334,-0.041428,0.012146,0.985474,-0.023524,0.024554,-0.005706,61.651337,30.239639,-146.940399,,,
729706986.613167,0.709762,2.916849,121.343719,-0.04538,0.01207,0.984039,-0.023524,0.024554,-0.005706,61.651337,30.239639,-146.940399,,,
729706986.615045,0.709752,2.916816,-22.566458,-0.04538,0.01207,0.984039,-0.023524,0.024554,-0.005706,61.651337,30.239639,-146.940399,,,
729706986.61658,0.709762,2.916849,121.343719,-0.04538,0.01207,0.984039,-0.023524,0.024554,-0.005706,61.651337,30.239639,-146.940399,,,
729706986.617318,0.709752,2.916816,-22.566458,-0.04538,0.01207,0.984039,-0.023524,0.024554,-0.005706,61.651337,30.239639,-146.940399,,,
729706986.619827,0.702803,2.925895,121.342647,-0.04538,0.01207,0.984039,-0.023044,0.029532,-0.005228,61.651337,30.239639,-146.940399,,,
729706986.621475,0.702793,2.925862,-22.567531,-0.04538,0.01207,0.984039,-0.023044,0.029532,-0.005228,61.651337,30.239639,-146.940399,,,
729706986.62316,0.695737,2.933293,121.341948,-0.050079,0.008606,0.984924,-0.023044,0.029532,-0.005228,61.651337,30.239639,-146.940399,,,
729706986.624003,0.695728,2.93326,-22.568232,-0.050079,0.008606,0.984924,-0.023044,0.029532,-0.005228,61.651337,30.239639,-146.940399,,,
729706986.626496,0.695737,2.933293,121.341948,-0.050079,0.008606,0.984924,-0.023044,0.029532,-0.005228,61.651337,30.239639,-146.940399,,,
729706986.627308,0.695728,2.93326,-22.568232,-0.050079,0.008606,0.984924,-0.023044,0.029532,-0.005228,61.651337,30.239639,-146.940399,,,
729706986.629826,0.68833,2.939914,121.341325,-0.050079,0.008606,0.984924,-0.02417,0.020977,-0.004687,61.970749,30.06456,-146.965744,,,
729706986.632438,0.68832,2.939881,-22.568853,-0.050079,0.008606,0.984924,-0.02417,0.020977,-0.004687,61.970749,30.06456,-146.965744,,,
729706986.633174,0.681421,2.944461,121.340751,-0.051224,0.010651,0.983902,-0.02417,0.020977,-0.004687,61.970749,30.06456,-146.965744,,,
729706986.63431,0.681411,2.944428,-22.569427,-0.051224,0.010651,0.983902,-0.02417,0.020977,-0.004687,61.970749,30.06456,-146.965744,,,
729706986.636499,0.681421,2.944461,121.340751,-0.051224,0.010651,0.983902,-0.02417,0.020977,-0.004687,61.970749,30.06456,-146.965744,,,
729706986.637311,0.681411,2.944428,-22.569427,-0.051224,0.010651,0.983902,-0.02417,0.020977,-0.004687,61.970749,30.06456,-146.965744,,,
729706986.639827,0.674597,2.94686,121.339902,-0.051224,0.010651,0.983902,-0.021634,0.009705,-0.00659,61.970749,30.06456,-146.965744,,,
729706986.641885,0.674587,2.946827,-22.570282,-0.051224,0.010651,0.983902,-0.021634,0.009705,-0.00659,61.970749,30.06456,-146.965744,,,
729706986.643159,0.668143,2.948441,121.33891,-0.051727,0.014938,0.983643,-0.021634,0.009705,-0.00659,61.970749,30.06456,-146.965744,,,
729706986.643987,0.668133,2.948408,-22.571262,-0.051727,0.014938,0.983643,-0.021634,0.009705,-0.00659,61.970749,30.06456,-146.965744,,,
729706986.64651,0.668143,2.948441,121.33891,-0.051727,0.014938,0.983643,-0.021634,0.009705,-0.00659,61.970749,30.06456,-146.965744,,,
729706986.647306,0.668133,2.948408,-22.571262,-0.051727,0.014938,0.983643,-0.021634,0.009705,-0.00659,61.970749,30.06456,-146.965744,,,
729706986.649848,0.6618,2.948315,121.337599,-0.051727,0.014938,0.983643,-0.018619,0.003658,-0.008831,61.970749,30.06456,-146.965744,,,
729706986.651194,0.66179,2.948282,-22.57257,-0.051727,0.014938,0.983643,-0.018619,0.003658,-0.008831,61.970749,30.06456,-146.965744,,,
729706986.652996,0.6618,2.948315,121.337599,-0.051727,0.014938,0.983643,-0.018619,0.003658,-0.008831,61.970749,30.06456,-146.965744,,,
