Time (sec),Pitch (deg),Roll (deg),Yaw(deg),X-Acceleration (g),Y-Acceleration (g),Z-Acceleration (g),Pitch Rate (deg/sec),Roll Rate (deg/sec),Yaw Rate (deg/sec),Magnetic Field in X direction (uT),Magnetic Field in Y direction (uT),Magnetic Field in Z Direction (uT),Latitude (deg),Longitude (deg),Altitude (m)
729706770.455183,-0.024659,1.101977,-22.927579,-0.017532,0.002106,0.994781,-0.007279,-0.01101,-0.009018,60.372101,30.198547,-146.443161,,,
729706770.456903,-0.027097,1.097444,120.980321,-0.014297,0.001022,0.996338,-0.007353,-0.01356,-0.009676,60.372101,30.198547,-146.443161,,,
729706770.458562,-0.027107,1.097411,-22.929862,-0.014297,0.001022,0.996338,-0.007353,-0.01356,-0.009676,60.372101,30.198547,-146.443161,,,
729706770.460219,-0.028822,1.092269,120.978046,-0.014297,0.001022,0.996338,-0.007353,-0.01356,-0.009676,60.372101,30.198547,-146.443161,,,
729706770.461361,-0.028832,1.092236,-22.932141,-0.014297,0.001022,0.996338,-0.007353,-0.01356,-0.009676,60.372101,30.198547,-146.443161,,,
729706770.4636,-0.028822,1.092269,120.978046,-0.014297,0.001022,0.996338,-0.007353,-0.01356,-0.009676,60.372101,30.198547,-146.443161,,,
729706770.464322,-0.028832,1.092236,-22.932141,-0.014297,0.001022,0.996338,-0.007353,-0.01356,-0.009676,60.372101,30.198547,-146.443161,,,
729706770.466869,-0.029763,1.08912,120.975691,-0.014725,0.001892,1.000366,-0.000797,-0.004397,-0.010128,60.372101,30.198547,-146.443161,,,
729706770.468158,-0.029773,1.089087,-22.934494,-0.014725,0.001892,1.000366,-0.000797,-0.004397,-0.010128,60.372101,30.198547,-146.443161,,,
729706770.470192,-0.030592,1.087802,120.973508,-0.014725,0.001892,1.000366,-0.000797,-0.004397,-0.010128,60.372101,30.198547,-146.443161,,,
729706770.471293,-0.030602,1.087769,-22.936662,-0.014725,0.001892,1.000366,-0.000797,-0.004397,-0.010128,60.372101,30.198547,-146.443161,,,
729706770.473505,-0.030592,1.087802,120.973508,-0.014725,0.001892,1.000366,-0.000797,-0.004397,-0.010128,60.372101,30.198547,-146.443161,,,
729706770.474398,-0.030602,1.087769,-22.936662,-0.014725,0.001892,1.000366,-0.000797,-0.004397,-0.010128,60.372101,30.198547,-146.443161,,,
729706770.476928,-0.030108,1.088486,120.971484,-0.014481,0.002167,1.004471,0.003612,0.009026,-0.009006,60.372101,30.198547,-146.443161,,,
729706770.479921,-0.030117,1.088453,-22.938684,-0.014481,0.002167,1.004471,0.003612,0.009026,-0.009006,60.372101,30.198547,-146.443161,,,
729706770.480216,-0.029597,1.091544,120.969644,-0.014481,0.002167,1.004471,0.003612,0.009026,-0.009006,60.372101,30.198547,-146.443161,,,
729706770.481026,-0.029607,1.09151,-22.940528,-0.014481,0.002167,1.004471,0.003612,0.009026,-0.009006,60.372101,30.198547,-146.443161,,,
729706770.483503,-0.029597,1.091544,120.969644,-0.014481,0.002167,1.004471,0.003612,0.009026,-0.009006,60.372101,30.198547,-146.443161,,,
729706770.48435,-0.029607,1.09151,-22.940528,-0.014481,0.002167,1.004471,0.003612,0.009026,-0.009006,60.372101,30.198547,-146.443161,,,
729706770.486868,-0.027717,1.096272,120.968302,-0.017181,0.000946,1.003571,0.006803,0.021274,-0.005463,60.372101,30.198547,-146.443161,,,
729706770.488742,-0.027727,1.096238,-22.941872,-0.017181,0.000946,1.003571,0.006803,0.021274,-0.005463,60.372101,30.198547,-146.443161,,,
729706770.490184,-0.026776,1.101539,120.96709,-0.017181,0.000946,1.003571,0.006803,0.021274,-0.005463,60.372101,30.198547,-146.443161,,,
729706770.490996,-0.026786,1.101505,-22.943083,-0.017181,0.000946,1.003571,0.006803,0.021274,-0.005463,60.372101,30.198547,-146.443161,,,
729706770.493529,-0.026776,1.101539,120.96709,-0.017181,0.000946,1.003571,0.006803,0.021274,-0.005463,60.372101,30.198547,-146.443161,,,
729706770.494395,-0.026786,1.101505,-22.943083,-0.017181,0.000946,1.003571,0.006803,0.021274,-0.005463,60.372101,30.198547,-146.443161,,,
729706770.496868,-0.025863,1.107259,120.965778,-0.018509,0.002716,0.999542,0.003119,0.023487,-0.006166,59.957291,30.495483,-146.328781,,,
729706770.498822,-0.025872,1.107226,-22.944392,-0.018509,0.002716,0.999542,0.003119,0.023487,-0.006166,59.957291,30.495483,-146.328781,,,
729706770.500184,-0.025225,1.112739,120.964196,-0.018509,0.002716,0.999542,0.003119,0.023487,-0.006166,59.957291,30.495483,-146.328781,,,
729706770.501236,-0.025234,1.112706,-22.945974,-0.018509,0.002716,0.999542,0.003119,0.023487,-0.006166,59.957291,30.495483,-146.328781,,,
729706770.503531,-0.025225,1.112739,120.964196,-0.018509,0.002716,0.999542,0.003119,0.023487,-0.006166,59.957291,30.495483,-146.328781,,,
729706770.504392,-0.025234,1.112706,-22.945974,-0.018509,0.002716,0.999542,0.003119,0.023487,-0.006166,59.957291,30.495483,-146.328781,,,
729706770.506854,-0.024647,1.118465,120.962349,-0.019821,0.004898,0.996384,0.003386,0.021976,-0.007992,59.957291,30.495483,-146.328781,,,
729706770.508342,-0.024657,1.118431,-22.947819,-0.019821,0.004898,0.996384,0.003386,0.021976,-0.007992,59.957291,30.495483,-146.328781,,,
729706770.510185,-0.023421,1.123382,120.96055,-0.019821,0.004898,0.996384,0.003386,0.021976,-0.007992,59.957291,30.495483,-146.328781,,,
729706770.510989,-0.023431,1.123348,-22.949619,-0.019821,0.004898,0.996384,0.003386,0.021976,-0.007992,59.957291,30.495483,-146.328781,,,
729706770.513516,-0.023421,1.123382,120.96055,-0.019821,0.004898,0.996384,0.003386,0.021976,-0.007992,59.957291,30.495483,-146.328781,,,
729706770.514391,-0.023431,1.123348,-22.949619,-0.019821,0.004898,0.996384,0.003386,0.021976,-0.007992,59.957291,30.495483,-146.328781,,,
729706770.516914,-0.022753,1.127572,120.95861,-0.021484,0.007401,0.99321,0.002186,0.014,-0.009013,59.957291,30.495483,-146.328781,,,
729706770.518658,-0.022763,1.127539,-22.951559,-0.021484,0.007401,0.99321,0.002186,0.014,-0.009013,59.957291,30.495483,-146.328781,,,
729706770.520193,-0.022267,1.129475,120.956694,-0.021484,0.007401,0.99321,0.002186,0.014,-0.009013,59.957291,30.495483,-146.328781,,,
729706770.520992,-0.022277,1.129442,-22.953484,-0.021484,0.007401,0.99321,0.002186,0.014,-0.009013,59.957291,30.495483,-146.328781,,,
729706770.523586,-0.022267,1.129475,120.956694,-0.021484,0.007401,0.99321,0.002186,0.014,-0.009013,59.957291,30.495483,-146.328781,,,
729706770.524395,-0.022277,1.129442,-22.953484,-0.021484,0.007401,0.99321,0.002186,0.014,-0.009013,59.957291,30.495483,-146.328781,,,
729706770.526937,-0.022495,1.129631,120.955034,-0.024719,0.007248,0.991409,-3.8e-05,0.000481,-0.007229,59.957291,30.495483,-146.328781,,,
729706770.52905,-0.022505,1.129598,-22.955141,-0.024719,0.007248,0.991409,-3.8e-05,0.000481,-0.007229,59.957291,30.495483,-146.328781,,,
729706770.530191,-0.022611,1.127619,120.953797,-0.024719,0.007248,0.991409,-3.8e-05,0.000481,-0.007229,59.957291,30.495483,-146.328781,,,
729706770.530894,-0.022621,1.127586,-22.956388,-0.024719,0.007248,0.991409,-3.8e-05,0.000481,-0.007229,59.957291,30.495483,-146.328781,,,
729706770.533446,-0.022611,1.127619,120.953797,-0.024719,0.007248,0.991409,-3.8e-05,0.000481,-0.007229,59.957291,30.495483,-146.328781,,,
729706770.53422,-0.022621,1.127586,-22.956388,-0.024719,0.007248,0.991409,-3.8e-05,0.000481,-0.007229,59.957291,30.495483,-146.328781,,,
729706770.536799,-0.023112,1.125114,120.952526,-0.024567,0.006561,0.994598,-0.00159,-0.006736,-0.007466,60.195389,30.422363,-146.213181,,,
729706770.538465,-0.023122,1.125081,-22.957654,-0.024567,0.006561,0.994598,-0.00159,-0.006736,-0.007466,60.195389,30.422363,-146.213181,,,
729706770.540114,-0.023237,1.121963,120.950819,-0.024567,0.006561,0.994598,-0.00159,-0.006736,-0.007466,60.195389,30.422363,-146.213181,,,
729706770.541032,-0.023247,1.12193,-22.959364,-0.024567,0.006561,0.994598,-0.00159,-0.006736,-0.007466,60.195389,30.422363,-146.213181,,,
729706770.54346,-0.023237,1.121963,120.950819,-0.024567,0.006561,0.994598,-0.00159,-0.006736,-0.007466,60.195389,30.422363,-146.213181,,,
729706770.544199,-0.023247,1.12193,-22.959364,-0.024567,0.006561,0.994598,-0.00159,-0.006736,-0.007466,60.195389,30.422363,-146.213181,,,
729706770.546756,-0.023232,1.120063,120.949471,-0.02298,0.004715,1.002274,0.00125,-0.002327,-0.004907,60.195389,30.422363,-146.213181,,,
729706770.548232,-0.023242,1.120029,-22.960709,-0.02298,0.004715,1.002274,0.00125,-0.002327,-0.004907,60.195389,30.422363,-146.213181,,,
729706770.550096,-0.021906,1.11788,120.948064,-0.02298,0.004715,1.002274,0.00125,-0.002327,-0.004907,60.195389,30.422363,-146.213181,,,
729706770.550853,-0.021916,1.117847,-22.962114,-0.02298,0.004715,1.002274,0.00125,-0.002327,-0.004907,60.195389,30.422363,-146.213181,,,
729706770.553464,-0.021906,1.11788,120.948064,-0.02298,0.004715,1.002274,0.00125,-0.002327,-0.004907,60.195389,30.422363,-146.213181,,,
729706770.554205,-0.021916,1.117847,-22.962114,-0.02298,0.004715,1.002274,0.00125,-0.002327,-0.004907,60.195389,30.422363,-146.213181,,,
729706770.556805,-0.019864,1.116006,120.946773,-0.025085,-0.000488,1.005402,0.008351,-0.004908,-0.00396,60.195389,30.422363,-146.213181,,,
729706770.558305,-0.019874,1.115973,-22.963407,-0.025085,-0.000488,1.005402,0.008351,-0.004908,-0.00396,60.195389,30.422363,-146.213181,,,
729706770.560175,-0.017109,1.113627,120.946663,-0.025085,-0.000488,1.005402,0.008351,-0.004908,-0.00396,60.195389,30.422363,-146.213181,,,
729706770.560989,-0.017119,1.113593,-22.963523,-0.025085,-0.000488,1.005402,0.008351,-0.004908,-0.00396,60.195389,30.422363,-146.213181,,,
729706770.56332,-0.017109,1.113627,120.946663,-0.025085,-0.000488,1.005402,0.008351,-0.004908,-0.00396,60.195389,30.422363,-146.213181,,,
729706770.564271,-0.017119,1.113593,-22.963523,-0.025085,-0.000488,1.005402,0.008351,-0.004908,-0.00396,60.195389,30.422363,-146.213181,,,
729706770.566749,-0.013474,1.111982,120.947646,-0.024841,-0.000961,1.004913,0.015606,-0.003,0.003764,60.195389,30.422363,-146.213181,,,
729706770.568302,-0.013483,1.111949,-22.962541,-0.024841,-0.000961,1.004913,0.015606,-0.003,0.003764,60.195389,30.422363,-146.213181,,,
729706770.57013,-0.008741,1.111118,120.948987,-0.024841,-0.000961,1.004913,0.015606,-0.003,0.003764,60.195389,30.422363,-146.213181,,,
729706770.570858,-0.008751,1.111085,-22.961195,-0.024841,-0.000961,1.004913,0.015606,-0.003,0.003764,60.195389,30.422363,-146.213181,,,
729706770.57325,-0.008741,1.111118,120.948987,-0.024841,-0.000961,1.004913,0.015606,-0.003,0.003764,60.195389,30.422363,-146.213181,,,
729706770.57421,-0.008751,1.111085,-22.961195,-0.024841,-0.000961,1.004913,0.015606,-0.003,0.003764,60.195389,30.422363,-146.213181,,,
729706770.576747,-0.003084,1.111975,120.950787,-0.022171,0.000137,1.007935,0.023085,0.008004,0.007047,60.469833,30.441208,-146.419296,,,
729706770.578866,-0.003094,1.111941,-22.959399,-0.022171,0.000137,1.007935,0.023085,0.008004,0.007047,60.469833,30.441208,-146.419296,,,
729706770.580105,0.003592,1.11398,120.953241,-0.022171,0.000137,1.007935,0.023085,0.008004,0.007047,60.469833,30.441208,-146.419296,,,
729706770.580963,0.003582,1.113946,-22.956945,-0.022171,0.000137,1.007935,0.023085,0.008004,0.007047,60.469833,30.441208,-146.419296,,,
729706770.583427,0.003592,1.11398,120.953241,-0.022171,0.000137,1.007935,0.023085,0.008004,0.007047,60.469833,30.441208,-146.419296,,,
729706770.584187,0.003582,1.113946,-22.956945,-0.022171,0.000137,1.007935,0.023085,0.008004,0.007047,60.469833,30.441208,-146.419296,,,
729706770.586767,0.009212,1.116832,120.955399,-0.018311,0.003937,1.005356,0.019322,0.013414,0.004867,60.469833,30.441208,-146.419296,,,
729706770.587922,0.009202,1.116798,-22.954789,-0.018311,0.003937,1.005356,0.019322,0.013414,0.004867,60.469833,30.441208,-146.419296,,,
729706770.590092,0.015339,1.120527,120.956774,-0.018311,0.003937,1.005356,0.019322,0.013414,0.004867,60.469833,30.441208,-146.419296,,,
729706770.59097,0.015329,1.120494,-22.953412,-0.018311,0.003937,1.005356,0.019322,0.013414,0.004867,60.469833,30.441208,-146.419296,,,
729706770.59342,0.015339,1.120527,120.956774,-0.018311,0.003937,1.005356,0.019322,0.013414,0.004867,60.469833,30.441208,-146.419296,,,
729706770.594177,0.015329,1.120494,-22.953412,-0.018311,0.003937,1.005356,0.019322,0.013414,0.004867,60.469833,30.441208,-146.419296,,,
729706770.596755,0.020406,1.124053,120.957617,-0.018127,0.007156,1.001114,0.017189,0.014062,0.001144,60.469833,30.441208,-146.419296,,,
729706770.597669,0.020397,1.12402,-22.952571,-0.018127,0.007156,1.001114,0.017189,0.014062,0.001144,60.469833,30.441208,-146.419296,,,
729706770.60009,0.025402,1.126588,120.957976,-0.018127,0.007156,1.001114,0.017189,0.014062,0.001144,60.469833,30.441208,-146.419296,,,
729706770.601054,0.025392,1.126554,-22.952208,-0.018127,0.007156,1.001114,0.017189,0.014062,0.001144,60.469833,30.441208,-146.419296,,,
729706770.60343,0.025402,1.126588,120.957976,-0.018127,0.007156,1.001114,0.017189,0.014062,0.001144,60.469833,30.441208,-146.419296,,,
729706770.604179,0.025392,1.126554,-22.952208,-0.018127,0.007156,1.001114,0.017189,0.014062,0.001144,60.469833,30.441208,-146.419296,,,
729706770.606612,0.028553,1.126198,120.958266,-0.020798,0.005722,0.995178,0.010747,-0.003409,0.00055,60.469833,30.441208,-146.419296,,,
729706770.608186,0.028544,1.126165,-22.951913,-0.020798,0.005722,0.995178,0.010747,-0.003409,0.00055,60.469833,30.441208,-146.419296,,,
729706770.610108,0.031783,1.123871,120.958399,-0.020798,0.005722,0.995178,0.010747,-0.003409,0.00055,60.469833,30.441208,-146.419296,,,
729706770.611,0.031773,1.123838,-22.95178,-0.020798,0.005722,0.995178,0.010747,-0.003409,0.00055,60.469833,30.441208,-146.419296,,,
729706770.613427,0.031783,1.123871,120.958399,-0.020798,0.005722,0.995178,0.010747,-0.003409,0.00055,60.469833,30.441208,-146.419296,,,
729706770.614181,0.031773,1.123838,-22.95178,-0.020798,0.005722,0.995178,0.010747,-0.003409,0.00055,60.469833,30.441208,-146.419296,,,
729706770.616752,0.033414,1.118025,120.957792,-0.021988,0.002335,0.994797,0.005068,-0.022588,-0.004652,60.469833,30.441208,-146.419296,,,
729706770.618381,0.033404,1.117991,-22.952387,-0.021988,0.002335,0.994797,0.005068,-0.022588,-0.004652,60.217484,30.509018,-146.322205,,,
729706770.620102,0.035223,1.110173,120.9568,-0.021988,0.002335,0.994797,0.005068,-0.022588,-0.004652,60.217484,30.509018,-146.322205,,,
729706770.621067,0.035213,1.110139,-22.95338,-0.021988,0.002335,0.994797,0.005068,-0.022588,-0.004652,60.217484,30.509018,-146.322205,,,
729706770.623421,0.035223,1.110173,120.9568,-0.021988,0.002335,0.994797,0.005068,-0.022588,-0.004652,60.217484,30.509018,-146.322205,,,
729706770.624187,0.035213,1.110139,-22.95338,-0.021988,0.002335,0.994797,0.005068,-0.022588,-0.004652,60.217484,30.509018,-146.322205,,,
729706770.626756,0.037195,1.100134,120.955637,-0.020569,0.002075,0.999924,0.011013,-0.034438,-0.005723,60.217484,30.509018,-146.322205,,,
729706770.627852,0.037185,1.1001,-22.954545,-0.020569,0.002075,0.999924,0.011013,-0.034438,-0.005723,60.217484,30.509018,-146.322205,,,
729706770.630099,0.040333,1.089813,120.954406,-0.020569,0.002075,0.999924,0.011013,-0.034438,-0.005723,60.217484,30.509018,-146.322205,,,
729706770.631022,0.040324,1.08978,-22.955781,-0.020569,0.002075,0.999924,0.011013,-0.034438,-0.005723,60.217484,30.509018,-146.322205,,,
729706770.633504,0.040333,1.089813,120.954406,-0.020569,0.002075,0.999924,0.011013,-0.034438,-0.005723,60.217484,30.509018,-146.322205,,,
729706770.634177,0.040324,1.08978,-22.955781,-0.020569,0.002075,0.999924,0.011013,-0.034438,-0.005723,60.217484,30.509018,-146.322205,,,
729706770.636784,0.043771,1.078257,120.95309,-0.019836,-0.00177,1.004944,0.014166,-0.038839,-0.006156,60.217484,30.509018,-146.322205,,,
729706770.638319,0.043761,1.078224,-22.957081,-0.019836,-0.00177,1.004944,0.014166,-0.038839,-0.006156,60.217484,30.509018,-146.322205,,,
729706770.640098,0.048062,1.067726,120.951944,-0.019836,-0.00177,1.004944,0.014166,-0.038839,-0.006156,60.217484,30.509018,-146.322205,,,
729706770.641073,0.048052,1.067692,-22.958232,-0.019836,-0.00177,1.004944,0.014166,-0.038839,-0.006156,60.217484,30.509018,-146.322205,,,
729706770.643481,0.048062,1.067726,120.951944,-0.019836,-0.00177,1.004944,0.014166,-0.038839,-0.006156,60.217484,30.509018,-146.322205,,,
729706770.644191,0.048052,1.067692,-22.958232,-0.019836,-0.00177,1.004944,0.014166,-0.038839,-0.006156,60.217484,30.509018,-146.322205,,,
729706770.646757,0.053872,1.058051,120.951235,-0.016647,-0.00592,1.010071,0.022773,-0.02701,-0.002984,60.217484,30.509018,-146.322205,,,
729706770.648035,0.053862,1.058017,-22.958944,-0.016647,-0.00592,1.010071,0.022773,-0.02701,-0.002984,60.217484,30.509018,-146.322205,,,
729706770.650154,0.060528,1.051586,120.950859,-0.016647,-0.00592,1.010071,0.022773,-0.02701,-0.002984,60.217484,30.509018,-146.322205,,,
729706770.651067,0.060518,1.051553,-22.959311,-0.016647,-0.00592,1.010071,0.022773,-0.02701,-0.002984,60.217484,30.509018,-146.322205,,,
729706770.653431,0.060528,1.051586,120.950859,-0.016647,-0.00592,1.010071,0.022773,-0.02701,-0.002984,60.217484,30.509018,-146.322205,,,
729706770.654184,0.060518,1.051553,-22.959311,-0.016647,-0.00592,1.010071,0.022773,-0.02701,-0.002984,60.217484,30.509018,-146.322205,,,
729706770.656755,0.068511,1.046784,120.950854,-0.013519,-0.006454,1.013,0.030713,-0.011058,-0.00027,60.217484,30.509018,-146.322205,,,
729706770.657829,0.068501,1.046751,-22.959318,-0.013519,-0.006454,1.013,0.030713,-0.011058,-0.00027,60.217484,30.509018,-146.322205,,,
729706770.66009,0.076863,1.043883,120.951022,-0.013519,-0.006454,1.013,0.030713,-0.011058,-0.00027,60.04808,30.508942,-146.323944,,,
729706770.661114,0.076853,1.043849,-22.959157,-0.013519,-0.006454,1.013,0.030713,-0.011058,-0.00027,60.04808,30.508942,-146.323944,,,
729706770.663424,0.076863,1.043883,120.951022,-0.013519,-0.006454,1.013,0.030713,-0.011058,-0.00027,60.04808,30.508942,-146.323944,,,
729706770.664178,0.076853,1.043849,-22.959157,-0.013519,-0.006454,1.013,0.030713,-0.011058,-0.00027,60.04808,30.508942,-146.323944,,,
729706770.666752,0.084692,1.042768,120.951589,-0.012115,-0.004593,1.009171,0.027008,0.003288,0.00241,60.04808,30.508942,-146.323944,,,
729706770.668368,0.084683,1.042734,-22.95859,-0.012115,-0.004593,1.009171,0.027008,0.003288,0.00241,60.04808,30.508942,-146.323944,,,
729706770.670118,0.09296,1.043925,120.952982,-0.012115,-0.004593,1.009171,0.027008,0.003288,0.00241,60.04808,30.508942,-146.323944,,,
729706770.671018,0.092951,1.043892,-22.957194,-0.012115,-0.004593,1.009171,0.027008,0.003288,0.00241,60.04808,30.508942,-146.323944,,,
729706770.673428,0.09296,1.043925,120.952982,-0.012115,-0.004593,1.009171,0.027008,0.003288,0.00241,60.04808,30.508942,-146.323944,,,
729706770.674181,0.092951,1.043892,-22.957194,-0.012115,-0.004593,1.009171,0.027008,0.003288,0.00241,60.04808,30.508942,-146.323944,,,
729706770.676841,0.101147,1.046893,120.955048,-0.01416,-0.004669,1.001923,0.029948,0.014995,0.007127,60.04808,30.508942,-146.323944,,,
729706770.677932,0.101138,1.04686,-22.955127,-0.01416,-0.004669,1.001923,0.029948,0.014995,0.007127,60.04808,30.508942,-146.323944,,,
729706770.680113,0.110178,1.051196,120.957311,-0.01416,-0.004669,1.001923,0.029948,0.014995,0.007127,60.04808,30.508942,-146.323944,,,
729706770.681039,0.110169,1.051162,-22.95287,-0.01416,-0.004669,1.001923,0.029948,0.014995,0.007127,60.04808,30.508942,-146.323944,,,
729706770.68343,0.110178,1.051196,120.957311,-0.01416,-0.004669,1.001923,0.029948,0.014995,0.007127,60.04808,30.508942,-146.323944,,,
729706770.684198,0.110169,1.051162,-22.95287,-0.01416,-0.004669,1.001923,0.029948,0.014995,0.007127,60.04808,30.508942,-146.323944,,,
729706770.686886,0.118903,1.055927,120.959789,-0.016006,-0.004074,0.998123,0.032187,0.01894,0.008689,60.04808,30.508942,-146.323944,,,
729706770.688886,0.118893,1.055894,-22.950393,-0.016006,-0.004074,0.998123,0.032187,0.01894,0.008689,60.04808,30.508942,-146.323944,,,
729706770.690098,0.128633,1.060975,120.962642,-0.016006,-0.004074,0.998123,0.032187,0.01894,0.008689,60.04808,30.508942,-146.323944,,,
729706770.691355,0.128623,1.060942,-22.94754,-0.016006,-0.004074,0.998123,0.032187,0.01894,0.008689,60.04808,30.508942,-146.323944,,,
729706770.693483,0.128633,1.060975,120.962642,-0.016006,-0.004074,0.998123,0.032187,0.01894,0.008689,60.04808,30.508942,-146.323944,,,
729706770.694267,0.128623,1.060942,-22.94754,-0.016006,-0.004074,0.998123,0.032187,0.01894,0.008689,60.04808,30.508942,-146.323944,,,
729706770.696763,0.138633,1.064706,120.965784,-0.020081,-0.00621,0.99707,0.035443,0.013349,0.010748,60.04808,30.508942,-146.323944,,,
729706770.698176,0.138623,1.064673,-22.944398,-0.020081,-0.00621,0.99707,0.035443,0.013349,0.010748,60.04808,30.508942,-146.323944,,,
729706770.700139,0.149369,1.066572,120.969119,-0.020081,-0.00621,0.99707,0.035443,0.013349,0.010748,60.203033,30.506485,-146.423126,,,
729706770.701558,0.149359,1.066538,-22.941068,-0.020081,-0.00621,0.99707,0.035443,0.013349,0.010748,60.203033,30.506485,-146.423126,,,
729706770.703517,0.149369,1.066572,120.969119,-0.020081,-0.00621,0.99707,0.035443,0.013349,0.010748,60.203033,30.506485,-146.423126,,,
729706770.704246,0.149359,1.066538,-22.941068,-0.020081,-0.00621,0.99707,0.035443,0.013349,0.010748,60.203033,30.506485,-146.423126,,,
729706770.706813,0.161171,1.065182,120.97199,-0.0215,-0.004761,0.993942,0.042534,-0.006853,0.007707,60.203033,30.506485,-146.423126,,,
729706770.708584,0.161161,1.065149,-22.938197,-0.0215,-0.004761,0.993942,0.042534,-0.006853,0.007707,60.203033,30.506485,-146.423126,,,
729706770.710158,0.172589,1.061809,120.974228,-0.0215,-0.004761,0.993942,0.042534,-0.006853,0.007707,60.203033,30.506485,-146.423126,,,
729706770.711257,0.17258,1.061775,-22.935945,-0.0215,-0.004761,0.993942,0.042534,-0.006853,0.007707,60.203033,30.506485,-146.423126,,,
729706770.71343,0.172589,1.061809,120.974228,-0.0215,-0.004761,0.993942,0.042534,-0.006853,0.007707,60.203033,30.506485,-146.423126,,,
729706770.714179,0.17258,1.061775,-22.935945,-0.0215,-0.004761,0.993942,0.042534,-0.006853,0.007707,60.203033,30.506485,-146.423126,,,
729706770.716801,0.183813,1.056714,120.976492,-0.017441,0.003998,0.989868,0.038754,-0.017707,0.007763,60.203033,30.506485,-146.423126,,,
729706770.718401,0.183803,1.056681,-22.933677,-0.017441,0.003998,0.989868,0.038754,-0.017707,0.007763,60.203033,30.506485,-146.423126,,,
729706770.720153,0.193381,1.050527,120.977702,-0.017441,0.003998,0.989868,0.038754,-0.017707,0.007763,60.203033,30.506485,-146.423126,,,
729706770.721508,0.193372,1.050494,-22.932469,-0.017441,0.003998,0.989868,0.038754,-0.017707,0.007763,60.203033,30.506485,-146.423126,,,
729706770.723527,0.193381,1.050527,120.977702,-0.017441,0.003998,0.989868,0.038754,-0.017707,0.007763,60.203033,30.506485,-146.423126,,,
729706770.72445,0.193372,1.050494,-22.932469,-0.017441,0.003998,0.989868,0.038754,-0.017707,0.007763,60.203033,30.506485,-146.423126,,,
729706770.726863,0.202536,1.043872,120.976946,-0.009949,0.00708,0.9888,0.030462,-0.021433,-0.006077,60.203033,30.506485,-146.423126,,,
729706770.728942,0.202526,1.043839,-22.933228,-0.009949,0.00708,0.9888,0.030462,-0.021433,-0.006077,60.203033,30.506485,-146.423126,,,
729706770.730216,0.208467,1.036785,120.97528,-0.009949,0.00708,0.9888,0.030462,-0.021433,-0.006077,60.203033,30.506485,-146.423126,,,
729706770.731416,0.208458,1.036751,-22.934894,-0.009949,0.00708,0.9888,0.030462,-0.021433,-0.006077,60.203033,30.506485,-146.423126,,,
729706770.733529,0.208467,1.036785,120.97528,-0.009949,0.00708,0.9888,0.030462,-0.021433,-0.006077,60.203033,30.506485,-146.423126,,,
729706770.734326,0.208458,1.036751,-22.934894,-0.009949,0.00708,0.9888,0.030462,-0.021433,-0.006077,60.203033,30.506485,-146.423126,,,
729706770.736876,0.213699,1.030676,120.973202,-0.007874,0.008331,0.986801,0.017002,-0.017487,-0.009181,60.203033,30.506485,-146.423126,,,
729706770.738498,0.213689,1.030643,-22.936973,-0.007874,0.008331,0.986801,0.017002,-0.017487,-0.009181,60.203033,30.506485,-146.423126,,,
729706770.740219,0.217071,1.024941,120.970265,-0.007874,0.008331,0.986801,0.017002,-0.017487,-0.009181,60.203033,30.506485,-146.423126,,,
729706770.741718,0.217061,1.024908,-22.939914,-0.007874,0.008331,0.986801,0.017002,-0.017487,-0.009181,60.233002,30.352661,-146.459946,,,
729706770.743432,0.217071,1.024941,120.970265,-0.007874,0.008331,0.986801,0.017002,-0.017487,-0.009181,60.233002,30.352661,-146.459946,,,
729706770.744184,0.217061,1.024908,-22.939914,-0.007874,0.008331,0.986801,0.017002,-0.017487,-0.009181,60.233002,30.352661,-146.459946,,,
729706770.746763,0.220811,1.021591,120.967102,-0.008087,0.007019,0.986923,0.012288,-0.005365,-0.010854,60.233002,30.352661,-146.459946,,,
729706770.747698,0.220801,1.021558,-22.943083,-0.008087,0.007019,0.986923,0.012288,-0.005365,-0.010854,60.233002,30.352661,-146.459946,,,
729706770.750145,0.223639,1.020063,120.964309,-0.008087,0.007019,0.986923,0.012288,-0.005365,-0.010854,60.233002,30.352661,-146.459946,,,
729706770.750997,0.223629,1.020029,-22.945875,-0.008087,0.007019,0.986923,0.012288,-0.005365,-0.010854,60.233002,30.352661,-146.459946,,,
729706770.753481,0.223639,1.020063,120.964309,-0.008087,0.007019,0.986923,0.012288,-0.005365,-0.010854,60.233002,30.352661,-146.459946,,,
729706770.754187,0.223629,1.020029,-22.945875,-0.008087,0.007019,0.986923,0.012288,-0.005365,-0.010854,60.233002,30.352661,-146.459946,,,
729706770.756867,0.227313,1.020888,120.961879,-0.008041,0.004227,0.989075,0.01172,0.007029,-0.008345,60.233002,30.352661,-146.459946,,,
729706770.758248,0.227303,1.020855,-22.948305,-0.008041,0.004227,0.989075,0.01172,0.007029,-0.008345,60.233002,30.352661,-146.459946,,,
729706770.760168,0.229433,1.023057,120.96012,-0.008041,0.004227,0.989075,0.01172,0.007029,-0.008345,60.233002,30.352661,-146.459946,,,
729706770.760945,0.229424,1.023023,-22.950063,-0.008041,0.004227,0.989075,0.01172,0.007029,-0.008345,60.233002,30.352661,-146.459946,,,
729706770.763452,0.229433,1.023057,120.96012,-0.008041,0.004227,0.989075,0.01172,0.007029,-0.008345,60.233002,30.352661,-146.459946,,,
729706770.764199,0.229424,1.023023,-22.950063,-0.008041,0.004227,0.989075,0.01172,0.007029,-0.008345,60.233002,30.352661,-146.459946,,,
729706770.766796,0.232367,1.027132,120.958582,-0.008514,0.00383,0.988159,0.009861,0.017804,-0.006847,60.233002,30.352661,-146.459946,,,
729706770.767848,0.232357,1.027098,-22.951605,-0.008514,0.00383,0.988159,0.009861,0.017804,-0.006847,60.233002,30.352661,-146.459946,,,
729706770.770129,0.232367,1.027132,120.958582,-0.008514,0.00383,0.988159,0.009861,0.017804,-0.006847,60.233002,30.352661,-146.459946,,,
729706770.770987,0.232357,1.027098,-22.951605,-0.008514,0.00383,0.988159,0.009861,0.017804,-0.006847,60.233002,30.352661,-146.459946,,,
729706770.773533,0.232367,1.027132,120.958582,-0.008514,0.00383,0.988159,0.009861,0.017804,-0.006847,60.233002,30.352661,-146.459946,,,
729706770.774293,0.232357,1.027098,-22.951605,-0.008514,0.00383,0.988159,0.009861,0.017804,-0.006847,60.233002,30.352661,-146.459946,,,
729706770.776565,0.23572,1.038279,120.95654,-0.009857,0.007935,0.983673,0.003658,0.024318,-0.005377,60.233002,30.352661,-146.459946,,,
729706770.778416,0.23571,1.038245,-22.953634,-0.009857,0.007935,0.983673,0.003658,0.024318,-0.005377,60.233002,30.352661,-146.459946,,,
729706770.78016,0.233832,1.045081,120.95526,-0.009857,0.007935,0.983673,0.003658,0.024318,-0.005377,60.233002,30.352661,-146.459946,,,
729706770.781336,0.233823,1.045047,-22.95491,-0.009857,0.007935,0.983673,0.003658,0.024318,-0.005377,60.233002,30.352661,-146.459946,,,
729706770.783467,0.233832,1.045081,120.95526,-0.009857,0.007935,0.983673,0.003658,0.024318,-0.005377,60.226852,30.443207,-146.764282,,,
729706770.784488,0.233823,1.045047,-22.95491,-0.009857,0.007935,0.983673,0.003658,0.024318,-0.005377,60.226852,30.443207,-146.764282,,,
729706770.78682,0.231122,1.051482,120.952966,-0.0121,0.010208,0.980515,-0.010486,0.023826,-0.012718,60.226852,30.443207,-146.764282,,,
729706770.788438,0.231113,1.051449,-22.957205,-0.0121,0.010208,0.980515,-0.010486,0.023826,-0.012718,60.226852,30.443207,-146.764282,,,
729706770.790191,0.225624,1.057918,120.94961,-0.0121,0.010208,0.980515,-0.010486,0.023826,-0.012718,60.226852,30.443207,-146.764282,,,
729706770.79107,0.225615,1.057884,-22.960572,-0.0121,0.010208,0.980515,-0.010486,0.023826,-0.012718,60.226852,30.443207,-146.764282,,,
729706770.793211,0.225624,1.057918,120.94961,-0.0121,0.010208,0.980515,-0.010486,0.023826,-0.012718,60.226852,30.443207,-146.764282,,,
729706770.794246,0.225615,1.057884,-22.960572,-0.0121,0.010208,0.980515,-0.010486,0.023826,-0.012718,60.226852,30.443207,-146.764282,,,
729706770.796786,0.218647,1.063268,120.945635,-0.013626,0.009369,0.977859,-0.024252,0.018663,-0.017241,60.226852,30.443207,-146.764282,,,
729706770.797878,0.218637,1.063235,-22.964551,-0.013626,0.009369,0.977859,-0.024252,0.018663,-0.017241,60.226852,30.443207,-146.764282,,,
729706770.800006,0.218647,1.063268,120.945635,-0.013626,0.009369,0.977859,-0.024252,0.018663,-0.017241,60.226852,30.443207,-146.764282,,,
729706770.801233,0.211327,1.067017,-22.969142,-0.013626,0.009369,0.977859,-0.024252,0.018663,-0.017241,60.226852,30.443207,-146.764282,,,
729706770.80347,0.211336,1.067051,120.941041,-0.013626,0.009369,0.977859,-0.024252,0.018663,-0.017241,60.226852,30.443207,-146.764282,,,
729706770.804214,0.211327,1.067017,-22.969142,-0.013626,0.009369,0.977859,-0.024252,0.018663,-0.017241,60.226852,30.443207,-146.764282,,,
729706770.806798,0.202666,1.06998,120.936671,-0.019333,0.009018,0.983261,-0.031954,0.008786,-0.015823,60.226852,30.443207,-146.764282,,,
729706770.807924,0.202656,1.069946,-22.973514,-0.019333,0.009018,0.983261,-0.031954,0.008786,-0.015823,60.226852,30.443207,-146.764282,,,
729706770.809871,0.202666,1.06998,120.936671,-0.019333,0.009018,0.983261,-0.031954,0.008786,-0.015823,60.226852,30.443207,-146.764282,,,
729706770.811159,0.193018,1.069133,-22.977699,-0.019333,0.009018,0.983261,-0.031954,0.008786,-0.015823,60.226852,30.443207,-146.764282,,,
729706770.813459,0.193027,1.069166,120.932486,-0.019333,0.009018,0.983261,-0.031954,0.008786,-0.015823,60.226852,30.443207,-146.764282,,,
729706770.814199,0.193018,1.069133,-22.977699,-0.019333,0.009018,0.983261,-0.031954,0.008786,-0.015823,60.226852,30.443207,-146.764282,,,
729706770.816803,0.181547,1.067836,120.932692,-0.023315,0.007965,0.988205,-0.041514,-0.004645,0.014608,60.226852,30.443207,-146.764282,,,
729706770.818718,0.181538,1.067802,-22.977492,-0.023315,0.007965,0.988205,-0.041514,-0.004645,0.014608,60.226852,30.443207,-146.764282,,,
729706770.820141,0.170374,1.062535,120.929046,-0.023315,0.007965,0.988205,-0.041514,-0.004645,0.014608,60.226852,30.443207,-146.764282,,,
729706770.82114,0.170364,1.062502,-22.981139,-0.023315,0.007965,0.988205,-0.041514,-0.004645,0.014608,60.226852,30.443207,-146.764282,,,
729706770.823434,0.170374,1.062535,120.929046,-0.023315,0.007965,0.988205,-0.041514,-0.004645,0.014608,60.51387,30.481232,-146.305908,,,
729706770.824415,0.170364,1.062502,-22.981139,-0.023315,0.007965,0.988205,-0.041514,-0.004645,0.014608,60.51387,30.481232,-146.305908,,,
729706770.826593,0.159039,1.056868,120.911987,-0.021347,0.006317,0.997574,-0.03707,-0.016318,-0.078713,60.51387,30.481232,-146.305908,,,
729706770.828364,0.159029,1.056835,-22.998196,-0.021347,0.006317,0.997574,-0.03707,-0.016318,-0.078713,60.51387,30.481232,-146.305908,,,
729706770.830112,0.148774,1.051132,120.90107,-0.021347,0.006317,0.997574,-0.03707,-0.016318,-0.078713,60.51387,30.481232,-146.305908,,,
729706770.831194,0.148765,1.051099,-23.009104,-0.021347,0.006317,0.997574,-0.03707,-0.016318,-0.078713,60.51387,30.481232,-146.305908,,,
729706770.833438,0.148774,1.051132,120.90107,-0.021347,0.006317,0.997574,-0.03707,-0.016318,-0.078713,60.51387,30.481232,-146.305908,,,
729706770.834188,0.148765,1.051099,-23.009104,-0.021347,0.006317,0.997574,-0.03707,-0.016318,-0.078713,60.51387,30.481232,-146.305908,,,
729706770.836809,0.139655,1.047299,120.907396,-0.02417,0.001923,1.006073,-0.028693,-0.011741,0.041502,60.51387,30.481232,-146.305908,,,
729706770.838547,0.139645,1.047265,-23.002778,-0.02417,0.001923,1.006073,-0.028693,-0.011741,0.041502,60.51387,30.481232,-146.305908,,,
729706770.84019,0.131677,1.041486,120.90917,-0.02417,0.001923,1.006073,-0.028693,-0.011741,0.041502,60.51387,30.481232,-146.305908,,,
729706770.841107,0.131667,1.041453,-23.001004,-0.02417,0.001923,1.006073,-0.028693,-0.011741,0.041502,60.51387,30.481232,-146.305908,,,
729706770.843234,0.131677,1.041486,120.90917,-0.02417,0.001923,1.006073,-0.028693,-0.011741,0.041502,60.51387,30.481232,-146.305908,,,
729706770.844297,0.131667,1.041453,-23.001004,-0.02417,0.001923,1.006073,-0.028693,-0.011741,0.041502,60.51387,30.481232,-146.305908,,,
729706770.846771,0.124229,1.037749,120.894494,-0.020126,-0.001343,1.01149,-0.022474,-0.007132,-0.072974,60.51387,30.481232,-146.305908,,,
729706770.848681,0.124219,1.037715,-23.015683,-0.020126,-0.001343,1.01149,-0.022474,-0.007132,-0.072974,60.51387,30.481232,-146.305908,,,
729706770.850103,0.124229,1.037749,120.894494,-0.020126,-0.001343,1.01149,-0.022474,-0.007132,-0.072974,60.51387,30.481232,-146.305908,,,
729706770.850952,0.118798,1.036286,-23.025132,-0.020126,-0.001343,1.01149,-0.022474,-0.007132,-0.072974,60.51387,30.481232,-146.305908,,,
729706770.853488,0.118807,1.03632,120.885052,-0.020126,-0.001343,1.01149,-0.022474,-0.007132,-0.072974,60.51387,30.481232,-146.305908,,,
729706770.8542,0.118798,1.036286,-23.025132,-0.020126,-0.001343,1.01149,-0.022474,-0.007132,-0.072974,60.51387,30.481232,-146.305908,,,
729706770.856774,0.115591,1.0401,120.893313,-0.017029,0.001312,1.017563,-0.005977,0.022318,0.050792,60.51387,30.481232,-146.305908,,,
729706770.858981,0.115581,1.040066,-23.016868,-0.017029,0.001312,1.017563,-0.005977,0.022318,0.050792,60.51387,30.481232,-146.305908,,,
729706770.859942,0.115591,1.0401,120.893313,-0.017029,0.001312,1.017563,-0.005977,0.022318,0.050792,60.51387,30.481232,-146.305908,,,
729706770.86112,0.115292,1.045132,-23.012303,-0.017029,0.001312,1.017563,-0.005977,0.022318,0.050792,60.51387,30.481232,-146.305908,,,
729706770.863444,0.115301,1.045166,120.897884,-0.017029,0.001312,1.017563,-0.005977,0.022318,0.050792,60.295441,30.118851,-146.437775,,,
729706770.864446,0.115292,1.045132,-23.012303,-0.017029,0.001312,1.017563,-0.005977,0.022318,0.050792,60.295441,30.118851,-146.437775,,,
729706770.866759,0.114118,1.051967,120.885788,-0.019623,-0.001022,1.014969,-0.003789,0.028011,-0.065169,60.295441,30.118851,-146.437775,,,
729706770.868816,0.114108,1.051933,-23.024386,-0.019623,-0.001022,1.014969,-0.003789,0.028011,-0.065169,60.295441,30.118851,-146.437775,,,
729706770.870179,0.114118,1.06053,120.877687,-0.019623,-0.001022,1.014969,-0.003789,0.028011,-0.065169,60.295441,30.118851,-146.437775,,,
729706770.871122,0.114594,1.060497,-23.032489,-0.019623,-0.001022,1.014969,-0.003789,0.028011,-0.065169,60.295441,30.118851,-146.437775,,,
729706770.87343,0.114603,1.06053,120.877687,-0.019623,-0.001022,1.014969,-0.003789,0.028011,-0.065169,60.295441,30.118851,-146.437775,,,
729706770.874184,0.114594,1.060497,-23.032489,-0.019623,-0.001022,1.014969,-0.003789,0.028011,-0.065169,60.295441,30.118851,-146.437775,,,
729706770.876534,0.115017,1.071216,120.887055,-0.020569,0.002701,1.007217,-6.3e-05,0.038694,0.056632,60.295441,30.118851,-146.437775,,,
729706770.878707,0.115008,1.071182,-23.023123,-0.020569,0.002701,1.007217,-6.3e-05,0.038694,0.056632,60.295441,30.118851,-146.437775,,,
729706770.880122,0.115017,1.071216,120.887055,-0.020569,0.002701,1.007217,-6.3e-05,0.038694,0.056632,60.295441,30.118851,-146.437775,,,
729706770.881061,0.115494,1.079067,-23.015794,-0.020569,0.002701,1.007217,-6.3e-05,0.038694,0.056632,60.295441,30.118851,-146.437775,,,
729706770.883461,0.115503,1.0791,120.894392,-0.020569,0.002701,1.007217,-6.3e-05,0.038694,0.056632,60.295441,30.118851,-146.437775,,,
729706770.884215,0.115494,1.079067,-23.015794,-0.020569,0.002701,1.007217,-6.3e-05,0.038694,0.056632,60.295441,30.118851,-146.437775,,,
729706770.88682,0.113566,1.084467,120.884733,-0.023575,0.00032,1.002319,-0.0084,0.018609,-0.061908,60.295441,30.118851,-146.437775,,,
729706770.888502,0.113557,1.084433,-23.025455,-0.023575,0.00032,1.002319,-0.0084,0.018609,-0.061908,60.295441,30.118851,-146.437775,,,
729706770.890103,0.113566,1.084467,120.884733,-0.023575,0.00032,1.002319,-0.0084,0.018609,-0.061908,60.295441,30.118851,-146.437775,,,
729706770.890989,0.112042,1.08933,-23.032796,-0.023575,0.00032,1.002319,-0.0084,0.018609,-0.061908,60.295441,30.118851,-146.437775,,,
729706770.893206,0.112052,1.089364,120.877374,-0.023575,0.00032,1.002319,-0.0084,0.018609,-0.061908,60.295441,30.118851,-146.437775,,,
729706770.894211,0.112042,1.08933,-23.032796,-0.023575,0.00032,1.002319,-0.0084,0.018609,-0.061908,60.295441,30.118851,-146.437775,,,
729706770.896765,0.11055,1.09241,120.887158,-0.02684,0.001526,1.002258,-0.005226,0.008712,0.057517,60.295441,30.118851,-146.437775,,,
729706770.898245,0.11054,1.092377,-23.023012,-0.02684,0.001526,1.002258,-0.005226,0.008712,0.057517,60.295441,30.118851,-146.437775,,,
729706770.9001,0.11055,1.09241,120.887158,-0.02684,0.001526,1.002258,-0.005226,0.008712,0.057517,60.295441,30.118851,-146.437775,,,
729706770.900852,0.110412,1.091672,-23.016224,-0.02684,0.001526,1.002258,-0.005226,0.008712,0.057517,60.295441,30.118851,-146.437775,,,
729706770.903491,0.110422,1.091706,120.893946,-0.02684,0.001526,1.002258,-0.005226,0.008712,0.057517,60.295441,30.118851,-146.437775,,,
729706770.90449,0.110412,1.091672,-23.016224,-0.02684,0.001526,1.002258,-0.005226,0.008712,0.057517,60.249435,30.436996,-146.282959,,,
729706770.906772,0.111051,1.086711,120.883142,-0.027267,-0.000824,1.003952,0.007934,-0.019583,-0.064864,60.249435,30.436996,-146.282959,,,
729706770.909064,0.111041,1.086677,-23.027033,-0.027267,-0.000824,1.003952,0.007934,-0.019583,-0.064864,60.249435,30.436996,-146.282959,,,
729706770.909886,0.111051,1.086711,120.883142,-0.027267,-0.000824,1.003952,0.007934,-0.019583,-0.064864,60.249435,30.436996,-146.282959,,,
729706770.911081,0.113964,1.081421,-23.035579,-0.027267,-0.000824,1.003952,0.007934,-0.019583,-0.064864,60.249435,30.436996,-146.282959,,,
729706770.913489,0.113974,1.081454,120.874593,-0.027267,-0.000824,1.003952,0.007934,-0.019583,-0.064864,60.249435,30.436996,-146.282959,,,
729706770.914179,0.113964,1.081421,-23.035579,-0.027267,-0.000824,1.003952,0.007934,-0.019583,-0.064864,60.249435,30.436996,-146.282959,,,
729706770.916752,0.119397,1.075937,120.883308,-0.027924,-0.001968,1.006577,0.02355,-0.017596,0.055662,60.249435,30.436996,-146.282959,,,
729706770.918295,0.119387,1.075903,-23.026863,-0.027924,-0.001968,1.006577,0.02355,-0.017596,0.055662,60.249435,30.436996,-146.282959,,,
729706770.920237,0.119397,1.075937,120.883308,-0.027924,-0.001968,1.006577,0.02355,-0.017596,0.055662,60.249435,30.436996,-146.282959,,,
729706770.921246,0.126576,1.069261,-23.020134,-0.027924,-0.001968,1.006577,0.02355,-0.017596,0.055662,60.249435,30.436996,-146.282959,,,
729706770.923472,0.126585,1.069295,120.890036,-0.027924,-0.001968,1.006577,0.02355,-0.017596,0.055662,60.249435,30.436996,-146.282959,,,
729706770.924229,0.126576,1.069261,-23.020134,-0.027924,-0.001968,1.006577,0.02355,-0.017596,0.055662,60.249435,30.436996,-146.282959,,,
729706770.926543,0.134969,1.060986,120.879925,-0.019775,0.001251,1.007217,0.032611,-0.026455,-0.061553,60.249435,30.436996,-146.282959,,,
729706770.928849,0.134959,1.060953,-23.030244,-0.019775,0.001251,1.007217,0.032611,-0.026455,-0.061553,60.249435,30.436996,-146.282959,,,
729706770.930117,0.134969,1.060986,120.879925,-0.019775,0.001251,1.007217,0.032611,-0.026455,-0.061553,60.249435,30.436996,-146.282959,,,
729706770.931138,0.143667,1.054849,-23.038103,-0.019775,0.001251,1.007217,0.032611,-0.026455,-0.061553,60.249435,30.436996,-146.282959,,,
729706770.933436,0.143676,1.054882,120.872073,-0.019775,0.001251,1.007217,0.032611,-0.026455,-0.061553,60.249435,30.436996,-146.282959,,,
729706770.934177,0.143667,1.054849,-23.038103,-0.019775,0.001251,1.007217,0.032611,-0.026455,-0.061553,60.249435,30.436996,-146.282959,,,
729706770.936782,0.152972,1.052718,120.881875,-0.012589,0.005783,1.00705,0.032235,0.000681,0.061427,60.249435,30.436996,-146.282959,,,
729706770.938787,0.152963,1.052684,-23.028304,-0.012589,0.005783,1.00705,0.032235,0.000681,0.061427,60.249435,30.436996,-146.282959,,,
729706770.940127,0.152972,1.052718,120.881875,-0.012589,0.005783,1.00705,0.032235,0.000681,0.061427,60.249435,30.436996,-146.282959,,,
729706770.941096,0.161429,1.051693,-23.019521,-0.012589,0.005783,1.00705,0.032235,0.000681,0.061427,60.249435,30.436996,-146.282959,,,
729706770.943211,0.161439,1.051726,120.890665,-0.012589,0.005783,1.00705,0.032235,0.000681,0.061427,60.249435,30.436996,-146.282959,,,
729706770.944292,0.161429,1.051693,-23.019521,-0.012589,0.005783,1.00705,0.032235,0.000681,0.061427,60.249435,30.436996,-146.282959,,,
729706770.946756,0.169114,1.051071,120.883026,-0.009628,0.004089,1.001404,0.026165,0.001767,-0.053136,60.260574,30.182922,-146.08313,,,
729706770.948503,0.169105,1.051037,-23.02716,-0.009628,0.004089,1.001404,0.026165,0.001767,-0.053136,60.260574,30.182922,-146.08313,,,
729706770.950113,0.169114,1.051071,120.883026,-0.009628,0.004089,1.001404,0.026165,0.001767,-0.053136,60.260574,30.182922,-146.08313,,,
729706770.950973,0.175126,1.053094,-23.033066,-0.009628,0.004089,1.001404,0.026165,0.001767,-0.053136,60.260574,30.182922,-146.08313,,,
729706770.953457,0.175136,1.053127,120.877119,-0.009628,0.004089,1.001404,0.026165,0.001767,-0.053136,60.260574,30.182922,-146.08313,,,
729706770.954187,0.175126,1.053094,-23.033066,-0.009628,0.004089,1.001404,0.026165,0.001767,-0.053136,60.260574,30.182922,-146.08313,,,
729706770.956888,0.1806,1.057651,120.888282,-0.006912,0.009399,0.995468,0.018884,0.019899,0.065623,60.260574,30.182922,-146.08313,,,
729706770.958483,0.18059,1.057618,-23.021904,-0.006912,0.009399,0.995468,0.018884,0.019899,0.065623,60.260574,30.182922,-146.08313,,,
729706770.959989,0.1806,1.057651,120.888282,-0.006912,0.009399,0.995468,0.018884,0.019899,0.065623,60.260574,30.182922,-146.08313,,,
729706770.96107,0.185672,1.062368,-23.01209,-0.006912,0.009399,0.995468,0.018884,0.019899,0.065623,60.260574,30.182922,-146.08313,,,
729706770.963437,0.185682,1.062401,120.898097,-0.006912,0.009399,0.995468,0.018884,0.019899,0.065623,60.260574,30.182922,-146.08313,,,
729706770.964183,0.185672,1.062368,-23.01209,-0.006912,0.009399,0.995468,0.018884,0.019899,0.065623,60.260574,30.182922,-146.08313,,,
729706770.966765,0.18961,1.066038,120.890178,-0.006989,0.011169,0.994858,0.012088,0.014537,-0.057983,60.260574,30.182922,-146.08313,,,
729706770.968469,0.1896,1.066004,-23.019996,-0.006989,0.011169,0.994858,0.012088,0.014537,-0.057983,60.260574,30.182922,-146.08313,,,
729706770.970205,0.18961,1.066038,120.890178,-0.006989,0.011169,0.994858,0.012088,0.014537,-0.057983,60.260574,30.182922,-146.08313,,,
729706770.971144,0.191912,1.071246,-23.027957,-0.006989,0.011169,0.994858,0.012088,0.014537,-0.057983,60.260574,30.182922,-146.08313,,,
729706770.973437,0.191922,1.071279,120.882216,-0.006989,0.011169,0.994858,0.012088,0.014537,-0.057983,60.260574,30.182922,-146.08313,,,
729706770.974188,0.191912,1.071246,-23.027957,-0.006989,0.011169,0.994858,0.012088,0.014537,-0.057983,60.260574,30.182922,-146.08313,,,
729706770.976595,0.194405,1.075728,120.891705,-0.013306,0.009491,0.992203,0.009001,0.015043,0.063488,60.260574,30.182922,-146.08313,,,
729706770.978324,0.194396,1.075694,-23.018472,-0.013306,0.009491,0.992203,0.009001,0.015043,0.063488,60.260574,30.182922,-146.08313,,,
729706770.980103,0.194405,1.075728,120.891705,-0.013306,0.009491,0.992203,0.009001,0.015043,0.063488,60.260574,30.182922,-146.08313,,,
729706770.98107,0.196568,1.077632,-23.008864,-0.013306,0.009491,0.992203,0.009001,0.015043,0.063488,60.260574,30.182922,-146.08313,,,
729706770.983435,0.196577,1.077666,120.901313,-0.013306,0.009491,0.992203,0.009001,0.015043,0.063488,60.260574,30.182922,-146.08313,,,
729706770.98421,0.196568,1.077632,-23.008864,-0.013306,0.009491,0.992203,0.009001,0.015043,0.063488,60.260574,30.182922,-146.08313,,,
729706770.986615,0.198338,1.075182,120.89307,-0.014145,0.00592,0.992691,0.006789,-0.008654,-0.060997,60.302994,30.140015,-146.259094,,,
729706770.98879,0.198328,1.075149,-23.017105,-0.014145,0.00592,0.992691,0.006789,-0.008654,-0.060997,60.302994,30.140015,-146.259094,,,
729706770.990116,0.198338,1.075182,120.89307,-0.014145,0.00592,0.992691,0.006789,-0.008654,-0.060997,60.302994,30.140015,-146.259094,,,
729706770.991064,0.199443,1.073657,-23.02595,-0.014145,0.00592,0.992691,0.006789,-0.008654,-0.060997,60.302994,30.140015,-146.259094,,,
729706770.993256,0.199452,1.07369,120.884227,-0.014145,0.00592,0.992691,0.006789,-0.008654,-0.060997,60.302994,30.140015,-146.259094,,,
729706770.994211,0.199443,1.073657,-23.02595,-0.014145,0.00592,0.992691,0.006789,-0.008654,-0.060997,60.302994,30.140015,-146.259094,,,
729706770.996759,0.201361,1.070964,120.892347,-0.01503,0.006866,0.99263,0.005675,-0.008338,0.057139,60.302994,30.140015,-146.259094,,,
729706770.998165,0.201351,1.07093,-23.017828,-0.01503,0.006866,0.99263,0.005675,-0.008338,0.057139,60.302994,30.140015,-146.259094,,,
729706771.000141,0.201361,1.070964,120.892347,-0.01503,0.006866,0.99263,0.005675,-0.008338,0.057139,60.302994,30.140015,-146.259094,,,
729706771.000948,0.202635,1.067037,-23.009541,-0.01503,0.006866,0.99263,0.005675,-0.008338,0.057139,60.302994,30.140015,-146.259094,,,
729706771.003548,0.202645,1.06707,120.900631,-0.01503,0.006866,0.99263,0.005675,-0.008338,0.057139,60.302994,30.140015,-146.259094,,,
729706771.004186,0.202635,1.067037,-23.009541,-0.01503,0.006866,0.99263,0.005675,-0.008338,0.057139,60.302994,30.140015,-146.259094,,,
729706771.006859,0.203377,1.061391,120.891289,-0.015808,0.006409,0.992462,0.000919,-0.017483,-0.065816,60.302994,30.140015,-146.259094,,,
729706771.008492,0.203368,1.061357,-23.018883,-0.015808,0.006409,0.992462,0.000919,-0.017483,-0.065816,60.302994,30.140015,-146.259094,,,
729706771.009933,0.203377,1.061391,120.891289,-0.015808,0.006409,0.992462,0.000919,-0.017483,-0.065816,60.302994,30.140015,-146.259094,,,
729706771.011061,0.203206,1.05681,-23.029501,-0.015808,0.006409,0.992462,0.000919,-0.017483,-0.065816,60.302994,30.140015,-146.259094,,,
729706771.013422,0.203216,1.056844,120.880668,-0.015808,0.006409,0.992462,0.000919,-0.017483,-0.065816,60.302994,30.140015,-146.259094,,,
729706771.014181,0.203206,1.05681,-23.029501,-0.015808,0.006409,0.992462,0.000919,-0.017483,-0.065816,60.302994,30.140015,-146.259094,,,
729706771.016761,0.202118,1.054061,120.887998,-0.014694,0.00705,0.990036,-0.007614,-0.00669,0.059085,60.302994,30.140015,-146.259094,,,
729706771.018826,0.202109,1.054027,-23.022172,-0.014694,0.00705,0.990036,-0.007614,-0.00669,0.059085,60.302994,30.140015,-146.259094,,,
729706771.020182,0.202118,1.054061,120.887998,-0.014694,0.00705,0.990036,-0.007614,-0.00669,0.059085,60.302994,30.140015,-146.259094,,,
729706771.021039,0.199263,1.049352,-23.012822,-0.014694,0.00705,0.990036,-0.007614,-0.00669,0.059085,60.302994,30.140015,-146.259094,,,
729706771.023448,0.199273,1.049386,120.897345,-0.014694,0.00705,0.990036,-0.007614,-0.00669,0.059085,60.302994,30.140015,-146.259094,,,
729706771.02419,0.199263,1.049352,-23.012822,-0.014694,0.00705,0.990036,-0.007614,-0.00669,0.059085,60.302994,30.140015,-146.259094,,,
729706771.02657,0.194606,1.044458,120.889662,-0.014954,0.006485,0.991669,-0.016831,-0.016101,-0.059728,60.302994,30.140015,-146.259094,,,
729706771.028712,0.194597,1.044424,-23.020505,-0.014954,0.006485,0.991669,-0.016831,-0.016101,-0.059728,60.113556,30.311401,-146.220276,,,
729706771.03011,0.194606,1.044458,120.889662,-0.014954,0.006485,0.991669,-0.016831,-0.016101,-0.059728,60.113556,30.311401,-146.220276,,,
729706771.030942,0.189042,1.039417,-23.029305,-0.014954,0.006485,0.991669,-0.016831,-0.016101,-0.059728,60.113556,30.311401,-146.220276,,,
729706771.033432,0.189052,1.039451,120.880866,-0.014954,0.006485,0.991669,-0.016831,-0.016101,-0.059728,60.113556,30.311401,-146.220276,,,
729706771.034178,0.189042,1.039417,-23.029305,-0.014954,0.006485,0.991669,-0.016831,-0.016101,-0.059728,60.113556,30.311401,-146.220276,,,
729706771.036834,0.182876,1.037806,120.889867,-0.01709,0.005447,0.996216,-0.021215,-0.000905,0.064221,60.113556,30.311401,-146.220276,,,
729706771.038555,0.182867,1.037772,-23.020307,-0.01709,0.005447,0.996216,-0.021215,-0.000905,0.064221,60.113556,30.311401,-146.220276,,,
729706771.04013,0.182876,1.037806,120.889867,-0.01709,0.005447,0.996216,-0.021215,-0.000905,0.064221,60.113556,30.311401,-146.220276,,,
729706771.041057,0.177848,1.034236,-23.008613,-0.01709,0.005447,0.996216,-0.021215,-0.000905,0.064221,60.113556,30.311401,-146.220276,,,
729706771.043291,0.177858,1.034269,120.901557,-0.01709,0.005447,0.996216,-0.021215,-0.000905,0.064221,60.113556,30.311401,-146.220276,,,
729706771.044211,0.177848,1.034236,-23.008613,-0.01709,0.005447,0.996216,-0.021215,-0.000905,0.064221,60.113556,30.311401,-146.220276,,,
729706771.046761,0.171942,1.031544,120.895863,-0.017303,0.002884,1.001205,-0.018788,-0.006782,-0.05682,60.113556,30.311401,-146.220276,,,
729706771.048317,0.171932,1.031511,-23.014303,-0.017303,0.002884,1.001205,-0.018788,-0.006782,-0.05682,60.113556,30.311401,-146.220276,,,
729706771.050109,0.171942,1.031544,120.895863,-0.017303,0.002884,1.001205,-0.018788,-0.006782,-0.05682,60.113556,30.311401,-146.220276,,,
729706771.050951,0.167303,1.029182,-23.023101,-0.017303,0.002884,1.001205,-0.018788,-0.006782,-0.05682,60.113556,30.311401,-146.220276,,,
729706771.053505,0.167312,1.029215,120.88707,-0.017303,0.002884,1.001205,-0.018788,-0.006782,-0.05682,60.113556,30.311401,-146.220276,,,
729706771.05422,0.167303,1.029182,-23.023101,-0.017303,0.002884,1.001205,-0.018788,-0.006782,-0.05682,60.113556,30.311401,-146.220276,,,
729706771.0568,0.163081,1.029433,120.895486,-0.020172,0.000717,1.005203,-0.011445,0.005356,0.063267,60.113556,30.311401,-146.220276,,,
729706771.058742,0.163071,1.029399,-23.014685,-0.020172,0.000717,1.005203,-0.011445,0.005356,0.063267,60.113556,30.311401,-146.220276,,,
729706771.059937,0.163081,1.029433,120.895486,-0.020172,0.000717,1.005203,-0.011445,0.005356,0.063267,60.113556,30.311401,-146.220276,,,
729706771.060977,0.160789,1.028727,-23.003157,-0.020172,0.000717,1.005203,-0.011445,0.005356,0.063267,60.113556,30.311401,-146.220276,,,
729706771.06343,0.160798,1.02876,120.90701,-0.020172,0.000717,1.005203,-0.011445,0.005356,0.063267,60.113556,30.311401,-146.220276,,,
729706771.064225,0.160789,1.028727,-23.003157,-0.020172,0.000717,1.005203,-0.011445,0.005356,0.063267,60.113556,30.311401,-146.220276,,,
729706771.066765,0.157723,1.026877,120.901319,-0.021378,-0.00087,1.005005,-0.010244,-0.006685,-0.056644,60.113556,30.311401,-146.220276,,,
729706771.069013,0.157713,1.026843,-23.008849,-0.021378,-0.00087,1.005005,-0.010244,-0.006685,-0.056644,60.029495,30.485992,-146.486099,,,
729706771.07018,0.157723,1.026877,120.901319,-0.021378,-0.00087,1.005005,-0.010244,-0.006685,-0.056644,60.029495,30.485992,-146.486099,,,
729706771.071163,0.155403,1.024247,-23.017899,-0.021378,-0.00087,1.005005,-0.010244,-0.006685,-0.056644,60.029495,30.485992,-146.486099,,,
729706771.073444,0.155413,1.02428,120.892269,-0.021378,-0.00087,1.005005,-0.010244,-0.006685,-0.056644,60.029495,30.485992,-146.486099,,,
729706771.074184,0.155403,1.024247,-23.017899,-0.021378,-0.00087,1.005005,-0.010244,-0.006685,-0.056644,60.029495,30.485992,-146.486099,,,
729706771.076598,0.153843,1.022739,120.900383,-0.022537,-0.00058,1.003967,-0.004735,-0.002521,0.063097,60.029495,30.485992,-146.486099,,,
729706771.07845,0.153834,1.022705,-23.00979,-0.022537,-0.00058,1.003967,-0.004735,-0.002521,0.063097,60.029495,30.485992,-146.486099,,,
729706771.080102,0.153843,1.022739,120.900383,-0.022537,-0.00058,1.003967,-0.004735,-0.002521,0.063097,60.029495,30.485992,-146.486099,,,
729706771.081007,0.153405,1.019749,-22.997908,-0.022537,-0.00058,1.003967,-0.004735,-0.002521,0.063097,60.029495,30.485992,-146.486099,,,
729706771.083442,0.153414,1.019782,120.912274,-0.022537,-0.00058,1.003967,-0.004735,-0.002521,0.063097,60.029495,30.485992,-146.486099,,,
729706771.084183,0.153405,1.019749,-22.997908,-0.022537,-0.00058,1.003967,-0.004735,-0.002521,0.063097,60.029495,30.485992,-146.486099,,,
729706771.086897,0.152501,1.01644,120.90729,-0.02507,-0.001358,1.003632,-0.002505,-0.007619,-0.05439,60.029495,30.485992,-146.486099,,,
729706771.088341,0.152491,1.016406,-23.00289,-0.02507,-0.001358,1.003632,-0.002505,-0.007619,-0.05439,60.029495,30.485992,-146.486099,,,
729706771.090119,0.152501,1.01644,120.90729,-0.02507,-0.001358,1.003632,-0.002505,-0.007619,-0.05439,60.029495,30.485992,-146.486099,,,
729706771.091142,0.15237,1.013959,-23.011764,-0.02507,-0.001358,1.003632,-0.002505,-0.007619,-0.05439,60.029495,30.485992,-146.486099,,,
729706771.093271,0.15238,1.013992,120.898415,-0.02507,-0.001358,1.003632,-0.002505,-0.007619,-0.05439,60.029495,30.485992,-146.486099,,,
729706771.09427,0.15237,1.013959,-23.011764,-0.02507,-0.001358,1.003632,-0.002505,-0.007619,-0.05439,60.029495,30.485992,-146.486099,,,
729706771.096789,0.153132,1.012798,120.906924,-0.020996,-0.000122,1.002014,0.004209,-0.000658,0.066824,60.029495,30.485992,-146.486099,,,
729706771.098624,0.153122,1.012764,-23.00326,-0.020996,-0.000122,1.002014,0.004209,-0.000658,0.066824,60.029495,30.485992,-146.486099,,,
729706771.100114,0.153132,1.012798,120.906924,-0.020996,-0.000122,1.002014,0.004209,-0.000658,0.066824,60.029495,30.485992,-146.486099,,,
729706771.101095,0.155553,1.008886,-22.990282,-0.020996,-0.000122,1.002014,0.004209,-0.000658,0.066824,60.029495,30.485992,-146.486099,,,
729706771.103511,0.155563,1.00892,120.919904,-0.020996,-0.000122,1.002014,0.004209,-0.000658,0.066824,60.029495,30.485992,-146.486099,,,
729706771.1042,0.155553,1.008886,-22.990282,-0.020996,-0.000122,1.002014,0.004209,-0.000658,0.066824,60.029495,30.485992,-146.486099,,,
729706771.106765,0.157319,1.002714,120.915254,-0.020828,-0.001602,1.000214,0.005691,-0.020616,-0.05599,60.029495,30.485992,-146.486099,,,
729706771.108405,0.157309,1.00268,-22.99493,-0.020828,-0.001602,1.000214,0.005691,-0.020616,-0.05599,60.029495,30.485992,-146.486099,,,
729706771.109957,0.157319,1.002714,120.915254,-0.020828,-0.001602,1.000214,0.005691,-0.020616,-0.05599,60.151627,30.280212,-146.315002,,,
729706771.111214,0.159354,0.996788,-23.004302,-0.020828,-0.001602,1.000214,0.005691,-0.020616,-0.05599,60.151627,30.280212,-146.315002,,,
729706771.113433,0.159363,0.996821,120.905878,-0.020828,-0.001602,1.000214,0.005691,-0.020616,-0.05599,60.151627,30.280212,-146.315002,,,
729706771.114189,0.159354,0.996788,-23.004302,-0.020828,-0.001602,1.000214,0.005691,-0.020616,-0.05599,60.151627,30.280212,-146.315002,,,
729706771.116764,0.162339,0.991841,120.913549,-0.02066,0.00029,0.998917,0.012576,-0.014938,0.062915,60.151627,30.280212,-146.315002,,,
729706771.11858,0.16233,0.991807,-22.996629,-0.02066,0.00029,0.998917,0.012576,-0.014938,0.062915,60.151627,30.280212,-146.315002,,,
729706771.120184,0.162339,0.991841,120.913549,-0.02066,0.00029,0.998917,0.012576,-0.014938,0.062915,60.151627,30.280212,-146.315002,,,
729706771.121195,0.165876,0.985564,-22.984044,-0.02066,0.00029,0.998917,0.012576,-0.014938,0.062915,60.151627,30.280212,-146.315002,,,
729706771.12343,0.165886,0.985597,120.926133,-0.02066,0.00029,0.998917,0.012576,-0.014938,0.062915,60.151627,30.280212,-146.315002,,,
729706771.124186,0.165876,0.985564,-22.984044,-0.02066,0.00029,0.998917,0.012576,-0.014938,0.062915,60.151627,30.280212,-146.315002,,,
729706771.126681,0.169028,0.977858,120.922182,-0.017532,-4.6e-05,0.999557,0.013049,-0.026228,-0.052291,60.151627,30.280212,-146.315002,,,
729706771.128638,0.169019,0.977825,-22.987996,-0.017532,-4.6e-05,0.999557,0.013049,-0.026228,-0.052291,60.151627,30.280212,-146.315002,,,
729706771.130111,0.169028,0.977858,120.922182,-0.017532,-4.6e-05,0.999557,0.013049,-0.026228,-0.052291,60.151627,30.280212,-146.315002,,,
729706771.131068,0.172487,0.971698,-22.997561,-0.017532,-4.6e-05,0.999557,0.013049,-0.026228,-0.052291,60.151627,30.280212,-146.315002,,,
729706771.133437,0.172496,0.971732,120.912618,-0.017532,-4.6e-05,0.999557,0.013049,-0.026228,-0.052291,60.151627,30.280212,-146.315002,,,
729706771.134178,0.172487,0.971698,-22.997561,-0.017532,-4.6e-05,0.999557,0.013049,-0.026228,-0.052291,60.151627,30.280212,-146.315002,,,
729706771.13681,0.176823,0.968771,120.919183,-0.01564,0.001114,0.998734,0.015878,-0.001971,0.060103,60.151627,30.280212,-146.315002,,,
729706771.138872,0.176813,0.968738,-22.990992,-0.01564,0.001114,0.998734,0.015878,-0.001971,0.060103,60.151627,30.280212,-146.315002,,,
729706771.140233,0.176823,0.968771,120.919183,-0.01564,0.001114,0.998734,0.015878,-0.001971,0.060103,60.151627,30.280212,-146.315002,,,
729706771.14098,0.180853,0.96762,-22.978454,-0.01564,0.001114,0.998734,0.015878,-0.001971,0.060103,60.151627,30.280212,-146.315002,,,
729706771.143354,0.180862,0.967653,120.931717,-0.01564,0.001114,0.998734,0.015878,-0.001971,0.060103,60.151627,30.280212,-146.315002,,,
729706771.144278,0.180853,0.96762,-22.978454,-0.01564,0.001114,0.998734,0.015878,-0.001971,0.060103,60.151627,30.280212,-146.315002,,,
729706771.146762,0.18446,0.966345,120.927994,-0.012146,0.001495,0.9991,0.012444,0.000558,-0.053274,60.151627,30.280212,-146.315002,,,
729706771.148444,0.184451,0.966312,-22.982182,-0.012146,0.001495,0.9991,0.012444,0.000558,-0.053274,60.151627,30.280212,-146.315002,,,
729706771.1501,0.18446,0.966345,120.927994,-0.012146,0.001495,0.9991,0.012444,0.000558,-0.053274,59.756607,30.438354,-146.193665,,,
729706771.151265,0.187302,0.9675,-22.992019,-0.012146,0.001495,0.9991,0.012444,0.000558,-0.053274,59.756607,30.438354,-146.193665,,,
729706771.153534,0.187311,0.967533,120.918155,-0.012146,0.001495,0.9991,0.012444,0.000558,-0.053274,59.756607,30.438354,-146.193665,,,
729706771.154225,0.187302,0.9675,-22.992019,-0.012146,0.001495,0.9991,0.012444,0.000558,-0.053274,59.756607,30.438354,-146.193665,,,
729706771.156849,0.190546,0.971145,120.92529,-0.012665,0.003616,0.994965,0.009526,0.021544,0.064908,59.756607,30.438354,-146.193665,,,
729706771.158371,0.190536,0.971112,-22.984887,-0.012665,0.003616,0.994965,0.009526,0.021544,0.064908,59.756607,30.438354,-146.193665,,,
729706771.16002,0.190546,0.971145,120.92529,-0.012665,0.003616,0.994965,0.009526,0.021544,0.064908,59.756607,30.438354,-146.193665,,,
729706771.161064,0.192547,0.976292,-22.970761,-0.012665,0.003616,0.994965,0.009526,0.021544,0.064908,59.756607,30.438354,-146.193665,,,
729706771.163376,0.192556,0.976325,120.939418,-0.012665,0.003616,0.994965,0.009526,0.021544,0.064908,59.756607,30.438354,-146.193665,,,
729706771.164191,0.192547,0.976292,-22.970761,-0.012665,0.003616,0.994965,0.009526,0.021544,0.064908,59.756607,30.438354,-146.193665,,,
729706771.166752,0.193946,0.978079,120.937724,-0.015961,0.003525,0.990677,0.004155,0.003621,-0.045392,59.756607,30.438354,-146.193665,,,
729706771.168321,0.193936,0.978046,-22.972459,-0.015961,0.003525,0.990677,0.004155,0.003621,-0.045392,59.756607,30.438354,-146.193665,,,
729706771.170268,0.193946,0.978079,120.937724,-0.015961,0.003525,0.990677,0.004155,0.003621,-0.045392,59.756607,30.438354,-146.193665,,,
729706771.171113,0.194276,0.979785,-22.980541,-0.015961,0.003525,0.990677,0.004155,0.003621,-0.045392,59.756607,30.438354,-146.193665,,,
729706771.173437,0.194286,0.979819,120.929631,-0.015961,0.003525,0.990677,0.004155,0.003621,-0.045392,59.756607,30.438354,-146.193665,,,
729706771.174184,0.194276,0.979785,-22.980541,-0.015961,0.003525,0.990677,0.004155,0.003621,-0.045392,59.756607,30.438354,-146.193665,,,
729706771.1766,0.195482,0.981795,120.937408,-0.015869,0.004654,0.989975,0.003997,0.011252,0.065072,59.756607,30.438354,-146.193665,,,
729706771.178367,0.195472,0.981762,-22.972763,-0.015869,0.004654,0.989975,0.003997,0.011252,0.065072,59.756607,30.438354,-146.193665,,,
729706771.180112,0.195482,0.981795,120.937408,-0.015869,0.004654,0.989975,0.003997,0.011252,0.065072,59.756607,30.438354,-146.193665,,,
729706771.180856,0.195472,0.981762,-22.972763,-0.015869,0.004654,0.989975,0.003997,0.011252,0.065072,59.756607,30.438354,-146.193665,,,
