Time (sec),Pitch (deg),Roll (deg),Yaw(deg),X-Acceleration (g),Y-Acceleration (g),Z-Acceleration (g),Pitch Rate (deg/sec),Roll Rate (deg/sec),Yaw Rate (deg/sec),Magnetic Field in X direction (uT),Magnetic Field in Y direction (uT),Magnetic Field in Z Direction (uT),Latitude (deg),Longitude (deg),Altitude (m)
729706651.017033,-56.75427,3.372537,112.246728,-0.034363,-0.840271,0.577896,-0.496408,0.130487,-0.062094,59.820282,65.658554,-119.585663,,,
729706651.018671,-56.754285,3.372475,-31.663514,-0.034363,-0.840271,0.577896,-0.496408,0.130487,-0.062094,59.820282,65.658554,-119.585663,,,
729706651.020444,-56.75427,3.372537,112.246728,-0.034363,-0.840271,0.577896,-0.496408,0.130487,-0.062094,59.820282,65.658554,-119.585663,,,
729706651.022599,-56.887029,3.393835,-31.679646,-0.035492,-0.839966,0.577026,-0.445067,0.121853,-0.058574,59.820282,65.658554,-119.585663,,,
729706651.023723,-56.887013,3.393898,112.230592,-0.035492,-0.839966,0.577026,-0.445067,0.121853,-0.058574,59.820282,65.658554,-119.585663,,,
729706651.024505,-56.887029,3.393835,-31.679646,-0.035492,-0.839966,0.577026,-0.445067,0.121853,-0.058574,59.820282,65.658554,-119.585663,,,
729706651.027056,-57.012592,3.414363,112.215726,-0.035492,-0.839966,0.577026,-0.445067,0.121853,-0.058574,59.820282,65.658554,-119.585663,,,
729706651.028674,-57.012608,3.4143,-31.694502,-0.035492,-0.839966,0.577026,-0.445067,0.121853,-0.058574,59.820282,65.658554,-119.585663,,,
729706651.030307,-57.012592,3.414363,112.215726,-0.035492,-0.839966,0.577026,-0.445067,0.121853,-0.058574,59.820282,65.658554,-119.585663,,,
729706651.032042,-57.012608,3.4143,-31.694502,-0.039291,-0.84198,0.568085,-0.400725,0.10117,-0.0536,59.820282,65.658554,-119.585663,,,
729706651.033776,-57.131798,3.43236,112.201481,-0.039291,-0.84198,0.568085,-0.400725,0.10117,-0.0536,59.820282,65.658554,-119.585663,,,
729706651.035343,-57.131813,3.432297,-31.708737,-0.039291,-0.84198,0.568085,-0.400725,0.10117,-0.0536,59.820282,65.658554,-119.585663,,,
729706651.037033,-57.244379,3.447776,112.186737,-0.039291,-0.84198,0.568085,-0.400725,0.10117,-0.0536,59.820282,65.658554,-119.585663,,,
729706651.038662,-57.244395,3.447713,-31.723494,-0.039291,-0.84198,0.568085,-0.400725,0.10117,-0.0536,59.820282,65.658554,-119.585663,,,
729706651.040443,-57.244379,3.447776,112.186737,-0.039291,-0.84198,0.568085,-0.400725,0.10117,-0.0536,59.820282,65.658554,-119.585663,,,
729706651.042881,-57.350469,3.46082,-31.739726,-0.039337,-0.845291,0.565323,-0.355114,0.093864,-0.056373,59.820282,65.658554,-119.585663,,,
729706651.043702,-57.350453,3.460883,112.170497,-0.039337,-0.845291,0.565323,-0.355114,0.093864,-0.056373,59.820282,65.658554,-119.585663,,,
729706651.044509,-57.350469,3.46082,-31.739726,-0.039337,-0.845291,0.565323,-0.355114,0.093864,-0.056373,59.820282,65.658554,-119.585663,,,
729706651.047003,-57.450909,3.470359,112.152728,-0.039337,-0.845291,0.565323,-0.355114,0.093864,-0.056373,59.666061,65.872116,-118.636948,,,
729706651.049282,-57.450924,3.470295,-31.757532,-0.039337,-0.845291,0.565323,-0.355114,0.093864,-0.056373,59.666061,65.872116,-118.636948,,,
729706651.050403,-57.450909,3.470359,112.152728,-0.039337,-0.845291,0.565323,-0.355114,0.093864,-0.056373,59.666061,65.872116,-118.636948,,,
729706651.052641,-57.546733,3.47492,-31.777302,-0.03537,-0.844971,0.558701,-0.322757,0.071923,-0.061752,59.666061,65.872116,-118.636948,,,
729706651.053715,-57.546717,3.474984,112.132941,-0.03537,-0.844971,0.558701,-0.322757,0.071923,-0.061752,59.666061,65.872116,-118.636948,,,
729706651.054505,-57.546733,3.47492,-31.777302,-0.03537,-0.844971,0.558701,-0.322757,0.071923,-0.061752,59.666061,65.872116,-118.636948,,,
729706651.057017,-57.638828,3.474042,112.108342,-0.03537,-0.844971,0.558701,-0.322757,0.071923,-0.061752,59.666061,65.872116,-118.636948,,,
729706651.058386,-57.638844,3.473978,-31.80189,-0.03537,-0.844971,0.558701,-0.322757,0.071923,-0.061752,59.666061,65.872116,-118.636948,,,
729706651.060432,-57.638828,3.474042,112.108342,-0.03537,-0.844971,0.558701,-0.322757,0.071923,-0.061752,59.666061,65.872116,-118.636948,,,
729706651.062905,-57.727388,3.468077,-31.830729,-0.030121,-0.8452,0.553238,-0.296987,0.06253,-0.075705,59.666061,65.872116,-118.636948,,,
729706651.063628,-57.727373,3.468141,112.079516,-0.030121,-0.8452,0.553238,-0.296987,0.06253,-0.075705,59.666061,65.872116,-118.636948,,,
729706651.064515,-57.727388,3.468077,-31.830729,-0.030121,-0.8452,0.553238,-0.296987,0.06253,-0.075705,59.666061,65.872116,-118.636948,,,
729706651.067017,-57.813511,3.458667,112.047949,-0.030121,-0.8452,0.553238,-0.296987,0.06253,-0.075705,59.666061,65.872116,-118.636948,,,
729706651.068691,-57.813526,3.458603,-31.862284,-0.030121,-0.8452,0.553238,-0.296987,0.06253,-0.075705,59.666061,65.872116,-118.636948,,,
729706651.070379,-57.813511,3.458667,112.047949,-0.030121,-0.8452,0.553238,-0.296987,0.06253,-0.075705,59.666061,65.872116,-118.636948,,,
729706651.072437,-57.898938,3.445876,-31.897483,-0.025467,-0.84729,0.55072,-0.291011,0.061544,-0.088366,59.666061,65.872116,-118.636948,,,
729706651.073737,-57.898922,3.44594,112.012753,-0.025467,-0.84729,0.55072,-0.291011,0.061544,-0.088366,59.666061,65.872116,-118.636948,,,
729706651.074514,-57.898938,3.445876,-31.897483,-0.025467,-0.84729,0.55072,-0.291011,0.061544,-0.088366,59.666061,65.872116,-118.636948,,,
729706651.07702,-57.98357,3.430627,111.974535,-0.025467,-0.84729,0.55072,-0.291011,0.061544,-0.088366,59.666061,65.872116,-118.636948,,,
729706651.078749,-57.983586,3.430562,-31.935699,-0.025467,-0.84729,0.55072,-0.291011,0.061544,-0.088366,59.666061,65.872116,-118.636948,,,
729706651.080295,-57.98357,3.430627,111.974535,-0.025467,-0.84729,0.55072,-0.291011,0.061544,-0.088366,59.666061,65.872116,-118.636948,,,
729706651.082441,-58.06774,3.415918,-31.97408,-0.02063,-0.854004,0.547134,-0.287709,0.067496,-0.088277,59.666061,65.872116,-118.636948,,,
729706651.083716,-58.067724,3.415983,111.936148,-0.02063,-0.854004,0.547134,-0.287709,0.067496,-0.088277,59.666061,65.872116,-118.636948,,,
729706651.084505,-58.06774,3.415918,-31.97408,-0.02063,-0.854004,0.547134,-0.287709,0.067496,-0.088277,59.666061,65.872116,-118.636948,,,
729706651.087019,-58.152374,3.403595,111.898625,-0.02063,-0.854004,0.547134,-0.287709,0.067496,-0.088277,59.523514,66.118973,-117.882462,,,
729706651.089271,-58.152389,3.40353,-32.011629,-0.02063,-0.854004,0.547134,-0.287709,0.067496,-0.088277,59.523514,66.118973,-117.882462,,,
729706651.090382,-58.152374,3.403595,111.898625,-0.02063,-0.854004,0.547134,-0.287709,0.067496,-0.088277,59.523514,66.118973,-117.882462,,,
729706651.093033,-58.238089,3.394039,-32.047602,-0.019806,-0.859634,0.544128,-0.29548,0.078634,-0.08243,59.523514,66.118973,-117.882462,,,
729706651.093713,-58.238074,3.394104,111.862665,-0.019806,-0.859634,0.544128,-0.29548,0.078634,-0.08243,59.523514,66.118973,-117.882462,,,
729706651.094504,-58.238089,3.394039,-32.047602,-0.019806,-0.859634,0.544128,-0.29548,0.078634,-0.08243,59.523514,66.118973,-117.882462,,,
729706651.09695,-58.324367,3.391171,111.831732,-0.019806,-0.859634,0.544128,-0.29548,0.078634,-0.08243,59.523514,66.118973,-117.882462,,,
729706651.098399,-58.324383,3.391106,-32.078529,-0.019806,-0.859634,0.544128,-0.29548,0.078634,-0.08243,59.523514,66.118973,-117.882462,,,
729706651.10044,-58.324367,3.391171,111.831732,-0.019806,-0.859634,0.544128,-0.29548,0.078634,-0.08243,59.523514,66.118973,-117.882462,,,
729706651.102703,-58.411935,3.39711,-32.102445,-0.019012,-0.86264,0.541824,-0.305576,0.099438,-0.057025,59.523514,66.118973,-117.882462,,,
729706651.103703,-58.411919,3.397176,111.807822,-0.019012,-0.86264,0.541824,-0.305576,0.099438,-0.057025,59.523514,66.118973,-117.882462,,,
729706651.104507,-58.411935,3.39711,-32.102445,-0.019012,-0.86264,0.541824,-0.305576,0.099438,-0.057025,59.523514,66.118973,-117.882462,,,
729706651.107052,-58.50165,3.41341,111.792269,-0.019012,-0.86264,0.541824,-0.305576,0.099438,-0.057025,59.523514,66.118973,-117.882462,,,
729706651.108675,-58.501666,3.413344,-32.117979,-0.019012,-0.86264,0.541824,-0.305576,0.099438,-0.057025,59.523514,66.118973,-117.882462,,,
729706651.110408,-58.50165,3.41341,111.792269,-0.019012,-0.86264,0.541824,-0.305576,0.099438,-0.057025,59.523514,66.118973,-117.882462,,,
729706651.112687,-58.594009,3.442062,-32.12351,-0.022064,-0.867157,0.535492,-0.325946,0.127056,-0.021765,59.523514,66.118973,-117.882462,,,
729706651.113631,-58.593993,3.442128,111.786739,-0.022064,-0.867157,0.535492,-0.325946,0.127056,-0.021765,59.523514,66.118973,-117.882462,,,
729706651.11452,-58.594009,3.442062,-32.12351,-0.022064,-0.867157,0.535492,-0.325946,0.127056,-0.021765,59.523514,66.118973,-117.882462,,,
729706651.117014,-58.68961,3.484269,111.791636,-0.022064,-0.867157,0.535492,-0.325946,0.127056,-0.021765,59.523514,66.118973,-117.882462,,,
729706651.118577,-58.689626,3.484203,-32.118596,-0.022064,-0.867157,0.535492,-0.325946,0.127056,-0.021765,59.523514,66.118973,-117.882462,,,
729706651.120386,-58.68961,3.484269,111.791636,-0.022064,-0.867157,0.535492,-0.325946,0.127056,-0.021765,59.523514,66.118973,-117.882462,,,
729706651.123305,-58.689626,3.484203,-32.118596,-0.022064,-0.867157,0.535492,-0.352163,0.163698,0.011378,59.523514,66.118973,-117.882462,,,
729706651.12376,-58.78871,3.539997,111.806295,-0.024643,-0.867538,0.53299,-0.352163,0.163698,0.011378,59.523514,66.118973,-117.882462,,,
729706651.125645,-58.788726,3.539931,-32.103956,-0.024643,-0.867538,0.53299,-0.352163,0.163698,0.011378,59.523514,66.118973,-117.882462,,,
729706651.127036,-58.89084,3.607791,111.828428,-0.024643,-0.867538,0.53299,-0.352163,0.163698,0.011378,59.523514,66.118973,-117.690323,,,
729706651.129278,-58.890856,3.607725,-32.081822,-0.024643,-0.867538,0.53299,-0.352163,0.163698,0.011378,59.594101,66.477539,-117.690323,,,
729706651.130421,-58.89084,3.607791,111.828428,-0.024643,-0.867538,0.53299,-0.352163,0.163698,0.011378,59.594101,66.477539,-117.690323,,,
729706651.131974,-58.890856,3.607725,-32.081822,-0.024643,-0.867538,0.53299,-0.365357,0.201768,0.028607,59.594101,66.477539,-117.690323,,,
729706651.133731,-58.994704,3.685641,111.85589,-0.021454,-0.865524,0.531815,-0.365357,0.201768,0.028607,59.594101,66.477539,-117.690323,,,
729706651.135401,-58.99472,3.685575,-32.054349,-0.021454,-0.865524,0.531815,-0.365357,0.201768,0.028607,59.594101,66.477539,-117.690323,,,
729706651.137034,-59.099957,3.77137,111.887193,-0.021454,-0.865524,0.531815,-0.365357,0.201768,0.028607,59.594101,66.477539,-117.690323,,,
729706651.13867,-59.099974,3.771303,-32.023047,-0.021454,-0.865524,0.531815,-0.365357,0.201768,0.028607,59.594101,66.477539,-117.690323,,,
729706651.140455,-59.099957,3.77137,111.887193,-0.021454,-0.865524,0.531815,-0.365357,0.201768,0.028607,59.594101,66.477539,-117.690323,,,
729706651.14118,-59.099974,3.771303,-32.023047,-0.021454,-0.865524,0.531815,-0.365357,0.201768,0.028607,59.594101,66.477539,-117.690323,,,
729706651.143715,-59.206039,3.864003,111.921936,-0.02298,-0.864166,0.533798,-0.372151,0.229213,0.039094,59.594101,66.477539,-117.690323,,,
729706651.14605,-59.206055,3.863937,-31.988303,-0.02298,-0.864166,0.533798,-0.372151,0.229213,0.039094,59.594101,66.477539,-117.690323,,,
729706651.147033,-59.311583,3.963282,111.959988,-0.02298,-0.864166,0.533798,-0.372151,0.229213,0.039094,59.594101,66.477539,-117.690323,,,
729706651.148685,-59.3116,3.963215,-31.950244,-0.02298,-0.864166,0.533798,-0.372151,0.229213,0.039094,59.594101,66.477539,-117.690323,,,
729706651.150389,-59.311583,3.963282,111.959988,-0.02298,-0.864166,0.533798,-0.372151,0.229213,0.039094,59.594101,66.477539,-117.690323,,,
729706651.151209,-59.3116,3.963215,-31.950244,-0.02298,-0.864166,0.533798,-0.372151,0.229213,0.039094,59.594101,66.477539,-117.690323,,,
729706651.153762,-59.41571,4.067002,112.000356,-0.033493,-0.869232,0.530624,-0.362918,0.246148,0.046314,59.594101,66.477539,-117.690323,,,
729706651.156328,-59.415727,4.066935,-31.909894,-0.033493,-0.869232,0.530624,-0.362918,0.246148,0.046314,59.594101,66.477539,-117.690323,,,
729706651.157045,-59.517634,4.172983,112.042727,-0.033493,-0.869232,0.530624,-0.362918,0.246148,0.046314,59.594101,66.477539,-117.690323,,,
729706651.158663,-59.517651,4.172916,-31.867513,-0.033493,-0.869232,0.530624,-0.362918,0.246148,0.046314,59.594101,66.477539,-117.690323,,,
729706651.16036,-59.517634,4.172983,112.042727,-0.033493,-0.869232,0.530624,-0.362918,0.246148,0.046314,59.594101,66.477539,-117.690323,,,
729706651.161212,-59.517651,4.172916,-31.867513,-0.033493,-0.869232,0.530624,-0.362918,0.246148,0.046314,59.594101,66.477539,-117.690323,,,
729706651.163746,-59.616579,4.278275,112.084821,-0.040588,-0.871414,0.528595,-0.342134,0.242716,0.045149,59.594101,66.477539,-117.690323,,,
729706651.166046,-59.616596,4.278207,-31.825422,-0.040588,-0.871414,0.528595,-0.342134,0.242716,0.045149,59.594101,66.477539,-117.690323,,,
729706651.167036,-59.711686,4.381515,112.126451,-0.040588,-0.871414,0.528595,-0.342134,0.242716,0.045149,59.594101,66.477539,-117.690323,,,
729706651.169307,-59.711702,4.381447,-31.783786,-0.040588,-0.871414,0.528595,-0.342134,0.242716,0.045149,59.952087,66.635071,-116.951096,,,
729706651.17036,-59.711686,4.381515,112.126451,-0.040588,-0.871414,0.528595,-0.342134,0.242716,0.045149,59.952087,66.635071,-116.951096,,,
729706651.171241,-59.711702,4.381447,-31.783786,-0.040588,-0.871414,0.528595,-0.342134,0.242716,0.045149,59.952087,66.635071,-116.951096,,,
729706651.173681,-59.801803,4.484543,112.170711,-0.049164,-0.873947,0.524109,-0.308443,0.225294,0.055499,59.952087,66.635071,-116.951096,,,
729706651.176375,-59.80182,4.484475,-31.739525,-0.049164,-0.873947,0.524109,-0.308443,0.225294,0.055499,59.952087,66.635071,-116.951096,,,
729706651.177027,-59.88653,4.588977,112.218778,-0.049164,-0.873947,0.524109,-0.308443,0.225294,0.055499,59.952087,66.635071,-116.951096,,,
729706651.178655,-59.886547,4.588909,-31.691447,-0.049164,-0.873947,0.524109,-0.308443,0.225294,0.055499,59.952087,66.635071,-116.951096,,,
729706651.180367,-59.88653,4.588977,112.218778,-0.049164,-0.873947,0.524109,-0.308443,0.225294,0.055499,59.952087,66.635071,-116.951096,,,
729706651.181212,-59.886547,4.588909,-31.691447,-0.049164,-0.873947,0.524109,-0.308443,0.225294,0.055499,59.952087,66.635071,-116.951096,,,
729706651.183701,-59.965917,4.695683,112.27167,-0.061935,-0.876617,0.526169,-0.272752,0.211968,0.073757,59.952087,66.635071,-116.951096,,,
729706651.186498,-59.965934,4.695615,-31.63858,-0.061935,-0.876617,0.526169,-0.272752,0.211968,0.073757,59.952087,66.635071,-116.951096,,,
729706651.187024,-60.039277,4.806158,112.330911,-0.061935,-0.876617,0.526169,-0.272752,0.211968,0.073757,59.952087,66.635071,-116.951096,,,
729706651.188637,-60.039294,4.80609,-31.579326,-0.061935,-0.876617,0.526169,-0.272752,0.211968,0.073757,59.952087,66.635071,-116.951096,,,
729706651.190378,-60.039277,4.806158,112.330911,-0.061935,-0.876617,0.526169,-0.272752,0.211968,0.073757,59.952087,66.635071,-116.951096,,,
729706651.191226,-60.039294,4.80609,-31.579326,-0.061935,-0.876617,0.526169,-0.272752,0.211968,0.073757,59.952087,66.635071,-116.951096,,,
729706651.193684,-60.106416,4.919489,112.395716,-0.069153,-0.879089,0.52597,-0.231352,0.197962,0.095316,59.952087,66.635071,-116.951096,,,
729706651.19609,-60.106433,4.919421,-31.514516,-0.069153,-0.879089,0.52597,-0.231352,0.197962,0.095316,59.952087,66.635071,-116.951096,,,
729706651.196976,-60.167551,5.034489,112.464905,-0.069153,-0.879089,0.52597,-0.231352,0.197962,0.095316,59.952087,66.635071,-116.951096,,,
729706651.198666,-60.167569,5.03442,-31.445351,-0.069153,-0.879089,0.52597,-0.231352,0.197962,0.095316,59.952087,66.635071,-116.951096,,,
729706651.200379,-60.167551,5.034489,112.464905,-0.069153,-0.879089,0.52597,-0.231352,0.197962,0.095316,59.952087,66.635071,-116.951096,,,
729706651.201225,-60.167569,5.03442,-31.445351,-0.069153,-0.879089,0.52597,-0.231352,0.197962,0.095316,59.952087,66.635071,-116.951096,,,
729706651.203707,-60.223245,5.14989,112.537042,-0.072296,-0.875748,0.520111,-0.194956,0.182511,0.107626,59.952087,66.635071,-116.951096,,,
729706651.206097,-60.223263,5.149821,-31.373203,-0.072296,-0.875748,0.520111,-0.194956,0.182511,0.107626,59.952087,66.635071,-116.951096,,,
729706651.20703,-60.27397,5.26412,112.610146,-0.072296,-0.875748,0.520111,-0.194956,0.182511,0.107626,59.952087,66.635071,-116.951096,,,
729706651.208683,-60.273987,5.264052,-31.300092,-0.072296,-0.875748,0.520111,-0.194956,0.182511,0.107626,59.952087,66.635071,-116.951096,,,
729706651.210355,-60.27397,5.26412,112.610146,-0.072296,-0.875748,0.520111,-0.194956,0.182511,0.107626,60.301254,67.08609,-116.668976,,,
729706651.211874,-60.273987,5.264052,-31.300092,-0.072296,-0.875748,0.520111,-0.194956,0.182511,0.107626,60.301254,67.08609,-116.668976,,,
729706651.213647,-60.320014,5.375602,112.682352,-0.073517,-0.872223,0.518997,-0.162686,0.16868,0.106552,60.301254,67.08609,-116.668976,,,
729706651.215936,-60.320032,5.375534,-31.227876,-0.073517,-0.872223,0.518997,-0.162686,0.16868,0.106552,60.301254,67.08609,-116.668976,,,
729706651.217044,-60.320014,5.375602,112.682352,-0.073517,-0.872223,0.518997,-0.162686,0.16868,0.106552,60.301254,67.08609,-116.668976,,,
729706651.217872,-60.320032,5.375534,-31.227876,-0.073517,-0.872223,0.518997,-0.162686,0.16868,0.106552,60.301254,67.08609,-116.668976,,,
729706651.220445,-60.361282,5.480994,112.750247,-0.073517,-0.872223,0.518997,-0.162686,0.16868,0.106552,60.301254,67.08609,-116.668976,,,
729706651.22291,-60.361299,5.480925,-31.159998,-0.070221,-0.868011,0.514252,-0.124701,0.153437,0.089545,60.301254,67.08609,-116.668976,,,
729706651.22373,-60.397275,5.579204,112.812362,-0.070221,-0.868011,0.514252,-0.124701,0.153437,0.089545,60.301254,67.08609,-116.668976,,,
729706651.225337,-60.397293,5.579136,-31.097872,-0.070221,-0.868011,0.514252,-0.124701,0.153437,0.089545,60.301254,67.08609,-116.668976,,,
729706651.227029,-60.428625,5.668709,112.867515,-0.070221,-0.868011,0.514252,-0.124701,0.153437,0.089545,60.301254,67.08609,-116.668976,,,
729706651.228677,-60.428642,5.66864,-31.042721,-0.070221,-0.868011,0.514252,-0.124701,0.153437,0.089545,60.301254,67.08609,-116.668976,,,
729706651.230344,-60.428625,5.668709,112.867515,-0.070221,-0.868011,0.514252,-0.124701,0.153437,0.089545,60.301254,67.08609,-116.668976,,,
729706651.231246,-60.428642,5.66864,-31.042721,-0.070221,-0.868011,0.514252,-0.124701,0.153437,0.089545,60.301254,67.08609,-116.668976,,,
729706651.233774,-60.456578,5.747316,112.914713,-0.071533,-0.866913,0.510056,-0.098547,0.125691,0.064166,60.301254,67.08609,-116.668976,,,
729706651.236042,-60.456595,5.747247,-30.995543,-0.071533,-0.866913,0.510056,-0.098547,0.125691,0.064166,60.301254,67.08609,-116.668976,,,
729706651.237027,-60.481903,5.81544,112.955305,-0.071533,-0.866913,0.510056,-0.098547,0.125691,0.064166,60.301254,67.08609,-116.668976,,,
729706651.238664,-60.48192,5.815371,-30.954944,-0.071533,-0.866913,0.510056,-0.098547,0.125691,0.064166,60.301254,67.08609,-116.668976,,,
729706651.2404,-60.481903,5.81544,112.955305,-0.071533,-0.866913,0.510056,-0.098547,0.125691,0.064166,60.301254,67.08609,-116.668976,,,
729706651.241239,-60.48192,5.815371,-30.954944,-0.071533,-0.866913,0.510056,-0.098547,0.125691,0.064166,60.301254,67.08609,-116.668976,,,
729706651.243699,-60.505757,5.873846,112.990742,-0.070084,-0.864777,0.498596,-0.086758,0.08923,0.047407,60.301254,67.08609,-116.668976,,,
729706651.246276,-60.505774,5.873778,-30.919491,-0.070084,-0.864777,0.498596,-0.086758,0.08923,0.047407,60.301254,67.08609,-116.668976,,,
729706651.247037,-60.52944,5.923968,113.022689,-0.070084,-0.864777,0.498596,-0.086758,0.08923,0.047407,60.301254,67.08609,-116.668976,,,
729706651.248679,-60.529457,5.923899,-30.887563,-0.070084,-0.864777,0.498596,-0.086758,0.08923,0.047407,60.301254,67.08609,-116.668976,,,
729706651.25036,-60.52944,5.923968,113.022689,-0.070084,-0.864777,0.498596,-0.086758,0.08923,0.047407,60.310196,67.150696,-116.934097,,,
729706651.251862,-60.529457,5.923899,-30.887563,-0.070084,-0.864777,0.498596,-0.086758,0.08923,0.047407,60.310196,67.150696,-116.934097,,,
729706651.253712,-60.553471,5.967623,113.052801,-0.074051,-0.867706,0.488129,-0.088711,0.055223,0.040797,60.310196,67.150696,-116.934097,,,
729706651.256107,-60.553488,5.967554,-30.85745,-0.074051,-0.867706,0.488129,-0.088711,0.055223,0.040797,60.310196,67.150696,-116.934097,,,
729706651.257029,-60.577998,6.007437,113.082595,-0.074051,-0.867706,0.488129,-0.088711,0.055223,0.040797,60.310196,67.150696,-116.934097,,,
729706651.25867,-60.578016,6.007368,-30.827655,-0.074051,-0.867706,0.488129,-0.088711,0.055223,0.040797,60.310196,67.150696,-116.934097,,,
729706651.260446,-60.577998,6.007437,113.082595,-0.074051,-0.867706,0.488129,-0.088711,0.055223,0.040797,60.310196,67.150696,-116.934097,,,
729706651.261159,-60.578016,6.007368,-30.827655,-0.074051,-0.867706,0.488129,-0.088711,0.055223,0.040797,60.310196,67.150696,-116.934097,,,
729706651.263651,-60.602958,6.043735,113.111388,-0.075302,-0.86554,0.485214,-0.091419,0.036735,0.036978,60.310196,67.150696,-116.934097,,,
729706651.265784,-60.602976,6.043666,-30.79885,-0.075302,-0.86554,0.485214,-0.091419,0.036735,0.036978,60.310196,67.150696,-116.934097,,,
729706651.26703,-60.628712,6.077382,113.139534,-0.075302,-0.86554,0.485214,-0.091419,0.036735,0.036978,60.310196,67.150696,-116.934097,,,
729706651.268653,-60.62873,6.077313,-30.770706,-0.075302,-0.86554,0.485214,-0.091419,0.036735,0.036978,60.310196,67.150696,-116.934097,,,
729706651.270377,-60.628712,6.077382,113.139534,-0.075302,-0.86554,0.485214,-0.091419,0.036735,0.036978,60.310196,67.150696,-116.934097,,,
729706651.271166,-60.62873,6.077313,-30.770706,-0.075302,-0.86554,0.485214,-0.091419,0.036735,0.036978,60.310196,67.150696,-116.934097,,,
729706651.27375,-60.656132,6.10935,113.167375,-0.071884,-0.86203,0.485672,-0.102955,0.026852,0.03465,60.310196,67.150696,-116.934097,,,
729706651.27629,-60.65615,6.109281,-30.742863,-0.071884,-0.86203,0.485672,-0.102955,0.026852,0.03465,60.310196,67.150696,-116.934097,,,
729706651.277033,-60.685079,6.141218,113.196036,-0.071884,-0.86203,0.485672,-0.102955,0.026852,0.03465,60.310196,67.150696,-116.934097,,,
729706651.278656,-60.685096,6.141148,-30.714198,-0.071884,-0.86203,0.485672,-0.102955,0.026852,0.03465,60.310196,67.150696,-116.934097,,,
729706651.280304,-60.685079,6.141218,113.196036,-0.071884,-0.86203,0.485672,-0.102955,0.026852,0.03465,60.310196,67.150696,-116.934097,,,
729706651.281178,-60.685096,6.141148,-30.714198,-0.071884,-0.86203,0.485672,-0.102955,0.026852,0.03465,60.310196,67.150696,-116.934097,,,
729706651.283702,-60.715646,6.175175,113.22656,-0.070709,-0.859695,0.483734,-0.114883,0.030032,0.039685,60.310196,67.150696,-116.934097,,,
729706651.285913,-60.715664,6.175105,-30.683673,-0.070709,-0.859695,0.483734,-0.114883,0.030032,0.039685,60.310196,67.150696,-116.934097,,,
729706651.287026,-60.747411,6.212973,113.260564,-0.070709,-0.859695,0.483734,-0.114883,0.030032,0.039685,60.310196,67.150696,-116.934097,,,
729706651.288643,-60.747428,6.212904,-30.64967,-0.070709,-0.859695,0.483734,-0.114883,0.030032,0.039685,60.310196,67.150696,-116.934097,,,
729706651.290355,-60.747411,6.212973,113.260564,-0.070709,-0.859695,0.483734,-0.114883,0.030032,0.039685,60.310196,67.150696,-116.934097,,,
729706651.291872,-60.747428,6.212904,-30.64967,-0.070709,-0.859695,0.483734,-0.114883,0.030032,0.039685,60.551041,67.104248,-116.619308,,,
729706651.29369,-60.780054,6.256013,113.299282,-0.068848,-0.856461,0.487625,-0.12267,0.037861,0.054733,60.551041,67.104248,-116.619308,,,
729706651.296079,-60.780072,6.255943,-30.610961,-0.068848,-0.856461,0.487625,-0.12267,0.037861,0.054733,60.551041,67.104248,-116.619308,,,
729706651.296966,-60.811382,6.306165,113.3437,-0.068848,-0.856461,0.487625,-0.12267,0.037861,0.054733,60.551041,67.104248,-116.619308,,,
729706651.298652,-60.8114,6.306095,-30.566531,-0.068848,-0.856461,0.487625,-0.12267,0.037861,0.054733,60.551041,67.104248,-116.619308,,,
729706651.300432,-60.811382,6.306165,113.3437,-0.068848,-0.856461,0.487625,-0.12267,0.037861,0.054733,60.551041,67.104248,-116.619308,,,
729706651.301158,-60.8114,6.306095,-30.566531,-0.068848,-0.856461,0.487625,-0.12267,0.037861,0.054733,60.551041,67.104248,-116.619308,,,
729706651.303703,-60.845053,6.36117,113.392173,-0.064774,-0.856384,0.489349,-0.127415,0.050339,0.07373,60.551041,67.104248,-116.619308,,,
729706651.306098,-60.845071,6.361101,-30.518062,-0.064774,-0.856384,0.489349,-0.127415,0.050339,0.07373,60.551041,67.104248,-116.619308,,,
729706651.307048,-60.876844,6.427464,113.450089,-0.064774,-0.856384,0.489349,-0.127415,0.050339,0.07373,60.551041,67.104248,-116.619308,,,
729706651.308828,-60.876862,6.427395,-30.460147,-0.064774,-0.856384,0.489349,-0.127415,0.050339,0.07373,60.551041,67.104248,-116.619308,,,
729706651.310374,-60.876844,6.427464,113.450089,-0.064774,-0.856384,0.489349,-0.127415,0.050339,0.07373,60.551041,67.104248,-116.619308,,,
729706651.311176,-60.876862,6.427395,-30.460147,-0.064774,-0.856384,0.489349,-0.127415,0.050339,0.07373,60.551041,67.104248,-116.619308,,,
729706651.313761,-60.911607,6.501921,113.513982,-0.064224,-0.857086,0.488342,-0.135624,0.074305,0.098993,60.551041,67.104248,-116.619308,,,
729706651.316001,-60.911625,6.501851,-30.396275,-0.064224,-0.857086,0.488342,-0.135624,0.074305,0.098993,60.551041,67.104248,-116.619308,,,
729706651.317038,-60.945645,6.59018,113.588954,-0.064224,-0.857086,0.488342,-0.135624,0.074305,0.098993,60.551041,67.104248,-116.619308,,,
729706651.318671,-60.945663,6.59011,-30.321293,-0.064224,-0.857086,0.488342,-0.135624,0.074305,0.098993,60.551041,67.104248,-116.619308,,,
729706651.320381,-60.945645,6.59018,113.588954,-0.064224,-0.857086,0.488342,-0.135624,0.074305,0.098993,60.551041,67.104248,-116.619308,,,
729706651.321165,-60.945663,6.59011,-30.321293,-0.064224,-0.857086,0.488342,-0.135624,0.074305,0.098993,60.551041,67.104248,-116.619308,,,
729706651.323709,-60.982789,6.687398,113.671164,-0.066193,-0.855148,0.487259,-0.147936,0.095892,0.12766,60.551041,67.104248,-116.619308,,,
729706651.326104,-60.982807,6.687328,-30.239091,-0.066193,-0.855148,0.487259,-0.147936,0.095892,0.12766,60.551041,67.104248,-116.619308,,,
729706651.32712,-61.02081,6.797119,113.763821,-0.066193,-0.855148,0.487259,-0.147936,0.095892,0.12766,60.551041,67.104248,-116.619308,,,
729706651.328768,-61.020828,6.79705,-30.146443,-0.066193,-0.855148,0.487259,-0.147936,0.095892,0.12766,60.551041,67.104248,-116.619308,,,
729706651.330366,-61.02081,6.797119,113.763821,-0.066193,-0.855148,0.487259,-0.147936,0.095892,0.12766,60.551041,67.104248,-116.619308,,,
729706651.331178,-61.020828,6.79705,-30.146443,-0.066193,-0.855148,0.487259,-0.147936,0.095892,0.12766,60.551041,67.104248,-116.619308,,,
729706651.333721,-61.061715,6.914958,113.863482,-0.064209,-0.85141,0.48082,-0.164042,0.112978,0.154774,60.739685,67.371368,-116.763992,,,
729706651.337194,-61.061734,6.914888,-30.04679,-0.064209,-0.85141,0.48082,-0.164042,0.112978,0.154774,60.739685,67.371368,-116.763992,,,
729706651.337459,-61.102876,7.043618,113.972603,-0.064209,-0.85141,0.48082,-0.164042,0.112978,0.154774,60.739685,67.371368,-116.763992,,,
729706651.338569,-61.102894,7.043548,-29.937652,-0.064209,-0.85141,0.48082,-0.164042,0.112978,0.154774,60.739685,67.371368,-116.763992,,,
729706651.340454,-61.102876,7.043618,113.972603,-0.064209,-0.85141,0.48082,-0.164042,0.112978,0.154774,60.739685,67.371368,-116.763992,,,
729706651.341157,-61.102894,7.043548,-29.937652,-0.064209,-0.85141,0.48082,-0.164042,0.112978,0.154774,60.739685,67.371368,-116.763992,,,
729706651.343698,-61.145214,7.17685,114.085402,-0.062149,-0.850723,0.478958,-0.169759,0.126447,0.173235,60.739685,67.371368,-116.763992,,,
729706651.345926,-61.145232,7.176781,-29.824848,-0.062149,-0.850723,0.478958,-0.169759,0.126447,0.173235,60.739685,67.371368,-116.763992,,,
729706651.346996,-61.186781,7.316905,114.203128,-0.062149,-0.850723,0.478958,-0.169759,0.126447,0.173235,60.739685,67.371368,-116.763992,,,
729706651.348663,-61.186799,7.316835,-29.707128,-0.062149,-0.850723,0.478958,-0.169759,0.126447,0.173235,60.739685,67.371368,-116.763992,,,
729706651.350381,-61.186781,7.316905,114.203128,-0.062149,-0.850723,0.478958,-0.169759,0.126447,0.173235,60.739685,67.371368,-116.763992,,,
729706651.351169,-61.186799,7.316835,-29.707128,-0.062149,-0.850723,0.478958,-0.169759,0.126447,0.173235,60.739685,67.371368,-116.763992,,,
729706651.353769,-61.229298,7.457749,114.320465,-0.063751,-0.849869,0.483627,-0.170478,0.136774,0.175704,60.739685,67.371368,-116.763992,,,
729706651.355724,-61.229317,7.457679,-29.589785,-0.063751,-0.849869,0.483627,-0.170478,0.136774,0.175704,60.739685,67.371368,-116.763992,,,
729706651.357058,-61.270048,7.60127,114.43944,-0.063751,-0.849869,0.483627,-0.170478,0.136774,0.175704,60.739685,67.371368,-116.763992,,,
729706651.358653,-61.270067,7.6012,-29.470816,-0.063751,-0.849869,0.483627,-0.170478,0.136774,0.175704,60.739685,67.371368,-116.763992,,,
729706651.360424,-61.270048,7.60127,114.43944,-0.063751,-0.849869,0.483627,-0.170478,0.136774,0.175704,60.739685,67.371368,-116.763992,,,
729706651.361156,-61.270067,7.6012,-29.470816,-0.063751,-0.849869,0.483627,-0.170478,0.136774,0.175704,60.739685,67.371368,-116.763992,,,
729706651.363633,-61.31044,7.742708,114.55588,-0.061722,-0.849731,0.484207,-0.160245,0.139381,0.170929,60.739685,67.371368,-116.763992,,,
729706651.365731,-61.310459,7.742638,-29.35437,-0.061722,-0.849731,0.484207,-0.160245,0.139381,0.170929,60.739685,67.371368,-116.763992,,,
729706651.367088,-61.347386,7.881403,114.669642,-0.061722,-0.849731,0.484207,-0.160245,0.139381,0.170929,60.739685,67.371368,-116.763992,,,
729706651.368644,-61.347405,7.881333,-29.240599,-0.061722,-0.849731,0.484207,-0.160245,0.139381,0.170929,60.739685,67.371368,-116.763992,,,
729706651.370375,-61.347386,7.881403,114.669642,-0.061722,-0.849731,0.484207,-0.160245,0.139381,0.170929,60.739685,67.371368,-116.763992,,,
729706651.371166,-61.347405,7.881333,-29.240599,-0.061722,-0.849731,0.484207,-0.160245,0.139381,0.170929,60.739685,67.371368,-116.763992,,,
729706651.373685,-61.384528,8.01335,114.778471,-0.06041,-0.849411,0.482651,-0.149996,0.123344,0.156357,61.365829,67.629608,-116.27446,,,
729706651.376512,-61.384547,8.01328,-29.131787,-0.06041,-0.849411,0.482651,-0.149996,0.123344,0.156357,61.365829,67.629608,-116.27446,,,
729706651.377022,-61.419302,8.135734,114.881773,-0.06041,-0.849411,0.482651,-0.149996,0.123344,0.156357,61.365829,67.629608,-116.27446,,,
729706651.378669,-61.419322,8.135664,-29.02849,-0.06041,-0.849411,0.482651,-0.149996,0.123344,0.156357,61.365829,67.629608,-116.27446,,,
729706651.380379,-61.419302,8.135734,114.881773,-0.06041,-0.849411,0.482651,-0.149996,0.123344,0.156357,61.365829,67.629608,-116.27446,,,
729706651.38117,-61.419322,8.135664,-29.02849,-0.06041,-0.849411,0.482651,-0.149996,0.123344,0.156357,61.365829,67.629608,-116.27446,,,
729706651.383706,-61.455987,8.24777,114.979905,-0.065475,-0.844406,0.472076,-0.149767,0.082081,0.13698,61.365829,67.629608,-116.27446,,,
729706651.386319,-61.456006,8.2477,-28.930353,-0.065475,-0.844406,0.472076,-0.149767,0.082081,0.13698,61.365829,67.629608,-116.27446,,,
729706651.38712,-61.49221,8.346737,115.069155,-0.065475,-0.844406,0.472076,-0.149767,0.082081,0.13698,61.365829,67.629608,-116.27446,,,
729706651.388638,-61.49223,8.346667,-28.841118,-0.065475,-0.844406,0.472076,-0.149767,0.082081,0.13698,61.365829,67.629608,-116.27446,,,
729706651.390394,-61.49221,8.346737,115.069155,-0.065475,-0.844406,0.472076,-0.149767,0.082081,0.13698,61.365829,67.629608,-116.27446,,,
729706651.391164,-61.49223,8.346667,-28.841118,-0.065475,-0.844406,0.472076,-0.149767,0.082081,0.13698,61.365829,67.629608,-116.27446,,,
729706651.393759,-61.531092,8.43223,115.147843,-0.061874,-0.84343,0.465759,-0.154387,0.05147,0.097833,61.365829,67.629608,-116.27446,,,
729706651.395874,-61.531111,8.43216,-28.762428,-0.061874,-0.84343,0.465759,-0.154387,0.05147,0.097833,61.365829,67.629608,-116.27446,,,
729706651.396985,-61.570809,8.502488,115.214271,-0.061874,-0.84343,0.465759,-0.154387,0.05147,0.097833,61.365829,67.629608,-116.27446,,,
729706651.398643,-61.570829,8.502417,-28.695988,-0.061874,-0.84343,0.465759,-0.154387,0.05147,0.097833,61.365829,67.629608,-116.27446,,,
729706651.400365,-61.570809,8.502488,115.214271,-0.061874,-0.84343,0.465759,-0.154387,0.05147,0.097833,61.365829,67.629608,-116.27446,,,
729706651.401166,-61.570829,8.502417,-28.695988,-0.061874,-0.84343,0.465759,-0.154387,0.05147,0.097833,61.365829,67.629608,-116.27446,,,
729706651.403712,-61.614295,8.557681,115.267509,-0.05658,-0.844971,0.464935,-0.166268,0.026151,0.049379,61.365829,67.629608,-116.27446,,,
729706651.406087,-61.614315,8.55761,-28.642739,-0.05658,-0.844971,0.464935,-0.166268,0.026151,0.049379,61.365829,67.629608,-116.27446,,,
729706651.40708,-61.659911,8.596,115.305607,-0.05658,-0.844971,0.464935,-0.166268,0.026151,0.049379,61.365829,67.629608,-116.27446,,,
729706651.408642,-61.659931,8.59593,-28.604655,-0.05658,-0.844971,0.464935,-0.166268,0.026151,0.049379,61.365829,67.629608,-116.27446,,,
729706651.410376,-61.659911,8.596,115.305607,-0.05658,-0.844971,0.464935,-0.166268,0.026151,0.049379,61.365829,67.629608,-116.27446,,,
729706651.411165,-61.659931,8.59593,-28.604655,-0.05658,-0.844971,0.464935,-0.166268,0.026151,0.049379,61.365829,67.629608,-116.27446,,,
729706651.413635,-61.70895,8.618117,115.328463,-0.049011,-0.848251,0.462921,-0.175581,0.005705,-0.004874,61.441254,67.828781,-115.94989,,,
729706651.418184,-61.70897,8.618047,-28.581785,-0.049011,-0.848251,0.462921,-0.175581,0.005705,-0.004874,61.441254,67.828781,-115.94989,,,
729706651.418489,-61.759356,8.623545,115.335172,-0.049011,-0.848251,0.462921,-0.175581,0.005705,-0.004874,61.441254,67.828781,-115.94989,,,
729706651.420342,-61.759356,8.623545,115.335172,-0.049011,-0.848251,0.462921,-0.175581,0.005705,-0.004874,61.441254,67.828781,-115.94989,,,
729706651.421659,-61.759375,8.623474,-28.575087,-0.049011,-0.848251,0.462921,-0.175581,0.005705,-0.004874,61.441254,67.828781,-115.94989,,,
729706651.423697,-61.812419,8.616287,115.329685,-0.049316,-0.859787,0.467316,-0.182378,-0.008983,-0.04864,61.441254,67.828781,-115.94989,,,
729706651.426719,-61.812439,8.616216,-28.580573,-0.049316,-0.859787,0.467316,-0.182378,-0.008983,-0.04864,61.441254,67.828781,-115.94989,,,
729706651.427068,-61.866511,8.595317,115.310911,-0.049316,-0.859787,0.467316,-0.182378,-0.008983,-0.04864,61.441254,67.828781,-115.94989,,,
729706651.42873,-61.866531,8.595246,-28.599357,-0.049316,-0.859787,0.467316,-0.182378,-0.008983,-0.04864,61.441254,67.828781,-115.94989,,,
729706651.430482,-61.866511,8.595317,115.310911,-0.049316,-0.859787,0.467316,-0.182378,-0.008983,-0.04864,61.441254,67.828781,-115.94989,,,
729706651.431166,-61.866531,8.595246,-28.599357,-0.049316,-0.859787,0.467316,-0.182378,-0.008983,-0.04864,61.441254,67.828781,-115.94989,,,
729706651.43379,-61.922236,8.566946,115.284405,-0.049957,-0.872772,0.474274,-0.183516,-0.014043,-0.076135,61.441254,67.828781,-115.94989,,,
729706651.435868,-61.922256,8.566875,-28.625868,-0.049957,-0.872772,0.474274,-0.183516,-0.014043,-0.076135,61.441254,67.828781,-115.94989,,,
729706651.437075,-61.976252,8.534988,115.254164,-0.049957,-0.872772,0.474274,-0.183516,-0.014043,-0.076135,61.441254,67.828781,-115.94989,,,
729706651.438679,-61.976272,8.534917,-28.656091,-0.049957,-0.872772,0.474274,-0.183516,-0.014043,-0.076135,61.441254,67.828781,-115.94989,,,
729706651.440425,-61.976252,8.534988,115.254164,-0.049957,-0.872772,0.474274,-0.183516,-0.014043,-0.076135,61.441254,67.828781,-115.94989,,,
729706651.441216,-61.976272,8.534917,-28.656091,-0.049957,-0.872772,0.474274,-0.183516,-0.014043,-0.076135,61.441254,67.828781,-115.94989,,,
729706651.443678,-62.030045,8.501921,115.222829,-0.056702,-0.886337,0.484024,-0.173252,-0.01595,-0.079844,61.441254,67.828781,-115.94989,,,
729706651.446347,-62.030064,8.50185,-28.687437,-0.056702,-0.886337,0.484024,-0.173252,-0.01595,-0.079844,61.441254,67.828781,-115.94989,,,
729706651.447106,-62.080352,8.468878,115.191089,-0.056702,-0.886337,0.484024,-0.173252,-0.01595,-0.079844,61.441254,67.828781,-115.94989,,,
729706651.448676,-62.080372,8.468807,-28.719175,-0.056702,-0.886337,0.484024,-0.173252,-0.01595,-0.079844,61.441254,67.828781,-115.94989,,,
729706651.450385,-62.080352,8.468878,115.191089,-0.056702,-0.886337,0.484024,-0.173252,-0.01595,-0.079844,61.441254,67.828781,-115.94989,,,
729706651.451167,-62.080372,8.468807,-28.719175,-0.056702,-0.886337,0.484024,-0.173252,-0.01595,-0.079844,61.441254,67.828781,-115.94989,,,
729706651.453705,-62.129015,8.441973,115.165691,-0.063889,-0.893799,0.487274,-0.155666,-0.01368,-0.058863,61.441254,67.828781,-115.94989,,,
729706651.456516,-62.129035,8.441902,-28.744574,-0.063889,-0.893799,0.487274,-0.155666,-0.01368,-0.058863,61.130844,67.829498,-115.620926,,,
729706651.457057,-62.172633,8.421551,115.148161,-0.063889,-0.893799,0.487274,-0.155666,-0.01368,-0.058863,61.130844,67.829498,-115.620926,,,
729706651.458746,-62.172653,8.421479,-28.762105,-0.063889,-0.893799,0.487274,-0.155666,-0.01368,-0.058863,61.130844,67.829498,-115.620926,,,
729706651.460438,-62.172633,8.421551,115.148161,-0.063889,-0.893799,0.487274,-0.155666,-0.01368,-0.058863,61.130844,67.829498,-115.620926,,,
729706651.461165,-62.172653,8.421479,-28.762105,-0.063889,-0.893799,0.487274,-0.155666,-0.01368,-0.058863,61.130844,67.829498,-115.620926,,,
729706651.463695,-62.214177,8.410451,115.139694,-0.065796,-0.896591,0.487564,-0.135283,-0.005622,-0.027932,61.130844,67.829498,-115.620926,,,
729706651.466228,-62.214196,8.410379,-28.77058,-0.065796,-0.896591,0.487564,-0.135283,-0.005622,-0.027932,61.130844,67.829498,-115.620926,,,
729706651.467045,-62.249965,8.409284,115.138942,-0.065796,-0.896591,0.487564,-0.135283,-0.005622,-0.027932,61.130844,67.829498,-115.620926,,,
729706651.46817,-62.249985,8.409212,-28.77132,-0.065796,-0.896591,0.487564,-0.135283,-0.005622,-0.027932,61.130844,67.829498,-115.620926,,,
729706651.470371,-62.249965,8.409284,115.138942,-0.065796,-0.896591,0.487564,-0.135283,-0.005622,-0.027932,61.130844,67.829498,-115.620926,,,
729706651.471164,-62.249985,8.409212,-28.77132,-0.065796,-0.896591,0.487564,-0.135283,-0.005622,-0.027932,61.130844,67.829498,-115.620926,,,
729706651.473754,-62.281814,8.420475,115.147098,-0.065445,-0.895248,0.491714,-0.10226,0.024596,0.004297,61.130844,67.829498,-115.620926,,,
729706651.477827,-62.281834,8.420404,-28.763161,-0.065445,-0.895248,0.491714,-0.10226,0.024596,0.004297,61.130844,67.829498,-115.620926,,,
729706651.47812,-62.307038,8.442668,115.162207,-0.065445,-0.895248,0.491714,-0.10226,0.024596,0.004297,61.130844,67.829498,-115.620926,,,
729706651.48053,-62.307038,8.442668,115.162207,-0.065445,-0.895248,0.491714,-0.10226,0.024596,0.004297,61.130844,67.829498,-115.620926,,,
729706651.482722,-62.307058,8.442597,-28.748039,-0.065445,-0.895248,0.491714,-0.071233,0.061042,0.027819,61.130844,67.829498,-115.620926,,,
729706651.483797,-62.32894,8.47652,115.184255,-0.059418,-0.894547,0.496216,-0.071233,0.061042,0.027819,61.130844,67.829498,-115.620926,,,
729706651.486104,-62.32896,8.476448,-28.725968,-0.059418,-0.894547,0.496216,-0.071233,0.061042,0.027819,61.130844,67.829498,-115.620926,,,
729706651.487073,-62.34399,8.516659,115.208496,-0.059418,-0.894547,0.496216,-0.071233,0.061042,0.027819,61.130844,67.829498,-115.620926,,,
729706651.488681,-62.34401,8.516588,-28.701734,-0.059418,-0.894547,0.496216,-0.071233,0.061042,0.027819,61.130844,67.829498,-115.620926,,,
729706651.490382,-62.34399,8.516659,115.208496,-0.059418,-0.894547,0.496216,-0.071233,0.061042,0.027819,61.130844,67.829498,-115.620926,,,
729706651.491178,-62.34401,8.516588,-28.701734,-0.059418,-0.894547,0.496216,-0.071233,0.061042,0.027819,61.130844,67.829498,-115.620926,,,
729706651.493708,-62.355305,8.568337,115.239427,-0.058029,-0.894592,0.494492,-0.036879,0.096213,0.046895,61.130844,67.829498,-115.620926,,,
729706651.496728,-62.355325,8.568266,-28.670829,-0.058029,-0.894592,0.494492,-0.036879,0.096213,0.046895,61.268005,67.853302,-115.40799,,,
729706651.49731,-62.359706,8.623851,115.270609,-0.058029,-0.894592,0.494492,-0.036879,0.096213,0.046895,61.268005,67.853302,-115.40799,,,
729706651.498454,-62.359726,8.62378,-28.639631,-0.058029,-0.894592,0.494492,-0.036879,0.096213,0.046895,61.268005,67.853302,-115.40799,,,
729706651.500444,-62.359706,8.623851,115.270609,-0.058029,-0.894592,0.494492,-0.036879,0.096213,0.046895,61.268005,67.853302,-115.40799,,,
729706651.50116,-62.359726,8.62378,-28.639631,-0.058029,-0.894592,0.494492,-0.036879,0.096213,0.046895,61.268005,67.853302,-115.40799,,,
729706651.503714,-62.359666,8.687583,115.306827,-0.060684,-0.901123,0.492783,0.000667,0.118057,0.06071,61.268005,67.853302,-115.40799,,,
729706651.506855,-62.359686,8.687512,-28.603403,-0.060684,-0.901123,0.492783,0.000667,0.118057,0.06071,61.268005,67.853302,-115.40799,,,
729706651.507168,-62.354043,8.751583,115.343282,-0.060684,-0.901123,0.492783,0.000667,0.118057,0.06071,61.268005,67.853302,-115.40799,,,
729706651.508701,-62.354063,8.751511,-28.566954,-0.060684,-0.901123,0.492783,0.000667,0.118057,0.06071,61.268005,67.853302,-115.40799,,,
729706651.510387,-62.354043,8.751583,115.343282,-0.060684,-0.901123,0.492783,0.000667,0.118057,0.06071,61.268005,67.853302,-115.40799,,,
729706651.511169,-62.354063,8.751511,-28.566954,-0.060684,-0.901123,0.492783,0.000667,0.118057,0.06071,61.268005,67.853302,-115.40799,,,
729706651.513762,-62.345443,8.81904,115.384472,-0.063141,-0.90416,0.485794,0.026878,0.108638,0.072092,61.268005,67.853302,-115.40799,,,
729706651.515664,-62.345463,8.818969,-28.525759,-0.063141,-0.90416,0.485794,0.026878,0.108638,0.072092,61.268005,67.853302,-115.40799,,,
729706651.517081,-62.332089,8.884547,115.426487,-0.063141,-0.90416,0.485794,0.026878,0.108638,0.072092,61.268005,67.853302,-115.40799,,,
729706651.518652,-62.332109,8.884475,-28.483766,-0.063141,-0.90416,0.485794,0.026878,0.108638,0.072092,61.268005,67.853302,-115.40799,,,
729706651.520381,-62.332089,8.884547,115.426487,-0.063141,-0.90416,0.485794,0.026878,0.108638,0.072092,61.268005,67.853302,-115.40799,,,
729706651.521162,-62.332109,8.884475,-28.483766,-0.063141,-0.90416,0.485794,0.026878,0.108638,0.072092,61.268005,67.853302,-115.40799,,,
729706651.523781,-62.317642,8.953033,115.473842,-0.070602,-0.902802,0.474823,0.039462,0.092775,0.084769,61.268005,67.853302,-115.40799,,,
729706651.526359,-62.317662,8.952961,-28.436412,-0.070602,-0.902802,0.474823,0.039462,0.092775,0.084769,61.268005,67.853302,-115.40799,,,
729706651.527089,-62.317642,8.953033,115.520894,-0.070602,-0.902802,0.474823,0.039462,0.092775,0.084769,61.268005,67.853302,-115.40799,,,
729706651.528652,-62.300881,9.019736,-28.389354,-0.070602,-0.902802,0.474823,0.039462,0.092775,0.084769,61.268005,67.853302,-115.40799,,,
729706651.530323,-62.300861,9.019807,115.520894,-0.070602,-0.902802,0.474823,0.039462,0.092775,0.084769,61.268005,67.853302,-115.40799,,,
729706651.531179,-62.300881,9.019736,-28.389354,-0.070602,-0.902802,0.474823,0.039462,0.092775,0.084769,61.268005,67.853302,-115.40799,,,
729706651.533706,-62.284468,9.088682,115.56974,-0.069229,-0.899887,0.472412,0.044621,0.093524,0.086036,61.268005,67.853302,-115.40799,,,
729706651.535538,-62.284488,9.08861,-28.340512,-0.069229,-0.899887,0.472412,0.044621,0.093524,0.086036,61.268005,67.853302,-115.40799,,,
729706651.537048,-62.284468,9.155001,115.615187,-0.069229,-0.899887,0.472412,0.044621,0.093524,0.086036,61.429993,67.989304,-115.597504,,,
729706651.539291,-62.267039,9.15493,-28.295063,-0.069229,-0.899887,0.472412,0.044621,0.093524,0.086036,61.429993,67.989304,-115.597504,,,
729706651.540398,-62.267019,9.155001,115.615187,-0.069229,-0.899887,0.472412,0.044621,0.093524,0.086036,61.429993,67.989304,-115.597504,,,
729706651.541177,-62.267039,9.15493,-28.295063,-0.069229,-0.899887,0.472412,0.044621,0.093524,0.086036,61.429993,67.989304,-115.597504,,,
729706651.543701,-62.25164,9.21874,115.656347,-0.066986,-0.890823,0.470688,0.041121,0.099606,0.06686,61.429993,67.989304,-115.597504,,,
729706651.546022,-62.25166,9.218669,-28.253897,-0.066986,-0.890823,0.470688,0.041121,0.099606,0.06686,61.429993,67.989304,-115.597504,,,
729706651.547012,-62.25164,9.21874,115.656347,-0.066986,-0.890823,0.470688,0.041121,0.099606,0.06686,61.429993,67.989304,-115.597504,,,
729706651.54874,-62.236018,9.275323,-28.220934,-0.066986,-0.890823,0.470688,0.041121,0.099606,0.06686,61.429993,67.989304,-115.597504,,,
729706651.550364,-62.235997,9.275394,115.689316,-0.066986,-0.890823,0.470688,0.041121,0.099606,0.06686,61.429993,67.989304,-115.597504,,,
729706651.551196,-62.236018,9.275323,-28.220934,-0.066986,-0.890823,0.470688,0.041121,0.099606,0.06686,61.429993,67.989304,-115.597504,,,
729706651.553687,-62.223038,9.329805,115.718632,-0.067642,-0.889633,0.467392,0.035193,0.103294,0.047914,61.429993,67.989304,-115.597504,,,
729706651.555563,-62.223058,9.329733,-28.19162,-0.067642,-0.889633,0.467392,0.035193,0.103294,0.047914,61.429993,67.989304,-115.597504,,,
729706651.557037,-62.223038,9.329805,115.718632,-0.067642,-0.889633,0.467392,0.035193,0.103294,0.047914,61.429993,67.989304,-115.597504,,,
729706651.558664,-62.210368,9.3763,-28.170592,-0.067642,-0.889633,0.467392,0.035193,0.103294,0.047914,61.429993,67.989304,-115.597504,,,
729706651.560453,-62.210348,9.376371,115.73965,-0.067642,-0.889633,0.467392,0.035193,0.103294,0.047914,61.429993,67.989304,-115.597504,,,
729706651.561179,-62.210368,9.3763,-28.170592,-0.067642,-0.889633,0.467392,0.035193,0.103294,0.047914,61.429993,67.989304,-115.597504,,,
729706651.563646,-62.201244,9.421253,115.759405,-0.075714,-0.888916,0.464081,0.024309,0.095513,0.034621,61.429993,67.989304,-115.597504,,,
729706651.566253,-62.201264,9.421182,-28.150829,-0.075714,-0.888916,0.464081,0.024309,0.095513,0.034621,61.429993,67.989304,-115.597504,,,
729706651.567056,-62.201244,9.421253,115.759405,-0.075714,-0.888916,0.464081,0.024309,0.095513,0.034621,61.429993,67.989304,-115.597504,,,
729706651.568679,-62.19292,9.459008,-28.13547,-0.075714,-0.888916,0.464081,0.024309,0.095513,0.034621,61.429993,67.989304,-115.597504,,,
729706651.570373,-62.1929,9.459079,115.774775,-0.075714,-0.888916,0.464081,0.024309,0.095513,0.034621,61.429993,67.989304,-115.597504,,,
729706651.571166,-62.19292,9.459008,-28.13547,-0.075714,-0.888916,0.464081,0.024309,0.095513,0.034621,61.429993,67.989304,-115.597504,,,
729706651.573748,-62.188028,9.495253,115.79113,-0.084625,-0.888962,0.455627,0.010283,0.073514,0.027127,61.429993,67.989304,-115.597504,,,
729706651.575459,-62.188049,9.495182,-28.119114,-0.084625,-0.888962,0.455627,0.010283,0.073514,0.027127,61.429993,67.989304,-115.597504,,,
729706651.577052,-62.188028,9.495253,115.79113,-0.084625,-0.888962,0.455627,0.010283,0.073514,0.027127,61.899384,67.765808,-115.348587,,,
729706651.579264,-62.184163,9.526191,-28.105045,-0.084625,-0.888962,0.455627,0.010283,0.073514,0.027127,61.899384,67.765808,-115.348587,,,
729706651.580315,-62.184143,9.526262,115.805207,-0.084625,-0.888962,0.455627,0.010283,0.073514,0.027127,61.899384,67.765808,-115.348587,,,
729706651.58118,-62.184163,9.526191,-28.105045,-0.084625,-0.888962,0.455627,0.010283,0.073514,0.027127,61.899384,67.765808,-115.348587,,,
729706651.583685,-62.182901,9.556608,115.820582,-0.084396,-0.882767,0.454147,-0.000487,0.057404,0.022916,61.899384,67.765808,-115.348587,,,
729706651.587134,-62.182921,9.556537,-28.089676,-0.084396,-0.882767,0.454147,-0.000487,0.057404,0.022916,61.899384,67.765808,-115.348587,,,
729706651.587456,-62.181414,9.58106,115.831318,-0.084396,-0.882767,0.454147,-0.000487,0.057404,0.022916,61.899384,67.765808,-115.348587,,,
729706651.58835,-62.181434,9.580989,-28.078957,-0.084396,-0.882767,0.454147,-0.000487,0.057404,0.022916,61.899384,67.765808,-115.348587,,,
729706651.590381,-62.181414,9.58106,115.831318,-0.084396,-0.882767,0.454147,-0.000487,0.057404,0.022916,61.899384,67.765808,-115.348587,,,
729706651.591174,-62.181434,9.580989,-28.078957,-0.084396,-0.882767,0.454147,-0.000487,0.057404,0.022916,61.899384,67.765808,-115.348587,,,
729706651.5937,-62.180942,9.603948,115.840921,-0.080078,-0.875046,0.45816,-0.000788,0.050276,0.012945,61.899384,67.765808,-115.348587,,,
729706651.595684,-62.180962,9.603877,-28.069354,-0.080078,-0.875046,0.45816,-0.000788,0.050276,0.012945,61.899384,67.765808,-115.348587,,,
729706651.597122,-62.180942,9.603948,115.840921,-0.080078,-0.875046,0.45816,-0.000788,0.050276,0.012945,61.899384,67.765808,-115.348587,,,
729706651.598394,-62.180404,9.621245,-28.063627,-0.080078,-0.875046,0.45816,-0.000788,0.050276,0.012945,61.899384,67.765808,-115.348587,,,
729706651.600439,-62.180383,9.621316,115.846627,-0.080078,-0.875046,0.45816,-0.000788,0.050276,0.012945,61.899384,67.765808,-115.348587,,,
729706651.601163,-62.180404,9.621245,-28.063627,-0.080078,-0.875046,0.45816,-0.000788,0.050276,0.012945,61.899384,67.765808,-115.348587,,,
729706651.603692,-62.180337,9.634414,115.849361,-0.079498,-0.87001,0.459076,0.000346,0.036616,-0.001156,61.899384,67.765808,-115.348587,,,
729706651.607406,-62.180357,9.634343,-28.06089,-0.079498,-0.87001,0.459076,0.000346,0.036616,-0.001156,61.899384,67.765808,-115.348587,,,
729706651.607681,-62.180851,9.640052,115.845771,-0.079498,-0.87001,0.459076,0.000346,0.036616,-0.001156,61.899384,67.765808,-115.348587,,,
729706651.608284,-62.180871,9.639981,-28.064477,-0.079498,-0.87001,0.459076,0.000346,0.036616,-0.001156,61.899384,67.765808,-115.348587,,,
729706651.61034,-62.180851,9.640052,115.845771,-0.079498,-0.87001,0.459076,0.000346,0.036616,-0.001156,61.899384,67.765808,-115.348587,,,
729706651.611178,-62.180871,9.639981,-28.064477,-0.079498,-0.87001,0.459076,0.000346,0.036616,-0.001156,61.899384,67.765808,-115.348587,,,
729706651.613843,-62.182307,9.641854,115.839232,-0.0802,-0.868073,0.45755,-0.002951,0.026213,-0.014967,61.899384,67.765808,-115.348587,,,
729706651.616367,-62.182327,9.641783,-28.071014,-0.0802,-0.868073,0.45755,-0.002951,0.026213,-0.014967,61.899384,67.765808,-115.348587,,,
729706651.617048,-62.182307,9.641854,115.839232,-0.0802,-0.868073,0.45755,-0.002951,0.026213,-0.014967,61.899384,67.765808,-115.348587,,,
729706651.618752,-62.184563,9.637223,-28.083048,-0.0802,-0.868073,0.45755,-0.002951,0.026213,-0.014967,62.014526,67.92424,-115.378616,,,
729706651.620385,-62.184543,9.637294,115.827198,-0.0802,-0.868073,0.45755,-0.002951,0.026213,-0.014967,62.014526,67.92424,-115.378616,,,
729706651.621169,-62.184563,9.637223,-28.083048,-0.0802,-0.868073,0.45755,-0.002951,0.026213,-0.014967,62.014526,67.92424,-115.378616,,,
729706651.623684,-62.188205,9.630337,115.812791,-0.078369,-0.870621,0.456543,-0.008575,0.021151,-0.029611,62.014526,67.92424,-115.378616,,,
729706651.626066,-62.188226,9.630266,-28.097459,-0.078369,-0.870621,0.456543,-0.008575,0.021151,-0.029611,62.014526,67.92424,-115.378616,,,
729706651.62702,-62.188205,9.630337,115.812791,-0.078369,-0.870621,0.456543,-0.008575,0.021151,-0.029611,62.014526,67.92424,-115.378616,,,
729706651.628389,-62.191968,9.618104,-28.115987,-0.078369,-0.870621,0.456543,-0.008575,0.021151,-0.029611,62.014526,67.92424,-115.378616,,,
729706651.630514,-62.191948,9.618175,115.79426,-0.078369,-0.870621,0.456543,-0.008575,0.021151,-0.029611,62.014526,67.92424,-115.378616,,,
729706651.631166,-62.191968,9.618104,-28.115987,-0.078369,-0.870621,0.456543,-0.008575,0.021151,-0.029611,62.014526,67.92424,-115.378616,,,
729706651.633689,-62.196811,9.605461,115.77543,-0.080292,-0.872833,0.457596,-0.013473,0.016169,-0.037044,62.014526,67.92424,-115.378616,,,
729706651.635652,-62.196831,9.60539,-28.134805,-0.080292,-0.872833,0.457596,-0.013473,0.016169,-0.037044,62.014526,67.92424,-115.378616,,,
729706651.637061,-62.196811,9.605461,115.77543,-0.080292,-0.872833,0.457596,-0.013473,0.016169,-0.037044,62.014526,67.92424,-115.378616,,,
729706651.638387,-62.202276,9.587723,-28.158202,-0.080292,-0.872833,0.457596,-0.013473,0.016169,-0.037044,62.014526,67.92424,-115.378616,,,
729706651.640378,-62.202256,9.587794,115.752035,-0.080292,-0.872833,0.457596,-0.013473,0.016169,-0.037044,62.014526,67.92424,-115.378616,,,
729706651.641168,-62.202276,9.587723,-28.158202,-0.080292,-0.872833,0.457596,-0.013473,0.016169,-0.037044,62.014526,67.92424,-115.378616,,,
729706651.643682,-62.207574,9.567701,115.726332,-0.074463,-0.8759,0.459991,-0.008943,0.011494,-0.047707,62.014526,67.92424,-115.378616,,,
729706651.646151,-62.207594,9.56763,-28.18391,-0.074463,-0.8759,0.459991,-0.008943,0.011494,-0.047707,62.014526,67.92424,-115.378616,,,
729706651.647087,-62.207574,9.567701,115.726332,-0.074463,-0.8759,0.459991,-0.008943,0.011494,-0.047707,62.014526,67.92424,-115.378616,,,
729706651.648452,-62.211654,9.545084,-28.212718,-0.074463,-0.8759,0.459991,-0.008943,0.011494,-0.047707,62.014526,67.92424,-115.378616,,,
729706651.650442,-62.211634,9.545155,115.697523,-0.074463,-0.8759,0.459991,-0.008943,0.011494,-0.047707,62.014526,67.92424,-115.378616,,,
729706651.651169,-62.211654,9.545084,-28.212718,-0.074463,-0.8759,0.459991,-0.008943,0.011494,-0.047707,62.014526,67.92424,-115.378616,,,
729706651.653686,-62.213735,9.519998,115.665454,-0.073166,-0.875885,0.467529,0.004608,0.014276,-0.054472,62.014526,67.92424,-115.378616,,,
729706651.656521,-62.213755,9.519927,-28.244787,-0.073166,-0.875885,0.467529,0.004608,0.014276,-0.054472,62.014526,67.92424,-115.378616,,,
729706651.657033,-62.213735,9.519998,115.665454,-0.073166,-0.875885,0.467529,0.004608,0.014276,-0.054472,62.014526,67.92424,-115.378616,,,
729706651.659386,-62.215014,9.495511,-28.275427,-0.073166,-0.875885,0.467529,0.004608,0.014276,-0.054472,61.727966,67.829422,-115.451477,,,
729706651.660384,-62.214994,9.495583,115.634828,-0.073166,-0.875885,0.467529,0.004608,0.014276,-0.054472,61.727966,67.829422,-115.451477,,,
729706651.661172,-62.215014,9.495511,-28.275427,-0.073166,-0.875885,0.467529,0.004608,0.014276,-0.054472,61.727966,67.829422,-115.451477,,,
729706651.663765,-62.215404,9.468866,115.604264,-0.079086,-0.877258,0.464493,0.007441,-0.000194,-0.049977,61.727966,67.829422,-115.451477,,,
729706651.666733,-62.215424,9.468795,-28.305996,-0.079086,-0.877258,0.464493,0.007441,-0.000194,-0.049977,61.727966,67.829422,-115.451477,,,
729706651.667052,-62.215404,9.468866,115.604264,-0.079086,-0.877258,0.464493,0.007441,-0.000194,-0.049977,61.727966,67.829422,-115.451477,,,
729706651.668408,-62.216294,9.443858,-28.332759,-0.079086,-0.877258,0.464493,0.007441,-0.000194,-0.049977,61.727966,67.829422,-115.451477,,,
729706651.670381,-62.216274,9.443929,115.577514,-0.079086,-0.877258,0.464493,0.007441,-0.000194,-0.049977,61.727966,67.829422,-115.451477,,,
729706651.671211,-62.216294,9.443858,-28.332759,-0.079086,-0.877258,0.464493,0.007441,-0.000194,-0.049977,61.727966,67.829422,-115.451477,,,
729706651.673679,-62.217702,9.421357,115.55439,-0.08429,-0.879196,0.458969,0.001456,-0.004645,-0.036221,61.727966,67.829422,-115.451477,,,
729706651.67558,-62.217722,9.421286,-28.355891,-0.08429,-0.879196,0.458969,0.001456,-0.004645,-0.036221,61.727966,67.829422,-115.451477,,,
729706651.67702,-62.217702,9.421357,115.55439,-0.08429,-0.879196,0.458969,0.001456,-0.004645,-0.036221,61.727966,67.829422,-115.451477,,,
729706651.678394,-62.219526,9.403077,-28.375296,-0.08429,-0.879196,0.458969,0.001456,-0.004645,-0.036221,61.727966,67.829422,-115.451477,,,
729706651.680429,-62.219506,9.403149,115.534951,-0.08429,-0.879196,0.458969,0.001456,-0.004645,-0.036221,61.727966,67.829422,-115.451477,,,
729706651.681165,-62.219526,9.403077,-28.375296,-0.08429,-0.879196,0.458969,0.001456,-0.004645,-0.036221,61.727966,67.829422,-115.451477,,,
729706651.683688,-62.223203,9.389639,115.519032,-0.081543,-0.87674,0.459915,-0.010804,0.007231,-0.025385,61.727966,67.829422,-115.451477,,,
729706651.68738,-62.223223,9.389567,-28.391221,-0.081543,-0.87674,0.459915,-0.010804,0.007231,-0.025385,61.727966,67.829422,-115.451477,,,
729706651.687701,-62.227948,9.382902,115.508602,-0.081543,-0.87674,0.459915,-0.010804,0.007231,-0.025385,61.727966,67.829422,-115.451477,,,
729706651.688826,-62.227968,9.382831,-28.401651,-0.081543,-0.87674,0.459915,-0.010804,0.007231,-0.025385,61.727966,67.829422,-115.451477,,,
729706651.690229,-62.227948,9.382902,115.508602,-0.081543,-0.87674,0.459915,-0.010804,0.007231,-0.025385,61.727966,67.829422,-115.451477,,,
729706651.691189,-62.227968,9.382831,-28.401651,-0.081543,-0.87674,0.459915,-0.010804,0.007231,-0.025385,61.727966,67.829422,-115.451477,,,
729706651.693694,-62.235364,9.38199,115.502541,-0.080551,-0.874329,0.457565,-0.027694,0.022023,-0.01155,61.727966,67.829422,-115.451477,,,
729706651.695875,-62.235384,9.381919,-28.407719,-0.080551,-0.874329,0.457565,-0.027694,0.022023,-0.01155,61.727966,67.829422,-115.451477,,,
729706651.697193,-62.235364,9.38199,115.502541,-0.080551,-0.874329,0.457565,-0.027694,0.022023,-0.01155,61.727966,67.829422,-115.451477,,,
729706651.698228,-62.24469,9.389146,-28.408073,-0.080551,-0.874329,0.457565,-0.027694,0.022023,-0.01155,61.727966,67.829422,-115.451477,,,
729706651.70037,-62.24467,9.389218,115.502188,-0.080551,-0.874329,0.457565,-0.027694,0.022023,-0.01155,61.717682,67.834488,-115.457214,,,
729706651.701633,-62.24469,9.389146,-28.408073,-0.080551,-0.874329,0.457565,-0.027694,0.022023,-0.01155,61.717682,67.834488,-115.457214,,,
729706651.703698,-62.25668,9.402567,115.505591,-0.084152,-0.875534,0.457764,-0.04567,0.042507,-0.000262,61.717682,67.834488,-115.457214,,,
729706651.706157,-62.2567,9.402496,-28.404676,-0.084152,-0.875534,0.457764,-0.04567,0.042507,-0.000262,61.717682,67.834488,-115.457214,,,
729706651.70702,-62.25668,9.402567,115.505591,-0.084152,-0.875534,0.457764,-0.04567,0.042507,-0.000262,61.717682,67.834488,-115.457214,,,
729706651.708466,-62.269872,9.422828,-28.396546,-0.084152,-0.875534,0.457764,-0.04567,0.042507,-0.000262,61.717682,67.834488,-115.457214,,,
729706651.71038,-62.269852,9.4229,115.513723,-0.084152,-0.875534,0.457764,-0.04567,0.042507,-0.000262,61.717682,67.834488,-115.457214,,,
729706651.711166,-62.269872,9.422828,-28.396546,-0.084152,-0.875534,0.457764,-0.04567,0.042507,-0.000262,61.717682,67.834488,-115.457214,,,
729706651.713741,-62.28392,9.446987,115.524524,-0.084,-0.875519,0.460419,-0.050474,0.053128,0.009551,61.717682,67.834488,-115.457214,,,
729706651.716834,-62.28394,9.446916,-28.385754,-0.084,-0.875519,0.460419,-0.050474,0.053128,0.009551,61.717682,67.834488,-115.457214,,,
729706651.71712,-62.28392,9.446987,115.524524,-0.084,-0.875519,0.460419,-0.050474,0.053128,0.009551,61.717682,67.834488,-115.457214,,,
729706651.718778,-62.297902,9.473304,-28.373259,-0.084,-0.875519,0.460419,-0.050474,0.053128,0.009551,61.717682,67.834488,-115.457214,,,
729706651.720376,-62.297882,9.473375,115.537014,-0.084,-0.875519,0.460419,-0.050474,0.053128,0.009551,61.717682,67.834488,-115.457214,,,
729706651.721174,-62.297902,9.473304,-28.373259,-0.084,-0.875519,0.460419,-0.050474,0.053128,0.009551,61.717682,67.834488,-115.457214,,,
729706651.723726,-62.311799,9.501182,115.549838,-0.082199,-0.87471,0.463058,-0.048167,0.061393,0.011554,61.717682,67.834488,-115.457214,,,
729706651.725754,-62.311819,9.501111,-28.360442,-0.082199,-0.87471,0.463058,-0.048167,0.061393,0.011554,61.717682,67.834488,-115.457214,,,
729706651.727023,-62.311799,9.501182,115.549838,-0.082199,-0.87471,0.463058,-0.048167,0.061393,0.011554,61.717682,67.834488,-115.457214,,,
729706651.728668,-62.323515,9.528367,-28.348255,-0.082199,-0.87471,0.463058,-0.048167,0.061393,0.011554,61.717682,67.834488,-115.457214,,,
729706651.730466,-62.323495,9.528438,115.562005,-0.082199,-0.87471,0.463058,-0.048167,0.061393,0.011554,61.717682,67.834488,-115.457214,,,
729706651.731158,-62.323515,9.528367,-28.348255,-0.082199,-0.87471,0.463058,-0.048167,0.061393,0.011554,61.717682,67.834488,-115.457214,,,
729706651.733686,-62.334029,9.555146,115.574557,-0.081406,-0.873627,0.468994,-0.035089,0.053992,0.012471,61.717682,67.834488,-115.457214,,,
729706651.735933,-62.334049,9.555074,-28.335713,-0.081406,-0.873627,0.468994,-0.035089,0.053992,0.012471,61.717682,67.834488,-115.457214,,,
