Time (sec),Pitch (deg),Roll (deg),Yaw(deg),X-Acceleration (g),Y-Acceleration (g),Z-Acceleration (g),Pitch Rate (deg/sec),Roll Rate (deg/sec),Yaw Rate (deg/sec),Magnetic Field in X direction (uT),Magnetic Field in Y direction (uT),Magnetic Field in Z Direction (uT),Latitude (deg),Longitude (deg),Altitude (m)
729716964.817501,-51.60585,18.472059,143.942666,-0.184891,-0.780609,0.561905,-0.645137,-0.029594,-0.064167,96.527588,69.874542,-113.792725,,,
729716964.820703,-51.605855,18.472059,105.329464,-0.184891,-0.780609,0.561905,-0.645137,-0.029594,-0.064167,96.356247,70.394775,-112.72226,,,
729716964.821552,-51.605837,18.472058,108.406312,-0.184891,-0.780609,0.561905,-0.645137,-0.029594,-0.064167,96.356247,70.394775,-112.72226,,,
729716964.821663,-51.60585,18.472059,143.942666,-0.184891,-0.780609,0.561905,-0.645137,-0.029594,-0.064167,96.356247,70.394775,-112.72226,,,
729716964.824353,-51.792353,18.51839,105.394615,-0.177017,-0.779694,0.573196,-0.664728,-0.008262,-0.079551,96.356247,70.394775,-112.72226,,,
729716964.825776,-51.792335,18.518389,108.471462,-0.177017,-0.779694,0.573196,-0.664728,-0.008262,-0.079551,96.356247,70.394775,-112.72226,,,
729716964.825925,-51.792349,18.518389,144.007816,-0.177017,-0.779694,0.573196,-0.664728,-0.008262,-0.079551,96.356247,70.394775,-112.72226,,,
729716964.826366,-51.792353,18.51839,105.394615,-0.177017,-0.779694,0.573196,-0.664728,-0.008262,-0.079551,96.356247,70.394775,-112.72226,,,
729716964.826861,-51.792335,18.518389,108.471462,-0.177017,-0.779694,0.573196,-0.664728,-0.008262,-0.079551,96.356247,70.394775,-112.72226,,,
729716964.827501,-51.982254,18.564076,144.069572,-0.177017,-0.779694,0.573196,-0.664728,-0.008262,-0.079551,96.356247,70.394775,-112.72226,,,
729716964.830363,-51.982259,18.564077,105.456371,-0.177017,-0.779694,0.573196,-0.664728,-0.008262,-0.079551,96.356247,70.394775,-112.72226,,,
729716964.830916,-51.98224,18.564075,108.533218,-0.177017,-0.779694,0.573196,-0.664728,-0.008262,-0.079551,96.356247,70.394775,-112.72226,,,
729716964.831035,-51.982254,18.564076,144.069572,-0.177017,-0.779694,0.573196,-0.664728,-0.008262,-0.079551,96.356247,70.394775,-112.72226,,,
729716964.83517,-52.174875,18.608261,105.514499,-0.172958,-0.778687,0.574799,-0.678177,0.000326,-0.102633,96.356247,70.394775,-112.72226,,,
729716964.836899,-52.174856,18.60826,108.591346,-0.172958,-0.778687,0.574799,-0.678177,0.000326,-0.102633,96.356247,70.394775,-112.72226,,,
729716964.837021,-52.17487,18.608261,144.1277,-0.172958,-0.778687,0.574799,-0.678177,0.000326,-0.102633,96.356247,70.394775,-112.72226,,,
729716964.837158,-52.174875,18.608261,105.514499,-0.172958,-0.778687,0.574799,-0.678177,0.000326,-0.102633,96.356247,70.394775,-112.72226,,,
729716964.837471,-52.17487,18.608261,144.1277,-0.172958,-0.778687,0.574799,-0.678177,0.000326,-0.102633,96.356247,70.394775,-112.72226,,,
729716964.840338,-52.369115,18.650444,105.568792,-0.172958,-0.778687,0.574799,-0.678177,0.000326,-0.102633,96.356247,70.394775,-112.72226,,,
729716964.840888,-52.369096,18.650442,108.645639,-0.172958,-0.778687,0.574799,-0.678177,0.000326,-0.102633,96.356247,70.394775,-112.72226,,,
729716964.840993,-52.36911,18.650443,144.181995,-0.172958,-0.778687,0.574799,-0.678177,0.000326,-0.102633,96.356247,70.394775,-112.72226,,,
729716964.84452,-52.562946,18.686763,105.618783,-0.171539,-0.781189,0.571884,-0.669878,-0.017521,-0.121109,96.356247,70.394775,-112.72226,,,
729716964.846207,-52.562927,18.686761,108.69563,-0.171539,-0.781189,0.571884,-0.669878,-0.017521,-0.121109,96.356247,70.394775,-112.72226,,,
729716964.84632,-52.562941,18.686762,144.231988,-0.171539,-0.781189,0.571884,-0.669878,-0.017521,-0.121109,96.356247,70.394775,-112.72226,,,
729716964.846458,-52.562946,18.686763,105.618783,-0.171539,-0.781189,0.571884,-0.669878,-0.017521,-0.121109,96.356247,70.394775,-112.72226,,,
729716964.846851,-52.562927,18.686761,108.69563,-0.171539,-0.781189,0.571884,-0.669878,-0.017521,-0.121109,96.356247,70.394775,-112.72226,,,
729716964.847505,-52.755132,18.714441,144.277663,-0.171539,-0.781189,0.571884,-0.669878,-0.017521,-0.121109,96.356247,70.394775,-112.72226,,,
729716964.850357,-52.755137,18.714442,105.664463,-0.171539,-0.781189,0.571884,-0.669878,-0.017521,-0.121109,96.356247,70.394775,-112.72226,,,
729716964.850909,-52.755118,18.71444,108.74131,-0.171539,-0.781189,0.571884,-0.669878,-0.017521,-0.121109,96.356247,70.394775,-112.72226,,,
729716964.85102,-52.755132,18.714441,144.277663,-0.171539,-0.781189,0.571884,-0.669878,-0.017521,-0.121109,96.356247,70.394775,-112.72226,,,
729716964.854117,-52.944326,18.734251,105.706137,-0.176682,-0.789459,0.56868,-0.644734,-0.050747,-0.131846,96.356247,70.394775,-112.72226,,,
729716964.855186,-52.944307,18.734249,108.782983,-0.176682,-0.789459,0.56868,-0.644734,-0.050747,-0.131846,96.356247,70.394775,-112.72226,,,
729716964.85529,-52.944322,18.73425,144.319335,-0.176682,-0.789459,0.56868,-0.644734,-0.050747,-0.131846,96.356247,70.394775,-112.72226,,,
729716964.856483,-52.944326,18.734251,105.706137,-0.176682,-0.789459,0.56868,-0.644734,-0.050747,-0.131846,96.356247,70.394775,-112.72226,,,
729716964.856896,-52.944307,18.734249,108.782983,-0.176682,-0.789459,0.56868,-0.644734,-0.050747,-0.131846,96.356247,70.394775,-112.72226,,,
729716964.857529,-52.944322,18.73425,144.319335,-0.176682,-0.789459,0.56868,-0.644734,-0.050747,-0.131846,96.356247,70.394775,-112.72226,,,
729716964.860665,-53.129891,18.748011,105.744773,-0.176682,-0.789459,0.56868,-0.644734,-0.050747,-0.131846,96.356247,70.394775,-112.72226,,,
729716964.861867,-53.129871,18.748009,108.82162,-0.176682,-0.789459,0.56868,-0.644734,-0.050747,-0.131846,96.192383,70.768768,-111.514648,,,
729716964.861974,-53.129886,18.74801,144.357972,-0.176682,-0.789459,0.56868,-0.644734,-0.050747,-0.131846,96.192383,70.768768,-111.514648,,,
729716964.864211,-53.3111,18.759236,105.781958,-0.192245,-0.800064,0.573608,-0.61425,-0.060802,-0.12891,96.192383,70.768768,-111.514648,,,
729716964.865525,-53.311081,18.759234,108.858804,-0.192245,-0.800064,0.573608,-0.61425,-0.060802,-0.12891,96.192383,70.768768,-111.514648,,,
729716964.86566,-53.311096,18.759235,144.395159,-0.192245,-0.800064,0.573608,-0.61425,-0.060802,-0.12891,96.192383,70.768768,-111.514648,,,
729716964.866381,-53.3111,18.759236,105.781958,-0.192245,-0.800064,0.573608,-0.61425,-0.060802,-0.12891,96.192383,70.768768,-111.514648,,,
729716964.866853,-53.311081,18.759234,108.858804,-0.192245,-0.800064,0.573608,-0.61425,-0.060802,-0.12891,96.192383,70.768768,-111.514648,,,
729716964.8675,-53.488778,18.771751,144.432251,-0.192245,-0.800064,0.573608,-0.61425,-0.060802,-0.12891,96.192383,70.768768,-111.514648,,,
729716964.870378,-53.488783,18.771752,105.819046,-0.192245,-0.800064,0.573608,-0.61425,-0.060802,-0.12891,96.192383,70.768768,-111.514648,,,
729716964.870923,-53.488763,18.77175,108.895893,-0.192245,-0.800064,0.573608,-0.61425,-0.060802,-0.12891,96.192383,70.768768,-111.514648,,,
729716964.87103,-53.488778,18.771751,144.432251,-0.192245,-0.800064,0.573608,-0.61425,-0.060802,-0.12891,96.192383,70.768768,-111.514648,,,
729716964.874122,-53.663128,18.784763,105.855442,-0.201385,-0.805939,0.576111,-0.592022,-0.053943,-0.125251,96.192383,70.768768,-111.514648,,,
729716964.875569,-53.663108,18.784761,108.932289,-0.201385,-0.805939,0.576111,-0.592022,-0.053943,-0.125251,96.192383,70.768768,-111.514648,,,
729716964.875673,-53.663123,18.784762,144.468649,-0.201385,-0.805939,0.576111,-0.592022,-0.053943,-0.125251,96.192383,70.768768,-111.514648,,,
729716964.876381,-53.663128,18.784763,105.855442,-0.201385,-0.805939,0.576111,-0.592022,-0.053943,-0.125251,96.192383,70.768768,-111.514648,,,
729716964.876856,-53.663108,18.784761,108.932289,-0.201385,-0.805939,0.576111,-0.592022,-0.053943,-0.125251,96.192383,70.768768,-111.514648,,,
729716964.87753,-53.663123,18.784762,144.468649,-0.201385,-0.805939,0.576111,-0.592022,-0.053943,-0.125251,96.192383,70.768768,-111.514648,,,
729716964.880365,-53.833255,18.795061,105.888675,-0.201385,-0.805939,0.576111,-0.592022,-0.053943,-0.125251,96.192383,70.768768,-111.514648,,,
729716964.880918,-53.833235,18.795059,108.965521,-0.201385,-0.805939,0.576111,-0.592022,-0.053943,-0.125251,96.192383,70.768768,-111.514648,,,
729716964.881034,-53.83325,18.79506,144.501874,-0.201385,-0.805939,0.576111,-0.592022,-0.053943,-0.125251,96.192383,70.768768,-111.514648,,,
729716964.884009,-53.998686,18.801449,105.91756,-0.189178,-0.804337,0.571335,-0.556201,-0.057181,-0.132498,96.192383,70.768768,-111.514648,,,
729716964.88528,-53.998666,18.801447,108.994406,-0.189178,-0.804337,0.571335,-0.556201,-0.057181,-0.132498,96.192383,70.768768,-111.514648,,,
729716964.885409,-53.998681,18.801448,144.53076,-0.189178,-0.804337,0.571335,-0.556201,-0.057181,-0.132498,96.192383,70.768768,-111.514648,,,
729716964.886444,-53.998686,18.801449,105.91756,-0.189178,-0.804337,0.571335,-0.556201,-0.057181,-0.132498,96.192383,70.768768,-111.514648,,,
729716964.886847,-53.998666,18.801447,108.994406,-0.189178,-0.804337,0.571335,-0.556201,-0.057181,-0.132498,96.192383,70.768768,-111.514648,,,
729716964.887499,-53.998681,18.801448,144.53076,-0.189178,-0.804337,0.571335,-0.556201,-0.057181,-0.132498,96.192383,70.768768,-111.514648,,,
729716964.890356,-54.161099,18.806711,105.942808,-0.189178,-0.804337,0.571335,-0.556201,-0.057181,-0.132498,96.192383,70.768768,-111.514648,,,
729716964.890902,-54.161079,18.806709,109.019655,-0.189178,-0.804337,0.571335,-0.556201,-0.057181,-0.132498,96.192383,70.768768,-111.514648,,,
729716964.891006,-54.161094,18.80671,144.556011,-0.189178,-0.804337,0.571335,-0.556201,-0.057181,-0.132498,96.192383,70.768768,-111.514648,,,
729716964.894239,-54.321571,18.814908,105.965443,-0.177078,-0.804504,0.569244,-0.540502,-0.022233,-0.13891,96.192383,70.768768,-111.514648,,,
729716964.895374,-54.321551,18.814907,109.04229,-0.177078,-0.804504,0.569244,-0.540502,-0.022233,-0.13891,96.192383,70.768768,-111.514648,,,
729716964.895477,-54.321566,18.814907,144.578648,-0.177078,-0.804504,0.569244,-0.540502,-0.022233,-0.13891,96.192383,70.768768,-111.514648,,,
729716964.896434,-54.321571,18.814908,105.965443,-0.177078,-0.804504,0.569244,-0.540502,-0.022233,-0.13891,96.192383,70.768768,-111.514648,,,
729716964.896848,-54.321551,18.814907,109.04229,-0.177078,-0.804504,0.569244,-0.540502,-0.022233,-0.13891,96.192383,70.768768,-111.514648,,,
729716964.897499,-54.321566,18.814907,144.578648,-0.177078,-0.804504,0.569244,-0.540502,-0.022233,-0.13891,96.192383,70.768768,-111.514648,,,
729716964.90058,-54.479814,18.827923,105.987306,-0.177078,-0.804504,0.569244,-0.540502,-0.022233,-0.13891,96.192383,70.768768,-111.514648,,,
729716964.901381,-54.479793,18.827921,109.064152,-0.177078,-0.804504,0.569244,-0.540502,-0.022233,-0.13891,96.192383,70.768768,-111.514648,,,
729716964.901539,-54.479809,18.827922,144.600503,-0.177078,-0.804504,0.569244,-0.540502,-0.022233,-0.13891,96.192383,70.768768,-111.514648,,,
729716964.905433,-54.634447,18.84666,106.010272,-0.184586,-0.813263,0.570404,-0.51863,0.01108,-0.127295,95.986481,71.154144,-110.263443,,,
729716964.907134,-54.634427,18.846658,109.087118,-0.184586,-0.813263,0.570404,-0.51863,0.01108,-0.127295,95.986481,71.154144,-110.263443,,,
729716964.907256,-54.634442,18.846659,144.623469,-0.184586,-0.813263,0.570404,-0.51863,0.01108,-0.127295,95.986481,71.154144,-110.263443,,,
729716964.907397,-54.634447,18.84666,106.010272,-0.184586,-0.813263,0.570404,-0.51863,0.01108,-0.127295,95.986481,71.154144,-110.263443,,,
729716964.907487,-54.634442,18.846659,144.623469,-0.184586,-0.813263,0.570404,-0.51863,0.01108,-0.127295,95.986481,71.154144,-110.263443,,,
729716964.910385,-54.785683,18.872417,106.037501,-0.184586,-0.813263,0.570404,-0.51863,0.01108,-0.127295,95.986481,71.154144,-110.263443,,,
729716964.910943,-54.785662,18.872415,109.114347,-0.184586,-0.813263,0.570404,-0.51863,0.01108,-0.127295,95.986481,71.154144,-110.263443,,,
729716964.911051,-54.785678,18.872416,144.6507,-0.184586,-0.813263,0.570404,-0.51863,0.01108,-0.127295,95.986481,71.154144,-110.263443,,,
729716964.914232,-54.933037,18.906302,106.072387,-0.187637,-0.822769,0.560379,-0.503647,0.023833,-0.090657,95.986481,71.154144,-110.263443,,,
729716964.915365,-54.933016,18.9063,109.149233,-0.187637,-0.822769,0.560379,-0.503647,0.023833,-0.090657,95.986481,71.154144,-110.263443,,,
729716964.915472,-54.933032,18.906301,144.685586,-0.187637,-0.822769,0.560379,-0.503647,0.023833,-0.090657,95.986481,71.154144,-110.263443,,,
729716964.916432,-54.933037,18.906302,106.072387,-0.187637,-0.822769,0.560379,-0.503647,0.023833,-0.090657,95.986481,71.154144,-110.263443,,,
729716964.916849,-54.933016,18.9063,109.149233,-0.187637,-0.822769,0.560379,-0.503647,0.023833,-0.090657,95.986481,71.154144,-110.263443,,,
729716964.917498,-54.933032,18.906301,144.685586,-0.187637,-0.822769,0.560379,-0.503647,0.023833,-0.090657,95.986481,71.154144,-110.263443,,,
729716964.920348,-55.076109,18.948262,106.116738,-0.187637,-0.822769,0.560379,-0.503647,0.023833,-0.090657,95.986481,71.154144,-110.263443,,,
729716964.920896,-55.076088,18.94826,109.193584,-0.187637,-0.822769,0.560379,-0.503647,0.023833,-0.090657,95.986481,71.154144,-110.263443,,,
729716964.921006,-55.076104,18.948261,144.729935,-0.187637,-0.822769,0.560379,-0.503647,0.023833,-0.090657,95.986481,71.154144,-110.263443,,,
729716964.924115,-55.214134,18.998414,106.170384,-0.191483,-0.831131,0.551453,-0.483049,0.027325,-0.045827,95.986481,71.154144,-110.263443,,,
729716964.925131,-55.214113,18.998412,109.24723,-0.191483,-0.831131,0.551453,-0.483049,0.027325,-0.045827,95.986481,71.154144,-110.263443,,,
729716964.925235,-55.214129,18.998413,144.783582,-0.191483,-0.831131,0.551453,-0.483049,0.027325,-0.045827,95.986481,71.154144,-110.263443,,,
729716964.926464,-55.214134,18.998414,106.170384,-0.191483,-0.831131,0.551453,-0.483049,0.027325,-0.045827,95.986481,71.154144,-110.263443,,,
729716964.926844,-55.214113,18.998412,109.24723,-0.191483,-0.831131,0.551453,-0.483049,0.027325,-0.045827,95.986481,71.154144,-110.263443,,,
729716964.927502,-55.214129,18.998413,144.783582,-0.191483,-0.831131,0.551453,-0.483049,0.027325,-0.045827,95.986481,71.154144,-110.263443,,,
729716964.930591,-55.346455,19.05738,106.232606,-0.191483,-0.831131,0.551453,-0.483049,0.027325,-0.045827,95.986481,71.154144,-110.263443,,,
729716964.931404,-55.346434,19.057378,109.309452,-0.191483,-0.831131,0.551453,-0.483049,0.027325,-0.045827,95.986481,71.154144,-110.263443,,,
729716964.93157,-55.34645,19.057379,144.845808,-0.191483,-0.831131,0.551453,-0.483049,0.027325,-0.045827,95.986481,71.154144,-110.263443,,,
729716964.934548,-55.473304,19.124817,106.302648,-0.190308,-0.8367,0.555252,-0.457402,0.041002,-0.006204,95.986481,71.154144,-110.263443,,,
729716964.936074,-55.473282,19.124815,109.379494,-0.190308,-0.8367,0.555252,-0.457402,0.041002,-0.006204,95.986481,71.154144,-110.263443,,,
729716964.936239,-55.473298,19.124816,144.915848,-0.190308,-0.8367,0.555252,-0.457402,0.041002,-0.006204,95.986481,71.154144,-110.263443,,,
729716964.936463,-55.473304,19.124817,106.302648,-0.190308,-0.8367,0.555252,-0.457402,0.041002,-0.006204,95.986481,71.154144,-110.263443,,,
729716964.936862,-55.473282,19.124815,109.379494,-0.190308,-0.8367,0.555252,-0.457402,0.041002,-0.006204,95.986481,71.154144,-110.263443,,,
729716964.937499,-55.473298,19.124816,144.915848,-0.190308,-0.8367,0.555252,-0.457402,0.041002,-0.006204,95.986481,71.154144,-110.263443,,,
729716964.940349,-55.596027,19.200078,106.37879,-0.190308,-0.8367,0.555252,-0.457402,0.041002,-0.006204,95.986481,71.154144,-110.263443,,,
729716964.940898,-55.596005,19.200076,109.455636,-0.190308,-0.8367,0.555252,-0.457402,0.041002,-0.006204,95.986481,71.154144,-110.263443,,,
729716964.941003,-55.596022,19.200077,144.991993,-0.190308,-0.8367,0.555252,-0.457402,0.041002,-0.006204,95.986481,71.154144,-110.263443,,,
729716964.945756,-55.714353,19.280685,106.457607,-0.185791,-0.833267,0.553986,-0.432065,0.06229,0.011429,95.733368,71.620041,-109.553665,,,
729716964.947854,-55.714332,19.280683,109.534452,-0.185791,-0.833267,0.553986,-0.432065,0.06229,0.011429,95.733368,71.620041,-109.553665,,,
729716964.947982,-55.828619,19.363973,145.149322,-0.185791,-0.833267,0.553986,-0.432065,0.06229,0.011429,95.733368,71.620041,-109.553665,,,
729716964.948529,-55.828624,19.363974,106.536121,-0.185791,-0.833267,0.553986,-0.432065,0.06229,0.011429,95.733368,71.620041,-109.553665,,,
729716964.949821,-55.828624,19.363974,106.536121,-0.185791,-0.833267,0.553986,-0.432065,0.06229,0.011429,95.733368,71.620041,-109.553665,,,
729716964.950596,-55.828602,19.363972,109.612966,-0.185791,-0.833267,0.553986,-0.432065,0.06229,0.011429,95.733368,71.620041,-109.553665,,,
729716964.95084,-55.828619,19.363973,145.149322,-0.185791,-0.833267,0.553986,-0.432065,0.06229,0.011429,95.733368,71.620041,-109.553665,,,
729716964.953979,-55.938661,19.4486,106.612477,-0.182007,-0.827927,0.552643,-0.401697,0.083474,0.010924,95.733368,71.620041,-109.553665,,,
729716964.954842,-55.938639,19.448598,109.689323,-0.182007,-0.827927,0.552643,-0.401697,0.083474,0.010924,95.733368,71.620041,-109.553665,,,
729716964.954945,-55.938656,19.448599,145.225679,-0.182007,-0.827927,0.552643,-0.401697,0.083474,0.010924,95.733368,71.620041,-109.553665,,,
729716964.956474,-55.938661,19.4486,106.612477,-0.182007,-0.827927,0.552643,-0.401697,0.083474,0.010924,95.733368,71.620041,-109.553665,,,
729716964.956839,-55.938639,19.448598,109.689323,-0.182007,-0.827927,0.552643,-0.401697,0.083474,0.010924,95.733368,71.620041,-109.553665,,,
729716964.957501,-55.938656,19.448599,145.225679,-0.182007,-0.827927,0.552643,-0.401697,0.083474,0.010924,95.733368,71.620041,-109.553665,,,
729716964.960376,-56.044215,19.53219,106.68439,-0.182007,-0.827927,0.552643,-0.401697,0.083474,0.010924,95.733368,71.620041,-109.553665,,,
729716964.960932,-56.044194,19.532188,109.761236,-0.182007,-0.827927,0.552643,-0.401697,0.083474,0.010924,95.733368,71.620041,-109.553665,,,
729716964.961041,-56.04421,19.532189,145.297597,-0.182007,-0.827927,0.552643,-0.401697,0.083474,0.010924,95.733368,71.620041,-109.553665,,,
729716964.965279,-56.14591,19.612198,106.750827,-0.186569,-0.824097,0.55188,-0.369776,0.089758,-0.002203,95.733368,71.620041,-109.553665,,,
729716964.967116,-56.145888,19.612195,109.827673,-0.186569,-0.824097,0.55188,-0.369776,0.089758,-0.002203,95.733368,71.620041,-109.553665,,,
729716964.967233,-56.145905,19.612196,145.364034,-0.186569,-0.824097,0.55188,-0.369776,0.089758,-0.002203,95.733368,71.620041,-109.553665,,,
729716964.967367,-56.14591,19.612198,106.750827,-0.186569,-0.824097,0.55188,-0.369776,0.089758,-0.002203,95.733368,71.620041,-109.553665,,,
729716964.967479,-56.145905,19.612196,145.364034,-0.186569,-0.824097,0.55188,-0.369776,0.089758,-0.002203,95.733368,71.620041,-109.553665,,,
729716964.970379,-56.244701,19.686708,106.811172,-0.186569,-0.824097,0.55188,-0.369776,0.089758,-0.002203,95.733368,71.620041,-109.553665,,,
729716964.970927,-56.244679,19.686705,109.888018,-0.186569,-0.824097,0.55188,-0.369776,0.089758,-0.002203,95.733368,71.620041,-109.553665,,,
729716964.971035,-56.244696,19.686707,145.424369,-0.186569,-0.824097,0.55188,-0.369776,0.089758,-0.002203,95.733368,71.620041,-109.553665,,,
729716964.974442,-56.34014,19.752437,106.864312,-0.188034,-0.82048,0.541962,-0.339106,0.069869,-0.022194,95.733368,71.620041,-109.553665,,,
729716964.975824,-56.340118,19.752435,109.941157,-0.188034,-0.82048,0.541962,-0.339106,0.069869,-0.022194,95.733368,71.620041,-109.553665,,,
729716964.975971,-56.340135,19.752436,145.477511,-0.188034,-0.82048,0.541962,-0.339106,0.069869,-0.022194,95.733368,71.620041,-109.553665,,,
729716964.976358,-56.34014,19.752437,106.864312,-0.188034,-0.82048,0.541962,-0.339106,0.069869,-0.022194,95.733368,71.620041,-109.553665,,,
729716964.976857,-56.340118,19.752435,109.941157,-0.188034,-0.82048,0.541962,-0.339106,0.069869,-0.022194,95.733368,71.620041,-109.553665,,,
729716964.977499,-56.340135,19.752436,145.477511,-0.188034,-0.82048,0.541962,-0.339106,0.069869,-0.022194,95.733368,71.620041,-109.553665,,,
729716964.980366,-56.433255,19.807997,106.908862,-0.188034,-0.82048,0.541962,-0.339106,0.069869,-0.022194,95.733368,71.620041,-109.553665,,,
729716964.980924,-56.433233,19.807995,109.985708,-0.188034,-0.82048,0.541962,-0.339106,0.069869,-0.022194,95.733368,71.620041,-109.553665,,,
729716964.981029,-56.43325,19.807996,145.52206,-0.188034,-0.82048,0.541962,-0.339106,0.069869,-0.022194,95.733368,71.620041,-109.553665,,,
729716964.98507,-56.524313,19.854386,106.944191,-0.183304,-0.819778,0.531158,-0.313995,0.059242,-0.051912,95.85466,71.730545,-108.772446,,,
729716964.986766,-56.524291,19.854384,110.021036,-0.183304,-0.819778,0.531158,-0.313995,0.059242,-0.051912,95.85466,71.730545,-108.772446,,,
729716964.986879,-56.524308,19.854385,145.557389,-0.183304,-0.819778,0.531158,-0.313995,0.059242,-0.051912,95.85466,71.730545,-108.772446,,,
729716964.987011,-56.524313,19.854386,106.944191,-0.183304,-0.819778,0.531158,-0.313995,0.059242,-0.051912,95.85466,71.730545,-108.772446,,,
729716964.987481,-56.524308,19.854385,145.557389,-0.183304,-0.819778,0.531158,-0.313995,0.059242,-0.051912,95.85466,71.730545,-108.772446,,,
729716964.99033,-56.613681,19.893277,106.972029,-0.183304,-0.819778,0.531158,-0.313995,0.059242,-0.051912,95.85466,71.730545,-108.772446,,,
729716964.990881,-56.613659,19.893275,110.048875,-0.183304,-0.819778,0.531158,-0.313995,0.059242,-0.051912,95.85466,71.730545,-108.772446,,,
729716964.990988,-56.613676,19.893276,145.585227,-0.183304,-0.819778,0.531158,-0.313995,0.059242,-0.051912,95.85466,71.730545,-108.772446,,,
729716964.994315,-56.701536,19.926548,106.993132,-0.184341,-0.825592,0.531937,-0.295791,0.059106,-0.073403,95.85466,71.730545,-108.772446,,,
729716964.995573,-56.701514,19.926546,110.069978,-0.184341,-0.825592,0.531937,-0.295791,0.059106,-0.073403,95.85466,71.730545,-108.772446,,,
729716964.995719,-56.701531,19.926547,145.606332,-0.184341,-0.825592,0.531937,-0.295791,0.059106,-0.073403,95.85466,71.730545,-108.772446,,,
729716964.996391,-56.701536,19.926548,106.993132,-0.184341,-0.825592,0.531937,-0.295791,0.059106,-0.073403,95.85466,71.730545,-108.772446,,,
729716964.996852,-56.701514,19.926546,110.069978,-0.184341,-0.825592,0.531937,-0.295791,0.059106,-0.073403,95.85466,71.730545,-108.772446,,,
729716964.997501,-56.701531,19.926547,145.606332,-0.184341,-0.825592,0.531937,-0.295791,0.059106,-0.073403,95.85466,71.730545,-108.772446,,,
729716965.000601,-56.78788,19.954687,107.007008,-0.184341,-0.825592,0.531937,-0.295791,0.059106,-0.073403,95.85466,71.730545,-108.772446,,,
729716965.001409,-56.787858,19.954685,110.083853,-0.184341,-0.825592,0.531937,-0.295791,0.059106,-0.073403,95.85466,71.730545,-108.772446,,,
729716965.001565,-56.787875,19.954686,145.620206,-0.184341,-0.825592,0.531937,-0.295791,0.059106,-0.073403,95.85466,71.730545,-108.772446,,,
729716965.003673,-56.872702,19.97663,107.013579,-0.182373,-0.830261,0.5289,-0.277098,0.058469,-0.096563,95.85466,71.730545,-108.772446,,,
729716965.004429,-56.872679,19.976628,110.090424,-0.182373,-0.830261,0.5289,-0.277098,0.058469,-0.096563,95.85466,71.730545,-108.772446,,,
729716965.00454,-56.872697,19.976629,145.62678,-0.182373,-0.830261,0.5289,-0.277098,0.058469,-0.096563,95.85466,71.730545,-108.772446,,,
729716965.006563,-56.872702,19.97663,107.013579,-0.182373,-0.830261,0.5289,-0.277098,0.058469,-0.096563,95.85466,71.730545,-108.772446,,,
729716965.006832,-56.872679,19.976628,110.090424,-0.182373,-0.830261,0.5289,-0.277098,0.058469,-0.096563,95.85466,71.730545,-108.772446,,,
729716965.007501,-56.872697,19.976629,145.62678,-0.182373,-0.830261,0.5289,-0.277098,0.058469,-0.096563,95.85466,71.730545,-108.772446,,,
729716965.010404,-56.956748,19.991834,107.013309,-0.182373,-0.830261,0.5289,-0.277098,0.058469,-0.096563,95.85466,71.730545,-108.772446,,,
729716965.011071,-56.956725,19.991831,110.090155,-0.182373,-0.830261,0.5289,-0.277098,0.058469,-0.096563,95.85466,71.730545,-108.772446,,,
729716965.011221,-56.956743,19.991832,145.626515,-0.182373,-0.830261,0.5289,-0.277098,0.058469,-0.096563,95.85466,71.730545,-108.772446,,,
729716965.014457,-57.039356,20.000749,107.007605,-0.176651,-0.836716,0.516098,-0.261374,0.046505,-0.112924,95.85466,71.730545,-108.772446,,,
729716965.015894,-57.039333,20.000746,110.08445,-0.176651,-0.836716,0.516098,-0.261374,0.046505,-0.112924,95.85466,71.730545,-108.772446,,,
729716965.015999,-57.039351,20.000748,145.62081,-0.176651,-0.836716,0.516098,-0.261374,0.046505,-0.112924,95.85466,71.730545,-108.772446,,,
729716965.016338,-57.039356,20.000749,107.007605,-0.176651,-0.836716,0.516098,-0.261374,0.046505,-0.112924,95.85466,71.730545,-108.772446,,,
729716965.016856,-57.039333,20.000746,110.08445,-0.176651,-0.836716,0.516098,-0.261374,0.046505,-0.112924,95.85466,71.730545,-108.772446,,,
729716965.017497,-57.039351,20.000748,145.62081,-0.176651,-0.836716,0.516098,-0.261374,0.046505,-0.112924,95.85466,71.730545,-108.772446,,,
729716965.020374,-57.119956,20.002999,106.998441,-0.176651,-0.836716,0.516098,-0.261374,0.046505,-0.112924,95.85466,71.730545,-108.772446,,,
729716965.020822,-57.119933,20.002996,110.075286,-0.176651,-0.836716,0.516098,-0.261374,0.046505,-0.112924,95.85466,71.730545,-108.772446,,,
729716965.020966,-57.11995,20.002998,145.611648,-0.176651,-0.836716,0.516098,-0.261374,0.046505,-0.112924,95.85466,71.730545,-108.772446,,,
729716965.024119,-57.198388,19.998731,106.987982,-0.183884,-0.84079,0.504456,-0.246239,0.008769,-0.112511,95.85466,71.730545,-108.772446,,,
729716965.025606,-57.198365,19.998729,110.064827,-0.183884,-0.84079,0.504456,-0.246239,0.008769,-0.112511,95.737457,71.841827,-108.193924,,,
729716965.025718,-57.198383,19.99873,145.601188,-0.183884,-0.84079,0.504456,-0.246239,0.008769,-0.112511,95.737457,71.841827,-108.193924,,,
729716965.026688,-57.198388,19.998731,106.987982,-0.183884,-0.84079,0.504456,-0.246239,0.008769,-0.112511,95.737457,71.841827,-108.193924,,,
729716965.026933,-57.198365,19.998729,110.064827,-0.183884,-0.84079,0.504456,-0.246239,0.008769,-0.112511,95.737457,71.841827,-108.193924,,,
729716965.02755,-57.198383,19.99873,145.601188,-0.183884,-0.84079,0.504456,-0.246239,0.008769,-0.112511,95.737457,71.841827,-108.193924,,,
729716965.030658,-57.274662,19.989511,106.97862,-0.183884,-0.84079,0.504456,-0.246239,0.008769,-0.112511,95.737457,71.841827,-108.193924,,,
729716965.03134,-57.274639,19.989508,110.055465,-0.183884,-0.84079,0.504456,-0.246239,0.008769,-0.112511,95.737457,71.841827,-108.193924,,,
729716965.031486,-57.274657,19.98951,145.591819,-0.183884,-0.84079,0.504456,-0.246239,0.008769,-0.112511,95.737457,71.841827,-108.193924,,,
729716965.035305,-57.347848,19.975764,106.971075,-0.192398,-0.845825,0.497208,-0.229149,-0.033382,-0.098745,95.737457,71.841827,-108.193924,,,
729716965.036814,-57.347825,19.975762,110.04792,-0.192398,-0.845825,0.497208,-0.229149,-0.033382,-0.098745,95.737457,71.841827,-108.193924,,,
729716965.036935,-57.347842,19.975763,145.584272,-0.192398,-0.845825,0.497208,-0.229149,-0.033382,-0.098745,95.737457,71.841827,-108.193924,,,
729716965.037074,-57.347848,19.975764,106.971075,-0.192398,-0.845825,0.497208,-0.229149,-0.033382,-0.098745,95.737457,71.841827,-108.193924,,,
729716965.03748,-57.347842,19.975763,145.584272,-0.192398,-0.845825,0.497208,-0.229149,-0.033382,-0.098745,95.737457,71.841827,-108.193924,,,
729716965.040609,-57.417815,19.958499,106.96467,-0.192398,-0.845825,0.497208,-0.229149,-0.033382,-0.098745,95.737457,71.841827,-108.193924,,,
729716965.041409,-57.417792,19.958497,110.041515,-0.192398,-0.845825,0.497208,-0.229149,-0.033382,-0.098745,95.737457,71.841827,-108.193924,,,
729716965.041557,-57.417809,19.958498,145.577868,-0.192398,-0.845825,0.497208,-0.229149,-0.033382,-0.098745,95.737457,71.841827,-108.193924,,,
729716965.044097,-57.485072,19.93788,106.957669,-0.19426,-0.845703,0.502045,-0.211516,-0.053198,-0.094499,95.737457,71.841827,-108.193924,,,
729716965.045462,-57.485049,19.937878,110.034514,-0.19426,-0.845703,0.502045,-0.211516,-0.053198,-0.094499,95.737457,71.841827,-108.193924,,,
729716965.045563,-57.485066,19.937879,145.570865,-0.19426,-0.845703,0.502045,-0.211516,-0.053198,-0.094499,95.737457,71.841827,-108.193924,,,
729716965.046402,-57.485072,19.93788,106.957669,-0.19426,-0.845703,0.502045,-0.211516,-0.053198,-0.094499,95.737457,71.841827,-108.193924,,,
729716965.046852,-57.485049,19.937878,110.034514,-0.19426,-0.845703,0.502045,-0.211516,-0.053198,-0.094499,95.737457,71.841827,-108.193924,,,
729716965.047499,-57.485066,19.937879,145.570865,-0.19426,-0.845703,0.502045,-0.211516,-0.053198,-0.094499,95.737457,71.841827,-108.193924,,,
729716965.050599,-57.550161,19.912536,106.948153,-0.19426,-0.845703,0.502045,-0.211516,-0.053198,-0.094499,95.737457,71.841827,-108.193924,,,
729716965.051411,-57.550138,19.912534,110.024998,-0.19426,-0.845703,0.502045,-0.211516,-0.053198,-0.094499,95.737457,71.841827,-108.193924,,,
729716965.051563,-57.550155,19.912535,145.561352,-0.19426,-0.845703,0.502045,-0.211516,-0.053198,-0.094499,95.737457,71.841827,-108.193924,,,
729716965.054552,-57.612439,19.88359,106.934886,-0.18573,-0.839844,0.506561,-0.189185,-0.056176,-0.101036,95.737457,71.841827,-108.193924,,,
729716965.055767,-57.612416,19.883588,110.011731,-0.18573,-0.839844,0.506561,-0.189185,-0.056176,-0.101036,95.737457,71.841827,-108.193924,,,
729716965.055872,-57.612433,19.883589,145.548084,-0.18573,-0.839844,0.506561,-0.189185,-0.056176,-0.101036,95.737457,71.841827,-108.193924,,,
729716965.056357,-57.612439,19.88359,106.934886,-0.18573,-0.839844,0.506561,-0.189185,-0.056176,-0.101036,95.737457,71.841827,-108.193924,,,
729716965.056854,-57.612416,19.883588,110.011731,-0.18573,-0.839844,0.506561,-0.189185,-0.056176,-0.101036,95.737457,71.841827,-108.193924,,,
729716965.057498,-57.612433,19.883589,145.548084,-0.18573,-0.839844,0.506561,-0.189185,-0.056176,-0.101036,95.737457,71.841827,-108.193924,,,
729716965.060569,-57.673373,19.853427,106.917926,-0.18573,-0.839844,0.506561,-0.189185,-0.056176,-0.101036,95.737457,71.841827,-108.193924,,,
729716965.061382,-57.67335,19.853425,109.994771,-0.18573,-0.839844,0.506561,-0.189185,-0.056176,-0.101036,95.737457,71.841827,-108.193924,,,
729716965.061539,-57.673368,19.853426,145.531127,-0.18573,-0.839844,0.506561,-0.189185,-0.056176,-0.101036,95.737457,71.841827,-108.193924,,,
729716965.064526,-57.732772,19.823013,106.896544,-0.173416,-0.831665,0.509338,-0.174289,-0.031754,-0.112831,95.737457,71.841827,-108.193924,,,
729716965.066058,-57.732749,19.823011,109.973389,-0.173416,-0.831665,0.509338,-0.174289,-0.031754,-0.112831,95.387878,72.165268,-107.554764,,,
729716965.066182,-57.732766,19.823012,145.509742,-0.173416,-0.831665,0.509338,-0.174289,-0.031754,-0.112831,95.387878,72.165268,-107.554764,,,
729716965.066634,-57.732772,19.823013,106.896544,-0.173416,-0.831665,0.509338,-0.174289,-0.031754,-0.112831,95.387878,72.165268,-107.554764,,,
729716965.066853,-57.732749,19.823011,109.973389,-0.173416,-0.831665,0.509338,-0.174289,-0.031754,-0.112831,95.387878,72.165268,-107.554764,,,
729716965.067502,-57.732766,19.823012,145.509742,-0.173416,-0.831665,0.509338,-0.174289,-0.031754,-0.112831,95.387878,72.165268,-107.554764,,,
729716965.070354,-57.790797,19.792474,106.870343,-0.173416,-0.831665,0.509338,-0.174289,-0.031754,-0.112831,95.387878,72.165268,-107.554764,,,
729716965.070902,-57.790774,19.792472,109.947187,-0.173416,-0.831665,0.509338,-0.174289,-0.031754,-0.112831,95.387878,72.165268,-107.554764,,,
729716965.071006,-57.790791,19.792473,145.483537,-0.173416,-0.831665,0.509338,-0.174289,-0.031754,-0.112831,95.387878,72.165268,-107.554764,,,
729716965.073979,-57.847602,19.763295,106.840845,-0.169022,-0.825668,0.510468,-0.163184,-0.002829,-0.121293,95.387878,72.165268,-107.554764,,,
729716965.074835,-57.847579,19.763293,109.91769,-0.169022,-0.825668,0.510468,-0.163184,-0.002829,-0.121293,95.387878,72.165268,-107.554764,,,
729716965.074934,-57.847597,19.763294,145.454049,-0.169022,-0.825668,0.510468,-0.163184,-0.002829,-0.121293,95.387878,72.165268,-107.554764,,,
729716965.076507,-57.847602,19.763295,106.840845,-0.169022,-0.825668,0.510468,-0.163184,-0.002829,-0.121293,95.387878,72.165268,-107.554764,,,
729716965.076841,-57.847579,19.763293,109.91769,-0.169022,-0.825668,0.510468,-0.163184,-0.002829,-0.121293,95.387878,72.165268,-107.554764,,,
729716965.077501,-57.847597,19.763294,145.454049,-0.169022,-0.825668,0.510468,-0.163184,-0.002829,-0.121293,95.387878,72.165268,-107.554764,,,
729716965.080363,-57.903507,19.738659,106.811243,-0.169022,-0.825668,0.510468,-0.163184,-0.002829,-0.121293,95.387878,72.165268,-107.554764,,,
729716965.080911,-57.903484,19.738656,109.888088,-0.169022,-0.825668,0.510468,-0.163184,-0.002829,-0.121293,95.387878,72.165268,-107.554764,,,
729716965.081016,-57.903501,19.738657,145.424448,-0.169022,-0.825668,0.510468,-0.163184,-0.002829,-0.121293,95.387878,72.165268,-107.554764,,,
729716965.085202,-57.959692,19.719216,106.785567,-0.169952,-0.830978,0.501877,-0.170746,0.010297,-0.108189,95.387878,72.165268,-107.554764,,,
729716965.087109,-57.959669,19.719213,109.862412,-0.169952,-0.830978,0.501877,-0.170746,0.010297,-0.108189,95.387878,72.165268,-107.554764,,,
729716965.087228,-57.959687,19.719214,145.398775,-0.169952,-0.830978,0.501877,-0.170746,0.010297,-0.108189,95.387878,72.165268,-107.554764,,,
729716965.087371,-57.959692,19.719216,106.785567,-0.169952,-0.830978,0.501877,-0.170746,0.010297,-0.108189,95.387878,72.165268,-107.554764,,,
729716965.087477,-57.959687,19.719214,145.398775,-0.169952,-0.830978,0.501877,-0.170746,0.010297,-0.108189,95.387878,72.165268,-107.554764,,,
729716965.090386,-58.017332,19.70161,106.765551,-0.169952,-0.830978,0.501877,-0.170746,0.010297,-0.108189,95.387878,72.165268,-107.554764,,,
729716965.090951,-58.017309,19.701607,109.842395,-0.169952,-0.830978,0.501877,-0.170746,0.010297,-0.108189,95.387878,72.165268,-107.554764,,,
729716965.091058,-58.017327,19.701608,145.378748,-0.169952,-0.830978,0.501877,-0.170746,0.010297,-0.108189,95.387878,72.165268,-107.554764,,,
729716965.095637,-58.077761,19.68389,106.752218,-0.180634,-0.844864,0.47435,-0.198359,-0.03001,-0.091557,95.387878,72.165268,-107.554764,,,
729716965.097519,-58.077738,19.683888,109.829062,-0.180634,-0.844864,0.47435,-0.198359,-0.03001,-0.091557,95.387878,72.165268,-107.554764,,,
729716965.097645,-58.077756,19.683889,145.365415,-0.180634,-0.844864,0.47435,-0.198359,-0.03001,-0.091557,95.387878,72.165268,-107.554764,,,
729716965.097786,-58.077761,19.68389,106.752218,-0.180634,-0.844864,0.47435,-0.198359,-0.03001,-0.091557,95.387878,72.165268,-107.554764,,,
729716965.100237,-58.142175,19.665968,106.746347,-0.180634,-0.844864,0.47435,-0.198359,-0.03001,-0.091557,95.387878,72.165268,-107.554764,,,
729716965.100792,-58.142152,19.665966,109.823192,-0.180634,-0.844864,0.47435,-0.198359,-0.03001,-0.091557,95.387878,72.165268,-107.554764,,,
729716965.100902,-58.14217,19.665967,145.359545,-0.180634,-0.844864,0.47435,-0.198359,-0.03001,-0.091557,95.387878,72.165268,-107.554764,,,
729716965.104131,-58.210001,19.647172,106.746607,-0.187653,-0.8564,0.459427,-0.229066,-0.072327,-0.078431,95.387878,72.165268,-107.554764,,,
729716965.105177,-58.209977,19.647169,109.823452,-0.187653,-0.8564,0.459427,-0.229066,-0.072327,-0.078431,95.387878,72.165268,-107.554764,,,
729716965.105284,-58.209995,19.64717,145.359806,-0.187653,-0.8564,0.459427,-0.229066,-0.072327,-0.078431,95.387878,72.165268,-107.554764,,,
729716965.106778,-58.210001,19.647172,106.746607,-0.187653,-0.8564,0.459427,-0.229066,-0.072327,-0.078431,95.394409,72.046982,-107.47226,,,
729716965.107316,-58.209977,19.647169,109.823452,-0.187653,-0.8564,0.459427,-0.229066,-0.072327,-0.078431,95.394409,72.046982,-107.47226,,,
729716965.10751,-58.209995,19.64717,145.359806,-0.187653,-0.8564,0.459427,-0.229066,-0.072327,-0.078431,95.394409,72.046982,-107.47226,,,
729716965.110499,-58.281708,19.625864,106.748933,-0.187653,-0.8564,0.459427,-0.229066,-0.072327,-0.078431,95.394409,72.046982,-107.47226,,,
729716965.111311,-58.281685,19.625861,109.825778,-0.187653,-0.8564,0.459427,-0.229066,-0.072327,-0.078431,95.394409,72.046982,-107.47226,,,
729716965.111482,-58.281703,19.625863,145.362135,-0.187653,-0.8564,0.459427,-0.229066,-0.072327,-0.078431,95.394409,72.046982,-107.47226,,,
729716965.114594,-58.35732,19.601141,106.749003,-0.183365,-0.860764,0.468872,-0.252546,-0.082646,-0.095374,95.394409,72.046982,-107.47226,,,
729716965.116019,-58.357296,19.601138,109.825848,-0.183365,-0.860764,0.468872,-0.252546,-0.082646,-0.095374,95.394409,72.046982,-107.47226,,,
729716965.116178,-58.357314,19.60114,145.362202,-0.183365,-0.860764,0.468872,-0.252546,-0.082646,-0.095374,95.394409,72.046982,-107.47226,,,
729716965.116393,-58.35732,19.601141,106.749003,-0.183365,-0.860764,0.468872,-0.252546,-0.082646,-0.095374,95.394409,72.046982,-107.47226,,,
729716965.116914,-58.357296,19.601138,109.825848,-0.183365,-0.860764,0.468872,-0.252546,-0.082646,-0.095374,95.394409,72.046982,-107.47226,,,
729716965.11753,-58.357314,19.60114,145.362202,-0.183365,-0.860764,0.468872,-0.252546,-0.082646,-0.095374,95.394409,72.046982,-107.47226,,,
729716965.120602,-58.437536,19.572442,106.742921,-0.183365,-0.860764,0.468872,-0.252546,-0.082646,-0.095374,95.394409,72.046982,-107.47226,,,
729716965.121412,-58.437512,19.57244,109.819766,-0.183365,-0.860764,0.468872,-0.252546,-0.082646,-0.095374,95.394409,72.046982,-107.47226,,,
729716965.121569,-58.43753,19.572441,145.356119,-0.183365,-0.860764,0.468872,-0.252546,-0.082646,-0.095374,95.394409,72.046982,-107.47226,,,
729716965.124541,-58.522151,19.537674,106.727713,-0.171204,-0.856247,0.488953,-0.271098,-0.070643,-0.136802,95.394409,72.046982,-107.47226,,,
729716965.126081,-58.522127,19.537672,109.804558,-0.171204,-0.856247,0.488953,-0.271098,-0.070643,-0.136802,95.394409,72.046982,-107.47226,,,
729716965.126211,-58.522145,19.537673,145.340911,-0.171204,-0.856247,0.488953,-0.271098,-0.070643,-0.136802,95.394409,72.046982,-107.47226,,,
729716965.126347,-58.522151,19.537674,106.727713,-0.171204,-0.856247,0.488953,-0.271098,-0.070643,-0.136802,95.394409,72.046982,-107.47226,,,
729716965.12686,-58.522127,19.537672,109.804558,-0.171204,-0.856247,0.488953,-0.271098,-0.070643,-0.136802,95.394409,72.046982,-107.47226,,,
729716965.127499,-58.522145,19.537673,145.340911,-0.171204,-0.856247,0.488953,-0.271098,-0.070643,-0.136802,95.394409,72.046982,-107.47226,,,
729716965.130588,-58.610577,19.496592,106.7023,-0.171204,-0.856247,0.488953,-0.271098,-0.070643,-0.136802,95.394409,72.046982,-107.47226,,,
729716965.13139,-58.610553,19.49659,109.779144,-0.171204,-0.856247,0.488953,-0.271098,-0.070643,-0.136802,95.394409,72.046982,-107.47226,,,
729716965.13155,-58.610571,19.496591,145.315496,-0.171204,-0.856247,0.488953,-0.271098,-0.070643,-0.136802,95.394409,72.046982,-107.47226,,,
729716965.134612,-58.702186,19.450534,106.66636,-0.159164,-0.845779,0.488922,-0.280451,-0.042565,-0.179801,95.394409,72.046982,-107.47226,,,
729716965.136159,-58.702162,19.450532,109.743204,-0.159164,-0.845779,0.488922,-0.280451,-0.042565,-0.179801,95.394409,72.046982,-107.47226,,,
729716965.136264,-58.70218,19.450533,145.279557,-0.159164,-0.845779,0.488922,-0.280451,-0.042565,-0.179801,95.394409,72.046982,-107.47226,,,
729716965.136397,-58.702186,19.450534,106.66636,-0.159164,-0.845779,0.488922,-0.280451,-0.042565,-0.179801,95.394409,72.046982,-107.47226,,,
729716965.136849,-58.702162,19.450532,109.743204,-0.159164,-0.845779,0.488922,-0.280451,-0.042565,-0.179801,95.394409,72.046982,-107.47226,,,
729716965.137499,-58.70218,19.450533,145.279557,-0.159164,-0.845779,0.488922,-0.280451,-0.042565,-0.179801,95.394409,72.046982,-107.47226,,,
729716965.140621,-58.796288,19.400302,106.620245,-0.159164,-0.845779,0.488922,-0.280451,-0.042565,-0.179801,95.394409,72.046982,-107.47226,,,
729716965.141447,-58.796264,19.400299,109.697089,-0.159164,-0.845779,0.488922,-0.280451,-0.042565,-0.179801,95.394409,72.046982,-107.47226,,,
729716965.141582,-58.796282,19.400301,145.233443,-0.159164,-0.845779,0.488922,-0.280451,-0.042565,-0.179801,95.394409,72.046982,-107.47226,,,
729716965.144389,-58.888345,19.347467,106.565669,-0.15535,-0.841248,0.494659,-0.258152,-0.009936,-0.203243,95.394409,72.046982,-107.47226,,,
729716965.145864,-58.888321,19.347464,109.642513,-0.15535,-0.841248,0.494659,-0.258152,-0.009936,-0.203243,95.394409,72.046982,-107.47226,,,
729716965.145978,-58.88834,19.347465,145.178864,-0.15535,-0.841248,0.494659,-0.258152,-0.009936,-0.203243,95.394409,72.046982,-107.47226,,,
729716965.146343,-58.888345,19.347467,106.565669,-0.15535,-0.841248,0.494659,-0.258152,-0.009936,-0.203243,95.394409,72.046982,-107.47226,,,
729716965.146858,-58.888321,19.347464,109.642513,-0.15535,-0.841248,0.494659,-0.258152,-0.009936,-0.203243,95.394409,72.046982,-107.47226,,,
729716965.147497,-58.88834,19.347465,145.178864,-0.15535,-0.841248,0.494659,-0.258152,-0.009936,-0.203243,94.904816,72.436783,-106.877365,,,
729716965.151388,-58.973464,19.294826,106.506056,-0.15535,-0.841248,0.494659,-0.258152,-0.009936,-0.203243,94.904816,72.436783,-106.877365,,,
729716965.152463,-58.973439,19.294824,109.5829,-0.15535,-0.841248,0.494659,-0.258152,-0.009936,-0.203243,94.904816,72.436783,-106.877365,,,
729716965.152564,-58.973458,19.294825,145.119252,-0.15535,-0.841248,0.494659,-0.258152,-0.009936,-0.203243,94.904816,72.436783,-106.877365,,,
729716965.15302,-58.973464,19.294826,106.506056,-0.15535,-0.841248,0.494659,-0.258152,-0.009936,-0.203243,94.904816,72.436783,-106.877365,,,
729716965.154818,-59.049146,19.244315,109.52192,-0.164368,-0.844269,0.518372,-0.196,0.013303,-0.185538,94.904816,72.436783,-106.877365,,,
729716965.154954,-59.049164,19.244316,145.058282,-0.164368,-0.844269,0.518372,-0.196,0.013303,-0.185538,94.904816,72.436783,-106.877365,,,
729716965.157754,-59.04917,19.244317,106.445076,-0.164368,-0.844269,0.518372,-0.196,0.013303,-0.185538,94.904816,72.436783,-106.877365,,,
729716965.157934,-59.049146,19.244315,109.52192,-0.164368,-0.844269,0.518372,-0.196,0.013303,-0.185538,94.904816,72.436783,-106.877365,,,
729716965.158013,-59.049164,19.244316,145.058282,-0.164368,-0.844269,0.518372,-0.196,0.013303,-0.185538,94.904816,72.436783,-106.877365,,,
729716965.160696,-59.113845,19.196291,106.3867,-0.164368,-0.844269,0.518372,-0.196,0.013303,-0.185538,94.904816,72.436783,-106.877365,,,
729716965.161501,-59.11382,19.196288,109.463544,-0.164368,-0.844269,0.518372,-0.196,0.013303,-0.185538,94.904816,72.436783,-106.877365,,,
729716965.161643,-59.113839,19.196289,144.999904,-0.164368,-0.844269,0.518372,-0.196,0.013303,-0.185538,94.904816,72.436783,-106.877365,,,
729716965.163233,-59.113845,19.196291,106.3867,-0.164368,-0.844269,0.518372,-0.196,0.013303,-0.185538,94.904816,72.436783,-106.877365,,,
729716965.16544,-59.165622,19.151337,109.41179,-0.176376,-0.856964,0.530258,-0.120186,-0.004651,-0.133269,94.904816,72.436783,-106.877365,,,
729716965.165592,-59.165641,19.151338,144.94815,-0.176376,-0.856964,0.530258,-0.120186,-0.004651,-0.133269,94.904816,72.436783,-106.877365,,,
729716965.167807,-59.165646,19.151339,106.334946,-0.176376,-0.856964,0.530258,-0.120186,-0.004651,-0.133269,94.904816,72.436783,-106.877365,,,
729716965.167983,-59.165622,19.151337,109.41179,-0.176376,-0.856964,0.530258,-0.120186,-0.004651,-0.133269,94.904816,72.436783,-106.877365,,,
729716965.168064,-59.165641,19.151338,144.94815,-0.176376,-0.856964,0.530258,-0.120186,-0.004651,-0.133269,94.904816,72.436783,-106.877365,,,
729716965.170293,-59.202045,19.114162,106.295224,-0.176376,-0.856964,0.530258,-0.120186,-0.004651,-0.133269,94.904816,72.436783,-106.877365,,,
729716965.170843,-59.20202,19.11416,109.372068,-0.176376,-0.856964,0.530258,-0.120186,-0.004651,-0.133269,94.904816,72.436783,-106.877365,,,
729716965.170959,-59.202039,19.114161,144.908429,-0.176376,-0.856964,0.530258,-0.120186,-0.004651,-0.133269,94.904816,72.436783,-106.877365,,,
729716965.174633,-59.228337,19.077524,106.26169,-0.180222,-0.875,0.521378,-0.050592,-0.030201,-0.07215,94.904816,72.436783,-106.877365,,,
729716965.176176,-59.228312,19.077522,109.338534,-0.180222,-0.875,0.521378,-0.050592,-0.030201,-0.07215,94.904816,72.436783,-106.877365,,,
729716965.176331,-59.228331,19.077523,144.874887,-0.180222,-0.875,0.521378,-0.050592,-0.030201,-0.07215,94.904816,72.436783,-106.877365,,,
729716965.176537,-59.228337,19.077524,106.26169,-0.180222,-0.875,0.521378,-0.050592,-0.030201,-0.07215,94.904816,72.436783,-106.877365,,,
729716965.176869,-59.228312,19.077522,109.338534,-0.180222,-0.875,0.521378,-0.050592,-0.030201,-0.07215,94.904816,72.436783,-106.877365,,,
729716965.177507,-59.228331,19.077523,144.874887,-0.180222,-0.875,0.521378,-0.050592,-0.030201,-0.07215,94.904816,72.436783,-106.877365,,,
729716965.180371,-59.245766,19.059734,106.249777,-0.180222,-0.875,0.521378,-0.050592,-0.030201,-0.07215,94.904816,72.436783,-106.877365,,,
729716965.180939,-59.245741,19.059732,109.326622,-0.180222,-0.875,0.521378,-0.050592,-0.030201,-0.07215,94.904816,72.436783,-106.877365,,,
729716965.181046,-59.24576,19.059733,144.862982,-0.180222,-0.875,0.521378,-0.050592,-0.030201,-0.07215,94.904816,72.436783,-106.877365,,,
729716965.184993,-59.250521,19.03468,106.234717,-0.180084,-0.886124,0.516434,0.005661,-0.03712,-0.020552,94.904816,72.436783,-106.877365,,,
729716965.186838,-59.250496,19.034678,109.311561,-0.180084,-0.886124,0.516434,0.005661,-0.03712,-0.020552,94.904816,72.436783,-106.877365,,,
729716965.186954,-59.250515,19.034679,144.847921,-0.180084,-0.886124,0.516434,0.005661,-0.03712,-0.020552,94.904816,72.436783,-106.877365,,,
729716965.187092,-59.250521,19.03468,106.234717,-0.180084,-0.886124,0.516434,0.005661,-0.03712,-0.020552,94.904816,72.436783,-106.877365,,,
729716965.187473,-59.250515,19.034679,144.847921,-0.180084,-0.886124,0.516434,0.005661,-0.03712,-0.020552,94.904816,72.436783,-106.877365,,,
729716965.190382,-59.249793,19.030565,106.237024,-0.180084,-0.886124,0.516434,0.005661,-0.03712,-0.020552,94.74646,72.350555,-106.940094,,,
729716965.19085,-59.249769,19.030563,109.313868,-0.180084,-0.886124,0.516434,0.005661,-0.03712,-0.020552,94.74646,72.350555,-106.940094,,,
729716965.190963,-59.249787,19.030564,144.850229,-0.180084,-0.886124,0.516434,0.005661,-0.03712,-0.020552,94.74646,72.350555,-106.940094,,,
729716965.195397,-59.239925,19.022269,106.232495,-0.173309,-0.888275,0.517303,0.042816,-0.002553,0.006908,94.74646,72.350555,-106.940094,,,
729716965.197117,-59.239901,19.022267,109.309339,-0.173309,-0.888275,0.517303,0.042816,-0.002553,0.006908,94.74646,72.350555,-106.940094,,,
729716965.197235,-59.239919,19.022268,144.845699,-0.173309,-0.888275,0.517303,0.042816,-0.002553,0.006908,94.74646,72.350555,-106.940094,,,
729716965.197376,-59.239925,19.022269,106.232495,-0.173309,-0.888275,0.517303,0.042816,-0.002553,0.006908,94.74646,72.350555,-106.940094,,,
729716965.197485,-59.239919,19.022268,144.845699,-0.173309,-0.888275,0.517303,0.042816,-0.002553,0.006908,94.74646,72.350555,-106.940094,,,
729716965.200133,-59.224443,19.023882,106.233212,-0.173309,-0.888275,0.517303,0.042816,-0.002553,0.006908,94.74646,72.350555,-106.940094,,,
729716965.200438,-59.224418,19.02388,109.310056,-0.173309,-0.888275,0.517303,0.042816,-0.002553,0.006908,94.74646,72.350555,-106.940094,,,
729716965.200826,-59.224437,19.023881,144.84642,-0.173309,-0.888275,0.517303,0.042816,-0.002553,0.006908,94.74646,72.350555,-106.940094,,,
729716965.205356,-59.207204,19.026411,106.232478,-0.160706,-0.879547,0.511902,0.060387,0.018809,0.01854,94.74646,72.350555,-106.940094,,,
729716965.207182,-59.207179,19.026409,109.309322,-0.160706,-0.879547,0.511902,0.060387,0.018809,0.01854,94.74646,72.350555,-106.940094,,,
729716965.207299,-59.207198,19.02641,144.845682,-0.160706,-0.879547,0.511902,0.060387,0.018809,0.01854,94.74646,72.350555,-106.940094,,,
729716965.207438,-59.207204,19.026411,106.232478,-0.160706,-0.879547,0.511902,0.060387,0.018809,0.01854,94.74646,72.350555,-106.940094,,,
729716965.20753,-59.207198,19.02641,144.845682,-0.160706,-0.879547,0.511902,0.060387,0.018809,0.01854,94.74646,72.350555,-106.940094,,,
729716965.210175,-59.185448,19.028092,106.228365,-0.160706,-0.879547,0.511902,0.060387,0.018809,0.01854,94.74646,72.350555,-106.940094,,,
729716965.210487,-59.185424,19.02809,109.305209,-0.160706,-0.879547,0.511902,0.060387,0.018809,0.01854,94.74646,72.350555,-106.940094,,,
729716965.21082,-59.185442,19.028091,144.841571,-0.160706,-0.879547,0.511902,0.060387,0.018809,0.01854,94.74646,72.350555,-106.940094,,,
729716965.213828,-59.185448,19.028092,106.226715,-0.159637,-0.874634,0.505692,0.07652,0.039393,0.022019,94.74646,72.350555,-106.940094,,,
729716965.215123,-59.163527,19.035756,109.30356,-0.159637,-0.874634,0.505692,0.07652,0.039393,0.022019,94.74646,72.350555,-106.940094,,,
729716965.215289,-59.163546,19.035757,144.839919,-0.159637,-0.874634,0.505692,0.07652,0.039393,0.022019,94.74646,72.350555,-106.940094,,,
729716965.216978,-59.163552,19.035758,106.226715,-0.159637,-0.874634,0.505692,0.07652,0.039393,0.022019,94.74646,72.350555,-106.940094,,,
729716965.217187,-59.163527,19.035756,109.30356,-0.159637,-0.874634,0.505692,0.07652,0.039393,0.022019,94.74646,72.350555,-106.940094,,,
729716965.217492,-59.163546,19.035757,144.839919,-0.159637,-0.874634,0.505692,0.07652,0.039393,0.022019,94.74646,72.350555,-106.940094,,,
729716965.220377,-59.137524,19.040341,106.219693,-0.159637,-0.874634,0.505692,0.07652,0.039393,0.022019,94.74646,72.350555,-106.940094,,,
729716965.220825,-59.137499,19.040338,109.296537,-0.159637,-0.874634,0.505692,0.07652,0.039393,0.022019,94.74646,72.350555,-106.940094,,,
729716965.220976,-59.137518,19.040339,144.832894,-0.159637,-0.874634,0.505692,0.07652,0.039393,0.022019,94.74646,72.350555,-106.940094,,,
729716965.223345,-59.137524,19.040341,106.219693,-0.159637,-0.874634,0.505692,0.07652,0.039393,0.022019,94.74646,72.350555,-106.940094,,,
729716965.224595,-59.114108,19.057545,109.296386,-0.166397,-0.878891,0.507202,0.078173,0.073623,0.026286,94.74646,72.350555,-106.940094,,,
729716965.224775,-59.114127,19.057546,144.832744,-0.166397,-0.878891,0.507202,0.078173,0.073623,0.026286,94.74646,72.350555,-106.940094,,,
729716965.227667,-59.114133,19.057547,106.219542,-0.166397,-0.878891,0.507202,0.078173,0.073623,0.026286,94.74646,72.350555,-106.940094,,,
729716965.227911,-59.114108,19.057545,109.296386,-0.166397,-0.878891,0.507202,0.078173,0.073623,0.026286,94.74646,72.350555,-106.940094,,,
729716965.228028,-59.114127,19.057546,144.832744,-0.166397,-0.878891,0.507202,0.078173,0.073623,0.026286,94.74646,72.350555,-106.940094,,,
729716965.230929,-59.083746,19.073125,106.214611,-0.166397,-0.878891,0.507202,0.078173,0.073623,0.026286,94.860687,72.315353,-106.864517,,,
729716965.232179,-59.083721,19.073122,109.291455,-0.166397,-0.878891,0.507202,0.078173,0.073623,0.026286,94.860687,72.315353,-106.864517,,,
729716965.232328,-59.08374,19.073123,144.827808,-0.166397,-0.878891,0.507202,0.078173,0.073623,0.026286,94.860687,72.315353,-106.864517,,,
729716965.233121,-59.083746,19.073125,106.214611,-0.166397,-0.878891,0.507202,0.078173,0.073623,0.026286,94.860687,72.315353,-106.864517,,,
729716965.234472,-59.059315,19.097253,109.293378,-0.16687,-0.874588,0.504379,0.077802,0.079452,0.02973,94.860687,72.315353,-106.864517,,,
729716965.23464,-59.059334,19.097254,144.829735,-0.16687,-0.874588,0.504379,0.077802,0.079452,0.02973,94.860687,72.315353,-106.864517,,,
729716965.237633,-59.05934,19.097255,106.216534,-0.16687,-0.874588,0.504379,0.077802,0.079452,0.02973,94.860687,72.315353,-106.864517,,,
729716965.237857,-59.059315,19.097253,109.293378,-0.16687,-0.874588,0.504379,0.077802,0.079452,0.02973,94.860687,72.315353,-106.864517,,,
729716965.23798,-59.059334,19.097254,144.829735,-0.16687,-0.874588,0.504379,0.077802,0.079452,0.02973,94.860687,72.315353,-106.864517,,,
729716965.240354,-59.029321,19.116623,106.217733,-0.16687,-0.874588,0.504379,0.077802,0.079452,0.02973,94.860687,72.315353,-106.864517,,,
729716965.241008,-59.029296,19.116621,109.294577,-0.16687,-0.874588,0.504379,0.077802,0.079452,0.02973,94.860687,72.315353,-106.864517,,,
729716965.241161,-59.029315,19.116622,144.830935,-0.16687,-0.874588,0.504379,0.077802,0.079452,0.02973,94.860687,72.315353,-106.864517,,,
729716965.243775,-59.029321,19.116623,106.217733,-0.16687,-0.874588,0.504379,0.05479,0.03631,0.034178,94.860687,72.315353,-106.864517,,,
729716965.245292,-59.009814,19.136124,109.30207,-0.169754,-0.875732,0.483795,0.05479,0.03631,0.034178,94.860687,72.315353,-106.864517,,,
729716965.245501,-59.009833,19.136125,144.838425,-0.169754,-0.875732,0.483795,0.05479,0.03631,0.034178,94.860687,72.315353,-106.864517,,,
729716965.247433,-59.009839,19.136126,106.225226,-0.169754,-0.875732,0.483795,0.05479,0.03631,0.034178,94.860687,72.315353,-106.864517,,,
729716965.247666,-59.009814,19.136124,109.30207,-0.169754,-0.875732,0.483795,0.05479,0.03631,0.034178,94.860687,72.315353,-106.864517,,,
729716965.247794,-59.009833,19.136125,144.838425,-0.169754,-0.875732,0.483795,0.05479,0.03631,0.034178,94.860687,72.315353,-106.864517,,,
729716965.25052,-58.989533,19.151483,106.236433,-0.169754,-0.875732,0.483795,0.05479,0.03631,0.034178,94.860687,72.315353,-106.864517,,,
729716965.251515,-58.989509,19.15148,109.313278,-0.169754,-0.875732,0.483795,0.05479,0.03631,0.034178,94.860687,72.315353,-106.864517,,,
729716965.251736,-58.989528,19.151481,144.849635,-0.169754,-0.875732,0.483795,0.05479,0.03631,0.034178,94.860687,72.315353,-106.864517,,,
729716965.253242,-58.989533,19.151483,106.236433,-0.169754,-0.875732,0.483795,0.05479,0.03631,0.034178,94.860687,72.315353,-106.864517,,,
729716965.254981,-58.97791,19.166797,109.330321,-0.179718,-0.877457,0.466202,0.018491,0.000164,0.041869,94.860687,72.315353,-106.864517,,,
729716965.255166,-58.977929,19.166798,144.866676,-0.179718,-0.877457,0.466202,0.018491,0.000164,0.041869,94.860687,72.315353,-106.864517,,,
729716965.257868,-58.977934,19.166799,106.253477,-0.179718,-0.877457,0.466202,0.018491,0.000164,0.041869,94.860687,72.315353,-106.864517,,,
729716965.258108,-58.97791,19.166797,109.330321,-0.179718,-0.877457,0.466202,0.018491,0.000164,0.041869,94.860687,72.315353,-106.864517,,,
729716965.258227,-58.977929,19.166798,144.866676,-0.179718,-0.877457,0.466202,0.018491,0.000164,0.041869,94.860687,72.315353,-106.864517,,,
729716965.260478,-58.968972,19.183503,106.27436,-0.179718,-0.877457,0.466202,0.018491,0.000164,0.041869,94.860687,72.315353,-106.864517,,,
729716965.261361,-58.968948,19.183501,109.351204,-0.179718,-0.877457,0.466202,0.018491,0.000164,0.041869,94.860687,72.315353,-106.864517,,,
729716965.261519,-58.968967,19.183502,144.887557,-0.179718,-0.877457,0.466202,0.018491,0.000164,0.041869,94.860687,72.315353,-106.864517,,,
729716965.263343,-58.968972,19.183503,106.27436,-0.179718,-0.877457,0.466202,0.018491,0.000164,0.041869,94.860687,72.315353,-106.864517,,,
729716965.266268,-58.96611,19.200639,109.373174,-0.183701,-0.875351,0.472046,-0.009283,-0.003404,0.03617,94.860687,72.315353,-106.864517,,,
729716965.266535,-58.966128,19.20064,144.909525,-0.183701,-0.875351,0.472046,-0.009283,-0.003404,0.03617,94.860687,72.315353,-106.864517,,,
729716965.268572,-58.966134,19.200642,106.29633,-0.183701,-0.875351,0.472046,-0.009283,-0.003404,0.03617,94.860687,72.315353,-106.864517,,,
729716965.269246,-58.965764,19.216661,109.394205,-0.183701,-0.875351,0.472046,-0.009283,-0.003404,0.03617,94.860687,72.315353,-106.864517,,,
729716965.269384,-58.965782,19.216662,144.930556,-0.183701,-0.875351,0.472046,-0.009283,-0.003404,0.03617,94.860687,72.315353,-106.864517,,,
729716965.270637,-58.965788,19.216664,106.317361,-0.183701,-0.875351,0.472046,-0.009283,-0.003404,0.03617,94.67778,72.29567,-106.993103,,,
729716965.271327,-58.965764,19.216661,109.394205,-0.183701,-0.875351,0.472046,-0.009283,-0.003404,0.03617,94.67778,72.29567,-106.993103,,,
729716965.271482,-58.965782,19.216662,144.930556,-0.183701,-0.875351,0.472046,-0.009283,-0.003404,0.03617,94.67778,72.29567,-106.993103,,,
729716965.273269,-58.965788,19.216664,106.317361,-0.183701,-0.875351,0.472046,-0.009283,-0.003404,0.03617,94.67778,72.29567,-106.993103,,,
729716965.274442,-58.9692,19.233144,109.41551,-0.180557,-0.864883,0.472504,-0.025489,-0.003229,0.029123,94.67778,72.29567,-106.993103,,,
729716965.274615,-58.969218,19.233145,144.951861,-0.180557,-0.864883,0.472504,-0.025489,-0.003229,0.029123,94.67778,72.29567,-106.993103,,,
729716965.27762,-58.969224,19.233146,106.338666,-0.180557,-0.864883,0.472504,-0.025489,-0.003229,0.029123,94.67778,72.29567,-106.993103,,,
729716965.277861,-58.9692,19.233144,109.41551,-0.180557,-0.864883,0.472504,-0.025489,-0.003229,0.029123,94.67778,72.29567,-106.993103,,,
729716965.27799,-58.969218,19.233145,144.951861,-0.180557,-0.864883,0.472504,-0.025489,-0.003229,0.029123,94.67778,72.29567,-106.993103,,,
729716965.280301,-58.973035,19.244642,106.354521,-0.180557,-0.864883,0.472504,-0.025489,-0.003229,0.029123,94.67778,72.29567,-106.993103,,,
729716965.280901,-58.97301,19.244639,109.431365,-0.180557,-0.864883,0.472504,-0.025489,-0.003229,0.029123,94.67778,72.29567,-106.993103,,,
729716965.281052,-58.973029,19.24464,144.967718,-0.180557,-0.864883,0.472504,-0.025489,-0.003229,0.029123,94.67778,72.29567,-106.993103,,,
729716965.283321,-58.973035,19.244642,106.354521,-0.180557,-0.864883,0.472504,-0.025489,-0.003229,0.029123,94.67778,72.29567,-106.993103,,,
729716965.285412,-58.978774,19.260014,109.448535,-0.179367,-0.853943,0.47998,-0.028115,0.007913,0.019034,94.67778,72.29567,-106.993103,,,
729716965.28561,-58.978793,19.260015,144.984889,-0.179367,-0.853943,0.47998,-0.028115,0.007913,0.019034,94.67778,72.29567,-106.993103,,,
729716965.288309,-58.978798,19.260016,106.371691,-0.179367,-0.853943,0.47998,-0.028115,0.007913,0.019034,94.67778,72.29567,-106.993103,,,
729716965.288973,-58.984362,19.269921,109.459363,-0.179367,-0.853943,0.47998,-0.028115,0.007913,0.019034,94.67778,72.29567,-106.993103,,,
729716965.28911,-58.98438,19.269922,144.995717,-0.179367,-0.853943,0.47998,-0.028115,0.007913,0.019034,94.67778,72.29567,-106.993103,,,
729716965.290145,-58.984386,19.269923,106.382519,-0.179367,-0.853943,0.47998,-0.028115,0.007913,0.019034,94.67778,72.29567,-106.993103,,,
729716965.290355,-58.984362,19.269921,109.459363,-0.179367,-0.853943,0.47998,-0.028115,0.007913,0.019034,94.67778,72.29567,-106.993103,,,
729716965.290847,-58.98438,19.269922,144.995717,-0.179367,-0.853943,0.47998,-0.028115,0.007913,0.019034,94.67778,72.29567,-106.993103,,,
729716965.293655,-58.984386,19.269923,106.382519,-0.176453,-0.847092,0.48822,-0.03162,0.012347,0.01738,94.67778,72.29567,-106.993103,,,
729716965.294635,-58.990989,19.285485,109.474461,-0.176453,-0.847092,0.48822,-0.03162,0.012347,0.01738,94.67778,72.29567,-106.993103,,,
729716965.294797,-58.991008,19.285486,145.010816,-0.176453,-0.847092,0.48822,-0.03162,0.012347,0.01738,94.67778,72.29567,-106.993103,,,
729716965.297214,-58.991013,19.285487,106.397617,-0.176453,-0.847092,0.48822,-0.03162,0.012347,0.01738,94.67778,72.29567,-106.993103,,,
729716965.297436,-58.990989,19.285485,109.474461,-0.176453,-0.847092,0.48822,-0.03162,0.012347,0.01738,94.67778,72.29567,-106.993103,,,
729716965.29758,-58.991008,19.285486,145.010816,-0.176453,-0.847092,0.48822,-0.03162,0.012347,0.01738,94.67778,72.29567,-106.993103,,,
729716965.300612,-58.996744,19.298758,106.411474,-0.176453,-0.847092,0.48822,-0.03162,0.012347,0.01738,94.67778,72.29567,-106.993103,,,
729716965.301423,-58.99672,19.298756,109.488319,-0.176453,-0.847092,0.48822,-0.03162,0.012347,0.01738,94.67778,72.29567,-106.993103,,,
729716965.30156,-58.996738,19.298757,145.024675,-0.176453,-0.847092,0.48822,-0.03162,0.012347,0.01738,94.67778,72.29567,-106.993103,,,
729716965.303228,-58.996744,19.298758,106.411474,-0.176453,-0.847092,0.48822,-0.03162,0.012347,0.01738,94.67778,72.29567,-106.993103,,,
729716965.304773,-59.002375,19.315447,109.506961,-0.172974,-0.843887,0.482315,-0.030303,0.002038,0.026231,94.67778,72.29567,-106.993103,,,
