Time (sec),Pitch (deg),Roll (deg),Yaw(deg),X-Acceleration (g),Y-Acceleration (g),Z-Acceleration (g),Pitch Rate (deg/sec),Roll Rate (deg/sec),Yaw Rate (deg/sec),Magnetic Field in X direction (uT),Magnetic Field in Y direction (uT),Magnetic Field in Z Direction (uT),Latitude (deg),Longitude (deg),Altitude (m)
729716896.064558,-2.794145,4.775939,102.403313,-0.080551,-0.047211,0.988205,0.026917,-0.001722,-0.017558,92.311844,38.741669,-147.03479,,,
729716896.064719,-2.794145,4.775937,137.939668,-0.080551,-0.047211,0.988205,0.026917,-0.001722,-0.017558,92.311844,38.741669,-147.03479,,,
729716896.067266,-2.794146,4.775936,99.326462,-0.080551,-0.047211,0.988205,0.026917,-0.001722,-0.017558,92.311844,38.741669,-147.03479,,,
729716896.067517,-2.788771,4.775106,102.398726,-0.080551,-0.047211,0.988205,0.026917,-0.001722,-0.017558,92.311844,38.741669,-147.03479,,,
729716896.067974,-2.78877,4.775104,137.93508,-0.082825,-0.050415,0.987442,0.017602,0.002156,-0.017329,92.311844,38.741669,-147.03479,,,
729716896.071533,-2.788772,4.775104,99.321875,-0.082825,-0.050415,0.987442,0.017602,0.002156,-0.017329,92.311844,38.741669,-147.03479,,,
729716896.072412,-2.788771,4.775106,102.398726,-0.082825,-0.050415,0.987442,0.017602,0.002156,-0.017329,92.311844,38.741669,-147.03479,,,
729716896.072526,-2.784765,4.774637,137.930659,-0.082825,-0.050415,0.987442,0.017602,0.002156,-0.017329,92.311844,38.741669,-147.03479,,,
729716896.073914,-2.784767,4.774637,99.317453,-0.082825,-0.050415,0.987442,0.017602,0.002156,-0.017329,92.311844,38.741669,-147.03479,,,
729716896.074487,-2.784766,4.774639,102.394304,-0.082825,-0.050415,0.987442,0.017602,0.002156,-0.017329,92.311844,38.741669,-147.03479,,,
729716896.074616,-2.784765,4.774637,137.930659,-0.082825,-0.050415,0.987442,0.017602,0.002156,-0.017329,92.311844,38.741669,-147.03479,,,
729716896.077053,-2.784767,4.774637,99.317453,-0.082825,-0.050415,0.987442,0.017602,0.002156,-0.017329,92.311844,38.741669,-147.03479,,,
729716896.077316,-2.784766,4.774639,102.394304,-0.082825,-0.050415,0.987442,0.017602,0.002156,-0.017329,92.311844,38.741669,-147.03479,,,
729716896.077957,-2.78124,4.774966,137.926881,-0.086426,-0.050629,0.987717,0.011265,0.007723,-0.013359,92.311844,38.741669,-147.03479,,,
729716896.080763,-2.781241,4.774966,99.313676,-0.086426,-0.050629,0.987717,0.011265,0.007723,-0.013359,92.311844,38.741669,-147.03479,,,
729716896.081205,-2.78124,4.774968,102.390527,-0.086426,-0.050629,0.987717,0.011265,0.007723,-0.013359,92.311844,38.741669,-147.03479,,,
729716896.081301,-2.78124,4.774966,137.926881,-0.086426,-0.050629,0.987717,0.011265,0.007723,-0.013359,92.311844,38.741669,-147.03479,,,
729716896.084105,-2.778977,4.777072,99.310233,-0.086426,-0.050629,0.987717,0.011265,0.007723,-0.013359,92.470062,38.85083,-146.978668,,,
729716896.084659,-2.778976,4.777074,102.387083,-0.086426,-0.050629,0.987717,0.011265,0.007723,-0.013359,92.470062,38.85083,-146.978668,,,
729716896.084835,-2.778975,4.777072,137.923438,-0.086426,-0.050629,0.987717,0.011265,0.007723,-0.013359,92.470062,38.85083,-146.978668,,,
729716896.087009,-2.778977,4.777072,99.310233,-0.086426,-0.050629,0.987717,0.011265,0.007723,-0.013359,92.470062,38.85083,-146.978668,,,
729716896.08731,-2.778976,4.777074,102.387083,-0.086426,-0.050629,0.987717,0.011265,0.007723,-0.013359,92.470062,38.85083,-146.978668,,,
729716896.087994,-2.776487,4.77932,137.920562,-0.085709,-0.052094,0.99295,0.010562,0.013597,-0.009215,92.470062,38.85083,-146.978668,,,
729716896.090404,-2.776489,4.77932,99.307357,-0.085709,-0.052094,0.99295,0.010562,0.013597,-0.009215,92.470062,38.85083,-146.978668,,,
729716896.090738,-2.776488,4.779322,102.384207,-0.085709,-0.052094,0.99295,0.010562,0.013597,-0.009215,92.470062,38.85083,-146.978668,,,
729716896.091272,-2.776487,4.77932,137.920562,-0.085709,-0.052094,0.99295,0.010562,0.013597,-0.009215,92.470062,38.85083,-146.978668,,,
729716896.093659,-2.775414,4.783653,99.30507,-0.085709,-0.052094,0.99295,0.010562,0.013597,-0.009215,92.470062,38.85083,-146.978668,,,
729716896.093914,-2.775413,4.783655,102.381921,-0.085709,-0.052094,0.99295,0.010562,0.013597,-0.009215,92.470062,38.85083,-146.978668,,,
729716896.094687,-2.775412,4.783653,137.918277,-0.085709,-0.052094,0.99295,0.010562,0.013597,-0.009215,92.470062,38.85083,-146.978668,,,
729716896.097145,-2.775414,4.783653,99.30507,-0.085709,-0.052094,0.99295,0.010562,0.013597,-0.009215,92.470062,38.85083,-146.978668,,,
729716896.097565,-2.775413,4.783655,102.381921,-0.085709,-0.052094,0.99295,0.010562,0.013597,-0.009215,92.470062,38.85083,-146.978668,,,
729716896.09802,-2.773733,4.787539,137.917049,-0.089325,-0.054672,0.99617,0.005277,0.017454,-0.001956,92.470062,38.85083,-146.978668,,,
729716896.102161,-2.773734,4.787539,99.303842,-0.089325,-0.054672,0.99617,0.005277,0.017454,-0.001956,92.470062,38.85083,-146.978668,,,
729716896.103729,-2.774308,4.792827,102.380479,-0.089325,-0.054672,0.99617,0.005277,0.017454,-0.001956,92.470062,38.85083,-146.978668,,,
729716896.103935,-2.774307,4.792825,137.916832,-0.089325,-0.054672,0.99617,0.005277,0.017454,-0.001956,92.470062,38.85083,-146.978668,,,
729716896.104207,-2.774309,4.792825,99.303628,-0.089325,-0.054672,0.99617,0.005277,0.017454,-0.001956,92.470062,38.85083,-146.978668,,,
729716896.104701,-2.774307,4.792825,137.916832,-0.089325,-0.054672,0.99617,0.005277,0.017454,-0.001956,92.470062,38.85083,-146.978668,,,
729716896.10714,-2.774309,4.792825,99.303628,-0.089325,-0.054672,0.99617,0.005277,0.017454,-0.001956,92.470062,38.85083,-146.978668,,,
729716896.107451,-2.774308,4.792827,102.380479,-0.089325,-0.054672,0.99617,0.005277,0.017454,-0.001956,92.470062,38.85083,-146.978668,,,
729716896.108018,-2.774864,4.796557,137.915962,-0.089294,-0.054825,0.997177,-0.00462,0.0154,-0.006877,92.470062,38.85083,-146.978668,,,
729716896.11237,-2.774866,4.796556,99.302758,-0.089294,-0.054825,0.997177,-0.00462,0.0154,-0.006877,92.470062,38.85083,-146.978668,,,
729716896.114605,-2.777833,4.800019,102.378142,-0.089294,-0.054825,0.997177,-0.00462,0.0154,-0.006877,92.470062,38.85083,-146.978668,,,
729716896.114826,-2.777833,4.800017,137.914493,-0.089294,-0.054825,0.997177,-0.00462,0.0154,-0.006877,92.470062,38.85083,-146.978668,,,
729716896.115444,-2.777834,4.800016,99.301291,-0.089294,-0.054825,0.997177,-0.00462,0.0154,-0.006877,92.470062,38.85083,-146.978668,,,
729716896.117129,-2.777834,4.800016,99.301291,-0.089294,-0.054825,0.997177,-0.00462,0.0154,-0.006877,92.470062,38.85083,-146.978668,,,
729716896.117489,-2.777833,4.800019,102.378142,-0.089294,-0.054825,0.997177,-0.00462,0.0154,-0.006877,92.470062,38.85083,-146.978668,,,
729716896.118039,-2.780582,4.801162,137.91262,-0.088043,-0.055679,0.994705,-0.00938,0.005785,-0.009776,92.470062,38.85083,-146.978668,,,
729716896.121455,-2.780584,4.801162,99.299418,-0.088043,-0.055679,0.994705,-0.00938,0.005785,-0.009776,92.470062,38.85083,-146.978668,,,
729716896.122609,-2.780583,4.801164,102.376269,-0.088043,-0.055679,0.994705,-0.00938,0.005785,-0.009776,92.470062,38.85083,-146.978668,,,
729716896.122849,-2.784468,4.801641,137.909484,-0.088043,-0.055679,0.994705,-0.00938,0.005785,-0.009776,92.470062,38.85083,-146.978668,,,
729716896.124161,-2.78447,4.801641,99.296279,-0.088043,-0.055679,0.994705,-0.00938,0.005785,-0.009776,92.565826,38.667313,-147.111435,,,
729716896.125079,-2.784469,4.801643,102.373129,-0.088043,-0.055679,0.994705,-0.00938,0.005785,-0.009776,92.565826,38.667313,-147.111435,,,
729716896.125256,-2.784468,4.801641,137.909484,-0.088043,-0.055679,0.994705,-0.00938,0.005785,-0.009776,92.565826,38.667313,-147.111435,,,
729716896.127032,-2.78447,4.801641,99.296279,-0.088043,-0.055679,0.994705,-0.00938,0.005785,-0.009776,92.565826,38.667313,-147.111435,,,
729716896.127404,-2.784469,4.801643,102.373129,-0.088043,-0.055679,0.994705,-0.00938,0.005785,-0.009776,92.565826,38.667313,-147.111435,,,
729716896.12799,-2.789446,4.799522,137.905319,-0.089905,-0.055969,0.99472,-0.016349,-0.008758,-0.017454,92.565826,38.667313,-147.111435,,,
729716896.132115,-2.789448,4.799522,99.292113,-0.089905,-0.055969,0.99472,-0.016349,-0.008758,-0.017454,92.565826,38.667313,-147.111435,,,
729716896.133763,-2.789447,4.799524,102.368964,-0.089905,-0.055969,0.99472,-0.016349,-0.008758,-0.017454,92.565826,38.667313,-147.111435,,,
729716896.133929,-2.794134,4.794997,137.900275,-0.089905,-0.055969,0.99472,-0.016349,-0.008758,-0.017454,92.565826,38.667313,-147.111435,,,
729716896.134424,-2.794136,4.794997,99.287068,-0.089905,-0.055969,0.99472,-0.016349,-0.008758,-0.017454,92.565826,38.667313,-147.111435,,,
729716896.134702,-2.794134,4.794997,137.900275,-0.089905,-0.055969,0.99472,-0.016349,-0.008758,-0.017454,92.565826,38.667313,-147.111435,,,
729716896.137104,-2.794136,4.794997,99.287068,-0.089905,-0.055969,0.99472,-0.016349,-0.008758,-0.017454,92.565826,38.667313,-147.111435,,,
729716896.138153,-2.794135,4.795,102.363919,-0.085876,-0.057037,0.994431,-0.008136,-0.021068,-0.021849,92.565826,38.667313,-147.111435,,,
729716896.138326,-2.797922,4.788966,137.894517,-0.085876,-0.057037,0.994431,-0.008136,-0.021068,-0.021849,92.565826,38.667313,-147.111435,,,
729716896.141113,-2.797923,4.788966,99.28131,-0.085876,-0.057037,0.994431,-0.008136,-0.021068,-0.021849,92.565826,38.667313,-147.111435,,,
729716896.141582,-2.797922,4.788969,102.358161,-0.085876,-0.057037,0.994431,-0.008136,-0.021068,-0.021849,92.565826,38.667313,-147.111435,,,
729716896.141711,-2.797922,4.788966,137.894517,-0.085876,-0.057037,0.994431,-0.008136,-0.021068,-0.021849,92.565826,38.667313,-147.111435,,,
729716896.143963,-2.800589,4.780477,99.275705,-0.085876,-0.057037,0.994431,-0.008136,-0.021068,-0.021849,92.565826,38.667313,-147.111435,,,
729716896.144555,-2.800589,4.78048,102.352556,-0.085876,-0.057037,0.994431,-0.008136,-0.021068,-0.021849,92.565826,38.667313,-147.111435,,,
729716896.144706,-2.800588,4.780477,137.888909,-0.085876,-0.057037,0.994431,-0.008136,-0.021068,-0.021849,92.565826,38.667313,-147.111435,,,
729716896.147094,-2.800589,4.780477,99.275705,-0.085876,-0.057037,0.994431,-0.008136,-0.021068,-0.021849,92.565826,38.667313,-147.111435,,,
729716896.147335,-2.800589,4.78048,102.352556,-0.085876,-0.057037,0.994431,-0.008136,-0.021068,-0.021849,92.565826,38.667313,-147.111435,,,
729716896.147997,-2.801253,4.771114,137.88321,-0.082687,-0.062729,0.997421,0.004645,-0.027635,-0.021407,92.565826,38.667313,-147.111435,,,
729716896.152263,-2.801255,4.771114,99.270007,-0.082687,-0.062729,0.997421,0.004645,-0.027635,-0.021407,92.565826,38.667313,-147.111435,,,
729716896.154491,-2.800182,4.762453,102.341653,-0.082687,-0.062729,0.997421,0.004645,-0.027635,-0.021407,92.565826,38.667313,-147.111435,,,
729716896.154677,-2.800181,4.762451,137.878006,-0.082687,-0.062729,0.997421,0.004645,-0.027635,-0.021407,92.565826,38.667313,-147.111435,,,
729716896.155313,-2.800183,4.762451,99.264803,-0.082687,-0.062729,0.997421,0.004645,-0.027635,-0.021407,92.565826,38.667313,-147.111435,,,
729716896.157054,-2.800183,4.762451,99.264803,-0.082687,-0.062729,0.997421,0.004645,-0.027635,-0.021407,92.565826,38.667313,-147.111435,,,
729716896.157393,-2.800182,4.762453,102.341653,-0.082687,-0.062729,0.997421,0.004645,-0.027635,-0.021407,92.565826,38.667313,-147.111435,,,
729716896.157996,-2.797938,4.752423,137.873469,-0.080551,-0.062531,1.000763,0.009529,-0.032728,-0.016091,92.565826,38.667313,-147.111435,,,
729716896.160893,-2.79794,4.752422,99.260267,-0.080551,-0.062531,1.000763,0.009529,-0.032728,-0.016091,92.565826,38.667313,-147.111435,,,
729716896.161529,-2.797939,4.752425,102.337118,-0.080551,-0.062531,1.000763,0.009529,-0.032728,-0.016091,92.565826,38.667313,-147.111435,,,
729716896.161684,-2.797938,4.752423,137.873469,-0.080551,-0.062531,1.000763,0.009529,-0.032728,-0.016091,92.565826,38.667313,-147.111435,,,
729716896.163968,-2.795367,4.742849,99.256205,-0.080551,-0.062531,1.000763,0.009529,-0.032728,-0.016091,92.565826,38.667313,-147.111435,,,
729716896.165052,-2.795366,4.742851,102.333055,-0.080551,-0.062531,1.000763,0.009529,-0.032728,-0.016091,92.436264,38.75589,-146.975739,,,
729716896.165227,-2.795366,4.742849,137.869407,-0.080551,-0.062531,1.000763,0.009529,-0.032728,-0.016091,92.436264,38.75589,-146.975739,,,
729716896.167706,-2.795367,4.742849,99.256205,-0.080551,-0.062531,1.000763,0.009529,-0.032728,-0.016091,92.436264,38.75589,-146.975739,,,
729716896.168874,-2.791245,4.734077,102.328986,-0.074997,-0.05751,1.001831,0.01733,-0.023502,-0.015337,92.436264,38.75589,-146.975739,,,
729716896.169046,-2.791245,4.734074,137.865338,-0.074997,-0.05751,1.001831,0.01733,-0.023502,-0.015337,92.436264,38.75589,-146.975739,,,
729716896.17141,-2.791246,4.734074,99.252135,-0.074997,-0.05751,1.001831,0.01733,-0.023502,-0.015337,92.436264,38.75589,-146.975739,,,
729716896.171649,-2.791245,4.734077,102.328986,-0.074997,-0.05751,1.001831,0.01733,-0.023502,-0.015337,92.436264,38.75589,-146.975739,,,
729716896.171764,-2.791245,4.734074,137.865338,-0.074997,-0.05751,1.001831,0.01733,-0.023502,-0.015337,92.436264,38.75589,-146.975739,,,
729716896.173691,-2.78865,4.72778,99.247613,-0.074997,-0.05751,1.001831,0.01733,-0.023502,-0.015337,92.436264,38.75589,-146.975739,,,
729716896.174192,-2.788649,4.727782,102.324464,-0.074997,-0.05751,1.001831,0.01733,-0.023502,-0.015337,92.436264,38.75589,-146.975739,,,
729716896.174657,-2.788649,4.72778,137.860818,-0.074997,-0.05751,1.001831,0.01733,-0.023502,-0.015337,92.436264,38.75589,-146.975739,,,
729716896.177097,-2.78865,4.72778,99.247613,-0.074997,-0.05751,1.001831,0.01733,-0.023502,-0.015337,92.436264,38.75589,-146.975739,,,
729716896.177317,-2.788649,4.727782,102.324464,-0.074997,-0.05751,1.001831,0.01733,-0.023502,-0.015337,92.436264,38.75589,-146.975739,,,
729716896.177995,-2.786965,4.722642,137.855932,-0.069916,-0.050934,1.001816,0.004764,-0.008939,-0.018703,92.436264,38.75589,-146.975739,,,
729716896.181294,-2.786967,4.722642,99.242727,-0.069916,-0.050934,1.001816,0.004764,-0.008939,-0.018703,92.436264,38.75589,-146.975739,,,
729716896.182209,-2.786966,4.722645,102.319578,-0.069916,-0.050934,1.001816,0.004764,-0.008939,-0.018703,92.436264,38.75589,-146.975739,,,
729716896.18236,-2.786965,4.722642,137.855932,-0.069916,-0.050934,1.001816,0.004764,-0.008939,-0.018703,92.436264,38.75589,-146.975739,,,
729716896.183675,-2.788398,4.721069,99.237103,-0.069916,-0.050934,1.001816,0.004764,-0.008939,-0.018703,92.436264,38.75589,-146.975739,,,
729716896.184191,-2.788397,4.721072,102.313954,-0.069916,-0.050934,1.001816,0.004764,-0.008939,-0.018703,92.436264,38.75589,-146.975739,,,
729716896.184655,-2.788396,4.72107,137.850306,-0.069916,-0.050934,1.001816,0.004764,-0.008939,-0.018703,92.436264,38.75589,-146.975739,,,
729716896.187129,-2.788398,4.721069,99.237103,-0.069916,-0.050934,1.001816,0.004764,-0.008939,-0.018703,92.436264,38.75589,-146.975739,,,
729716896.187457,-2.788397,4.721072,102.313954,-0.069916,-0.050934,1.001816,0.004764,-0.008939,-0.018703,92.436264,38.75589,-146.975739,,,
729716896.18802,-2.791665,4.720116,137.844142,-0.067596,-0.048019,0.996475,-0.013888,0.004063,-0.023557,92.436264,38.75589,-146.975739,,,
729716896.193121,-2.791667,4.720116,99.230938,-0.067596,-0.048019,0.996475,-0.013888,0.004063,-0.023557,92.436264,38.75589,-146.975739,,,
729716896.196067,-2.799021,4.722697,102.301267,-0.067596,-0.048019,0.996475,-0.013888,0.004063,-0.023557,92.436264,38.75589,-146.975739,,,
729716896.19631,-2.79902,4.722695,137.83762,-0.067596,-0.048019,0.996475,-0.013888,0.004063,-0.023557,92.436264,38.75589,-146.975739,,,
729716896.196942,-2.799022,4.722695,99.224417,-0.067596,-0.048019,0.996475,-0.013888,0.004063,-0.023557,92.436264,38.75589,-146.975739,,,
729716896.197464,-2.799021,4.722697,102.301267,-0.067596,-0.048019,0.996475,-0.013888,0.004063,-0.023557,92.436264,38.75589,-146.975739,,,
729716896.197978,-2.808377,4.726659,137.829847,-0.066299,-0.045563,0.996078,-0.034363,0.020279,-0.033686,92.436264,38.75589,-146.975739,,,
729716896.201803,-2.808379,4.726659,99.216645,-0.066299,-0.045563,0.996078,-0.034363,0.020279,-0.033686,92.436264,38.75589,-146.975739,,,
729716896.203195,-2.808378,4.726662,102.293495,-0.066299,-0.045563,0.996078,-0.034363,0.020279,-0.033686,92.436264,38.75589,-146.975739,,,
729716896.203352,-2.820835,4.732582,137.821187,-0.066299,-0.045563,0.996078,-0.034363,0.020279,-0.033686,92.436264,38.75589,-146.975739,,,
729716896.203927,-2.820837,4.732582,99.207985,-0.066299,-0.045563,0.996078,-0.034363,0.020279,-0.033686,92.436264,38.75589,-146.975739,,,
729716896.20452,-2.820836,4.732584,102.284836,-0.066299,-0.045563,0.996078,-0.034363,0.020279,-0.033686,92.436264,38.75589,-146.975739,,,
729716896.204694,-2.820835,4.732582,137.821187,-0.066299,-0.045563,0.996078,-0.034363,0.020279,-0.033686,92.436264,38.75589,-146.975739,,,
729716896.207645,-2.820837,4.732582,99.207985,-0.066299,-0.045563,0.996078,-0.034363,0.020279,-0.033686,92.1008,38.889145,-146.888214,,,
729716896.209327,-2.832461,4.736964,102.274903,-0.06955,-0.045914,0.991486,-0.036687,0.019432,-0.042322,92.1008,38.889145,-146.888214,,,
729716896.209512,-2.83246,4.736962,137.811255,-0.06955,-0.045914,0.991486,-0.036687,0.019432,-0.042322,92.1008,38.889145,-146.888214,,,
729716896.211281,-2.832462,4.736962,99.198053,-0.06955,-0.045914,0.991486,-0.036687,0.019432,-0.042322,92.1008,38.889145,-146.888214,,,
729716896.211525,-2.832461,4.736964,102.274903,-0.06955,-0.045914,0.991486,-0.036687,0.019432,-0.042322,92.1008,38.889145,-146.888214,,,
729716896.211639,-2.83246,4.736962,137.811255,-0.06955,-0.045914,0.991486,-0.036687,0.019432,-0.042322,92.1008,38.889145,-146.888214,,,
729716896.214109,-2.844733,4.741142,99.187391,-0.06955,-0.045914,0.991486,-0.036687,0.019432,-0.042322,92.1008,38.889145,-146.888214,,,
729716896.214707,-2.844732,4.741145,102.264241,-0.06955,-0.045914,0.991486,-0.036687,0.019432,-0.042322,92.1008,38.889145,-146.888214,,,
729716896.214858,-2.844731,4.741143,137.800592,-0.06955,-0.045914,0.991486,-0.036687,0.019432,-0.042322,92.1008,38.889145,-146.888214,,,
729716896.217134,-2.844733,4.741142,99.187391,-0.06955,-0.045914,0.991486,-0.036687,0.019432,-0.042322,92.1008,38.889145,-146.888214,,,
729716896.21734,-2.844732,4.741145,102.264241,-0.06955,-0.045914,0.991486,-0.036687,0.019432,-0.042322,92.1008,38.889145,-146.888214,,,
729716896.21802,-2.855234,4.743086,137.789719,-0.074051,-0.048981,0.989914,-0.031425,0.009536,-0.043035,92.1008,38.889145,-146.888214,,,
729716896.221299,-2.855235,4.743086,99.176517,-0.074051,-0.048981,0.989914,-0.031425,0.009536,-0.043035,92.1008,38.889145,-146.888214,,,
729716896.222267,-2.855234,4.743088,102.253368,-0.074051,-0.048981,0.989914,-0.031425,0.009536,-0.043035,92.1008,38.889145,-146.888214,,,
729716896.222418,-2.855234,4.743086,137.789719,-0.074051,-0.048981,0.989914,-0.031425,0.009536,-0.043035,92.1008,38.889145,-146.888214,,,
729716896.224066,-2.866262,4.744124,99.165395,-0.074051,-0.048981,0.989914,-0.031425,0.009536,-0.043035,92.1008,38.889145,-146.888214,,,
729716896.224679,-2.866261,4.744126,102.242246,-0.074051,-0.048981,0.989914,-0.031425,0.009536,-0.043035,92.1008,38.889145,-146.888214,,,
729716896.224835,-2.866261,4.744124,137.778601,-0.074051,-0.048981,0.989914,-0.031425,0.009536,-0.043035,92.1008,38.889145,-146.888214,,,
729716896.227119,-2.866262,4.744124,99.165395,-0.074051,-0.048981,0.989914,-0.031425,0.009536,-0.043035,92.1008,38.889145,-146.888214,,,
729716896.227415,-2.866261,4.744126,102.242246,-0.074051,-0.048981,0.989914,-0.031425,0.009536,-0.043035,92.1008,38.889145,-146.888214,,,
729716896.228026,-2.873921,4.743652,137.767241,-0.079086,-0.050491,0.990311,-0.021799,0.000393,-0.043894,92.1008,38.889145,-146.888214,,,
729716896.231364,-2.873922,4.743651,99.154035,-0.079086,-0.050491,0.990311,-0.021799,0.000393,-0.043894,92.1008,38.889145,-146.888214,,,
729716896.232504,-2.873921,4.743654,102.230886,-0.079086,-0.050491,0.990311,-0.021799,0.000393,-0.043894,92.1008,38.889145,-146.888214,,,
729716896.232705,-2.873921,4.743652,137.767241,-0.079086,-0.050491,0.990311,-0.021799,0.000393,-0.043894,92.1008,38.889145,-146.888214,,,
729716896.234237,-2.882577,4.741339,99.142674,-0.079086,-0.050491,0.990311,-0.021799,0.000393,-0.043894,92.1008,38.889145,-146.888214,,,
729716896.235074,-2.882576,4.741342,102.219525,-0.079086,-0.050491,0.990311,-0.021799,0.000393,-0.043894,92.1008,38.889145,-146.888214,,,
729716896.235288,-2.882575,4.74134,137.755878,-0.079086,-0.050491,0.990311,-0.021799,0.000393,-0.043894,92.1008,38.889145,-146.888214,,,
729716896.23719,-2.882577,4.741339,99.142674,-0.079086,-0.050491,0.990311,-0.021799,0.000393,-0.043894,92.1008,38.889145,-146.888214,,,
729716896.237519,-2.882576,4.741342,102.219525,-0.079086,-0.050491,0.990311,-0.021799,0.000393,-0.043894,92.1008,38.889145,-146.888214,,,
729716896.238082,-2.887456,4.737511,137.744966,-0.081436,-0.052765,0.989075,-0.011531,-0.012305,-0.040008,92.1008,38.889145,-146.888214,,,
729716896.242634,-2.887457,4.73751,99.131762,-0.081436,-0.052765,0.989075,-0.011531,-0.012305,-0.040008,92.1008,38.889145,-146.888214,,,
729716896.245089,-2.892834,4.730708,102.198489,-0.081436,-0.052765,0.989075,-0.011531,-0.012305,-0.040008,92.1008,38.889145,-146.888214,,,
729716896.245315,-2.892833,4.730706,137.734842,-0.081436,-0.052765,0.989075,-0.011531,-0.012305,-0.040008,92.1008,38.889145,-146.888214,,,
729716896.245958,-2.892835,4.730706,99.121638,-0.081436,-0.052765,0.989075,-0.011531,-0.012305,-0.040008,92.1008,38.889145,-146.888214,,,
729716896.247442,-2.892835,4.730706,99.121638,-0.081436,-0.052765,0.989075,-0.011531,-0.012305,-0.040008,92.315109,38.762878,-146.859192,,,
729716896.248481,-2.892834,4.730708,102.198489,-0.081436,-0.052765,0.989075,-0.007014,-0.022769,-0.03518,92.315109,38.762878,-146.859192,,,
729716896.248678,-2.896088,4.723437,137.725405,-0.087158,-0.054337,0.989807,-0.007014,-0.022769,-0.03518,92.315109,38.762878,-146.859192,,,
729716896.251707,-2.89609,4.723437,99.112202,-0.087158,-0.054337,0.989807,-0.007014,-0.022769,-0.03518,92.315109,38.762878,-146.859192,,,
729716896.253107,-2.896089,4.723439,102.189052,-0.087158,-0.054337,0.989807,-0.007014,-0.022769,-0.03518,92.315109,38.762878,-146.859192,,,
729716896.253266,-2.898997,4.713569,137.716239,-0.087158,-0.054337,0.989807,-0.007014,-0.022769,-0.03518,92.315109,38.762878,-146.859192,,,
729716896.253873,-2.898999,4.713569,99.103037,-0.087158,-0.054337,0.989807,-0.007014,-0.022769,-0.03518,92.315109,38.762878,-146.859192,,,
729716896.254475,-2.898998,4.713571,102.179888,-0.087158,-0.054337,0.989807,-0.007014,-0.022769,-0.03518,92.315109,38.762878,-146.859192,,,
729716896.254662,-2.898997,4.713569,137.716239,-0.087158,-0.054337,0.989807,-0.007014,-0.022769,-0.03518,92.315109,38.762878,-146.859192,,,
729716896.257152,-2.898999,4.713569,99.103037,-0.087158,-0.054337,0.989807,-0.007014,-0.022769,-0.03518,92.315109,38.762878,-146.859192,,,
729716896.257376,-2.898998,4.713571,102.179888,-0.087158,-0.054337,0.989807,-0.007014,-0.022769,-0.03518,92.315109,38.762878,-146.859192,,,
729716896.258015,-2.901748,4.70511,137.707824,-0.0867,-0.047729,0.990311,-0.008199,-0.026393,-0.030633,92.315109,38.762878,-146.859192,,,
729716896.260992,-2.90175,4.70511,99.094618,-0.0867,-0.047729,0.990311,-0.008199,-0.026393,-0.030633,92.315109,38.762878,-146.859192,,,
729716896.261714,-2.901749,4.705113,102.171469,-0.0867,-0.047729,0.990311,-0.008199,-0.026393,-0.030633,92.315109,38.762878,-146.859192,,,
729716896.261874,-2.901748,4.70511,137.707824,-0.0867,-0.047729,0.990311,-0.008199,-0.026393,-0.030633,92.315109,38.762878,-146.859192,,,
729716896.264386,-2.905333,4.694588,99.08614,-0.0867,-0.047729,0.990311,-0.008199,-0.026393,-0.030633,92.315109,38.762878,-146.859192,,,
729716896.265487,-2.905332,4.69459,102.162991,-0.0867,-0.047729,0.990311,-0.008199,-0.026393,-0.030633,92.315109,38.762878,-146.859192,,,
729716896.265676,-2.905331,4.694588,137.699346,-0.0867,-0.047729,0.990311,-0.008199,-0.026393,-0.030633,92.315109,38.762878,-146.859192,,,
729716896.267057,-2.905333,4.694588,99.08614,-0.0867,-0.047729,0.990311,-0.008199,-0.026393,-0.030633,92.315109,38.762878,-146.859192,,,
729716896.267382,-2.905332,4.69459,102.162991,-0.0867,-0.047729,0.990311,-0.008199,-0.026393,-0.030633,92.315109,38.762878,-146.859192,,,
729716896.268036,-2.909941,4.687986,137.690735,-0.083847,-0.043503,0.990875,-0.012848,-0.014948,-0.032762,92.315109,38.762878,-146.859192,,,
729716896.271361,-2.909942,4.687986,99.07753,-0.083847,-0.043503,0.990875,-0.012848,-0.014948,-0.032762,92.315109,38.762878,-146.859192,,,
729716896.272524,-2.909941,4.687988,102.154381,-0.083847,-0.043503,0.990875,-0.012848,-0.014948,-0.032762,92.315109,38.762878,-146.859192,,,
729716896.27272,-2.909941,4.687986,137.690735,-0.083847,-0.043503,0.990875,-0.012848,-0.014948,-0.032762,92.315109,38.762878,-146.859192,,,
729716896.273968,-2.914376,4.680623,99.069012,-0.083847,-0.043503,0.990875,-0.012848,-0.014948,-0.032762,92.315109,38.762878,-146.859192,,,
729716896.274411,-2.914375,4.680625,102.145863,-0.083847,-0.043503,0.990875,-0.012848,-0.014948,-0.032762,92.315109,38.762878,-146.859192,,,
729716896.274625,-2.914374,4.680623,137.682219,-0.083847,-0.043503,0.990875,-0.012848,-0.014948,-0.032762,92.315109,38.762878,-146.859192,,,
729716896.277188,-2.914376,4.680623,99.069012,-0.083847,-0.043503,0.990875,-0.012848,-0.014948,-0.032762,92.315109,38.762878,-146.859192,,,
729716896.277469,-2.914375,4.680625,102.145863,-0.083847,-0.043503,0.990875,-0.012848,-0.014948,-0.032762,92.315109,38.762878,-146.859192,,,
729716896.278047,-2.920388,4.677527,137.674488,-0.084244,-0.043304,0.998413,-0.019481,-0.003026,-0.028707,92.315109,38.762878,-146.859192,,,
729716896.281628,-2.920389,4.677527,99.061281,-0.084244,-0.043304,0.998413,-0.019481,-0.003026,-0.028707,92.315109,38.762878,-146.859192,,,
729716896.283039,-2.920388,4.677529,102.138132,-0.084244,-0.043304,0.998413,-0.019481,-0.003026,-0.028707,92.315109,38.762878,-146.859192,,,
729716896.283242,-2.926308,4.673522,137.667074,-0.084244,-0.043304,0.998413,-0.019481,-0.003026,-0.028707,92.315109,38.762878,-146.859192,,,
729716896.284277,-2.92631,4.673522,99.053871,-0.084244,-0.043304,0.998413,-0.019481,-0.003026,-0.028707,92.315109,38.762878,-146.859192,,,
729716896.285116,-2.926309,4.673524,102.130722,-0.084244,-0.043304,0.998413,-0.019481,-0.003026,-0.028707,92.315109,38.762878,-146.859192,,,
729716896.285396,-2.926308,4.673522,137.667074,-0.084244,-0.043304,0.998413,-0.019481,-0.003026,-0.028707,92.315109,38.762878,-146.859192,,,
729716896.287674,-2.92631,4.673522,99.053871,-0.084244,-0.043304,0.998413,-0.019481,-0.003026,-0.028707,92.296387,38.895264,-147.001648,,,
729716896.290278,-2.93382,4.672236,102.123645,-0.086456,-0.0457,0.994904,-0.025014,0.001742,-0.027422,92.296387,38.895264,-147.001648,,,
729716896.290533,-2.93382,4.672234,137.659997,-0.086456,-0.0457,0.994904,-0.025014,0.001742,-0.027422,92.296387,38.895264,-147.001648,,,
729716896.29209,-2.933821,4.672234,99.046795,-0.086456,-0.0457,0.994904,-0.025014,0.001742,-0.027422,92.296387,38.895264,-147.001648,,,
729716896.292529,-2.93382,4.672236,102.123645,-0.086456,-0.0457,0.994904,-0.025014,0.001742,-0.027422,92.296387,38.895264,-147.001648,,,
729716896.292655,-2.93382,4.672234,137.659997,-0.086456,-0.0457,0.994904,-0.025014,0.001742,-0.027422,92.296387,38.895264,-147.001648,,,
729716896.294033,-2.941465,4.670725,99.040266,-0.086456,-0.0457,0.994904,-0.025014,0.001742,-0.027422,92.296387,38.895264,-147.001648,,,
729716896.294503,-2.941464,4.670728,102.117116,-0.086456,-0.0457,0.994904,-0.025014,0.001742,-0.027422,92.296387,38.895264,-147.001648,,,
729716896.294675,-2.941464,4.670726,137.653468,-0.086456,-0.0457,0.994904,-0.025014,0.001742,-0.027422,92.296387,38.895264,-147.001648,,,
729716896.297098,-2.941465,4.670725,99.040266,-0.086456,-0.0457,0.994904,-0.025014,0.001742,-0.027422,92.296387,38.895264,-147.001648,,,
729716896.297315,-2.941464,4.670728,102.117116,-0.086456,-0.0457,0.994904,-0.025014,0.001742,-0.027422,92.296387,38.895264,-147.001648,,,
729716896.298025,-2.950068,4.671717,137.64804,-0.088821,-0.045135,0.994446,-0.029189,0.008805,-0.020487,92.296387,38.895264,-147.001648,,,
729716896.301317,-2.950069,4.671717,99.034834,-0.088821,-0.045135,0.994446,-0.029189,0.008805,-0.020487,92.296387,38.895264,-147.001648,,,
729716896.302296,-2.950068,4.671719,102.111684,-0.088821,-0.045135,0.994446,-0.029189,0.008805,-0.020487,92.296387,38.895264,-147.001648,,,
729716896.302446,-2.950068,4.671717,137.64804,-0.088821,-0.045135,0.994446,-0.029189,0.008805,-0.020487,92.296387,38.895264,-147.001648,,,
729716896.303876,-2.959462,4.672601,99.029773,-0.088821,-0.045135,0.994446,-0.029189,0.008805,-0.020487,92.296387,38.895264,-147.001648,,,
729716896.304327,-2.959461,4.672604,102.106624,-0.088821,-0.045135,0.994446,-0.029189,0.008805,-0.020487,92.296387,38.895264,-147.001648,,,
729716896.304651,-2.95946,4.672601,137.642978,-0.088821,-0.045135,0.994446,-0.029189,0.008805,-0.020487,92.296387,38.895264,-147.001648,,,
729716896.3071,-2.959462,4.672601,99.029773,-0.088821,-0.045135,0.994446,-0.029189,0.008805,-0.020487,92.296387,38.895264,-147.001648,,,
729716896.307312,-2.959461,4.672604,102.106624,-0.088821,-0.045135,0.994446,-0.029189,0.008805,-0.020487,92.296387,38.895264,-147.001648,,,
729716896.307987,-2.96928,4.674068,137.638188,-0.084991,-0.042236,0.990677,-0.031568,0.00997,-0.018918,92.296387,38.895264,-147.001648,,,
729716896.311451,-2.969281,4.674068,99.024982,-0.084991,-0.042236,0.990677,-0.031568,0.00997,-0.018918,92.296387,38.895264,-147.001648,,,
729716896.312693,-2.96928,4.674071,102.101833,-0.084991,-0.042236,0.990677,-0.031568,0.00997,-0.018918,92.296387,38.895264,-147.001648,,,
729716896.312884,-2.96928,4.674068,137.638188,-0.084991,-0.042236,0.990677,-0.031568,0.00997,-0.018918,92.296387,38.895264,-147.001648,,,
729716896.314219,-2.978971,4.675147,99.02093,-0.084991,-0.042236,0.990677,-0.031568,0.00997,-0.018918,92.296387,38.895264,-147.001648,,,
729716896.31513,-2.97897,4.675149,102.09778,-0.084991,-0.042236,0.990677,-0.031568,0.00997,-0.018918,92.296387,38.895264,-147.001648,,,
729716896.315341,-2.97897,4.675147,137.634134,-0.084991,-0.042236,0.990677,-0.031568,0.00997,-0.018918,92.296387,38.895264,-147.001648,,,
729716896.317147,-2.978971,4.675147,99.02093,-0.084991,-0.042236,0.990677,-0.031568,0.00997,-0.018918,92.296387,38.895264,-147.001648,,,
729716896.317523,-2.97897,4.675149,102.09778,-0.084991,-0.042236,0.990677,-0.031568,0.00997,-0.018918,92.296387,38.895264,-147.001648,,,
729716896.318029,-2.987972,4.674997,137.630187,-0.085907,-0.042755,0.989807,-0.027569,0.001448,-0.017814,92.296387,38.895264,-147.001648,,,
729716896.321724,-2.987974,4.674996,99.016983,-0.085907,-0.042755,0.989807,-0.027569,0.001448,-0.017814,92.296387,38.895264,-147.001648,,,
729716896.323272,-2.987973,4.674999,102.093834,-0.085907,-0.042755,0.989807,-0.027569,0.001448,-0.017814,92.296387,38.895264,-147.001648,,,
729716896.323449,-2.997198,4.674114,137.626165,-0.085907,-0.042755,0.989807,-0.027569,0.001448,-0.017814,92.296387,38.895264,-147.001648,,,
729716896.324184,-2.9972,4.674114,99.012959,-0.085907,-0.042755,0.989807,-0.027569,0.001448,-0.017814,92.296387,38.895264,-147.001648,,,
729716896.324658,-2.997199,4.674117,102.08981,-0.085907,-0.042755,0.989807,-0.027569,0.001448,-0.017814,92.296387,38.895264,-147.001648,,,
729716896.324806,-2.997198,4.674114,137.626165,-0.085907,-0.042755,0.989807,-0.027569,0.001448,-0.017814,92.296387,38.895264,-147.001648,,,
729716896.327088,-2.9972,4.674114,99.012959,-0.085907,-0.042755,0.989807,-0.027569,0.001448,-0.017814,92.296387,38.895264,-147.001648,,,
729716896.327376,-2.997199,4.674117,102.08981,-0.085907,-0.042755,0.989807,-0.027569,0.001448,-0.017814,92.296387,38.895264,-147.001648,,,
729716896.328061,-3.006113,4.67096,137.621952,-0.085632,-0.039856,0.985794,-0.028303,-0.009321,-0.018948,92.463211,38.851715,-146.919815,,,
729716896.332337,-3.006114,4.670959,99.008747,-0.085632,-0.039856,0.985794,-0.028303,-0.009321,-0.018948,92.463211,38.851715,-146.919815,,,
729716896.334135,-3.006113,4.670962,102.085598,-0.085632,-0.039856,0.985794,-0.028303,-0.009321,-0.018948,92.463211,38.851715,-146.919815,,,
729716896.334307,-3.01454,4.666989,137.617815,-0.085632,-0.039856,0.985794,-0.028303,-0.009321,-0.018948,92.463211,38.851715,-146.919815,,,
729716896.334691,-3.014542,4.666988,99.004609,-0.085632,-0.039856,0.985794,-0.028303,-0.009321,-0.018948,92.463211,38.851715,-146.919815,,,
729716896.334844,-3.01454,4.666989,137.617815,-0.085632,-0.039856,0.985794,-0.028303,-0.009321,-0.018948,92.463211,38.851715,-146.919815,,,
729716896.337095,-3.014542,4.666988,99.004609,-0.085632,-0.039856,0.985794,-0.028303,-0.009321,-0.018948,92.463211,38.851715,-146.919815,,,
729716896.337505,-3.014541,4.666991,102.08146,-0.085632,-0.039856,0.985794,-0.028303,-0.009321,-0.018948,92.463211,38.851715,-146.919815,,,
729716896.338003,-3.01454,4.666989,137.617815,-0.085632,-0.039856,0.985794,-0.028303,-0.009321,-0.018948,92.463211,38.851715,-146.919815,,,
729716896.341115,-3.02364,4.659916,99.000609,-0.088821,-0.041962,0.986099,-0.029866,-0.023484,-0.017742,92.463211,38.851715,-146.919815,,,
729716896.34196,-3.023639,4.659919,102.077459,-0.088821,-0.041962,0.986099,-0.029866,-0.023484,-0.017742,92.463211,38.851715,-146.919815,,,
729716896.342105,-3.023638,4.659917,137.613813,-0.088821,-0.041962,0.986099,-0.029866,-0.023484,-0.017742,92.463211,38.851715,-146.919815,,,
729716896.344172,-3.031589,4.65151,98.997224,-0.088821,-0.041962,0.986099,-0.029866,-0.023484,-0.017742,92.463211,38.851715,-146.919815,,,
729716896.345026,-3.031588,4.651512,102.074075,-0.088821,-0.041962,0.986099,-0.029866,-0.023484,-0.017742,92.463211,38.851715,-146.919815,,,
729716896.345187,-3.031588,4.65151,137.610428,-0.088821,-0.041962,0.986099,-0.029866,-0.023484,-0.017742,92.463211,38.851715,-146.919815,,,
729716896.347077,-3.031589,4.65151,98.997224,-0.088821,-0.041962,0.986099,-0.029866,-0.023484,-0.017742,92.463211,38.851715,-146.919815,,,
729716896.347327,-3.031588,4.651512,102.074075,-0.088821,-0.041962,0.986099,-0.029866,-0.023484,-0.017742,92.463211,38.851715,-146.919815,,,
729716896.348044,-3.031588,4.65151,137.610428,-0.088821,-0.041962,0.986099,-0.029866,-0.023484,-0.017742,92.463211,38.851715,-146.919815,,,
729716896.351627,-3.0409,4.640671,98.994739,-0.091339,-0.043167,0.987976,-0.029947,-0.036504,-0.011261,92.463211,38.851715,-146.919815,,,
729716896.352768,-3.040899,4.640674,102.07159,-0.091339,-0.043167,0.987976,-0.029947,-0.036504,-0.011261,92.463211,38.851715,-146.919815,,,
729716896.352919,-3.040899,4.640671,137.607943,-0.091339,-0.043167,0.987976,-0.029947,-0.036504,-0.011261,92.463211,38.851715,-146.919815,,,
729716896.354005,-3.047569,4.629367,98.993166,-0.091339,-0.043167,0.987976,-0.029947,-0.036504,-0.011261,92.463211,38.851715,-146.919815,,,
729716896.354684,-3.047568,4.629369,102.070017,-0.091339,-0.043167,0.987976,-0.029947,-0.036504,-0.011261,92.463211,38.851715,-146.919815,,,
729716896.354838,-3.047568,4.629367,137.606369,-0.091339,-0.043167,0.987976,-0.029947,-0.036504,-0.011261,92.463211,38.851715,-146.919815,,,
729716896.35715,-3.047569,4.629367,98.993166,-0.091339,-0.043167,0.987976,-0.029947,-0.036504,-0.011261,92.463211,38.851715,-146.919815,,,
729716896.357367,-3.047568,4.629369,102.070017,-0.091339,-0.043167,0.987976,-0.029947,-0.036504,-0.011261,92.463211,38.851715,-146.919815,,,
729716896.35801,-3.047568,4.618024,137.60578,-0.091339,-0.043167,0.987976,-0.029947,-0.036504,-0.011261,92.463211,38.851715,-146.919815,,,
729716896.36153,-3.055435,4.618024,98.992577,-0.087891,-0.045563,0.991898,-0.026394,-0.033398,-0.003878,92.463211,38.851715,-146.919815,,,
729716896.362682,-3.055434,4.618026,102.069427,-0.087891,-0.045563,0.991898,-0.026394,-0.033398,-0.003878,92.463211,38.851715,-146.919815,,,
729716896.362833,-3.055434,4.618024,137.60578,-0.087891,-0.045563,0.991898,-0.026394,-0.033398,-0.003878,92.463211,38.851715,-146.919815,,,
729716896.363801,-3.061191,4.608925,98.993241,-0.087891,-0.045563,0.991898,-0.026394,-0.033398,-0.003878,92.463211,38.851715,-146.919815,,,
729716896.36428,-3.06119,4.608927,102.070092,-0.087891,-0.045563,0.991898,-0.026394,-0.033398,-0.003878,92.463211,38.851715,-146.919815,,,
729716896.364655,-3.06119,4.608925,137.606443,-0.087891,-0.045563,0.991898,-0.026394,-0.033398,-0.003878,92.463211,38.851715,-146.919815,,,
729716896.36715,-3.061191,4.608925,98.993241,-0.087891,-0.045563,0.991898,-0.026394,-0.033398,-0.003878,92.463211,38.851715,-146.919815,,,
729716896.36736,-3.06119,4.608927,102.070092,-0.087891,-0.045563,0.991898,-0.026394,-0.033398,-0.003878,92.463211,38.851715,-146.919815,,,
729716896.368021,-3.06119,4.600724,137.608018,-0.087891,-0.045563,0.991898,-0.026394,-0.033398,-0.003878,92.463211,38.851715,-146.919815,,,
729716896.373924,-3.067196,4.600723,98.994816,-0.083923,-0.047745,0.999893,-0.019928,-0.021349,0.003356,92.444183,38.850388,-146.856049,,,
729716896.37652,-3.071325,4.596382,102.073956,-0.083923,-0.047745,0.999893,-0.019928,-0.021349,0.003356,92.444183,38.850388,-146.856049,,,
729716896.376719,-3.071325,4.59638,137.610308,-0.083923,-0.047745,0.999893,-0.019928,-0.021349,0.003356,92.444183,38.850388,-146.856049,,,
729716896.377302,-3.071326,4.59638,98.997106,-0.083923,-0.047745,0.999893,-0.019928,-0.021349,0.003356,92.444183,38.850388,-146.856049,,,
729716896.377526,-3.071325,4.596382,102.073956,-0.083923,-0.047745,0.999893,-0.019928,-0.021349,0.003356,92.444183,38.850388,-146.856049,,,
729716896.377976,-3.071325,4.59638,137.610308,-0.083923,-0.047745,0.999893,-0.019928,-0.021349,0.003356,92.444183,38.850388,-146.856049,,,
729716896.381831,-3.076748,4.593926,99.000111,-0.078888,-0.046356,1.00473,-0.019729,0.00204,0.008956,92.444183,38.850388,-146.856049,,,
729716896.383624,-3.076747,4.593928,102.076962,-0.078888,-0.046356,1.00473,-0.019729,0.00204,0.008956,92.444183,38.850388,-146.856049,,,
729716896.383799,-3.080661,4.597046,137.617028,-0.078888,-0.046356,1.00473,-0.019729,0.00204,0.008956,92.444183,38.850388,-146.856049,,,
729716896.384232,-3.080663,4.597046,99.003825,-0.078888,-0.046356,1.00473,-0.019729,0.00204,0.008956,92.444183,38.850388,-146.856049,,,
729716896.384526,-3.080662,4.597049,102.080676,-0.078888,-0.046356,1.00473,-0.019729,0.00204,0.008956,92.444183,38.850388,-146.856049,,,
729716896.384648,-3.080661,4.597046,137.617028,-0.078888,-0.046356,1.00473,-0.019729,0.00204,0.008956,92.444183,38.850388,-146.856049,,,
729716896.387075,-3.080663,4.597046,99.003825,-0.078888,-0.046356,1.00473,-0.019729,0.00204,0.008956,92.444183,38.850388,-146.856049,,,
729716896.387272,-3.080662,4.597049,102.080676,-0.078888,-0.046356,1.00473,-0.019729,0.00204,0.008956,92.444183,38.850388,-146.856049,,,
729716896.388025,-3.080661,4.597046,137.617028,-0.078888,-0.046356,1.00473,-0.019729,0.00204,0.008956,92.444183,38.850388,-146.856049,,,
729716896.391224,-3.086294,4.602484,99.00769,-0.07515,-0.046432,1.009048,-0.019583,0.024286,0.010339,92.444183,38.850388,-146.856049,,,
729716896.392009,-3.086293,4.602487,102.084541,-0.07515,-0.046432,1.009048,-0.019583,0.024286,0.010339,92.444183,38.850388,-146.856049,,,
729716896.39214,-3.086292,4.602485,137.620892,-0.07515,-0.046432,1.009048,-0.019583,0.024286,0.010339,92.444183,38.850388,-146.856049,,,
729716896.393781,-3.090038,4.610335,99.012343,-0.07515,-0.046432,1.009048,-0.019583,0.024286,0.010339,92.444183,38.850388,-146.856049,,,
729716896.394223,-3.090037,4.610337,102.089194,-0.07515,-0.046432,1.009048,-0.019583,0.024286,0.010339,92.444183,38.850388,-146.856049,,,
729716896.394628,-3.090037,4.610335,137.625547,-0.07515,-0.046432,1.009048,-0.019583,0.024286,0.010339,92.444183,38.850388,-146.856049,,,
729716896.397097,-3.090038,4.610335,99.012343,-0.07515,-0.046432,1.009048,-0.019583,0.024286,0.010339,92.444183,38.850388,-146.856049,,,
729716896.397319,-3.090037,4.610337,102.089194,-0.07515,-0.046432,1.009048,-0.019583,0.024286,0.010339,92.444183,38.850388,-146.856049,,,
729716896.397992,-3.090037,4.610335,137.625547,-0.07515,-0.046432,1.009048,-0.019583,0.024286,0.010339,92.444183,38.850388,-146.856049,,,
729716896.401577,-3.095779,4.617373,99.017864,-0.079514,-0.048004,1.002396,-0.021585,0.025364,0.016585,92.444183,38.850388,-146.856049,,,
729716896.402711,-3.095778,4.617375,102.094715,-0.079514,-0.048004,1.002396,-0.021585,0.025364,0.016585,92.444183,38.850388,-146.856049,,,
729716896.402857,-3.095778,4.617373,137.631069,-0.079514,-0.048004,1.002396,-0.021585,0.025364,0.016585,92.444183,38.850388,-146.856049,,,
729716896.403546,-3.099874,4.624781,99.023678,-0.079514,-0.048004,1.002396,-0.021585,0.025364,0.016585,92.444183,38.850388,-146.856049,,,
729716896.404277,-3.099873,4.624783,102.100528,-0.079514,-0.048004,1.002396,-0.021585,0.025364,0.016585,92.444183,38.850388,-146.856049,,,
729716896.404663,-3.099873,4.624781,137.636882,-0.079514,-0.048004,1.002396,-0.021585,0.025364,0.016585,92.444183,38.850388,-146.856049,,,
729716896.407108,-3.099874,4.624781,99.023678,-0.079514,-0.048004,1.002396,-0.021585,0.025364,0.016585,92.444183,38.850388,-146.856049,,,
729716896.40733,-3.099873,4.624783,102.100528,-0.079514,-0.048004,1.002396,-0.021585,0.025364,0.016585,92.444183,38.850388,-146.856049,,,
729716896.407988,-3.099873,4.624781,137.636882,-0.079514,-0.048004,1.002396,-0.021585,0.025364,0.016585,92.444183,38.850388,-146.856049,,,
729716896.411835,-3.106375,4.629711,99.029455,-0.080276,-0.04985,0.994232,-0.022275,0.015752,0.016689,92.516312,39.09024,-147.134979,,,
729716896.4134,-3.106374,4.629714,102.106306,-0.080276,-0.04985,0.994232,-0.022275,0.015752,0.016689,92.516312,39.09024,-147.134979,,,
729716896.413563,-3.110363,4.634366,137.648281,-0.080276,-0.04985,0.994232,-0.022275,0.015752,0.016689,92.516312,39.09024,-147.134979,,,
729716896.413929,-3.110365,4.634366,99.035076,-0.080276,-0.04985,0.994232,-0.022275,0.015752,0.016689,92.516312,39.09024,-147.134979,,,
729716896.414146,-3.110364,4.634368,102.111927,-0.080276,-0.04985,0.994232,-0.022275,0.015752,0.016689,92.516312,39.09024,-147.134979,,,
729716896.414661,-3.110363,4.634366,137.648281,-0.080276,-0.04985,0.994232,-0.022275,0.015752,0.016689,92.516312,39.09024,-147.134979,,,
729716896.41716,-3.110365,4.634366,99.035076,-0.080276,-0.04985,0.994232,-0.022275,0.015752,0.016689,92.516312,39.09024,-147.134979,,,
729716896.417458,-3.110364,4.634368,102.111927,-0.080276,-0.04985,0.994232,-0.022275,0.015752,0.016689,92.516312,39.09024,-147.134979,,,
729716896.418108,-3.110363,4.634366,137.648281,-0.080276,-0.04985,0.994232,-0.01659,0.000449,0.014264,92.516312,39.09024,-147.134979,,,
729716896.421271,-3.115588,4.635408,99.04021,-0.076431,-0.047028,0.993713,-0.01659,0.000449,0.014264,92.516312,39.09024,-147.134979,,,
729716896.422405,-3.115587,4.635411,102.11706,-0.076431,-0.047028,0.993713,-0.01659,0.000449,0.014264,92.516312,39.09024,-147.134979,,,
729716896.422577,-3.115587,4.635408,137.653415,-0.076431,-0.047028,0.993713,-0.01659,0.000449,0.014264,92.516312,39.09024,-147.134979,,,
729716896.423858,-3.117919,4.63498,99.044377,-0.076431,-0.047028,0.993713,-0.01659,0.000449,0.014264,92.516312,39.09024,-147.134979,,,
729716896.424333,-3.117918,4.634983,102.121228,-0.076431,-0.047028,0.993713,-0.01659,0.000449,0.014264,92.516312,39.09024,-147.134979,,,
729716896.424648,-3.117918,4.634981,137.657581,-0.076431,-0.047028,0.993713,-0.01659,0.000449,0.014264,92.516312,39.09024,-147.134979,,,
729716896.427097,-3.117919,4.63498,99.044377,-0.076431,-0.047028,0.993713,-0.01659,0.000449,0.014264,92.516312,39.09024,-147.134979,,,
729716896.427315,-3.117918,4.634983,102.121228,-0.076431,-0.047028,0.993713,-0.01659,0.000449,0.014264,92.516312,39.09024,-147.134979,,,
729716896.427988,-3.117918,4.634981,137.657581,-0.076431,-0.047028,0.993713,-0.01659,0.000449,0.014264,92.516312,39.09024,-147.134979,,,
729716896.431867,-3.12178,4.628841,99.046814,-0.08168,-0.046112,0.992935,-0.012908,-0.025759,0.003189,92.516312,39.09024,-147.134979,,,
729716896.433207,-3.121779,4.628843,102.123664,-0.08168,-0.046112,0.992935,-0.012908,-0.025759,0.003189,92.516312,39.09024,-147.134979,,,
729716896.433371,-3.12397,4.620432,137.661152,-0.08168,-0.046112,0.992935,-0.012908,-0.025759,0.003189,92.516312,39.09024,-147.134979,,,
729716896.433832,-3.123972,4.620431,99.04795,-0.08168,-0.046112,0.992935,-0.012908,-0.025759,0.003189,92.516312,39.09024,-147.134979,,,
729716896.434311,-3.123971,4.620434,102.124801,-0.08168,-0.046112,0.992935,-0.012908,-0.025759,0.003189,92.516312,39.09024,-147.134979,,,
729716896.434652,-3.12397,4.620432,137.661152,-0.08168,-0.046112,0.992935,-0.012908,-0.025759,0.003189,92.516312,39.09024,-147.134979,,,
729716896.4371,-3.123972,4.620431,99.04795,-0.08168,-0.046112,0.992935,-0.012908,-0.025759,0.003189,92.516312,39.09024,-147.134979,,,
729716896.43732,-3.123971,4.620434,102.124801,-0.08168,-0.046112,0.992935,-0.012908,-0.025759,0.003189,92.516312,39.09024,-147.134979,,,
729716896.437989,-3.12397,4.620432,137.661152,-0.08168,-0.046112,0.992935,-0.012908,-0.025759,0.003189,92.516312,39.09024,-147.134979,,,
729716896.442033,-3.126967,4.607136,99.047747,-0.084244,-0.043671,0.991989,-0.00735,-0.047948,-0.005051,92.516312,39.09024,-147.134979,,,
729716896.4438,-3.126966,4.607138,102.124597,-0.084244,-0.043671,0.991989,-0.00735,-0.047948,-0.005051,92.516312,39.09024,-147.134979,,,
729716896.443963,-3.127962,4.592512,137.660293,-0.084244,-0.043671,0.991989,-0.00735,-0.047948,-0.005051,92.516312,39.09024,-147.134979,,,
729716896.444404,-3.127964,4.592512,99.04709,-0.084244,-0.043671,0.991989,-0.00735,-0.047948,-0.005051,92.516312,39.09024,-147.134979,,,
729716896.44463,-3.127962,4.592512,137.660293,-0.084244,-0.043671,0.991989,-0.00735,-0.047948,-0.005051,92.516312,39.09024,-147.134979,,,
729716896.447104,-3.127964,4.592512,99.04709,-0.084244,-0.043671,0.991989,-0.00735,-0.047948,-0.005051,92.516312,39.09024,-147.134979,,,
729716896.44757,-3.127963,4.592514,102.123941,-0.084244,-0.043671,0.991989,-0.00735,-0.047948,-0.005051,92.516312,39.09024,-147.134979,,,
729716896.447993,-3.127962,4.592512,137.660293,-0.084244,-0.043671,0.991989,-0.00735,-0.047948,-0.005051,92.516312,39.09024,-147.134979,,,
729716896.451853,-3.129431,4.576537,99.046585,-0.083511,-0.04747,0.995224,-0.002161,-0.053049,-0.003349,92.250687,38.855896,-147.118073,,,
729716896.453496,-3.12943,4.57654,102.123435,-0.083511,-0.04747,0.995224,-0.002161,-0.053049,-0.003349,92.250687,38.855896,-147.118073,,,
729716896.453664,-3.128516,4.560716,137.65995,-0.083511,-0.04747,0.995224,-0.002161,-0.053049,-0.003349,92.250687,38.855896,-147.118073,,,
729716896.454113,-3.128518,4.560715,99.046746,-0.083511,-0.04747,0.995224,-0.002161,-0.053049,-0.003349,92.250687,38.855896,-147.118073,,,
729716896.454559,-3.128517,4.560718,102.123597,-0.083511,-0.04747,0.995224,-0.002161,-0.053049,-0.003349,92.250687,38.855896,-147.118073,,,
729716896.454704,-3.128516,4.560716,137.65995,-0.083511,-0.04747,0.995224,-0.002161,-0.053049,-0.003349,92.250687,38.855896,-147.118073,,,
729716896.457141,-3.128518,4.560715,99.046746,-0.083511,-0.04747,0.995224,-0.002161,-0.053049,-0.003349,92.250687,38.855896,-147.118073,,,
729716896.457344,-3.128517,4.560718,102.123597,-0.083511,-0.04747,0.995224,-0.002161,-0.053049,-0.003349,92.250687,38.855896,-147.118073,,,
729716896.458021,-3.128516,4.560716,137.65995,-0.083511,-0.04747,0.995224,-0.002161,-0.053049,-0.003349,92.250687,38.855896,-147.118073,,,
729716896.46274,-3.128065,4.54615,99.048493,-0.079498,-0.055374,0.999924,0.002682,-0.044225,0.008105,92.250687,38.855896,-147.118073,,,
729716896.465145,-3.128064,4.546153,102.125344,-0.079498,-0.055374,0.999924,0.002682,-0.044225,0.008105,92.250687,38.855896,-147.118073,,,
729716896.465329,-3.125354,4.532893,137.664866,-0.079498,-0.055374,0.999924,0.002682,-0.044225,0.008105,92.250687,38.855896,-147.118073,,,
729716896.465821,-3.125356,4.532893,99.051663,-0.079498,-0.055374,0.999924,0.002682,-0.044225,0.008105,92.250687,38.855896,-147.118073,,,
729716896.467016,-3.125356,4.532893,99.051663,-0.079498,-0.055374,0.999924,0.002682,-0.044225,0.008105,92.250687,38.855896,-147.118073,,,
729716896.467603,-3.125355,4.532895,102.128514,-0.079498,-0.055374,0.999924,0.002682,-0.044225,0.008105,92.250687,38.855896,-147.118073,,,
729716896.468029,-3.125354,4.532893,137.664866,-0.079498,-0.055374,0.999924,0.002682,-0.044225,0.008105,92.250687,38.855896,-147.118073,,,
729716896.471533,-3.123203,4.52334,99.055237,-0.07338,-0.056961,1.002319,0.008908,-0.024952,0.011029,92.250687,38.855896,-147.118073,,,
729716896.472707,-3.123202,4.523342,102.132088,-0.07338,-0.056961,1.002319,0.008908,-0.024952,0.011029,92.250687,38.855896,-147.118073,,,
729716896.472855,-3.123201,4.52334,137.668439,-0.07338,-0.056961,1.002319,0.008908,-0.024952,0.011029,92.250687,38.855896,-147.118073,,,
729716896.473544,-3.119259,4.51718,99.05882,-0.07338,-0.056961,1.002319,0.008908,-0.024952,0.011029,92.250687,38.855896,-147.118073,,,
729716896.474214,-3.119258,4.517182,102.135671,-0.07338,-0.056961,1.002319,0.008908,-0.024952,0.011029,92.250687,38.855896,-147.118073,,,
729716896.474652,-3.119257,4.51718,137.672022,-0.07338,-0.056961,1.002319,0.008908,-0.024952,0.011029,92.250687,38.855896,-147.118073,,,
729716896.477092,-3.119259,4.51718,99.05882,-0.07338,-0.056961,1.002319,0.008908,-0.024952,0.011029,92.250687,38.855896,-147.118073,,,
729716896.477313,-3.119258,4.517182,102.135671,-0.07338,-0.056961,1.002319,0.008908,-0.024952,0.011029,92.250687,38.855896,-147.118073,,,
729716896.477987,-3.119257,4.51718,137.672022,-0.07338,-0.056961,1.002319,0.008908,-0.024952,0.011029,92.250687,38.855896,-147.118073,,,
729716896.481614,-3.11612,4.515241,99.062729,-0.071213,-0.054413,1.006622,0.011914,0.002613,0.013458,92.250687,38.855896,-147.118073,,,
729716896.482933,-3.116119,4.515243,102.13958,-0.071213,-0.054413,1.006622,0.011914,0.002613,0.013458,92.250687,38.855896,-147.118073,,,
729716896.48309,-3.116118,4.515241,137.675932,-0.071213,-0.054413,1.006622,0.011914,0.002613,0.013458,92.250687,38.855896,-147.118073,,,
729716896.48401,-3.11078,4.517637,99.067178,-0.071213,-0.054413,1.006622,0.011914,0.002613,0.013458,92.250687,38.855896,-147.118073,,,
729716896.484511,-3.110779,4.51764,102.144029,-0.071213,-0.054413,1.006622,0.011914,0.002613,0.013458,92.250687,38.855896,-147.118073,,,
729716896.484814,-3.110779,4.517637,137.68038,-0.071213,-0.054413,1.006622,0.011914,0.002613,0.013458,92.250687,38.855896,-147.118073,,,
729716896.487065,-3.11078,4.517637,99.067178,-0.071213,-0.054413,1.006622,0.011914,0.002613,0.013458,92.250687,38.855896,-147.118073,,,
729716896.487318,-3.110779,4.51764,102.144029,-0.071213,-0.054413,1.006622,0.011914,0.002613,0.013458,92.250687,38.855896,-147.118073,,,
729716896.487987,-3.110779,4.517637,137.68038,-0.071213,-0.054413,1.006622,0.011914,0.002613,0.013458,92.250687,38.855896,-147.118073,,,
729716896.491789,-3.105308,4.521917,99.072372,-0.077927,-0.055099,1.008789,0.018438,0.018617,0.019388,92.294907,38.88031,-147.011703,,,
729716896.493368,-3.105307,4.52192,102.149223,-0.077927,-0.055099,1.008789,0.018438,0.018617,0.019388,92.294907,38.88031,-147.011703,,,
729716896.493534,-3.098179,4.527099,137.692172,-0.077927,-0.055099,1.008789,0.018438,0.018617,0.019388,92.294907,38.88031,-147.011703,,,
729716896.494334,-3.09818,4.527098,99.07897,-0.077927,-0.055099,1.008789,0.018438,0.018617,0.019388,92.294907,38.88031,-147.011703,,,
729716896.495064,-3.09818,4.527101,102.15582,-0.077927,-0.055099,1.008789,0.018438,0.018617,0.019388,92.294907,38.88031,-147.011703,,,
729716896.495168,-3.098179,4.527099,137.692172,-0.077927,-0.055099,1.008789,0.018438,0.018617,0.019388,92.294907,38.88031,-147.011703,,,
729716896.496969,-3.09818,4.527098,99.07897,-0.077927,-0.055099,1.008789,0.018438,0.018617,0.019388,92.294907,38.88031,-147.011703,,,
729716896.497288,-3.09818,4.527101,102.15582,-0.077927,-0.055099,1.008789,0.018438,0.018617,0.019388,92.294907,38.88031,-147.011703,,,
729716896.497954,-3.098179,4.527099,137.692172,-0.077927,-0.055099,1.008789,0.018438,0.018617,0.019388,92.294907,38.88031,-147.011703,,,
729716896.501339,-3.092112,4.533694,99.086888,-0.083694,-0.056671,0.997345,0.018119,0.026525,0.028547,92.294907,38.88031,-147.011703,,,
729716896.502247,-3.092111,4.533697,102.163739,-0.083694,-0.056671,0.997345,0.018119,0.026525,0.028547,92.294907,38.88031,-147.011703,,,
729716896.502389,-3.09211,4.533695,137.700091,-0.083694,-0.056671,0.997345,0.018119,0.026525,0.028547,92.294907,38.88031,-147.011703,,,
729716896.504016,-3.085504,4.541724,99.095556,-0.083694,-0.056671,0.997345,0.018119,0.026525,0.028547,92.294907,38.88031,-147.011703,,,
729716896.50463,-3.085503,4.541726,102.172407,-0.083694,-0.056671,0.997345,0.018119,0.026525,0.028547,92.294907,38.88031,-147.011703,,,
729716896.504785,-3.085502,4.541724,137.708759,-0.083694,-0.056671,0.997345,0.018119,0.026525,0.028547,92.294907,38.88031,-147.011703,,,
729716896.507084,-3.085504,4.541724,99.095556,-0.083694,-0.056671,0.997345,0.018119,0.026525,0.028547,92.294907,38.88031,-147.011703,,,
729716896.507317,-3.085503,4.541726,102.172407,-0.083694,-0.056671,0.997345,0.018119,0.026525,0.028547,92.294907,38.88031,-147.011703,,,
729716896.507986,-3.085502,4.541724,137.708759,-0.083694,-0.056671,0.997345,0.018119,0.026525,0.028547,92.294907,38.88031,-147.011703,,,
729716896.511207,-3.080042,4.550247,99.105134,-0.08165,-0.05864,0.990021,0.017734,0.029656,0.035,92.294907,38.88031,-147.011703,,,
729716896.512187,-3.080041,4.55025,102.181985,-0.08165,-0.05864,0.990021,0.017734,0.029656,0.035,92.294907,38.88031,-147.011703,,,
729716896.512328,-3.08004,4.550247,137.718341,-0.08165,-0.05864,0.990021,0.017734,0.029656,0.035,92.294907,38.88031,-147.011703,,,
729716896.514227,-3.072536,4.558461,99.115772,-0.08165,-0.05864,0.990021,0.017734,0.029656,0.035,92.294907,38.88031,-147.011703,,,
729716896.515047,-3.072535,4.558463,102.192623,-0.08165,-0.05864,0.990021,0.017734,0.029656,0.035,92.294907,38.88031,-147.011703,,,
729716896.515204,-3.072534,4.558461,137.728977,-0.08165,-0.05864,0.990021,0.017734,0.029656,0.035,92.294907,38.88031,-147.011703,,,
729716896.517086,-3.072536,4.558461,99.115772,-0.08165,-0.05864,0.990021,0.017734,0.029656,0.035,92.294907,38.88031,-147.011703,,,
729716896.517328,-3.072535,4.558463,102.192623,-0.08165,-0.05864,0.990021,0.017734,0.029656,0.035,92.294907,38.88031,-147.011703,,,
729716896.517997,-3.072534,4.558461,137.728977,-0.08165,-0.05864,0.990021,0.017734,0.029656,0.035,92.294907,38.88031,-147.011703,,,
729716896.521105,-3.065952,4.564128,99.127283,-0.086945,-0.057922,0.990448,0.021657,0.01782,0.041814,92.294907,38.88031,-147.011703,,,
729716896.521961,-3.065951,4.56413,102.204134,-0.086945,-0.057922,0.990448,0.021657,0.01782,0.041814,92.294907,38.88031,-147.011703,,,
729716896.522103,-3.06595,4.564128,137.740488,-0.086945,-0.057922,0.990448,0.021657,0.01782,0.041814,92.294907,38.88031,-147.011703,,,
729716896.524331,-3.057864,4.569223,99.139471,-0.086945,-0.057922,0.990448,0.021657,0.01782,0.041814,92.294907,38.88031,-147.011703,,,
729716896.525154,-3.057863,4.569226,102.216322,-0.086945,-0.057922,0.990448,0.021657,0.01782,0.041814,92.294907,38.88031,-147.011703,,,
729716896.525311,-3.057862,4.569224,137.752677,-0.086945,-0.057922,0.990448,0.021657,0.01782,0.041814,92.294907,38.88031,-147.011703,,,
729716896.527018,-3.057864,4.569223,99.139471,-0.086945,-0.057922,0.990448,0.021657,0.01782,0.041814,92.294907,38.88031,-147.011703,,,
729716896.527334,-3.057863,4.569226,102.216322,-0.086945,-0.057922,0.990448,0.021657,0.01782,0.041814,92.294907,38.88031,-147.011703,,,
729716896.527983,-3.057862,4.569224,137.752677,-0.086945,-0.057922,0.990448,0.021657,0.01782,0.041814,92.294907,38.88031,-147.011703,,,
729716896.531404,-3.051395,4.572979,99.151361,-0.089188,-0.053009,0.987518,0.019757,0.013562,0.039774,92.294907,38.88031,-147.011703,,,
729716896.532938,-3.051394,4.572982,102.228212,-0.089188,-0.053009,0.987518,0.019757,0.013562,0.039774,92.291855,38.835312,-146.875366,,,
729716896.533089,-3.051393,4.572979,137.764567,-0.089188,-0.053009,0.987518,0.019757,0.013562,0.039774,92.291855,38.835312,-146.875366,,,
729716896.534263,-3.045384,4.575423,99.162404,-0.089188,-0.053009,0.987518,0.019757,0.013562,0.039774,92.291855,38.835312,-146.875366,,,
729716896.534886,-3.045383,4.575425,102.239254,-0.089188,-0.053009,0.987518,0.019757,0.013562,0.039774,92.291855,38.835312,-146.875366,,,
729716896.535038,-3.045382,4.575423,137.775607,-0.089188,-0.053009,0.987518,0.019757,0.013562,0.039774,92.291855,38.835312,-146.875366,,,
729716896.537051,-3.045384,4.575423,99.162404,-0.089188,-0.053009,0.987518,0.019757,0.013562,0.039774,92.291855,38.835312,-146.875366,,,
729716896.537321,-3.045383,4.575425,102.239254,-0.089188,-0.053009,0.987518,0.019757,0.013562,0.039774,92.291855,38.835312,-146.875366,,,
729716896.537987,-3.045382,4.575423,137.775607,-0.089188,-0.053009,0.987518,0.019757,0.013562,0.039774,92.291855,38.835312,-146.875366,,,
729716896.54141,-3.040712,4.575928,99.172211,-0.085907,-0.049133,0.983643,0.011534,0.001094,0.030544,92.291855,38.835312,-146.875366,,,
729716896.542797,-3.040711,4.57593,102.249062,-0.085907,-0.049133,0.983643,0.011534,0.001094,0.030544,92.291855,38.835312,-146.875366,,,
729716896.54294,-3.04071,4.575928,137.785416,-0.085907,-0.049133,0.983643,0.011534,0.001094,0.030544,92.291855,38.835312,-146.875366,,,
729716896.543917,-3.038846,4.573366,99.180763,-0.085907,-0.049133,0.983643,0.011534,0.001094,0.030544,92.291855,38.835312,-146.875366,,,
729716896.544508,-3.038845,4.573369,102.257613,-0.085907,-0.049133,0.983643,0.011534,0.001094,0.030544,92.291855,38.835312,-146.875366,,,
729716896.544683,-3.038844,4.573367,137.793967,-0.085907,-0.049133,0.983643,0.011534,0.001094,0.030544,92.291855,38.835312,-146.875366,,,
729716896.547089,-3.038846,4.573366,99.180763,-0.085907,-0.049133,0.983643,0.011534,0.001094,0.030544,92.291855,38.835312,-146.875366,,,
729716896.547313,-3.038845,4.573369,102.257613,-0.085907,-0.049133,0.983643,0.011534,0.001094,0.030544,92.291855,38.835312,-146.875366,,,
729716896.547985,-3.038844,4.573367,137.793967,-0.085907,-0.049133,0.983643,0.011534,0.001094,0.030544,92.291855,38.835312,-146.875366,,,
729716896.552896,-3.038289,4.569411,99.188859,-0.086517,-0.048279,0.979614,-0.002039,-0.014713,0.025947,92.291855,38.835312,-146.875366,,,
729716896.555014,-3.038288,4.569414,102.26571,-0.086517,-0.048279,0.979614,-0.002039,-0.014713,0.025947,92.291855,38.835312,-146.875366,,,
729716896.555183,-3.039434,4.561792,137.808786,-0.086517,-0.048279,0.979614,-0.002039,-0.014713,0.025947,92.291855,38.835312,-146.875366,,,
729716896.555834,-3.039435,4.561791,99.195583,-0.086517,-0.048279,0.979614,-0.002039,-0.014713,0.025947,92.291855,38.835312,-146.875366,,,
729716896.556941,-3.039435,4.561791,99.195583,-0.086517,-0.048279,0.979614,-0.002039,-0.014713,0.025947,92.291855,38.835312,-146.875366,,,
729716896.557655,-3.039434,4.561794,102.272433,-0.086517,-0.048279,0.979614,-0.002039,-0.014713,0.025947,92.291855,38.835312,-146.875366,,,
729716896.557992,-3.039434,4.561792,137.808786,-0.086517,-0.048279,0.979614,-0.002039,-0.014713,0.025947,92.291855,38.835312,-146.875366,,,
729716896.561312,-3.041687,4.553413,99.200804,-0.084549,-0.050659,0.98027,-0.011032,-0.030021,0.014246,92.291855,38.835312,-146.875366,,,
729716896.56252,-3.041686,4.553415,102.277655,-0.084549,-0.050659,0.98027,-0.011032,-0.030021,0.014246,92.291855,38.835312,-146.875366,,,
729716896.562668,-3.041686,4.553413,137.814008,-0.084549,-0.050659,0.98027,-0.011032,-0.030021,0.014246,92.291855,38.835312,-146.875366,,,
729716896.563804,-3.044363,4.543079,99.20478,-0.084549,-0.050659,0.98027,-0.011032,-0.030021,0.014246,92.291855,38.835312,-146.875366,,,
729716896.564306,-3.044362,4.543081,102.28163,-0.084549,-0.050659,0.98027,-0.011032,-0.030021,0.014246,92.291855,38.835312,-146.875366,,,
729716896.564653,-3.044362,4.543079,137.817984,-0.084549,-0.050659,0.98027,-0.011032,-0.030021,0.014246,92.291855,38.835312,-146.875366,,,
729716896.567177,-3.044363,4.543079,99.20478,-0.084549,-0.050659,0.98027,-0.011032,-0.030021,0.014246,92.291855,38.835312,-146.875366,,,
