Time (sec),Pitch (deg),Roll (deg),Yaw(deg),X-Acceleration (g),Y-Acceleration (g),Z-Acceleration (g),Pitch Rate (deg/sec),Roll Rate (deg/sec),Yaw Rate (deg/sec),Magnetic Field in X direction (uT),Magnetic Field in Y direction (uT),Magnetic Field in Z Direction (uT),Latitude (deg),Longitude (deg),Altitude (m)
729705315.857014,-5.015689,0.529186,73.460773,-0.012985,-0.098206,1.006805,0.004519,0.010102,0.001348,86.915039,40.135895,-147.83493,,,
729705315.860331,-5.012054,0.528628,73.464889,-0.010788,-0.10022,1.001282,0.017769,-0.001596,0.019726,86.915039,40.135895,-147.83493,,,
729705315.863421,-5.012054,0.529094,73.471682,-0.010788,-0.10022,1.001282,0.017769,-0.001596,0.019726,86.915039,40.135895,-147.83493,,,
729705315.86703,-5.007843,0.529094,73.471682,-0.010788,-0.10022,1.001282,0.017769,-0.001596,0.019726,86.915039,40.135895,-147.83493,,,
729705315.870328,-5.001677,0.529118,73.479902,-0.009811,-0.095062,0.997971,0.020329,0.003931,0.031397,86.915039,40.135895,-147.83493,,,
729705315.873654,-4.9961,0.531926,73.489071,-0.009811,-0.095062,0.997971,0.020329,0.003931,0.031397,86.915039,40.135895,-147.83493,,,
729705315.876987,-4.9961,0.531926,73.489071,-0.009811,-0.095062,0.997971,0.020329,0.003931,0.031397,86.915039,40.135895,-147.83493,,,
729705315.880081,-4.991703,0.535284,73.4979,-0.001984,-0.084076,1.000565,0.014109,0.013509,0.02656,86.863312,40.128769,-147.777374,,,
729705315.883727,-4.988699,0.539451,73.505916,-0.001984,-0.084076,1.000565,0.014109,0.013509,0.02656,86.863312,40.128769,-147.777374,,,
729705315.887005,-4.988699,0.539451,73.505916,-0.001984,-0.084076,1.000565,0.014109,0.013509,0.02656,86.863312,40.128769,-147.777374,,,
729705315.89038,-4.987599,0.543939,73.513786,-0.000732,-0.077606,0.991562,-0.000251,0.015311,0.024684,86.863312,40.128769,-147.777374,,,
729705315.893673,-4.987392,0.54769,73.520703,-0.000732,-0.077606,0.991562,-0.000251,0.015311,0.024684,86.863312,40.128769,-147.777374,,,
729705315.896983,-4.987392,0.54769,73.520703,-0.000732,-0.077606,0.991562,-0.000251,0.015311,0.024684,86.863312,40.128769,-147.777374,,,
729705315.900326,-4.988932,0.550062,73.526411,-0.002121,-0.075607,0.984085,-0.009616,0.008716,0.015819,86.863312,40.128769,-147.777374,,,
729705315.903715,-4.992017,0.550661,73.531338,-0.002121,-0.075607,0.984085,-0.009616,0.008716,0.015819,86.863312,40.128769,-147.777374,,,
729705315.90701,-4.992017,0.550661,73.531338,-0.002121,-0.075607,0.984085,-0.009616,0.008716,0.015819,86.863312,40.128769,-147.777374,,,
729705315.91038,-4.994722,0.548355,73.535351,-0.005173,-0.075058,0.987381,-0.005763,-0.014904,0.009538,86.863312,40.128769,-147.777374,,,
729705315.913417,-4.994722,0.548355,73.535351,-0.005173,-0.075058,0.987381,-0.005763,-0.014904,0.009538,86.863312,40.128769,-147.777374,,,
729705315.917024,-4.996884,0.542613,73.538546,-0.005173,-0.075058,0.987381,-0.005763,-0.014904,0.009538,86.863312,40.128769,-147.777374,,,
729705315.920369,-4.997429,0.534606,73.541405,-0.007706,-0.075653,0.988846,-0.000477,-0.032447,0.008776,86.912445,40.160156,-147.663437,,,
729705315.923694,-4.998639,0.525042,73.544508,-0.007706,-0.075653,0.988846,-0.000477,-0.032447,0.008776,86.912445,40.160156,-147.663437,,,
729705315.926981,-4.998639,0.525042,73.544508,-0.007706,-0.075653,0.988846,-0.000477,-0.032447,0.008776,86.912445,40.160156,-147.663437,,,
729705315.930084,-4.997767,0.514262,73.547933,-0.013702,-0.074158,0.993286,0.0038,-0.037739,0.013879,86.912445,40.160156,-147.663437,,,
729705315.933788,-4.998772,0.503642,73.552186,-0.013702,-0.074158,0.993286,0.0038,-0.037739,0.013879,86.912445,40.160156,-147.663437,,,
729705315.936992,-4.998772,0.503642,73.552186,-0.013702,-0.074158,0.993286,0.0038,-0.037739,0.013879,86.912445,40.160156,-147.663437,,,
729705315.940325,-4.998931,0.492663,73.557647,-0.012573,-0.071777,0.992905,-0.000861,-0.034813,0.01923,86.912445,40.160156,-147.663437,,,
729705315.943686,-5.001567,0.482552,73.564022,-0.012573,-0.071777,0.992905,-0.000861,-0.034813,0.01923,86.912445,40.160156,-147.663437,,,
729705315.946756,-5.001567,0.482552,73.564022,-0.012573,-0.071777,0.992905,-0.000861,-0.034813,0.01923,86.912445,40.160156,-147.663437,,,
729705315.950343,-5.002759,0.47342,73.571882,-0.004349,-0.066696,0.989273,-0.001907,-0.027146,0.026756,86.912445,40.160156,-147.663437,,,
729705315.953689,-5.004358,0.465924,73.581245,-0.004349,-0.066696,0.989273,-0.001907,-0.027146,0.026756,86.912445,40.160156,-147.663437,,,
729705315.957006,-5.004358,0.465924,73.581245,-0.004349,-0.066696,0.989273,-0.001907,-0.027146,0.026756,86.912445,40.160156,-147.663437,,,
729705315.960366,-5.005902,0.461318,73.59185,-0.003464,-0.064331,0.992737,-0.004471,-0.011076,0.03857,86.912445,40.160156,-147.663437,,,
729705315.963428,-5.005902,0.461318,73.59185,-0.003464,-0.064331,0.992737,-0.004471,-0.011076,0.03857,86.868622,40.150238,-147.709198,,,
729705315.967077,-5.006214,0.457474,73.603701,-0.003464,-0.064331,0.992737,-0.004471,-0.011076,0.03857,86.868622,40.150238,-147.709198,,,
729705315.970318,-5.007267,0.456686,73.616074,-0.003448,-0.065323,0.991119,-0.0015,0.000873,0.042726,86.868622,40.150238,-147.709198,,,
729705315.973704,-5.006263,0.456969,73.628305,-0.003448,-0.065323,0.991119,-0.0015,0.000873,0.042726,86.868622,40.150238,-147.709198,,,
729705315.976975,-5.006263,0.456969,73.628305,-0.003448,-0.065323,0.991119,-0.0015,0.000873,0.042726,86.868622,40.150238,-147.709198,,,
729705315.980099,-5.005788,0.460019,73.640374,-0.003891,-0.065765,0.992233,0.008003,0.012342,0.044039,86.868622,40.150238,-147.709198,,,
729705315.983697,-5.005788,0.463183,73.652104,-0.003891,-0.065765,0.992233,0.008003,0.012342,0.044039,86.868622,40.150238,-147.709198,,,
729705315.987084,-5.001774,0.463183,73.652104,-0.003891,-0.065765,0.992233,0.008003,0.012342,0.044039,86.868622,40.150238,-147.709198,,,
729705315.990303,-4.998327,0.467618,73.664196,-0.009018,-0.06958,0.995392,0.017243,0.018165,0.040077,86.868622,40.150238,-147.709198,,,
729705315.993688,-4.991943,0.472623,73.676393,-0.009018,-0.06958,0.995392,0.017243,0.018165,0.040077,86.868622,40.150238,-147.709198,,,
729705315.996752,-4.991943,0.472623,73.676393,-0.009018,-0.06958,0.995392,0.017243,0.018165,0.040077,86.868622,40.150238,-147.709198,,,
729705316.00037,-4.985094,0.478336,73.68838,-0.009613,-0.07605,0.995621,0.028948,0.02035,0.039331,86.868622,40.150238,-147.709198,,,
729705316.003662,-4.985094,0.478336,73.68838,-0.009613,-0.07605,0.995621,0.028948,0.02035,0.039331,86.799149,40.001236,-147.84433,,,
729705316.007015,-4.974213,0.48411,73.700162,-0.009613,-0.07605,0.995621,0.028948,0.02035,0.039331,86.799149,40.001236,-147.84433,,,
729705316.010378,-4.963102,0.488365,73.711375,-0.006607,-0.08194,0.994461,0.044219,0.011428,0.034876,86.799149,40.001236,-147.84433,,,
729705316.013419,-4.963102,0.488365,73.711375,-0.006607,-0.08194,0.994461,0.044219,0.011428,0.034876,86.799149,40.001236,-147.84433,,,
729705316.017007,-4.947941,0.492163,73.722447,-0.006607,-0.08194,0.994461,0.044219,0.011428,0.034876,86.799149,40.001236,-147.84433,,,
729705316.020381,-4.93235,0.493633,73.733588,-0.008789,-0.086716,0.992142,0.059851,0.002121,0.037961,86.799149,40.001236,-147.84433,,,
729705316.023699,-4.93235,0.493633,73.733588,-0.008789,-0.086716,0.992142,0.059851,0.002121,0.037961,86.799149,40.001236,-147.84433,,,
729705316.02699,-4.912076,0.494532,73.744137,-0.008789,-0.086716,0.992142,0.059851,0.002121,0.037961,86.799149,40.001236,-147.84433,,,
729705316.030101,-4.89183,0.495236,73.753937,-0.0112,-0.089432,0.993683,0.076787,0.004386,0.02828,86.799149,40.001236,-147.84433,,,
729705316.03376,-4.89183,0.495287,73.762597,-0.0112,-0.089432,0.993683,0.076787,0.004386,0.02828,86.799149,40.001236,-147.84433,,,
729705316.037002,-4.866412,0.495287,73.762597,-0.0112,-0.089432,0.993683,0.076787,0.004386,0.02828,86.799149,40.001236,-147.84433,,,
729705316.040328,-4.841739,0.497838,73.769945,-0.009277,-0.087479,0.99176,0.091886,0.015475,0.024213,86.799149,40.001236,-147.84433,,,
729705316.043647,-4.841739,0.497838,73.769945,-0.009277,-0.087479,0.99176,0.091886,0.015475,0.024213,86.948227,39.656036,-147.885162,,,
729705316.046768,-4.811927,0.501142,73.777167,-0.009277,-0.087479,0.99176,0.091886,0.015475,0.024213,86.948227,39.656036,-147.885162,,,
729705316.05034,-4.78447,0.505924,73.785233,-0.01358,-0.089462,0.986069,0.091593,0.019297,0.027872,86.948227,39.656036,-147.885162,,,
729705316.053707,-4.78447,0.505924,73.785233,-0.01358,-0.089462,0.986069,0.091593,0.019297,0.027872,86.948227,39.656036,-147.885162,,,
729705316.057002,-4.754165,0.510757,73.794406,-0.01358,-0.089462,0.986069,0.091593,0.019297,0.027872,86.948227,39.656036,-147.885162,,,
729705316.060418,-4.726758,0.517926,73.804934,-0.015015,-0.093491,0.980148,0.096285,0.03072,0.037982,86.948227,39.656036,-147.885162,,,
729705316.063378,-4.726758,0.517926,73.804934,-0.015015,-0.093491,0.980148,0.096285,0.03072,0.037982,86.948227,39.656036,-147.885162,,,
729705316.067048,-4.697251,0.527332,73.816498,-0.015015,-0.093491,0.980148,0.096285,0.03072,0.037982,86.948227,39.656036,-147.885162,,,
729705316.070317,-4.66989,0.539651,73.829278,-0.009659,-0.088989,0.98233,0.096752,0.047916,0.044957,86.948227,39.656036,-147.885162,,,
729705316.073664,-4.66989,0.539651,73.829278,-0.009659,-0.088989,0.98233,0.096752,0.047916,0.044957,86.948227,39.656036,-147.885162,,,
729705316.076994,-4.641867,0.553883,73.842546,-0.009659,-0.088989,0.98233,0.096752,0.047916,0.044957,86.948227,39.656036,-147.885162,,,
729705316.080078,-4.61568,0.569235,73.855786,0.000107,-0.081055,0.978592,0.090117,0.05607,0.046216,86.948227,39.656036,-147.885162,,,
729705316.083677,-4.61568,0.569235,73.855786,0.000107,-0.081055,0.978592,0.090117,0.05607,0.046216,86.948227,39.656036,-147.885162,,,
729705316.08772,-4.590507,0.584808,73.869276,0.000107,-0.081055,0.978592,0.090117,0.05607,0.046216,87.178589,39.483047,-148.069412,,,
729705316.090237,-4.567645,0.600985,73.882623,0.003677,-0.070618,0.97493,0.072267,0.058855,0.043655,87.178589,39.483047,-148.069412,,,
729705316.09369,-4.567645,0.600985,73.882623,0.003677,-0.070618,0.97493,0.072267,0.058855,0.043655,87.178589,39.483047,-148.069412,,,
729705316.09682,-4.548137,0.617091,73.894825,0.003677,-0.070618,0.97493,0.072267,0.058855,0.043655,87.178589,39.483047,-148.069412,,,
729705316.100357,-4.531356,0.63352,73.905774,0.004913,-0.065948,0.971924,0.048035,0.053774,0.033807,87.178589,39.483047,-148.069412,,,
729705316.103662,-4.531356,0.63352,73.905774,0.004913,-0.065948,0.971924,0.048035,0.053774,0.033807,87.178589,39.483047,-148.069412,,,
729705316.107111,-4.519104,0.648831,73.915891,0.004913,-0.065948,0.971924,0.048035,0.053774,0.033807,87.178589,39.483047,-148.069412,,,
729705316.110417,-4.507815,0.662101,73.925166,0.006561,-0.065308,0.967789,0.032835,0.041831,0.029519,87.178589,39.483047,-148.069412,,,
729705316.113435,-4.507815,0.662101,73.925166,0.006561,-0.065308,0.967789,0.032835,0.041831,0.029519,87.178589,39.483047,-148.069412,,,
729705316.117022,-4.500707,0.673113,73.933271,0.006561,-0.065308,0.967789,0.032835,0.041831,0.029519,87.178589,39.483047,-148.069412,,,
729705316.120153,-4.495086,0.683397,73.94084,0.00798,-0.064789,0.971436,0.015423,0.035151,0.023099,87.178589,39.483047,-148.069412,,,
729705316.123758,-4.495086,0.683397,73.94084,0.00798,-0.064789,0.971436,0.015423,0.035151,0.023099,87.178589,39.483047,-148.069412,,,
729705316.126991,-4.493027,0.692388,73.94788,0.00798,-0.064789,0.971436,0.015423,0.035151,0.023099,87.323486,39.288788,-148.037537,,,
729705316.130102,-4.491657,0.699294,73.953864,0.009171,-0.066132,0.977463,0.001482,0.021358,0.018524,87.323486,39.288788,-148.037537,,,
729705316.133698,-4.491657,0.699294,73.953864,0.009171,-0.066132,0.977463,0.001482,0.021358,0.018524,87.323486,39.288788,-148.037537,,,
729705316.136994,-4.49326,0.705049,73.959196,0.009171,-0.066132,0.977463,0.001482,0.021358,0.018524,87.323486,39.288788,-148.037537,,,
729705316.140346,-4.493926,0.708784,73.964009,0.004395,-0.068558,0.982224,-0.003094,0.009158,0.01001,87.323486,39.288788,-148.037537,,,
729705316.143655,-4.493926,0.708784,73.964009,0.004395,-0.068558,0.982224,-0.003094,0.009158,0.01001,87.323486,39.288788,-148.037537,,,
729705316.146761,-4.496897,0.710444,73.967967,0.004395,-0.068558,0.982224,-0.003094,0.009158,0.01001,87.323486,39.288788,-148.037537,,,
729705316.150349,-4.498401,0.71014,73.970604,-0.000473,-0.064728,0.989273,-0.007173,-0.000496,0.006106,87.323486,39.288788,-148.037537,,,
729705316.153675,-4.498401,0.71014,73.970604,-0.000473,-0.064728,0.989273,-0.007173,-0.000496,0.006106,87.323486,39.288788,-148.037537,,,
729705316.157008,-4.501817,0.708232,73.972321,-0.000473,-0.064728,0.989273,-0.007173,-0.000496,0.006106,87.323486,39.288788,-148.037537,,,
729705316.160315,-4.506164,0.707216,73.974591,-0.001602,-0.061081,0.994781,-0.017785,0.001428,0.006249,87.323486,39.288788,-148.037537,,,
729705316.163412,-4.506164,0.707216,73.974591,-0.001602,-0.061081,0.994781,-0.017785,0.001428,0.006249,87.323486,39.288788,-148.037537,,,
729705316.167076,-4.512119,0.705149,73.977622,-0.001602,-0.061081,0.994781,-0.017785,0.001428,0.006249,87.194077,39.438538,-147.79837,,,
729705316.170318,-4.519433,0.706037,73.981826,-0.006577,-0.066956,0.999237,-0.026085,0.006138,0.017168,87.194077,39.438538,-147.79837,,,
729705316.173543,-4.519433,0.706037,73.981826,-0.006577,-0.066956,0.999237,-0.026085,0.006138,0.017168,87.194077,39.438538,-147.79837,,,
729705316.176997,-4.526114,0.705969,73.987134,-0.006577,-0.066956,0.999237,-0.026085,0.006138,0.017168,87.194077,39.438538,-147.79837,,,
729705316.180091,-4.534898,0.708168,73.9933,-0.007278,-0.070999,1.00592,-0.031387,0.009579,0.020333,87.194077,39.438538,-147.79837,,,
729705316.183679,-4.534898,0.708168,73.9933,-0.007278,-0.070999,1.00592,-0.031387,0.009579,0.020333,87.194077,39.438538,-147.79837,,,
729705316.187077,-4.543618,0.708188,73.999481,-0.007278,-0.070999,1.00592,-0.031387,0.009579,0.020333,87.194077,39.438538,-147.79837,,,
729705316.190313,-4.555252,0.710354,74.005451,-0.008408,-0.067627,1.006287,-0.045163,0.007176,0.018266,87.194077,39.438538,-147.79837,,,
729705316.193678,-4.555252,0.710354,74.005451,-0.008408,-0.067627,1.006287,-0.045163,0.007176,0.018266,87.194077,39.438538,-147.79837,,,
729705316.196774,-4.56721,0.710214,74.011037,-0.008408,-0.067627,1.006287,-0.045163,0.007176,0.018266,87.194077,39.438538,-147.79837,,,
729705316.200391,-4.582316,0.712926,74.016475,-0.006851,-0.069901,1.011475,-0.054188,0.01311,0.013804,87.194077,39.438538,-147.79837,,,
729705316.20368,-4.582316,0.712926,74.016475,-0.006851,-0.069901,1.011475,-0.054188,0.01311,0.013804,87.194077,39.438538,-147.79837,,,
729705316.207098,-4.596693,0.712539,74.021172,-0.006851,-0.069901,1.011475,-0.054188,0.01311,0.013804,87.132904,39.502274,-147.743576,,,
729705316.210311,-4.613304,0.713818,74.025764,-0.006699,-0.077057,1.015717,-0.056934,0.001102,0.010864,87.132904,39.502274,-147.743576,,,
729705316.213432,-4.613304,0.713818,74.025764,-0.006699,-0.077057,1.015717,-0.056934,0.001102,0.010864,87.132904,39.502274,-147.743576,,,
729705316.21703,-4.627976,0.709386,74.029807,-0.006699,-0.077057,1.015717,-0.056934,0.001102,0.010864,87.132904,39.502274,-147.743576,,,
729705316.220344,-4.643404,0.705685,74.033839,-0.008331,-0.082809,1.015625,-0.04778,-0.017683,0.010219,87.132904,39.502274,-147.743576,,,
729705316.223653,-4.643404,0.705685,74.033839,-0.008331,-0.082809,1.015625,-0.04778,-0.017683,0.010219,87.132904,39.502274,-147.743576,,,
729705316.227042,-4.655061,0.697555,74.036853,-0.008331,-0.082809,1.015625,-0.04778,-0.017683,0.010219,87.132904,39.502274,-147.743576,,,
729705316.230099,-4.66654,0.68948,74.039471,-0.008881,-0.08902,1.023071,-0.032784,-0.030531,0.008775,87.132904,39.502274,-147.743576,,,
729705316.233696,-4.66654,0.68948,74.039471,-0.008881,-0.08902,1.023071,-0.032784,-0.030531,0.008775,87.132904,39.502274,-147.743576,,,
729705316.237074,-4.672955,0.677664,74.041587,-0.008881,-0.08902,1.023071,-0.032784,-0.030531,0.008775,87.132904,39.502274,-147.743576,,,
729705316.240393,-4.679682,0.666154,74.043611,-0.007935,-0.092514,1.023148,-0.014443,-0.037181,0.003296,87.132904,39.502274,-147.743576,,,
729705316.243646,-4.679682,0.666154,74.043611,-0.007935,-0.092514,1.023148,-0.014443,-0.037181,0.003296,87.132904,39.502274,-147.743576,,,
729705316.246787,-4.680422,0.653375,74.044972,-0.007935,-0.092514,1.023148,-0.014443,-0.037181,0.003296,87.132904,39.502274,-147.743576,,,
729705316.25034,-4.68099,0.642478,74.046018,-0.005051,-0.094177,1.023666,0.002684,-0.026951,0.004825,87.379913,39.673965,-147.724411,,,
729705316.253743,-4.68099,0.642478,74.046018,-0.005051,-0.094177,1.023666,0.002684,-0.026951,0.004825,87.379913,39.673965,-147.724411,,,
729705316.256995,-4.677721,0.633023,74.047884,-0.005051,-0.094177,1.023666,0.002684,-0.026951,0.004825,87.379913,39.673965,-147.724411,,,
729705316.260311,-4.675613,0.626832,74.051292,-0.003647,-0.092834,1.018326,0.010927,-0.009711,0.014557,87.379913,39.673965,-147.724411,,,
729705316.263417,-4.675613,0.626832,74.051292,-0.003647,-0.092834,1.018326,0.010927,-0.009711,0.014557,87.379913,39.673965,-147.724411,,,
729705316.267079,-4.670905,0.623778,74.056649,-0.003647,-0.092834,1.018326,0.010927,-0.009711,0.014557,87.379913,39.673965,-147.724411,,,
729705316.270314,-4.666858,0.62419,74.064383,-0.005692,-0.091309,1.008072,0.01398,0.010446,0.032189,87.379913,39.673965,-147.724411,,,
729705316.273653,-4.666858,0.62419,74.064383,-0.005692,-0.091309,1.008072,0.01398,0.010446,0.032189,87.379913,39.673965,-147.724411,,,
729705316.277053,-4.661142,0.626612,74.074885,-0.005692,-0.091309,1.008072,0.01398,0.010446,0.032189,87.379913,39.673965,-147.724411,,,
729705316.280091,-4.659314,0.63192,74.087897,-0.009689,-0.082825,0.997421,0.001529,0.024025,0.04829,87.379913,39.673965,-147.724411,,,
729705316.28368,-4.659314,0.63192,74.087897,-0.009689,-0.082825,0.997421,0.001529,0.024025,0.04829,87.379913,39.673965,-147.724411,,,
729705316.286972,-4.658357,0.639055,74.102379,-0.009689,-0.082825,0.997421,0.001529,0.024025,0.04829,87.379913,39.673965,-147.724411,,,
729705316.290304,-4.661195,0.647767,74.11764,-0.012222,-0.071365,0.987396,-0.012591,0.031603,0.052757,87.389511,39.41861,-147.920792,,,
729705316.293654,-4.661195,0.647767,74.11764,-0.012222,-0.071365,0.987396,-0.012591,0.031603,0.052757,87.389511,39.41861,-147.920792,,,
729705316.2968,-4.665767,0.655642,74.133272,-0.012222,-0.071365,0.987396,-0.012591,0.031603,0.052757,87.389511,39.41861,-147.920792,,,
729705316.300475,-4.67192,0.663144,74.148722,-0.010941,-0.064636,0.982239,-0.021763,0.020566,0.049862,87.389511,39.41861,-147.920792,,,
729705316.303649,-4.67192,0.663144,74.148722,-0.010941,-0.064636,0.982239,-0.021763,0.020566,0.049862,87.389511,39.41861,-147.920792,,,
729705316.306987,-4.679298,0.668134,74.163055,-0.010941,-0.064636,0.982239,-0.021763,0.020566,0.049862,87.389511,39.41861,-147.920792,,,
729705316.310311,-4.688153,0.671839,74.175742,-0.007889,-0.06192,0.976151,-0.035628,0.006117,0.040523,87.389511,39.41861,-147.920792,,,
729705316.31343,-4.688153,0.671839,74.175742,-0.007889,-0.06192,0.976151,-0.035628,0.006117,0.040523,87.389511,39.41861,-147.920792,,,
729705316.317015,-4.700529,0.672832,74.186888,-0.007889,-0.06192,0.976151,-0.035628,0.006117,0.040523,87.389511,39.41861,-147.920792,,,
729705316.320302,-4.71304,0.670932,74.196993,-0.007568,-0.062851,0.978638,-0.043652,-0.014141,0.030898,87.389511,39.41861,-147.920792,,,
729705316.32365,-4.71304,0.670932,74.196993,-0.007568,-0.062851,0.978638,-0.043652,-0.014141,0.030898,87.389511,39.41861,-147.920792,,,
729705316.327034,-4.726574,0.664567,74.206062,-0.007568,-0.062851,0.978638,-0.043652,-0.014141,0.030898,87.389511,39.41861,-147.920792,,,
729705316.330065,-4.737653,0.654742,74.213802,-0.006042,-0.064667,0.985245,-0.033822,-0.045101,0.020663,87.184677,39.484741,-147.71199,,,
729705316.333702,-4.737653,0.654742,74.213802,-0.006042,-0.064667,0.985245,-0.033822,-0.045101,0.020663,87.184677,39.484741,-147.71199,,,
729705316.336994,-4.748791,0.639276,74.220182,-0.006042,-0.064667,0.985245,-0.033822,-0.045101,0.020663,87.184677,39.484741,-147.71199,,,
729705316.340314,-4.756816,0.620854,74.226313,-0.002518,-0.070648,0.990173,-0.019581,-0.06901,0.017164,87.184677,39.484741,-147.71199,,,
729705316.343657,-4.756816,0.620854,74.226313,-0.002518,-0.070648,0.990173,-0.019581,-0.06901,0.017164,87.184677,39.484741,-147.71199,,,
729705316.346758,-4.763673,0.599165,74.231878,-0.002518,-0.070648,0.990173,-0.019581,-0.06901,0.017164,87.184677,39.484741,-147.71199,,,
729705316.350336,-4.767172,0.577257,74.237391,-0.005127,-0.075745,1.000809,-0.007004,-0.075008,0.016659,87.184677,39.484741,-147.71199,,,
729705316.353635,-4.767172,0.577257,74.237391,-0.005127,-0.075745,1.000809,-0.007004,-0.075008,0.016659,87.184677,39.484741,-147.71199,,,
729705316.356978,-4.769434,0.55381,74.242651,-0.005127,-0.075745,1.000809,-0.007004,-0.075008,0.016659,87.184677,39.484741,-147.71199,,,
729705316.360308,-4.77003,0.529646,74.247819,-0.006332,-0.081314,1.008194,0.000615,-0.08347,0.017355,87.184677,39.484741,-147.71199,,,
729705316.363404,-4.77003,0.529646,74.247819,-0.006332,-0.081314,1.008194,0.000615,-0.08347,0.017355,87.184677,39.484741,-147.71199,,,
729705316.367063,-4.768917,0.505062,74.25347,-0.006332,-0.081314,1.008194,0.000615,-0.08347,0.017355,87.184677,39.484741,-147.71199,,,
729705316.370333,-4.767874,0.480173,74.259103,-0.013626,-0.086029,1.008957,0.008093,-0.082784,0.019258,86.920807,39.654922,-147.629395,,,
729705316.373649,-4.767874,0.480173,74.259103,-0.013626,-0.086029,1.008957,0.008093,-0.082784,0.019258,86.920807,39.654922,-147.629395,,,
729705316.377042,-4.763303,0.457864,74.265247,-0.013626,-0.086029,1.008957,0.008093,-0.082784,0.019258,86.920807,39.654922,-147.629395,,,
729705316.380239,-4.759255,0.438713,74.272303,-0.014343,-0.087067,1.014755,0.018444,-0.056654,0.024637,86.920807,39.654922,-147.629395,,,
729705316.383687,-4.759255,0.438713,74.272303,-0.014343,-0.087067,1.014755,0.018444,-0.056654,0.024637,86.920807,39.654922,-147.629395,,,
729705316.386982,-4.751101,0.423642,74.280718,-0.014343,-0.087067,1.014755,0.018444,-0.056654,0.024637,86.920807,39.654922,-147.629395,,,
729705316.390312,-4.745504,0.410724,74.291103,-0.014648,-0.090607,1.013657,0.01612,-0.039467,0.040681,86.920807,39.654922,-147.629395,,,
729705316.393661,-4.745504,0.410724,74.291103,-0.014648,-0.090607,1.013657,0.01612,-0.039467,0.040681,86.920807,39.654922,-147.629395,,,
729705316.396741,-4.738231,0.399956,74.303581,-0.014648,-0.090607,1.013657,0.01612,-0.039467,0.040681,86.920807,39.654922,-147.629395,,,
729705316.400389,-4.735063,0.391754,74.318423,-0.018646,-0.092667,1.001083,0.006248,-0.023924,0.056888,86.920807,39.654922,-147.629395,,,
729705316.403654,-4.735063,0.391754,74.318423,-0.018646,-0.092667,1.001083,0.006248,-0.023924,0.056888,86.920807,39.654922,-147.629395,,,
729705316.407011,-4.731643,0.385883,74.335309,-0.018646,-0.092667,1.001083,0.006248,-0.023924,0.056888,86.920807,39.654922,-147.629395,,,
729705316.410317,-4.734644,0.381501,74.353855,-0.021698,-0.091904,0.996994,-0.018302,-0.017441,0.066327,86.920807,39.654922,-147.629395,,,
729705316.413417,-4.734644,0.381501,74.353855,-0.021698,-0.091904,0.996994,-0.018302,-0.017441,0.066327,86.997116,39.726654,-147.57309,,,
729705316.417018,-4.738881,0.376708,74.373559,-0.021698,-0.091904,0.996994,-0.018302,-0.017441,0.066327,86.997116,39.726654,-147.57309,,,
729705316.420306,-4.747776,0.370706,74.392743,-0.022247,-0.090332,0.991058,-0.034851,-0.028533,0.060361,86.997116,39.726654,-147.57309,,,
729705316.42364,-4.747776,0.370706,74.392743,-0.022247,-0.090332,0.991058,-0.034851,-0.028533,0.060361,86.997116,39.726654,-147.57309,,,
729705316.427084,-4.756579,0.361708,74.410033,-0.022247,-0.090332,0.991058,-0.034851,-0.028533,0.060361,86.997116,39.726654,-147.57309,,,
729705316.43007,-4.767276,0.34975,74.424558,-0.018692,-0.089478,0.989838,-0.034819,-0.055143,0.042646,86.997116,39.726654,-147.57309,,,
729705316.433701,-4.767276,0.34975,74.424558,-0.018692,-0.089478,0.989838,-0.034819,-0.055143,0.042646,86.997116,39.726654,-147.57309,,,
729705316.436985,-4.776945,0.333664,74.436519,-0.018692,-0.089478,0.989838,-0.034819,-0.055143,0.042646,86.997116,39.726654,-147.57309,,,
729705316.440311,-4.785572,0.312175,74.447214,-0.022232,-0.08992,0.988861,-0.026335,-0.089724,0.030435,86.997116,39.726654,-147.57309,,,
729705316.443646,-4.785572,0.312175,74.447214,-0.022232,-0.08992,0.988861,-0.026335,-0.089724,0.030435,86.997116,39.726654,-147.57309,,,
729705316.447003,-4.792281,0.285854,74.456451,-0.022232,-0.08992,0.988861,-0.026335,-0.089724,0.030435,86.997116,39.726654,-147.57309,,,
729705316.450319,-4.798048,0.254543,74.46426,-0.018738,-0.092331,0.988388,-0.017637,-0.115094,0.024062,86.997116,39.726654,-147.57309,,,
729705316.453653,-4.798048,0.254543,74.46426,-0.018738,-0.092331,0.988388,-0.017637,-0.115094,0.024062,86.899658,39.408829,-147.561066,,,
729705316.456993,-4.803562,0.221637,74.472101,-0.018738,-0.092331,0.988388,-0.017637,-0.115094,0.024062,86.899658,39.408829,-147.561066,,,
729705316.46031,-4.808793,0.186427,74.480427,-0.01741,-0.097351,0.983109,-0.019192,-0.121586,0.032187,86.899658,39.408829,-147.561066,,,
729705316.463447,-4.808793,0.186427,74.480427,-0.01741,-0.097351,0.983109,-0.019192,-0.121586,0.032187,86.899658,39.408829,-147.561066,,,
729705316.467057,-4.813952,0.153312,74.490236,-0.01741,-0.097351,0.983109,-0.019192,-0.121586,0.032187,86.899658,39.408829,-147.561066,,,
729705316.47031,-4.81907,0.121879,74.501523,-0.009613,-0.101456,0.987396,-0.01809,-0.097685,0.03995,86.899658,39.408829,-147.561066,,,
729705316.473666,-4.81907,0.121879,74.501523,-0.009613,-0.101456,0.987396,-0.01809,-0.097685,0.03995,86.899658,39.408829,-147.561066,,,
729705316.477069,-4.826037,0.097758,74.514003,-0.009613,-0.101456,0.987396,-0.01809,-0.097685,0.03995,86.899658,39.408829,-147.561066,,,
729705316.48008,-4.832609,0.077121,74.528363,0.002213,-0.096649,0.98877,-0.027656,-0.054139,0.055488,86.899658,39.408829,-147.561066,,,
729705316.483677,-4.832609,0.077121,74.528363,0.002213,-0.096649,0.98877,-0.027656,-0.054139,0.055488,86.899658,39.408829,-147.561066,,,
729705316.487025,-4.841974,0.065753,74.545155,0.002213,-0.096649,0.98877,-0.027656,-0.054139,0.055488,86.899658,39.408829,-147.561066,,,
729705316.490302,-4.85289,0.058545,74.562121,0.007309,-0.090942,0.986969,-0.041998,-0.012652,0.054563,86.899658,39.408829,-147.561066,,,
729705316.493638,-4.85289,0.058545,74.562121,0.007309,-0.090942,0.986969,-0.041998,-0.012652,0.054563,86.913651,39.431747,-147.935333,,,
729705316.496732,-4.866888,0.061065,74.578549,0.007309,-0.090942,0.986969,-0.041998,-0.012652,0.054563,86.913651,39.431747,-147.935333,,,
729705316.500362,-4.880528,0.065322,74.59346,0.009018,-0.087204,0.985153,-0.049782,0.023654,0.050124,86.913651,39.431747,-147.935333,,,
729705316.503649,-4.880528,0.065322,74.59346,0.009018,-0.087204,0.985153,-0.049782,0.023654,0.050124,86.913651,39.431747,-147.935333,,,
729705316.506996,-4.895799,0.075118,74.607932,0.009018,-0.087204,0.985153,-0.049782,0.023654,0.050124,86.913651,39.431747,-147.935333,,,
729705316.510312,-4.910891,0.082705,74.621717,0.003403,-0.088852,0.979309,-0.053493,0.026288,0.044056,86.913651,39.431747,-147.935333,,,
729705316.513473,-4.910891,0.082705,74.621717,0.003403,-0.088852,0.979309,-0.053493,0.026288,0.044056,86.913651,39.431747,-147.935333,,,
729705316.517003,-4.927159,0.092009,74.634992,0.003403,-0.088852,0.979309,-0.053493,0.026288,0.044056,86.913651,39.431747,-147.935333,,,
729705316.520017,-4.943032,0.095376,74.64734,-0.00058,-0.090179,0.972015,-0.054669,-0.0009,0.040267,86.913651,39.431747,-147.935333,,,
729705316.52368,-4.943032,0.095376,74.64734,-0.00058,-0.090179,0.972015,-0.054669,-0.0009,0.040267,86.913651,39.431747,-147.935333,,,
729705316.527048,-4.959388,0.097123,74.658931,-0.00058,-0.090179,0.972015,-0.054669,-0.0009,0.040267,86.913651,39.431747,-147.935333,,,
729705316.530166,-4.974749,0.0917,74.66929,-0.001038,-0.09021,0.96933,-0.053108,-0.028982,0.031755,86.913651,39.431747,-147.935333,,,
729705316.533756,-4.974749,0.0917,74.66929,-0.001038,-0.09021,0.96933,-0.053108,-0.028982,0.031755,86.810577,39.736038,-147.894882,,,
729705316.537052,-4.99137,0.085032,74.678969,-0.001038,-0.09021,0.96933,-0.053108,-0.028982,0.031755,86.810577,39.736038,-147.894882,,,
729705316.540323,-5.006384,0.071573,74.688006,-0.000641,-0.091537,0.966492,-0.051009,-0.057213,0.029948,86.810577,39.736038,-147.894882,,,
729705316.543667,-5.006384,0.071573,74.688006,-0.000641,-0.091537,0.966492,-0.051009,-0.057213,0.029948,86.810577,39.736038,-147.894882,,,
729705316.546769,-5.023085,0.05591,74.69703,-0.000641,-0.091537,0.966492,-0.051009,-0.057213,0.029948,86.810577,39.736038,-147.894882,,,
729705316.550371,-5.037646,0.034752,74.705095,-0.00087,-0.091995,0.962265,-0.046484,-0.080158,0.02507,86.810577,39.736038,-147.894882,,,
729705316.553732,-5.037646,0.034752,74.705095,-0.00087,-0.091995,0.962265,-0.046484,-0.080158,0.02507,86.810577,39.736038,-147.894882,,,
729705316.556988,-5.053001,0.011629,74.712328,-0.00087,-0.091995,0.962265,-0.046484,-0.080158,0.02507,86.810577,39.736038,-147.894882,,,
729705316.560314,-5.066548,-0.012318,74.718951,-0.00148,-0.094604,0.967239,-0.047753,-0.087484,0.023197,86.810577,39.736038,-147.894882,,,
729705316.563473,-5.066548,-0.012318,74.718951,-0.00148,-0.094604,0.967239,-0.047753,-0.087484,0.023197,86.810577,39.736038,-147.894882,,,
729705316.567007,-5.08089,-0.038056,74.725751,-0.00148,-0.094604,0.967239,-0.047753,-0.087484,0.023197,86.810577,39.736038,-147.894882,,,
729705316.570313,-5.094823,-0.064451,74.733693,-0.007675,-0.097015,0.96312,-0.045044,-0.092219,0.031502,86.810577,39.736038,-147.894882,,,
729705316.573651,-5.094823,-0.064451,74.733693,-0.007675,-0.097015,0.96312,-0.045044,-0.092219,0.031502,86.810577,39.736038,-147.894882,,,
729705316.577017,-5.107761,-0.090711,74.743149,-0.007675,-0.097015,0.96312,-0.045044,-0.092219,0.031502,86.539703,39.82135,-147.786057,,,
729705316.580095,-5.119826,-0.114597,74.75449,-0.00592,-0.093918,0.968964,-0.040993,-0.080025,0.043106,86.539703,39.82135,-147.786057,,,
729705316.583691,-5.119826,-0.114597,74.75449,-0.00592,-0.093918,0.968964,-0.040993,-0.080025,0.043106,86.539703,39.82135,-147.786057,,,
729705316.586977,-5.131988,-0.136821,74.767422,-0.00592,-0.093918,0.968964,-0.040993,-0.080025,0.043106,86.539703,39.82135,-147.786057,,,
729705316.590309,-5.144624,-0.156163,74.781318,0.001221,-0.09053,0.967224,-0.047256,-0.063511,0.049001,86.539703,39.82135,-147.786057,,,
729705316.593639,-5.144624,-0.156163,74.781318,0.001221,-0.09053,0.967224,-0.047256,-0.063511,0.049001,86.539703,39.82135,-147.786057,,,
729705316.596736,-5.157827,-0.173106,74.795708,0.001221,-0.09053,0.967224,-0.047256,-0.063511,0.049001,86.539703,39.82135,-147.786057,,,
729705316.600338,-5.170641,-0.187567,74.80967,0.008667,-0.085526,0.966873,-0.040696,-0.043015,0.041063,86.539703,39.82135,-147.786057,,,
729705316.60365,-5.170641,-0.187567,74.80967,0.008667,-0.085526,0.966873,-0.040696,-0.043015,0.041063,86.539703,39.82135,-147.786057,,,
729705316.606973,-5.183674,-0.198731,74.821687,0.008667,-0.085526,0.966873,-0.040696,-0.043015,0.041063,86.539703,39.82135,-147.786057,,,
729705316.610305,-5.197194,-0.207573,74.830549,0.017319,-0.077484,0.969437,-0.050941,-0.024557,0.018271,86.539703,39.82135,-147.786057,,,
729705316.613642,-5.197194,-0.207573,74.830549,0.017319,-0.077484,0.969437,-0.050941,-0.024557,0.018271,86.539703,39.82135,-147.786057,,,
729705316.616974,-5.211647,-0.213722,74.836141,0.017319,-0.077484,0.969437,-0.050941,-0.024557,0.018271,86.375671,39.890411,-147.540604,,,
729705316.620311,-5.226488,-0.21835,74.839061,0.014648,-0.075104,0.974243,-0.053623,-0.01081,0.002963,86.375671,39.890411,-147.540604,,,
729705316.623642,-5.226488,-0.21835,74.839061,0.014648,-0.075104,0.974243,-0.053623,-0.01081,0.002963,86.375671,39.890411,-147.540604,,,
729705316.627036,-5.24162,-0.222537,74.839984,0.014648,-0.075104,0.974243,-0.053623,-0.01081,0.002963,86.375671,39.890411,-147.540604,,,
729705316.6301,-5.256067,-0.229016,74.839563,0.008423,-0.081726,0.980453,-0.048408,-0.026736,-0.004027,86.375671,39.890411,-147.540604,,,
729705316.633685,-5.256067,-0.229016,74.839563,0.008423,-0.081726,0.980453,-0.048408,-0.026736,-0.004027,86.375671,39.890411,-147.540604,,,
729705316.636986,-5.270246,-0.237816,74.838709,0.008423,-0.081726,0.980453,-0.048408,-0.026736,-0.004027,86.375671,39.890411,-147.540604,,,
729705316.640313,-5.283835,-0.248704,74.837634,0.010696,-0.087997,0.982483,-0.044194,-0.037978,-0.003532,86.375671,39.890411,-147.540604,,,
729705316.643665,-5.283835,-0.248704,74.837634,0.010696,-0.087997,0.982483,-0.044194,-0.037978,-0.003532,86.375671,39.890411,-147.540604,,,
729705316.646759,-5.29666,-0.25974,74.83648,0.010696,-0.087997,0.982483,-0.044194,-0.037978,-0.003532,86.375671,39.890411,-147.540604,,,
729705316.650337,-5.308184,-0.271202,74.835341,0.010162,-0.09285,0.99147,-0.038265,-0.037744,-0.006513,86.375671,39.890411,-147.540604,,,
729705316.653642,-5.308184,-0.271202,74.835341,0.010162,-0.09285,0.99147,-0.038265,-0.037744,-0.006513,86.375671,39.890411,-147.540604,,,
729705316.65698,-5.319144,-0.282066,74.834541,0.010162,-0.09285,0.99147,-0.038265,-0.037744,-0.006513,86.298096,39.8405,-147.768616,,,
729705316.660312,-5.329064,-0.293093,74.83297,0.010254,-0.092926,0.997391,-0.032141,-0.029618,-0.008529,86.298096,39.8405,-147.768616,,,
729705316.663445,-5.329064,-0.293093,74.83297,0.010254,-0.092926,0.997391,-0.032141,-0.029618,-0.008529,86.298096,39.8405,-147.768616,,,
729705316.667019,-5.339014,-0.301381,74.830286,0.010254,-0.092926,0.997391,-0.032141,-0.029618,-0.008529,86.298096,39.8405,-147.768616,,,
729705316.670305,-5.34918,-0.306237,74.826899,0.012711,-0.092468,1.00943,-0.034926,-0.005026,-0.012432,86.298096,39.8405,-147.768616,,,
729705316.673668,-5.34918,-0.306237,74.826899,0.012711,-0.092468,1.00943,-0.034926,-0.005026,-0.012432,86.298096,39.8405,-147.768616,,,
729705316.676981,-5.360153,-0.308051,74.823361,0.012711,-0.092468,1.00943,-0.034926,-0.005026,-0.012432,86.298096,39.8405,-147.768616,,,
729705316.680115,-5.372597,-0.3082,74.819998,0.008957,-0.093918,1.00914,-0.045671,0.012147,-0.011053,86.298096,39.8405,-147.768616,,,
729705316.683677,-5.372597,-0.3082,74.819998,0.008957,-0.093918,1.00914,-0.045671,0.012147,-0.011053,86.298096,39.8405,-147.768616,,,
729705316.686974,-5.385402,-0.306377,74.817055,0.008957,-0.093918,1.00914,-0.045671,0.012147,-0.011053,86.298096,39.8405,-147.768616,,,
729705316.690308,-5.399344,-0.301611,74.815492,0.004639,-0.103561,1.012634,-0.048993,0.024338,-0.004667,86.298096,39.8405,-147.768616,,,
729705316.693654,-5.399344,-0.301611,74.815492,0.004639,-0.103561,1.012634,-0.048993,0.024338,-0.004667,86.298096,39.8405,-147.768616,,,
729705316.6967,-5.41175,-0.297965,74.814111,0.004639,-0.103561,1.012634,-0.048993,0.024338,-0.004667,86.298096,39.8405,-147.768616,,,
729705316.700341,-5.426452,-0.293672,74.812148,0.000427,-0.112595,1.020035,-0.053127,0.015716,-0.008918,86.218521,39.886398,-147.529297,,,
729705316.703705,-5.426452,-0.293672,74.812148,0.000427,-0.112595,1.020035,-0.053127,0.015716,-0.008918,86.218521,39.886398,-147.529297,,,
729705316.706973,-5.439076,-0.291366,74.808553,0.000427,-0.112595,1.020035,-0.053127,0.015716,-0.008918,86.218521,39.886398,-147.529297,,,
729705316.710311,-5.452864,-0.289117,74.802423,-0.002045,-0.111877,1.024185,-0.042857,0.008717,-0.031199,86.218521,39.886398,-147.529297,,,
729705316.713383,-5.452864,-0.289117,74.802423,-0.002045,-0.111877,1.024185,-0.042857,0.008717,-0.031199,86.218521,39.886398,-147.529297,,,
729705316.717045,-5.463976,-0.289097,74.793207,-0.002045,-0.111877,1.024185,-0.042857,0.008717,-0.031199,86.218521,39.886398,-147.529297,,,
729705316.720361,-5.474957,-0.291563,74.781015,-0.000595,-0.111725,1.027222,-0.033185,-0.009821,-0.050068,86.218521,39.886398,-147.529297,,,
729705316.723674,-5.474957,-0.291563,74.781015,-0.000595,-0.111725,1.027222,-0.033185,-0.009821,-0.050068,86.218521,39.886398,-147.529297,,,
729705316.726987,-5.483807,-0.298038,74.766452,-0.000595,-0.111725,1.027222,-0.033185,-0.009821,-0.050068,86.218521,39.886398,-147.529297,,,
729705316.730125,-5.49141,-0.306072,74.750793,-0.000595,-0.111725,1.027222,-0.02165,-0.025406,-0.055549,86.218521,39.886398,-147.529297,,,
729705316.73368,-5.49141,-0.306072,74.750793,-0.00351,-0.1185,1.029037,-0.02165,-0.025406,-0.055549,86.218521,39.886398,-147.529297,,,
729705316.736995,-5.497037,-0.316364,74.735389,-0.00351,-0.1185,1.029037,-0.02165,-0.025406,-0.055549,86.218521,39.886398,-147.529297,,,
729705316.740305,-5.501131,-0.326634,74.72137,-0.003586,-0.126114,1.034882,-0.00822,-0.028899,-0.044865,86.425278,39.958084,-147.008392,,,
729705316.743642,-5.501131,-0.326634,74.72137,-0.003586,-0.126114,1.034882,-0.00822,-0.028899,-0.044865,86.425278,39.958084,-147.008392,,,
729705316.746742,-5.502737,-0.33673,74.70926,-0.003586,-0.126114,1.034882,-0.00822,-0.028899,-0.044865,86.425278,39.958084,-147.008392,,,
729705316.750334,-5.503203,-0.343715,74.699135,0.00206,-0.127518,1.033508,0.003238,-0.00604,-0.031656,86.425278,39.958084,-147.008392,,,
729705316.753656,-5.503203,-0.343715,74.699135,0.00206,-0.127518,1.033508,0.003238,-0.00604,-0.031656,86.425278,39.958084,-147.008392,,,
729705316.757025,-5.502165,-0.347171,74.690341,0.00206,-0.127518,1.033508,0.003238,-0.00604,-0.031656,86.425278,39.958084,-147.008392,,,
729705316.760302,-5.500985,-0.344829,74.682354,0.013199,-0.119095,1.033859,0.004743,0.024988,-0.026975,86.425278,39.958084,-147.008392,,,
729705316.763407,-5.500985,-0.344829,74.682354,0.013199,-0.119095,1.033859,0.004743,0.024988,-0.026975,86.425278,39.958084,-147.008392,,,
729705316.767006,-5.499932,-0.337616,74.674443,0.013199,-0.119095,1.033859,0.004743,0.024988,-0.026975,86.425278,39.958084,-147.008392,,,
729705316.770361,-5.498815,-0.326231,74.666486,0.019058,-0.113571,1.028778,0.005779,0.052647,-0.03152,86.425278,39.958084,-147.008392,,,
729705316.773644,-5.498815,-0.326231,74.666486,0.019058,-0.113571,1.028778,0.005779,0.052647,-0.03152,86.425278,39.958084,-147.008392,,,
729705316.776989,-5.498301,-0.311765,74.658157,0.019058,-0.113571,1.028778,0.005779,0.052647,-0.03152,86.425278,39.958084,-147.008392,,,
729705316.780131,-5.498301,-0.311765,74.658157,0.019058,-0.113571,1.028778,0.005779,0.052647,-0.03152,86.249817,40.155258,-147.572449,,,
729705316.783661,-5.497793,-0.295965,74.649594,0.016388,-0.112701,1.021103,0.001049,0.063264,-0.032509,86.249817,40.155258,-147.572449,,,
729705316.786974,-5.499563,-0.27965,74.641549,0.016388,-0.112701,1.021103,0.001049,0.063264,-0.032509,86.249817,40.155258,-147.572449,,,
729705316.790325,-5.501468,-0.265616,74.634289,0.009506,-0.110733,1.013306,-0.00798,0.048549,-0.024686,86.249817,40.155258,-147.572449,,,
729705316.793652,-5.501468,-0.265616,74.634289,0.009506,-0.110733,1.013306,-0.00798,0.048549,-0.024686,86.249817,40.155258,-147.572449,,,
729705316.796806,-5.504782,-0.253964,74.627211,0.009506,-0.110733,1.013306,-0.00798,0.048549,-0.024686,86.249817,40.155258,-147.572449,,,
729705316.800322,-5.508592,-0.245698,74.618721,0.006287,-0.107712,1.005325,-0.014755,0.025438,-0.034755,86.249817,40.155258,-147.572449,,,
729705316.803639,-5.508592,-0.245698,74.618721,0.006287,-0.107712,1.005325,-0.014755,0.025438,-0.034755,86.249817,40.155258,-147.572449,,,
729705316.80697,-5.51409,-0.240639,74.608788,0.006287,-0.107712,1.005325,-0.014755,0.025438,-0.034755,86.249817,40.155258,-147.572449,,,
729705316.810309,-5.518526,-0.238976,74.597323,0.006287,-0.107712,1.005325,-0.014755,0.025438,-0.034755,86.249817,40.155258,-147.572449,,,
729705316.813646,-5.518526,-0.238976,74.597323,0.007965,-0.101974,1.004608,-0.013833,0.006531,-0.046927,86.249817,40.155258,-147.572449,,,
729705316.816973,-5.522933,-0.239638,74.584077,0.007965,-0.101974,1.004608,-0.013833,0.006531,-0.046927,86.249817,40.155258,-147.572449,,,
729705316.82033,-5.52514,-0.243372,74.568764,0.014526,-0.101044,1.00412,-0.001432,-0.010141,-0.059178,86.487534,39.897247,-147.549362,,,
729705316.823642,-5.52514,-0.243372,74.568764,0.014526,-0.101044,1.00412,-0.001432,-0.010141,-0.059178,86.487534,39.897247,-147.549362,,,
729705316.826988,-5.527203,-0.248835,74.55184,0.014526,-0.101044,1.00412,-0.001432,-0.010141,-0.059178,86.487534,39.897247,-147.549362,,,
729705316.830095,-5.527203,-0.248835,74.55184,0.014526,-0.101044,1.00412,-0.001432,-0.010141,-0.059178,86.487534,39.897247,-147.549362,,,
729705316.833664,-5.526142,-0.25629,74.534525,0.015717,-0.099915,1.001892,0.010874,-0.020089,-0.060129,86.487534,39.897247,-147.549362,,,
729705316.837034,-5.52398,-0.265621,74.517696,0.015717,-0.099915,1.001892,0.010874,-0.020089,-0.060129,86.487534,39.897247,-147.549362,,,
729705316.840309,-5.519738,-0.275927,74.502214,0.018372,-0.098816,0.99762,0.015529,-0.029044,-0.05078,86.487534,39.897247,-147.549362,,,
729705316.843643,-5.519738,-0.275927,74.502214,0.018372,-0.098816,0.99762,0.015529,-0.029044,-0.05078,86.487534,39.897247,-147.549362,,,
729705316.846726,-5.516353,-0.286651,74.488707,0.018372,-0.098816,0.99762,0.015529,-0.029044,-0.05078,86.487534,39.897247,-147.549362,,,
729705316.850353,-5.516353,-0.286651,74.488707,0.018372,-0.098816,0.99762,0.015529,-0.029044,-0.05078,86.487534,39.897247,-147.549362,,,
729705316.85365,-5.511308,-0.29526,74.47799,0.015518,-0.1026,0.997833,0.021416,-0.018519,-0.033116,86.487534,39.897247,-147.549362,,,
729705316.856978,-5.505632,-0.302396,74.469304,0.015518,-0.1026,0.997833,0.021416,-0.018519,-0.033116,86.487534,39.897247,-147.549362,,,
729705316.860401,-5.505632,-0.302396,74.469304,0.015518,-0.1026,0.997833,0.021416,-0.018519,-0.033116,86.487534,39.897247,-147.549362,,,
729705316.863408,-5.498024,-0.306805,74.462185,0.01503,-0.104599,1.003967,0.032579,-0.007106,-0.025428,86.372559,40.131729,-147.681473,,,
729705316.867008,-5.490014,-0.310578,74.4556,0.01503,-0.104599,1.003967,0.032579,-0.007106,-0.025428,86.372559,40.131729,-147.681473,,,
729705316.87037,-5.490014,-0.310578,74.448265,0.01503,-0.104599,1.003967,0.032579,-0.007106,-0.025428,86.372559,40.131729,-147.681473,,,
729705316.87365,-5.480087,-0.313457,74.448265,0.013245,-0.096848,0.999374,0.038198,-0.000324,-0.027176,86.372559,40.131729,-147.681473,,,
729705316.87697,-5.470421,-0.316093,74.440645,0.013245,-0.096848,0.999374,0.038198,-0.000324,-0.027176,86.372559,40.131729,-147.681473,,,
729705316.880043,-5.470421,-0.316093,74.440645,0.013245,-0.096848,0.999374,0.038198,-0.000324,-0.027176,86.372559,40.131729,-147.681473,,,
729705316.883705,-5.459912,-0.319419,74.431976,0.008041,-0.087646,0.995483,0.036229,-0.010587,-0.036242,86.372559,40.131729,-147.681473,,,
729705316.886967,-5.451032,-0.324973,74.421667,0.008041,-0.087646,0.995483,0.036229,-0.010587,-0.036242,86.372559,40.131729,-147.681473,,,
729705316.890391,-5.451032,-0.324973,74.411004,0.008041,-0.087646,0.995483,0.036229,-0.010587,-0.036242,86.372559,40.131729,-147.681473,,,
729705316.893641,-5.443015,-0.333128,74.411004,0.005692,-0.080505,0.982681,0.024821,-0.029192,-0.039293,86.372559,40.131729,-147.681473,,,
729705316.896973,-5.437511,-0.34466,74.399986,0.005692,-0.080505,0.982681,0.024821,-0.029192,-0.039293,86.372559,40.131729,-147.681473,,,
729705316.900347,-5.437511,-0.34466,74.399986,0.005692,-0.080505,0.982681,0.024821,-0.029192,-0.039293,86.372559,40.131729,-147.681473,,,
729705316.903685,-5.433934,-0.357395,74.388412,0.00592,-0.081482,0.972977,0.009249,-0.043671,-0.038021,86.301437,39.996643,-147.440964,,,
729705316.906966,-5.433809,-0.373136,74.376464,0.00592,-0.081482,0.972977,0.009249,-0.043671,-0.038021,86.301437,39.996643,-147.440964,,,
729705316.910335,-5.433809,-0.373136,74.376464,0.00592,-0.081482,0.972977,0.009249,-0.043671,-0.038021,86.301437,39.996643,-147.440964,,,
729705316.913403,-5.435735,-0.389087,74.364634,0.007538,-0.081665,0.972595,-0.013601,-0.049435,-0.0447,86.301437,39.996643,-147.440964,,,
729705316.917001,-5.440724,-0.406891,74.351877,0.007538,-0.081665,0.972595,-0.013601,-0.049435,-0.0447,86.301437,39.996643,-147.440964,,,
729705316.920359,-5.440724,-0.406891,74.351877,0.007538,-0.081665,0.972595,-0.013601,-0.049435,-0.0447,86.301437,39.996643,-147.440964,,,
729705316.923642,-5.447199,-0.422685,74.337976,0.012756,-0.080551,0.975006,-0.023986,-0.046935,-0.050176,86.301437,39.996643,-147.440964,,,
729705316.926971,-5.455904,-0.438707,74.322616,0.012756,-0.080551,0.975006,-0.023986,-0.046935,-0.050176,86.301437,39.996643,-147.440964,,,
729705316.93006,-5.455904,-0.438707,74.322616,0.012756,-0.080551,0.975006,-0.023986,-0.046935,-0.050176,86.301437,39.996643,-147.440964,,,
729705316.933678,-5.464288,-0.451614,74.307088,0.012192,-0.081894,0.977783,-0.029094,-0.032466,-0.053011,86.301437,39.996643,-147.440964,,,
729705316.936967,-5.473814,-0.464024,74.292054,0.012192,-0.081894,0.977783,-0.029094,-0.032466,-0.053011,86.301437,39.996643,-147.440964,,,
729705316.940368,-5.473814,-0.464024,74.292054,0.012192,-0.081894,0.977783,-0.029094,-0.032466,-0.053011,86.301437,39.996643,-147.440964,,,
729705316.943629,-5.481664,-0.474646,74.27833,0.007462,-0.089859,0.984116,-0.022947,-0.025337,-0.04369,86.262726,40.170425,-147.557617,,,
729705316.946726,-5.488569,-0.485468,74.266657,0.007462,-0.089859,0.984116,-0.022947,-0.025337,-0.04369,86.262726,40.170425,-147.557617,,,
729705316.950397,-5.488569,-0.485468,74.266657,0.007462,-0.089859,0.984116,-0.022947,-0.025337,-0.04369,86.262726,40.170425,-147.557617,,,
729705316.953709,-5.49224,-0.494179,74.257367,0.007584,-0.091797,0.985931,-0.008747,-0.021263,-0.028203,86.262726,40.170425,-147.557617,,,
729705316.956988,-5.493727,-0.501681,74.249752,0.007584,-0.091797,0.985931,-0.008747,-0.021263,-0.028203,86.262726,40.170425,-147.557617,,,
729705316.960345,-5.493727,-0.501681,74.249752,0.007584,-0.091797,0.985931,-0.008747,-0.021263,-0.028203,86.262726,40.170425,-147.557617,,,
729705316.963417,-5.495893,-0.506599,74.243057,0.012482,-0.084076,0.986404,-0.009371,-0.004679,-0.022153,86.262726,40.170425,-147.557617,,,
729705316.967001,-5.497553,-0.508743,74.237202,0.012482,-0.084076,0.986404,-0.009371,-0.004679,-0.022153,86.262726,40.170425,-147.557617,,,
729705316.970321,-5.497553,-0.508743,74.237202,0.012482,-0.084076,0.986404,-0.009371,-0.004679,-0.022153,86.262726,40.170425,-147.557617,,,
729705316.973634,-5.503422,-0.509009,74.231545,0.012283,-0.076401,0.984161,-0.02579,0.008661,-0.021267,86.262726,40.170425,-147.557617,,,
729705316.976976,-5.510489,-0.507548,74.226016,0.012283,-0.076401,0.984161,-0.02579,0.008661,-0.021267,86.262726,40.170425,-147.557617,,,
729705316.980113,-5.510489,-0.507548,74.226016,0.012283,-0.076401,0.984161,-0.02579,0.008661,-0.021267,86.262726,40.170425,-147.557617,,,
729705316.983664,-5.522931,-0.506166,74.220313,0.006683,-0.074524,0.979874,-0.050535,0.009273,-0.021474,86.210846,39.970154,-147.587494,,,
729705316.987007,-5.536406,-0.504758,74.213853,0.006683,-0.074524,0.979874,-0.050535,0.009273,-0.021474,86.210846,39.970154,-147.587494,,,
729705316.990316,-5.536406,-0.504758,74.213853,0.006683,-0.074524,0.979874,-0.050535,0.009273,-0.021474,86.210846,39.970154,-147.587494,,,
729705316.993633,-5.55436,-0.505167,74.206655,0.003159,-0.077576,0.978439,-0.068324,-0.000117,-0.024877,86.210846,39.970154,-147.587494,,,
729705316.996727,-5.572263,-0.507764,74.198824,0.003159,-0.077576,0.978439,-0.068324,-0.000117,-0.024877,86.210846,39.970154,-147.587494,,,
729705317.000348,-5.572263,-0.507764,74.198824,0.003159,-0.077576,0.978439,-0.068324,-0.000117,-0.024877,86.210846,39.970154,-147.587494,,,
729705317.003634,-5.59273,-0.512754,74.190481,-0.002197,-0.084717,0.984543,-0.071808,-0.01853,-0.030049,86.210846,39.970154,-147.587494,,,
729705317.006972,-5.61158,-0.521873,74.181589,-0.002197,-0.084717,0.984543,-0.071808,-0.01853,-0.030049,86.210846,39.970154,-147.587494,,,
729705317.010305,-5.61158,-0.521873,74.181589,-0.002197,-0.084717,0.984543,-0.071808,-0.01853,-0.030049,86.210846,39.970154,-147.587494,,,
729705317.013416,-5.631895,-0.533581,74.172062,-0.000168,-0.088715,0.986755,-0.068216,-0.04131,-0.035985,86.210846,39.970154,-147.587494,,,
729705317.017005,-5.649868,-0.547662,74.16198,-0.000168,-0.088715,0.986755,-0.068216,-0.04131,-0.035985,86.210846,39.970154,-147.587494,,,
729705317.020346,-5.649868,-0.547662,74.16198,-0.000168,-0.088715,0.986755,-0.068216,-0.04131,-0.035985,86.210846,39.970154,-147.587494,,,
729705317.023645,-5.668557,-0.563639,74.152512,-0.005051,-0.095001,0.996124,-0.065151,-0.052878,-0.033043,86.210846,39.970154,-147.587494,,,
729705317.02697,-5.686354,-0.581152,74.143988,-0.005051,-0.095001,0.996124,-0.065151,-0.052878,-0.033043,85.945724,40.317657,-147.389267,,,
729705317.030066,-5.686354,-0.581152,74.143988,-0.005051,-0.095001,0.996124,-0.065151,-0.052878,-0.033043,85.945724,40.317657,-147.389267,,,
729705317.033716,-5.703858,-0.601079,74.136078,-0.001648,-0.101166,0.998672,-0.059843,-0.069366,-0.023655,85.945724,40.317657,-147.389267,,,
729705317.036963,-5.718905,-0.622917,74.129604,-0.001648,-0.101166,0.998672,-0.059843,-0.069366,-0.023655,85.945724,40.317657,-147.389267,,,
729705317.040321,-5.718905,-0.622917,74.129604,-0.001648,-0.101166,0.998672,-0.059843,-0.069366,-0.023655,85.945724,40.317657,-147.389267,,,
729705317.043666,-5.733534,-0.646172,74.125363,0.003357,-0.108505,1.004456,-0.044325,-0.079668,-0.010175,85.945724,40.317657,-147.389267,,,
729705317.046725,-5.743145,-0.670695,74.123219,0.003357,-0.108505,1.004456,-0.044325,-0.079668,-0.010175,85.945724,40.317657,-147.389267,,,
729705317.050348,-5.743145,-0.670695,74.123219,0.003357,-0.108505,1.004456,-0.044325,-0.079668,-0.010175,85.945724,40.317657,-147.389267,,,
729705317.053636,-5.753236,-0.694793,74.122564,0.007675,-0.112473,1.01532,-0.026393,-0.07513,-2.3e-05,85.945724,40.317657,-147.389267,,,
729705317.056975,-5.757004,-0.717128,74.123157,0.007675,-0.112473,1.01532,-0.026393,-0.07513,-2.3e-05,85.945724,40.317657,-147.389267,,,
729705317.060354,-5.757004,-0.717128,74.123157,0.007675,-0.112473,1.01532,-0.026393,-0.07513,-2.3e-05,85.945724,40.317657,-147.389267,,,
729705317.063419,-5.76126,-0.737658,74.12431,0.01503,-0.114532,1.023499,-0.003609,-0.06536,0.005165,85.945724,40.317657,-147.389267,,,
729705317.066998,-5.758768,-0.755346,74.125844,0.01503,-0.114532,1.023499,-0.003609,-0.06536,0.005165,85.82074,40.528778,-147.506607,,,
729705317.070327,-5.758768,-0.755346,74.125844,0.01503,-0.114532,1.023499,-0.003609,-0.06536,0.005165,85.82074,40.528778,-147.506607,,,
729705317.073692,-5.757555,-0.772689,74.128272,0.020493,-0.111465,1.024628,0.013836,-0.052953,0.008094,85.82074,40.528778,-147.506607,,,
729705317.076967,-5.751571,-0.785479,74.131209,0.020493,-0.111465,1.024628,0.013836,-0.052953,0.008094,85.82074,40.528778,-147.506607,,,
729705317.080082,-5.751571,-0.785479,74.131209,0.020493,-0.111465,1.024628,0.013836,-0.052953,0.008094,85.82074,40.528778,-147.506607,,,
729705317.083674,-5.746114,-0.797194,74.133694,0.028168,-0.10939,1.022629,0.023281,-0.030423,0.007512,85.82074,40.528778,-147.506607,,,
729705317.086964,-5.737137,-0.803651,74.13641,0.028168,-0.10939,1.022629,0.023281,-0.030423,0.007512,85.82074,40.528778,-147.506607,,,
729705317.090296,-5.737137,-0.803651,74.13641,0.028168,-0.10939,1.022629,0.023281,-0.030423,0.007512,85.82074,40.528778,-147.506607,,,
729705317.09366,-5.729213,-0.809986,74.138796,0.033447,-0.104141,1.014084,0.02903,-0.015488,0.006969,85.82074,40.528778,-147.506607,,,
729705317.096731,-5.720419,-0.812362,74.141394,0.033447,-0.104141,1.014084,0.02903,-0.015488,0.006969,85.82074,40.528778,-147.506607,,,
729705317.100383,-5.720419,-0.812362,74.141394,0.033447,-0.104141,1.014084,0.02903,-0.015488,0.006969,85.82074,40.528778,-147.506607,,,
729705317.103654,-5.712999,-0.815501,74.14361,0.039688,-0.09993,1.003448,0.023649,-0.0046,0.002255,85.82074,40.528778,-147.506607,,,
729705317.106969,-5.705632,-0.814633,74.145176,0.039688,-0.09993,1.003448,0.023649,-0.0046,0.002255,85.899643,40.55014,-147.488266,,,
729705317.11032,-5.705632,-0.814633,74.145176,0.039688,-0.09993,1.003448,0.023649,-0.0046,0.002255,85.899643,40.55014,-147.488266,,,
729705317.113652,-5.69968,-0.817378,74.145174,0.03891,-0.096161,0.993484,0.016007,-0.00858,-0.004787,85.899643,40.55014,-147.488266,,,
729705317.116969,-5.69582,-0.820103,74.144071,0.03891,-0.096161,0.993484,0.016007,-0.00858,-0.004787,85.899643,40.55014,-147.488266,,,
729705317.120319,-5.69582,-0.820103,74.144071,0.03891,-0.096161,0.993484,0.016007,-0.00858,-0.004787,85.899643,40.55014,-147.488266,,,
729705317.123639,-5.692196,-0.826733,74.140728,0.035553,-0.095901,0.982498,0.009667,-0.022466,-0.019402,85.899643,40.55014,-147.488266,,,
729705317.126968,-5.691109,-0.833753,74.135619,0.035553,-0.095901,0.982498,0.009667,-0.022466,-0.019402,85.899643,40.55014,-147.488266,,,
729705317.130081,-5.691109,-0.833753,74.135619,0.035553,-0.095901,0.982498,0.009667,-0.022466,-0.019402,85.899643,40.55014,-147.488266,,,
729705317.133674,-5.689015,-0.844246,74.128819,0.028976,-0.096252,0.982147,0.005853,-0.034944,-0.029239,85.899643,40.55014,-147.488266,,,
729705317.136964,-5.688757,-0.856184,74.120356,0.028976,-0.096252,0.982147,0.005853,-0.034944,-0.029239,85.899643,40.55014,-147.488266,,,
729705317.140347,-5.688757,-0.856184,74.120356,0.028976,-0.096252,0.982147,0.005853,-0.034944,-0.029239,85.899643,40.55014,-147.488266,,,
729705317.143636,-5.685927,-0.871448,74.110067,0.023239,-0.097321,0.98175,0.012827,-0.053653,-0.041943,85.899643,40.55014,-147.488266,,,
729705317.146696,-5.683565,-0.889761,74.098586,0.023239,-0.097321,0.98175,0.012827,-0.053653,-0.041943,85.580673,40.50647,-147.244186,,,
729705317.150347,-5.683565,-0.889761,74.098586,0.023239,-0.097321,0.98175,0.012827,-0.053653,-0.041943,85.580673,40.50647,-147.244186,,,
729705317.153677,-5.678877,-0.908632,74.085875,0.02121,-0.097214,0.980789,0.015628,-0.061091,-0.051127,85.580673,40.50647,-147.244186,,,
729705317.156971,-5.675358,-0.928834,74.072128,0.02121,-0.097214,0.980789,0.015628,-0.061091,-0.051127,85.580673,40.50647,-147.244186,,,
729705317.160312,-5.675358,-0.928834,74.072128,0.02121,-0.097214,0.980789,0.015628,-0.061091,-0.051127,85.580673,40.50647,-147.244186,,,
729705317.163356,-5.670672,-0.947889,74.059065,0.015961,-0.100769,0.980927,0.016206,-0.060822,-0.04293,85.580673,40.50647,-147.244186,,,
729705317.167,-5.66738,-0.969088,74.04671,0.015961,-0.100769,0.980927,0.016206,-0.060822,-0.04293,85.580673,40.50647,-147.244186,,,
729705317.17032,-5.66738,-0.969088,74.04671,0.015961,-0.100769,0.980927,0.016206,-0.060822,-0.04293,85.580673,40.50647,-147.244186,,,
729705317.173711,-5.664491,-0.987258,74.036082,0.014236,-0.103577,0.977814,0.008511,-0.051547,-0.034186,85.580673,40.50647,-147.244186,,,
729705317.176979,-5.663013,-1.005979,74.026513,0.014236,-0.103577,0.977814,0.008511,-0.051547,-0.034186,85.580673,40.50647,-147.244186,,,
729705317.180173,-5.663013,-1.005979,74.026513,0.014236,-0.103577,0.977814,0.008511,-0.051547,-0.034186,85.580673,40.50647,-147.244186,,,
729705317.183688,-5.662478,-1.019599,74.017778,0.016159,-0.10498,0.977509,0.000835,-0.03647,-0.028055,85.580673,40.50647,-147.244186,,,
729705317.186976,-5.662516,-1.034449,74.010214,0.016159,-0.10498,0.977509,0.000835,-0.03647,-0.028055,85.580673,40.50647,-147.244186,,,
729705317.19032,-5.662516,-1.034449,74.010214,0.016159,-0.10498,0.977509,0.000835,-0.03647,-0.028055,85.692749,40.658813,-147.771286,,,
729705317.193695,-5.663377,-1.044273,74.004434,0.01622,-0.107025,0.973679,-0.00521,-0.02489,-0.019262,85.692749,40.658813,-147.771286,,,
729705317.196742,-5.664789,-1.05541,73.999327,0.01622,-0.107025,0.973679,-0.00521,-0.02489,-0.019262,85.692749,40.658813,-147.771286,,,
729705317.200346,-5.664789,-1.05541,73.999327,0.01622,-0.107025,0.973679,-0.00521,-0.02489,-0.019262,85.692749,40.658813,-147.771286,,,
729705317.203642,-5.666789,-1.061821,73.994757,0.01413,-0.107056,0.975113,-0.005614,-0.009484,-0.016688,85.692749,40.658813,-147.771286,,,
729705317.206987,-5.668199,-1.068075,73.989836,0.01413,-0.107056,0.975113,-0.005614,-0.009484,-0.016688,85.692749,40.658813,-147.771286,,,
729705317.210309,-5.668199,-1.068075,73.989836,0.01413,-0.107056,0.975113,-0.005614,-0.009484,-0.016688,85.692749,40.658813,-147.771286,,,
729705317.213415,-5.669436,-1.070269,73.985076,0.01709,-0.102737,0.977814,-0.007655,-0.001506,-0.019069,85.692749,40.658813,-147.771286,,,
729705317.217036,-5.671189,-1.073439,73.979783,0.01709,-0.102737,0.977814,-0.007655,-0.001506,-0.019069,85.692749,40.658813,-147.771286,,,
729705317.220368,-5.671189,-1.073439,73.979783,0.01709,-0.102737,0.977814,-0.007655,-0.001506,-0.019069,85.692749,40.658813,-147.771286,,,
729705317.22364,-5.673422,-1.077223,73.974389,0.017487,-0.099518,0.971191,-0.006847,-0.013562,-0.020133,85.692749,40.658813,-147.771286,,,
729705317.226977,-5.675335,-1.083359,73.968734,0.017487,-0.099518,0.971191,-0.006847,-0.013562,-0.020133,85.692749,40.658813,-147.771286,,,
729705317.230077,-5.675335,-1.083359,73.968734,0.017487,-0.099518,0.971191,-0.006847,-0.013562,-0.020133,85.609741,40.375793,-147.662506,,,
729705317.233736,-5.677571,-1.089998,73.962784,0.018448,-0.100739,0.973343,-0.008536,-0.022135,-0.025021,85.609741,40.375793,-147.662506,,,
729705317.237015,-5.68041,-1.098699,73.955751,0.018448,-0.100739,0.973343,-0.008536,-0.022135,-0.025021,85.609741,40.375793,-147.662506,,,
729705317.240319,-5.68041,-1.098699,73.955751,0.018448,-0.100739,0.973343,-0.008536,-0.022135,-0.025021,85.609741,40.375793,-147.662506,,,
729705317.243644,-5.683718,-1.109604,73.947322,0.023483,-0.097458,0.970093,-0.013407,-0.03488,-0.03541,85.609741,40.375793,-147.662506,,,
729705317.246735,-5.688865,-1.12074,73.937339,0.023483,-0.097458,0.970093,-0.013407,-0.03488,-0.03541,85.609741,40.375793,-147.662506,,,
729705317.250337,-5.688865,-1.12074,73.937339,0.023483,-0.097458,0.970093,-0.013407,-0.03488,-0.03541,85.609741,40.375793,-147.662506,,,
729705317.253633,-5.694614,-1.132334,73.925738,0.027679,-0.092667,0.971283,-0.020418,-0.031406,-0.042946,85.609741,40.375793,-147.662506,,,
729705317.256975,-5.701305,-1.142973,73.913376,0.027679,-0.092667,0.971283,-0.020418,-0.031406,-0.042946,85.609741,40.375793,-147.662506,,,
729705317.260363,-5.701305,-1.142973,73.913376,0.027679,-0.092667,0.971283,-0.020418,-0.031406,-0.042946,85.609741,40.375793,-147.662506,,,
729705317.263411,-5.707632,-1.152641,73.900761,0.030701,-0.091568,0.975296,-0.021671,-0.02278,-0.045822,85.609741,40.375793,-147.662506,,,
729705317.266996,-5.714814,-1.160717,73.888416,0.030701,-0.091568,0.975296,-0.021671,-0.02278,-0.045822,85.609741,40.375793,-147.662506,,,
729705317.270301,-5.714814,-1.160717,73.888416,0.030701,-0.091568,0.975296,-0.021671,-0.02278,-0.045822,85.246658,40.723068,-147.606125,,,
729705317.273632,-5.720987,-1.167412,73.876757,0.032318,-0.095505,0.977921,-0.02493,-0.011069,-0.035706,85.246658,40.723068,-147.606125,,,
729705317.277143,-5.727839,-1.171912,73.866675,0.032318,-0.095505,0.977921,-0.02493,-0.011069,-0.035706,85.246658,40.723068,-147.606125,,,
729705317.280098,-5.727839,-1.171912,73.866675,0.032318,-0.095505,0.977921,-0.02493,-0.011069,-0.035706,85.246658,40.723068,-147.606125,,,
729705317.283739,-5.734392,-1.175833,73.85844,0.028564,-0.099136,0.980881,-0.021025,-0.003959,-0.024681,85.246658,40.723068,-147.606125,,,
729705317.286964,-5.740839,-1.178197,73.8519,0.028564,-0.099136,0.980881,-0.021025,-0.003959,-0.024681,85.246658,40.723068,-147.606125,,,
729705317.290317,-5.740839,-1.178197,73.8519,0.028564,-0.099136,0.980881,-0.021025,-0.003959,-0.024681,85.246658,40.723068,-147.606125,,,
729705317.293647,-5.744838,-1.178658,73.846547,0.028275,-0.098602,0.986496,-0.007747,0.00942,-0.016784,85.246658,40.723068,-147.606125,,,
729705317.296733,-5.747455,-1.176837,73.841485,0.028275,-0.098602,0.986496,-0.007747,0.00942,-0.016784,85.246658,40.723068,-147.606125,,,
729705317.30034,-5.747455,-1.176837,73.841485,0.028275,-0.098602,0.986496,-0.007747,0.00942,-0.016784,85.246658,40.723068,-147.606125,,,
