Time (sec),Pitch (deg),Roll (deg),Yaw(deg),X-Acceleration (g),Y-Acceleration (g),Z-Acceleration (g),Pitch Rate (deg/sec),Roll Rate (deg/sec),Yaw Rate (deg/sec),Magnetic Field in X direction (uT),Magnetic Field in Y direction (uT),Magnetic Field in Z Direction (uT),Latitude (deg),Longitude (deg),Altitude (m)
729706716.137738,-0.957325,-1.227288,-29.553615,0.010651,-0.017746,0.993896,-0.001116,0.021079,-0.003874,57.636353,29.687454,-145.987991,,,
729706716.140259,-0.956359,-1.221727,114.357852,0.010696,-0.02066,0.997986,0.006879,0.022389,0.005338,57.636353,29.687454,-145.987991,,,
729706716.143731,-0.956365,-1.221762,-29.552322,0.010696,-0.02066,0.997986,0.006879,0.022389,0.005338,57.636353,29.687454,-145.987991,,,
729706716.14399,-0.956359,-1.221727,114.357852,0.010696,-0.02066,0.997986,0.006879,0.022389,0.005338,57.636353,29.687454,-145.987991,,,
729706716.144751,-0.954849,-1.21616,-29.55004,0.010696,-0.02066,0.997986,0.006879,0.022389,0.005338,57.636353,29.687454,-145.987991,,,
729706716.147022,-0.954843,-1.216126,114.360128,0.010696,-0.02066,0.997986,0.006879,0.022389,0.005338,57.636353,29.687454,-145.987991,,,
729706716.148628,-0.954849,-1.21616,-29.55004,0.010696,-0.02066,0.997986,0.006879,0.022389,0.005338,57.421646,29.773621,-146.071121,,,
729706716.150259,-0.951189,-1.20871,114.362997,0.013397,-0.0215,1.008667,0.016793,0.030056,0.009136,57.421646,29.773621,-146.071121,,,
729706716.15205,-0.951195,-1.208745,-29.547178,0.013397,-0.0215,1.008667,0.016793,0.030056,0.009136,57.421646,29.773621,-146.071121,,,
729706716.153627,-0.951189,-1.20871,114.362997,0.013397,-0.0215,1.008667,0.016793,0.030056,0.009136,57.421646,29.773621,-146.071121,,,
729706716.154997,-0.946609,-1.201599,-29.543929,0.013397,-0.0215,1.008667,0.016793,0.030056,0.009136,57.421646,29.773621,-146.071121,,,
729706716.156962,-0.946603,-1.201564,114.36624,0.013397,-0.0215,1.008667,0.016793,0.030056,0.009136,57.421646,29.773621,-146.071121,,,
729706716.157738,-0.946609,-1.201599,-29.543929,0.013397,-0.0215,1.008667,0.016793,0.030056,0.009136,57.421646,29.773621,-146.071121,,,
729706716.160263,-0.941301,-1.193701,114.370284,0.010971,-0.020462,1.006134,0.020537,0.029283,0.014485,57.421646,29.773621,-146.071121,,,
729706716.161706,-0.941307,-1.193736,-29.539885,0.010971,-0.020462,1.006134,0.020537,0.029283,0.014485,57.421646,29.773621,-146.071121,,,
729706716.163608,-0.941301,-1.193701,114.370284,0.010971,-0.020462,1.006134,0.020537,0.029283,0.014485,57.421646,29.773621,-146.071121,,,
729706716.164798,-0.935479,-1.186517,-29.534618,0.010971,-0.020462,1.006134,0.020537,0.029283,0.014485,57.421646,29.773621,-146.071121,,,
729706716.166971,-0.935473,-1.186482,114.375558,0.010971,-0.020462,1.006134,0.020537,0.029283,0.014485,57.421646,29.773621,-146.071121,,,
729706716.167747,-0.935479,-1.186517,-29.534618,0.010971,-0.020462,1.006134,0.020537,0.029283,0.014485,57.421646,29.773621,-146.071121,,,
729706716.170263,-0.929354,-1.178778,114.38238,0.010559,-0.019333,1.000381,0.024262,0.028428,0.025133,57.421646,29.773621,-146.071121,,,
729706716.172188,-0.92936,-1.178813,-29.527789,0.010559,-0.019333,1.000381,0.024262,0.028428,0.025133,57.421646,29.773621,-146.071121,,,
729706716.173677,-0.929354,-1.178778,114.38238,0.010559,-0.019333,1.000381,0.024262,0.028428,0.025133,57.421646,29.773621,-146.071121,,,
729706716.17532,-0.922563,-1.171366,-29.519605,0.010559,-0.019333,1.000381,0.024262,0.028428,0.025133,57.421646,29.773621,-146.071121,,,
729706716.176947,-0.922557,-1.171331,114.390564,0.010559,-0.019333,1.000381,0.024262,0.028428,0.025133,57.421646,29.773621,-146.071121,,,
729706716.177743,-0.922563,-1.171366,-29.519605,0.010559,-0.019333,1.000381,0.024262,0.028428,0.025133,57.421646,29.773621,-146.071121,,,
729706716.180267,-0.916219,-1.163549,114.399176,0.015839,-0.017593,1.004013,0.022722,0.030348,0.02814,57.421646,29.773621,-146.071121,,,
729706716.181945,-0.916225,-1.163584,-29.510997,0.015839,-0.017593,1.004013,0.022722,0.030348,0.02814,57.421646,29.773621,-146.071121,,,
729706716.18362,-0.916219,-1.163549,114.399176,0.015839,-0.017593,1.004013,0.022722,0.030348,0.02814,57.421646,29.773621,-146.071121,,,
729706716.184677,-0.916225,-1.155216,-29.501954,0.015839,-0.017593,1.004013,0.022722,0.030348,0.02814,57.421646,29.773621,-146.071121,,,
729706716.187002,-0.91021,-1.155181,114.408218,0.015839,-0.017593,1.004013,0.022722,0.030348,0.02814,57.421646,29.773621,-146.071121,,,
729706716.188057,-0.910216,-1.155216,-29.501954,0.015839,-0.017593,1.004013,0.022722,0.030348,0.02814,57.421646,29.773621,-146.071121,,,
729706716.190261,-0.90461,-1.146364,114.417602,0.018326,-0.01474,0.998932,0.020269,0.034472,0.030562,57.487473,29.601181,-146.031967,,,
729706716.192735,-0.904616,-1.146399,-29.492574,0.018326,-0.01474,0.998932,0.020269,0.034472,0.030562,57.487473,29.601181,-146.031967,,,
729706716.1936,-0.90461,-1.146364,114.417602,0.018326,-0.01474,0.998932,0.020269,0.034472,0.030562,57.487473,29.601181,-146.031967,,,
729706716.194954,-0.904616,-1.137219,-29.483694,0.018326,-0.01474,0.998932,0.020269,0.034472,0.030562,57.487473,29.601181,-146.031967,,,
729706716.196941,-0.899684,-1.137185,114.426482,0.018326,-0.01474,0.998932,0.020269,0.034472,0.030562,57.487473,29.601181,-146.031967,,,
729706716.197805,-0.89969,-1.137219,-29.483694,0.018326,-0.01474,0.998932,0.020269,0.034472,0.030562,57.487473,29.601181,-146.031967,,,
729706716.200253,-0.896118,-1.129385,114.43421,0.019882,-0.012924,0.994766,0.009634,0.026767,0.022697,57.487473,29.601181,-146.031967,,,
729706716.202026,-0.896124,-1.129419,-29.475966,0.019882,-0.012924,0.994766,0.009634,0.026767,0.022697,57.487473,29.601181,-146.031967,,,
729706716.203621,-0.896118,-1.129385,114.43421,0.019882,-0.012924,0.994766,0.009634,0.026767,0.022697,57.487473,29.601181,-146.031967,,,
729706716.204449,-0.896124,-1.129419,-29.475966,0.019882,-0.012924,0.994766,0.009634,0.026767,0.022697,57.487473,29.601181,-146.031967,,,
729706716.206933,-0.893791,-1.122793,114.441471,0.019882,-0.012924,0.994766,0.009634,0.026767,0.022697,57.487473,29.601181,-146.031967,,,
729706716.20857,-0.893797,-1.122828,-29.468704,0.019882,-0.012924,0.994766,0.009634,0.026767,0.022697,57.487473,29.601181,-146.031967,,,
729706716.210263,-0.891308,-1.118946,114.44853,0.022293,-0.01532,0.994354,0.01012,0.013269,0.021401,57.487473,29.601181,-146.031967,,,
729706716.211714,-0.891314,-1.118981,-29.461643,0.022293,-0.01532,0.994354,0.01012,0.013269,0.021401,57.487473,29.601181,-146.031967,,,
729706716.213675,-0.891308,-1.118946,114.44853,0.022293,-0.01532,0.994354,0.01012,0.013269,0.021401,57.487473,29.601181,-146.031967,,,
729706716.214711,-0.891314,-1.1159,-29.454673,0.022293,-0.01532,0.994354,0.01012,0.013269,0.021401,57.487473,29.601181,-146.031967,,,
729706716.216938,-0.88922,-1.115865,114.455498,0.022293,-0.01532,0.994354,0.01012,0.013269,0.021401,57.487473,29.601181,-146.031967,,,
729706716.217736,-0.889225,-1.1159,-29.454673,0.022293,-0.01532,0.994354,0.01012,0.013269,0.021401,57.487473,29.601181,-146.031967,,,
729706716.220255,-0.886559,-1.116531,114.462169,0.023926,-0.017456,0.994705,0.011628,-0.004226,0.019408,57.487473,29.601181,-146.031967,,,
729706716.222337,-0.886565,-1.116566,-29.448004,0.023926,-0.017456,0.994705,0.011628,-0.004226,0.019408,57.487473,29.601181,-146.031967,,,
729706716.22361,-0.886559,-1.116531,114.462169,0.023926,-0.017456,0.994705,0.011628,-0.004226,0.019408,57.487473,29.601181,-146.031967,,,
729706716.224455,-0.886565,-1.116566,-29.448004,0.023926,-0.017456,0.994705,0.011628,-0.004226,0.019408,57.487473,29.601181,-146.031967,,,
729706716.226945,-0.883198,-1.118585,114.467906,0.023926,-0.017456,0.994705,0.011628,-0.004226,0.019408,57.487473,29.601181,-146.031967,,,
729706716.228329,-0.883203,-1.118619,-29.442264,0.023926,-0.017456,0.994705,0.011628,-0.004226,0.019408,57.487473,29.601181,-146.031967,,,
729706716.230263,-0.877195,-1.123292,114.472206,0.028442,-0.014801,0.998871,0.025001,-0.015046,0.009269,57.388809,29.812744,-145.830948,,,
729706716.232982,-0.877201,-1.123327,-29.437961,0.028442,-0.014801,0.998871,0.025001,-0.015046,0.009269,57.388809,29.812744,-145.830948,,,
729706716.233596,-0.877195,-1.123292,114.472206,0.028442,-0.014801,0.998871,0.025001,-0.015046,0.009269,57.388809,29.812744,-145.830948,,,
729706716.234437,-0.877201,-1.123327,-29.437961,0.028442,-0.014801,0.998871,0.025001,-0.015046,0.009269,57.388809,29.812744,-145.830948,,,
729706716.236924,-0.870271,-1.12759,114.474996,0.028442,-0.014801,0.998871,0.025001,-0.015046,0.009269,57.388809,29.812744,-145.830948,,,
729706716.238383,-0.870277,-1.127624,-29.435189,0.028442,-0.014801,0.998871,0.025001,-0.015046,0.009269,57.388809,29.812744,-145.830948,,,
729706716.240264,-0.861159,-1.132737,114.476874,0.034744,-0.014084,1.000092,0.036097,-0.015495,0.002807,57.388809,29.812744,-145.830948,,,
729706716.242037,-0.861165,-1.132771,-29.433317,0.034744,-0.014084,1.000092,0.036097,-0.015495,0.002807,57.388809,29.812744,-145.830948,,,
729706716.243612,-0.861159,-1.132737,114.476874,0.034744,-0.014084,1.000092,0.036097,-0.015495,0.002807,57.388809,29.812744,-145.830948,,,
729706716.244405,-0.861165,-1.132771,-29.433317,0.034744,-0.014084,1.000092,0.036097,-0.015495,0.002807,57.388809,29.812744,-145.830948,,,
729706716.246922,-0.851298,-1.136289,114.477681,0.034744,-0.014084,1.000092,0.036097,-0.015495,0.002807,57.388809,29.812744,-145.830948,,,
729706716.248554,-0.851304,-1.136324,-29.432492,0.034744,-0.014084,1.000092,0.036097,-0.015495,0.002807,57.388809,29.812744,-145.830948,,,
729706716.250271,-0.839898,-1.139658,114.477377,0.03627,-0.012497,1.001175,0.042236,-0.005451,-0.005055,57.388809,29.812744,-145.830948,,,
729706716.253073,-0.839904,-1.139693,-29.432789,0.03627,-0.012497,1.001175,0.042236,-0.005451,-0.005055,57.388809,29.812744,-145.830948,,,
729706716.25369,-0.839898,-1.139658,114.477377,0.03627,-0.012497,1.001175,0.042236,-0.005451,-0.005055,57.388809,29.812744,-145.830948,,,
729706716.25447,-0.839904,-1.139693,-29.432789,0.03627,-0.012497,1.001175,0.042236,-0.005451,-0.005055,57.388809,29.812744,-145.830948,,,
729706716.256941,-0.827877,-1.139504,114.475912,0.03627,-0.012497,1.001175,0.042236,-0.005451,-0.005055,57.388809,29.812744,-145.830948,,,
729706716.258125,-0.827882,-1.139539,-29.43426,0.03627,-0.012497,1.001175,0.042236,-0.005451,-0.005055,57.388809,29.812744,-145.830948,,,
729706716.260269,-0.814922,-1.13711,114.47383,0.037888,-0.011185,1.003754,0.045441,0.017247,-0.009304,57.388809,29.812744,-145.830948,,,
729706716.262951,-0.814928,-1.137144,-29.436344,0.037888,-0.011185,1.003754,0.045441,0.017247,-0.009304,57.388809,29.812744,-145.830948,,,
729706716.263639,-0.814922,-1.13711,114.47383,0.037888,-0.011185,1.003754,0.045441,0.017247,-0.009304,57.388809,29.812744,-145.830948,,,
729706716.264611,-0.814928,-1.137144,-29.438329,0.037888,-0.011185,1.003754,0.045441,0.017247,-0.009304,57.388809,29.812744,-145.830948,,,
729706716.266994,-0.802531,-1.131442,114.471847,0.037888,-0.011185,1.003754,0.045441,0.017247,-0.009304,57.388809,29.812744,-145.830948,,,
729706716.268377,-0.802537,-1.131477,-29.438329,0.037888,-0.011185,1.003754,0.045441,0.017247,-0.009304,57.388809,29.812744,-145.830948,,,
729706716.270307,-0.791685,-1.123575,114.469924,0.038101,-0.008804,0.99913,0.033133,0.034121,-0.008608,57.388809,29.812744,-145.830948,,,
729706716.272679,-0.791691,-1.123609,-29.440251,0.038101,-0.008804,0.99913,0.033133,0.034121,-0.008608,57.590302,29.652969,-146.136337,,,
729706716.273674,-0.791685,-1.123575,114.469924,0.038101,-0.008804,0.99913,0.033133,0.034121,-0.008608,57.590302,29.652969,-146.136337,,,
729706716.274431,-0.791691,-1.123609,-29.440251,0.038101,-0.008804,0.99913,0.033133,0.034121,-0.008608,57.590302,29.652969,-146.136337,,,
729706716.276943,-0.783051,-1.11354,114.46832,0.038101,-0.008804,0.99913,0.033133,0.034121,-0.008608,57.590302,29.652969,-146.136337,,,
729706716.278385,-0.783056,-1.113574,-29.44185,0.038101,-0.008804,0.99913,0.033133,0.034121,-0.008608,57.590302,29.652969,-146.136337,,,
729706716.280283,-0.776571,-1.101795,114.467515,0.034454,-0.006546,0.990753,0.01881,0.046938,-0.002774,57.590302,29.652969,-146.136337,,,
729706716.282606,-0.776577,-1.101829,-29.442654,0.034454,-0.006546,0.990753,0.01881,0.046938,-0.002774,57.590302,29.652969,-146.136337,,,
729706716.283648,-0.776571,-1.101795,114.467515,0.034454,-0.006546,0.990753,0.01881,0.046938,-0.002774,57.590302,29.652969,-146.136337,,,
729706716.284499,-0.776577,-1.101829,-29.442654,0.034454,-0.006546,0.990753,0.01881,0.046938,-0.002774,57.590302,29.652969,-146.136337,,,
729706716.286932,-0.772567,-1.088827,114.467692,0.034454,-0.006546,0.990753,0.01881,0.046938,-0.002774,57.590302,29.652969,-146.136337,,,
729706716.28846,-0.772572,-1.088862,-29.442491,0.034454,-0.006546,0.990753,0.01881,0.046938,-0.002774,57.590302,29.652969,-146.136337,,,
729706716.290361,-0.771043,-1.074266,114.468406,0.026855,-0.008408,0.986954,0.000801,0.055421,0.001381,57.590302,29.652969,-146.136337,,,
729706716.293196,-0.771049,-1.074301,-29.441778,0.026855,-0.008408,0.986954,0.000801,0.055421,0.001381,57.590302,29.652969,-146.136337,,,
729706716.293707,-0.771043,-1.074266,114.468406,0.026855,-0.008408,0.986954,0.000801,0.055421,0.001381,57.590302,29.652969,-146.136337,,,
729706716.294408,-0.771049,-1.074301,-29.441778,0.026855,-0.008408,0.986954,0.000801,0.055421,0.001381,57.590302,29.652969,-146.136337,,,
729706716.296951,-0.77199,-1.059082,114.469368,0.026855,-0.008408,0.986954,0.000801,0.055421,0.001381,57.590302,29.652969,-146.136337,,,
729706716.298229,-0.771996,-1.059117,-29.440814,0.026855,-0.008408,0.986954,0.000801,0.055421,0.001381,57.590302,29.652969,-146.136337,,,
729706716.300256,-0.773247,-1.043057,114.470339,0.021515,-0.009262,0.988663,-0.00431,0.057853,0.001484,57.590302,29.652969,-146.136337,,,
729706716.302798,-0.773253,-1.043092,-29.439844,0.021515,-0.009262,0.988663,-0.00431,0.057853,0.001484,57.590302,29.652969,-146.136337,,,
729706716.303636,-0.773247,-1.043057,114.470339,0.021515,-0.009262,0.988663,-0.00431,0.057853,0.001484,57.590302,29.652969,-146.136337,,,
729706716.304414,-0.773253,-1.043092,-29.439844,0.021515,-0.009262,0.988663,-0.00431,0.057853,0.001484,57.590302,29.652969,-146.136337,,,
729706716.307033,-0.775716,-1.028254,114.470793,0.021515,-0.009262,0.988663,-0.00431,0.057853,0.001484,57.590302,29.652969,-146.136337,,,
729706716.308458,-0.775722,-1.028289,-29.439392,0.021515,-0.009262,0.988663,-0.00431,0.057853,0.001484,57.590302,29.652969,-146.136337,,,
729706716.310268,-0.778734,-1.012716,114.470657,0.013763,-0.012817,0.988174,-0.010731,0.056145,-0.002626,57.590302,29.652969,-146.136337,,,
729706716.313641,-0.778739,-1.012751,-29.43953,0.013763,-0.012817,0.988174,-0.010731,0.056145,-0.002626,57.502136,29.809128,-146.072418,,,
729706716.313923,-0.778734,-1.012716,114.470657,0.013763,-0.012817,0.988174,-0.010731,0.056145,-0.002626,57.502136,29.809128,-146.072418,,,
729706716.314615,-0.778739,-1.012751,-29.43953,0.013763,-0.012817,0.988174,-0.010731,0.056145,-0.002626,57.502136,29.809128,-146.072418,,,
729706716.316942,-0.782609,-0.999575,114.470176,0.013763,-0.012817,0.988174,-0.010731,0.056145,-0.002626,57.502136,29.809128,-146.072418,,,
729706716.318114,-0.782615,-0.99961,-29.440008,0.013763,-0.012817,0.988174,-0.010731,0.056145,-0.002626,57.502136,29.809128,-146.072418,,,
729706716.32027,-0.788092,-0.98598,114.469608,0.008316,-0.014618,0.988525,-0.023392,0.047281,-0.003196,57.502136,29.809128,-146.072418,,,
729706716.322149,-0.788097,-0.986015,-29.440581,0.008316,-0.014618,0.988525,-0.023392,0.047281,-0.003196,57.502136,29.809128,-146.072418,,,
729706716.32362,-0.788092,-0.98598,114.469608,0.008316,-0.014618,0.988525,-0.023392,0.047281,-0.003196,57.502136,29.809128,-146.072418,,,
729706716.324409,-0.788097,-0.986015,-29.440581,0.008316,-0.014618,0.988525,-0.023392,0.047281,-0.003196,57.502136,29.809128,-146.072418,,,
729706716.326938,-0.795469,-0.976391,114.468619,0.008316,-0.014618,0.988525,-0.023392,0.047281,-0.003196,57.502136,29.809128,-146.072418,,,
729706716.328362,-0.795475,-0.976426,-29.441568,0.008316,-0.014618,0.988525,-0.023392,0.047281,-0.003196,57.502136,29.809128,-146.072418,,,
729706716.33026,-0.80353,-0.966887,114.46777,0.004044,-0.015213,0.984268,-0.027734,0.029609,-0.002403,57.502136,29.809128,-146.072418,,,
729706716.332581,-0.803536,-0.966922,-29.442417,0.004044,-0.015213,0.984268,-0.027734,0.029609,-0.002403,57.502136,29.809128,-146.072418,,,
729706716.333681,-0.80353,-0.966887,114.46777,0.004044,-0.015213,0.984268,-0.027734,0.029609,-0.002403,57.502136,29.809128,-146.072418,,,
729706716.334413,-0.803536,-0.966922,-29.442417,0.004044,-0.015213,0.984268,-0.027734,0.029609,-0.002403,57.502136,29.809128,-146.072418,,,
729706716.336944,-0.813007,-0.963245,114.467824,0.004044,-0.015213,0.984268,-0.027734,0.029609,-0.002403,57.502136,29.809128,-146.072418,,,
729706716.338463,-0.813013,-0.96328,-29.442349,0.004044,-0.015213,0.984268,-0.027734,0.029609,-0.002403,57.502136,29.809128,-146.072418,,,
729706716.340348,-0.823916,-0.960265,114.469334,-0.000702,-0.018219,0.984406,-0.036255,0.007352,0.007523,57.502136,29.809128,-146.072418,,,
729706716.344211,-0.823922,-0.9603,-29.440836,-0.000702,-0.018219,0.984406,-0.036255,0.007352,0.007523,57.502136,29.809128,-146.072418,,,
729706716.344482,-0.823916,-0.960265,114.469334,-0.000702,-0.018219,0.984406,-0.036255,0.007352,0.007523,57.502136,29.809128,-146.072418,,,
729706716.346913,-0.834838,-0.962566,114.472477,-0.000702,-0.018219,0.984406,-0.036255,0.007352,0.007523,57.502136,29.809128,-146.072418,,,
729706716.348281,-0.834843,-0.962601,-29.437706,-0.000702,-0.018219,0.984406,-0.036255,0.007352,0.007523,57.502136,29.809128,-146.072418,,,
729706716.350259,-0.846904,-0.96432,114.475922,0.000275,-0.019684,0.989014,-0.04029,-0.007579,0.009486,57.502136,29.809128,-146.072418,,,
729706716.354624,-0.84691,-0.964355,-29.434258,0.000275,-0.019684,0.989014,-0.04029,-0.007579,0.009486,57.692017,29.83519,-146.109665,,,
729706716.354952,-0.857724,-0.971093,114.479453,0.000275,-0.019684,0.989014,-0.04029,-0.007579,0.009486,57.692017,29.83519,-146.109665,,,
729706716.356836,-0.857724,-0.971093,114.479453,0.000275,-0.019684,0.989014,-0.04029,-0.007579,0.009486,57.692017,29.83519,-146.109665,,,
729706716.358485,-0.85773,-0.971128,-29.430729,0.000275,-0.019684,0.989014,-0.04029,-0.007579,0.009486,57.692017,29.83519,-146.109665,,,
729706716.360269,-0.869431,-0.977889,114.484117,0.003616,-0.02063,0.992828,-0.039723,-0.026134,0.017154,57.692017,29.83519,-146.109665,,,
729706716.362147,-0.869437,-0.977923,-29.426064,0.003616,-0.02063,0.992828,-0.039723,-0.026134,0.017154,57.692017,29.83519,-146.109665,,,
729706716.363621,-0.869431,-0.977889,114.484117,0.003616,-0.02063,0.992828,-0.039723,-0.026134,0.017154,57.692017,29.83519,-146.109665,,,
729706716.364612,-0.869437,-0.977923,-29.426064,0.003616,-0.02063,0.992828,-0.039723,-0.026134,0.017154,57.692017,29.83519,-146.109665,,,
729706716.366932,-0.880532,-0.989503,114.489594,0.003616,-0.02063,0.992828,-0.039723,-0.026134,0.017154,57.692017,29.83519,-146.109665,,,
729706716.368659,-0.880538,-0.989538,-29.420587,0.003616,-0.02063,0.992828,-0.039723,-0.026134,0.017154,57.692017,29.83519,-146.109665,,,
729706716.370269,-0.892351,-1.000897,114.495465,0.005707,-0.024796,0.995148,-0.038231,-0.036209,0.019681,57.692017,29.83519,-146.109665,,,
729706716.372689,-0.892357,-1.000931,-29.414719,0.005707,-0.024796,0.995148,-0.038231,-0.036209,0.019681,57.692017,29.83519,-146.109665,,,
729706716.373622,-0.892351,-1.000897,114.495465,0.005707,-0.024796,0.995148,-0.038231,-0.036209,0.019681,57.692017,29.83519,-146.109665,,,
729706716.374413,-0.892357,-1.000931,-29.414719,0.005707,-0.024796,0.995148,-0.038231,-0.036209,0.019681,57.692017,29.83519,-146.109665,,,
729706716.376948,-0.90189,-1.011392,114.501083,0.005707,-0.024796,0.995148,-0.038231,-0.036209,0.019681,57.692017,29.83519,-146.109665,,,
729706716.37838,-0.901896,-1.011427,-29.409098,0.005707,-0.024796,0.995148,-0.038231,-0.036209,0.019681,57.692017,29.83519,-146.109665,,,
729706716.380272,-0.9103,-1.01886,114.506338,0.011612,-0.025711,1.014221,-0.025082,-0.020821,0.016895,57.692017,29.83519,-146.109665,,,
729706716.382912,-0.910306,-1.018895,-29.403841,0.011612,-0.025711,1.014221,-0.025082,-0.020821,0.016895,57.692017,29.83519,-146.109665,,,
729706716.383669,-0.9103,-1.01886,114.506338,0.011612,-0.025711,1.014221,-0.025082,-0.020821,0.016895,57.692017,29.83519,-146.109665,,,
729706716.384407,-0.910306,-1.018895,-29.403841,0.011612,-0.025711,1.014221,-0.025082,-0.020821,0.016895,57.692017,29.83519,-146.109665,,,
729706716.386944,-0.917061,-1.024262,114.511206,0.011612,-0.025711,1.014221,-0.025082,-0.020821,0.016895,57.692017,29.83519,-146.109665,,,
729706716.388109,-0.917067,-1.024297,-29.398977,0.011612,-0.025711,1.014221,-0.025082,-0.020821,0.016895,57.692017,29.83519,-146.109665,,,
729706716.390348,-0.92402,-1.02644,114.515273,0.017731,-0.024124,1.012085,-0.022788,0.001331,0.011292,57.692017,29.83519,-146.109665,,,
729706716.394347,-0.924026,-1.026475,-29.394909,0.017731,-0.024124,1.012085,-0.022788,0.001331,0.011292,57.513321,30.00206,-146.072067,,,
729706716.394639,-0.92402,-1.02644,114.515273,0.017731,-0.024124,1.012085,-0.022788,0.001331,0.011292,57.513321,30.00206,-146.072067,,,
729706716.396947,-0.930106,-1.024392,114.518746,0.017731,-0.024124,1.012085,-0.022788,0.001331,0.011292,57.513321,30.00206,-146.072067,,,
729706716.398517,-0.930112,-1.024427,-29.391443,0.017731,-0.024124,1.012085,-0.022788,0.001331,0.011292,57.513321,30.00206,-146.072067,,,
729706716.400264,-0.934945,-1.020204,114.522616,0.019836,-0.02655,1.010193,-0.012163,0.021966,0.014014,57.513321,30.00206,-146.072067,,,
729706716.401738,-0.934951,-1.020239,-29.387569,0.019836,-0.02655,1.010193,-0.012163,0.021966,0.014014,57.513321,30.00206,-146.072067,,,
729706716.403622,-0.934945,-1.020204,114.522616,0.019836,-0.02655,1.010193,-0.012163,0.021966,0.014014,57.513321,30.00206,-146.072067,,,
729706716.404411,-0.934951,-1.020239,-29.387569,0.019836,-0.02655,1.010193,-0.012163,0.021966,0.014014,57.513321,30.00206,-146.072067,,,
729706716.406948,-0.937359,-1.012121,114.527515,0.019836,-0.02655,1.010193,-0.012163,0.021966,0.014014,57.513321,30.00206,-146.072067,,,
729706716.408574,-0.937365,-1.012156,-29.382668,0.019836,-0.02655,1.010193,-0.012163,0.021966,0.014014,57.513321,30.00206,-146.072067,,,
729706716.410269,-0.937821,-1.004255,114.533383,0.021317,-0.02739,1.013809,0.002478,0.031101,0.020636,57.513321,30.00206,-146.072067,,,
729706716.412881,-0.937826,-1.004289,-29.376799,0.021317,-0.02739,1.013809,0.002478,0.031101,0.020636,57.513321,30.00206,-146.072067,,,
729706716.413644,-0.937821,-1.004255,114.533383,0.021317,-0.02739,1.013809,0.002478,0.031101,0.020636,57.513321,30.00206,-146.072067,,,
729706716.414566,-0.937826,-1.004289,-29.376799,0.021317,-0.02739,1.013809,0.002478,0.031101,0.020636,57.513321,30.00206,-146.072067,,,
729706716.41694,-0.936456,-0.993762,114.540265,0.021317,-0.02739,1.013809,0.002478,0.031101,0.020636,57.513321,30.00206,-146.072067,,,
729706716.418344,-0.936462,-0.993797,-29.369914,0.021317,-0.02739,1.013809,0.002478,0.031101,0.020636,57.513321,30.00206,-146.072067,,,
729706716.420264,-0.933911,-0.985142,114.548298,0.021881,-0.023804,1.006973,0.010953,0.031679,0.028688,57.513321,30.00206,-146.072067,,,
729706716.422256,-0.933917,-0.985176,-29.361882,0.021881,-0.023804,1.006973,0.010953,0.031679,0.028688,57.513321,30.00206,-146.072067,,,
729706716.423682,-0.933911,-0.985142,114.548298,0.021881,-0.023804,1.006973,0.010953,0.031679,0.028688,57.513321,30.00206,-146.072067,,,
729706716.424405,-0.933917,-0.985176,-29.361882,0.021881,-0.023804,1.006973,0.010953,0.031679,0.028688,57.513321,30.00206,-146.072067,,,
729706716.426949,-0.931492,-0.975365,114.556904,0.021881,-0.023804,1.006973,0.010953,0.031679,0.028688,57.513321,30.00206,-146.072067,,,
729706716.428364,-0.931498,-0.9754,-29.353278,0.021881,-0.023804,1.006973,0.010953,0.031679,0.028688,57.513321,30.00206,-146.072067,,,
729706716.43027,-0.929181,-0.969534,114.564889,0.022949,-0.021317,0.99704,0.007405,0.02012,0.024684,57.513321,30.00206,-146.072067,,,
729706716.432094,-0.929187,-0.969568,-29.345298,0.022949,-0.021317,0.99704,0.007405,0.02012,0.024684,57.513321,30.00206,-146.072067,,,
729706716.433617,-0.929181,-0.969534,114.564889,0.022949,-0.021317,0.99704,0.007405,0.02012,0.024684,57.513321,30.00206,-146.072067,,,
729706716.435073,-0.929187,-0.969568,-29.345298,0.022949,-0.021317,0.99704,0.007405,0.02012,0.024684,57.482391,29.725784,-145.809158,,,
729706716.437009,-0.927904,-0.963642,114.571576,0.022949,-0.021317,0.99704,0.007405,0.02012,0.024684,57.482391,29.725784,-145.809158,,,
729706716.438313,-0.92791,-0.963677,-29.338613,0.022949,-0.021317,0.99704,0.007405,0.02012,0.024684,57.482391,29.725784,-145.809158,,,
729706716.44027,-0.926204,-0.961127,114.576237,0.028336,-0.014862,0.994385,0.006899,0.009563,0.010812,57.482391,29.725784,-145.809158,,,
729706716.442309,-0.92621,-0.961162,-29.333949,0.028336,-0.014862,0.994385,0.006899,0.009563,0.010812,57.482391,29.725784,-145.809158,,,
729706716.443619,-0.926204,-0.961127,114.576237,0.028336,-0.014862,0.994385,0.006899,0.009563,0.010812,57.482391,29.725784,-145.809158,,,
729706716.444402,-0.92621,-0.961162,-29.333949,0.028336,-0.014862,0.994385,0.006899,0.009563,0.010812,57.482391,29.725784,-145.809158,,,
729706716.44695,-0.925444,-0.958071,114.578191,0.028336,-0.014862,0.994385,0.006899,0.009563,0.010812,57.482391,29.725784,-145.809158,,,
729706716.447858,-0.92545,-0.958106,-29.331992,0.028336,-0.014862,0.994385,0.006899,0.009563,0.010812,57.482391,29.725784,-145.809158,,,
729706716.450263,-0.923731,-0.95733,114.577356,0.033096,-0.011963,0.997253,0.007884,0.003554,-0.008529,57.482391,29.725784,-145.809158,,,
729706716.45316,-0.923737,-0.957364,-29.332829,0.033096,-0.011963,0.997253,0.007884,0.003554,-0.008529,57.482391,29.725784,-145.809158,,,
729706716.453648,-0.923731,-0.95733,114.577356,0.033096,-0.011963,0.997253,0.007884,0.003554,-0.008529,57.482391,29.725784,-145.809158,,,
729706716.454414,-0.923737,-0.957364,-29.332829,0.033096,-0.011963,0.997253,0.007884,0.003554,-0.008529,57.482391,29.725784,-145.809158,,,
729706716.456947,-0.922764,-0.95638,114.574313,0.033096,-0.011963,0.997253,0.007884,0.003554,-0.008529,57.482391,29.725784,-145.809158,,,
729706716.458004,-0.92277,-0.956415,-29.335859,0.033096,-0.011963,0.997253,0.007884,0.003554,-0.008529,57.482391,29.725784,-145.809158,,,
729706716.460262,-0.920541,-0.957345,114.568832,0.031509,-0.014648,0.996155,0.00877,-0.001822,-0.025497,57.482391,29.725784,-145.809158,,,
729706716.462376,-0.920547,-0.95738,-29.341343,0.031509,-0.014648,0.996155,0.00877,-0.001822,-0.025497,57.482391,29.725784,-145.809158,,,
729706716.463684,-0.920541,-0.957345,114.568832,0.031509,-0.014648,0.996155,0.00877,-0.001822,-0.025497,57.482391,29.725784,-145.809158,,,
729706716.464578,-0.920547,-0.95738,-29.341343,0.031509,-0.014648,0.996155,0.00877,-0.001822,-0.025497,57.482391,29.725784,-145.809158,,,
729706716.466931,-0.919317,-0.95879,114.561939,0.031509,-0.014648,0.996155,0.00877,-0.001822,-0.025497,57.482391,29.725784,-145.809158,,,
729706716.468028,-0.919323,-0.958824,-29.348243,0.031509,-0.014648,0.996155,0.00877,-0.001822,-0.025497,57.482391,29.725784,-145.809158,,,
729706716.470261,-0.917144,-0.960857,114.554878,0.026642,-0.018219,0.996613,0.008457,-0.004482,-0.026665,57.482391,29.725784,-145.809158,,,
729706716.471548,-0.91715,-0.960891,-29.355304,0.026642,-0.018219,0.996613,0.008457,-0.004482,-0.026665,57.482391,29.725784,-145.809158,,,
729706716.47361,-0.917144,-0.960857,114.554878,0.026642,-0.018219,0.996613,0.008457,-0.004482,-0.026665,57.482391,29.725784,-145.809158,,,
729706716.474406,-0.91715,-0.960891,-29.355304,0.026642,-0.018219,0.996613,0.008457,-0.004482,-0.026665,57.482391,29.725784,-145.809158,,,
729706716.477005,-0.915673,-0.964213,114.548273,0.026642,-0.018219,0.996613,0.008457,-0.004482,-0.026665,57.533173,29.925079,-146.186798,,,
729706716.478373,-0.915679,-0.964248,-29.3619,0.026642,-0.018219,0.996613,0.008457,-0.004482,-0.026665,57.533173,29.925079,-146.186798,,,
729706716.480269,-0.912489,-0.968173,114.542954,0.027512,-0.022354,0.994339,0.013432,-0.010658,-0.017853,57.533173,29.925079,-146.186798,,,
729706716.482644,-0.912495,-0.968208,-29.367216,0.027512,-0.022354,0.994339,0.013432,-0.010658,-0.017853,57.533173,29.925079,-146.186798,,,
729706716.483598,-0.912489,-0.968173,114.542954,0.027512,-0.022354,0.994339,0.013432,-0.010658,-0.017853,57.533173,29.925079,-146.186798,,,
729706716.484413,-0.912495,-0.968208,-29.367216,0.027512,-0.022354,0.994339,0.013432,-0.010658,-0.017853,57.533173,29.925079,-146.186798,,,
729706716.486945,-0.908685,-0.971536,114.539206,0.027512,-0.022354,0.994339,0.013432,-0.010658,-0.017853,57.533173,29.925079,-146.186798,,,
729706716.487735,-0.90869,-0.971571,-29.370963,0.027512,-0.022354,0.994339,0.013432,-0.010658,-0.017853,57.533173,29.925079,-146.186798,,,
729706716.490257,-0.900528,-0.971868,114.536448,0.028946,-0.023346,1.003204,0.034867,0.007753,-0.011402,57.533173,29.925079,-146.186798,,,
729706716.493133,-0.900534,-0.971903,-29.373722,0.028946,-0.023346,1.003204,0.034867,0.007753,-0.011402,57.533173,29.925079,-146.186798,,,
729706716.493638,-0.900528,-0.971868,114.536448,0.028946,-0.023346,1.003204,0.034867,0.007753,-0.011402,57.533173,29.925079,-146.186798,,,
729706716.494406,-0.900534,-0.971903,-29.373722,0.028946,-0.023346,1.003204,0.034867,0.007753,-0.011402,57.533173,29.925079,-146.186798,,,
729706716.49694,-0.889787,-0.968788,114.53341,0.028946,-0.023346,1.003204,0.034867,0.007753,-0.011402,57.533173,29.925079,-146.186798,,,
729706716.49845,-0.889793,-0.968823,-29.376761,0.028946,-0.023346,1.003204,0.034867,0.007753,-0.011402,57.533173,29.925079,-146.186798,,,
729706716.500253,-0.873858,-0.96215,114.529428,0.036209,-0.019516,1.017685,0.063267,0.0289,-0.018489,57.533173,29.925079,-146.186798,,,
729706716.502702,-0.873864,-0.962185,-29.380744,0.036209,-0.019516,1.017685,0.063267,0.0289,-0.018489,57.533173,29.925079,-146.186798,,,
729706716.503673,-0.873858,-0.96215,114.529428,0.036209,-0.019516,1.017685,0.063267,0.0289,-0.018489,57.533173,29.925079,-146.186798,,,
729706716.504406,-0.873864,-0.962185,-29.380744,0.036209,-0.019516,1.017685,0.063267,0.0289,-0.018489,57.533173,29.925079,-146.186798,,,
729706716.506952,-0.856572,-0.953635,114.524435,0.036209,-0.019516,1.017685,0.063267,0.0289,-0.018489,57.533173,29.925079,-146.186798,,,
729706716.508643,-0.856578,-0.95367,-29.385746,0.036209,-0.019516,1.017685,0.063267,0.0289,-0.018489,57.533173,29.925079,-146.186798,,,
729706716.510278,-0.838349,-0.942278,114.51808,0.035614,-0.014282,1.008698,0.063953,0.043609,-0.027994,57.533173,29.925079,-146.186798,,,
729706716.512492,-0.838354,-0.942312,-29.392102,0.035614,-0.014282,1.008698,0.063953,0.043609,-0.027994,57.533173,29.925079,-146.186798,,,
729706716.513617,-0.838349,-0.942278,114.51808,0.035614,-0.014282,1.008698,0.063953,0.043609,-0.027994,57.533173,29.925079,-146.186798,,,
729706716.514488,-0.838354,-0.942312,-29.392102,0.035614,-0.014282,1.008698,0.063953,0.043609,-0.027994,57.533173,29.925079,-146.186798,,,
729706716.516926,-0.82113,-0.930368,114.510569,0.035614,-0.014282,1.008698,0.063953,0.043609,-0.027994,57.710037,29.811111,-146.085083,,,
729706716.519164,-0.821136,-0.930403,-29.39962,0.035614,-0.014282,1.008698,0.063953,0.043609,-0.027994,57.710037,29.811111,-146.085083,,,
729706716.520267,-0.805879,-0.915353,114.502309,0.024292,-0.01358,0.995193,0.047383,0.057974,-0.032939,57.710037,29.811111,-146.085083,,,
729706716.522645,-0.805885,-0.915388,-29.407865,0.024292,-0.01358,0.995193,0.047383,0.057974,-0.032939,57.710037,29.811111,-146.085083,,,
729706716.523615,-0.805879,-0.915353,114.502309,0.024292,-0.01358,0.995193,0.047383,0.057974,-0.032939,57.710037,29.811111,-146.085083,,,
729706716.524401,-0.805885,-0.915388,-29.407865,0.024292,-0.01358,0.995193,0.047383,0.057974,-0.032939,57.710037,29.811111,-146.085083,,,
729706716.526923,-0.793369,-0.901597,114.493925,0.024292,-0.01358,0.995193,0.047383,0.057974,-0.032939,57.710037,29.811111,-146.085083,,,
729706716.52865,-0.793375,-0.901632,-29.416247,0.024292,-0.01358,0.995193,0.047383,0.057974,-0.032939,57.710037,29.811111,-146.085083,,,
729706716.530254,-0.783832,-0.885712,114.486041,0.019623,-0.01355,0.988251,0.027465,0.059562,-0.029313,57.710037,29.811111,-146.085083,,,
729706716.532255,-0.783837,-0.885746,-29.424135,0.019623,-0.01355,0.988251,0.027465,0.059562,-0.029313,57.710037,29.811111,-146.085083,,,
729706716.533611,-0.783832,-0.885712,114.486041,0.019623,-0.01355,0.988251,0.027465,0.059562,-0.029313,57.710037,29.811111,-146.085083,,,
729706716.534413,-0.783837,-0.885746,-29.424135,0.019623,-0.01355,0.988251,0.027465,0.059562,-0.029313,57.710037,29.811111,-146.085083,,,
729706716.536953,-0.777409,-0.871734,114.478449,0.019623,-0.01355,0.988251,0.027465,0.059562,-0.029313,57.710037,29.811111,-146.085083,,,
729706716.538291,-0.777415,-0.871769,-29.431727,0.019623,-0.01355,0.988251,0.027465,0.059562,-0.029313,57.710037,29.811111,-146.085083,,,
729706716.540265,-0.77361,-0.856872,114.471796,0.017136,-0.010437,0.982834,0.009637,0.050322,-0.022716,57.710037,29.811111,-146.085083,,,
729706716.542679,-0.773616,-0.856907,-29.438383,0.017136,-0.010437,0.982834,0.009637,0.050322,-0.022716,57.710037,29.811111,-146.085083,,,
729706716.54361,-0.77361,-0.856872,114.471796,0.017136,-0.010437,0.982834,0.009637,0.050322,-0.022716,57.710037,29.811111,-146.085083,,,
729706716.544406,-0.773616,-0.856907,-29.438383,0.017136,-0.010437,0.982834,0.009637,0.050322,-0.022716,57.710037,29.811111,-146.085083,,,
729706716.546921,-0.77195,-0.845381,114.465866,0.017136,-0.010437,0.982834,0.009637,0.050322,-0.022716,57.710037,29.811111,-146.085083,,,
729706716.548151,-0.771955,-0.845416,-29.444316,0.017136,-0.010437,0.982834,0.009637,0.050322,-0.022716,57.710037,29.811111,-146.085083,,,
729706716.55026,-0.77098,-0.834143,114.459929,0.010498,-0.009003,0.983383,0.002206,0.036773,-0.022774,57.710037,29.811111,-146.085083,,,
729706716.552317,-0.770986,-0.834177,-29.450254,0.010498,-0.009003,0.983383,0.002206,0.036773,-0.022774,57.710037,29.811111,-146.085083,,,
729706716.553611,-0.77098,-0.834143,114.459929,0.010498,-0.009003,0.983383,0.002206,0.036773,-0.022774,57.710037,29.811111,-146.085083,,,
729706716.554421,-0.770986,-0.834177,-29.450254,0.010498,-0.009003,0.983383,0.002206,0.036773,-0.022774,57.710037,29.811111,-146.085083,,,
729706716.556925,-0.771743,-0.827594,114.453328,0.010498,-0.009003,0.983383,0.002206,0.036773,-0.022774,57.808624,29.60173,-146.035324,,,
729706716.558673,-0.771749,-0.827629,-29.456859,0.010498,-0.009003,0.983383,0.002206,0.036773,-0.022774,57.808624,29.60173,-146.035324,,,
729706716.560349,-0.773055,-0.822694,114.445603,0.007431,-0.008408,0.981628,-0.007429,0.015374,-0.030477,57.808624,29.60173,-146.035324,,,
729706716.563045,-0.773061,-0.822729,-29.464569,0.007431,-0.008408,0.981628,-0.007429,0.015374,-0.030477,57.808624,29.60173,-146.035324,,,
729706716.56364,-0.773055,-0.822694,114.445603,0.007431,-0.008408,0.981628,-0.007429,0.015374,-0.030477,57.808624,29.60173,-146.035324,,,
729706716.564558,-0.773061,-0.822729,-29.464569,0.007431,-0.008408,0.981628,-0.007429,0.015374,-0.030477,57.808624,29.60173,-146.035324,,,
729706716.566921,-0.776983,-0.821898,114.437181,0.007431,-0.008408,0.981628,-0.007429,0.015374,-0.030477,57.808624,29.60173,-146.035324,,,
729706716.568364,-0.776989,-0.821933,-29.472995,0.007431,-0.008408,0.981628,-0.007429,0.015374,-0.030477,57.808624,29.60173,-146.035324,,,
729706716.570276,-0.781307,-0.821489,114.428631,0.004486,-0.011032,0.97908,-0.018729,0.00073,-0.031385,57.808624,29.60173,-146.035324,,,
729706716.572,-0.781313,-0.821524,-29.481547,0.004486,-0.011032,0.97908,-0.018729,0.00073,-0.031385,57.808624,29.60173,-146.035324,,,
729706716.57362,-0.781307,-0.821489,114.428631,0.004486,-0.011032,0.97908,-0.018729,0.00073,-0.031385,57.808624,29.60173,-146.035324,,,
729706716.57441,-0.781313,-0.821524,-29.481547,0.004486,-0.011032,0.97908,-0.018729,0.00073,-0.031385,57.808624,29.60173,-146.035324,,,
729706716.577011,-0.787621,-0.82529,114.419943,0.004486,-0.011032,0.97908,-0.018729,0.00073,-0.031385,57.808624,29.60173,-146.035324,,,
729706716.578601,-0.787627,-0.825325,-29.490237,0.004486,-0.011032,0.97908,-0.018729,0.00073,-0.031385,57.808624,29.60173,-146.035324,,,
729706716.580299,-0.794083,-0.828486,114.411721,0.004486,-0.011032,0.97908,-0.026092,-0.009726,-0.028206,57.808624,29.60173,-146.035324,,,
729706716.582808,-0.794088,-0.828521,-29.498463,0.004379,-0.012497,0.981857,-0.026092,-0.009726,-0.028206,57.808624,29.60173,-146.035324,,,
729706716.583671,-0.794083,-0.828486,114.411721,0.004379,-0.012497,0.981857,-0.026092,-0.009726,-0.028206,57.808624,29.60173,-146.035324,,,
729706716.584415,-0.794088,-0.828521,-29.498463,0.004379,-0.012497,0.981857,-0.026092,-0.009726,-0.028206,57.808624,29.60173,-146.035324,,,
729706716.58693,-0.802069,-0.835254,114.404294,0.004379,-0.012497,0.981857,-0.026092,-0.009726,-0.028206,57.808624,29.60173,-146.035324,,,
729706716.588678,-0.802075,-0.835289,-29.505888,0.004379,-0.012497,0.981857,-0.026092,-0.009726,-0.028206,57.808624,29.60173,-146.035324,,,
729706716.59027,-0.808813,-0.838823,114.397246,0.007614,-0.014481,0.988464,-0.019688,-0.007946,-0.02591,57.808624,29.60173,-146.035324,,,
729706716.592043,-0.808819,-0.838857,-29.512933,0.007614,-0.014481,0.988464,-0.019688,-0.007946,-0.02591,57.808624,29.60173,-146.035324,,,
729706716.593617,-0.808813,-0.838823,114.397246,0.007614,-0.014481,0.988464,-0.019688,-0.007946,-0.02591,57.808624,29.60173,-146.035324,,,
729706716.594406,-0.808819,-0.838857,-29.512933,0.007614,-0.014481,0.988464,-0.019688,-0.007946,-0.02591,57.808624,29.60173,-146.035324,,,
729706716.596921,-0.812657,-0.842504,114.390644,0.007614,-0.014481,0.988464,-0.019688,-0.007946,-0.02591,57.808624,29.60173,-146.035324,,,
729706716.598134,-0.812663,-0.842539,-29.519534,0.007614,-0.014481,0.988464,-0.019688,-0.007946,-0.02591,57.808624,29.60173,-146.035324,,,
729706716.600259,-0.814048,-0.841786,114.384839,0.008301,-0.017624,1.002914,-0.00152,0.010064,-0.020788,57.829315,29.530533,-146.150558,,,
729706716.603915,-0.814054,-0.84182,-29.525338,0.008301,-0.017624,1.002914,-0.00152,0.010064,-0.020788,57.829315,29.530533,-146.150558,,,
729706716.604205,-0.814048,-0.841786,114.384839,0.008301,-0.017624,1.002914,-0.00152,0.010064,-0.020788,57.829315,29.530533,-146.150558,,,
729706716.604486,-0.814054,-0.84182,-29.525338,0.008301,-0.017624,1.002914,-0.00152,0.010064,-0.020788,57.829315,29.530533,-146.150558,,,
729706716.607002,-0.813281,-0.840145,114.380277,0.008301,-0.017624,1.002914,-0.00152,0.010064,-0.020788,57.829315,29.530533,-146.150558,,,
729706716.607745,-0.813287,-0.84018,-29.529896,0.008301,-0.017624,1.002914,-0.00152,0.010064,-0.020788,57.829315,29.530533,-146.150558,,,
729706716.610333,-0.811162,-0.836601,114.376551,0.008301,-0.021545,1.005692,0.008249,0.018046,-0.01513,57.829315,29.530533,-146.150558,,,
729706716.612586,-0.811168,-0.836635,-29.533619,0.008301,-0.021545,1.005692,0.008249,0.018046,-0.01513,57.829315,29.530533,-146.150558,,,
729706716.613635,-0.811162,-0.836601,114.376551,0.008301,-0.021545,1.005692,0.008249,0.018046,-0.01513,57.829315,29.530533,-146.150558,,,
729706716.614602,-0.811168,-0.836635,-29.533619,0.008301,-0.021545,1.005692,0.008249,0.018046,-0.01513,57.829315,29.530533,-146.150558,,,
729706716.616988,-0.808825,-0.832509,114.373838,0.008301,-0.021545,1.005692,0.008249,0.018046,-0.01513,57.829315,29.530533,-146.150558,,,
729706716.618374,-0.808831,-0.832543,-29.536336,0.008301,-0.021545,1.005692,0.008249,0.018046,-0.01513,57.829315,29.530533,-146.150558,,,
729706716.620268,-0.80678,-0.826312,114.37349,0.008301,-0.021545,1.005692,0.008249,0.018046,-0.01513,57.829315,29.530533,-146.150558,,,
729706716.622789,-0.806786,-0.826346,-29.536682,0.006485,-0.022415,0.999344,0.007988,0.027755,0.001262,57.829315,29.530533,-146.150558,,,
729706716.623675,-0.80678,-0.826312,114.37349,0.006485,-0.022415,0.999344,0.007988,0.027755,0.001262,57.829315,29.530533,-146.150558,,,
729706716.624407,-0.806786,-0.826346,-29.536682,0.006485,-0.022415,0.999344,0.007988,0.027755,0.001262,57.829315,29.530533,-146.150558,,,
729706716.626923,-0.804996,-0.81772,114.374358,0.006485,-0.022415,0.999344,0.007988,0.027755,0.001262,57.829315,29.530533,-146.150558,,,
729706716.628127,-0.805002,-0.817755,-29.535819,0.006485,-0.022415,0.999344,0.007988,0.027755,0.001262,57.829315,29.530533,-146.150558,,,
729706716.630264,-0.804996,-0.807455,114.376208,0.006485,-0.022415,0.999344,0.007988,0.027755,0.001262,57.829315,29.530533,-146.150558,,,
729706716.632811,-0.804675,-0.80749,-29.533975,0.008987,-0.016342,1.003098,0.001083,0.040517,0.0082,57.829315,29.530533,-146.150558,,,
729706716.633613,-0.804669,-0.807455,114.376208,0.008987,-0.016342,1.003098,0.001083,0.040517,0.0082,57.829315,29.530533,-146.150558,,,
729706716.634419,-0.804675,-0.80749,-29.533975,0.008987,-0.016342,1.003098,0.001083,0.040517,0.0082,57.829315,29.530533,-146.150558,,,
729706716.636921,-0.805122,-0.795398,114.378473,0.008987,-0.016342,1.003098,0.001083,0.040517,0.0082,57.829315,29.530533,-146.150558,,,
729706716.638424,-0.805128,-0.795432,-29.531717,0.008987,-0.016342,1.003098,0.001083,0.040517,0.0082,57.829315,29.530533,-146.150558,,,
729706716.6403,-0.805122,-0.78327,114.380631,0.008987,-0.016342,1.003098,0.001083,0.040517,0.0082,57.948929,29.612045,-145.871628,,,
729706716.643634,-0.808391,-0.783305,-29.529559,0.013382,-0.010849,1.000839,-0.014485,0.045329,0.007694,57.948929,29.612045,-145.871628,,,
729706716.64391,-0.808385,-0.78327,114.380631,0.013382,-0.010849,1.000839,-0.014485,0.045329,0.007694,57.948929,29.612045,-145.871628,,,
729706716.644382,-0.808391,-0.783305,-29.529559,0.013382,-0.010849,1.000839,-0.014485,0.045329,0.007694,57.948929,29.612045,-145.871628,,,
729706716.646955,-0.813152,-0.770688,114.382835,0.013382,-0.010849,1.000839,-0.014485,0.045329,0.007694,57.948929,29.612045,-145.871628,,,
729706716.648314,-0.813158,-0.770723,-29.527347,0.013382,-0.010849,1.000839,-0.014485,0.045329,0.007694,57.948929,29.612045,-145.871628,,,
729706716.650292,-0.813152,-0.770688,114.384231,0.013382,-0.010849,1.000839,-0.014485,0.045329,0.007694,57.948929,29.612045,-145.871628,,,
729706716.652581,-0.819938,-0.760469,-29.525957,0.012787,-0.010895,0.992996,-0.024627,0.035545,0.002228,57.948929,29.612045,-145.871628,,,
729706716.653624,-0.819932,-0.760435,114.384231,0.012787,-0.010895,0.992996,-0.024627,0.035545,0.002228,57.948929,29.612045,-145.871628,,,
729706716.654409,-0.819938,-0.760469,-29.525957,0.012787,-0.010895,0.992996,-0.024627,0.035545,0.002228,57.948929,29.612045,-145.871628,,,
729706716.657008,-0.827065,-0.750663,114.385149,0.012787,-0.010895,0.992996,-0.024627,0.035545,0.002228,57.948929,29.612045,-145.871628,,,
729706716.658416,-0.827071,-0.750697,-29.525023,0.012787,-0.010895,0.992996,-0.024627,0.035545,0.002228,57.948929,29.612045,-145.871628,,,
729706716.66032,-0.827065,-0.743333,114.385407,0.012787,-0.010895,0.992996,-0.024862,0.026643,-0.002315,57.948929,29.612045,-145.871628,,,
729706716.663206,-0.834382,-0.743368,-29.524766,0.011795,-0.012268,0.995911,-0.024862,0.026643,-0.002315,57.948929,29.612045,-145.871628,,,
729706716.663614,-0.834376,-0.743333,114.385407,0.011795,-0.012268,0.995911,-0.024862,0.026643,-0.002315,57.948929,29.612045,-145.871628,,,
729706716.664594,-0.834382,-0.743368,-29.524766,0.011795,-0.012268,0.995911,-0.024862,0.026643,-0.002315,57.948929,29.612045,-145.871628,,,
729706716.66691,-0.840517,-0.736177,114.384818,0.011795,-0.012268,0.995911,-0.024862,0.026643,-0.002315,57.948929,29.612045,-145.871628,,,
729706716.668458,-0.840523,-0.736211,-29.525353,0.011795,-0.012268,0.995911,-0.024862,0.026643,-0.002315,57.948929,29.612045,-145.871628,,,
729706716.670267,-0.840517,-0.736177,114.384818,0.011795,-0.012268,0.995911,-0.024862,0.026643,-0.002315,57.948929,29.612045,-145.871628,,,
729706716.671839,-0.844905,-0.730691,-29.526095,0.012177,-0.012878,0.998413,-0.011976,0.020903,-0.003432,57.948929,29.612045,-145.871628,,,
729706716.673667,-0.844899,-0.730656,114.384076,0.012177,-0.012878,0.998413,-0.011976,0.020903,-0.003432,57.948929,29.612045,-145.871628,,,
729706716.674401,-0.844905,-0.730691,-29.526095,0.012177,-0.012878,0.998413,-0.011976,0.020903,-0.003432,57.948929,29.612045,-145.871628,,,
729706716.676925,-0.848386,-0.72526,114.38364,0.012177,-0.012878,0.998413,-0.011976,0.020903,-0.003432,57.948929,29.612045,-145.871628,,,
729706716.6781,-0.848391,-0.725294,-29.526531,0.012177,-0.012878,0.998413,-0.011976,0.020903,-0.003432,57.948929,29.612045,-145.871628,,,
729706716.680303,-0.848386,-0.72526,114.38364,0.012177,-0.012878,0.998413,-0.011976,0.020903,-0.003432,57.817459,29.598877,-146.253677,,,
729706716.682541,-0.850501,-0.721072,-29.526564,0.011078,-0.016174,0.999817,-0.002862,0.016859,-0.000665,57.817459,29.598877,-146.253677,,,
729706716.68362,-0.850495,-0.721038,114.383605,0.011078,-0.016174,0.999817,-0.002862,0.016859,-0.000665,57.817459,29.598877,-146.253677,,,
729706716.684412,-0.850501,-0.721072,-29.526564,0.011078,-0.016174,0.999817,-0.002862,0.016859,-0.000665,57.817459,29.598877,-146.253677,,,
729706716.686922,-0.851635,-0.716588,114.383926,0.011078,-0.016174,0.999817,-0.002862,0.016859,-0.000665,57.817459,29.598877,-146.253677,,,
729706716.687754,-0.851641,-0.716623,-29.52626,0.011078,-0.016174,0.999817,-0.002862,0.016859,-0.000665,57.817459,29.598877,-146.253677,,,
729706716.69031,-0.851635,-0.716588,114.383926,0.011078,-0.016174,0.999817,-0.002862,0.016859,-0.000665,57.817459,29.598877,-146.253677,,,
729706716.693596,-0.851021,-0.712149,-29.525297,0.014221,-0.017685,1.001846,0.006108,0.020198,0.003796,57.817459,29.598877,-146.253677,,,
729706716.693855,-0.851015,-0.712114,114.384886,0.014221,-0.017685,1.001846,0.006108,0.020198,0.003796,57.817459,29.598877,-146.253677,,,
729706716.694389,-0.851021,-0.712149,-29.525297,0.014221,-0.017685,1.001846,0.006108,0.020198,0.003796,57.817459,29.598877,-146.253677,,,
729706716.696927,-0.850116,-0.706518,114.386467,0.014221,-0.017685,1.001846,0.006108,0.020198,0.003796,57.817459,29.598877,-146.253677,,,
729706716.698206,-0.850121,-0.706552,-29.523718,0.014221,-0.017685,1.001846,0.006108,0.020198,0.003796,57.817459,29.598877,-146.253677,,,
729706716.700317,-0.850116,-0.706518,114.386467,0.014221,-0.017685,1.001846,0.006108,0.020198,0.003796,57.817459,29.598877,-146.253677,,,
729706716.701898,-0.848327,-0.701425,-29.521962,0.015869,-0.016357,1.001068,0.006112,0.021047,0.005069,57.817459,29.598877,-146.253677,,,
729706716.703621,-0.848321,-0.70139,114.388218,0.015869,-0.016357,1.001068,0.006112,0.021047,0.005069,57.817459,29.598877,-146.253677,,,
729706716.704404,-0.848327,-0.701425,-29.521962,0.015869,-0.016357,1.001068,0.006112,0.021047,0.005069,57.817459,29.598877,-146.253677,,,
729706716.70694,-0.847693,-0.695429,114.390551,0.015869,-0.016357,1.001068,0.006112,0.021047,0.005069,57.817459,29.598877,-146.253677,,,
729706716.70774,-0.847699,-0.695464,-29.519627,0.015869,-0.016357,1.001068,0.006112,0.021047,0.005069,57.817459,29.598877,-146.253677,,,
729706716.710322,-0.847693,-0.695429,114.390551,0.015869,-0.016357,1.001068,0.006112,0.021047,0.005069,57.817459,29.598877,-146.253677,,,
729706716.712945,-0.847819,-0.689585,-29.516832,0.018555,-0.013,1.000717,-0.003205,0.025237,0.008441,57.817459,29.598877,-146.253677,,,
729706716.71364,-0.847813,-0.689551,114.393343,0.018555,-0.013,1.000717,-0.003205,0.025237,0.008441,57.817459,29.598877,-146.253677,,,
729706716.714599,-0.847819,-0.689585,-29.516832,0.018555,-0.013,1.000717,-0.003205,0.025237,0.008441,57.817459,29.598877,-146.253677,,,
729706716.716916,-0.849282,-0.683128,114.395772,0.018555,-0.013,1.000717,-0.003205,0.025237,0.008441,57.817459,29.598877,-146.253677,,,
729706716.718367,-0.849288,-0.683163,-29.514399,0.018555,-0.013,1.000717,-0.003205,0.025237,0.008441,57.817459,29.598877,-146.253677,,,
729706716.720265,-0.849282,-0.683128,114.395772,0.018555,-0.013,1.000717,-0.003205,0.025237,0.008441,57.817459,29.598877,-146.253677,,,
729706716.72196,-0.852417,-0.676028,-29.512166,0.020477,-0.010635,0.999374,-0.013819,0.029764,0.007145,57.863205,29.729263,-146.173111,,,
729706716.723613,-0.852411,-0.675993,114.398002,0.020477,-0.010635,0.999374,-0.013819,0.029764,0.007145,57.863205,29.729263,-146.173111,,,
729706716.724405,-0.852417,-0.676028,-29.512166,0.020477,-0.010635,0.999374,-0.013819,0.029764,0.007145,57.863205,29.729263,-146.173111,,,
729706716.726931,-0.856052,-0.668522,114.400075,0.020477,-0.010635,0.999374,-0.013819,0.029764,0.007145,57.863205,29.729263,-146.173111,,,
729706716.728386,-0.856058,-0.668556,-29.510091,0.020477,-0.010635,0.999374,-0.013819,0.029764,0.007145,57.863205,29.729263,-146.173111,,,
729706716.730283,-0.856052,-0.668522,114.400075,0.020477,-0.010635,0.999374,-0.013819,0.029764,0.007145,57.863205,29.729263,-146.173111,,,
729706716.732025,-0.860341,-0.659999,-29.508681,0.023499,-0.011337,1.000351,-0.014554,0.036123,0.002506,57.863205,29.729263,-146.173111,,,
729706716.73362,-0.860336,-0.659965,114.401504,0.023499,-0.011337,1.000351,-0.014554,0.036123,0.002506,57.863205,29.729263,-146.173111,,,
729706716.734413,-0.860341,-0.659999,-29.508681,0.023499,-0.011337,1.000351,-0.014554,0.036123,0.002506,57.863205,29.729263,-146.173111,,,
729706716.73692,-0.864252,-0.650149,114.402339,0.023499,-0.011337,1.000351,-0.014554,0.036123,0.002506,57.863205,29.729263,-146.173111,,,
729706716.738089,-0.864258,-0.650184,-29.507847,0.023499,-0.011337,1.000351,-0.014554,0.036123,0.002506,57.863205,29.729263,-146.173111,,,
729706716.7403,-0.864252,-0.650149,114.402339,0.023499,-0.011337,1.000351,-0.014554,0.036123,0.002506,57.863205,29.729263,-146.173111,,,
729706716.743054,-0.867883,-0.63952,-29.507536,0.023788,-0.01503,1.003128,-0.009436,0.041571,-0.00127,57.863205,29.729263,-146.173111,,,
729706716.743691,-0.867877,-0.639485,114.402646,0.023788,-0.01503,1.003128,-0.009436,0.041571,-0.00127,57.863205,29.729263,-146.173111,,,
729706716.74441,-0.867883,-0.63952,-29.507536,0.023788,-0.01503,1.003128,-0.009436,0.041571,-0.00127,57.863205,29.729263,-146.173111,,,
729706716.746932,-0.870262,-0.628931,114.402538,0.023788,-0.01503,1.003128,-0.009436,0.041571,-0.00127,57.863205,29.729263,-146.173111,,,
729706716.748264,-0.870268,-0.628966,-29.507654,0.023788,-0.01503,1.003128,-0.009436,0.041571,-0.00127,57.863205,29.729263,-146.173111,,,
729706716.750271,-0.870262,-0.628931,114.402538,0.023788,-0.01503,1.003128,-0.009436,0.041571,-0.00127,57.863205,29.729263,-146.173111,,,
729706716.751664,-0.871943,-0.61831,-29.508179,0.020401,-0.015823,1.000168,-0.003118,0.040572,-0.00425,57.863205,29.729263,-146.173111,,,
729706716.75362,-0.871937,-0.618275,114.401997,0.020401,-0.015823,1.000168,-0.003118,0.040572,-0.00425,57.863205,29.729263,-146.173111,,,
729706716.754406,-0.871943,-0.61831,-29.508179,0.020401,-0.015823,1.000168,-0.003118,0.040572,-0.00425,57.863205,29.729263,-146.173111,,,
729706716.756933,-0.87197,-0.607459,114.401119,0.020401,-0.015823,1.000168,-0.003118,0.040572,-0.00425,57.863205,29.729263,-146.173111,,,
729706716.758093,-0.871976,-0.607494,-29.50906,0.020401,-0.015823,1.000168,-0.003118,0.040572,-0.00425,57.863205,29.729263,-146.173111,,,
729706716.760283,-0.87197,-0.607459,114.401119,0.020401,-0.015823,1.000168,-0.003118,0.040572,-0.00425,57.863205,29.729263,-146.173111,,,
729706716.763453,-0.870775,-0.596587,-29.510151,0.0177,-0.015747,1.00235,0.006298,0.041335,-0.005817,57.816452,29.783386,-146.135269,,,
729706716.763736,-0.870769,-0.596552,114.400029,0.0177,-0.015747,1.00235,0.006298,0.041335,-0.005817,57.816452,29.783386,-146.135269,,,
729706716.764633,-0.870775,-0.596587,-29.510151,0.0177,-0.015747,1.00235,0.006298,0.041335,-0.005817,57.816452,29.783386,-146.135269,,,
729706716.76691,-0.868763,-0.586015,114.39912,0.0177,-0.015747,1.00235,0.006298,0.041335,-0.005817,57.816452,29.783386,-146.135269,,,
729706716.768136,-0.868769,-0.58605,-29.511059,0.0177,-0.015747,1.00235,0.006298,0.041335,-0.005817,57.816452,29.783386,-146.135269,,,
729706716.770406,-0.868763,-0.586015,114.39912,0.0177,-0.015747,1.00235,0.006298,0.041335,-0.005817,57.816452,29.783386,-146.135269,,,
729706716.771863,-0.86561,-0.575682,-29.511455,0.01355,-0.015564,1.004456,0.012586,0.037659,-0.002376,57.816452,29.783386,-146.135269,,,
729706716.773626,-0.865604,-0.575647,114.398729,0.01355,-0.015564,1.004456,0.012586,0.037659,-0.002376,57.816452,29.783386,-146.135269,,,
729706716.774405,-0.86561,-0.575682,-29.511455,0.01355,-0.015564,1.004456,0.012586,0.037659,-0.002376,57.816452,29.783386,-146.135269,,,
729706716.776932,-0.862391,-0.56683,114.398797,0.01355,-0.015564,1.004456,0.012586,0.037659,-0.002376,57.816452,29.783386,-146.135269,,,
729706716.778372,-0.862397,-0.566864,-29.511384,0.01355,-0.015564,1.004456,0.012586,0.037659,-0.002376,57.816452,29.783386,-146.135269,,,
729706716.780139,-0.862391,-0.56683,114.398797,0.01355,-0.015564,1.004456,0.012586,0.037659,-0.002376,57.816452,29.783386,-146.135269,,,
729706716.782069,-0.859335,-0.558642,-29.511093,0.014435,-0.016525,0.99437,0.009564,0.029505,-0.000852,57.816452,29.783386,-146.135269,,,
729706716.783665,-0.859329,-0.558607,114.399087,0.014435,-0.016525,0.99437,0.009564,0.029505,-0.000852,57.816452,29.783386,-146.135269,,,
729706716.784403,-0.859335,-0.558642,-29.511093,0.014435,-0.016525,0.99437,0.009564,0.029505,-0.000852,57.816452,29.783386,-146.135269,,,
729706716.786923,-0.85733,-0.552252,114.399469,0.014435,-0.016525,0.99437,0.009564,0.029505,-0.000852,57.816452,29.783386,-146.135269,,,
729706716.788087,-0.857336,-0.552286,-29.510709,0.014435,-0.016525,0.99437,0.009564,0.029505,-0.000852,57.816452,29.783386,-146.135269,,,
729706716.79036,-0.85733,-0.552252,114.399469,0.014435,-0.016525,0.99437,0.009564,0.029505,-0.000852,57.816452,29.783386,-146.135269,,,
729706716.793883,-0.856909,-0.545984,-29.510005,0.012695,-0.011841,0.996277,-0.00114,0.023438,0.001388,57.816452,29.783386,-146.135269,,,
729706716.794175,-0.856903,-0.545949,114.40017,0.012695,-0.011841,0.996277,-0.00114,0.023438,0.001388,57.816452,29.783386,-146.135269,,,
729706716.794449,-0.856909,-0.545984,-29.510005,0.012695,-0.011841,0.996277,-0.00114,0.023438,0.001388,57.816452,29.783386,-146.135269,,,
729706716.796931,-0.857991,-0.541274,114.401061,0.012695,-0.011841,0.996277,-0.00114,0.023438,0.001388,57.816452,29.783386,-146.135269,,,
729706716.798335,-0.857997,-0.541309,-29.509119,0.012695,-0.011841,0.996277,-0.00114,0.023438,0.001388,57.816452,29.783386,-146.135269,,,
729706716.80027,-0.857991,-0.541274,114.401061,0.012695,-0.011841,0.996277,-0.00114,0.023438,0.001388,57.816452,29.783386,-146.135269,,,
729706716.801361,-0.861509,-0.536258,-29.508227,0.009888,-0.011459,1.001984,-0.015511,0.017908,0.001402,57.816452,29.783386,-146.135269,,,
729706716.8036,-0.861503,-0.536223,114.401956,0.009888,-0.011459,1.001984,-0.015511,0.017908,0.001402,57.882355,29.720596,-146.071777,,,
729706716.80507,-0.861509,-0.536258,-29.508227,0.009888,-0.011459,1.001984,-0.015511,0.017908,0.001402,57.882355,29.720596,-146.071777,,,
729706716.807009,-0.866161,-0.533556,114.402532,0.009888,-0.011459,1.001984,-0.015511,0.017908,0.001402,57.882355,29.720596,-146.071777,,,
729706716.808378,-0.866167,-0.53359,-29.507645,0.009888,-0.011459,1.001984,-0.015511,0.017908,0.001402,57.882355,29.720596,-146.071777,,,
729706716.81028,-0.866161,-0.533556,114.402532,0.009888,-0.011459,1.001984,-0.015511,0.017908,0.001402,57.882355,29.720596,-146.071777,,,
729706716.811325,-0.872438,-0.530312,-29.507128,0.008682,-0.01442,1.00174,-0.023422,0.011802,0.000883,57.882355,29.720596,-146.071777,,,
729706716.813592,-0.872432,-0.530277,114.403053,0.008682,-0.01442,1.00174,-0.023422,0.011802,0.000883,57.882355,29.720596,-146.071777,,,
729706716.814517,-0.872438,-0.530312,-29.507128,0.008682,-0.01442,1.00174,-0.023422,0.011802,0.000883,57.882355,29.720596,-146.071777,,,
729706716.816923,-0.87906,-0.529958,114.402852,0.008682,-0.01442,1.00174,-0.023422,0.011802,0.000883,57.882355,29.720596,-146.071777,,,
729706716.818116,-0.879066,-0.529992,-29.507328,0.008682,-0.01442,1.00174,-0.023422,0.011802,0.000883,57.882355,29.720596,-146.071777,,,
729706716.820348,-0.87906,-0.529958,114.402852,0.008682,-0.01442,1.00174,-0.023422,0.011802,0.000883,57.882355,29.720596,-146.071777,,,
729706716.823221,-0.885494,-0.529309,-29.508264,0.009247,-0.018936,1.006897,-0.020617,0.001635,-0.004443,57.882355,29.720596,-146.071777,,,
729706716.823641,-0.885488,-0.529275,114.401915,0.009247,-0.018936,1.006897,-0.020617,0.001635,-0.004443,57.882355,29.720596,-146.071777,,,
729706716.824415,-0.885494,-0.529309,-29.508264,0.009247,-0.018936,1.006897,-0.020617,0.001635,-0.004443,57.882355,29.720596,-146.071777,,,
729706716.826933,-0.891157,-0.531551,114.400173,0.009247,-0.018936,1.006897,-0.020617,0.001635,-0.004443,57.882355,29.720596,-146.071777,,,
729706716.827742,-0.891163,-0.531585,-29.510005,0.009247,-0.018936,1.006897,-0.020617,0.001635,-0.004443,57.882355,29.720596,-146.071777,,,
729706716.830275,-0.891157,-0.531551,114.400173,0.009247,-0.018936,1.006897,-0.020617,0.001635,-0.004443,57.882355,29.720596,-146.071777,,,
729706716.833094,-0.895264,-0.532882,-29.512459,0.009598,-0.020737,1.010895,-0.010119,-0.00169,-0.009684,57.882355,29.720596,-146.071777,,,
729706716.833664,-0.895258,-0.532847,114.39772,0.009598,-0.020737,1.010895,-0.010119,-0.00169,-0.009684,57.882355,29.720596,-146.071777,,,
729706716.834402,-0.895264,-0.532882,-29.512459,0.009598,-0.020737,1.010895,-0.010119,-0.00169,-0.009684,57.882355,29.720596,-146.071777,,,
729706716.836925,-0.897156,-0.535696,114.395298,0.009598,-0.020737,1.010895,-0.010119,-0.00169,-0.009684,57.882355,29.720596,-146.071777,,,
729706716.838112,-0.897162,-0.535731,-29.514884,0.009598,-0.020737,1.010895,-0.010119,-0.00169,-0.009684,57.882355,29.720596,-146.071777,,,
729706716.840352,-0.897156,-0.535696,114.395298,0.009598,-0.020737,1.010895,-0.010119,-0.00169,-0.009684,57.882355,29.720596,-146.071777,,,
729706716.842384,-0.897364,-0.537519,-29.517528,0.007416,-0.02327,1.013733,0.001512,-0.002465,-0.011416,57.882355,29.720596,-146.071777,,,
729706716.843612,-0.897358,-0.537485,114.392658,0.007416,-0.02327,1.013733,0.001512,-0.002465,-0.011416,57.907455,29.727386,-146.246124,,,
729706716.845071,-0.897364,-0.537519,-29.517528,0.007416,-0.02327,1.013733,0.001512,-0.002465,-0.011416,57.907455,29.727386,-146.246124,,,
729706716.846935,-0.895417,-0.539659,114.390261,0.007416,-0.02327,1.013733,0.001512,-0.002465,-0.011416,57.907455,29.727386,-146.246124,,,
729706716.847956,-0.895423,-0.539694,-29.519924,0.007416,-0.02327,1.013733,0.001512,-0.002465,-0.011416,57.907455,29.727386,-146.246124,,,
729706716.850263,-0.895417,-0.539659,114.390261,0.007416,-0.02327,1.013733,0.001512,-0.002465,-0.011416,57.907455,29.727386,-146.246124,,,
729706716.85307,-0.891049,-0.540363,-29.52173,0.011276,-0.021881,1.015671,0.018514,0.002346,-0.007604,57.907455,29.727386,-146.246124,,,
729706716.853645,-0.891043,-0.540328,114.388451,0.011276,-0.021881,1.015671,0.018514,0.002346,-0.007604,57.907455,29.727386,-146.246124,,,
729706716.85441,-0.891049,-0.540363,-29.52173,0.011276,-0.021881,1.015671,0.018514,0.002346,-0.007604,57.907455,29.727386,-146.246124,,,
729706716.856922,-0.885642,-0.54087,114.387393,0.011276,-0.021881,1.015671,0.018514,0.002346,-0.007604,57.907455,29.727386,-146.246124,,,
729706716.857737,-0.885647,-0.540904,-29.522792,0.011276,-0.021881,1.015671,0.018514,0.002346,-0.007604,57.907455,29.727386,-146.246124,,,
729706716.860335,-0.885642,-0.54087,114.387393,0.011276,-0.021881,1.015671,0.018514,0.002346,-0.007604,57.907455,29.727386,-146.246124,,,
729706716.862793,-0.880082,-0.541074,-29.522673,0.013046,-0.01828,1.009811,0.018816,0.002261,0.000519,57.907455,29.727386,-146.246124,,,
