Time (sec),Pitch (deg),Roll (deg),Yaw(deg),X-Acceleration (g),Y-Acceleration (g),Z-Acceleration (g),Pitch Rate (deg/sec),Roll Rate (deg/sec),Yaw Rate (deg/sec),Magnetic Field in X direction (uT),Magnetic Field in Y direction (uT),Magnetic Field in Z Direction (uT),Latitude (deg),Longitude (deg),Altitude (m)
729705462.529353,-0.223319,0.623548,72.340134,-0.030487,-0.012344,1.007507,-0.006432,0.038019,0.008055,86.71965,36.845886,-149.176224,,,
729705462.532611,-0.225213,0.635297,72.344639,-0.029099,-0.005386,0.997208,-0.00549,0.04494,0.019209,86.71965,36.845886,-149.176224,,,
729705462.535933,-0.228465,0.648263,72.350161,-0.029099,-0.005386,0.997208,-0.00549,0.04494,0.019209,86.71965,36.845886,-149.176224,,,
729705462.539286,-0.228465,0.648263,72.350161,-0.029099,-0.005386,0.997208,-0.00549,0.04494,0.019209,86.71965,36.845886,-149.176224,,,
729705462.542626,-0.230147,0.65891,72.356113,-0.027054,-0.002869,0.991302,-0.007489,0.035618,0.019221,86.739853,36.766815,-149.260727,,,
729705462.545935,-0.234409,0.669976,72.361866,-0.027054,-0.002869,0.991302,-0.007489,0.035618,0.019221,86.739853,36.766815,-149.260727,,,
729705462.549328,-0.234409,0.669976,72.361866,-0.027054,-0.002869,0.991302,-0.007489,0.035618,0.019221,86.739853,36.766815,-149.260727,,,
729705462.552648,-0.237295,0.676181,72.366959,-0.028351,0.00058,0.9841,-0.014064,0.018242,0.015178,86.739853,36.766815,-149.260727,,,
729705462.555928,-0.242873,0.681137,72.37117,-0.028351,0.00058,0.9841,-0.014064,0.018242,0.015178,86.739853,36.766815,-149.260727,,,
729705462.559268,-0.242873,0.681137,72.37117,-0.028351,0.00058,0.9841,-0.014064,0.018242,0.015178,86.739853,36.766815,-149.260727,,,
729705462.562595,-0.249361,0.681168,72.374522,-0.023819,0.00441,0.976959,-0.028219,-0.004353,0.007519,86.739853,36.766815,-149.260727,,,
729705462.565931,-0.259036,0.680034,72.376725,-0.023819,0.00441,0.976959,-0.028219,-0.004353,0.007519,86.739853,36.766815,-149.260727,,,
729705462.569347,-0.259036,0.680034,72.376725,-0.023819,0.00441,0.976959,-0.028219,-0.004353,0.007519,86.739853,36.766815,-149.260727,,,
729705462.572608,-0.26865,0.674373,72.377582,-0.019913,0.004303,0.976028,-0.038268,-0.023037,0.000114,86.739853,36.766815,-149.260727,,,
729705462.575941,-0.279747,0.667981,72.377668,-0.019913,0.004303,0.976028,-0.038268,-0.023037,0.000114,86.739853,36.766815,-149.260727,,,
729705462.579281,-0.279747,0.667981,72.377668,-0.019913,0.004303,0.976028,-0.038268,-0.023037,0.000114,86.739853,36.766815,-149.260727,,,
729705462.582627,-0.290707,0.657175,72.377434,-0.014145,0.001831,0.980515,-0.038075,-0.040227,-0.003357,86.739853,36.766815,-149.260727,,,
729705462.585932,-0.303982,0.647379,72.377134,-0.014145,0.001831,0.980515,-0.038075,-0.040227,-0.003357,86.868439,36.795639,-149.084702,,,
729705462.589266,-0.303982,0.647379,72.377134,-0.014145,0.001831,0.980515,-0.038075,-0.040227,-0.003357,86.868439,36.795639,-149.084702,,,
729705462.59262,-0.31631,0.635805,72.376829,-0.012512,-0.002945,0.985504,-0.044461,-0.033221,-0.001637,86.868439,36.795639,-149.084702,,,
729705462.59593,-0.330955,0.629659,72.376777,-0.012512,-0.002945,0.985504,-0.044461,-0.033221,-0.001637,86.868439,36.795639,-149.084702,,,
729705462.599262,-0.330955,0.629659,72.376777,-0.012512,-0.002945,0.985504,-0.044461,-0.033221,-0.001637,86.868439,36.795639,-149.084702,,,
729705462.602621,-0.34581,0.623484,72.376639,-0.00235,-0.002106,0.990234,-0.05416,-0.007883,-0.00203,86.868439,36.795639,-149.084702,,,
729705462.605931,-0.363145,0.624326,72.376935,-0.00235,-0.002106,0.990234,-0.05416,-0.007883,-0.00203,86.868439,36.795639,-149.084702,,,
729705462.609336,-0.363145,0.624326,72.376935,-0.00235,-0.002106,0.990234,-0.05416,-0.007883,-0.00203,86.868439,36.795639,-149.084702,,,
729705462.612595,-0.382385,0.624007,72.378483,1.5e-05,-0.000626,0.989624,-0.075806,0.010909,0.007329,86.868439,36.795639,-149.084702,,,
729705462.615937,-0.404658,0.629948,72.381235,1.5e-05,-0.000626,0.989624,-0.075806,0.010909,0.007329,86.868439,36.795639,-149.084702,,,
729705462.619333,-0.404658,0.629948,72.381235,1.5e-05,-0.000626,0.989624,-0.075806,0.010909,0.007329,86.868439,36.795639,-149.084702,,,
729705462.622673,-0.431386,0.637211,72.385306,-0.007706,-0.003235,0.990356,-0.1047,0.04044,0.014873,86.868439,36.795639,-149.084702,,,
729705462.625923,-0.461409,0.651549,72.390321,-0.007706,-0.003235,0.990356,-0.1047,0.04044,0.014873,86.888763,37.055771,-149.164032,,,
729705462.629277,-0.461409,0.651549,72.390321,-0.007706,-0.003235,0.990356,-0.1047,0.04044,0.014873,86.888763,37.055771,-149.164032,,,
729705462.632613,-0.496399,0.664949,72.395939,-0.004684,-0.006058,0.991379,-0.129337,0.049907,0.018859,86.888763,37.055771,-149.164032,,,
729705462.635929,-0.531219,0.681106,72.403235,-0.004684,-0.006058,0.991379,-0.129337,0.049907,0.018859,86.888763,37.055771,-149.164032,,,
729705462.639284,-0.531219,0.681106,72.403235,-0.004684,-0.006058,0.991379,-0.129337,0.049907,0.018859,86.888763,37.055771,-149.164032,,,
729705462.642622,-0.569077,0.693159,72.413268,-0.010468,-0.011246,0.990555,-0.130984,0.04199,0.042057,86.888763,37.055771,-149.164032,,,
729705462.645938,-0.603901,0.705611,72.426439,-0.010468,-0.011246,0.990555,-0.130984,0.04199,0.042057,86.888763,37.055771,-149.164032,,,
729705462.649358,-0.603901,0.705611,72.426439,-0.010468,-0.011246,0.990555,-0.130984,0.04199,0.042057,86.888763,37.055771,-149.164032,,,
729705462.652302,-0.640422,0.714348,72.441205,-0.01886,-0.017853,0.990036,-0.123472,0.028918,0.04515,86.888763,37.055771,-149.164032,,,
729705462.655975,-0.673572,0.723686,72.454439,-0.01886,-0.017853,0.990036,-0.123472,0.028918,0.04515,86.888763,37.055771,-149.164032,,,
729705462.659276,-0.673572,0.723686,72.454439,-0.01886,-0.017853,0.990036,-0.123472,0.028918,0.04515,86.888763,37.055771,-149.164032,,,
729705462.662664,-0.708277,0.733375,72.464115,-0.006821,-0.019897,0.998001,-0.114985,0.038992,0.020075,86.888763,37.055771,-149.164032,,,
729705462.665928,-0.73937,0.743727,72.469665,-0.006821,-0.019897,0.998001,-0.114985,0.038992,0.020075,86.931625,37.305145,-148.758957,,,
729705462.669271,-0.73937,0.743727,72.469665,-0.006821,-0.019897,0.998001,-0.114985,0.038992,0.020075,86.931625,37.305145,-148.758957,,,
729705462.672603,-0.772124,0.751923,72.471721,-0.014847,-0.022003,1.001846,-0.113035,0.023208,-0.004531,86.931625,37.305145,-148.758957,,,
729705462.675935,-0.803247,0.754767,72.471123,-0.014847,-0.022003,1.001846,-0.113035,0.023208,-0.004531,86.931625,37.305145,-148.758957,,,
729705462.679268,-0.803247,0.754767,72.471123,-0.014847,-0.022003,1.001846,-0.113035,0.023208,-0.004531,86.931625,37.305145,-148.758957,,,
729705462.6826,-0.836825,0.753725,72.468588,-0.022507,-0.019089,0.990814,-0.116405,-0.012603,-0.015791,86.931625,37.305145,-148.758957,,,
729705462.685934,-0.868911,0.745422,72.465132,-0.022507,-0.019089,0.990814,-0.116405,-0.012603,-0.015791,86.931625,37.305145,-148.758957,,,
729705462.689333,-0.868911,0.745422,72.465132,-0.022507,-0.019089,0.990814,-0.116405,-0.012603,-0.015791,86.931625,37.305145,-148.758957,,,
729705462.692606,-0.903278,0.735733,72.461186,-0.016968,-0.017029,0.988861,-0.118279,-0.033933,-0.0176,86.931625,37.305145,-148.758957,,,
729705462.695927,-0.935212,0.723533,72.456972,-0.016968,-0.017029,0.988861,-0.118279,-0.033933,-0.0176,86.931625,37.305145,-148.758957,,,
729705462.699294,-0.935212,0.723533,72.456972,-0.016968,-0.017029,0.988861,-0.118279,-0.033933,-0.0176,86.931625,37.305145,-148.758957,,,
729705462.702674,-0.969521,0.712961,72.452843,-0.01532,-0.024872,1.000885,-0.11791,-0.032168,-0.013923,86.931625,37.305145,-148.758957,,,
729705462.705934,-1.001032,0.701632,72.449133,-0.01532,-0.024872,1.000885,-0.11791,-0.032168,-0.013923,86.994156,37.471069,-149.001328,,,
729705462.709274,-1.001032,0.701632,72.449133,-0.01532,-0.024872,1.000885,-0.11791,-0.032168,-0.013923,86.994156,37.471069,-149.001328,,,
729705462.712601,-1.033016,0.691364,72.446231,-0.009933,-0.027817,1.004364,-0.106392,-0.027797,-0.011955,86.994156,37.471069,-149.001328,,,
729705462.715935,-1.061361,0.681865,72.444114,-0.009933,-0.027817,1.004364,-0.106392,-0.027797,-0.011955,86.994156,37.471069,-149.001328,,,
729705462.719275,-1.061361,0.681865,72.444114,-0.009933,-0.027817,1.004364,-0.106392,-0.027797,-0.011955,86.994156,37.471069,-149.001328,,,
729705462.722609,-1.089593,0.677888,72.442848,-0.009781,-0.02887,1.009781,-0.09139,0.001858,-0.005927,86.994156,37.471069,-149.001328,,,
729705462.725926,-1.115211,0.679564,72.442322,-0.009781,-0.02887,1.009781,-0.09139,0.001858,-0.005927,86.994156,37.471069,-149.001328,,,
729705462.729333,-1.115211,0.679564,72.442322,-0.009781,-0.02887,1.009781,-0.09139,0.001858,-0.005927,86.994156,37.471069,-149.001328,,,
729705462.73261,-1.139801,0.683149,72.442439,-0.009064,-0.02623,1.016174,-0.083157,0.018273,0.001292,86.994156,37.471069,-149.001328,,,
729705462.735968,-1.163159,0.687469,72.444055,-0.009064,-0.02623,1.016174,-0.083157,0.018273,0.001292,86.994156,37.471069,-149.001328,,,
729705462.73928,-1.163159,0.687469,72.444055,-0.009064,-0.02623,1.016174,-0.083157,0.018273,0.001292,86.994156,37.471069,-149.001328,,,
729705462.742698,-1.186464,0.691506,72.447655,-0.015747,-0.026855,1.005692,-0.082152,0.018439,0.015202,86.994156,37.471069,-149.001328,,,
729705462.745928,-1.20958,0.696163,72.452913,-0.015747,-0.026855,1.005692,-0.082152,0.018439,0.015202,86.994156,37.471069,-149.001328,,,
729705462.749284,-1.20958,0.696163,72.452913,-0.015747,-0.026855,1.005692,-0.082152,0.018439,0.015202,86.891754,37.741592,-148.9944,,,
729705462.752604,-1.232209,0.704815,72.459459,-0.016052,-0.032288,1.011993,-0.078176,0.042749,0.020864,86.891754,37.741592,-148.9944,,,
729705462.755966,-1.254555,0.718074,72.46634,-0.016052,-0.032288,1.011993,-0.078176,0.042749,0.020864,86.891754,37.741592,-148.9944,,,
729705462.759279,-1.254555,0.718074,72.46634,-0.016052,-0.032288,1.011993,-0.078176,0.042749,0.020864,86.891754,37.741592,-148.9944,,,
729705462.762609,-1.276674,0.730739,72.47302,-0.012619,-0.033508,1.01355,-0.074076,0.045454,0.021426,86.891754,37.741592,-148.9944,,,
729705462.765926,-1.29697,0.74379,72.479626,-0.012619,-0.033508,1.01355,-0.074076,0.045454,0.021426,86.891754,37.741592,-148.9944,,,
729705462.769336,-1.29697,0.74379,72.479626,-0.012619,-0.033508,1.01355,-0.074076,0.045454,0.021426,86.891754,37.741592,-148.9944,,,
729705462.772598,-1.317313,0.752657,72.485327,-0.011398,-0.029816,0.996948,-0.069362,0.025064,0.01394,86.891754,37.741592,-148.9944,,,
729705462.775923,-1.336841,0.75892,72.489414,-0.011398,-0.029816,0.996948,-0.069362,0.025064,0.01394,86.891754,37.741592,-148.9944,,,
729705462.779274,-1.336841,0.75892,72.489414,-0.011398,-0.029816,0.996948,-0.069362,0.025064,0.01394,86.891754,37.741592,-148.9944,,,
729705462.782658,-1.356909,0.762328,72.492004,-0.012451,-0.022736,0.98938,-0.072072,0.009481,0.004088,86.891754,37.741592,-148.9944,,,
729705462.785934,-1.379067,0.763229,72.493369,-0.012451,-0.022736,0.98938,-0.072072,0.009481,0.004088,86.891754,37.741592,-148.9944,,,
729705462.789285,-1.379067,0.763229,72.493369,-0.012451,-0.022736,0.98938,-0.072072,0.009481,0.004088,86.772217,37.758148,-148.711227,,,
729705462.79262,-1.402528,0.76076,72.493663,-0.017212,-0.021072,0.980667,-0.089094,-0.015066,-0.00778,86.772217,37.758148,-148.711227,,,
729705462.796015,-1.429743,0.754269,72.491971,-0.017212,-0.021072,0.980667,-0.089094,-0.015066,-0.00778,86.772217,37.758148,-148.711227,,,
729705462.799271,-1.429743,0.754269,72.491971,-0.017212,-0.021072,0.980667,-0.089094,-0.015066,-0.00778,86.772217,37.758148,-148.711227,,,
729705462.80262,-1.459865,0.747019,72.487087,-0.016754,-0.017685,0.973892,-0.11172,-0.024311,-0.026815,86.772217,37.758148,-148.711227,,,
729705462.805942,-1.493398,0.738552,72.479382,-0.016754,-0.017685,0.973892,-0.11172,-0.024311,-0.026815,86.772217,37.758148,-148.711227,,,
729705462.809337,-1.493398,0.738552,72.479382,-0.016754,-0.017685,0.973892,-0.11172,-0.024311,-0.026815,86.772217,37.758148,-148.711227,,,
729705462.812601,-1.529886,0.730408,72.469342,-0.007736,-0.014633,0.968033,-0.130562,-0.025288,-0.043202,86.772217,37.758148,-148.711227,,,
729705462.815959,-1.568668,0.722933,72.457545,-0.007736,-0.014633,0.968033,-0.130562,-0.025288,-0.043202,86.772217,37.758148,-148.711227,,,
729705462.819271,-1.568668,0.722933,72.457545,-0.007736,-0.014633,0.968033,-0.130562,-0.025288,-0.043202,86.772217,37.758148,-148.711227,,,
729705462.8226,-1.609497,0.717105,72.445294,-0.002151,-0.016418,0.973099,-0.147737,-0.010406,-0.04305,86.772217,37.758148,-148.711227,,,
729705462.825999,-1.653988,0.713651,72.433534,-0.002151,-0.016418,0.973099,-0.147737,-0.010406,-0.04305,86.772217,37.758148,-148.711227,,,
729705462.829257,-1.653988,0.713651,72.433534,-0.002151,-0.016418,0.973099,-0.147737,-0.010406,-0.04305,86.940384,37.953415,-148.546585,,,
729705462.832597,-1.702776,0.710415,72.423171,-0.008606,-0.021286,0.972443,-0.181573,-0.00374,-0.033506,86.940384,37.953415,-148.546585,,,
729705462.835964,-1.756817,0.708432,72.414201,-0.008606,-0.021286,0.972443,-0.181573,-0.00374,-0.033506,86.940384,37.953415,-148.546585,,,
729705462.839273,-1.756817,0.708432,72.414201,-0.008606,-0.021286,0.972443,-0.181573,-0.00374,-0.033506,86.940384,37.953415,-148.546585,,,
729705462.842603,-1.815155,0.706581,72.406126,-0.006607,-0.027267,0.965607,-0.216182,-0.001823,-0.028246,86.940384,37.953415,-148.546585,,,
729705462.845919,-1.877979,0.705268,72.399366,-0.006607,-0.027267,0.965607,-0.216182,-0.001823,-0.028246,86.940384,37.953415,-148.546585,,,
729705462.849295,-1.877979,0.705268,72.399366,-0.006607,-0.027267,0.965607,-0.216182,-0.001823,-0.028246,86.940384,37.953415,-148.546585,,,
729705462.852606,-1.944541,0.704948,72.393045,-0.002396,-0.033539,0.970322,-0.237408,0.005297,-0.029954,86.940384,37.953415,-148.546585,,,
729705462.855971,-2.0132,0.705764,72.386117,-0.002396,-0.033539,0.970322,-0.237408,0.005297,-0.029954,86.940384,37.953415,-148.546585,,,
729705462.859341,-2.0132,0.705764,72.386117,-0.002396,-0.033539,0.970322,-0.237408,0.005297,-0.029954,86.940384,37.953415,-148.546585,,,
729705462.862586,-2.085907,0.708711,72.378345,-0.001831,-0.035156,0.977417,-0.256954,0.020411,-0.036828,86.940384,37.953415,-148.546585,,,
729705462.865979,-2.158101,0.714085,72.369233,-0.001831,-0.035156,0.977417,-0.256954,0.020411,-0.036828,86.940384,37.953415,-148.546585,,,
729705462.86926,-2.158101,0.714085,72.369233,-0.001831,-0.035156,0.977417,-0.256954,0.020411,-0.036828,86.891357,38.599426,-148.636322,,,
729705462.872601,-2.234649,0.719638,72.359541,-0.002548,-0.036362,0.985123,-0.268174,0.024486,-0.03785,86.891357,38.599426,-148.636322,,,
729705462.875966,-2.308667,0.725803,72.350199,-0.002548,-0.036362,0.985123,-0.268174,0.024486,-0.03785,86.891357,38.599426,-148.636322,,,
729705462.879267,-2.308667,0.725803,72.350199,-0.002548,-0.036362,0.985123,-0.268174,0.024486,-0.03785,86.891357,38.599426,-148.636322,,,
729705462.882682,-2.384798,0.731328,72.341901,-0.013107,-0.044189,0.985397,-0.26377,0.023356,-0.030774,86.891357,38.599426,-148.636322,,,
729705462.885971,-2.457467,0.73656,72.335505,-0.013107,-0.044189,0.985397,-0.26377,0.023356,-0.030774,86.891357,38.599426,-148.636322,,,
729705462.889251,-2.457467,0.73656,72.335505,-0.013107,-0.044189,0.985397,-0.26377,0.023356,-0.030774,86.891357,38.599426,-148.636322,,,
729705462.892611,-2.534379,0.740025,72.331589,-0.01915,-0.05014,0.990448,-0.273069,0.011362,-0.010885,86.891357,38.599426,-148.636322,,,
729705462.896004,-2.61062,0.73962,72.330101,-0.01915,-0.05014,0.990448,-0.273069,0.011362,-0.010885,86.891357,38.599426,-148.636322,,,
729705462.899258,-2.61062,0.73962,72.330101,-0.01915,-0.05014,0.990448,-0.273069,0.011362,-0.010885,86.891357,38.599426,-148.636322,,,
729705462.902623,-2.692347,0.736915,72.329722,-0.016464,-0.050049,0.980225,-0.290277,-0.013437,-0.007073,86.891357,38.599426,-148.636322,,,
729705462.90595,-2.773626,0.730778,72.328962,-0.016464,-0.050049,0.980225,-0.290277,-0.013437,-0.007073,86.891357,38.599426,-148.636322,,,
729705462.909335,-2.773626,0.730778,72.328962,-0.016464,-0.050049,0.980225,-0.290277,-0.013437,-0.007073,86.891357,38.599426,-148.636322,,,
729705462.912604,-2.861615,0.72506,72.327216,-0.008728,-0.047119,0.980972,-0.312617,-0.014889,-0.017655,86.831726,39.047974,-148.460205,,,
729705462.91598,-2.861615,0.72506,72.323226,-0.008728,-0.047119,0.980972,-0.312617,-0.014889,-0.017655,86.831726,39.047974,-148.460205,,,
729705462.919255,-2.950217,0.720115,72.323226,-0.008728,-0.047119,0.980972,-0.312617,-0.014889,-0.017655,86.831726,39.047974,-148.460205,,,
729705462.922379,-3.044267,0.716054,72.316179,-0.004623,-0.045349,0.983139,-0.337279,-0.010761,-0.039275,86.831726,39.047974,-148.460205,,,
729705462.925952,-3.044267,0.716054,72.316179,-0.004623,-0.045349,0.983139,-0.337279,-0.010761,-0.039275,86.831726,39.047974,-148.460205,,,
729705462.929272,-3.141603,0.710328,72.306656,-0.004623,-0.045349,0.983139,-0.337279,-0.010761,-0.039275,86.831726,39.047974,-148.460205,,,
729705462.932611,-3.245882,0.702799,72.295032,-0.0103,-0.048584,0.975906,-0.377004,-0.025754,-0.051149,86.831726,39.047974,-148.460205,,,
729705462.936035,-3.245882,0.692043,72.281284,-0.0103,-0.048584,0.975906,-0.377004,-0.025754,-0.051149,86.831726,39.047974,-148.460205,,,
729705462.939259,-3.353839,0.692043,72.281284,-0.0103,-0.048584,0.975906,-0.377004,-0.025754,-0.051149,86.831726,39.047974,-148.460205,,,
729705462.942611,-3.468385,0.680507,72.266242,-0.017868,-0.053314,0.97879,-0.41296,-0.037655,-0.062266,86.831726,39.047974,-148.460205,,,
729705462.945938,-3.468385,0.680507,72.266242,-0.017868,-0.053314,0.97879,-0.41296,-0.037655,-0.062266,86.831726,39.047974,-148.460205,,,
729705462.949321,-3.586744,0.666158,72.249888,-0.017868,-0.053314,0.97879,-0.41296,-0.037655,-0.062266,86.831726,39.047974,-148.460205,,,
729705462.952608,-3.712069,0.650021,72.232777,-0.015366,-0.056961,0.976562,-0.446499,-0.054142,-0.064358,86.784714,40.117691,-148.002701,,,
729705462.955948,-3.712069,0.650021,72.232777,-0.015366,-0.056961,0.976562,-0.446499,-0.054142,-0.064358,86.784714,40.117691,-148.002701,,,
729705462.959272,-3.842126,0.631782,72.216118,-0.015366,-0.056961,0.976562,-0.446499,-0.054142,-0.064358,86.784714,40.117691,-148.002701,,,
729705462.962596,-3.978041,0.610795,72.200489,-0.013824,-0.060211,0.981857,-0.487704,-0.074882,-0.057897,86.784714,40.117691,-148.002701,,,
729705462.965923,-3.978041,0.610795,72.200489,-0.013824,-0.060211,0.981857,-0.487704,-0.074882,-0.057897,86.784714,40.117691,-148.002701,,,
729705462.969276,-4.119446,0.586636,72.18602,-0.013824,-0.060211,0.981857,-0.487704,-0.074882,-0.057897,86.784714,40.117691,-148.002701,,,
729705462.972673,-4.265074,0.560742,72.172859,-0.012177,-0.065079,0.981918,-0.520815,-0.083951,-0.046797,86.784714,40.117691,-148.002701,,,
729705462.975917,-4.265074,0.560742,72.172859,-0.012177,-0.065079,0.981918,-0.520815,-0.083951,-0.046797,86.784714,40.117691,-148.002701,,,
729705462.979297,-4.415919,0.535156,72.161249,-0.012177,-0.065079,0.981918,-0.520815,-0.083951,-0.046797,86.784714,40.117691,-148.002701,,,
729705462.98261,-4.571848,0.510351,72.151355,-0.012039,-0.072296,0.985748,-0.555309,-0.078383,-0.036216,86.784714,40.117691,-148.002701,,,
729705462.986007,-4.571848,0.510351,72.151355,-0.012039,-0.072296,0.985748,-0.555309,-0.078383,-0.036216,86.784714,40.117691,-148.002701,,,
729705462.989272,-4.731038,0.486407,72.14376,-0.012039,-0.072296,0.985748,-0.555309,-0.078383,-0.036216,86.784714,40.117691,-148.002701,,,
729705462.992597,-4.891218,0.464885,72.13783,-0.004883,-0.078445,0.991638,-0.557721,-0.059182,-0.025441,86.644012,41.256287,-147.863495,,,
729705462.995938,-4.891218,0.464885,72.13783,-0.004883,-0.078445,0.991638,-0.557721,-0.059182,-0.025441,86.644012,41.256287,-147.863495,,,
729705462.999327,-5.051467,0.44771,72.132975,-0.004883,-0.078445,0.991638,-0.557721,-0.059182,-0.025441,86.644012,41.256287,-147.863495,,,
729705463.00261,-5.212593,0.434487,72.129958,-0.003403,-0.08992,1.006302,-0.565723,-0.036192,-0.009428,86.644012,41.256287,-147.863495,,,
729705463.005945,-5.212593,0.434487,72.129958,-0.003403,-0.08992,1.006302,-0.565723,-0.036192,-0.009428,86.644012,41.256287,-147.863495,,,
729705463.009294,-5.375783,0.423635,72.128873,-0.003403,-0.08992,1.006302,-0.565723,-0.036192,-0.009428,86.644012,41.256287,-147.863495,,,
729705463.012594,-5.543053,0.414867,72.129318,-0.008286,-0.091232,0.99762,-0.595499,-0.022787,-0.001285,86.644012,41.256287,-147.863495,,,
729705463.015946,-5.543053,0.414867,72.129318,-0.008286,-0.091232,0.99762,-0.595499,-0.022787,-0.001285,86.644012,41.256287,-147.863495,,,
729705463.019282,-5.717362,0.407282,72.130516,-0.008286,-0.091232,0.99762,-0.595499,-0.022787,-0.001285,86.644012,41.256287,-147.863495,,,
729705463.022624,-5.901349,0.399941,72.13114,-0.001129,-0.08078,0.978348,-0.667611,-0.020257,-0.009627,86.644012,41.256287,-147.863495,,,
729705463.02592,-5.901349,0.399941,72.13114,-0.001129,-0.08078,0.978348,-0.667611,-0.020257,-0.009627,86.644012,41.256287,-147.863495,,,
729705463.029287,-6.098156,0.392439,72.129044,-0.001129,-0.08078,0.978348,-0.667611,-0.020257,-0.009627,86.644012,41.256287,-147.863495,,,
729705463.03259,-6.308796,0.384799,72.123035,0.006561,-0.075745,0.958359,-0.769263,-0.017163,-0.038851,86.521545,42.388306,-146.940674,,,
729705463.036004,-6.308796,0.384799,72.123035,0.006561,-0.075745,0.958359,-0.769263,-0.017163,-0.038851,86.521545,42.388306,-146.940674,,,
729705463.039288,-6.532811,0.380097,72.113219,0.006561,-0.075745,0.958359,-0.769263,-0.017163,-0.038851,86.521545,42.388306,-146.940674,,,
729705463.042599,-6.769872,0.380484,72.099686,0.003662,-0.086807,0.95137,-0.857471,0.019519,-0.061917,86.521545,42.388306,-146.940674,,,
729705463.045937,-6.769872,0.380484,72.099686,0.003662,-0.086807,0.95137,-0.857471,0.019519,-0.061917,86.521545,42.388306,-146.940674,,,
729705463.049357,-7.018712,0.382266,72.08331,0.003662,-0.086807,0.95137,-0.857471,0.019519,-0.061917,86.521545,42.388306,-146.940674,,,
729705463.052584,-7.278599,0.380516,72.063717,0.006287,-0.099976,0.945999,-0.932828,-0.004271,-0.084729,86.521545,42.388306,-146.940674,,,
729705463.055956,-7.278599,0.380516,72.063717,0.006287,-0.099976,0.945999,-0.932828,-0.004271,-0.084729,86.521545,42.388306,-146.940674,,,
729705463.059281,-7.54818,0.373975,72.040448,0.006287,-0.099976,0.945999,-0.932828,-0.004271,-0.084729,86.521545,42.388306,-146.940674,,,
729705463.062699,-7.825626,0.360762,72.014932,0.004242,-0.111084,0.940201,-0.983587,-0.051166,-0.100075,86.521545,42.388306,-146.940674,,,
729705463.065991,-7.825626,0.360762,72.014932,0.004242,-0.111084,0.940201,-0.983587,-0.051166,-0.100075,86.521545,42.388306,-146.940674,,,
729705463.069288,-8.109421,0.339951,71.987899,0.004242,-0.111084,0.940201,-0.983587,-0.051166,-0.100075,86.521545,42.388306,-146.940674,,,
729705463.072594,-8.397604,0.315763,71.96003,-0.013596,-0.127045,0.940979,-1.009382,-0.0678,-0.103958,86.521545,42.388306,-146.940674,,,
729705463.075926,-8.397604,0.315763,71.96003,-0.013596,-0.127045,0.940979,-1.009382,-0.0678,-0.103958,86.392441,44.202682,-146.386475,,,
729705463.079275,-8.687798,0.291274,71.932448,-0.013596,-0.127045,0.940979,-1.009382,-0.0678,-0.103958,86.392441,44.202682,-146.386475,,,
729705463.082591,-8.979071,0.265297,71.90707,-0.02063,-0.142548,0.96637,-1.018728,-0.084165,-0.08028,86.392441,44.202682,-146.386475,,,
729705463.085924,-8.979071,0.265297,71.90707,-0.02063,-0.142548,0.96637,-1.018728,-0.084165,-0.08028,86.392441,44.202682,-146.386475,,,
729705463.089284,-9.271478,0.235221,71.887097,-0.02063,-0.142548,0.96637,-1.018728,-0.084165,-0.08028,86.392441,44.202682,-146.386475,,,
729705463.092589,-9.565073,0.199574,71.877053,-0.036423,-0.162033,0.956497,-1.025845,-0.130181,-0.006838,86.392441,44.202682,-146.386475,,,
729705463.095936,-9.565073,0.199574,71.877053,-0.036423,-0.162033,0.956497,-1.025845,-0.130181,-0.006838,86.392441,44.202682,-146.386475,,,
729705463.099332,-9.860244,0.160838,71.88095,-0.036423,-0.162033,0.956497,-1.025845,-0.130181,-0.006838,86.392441,44.202682,-146.386475,,,
729705463.102585,-10.158696,0.121942,71.900471,-0.049713,-0.184067,0.9552,-1.053031,-0.148583,0.106372,86.392441,44.202682,-146.386475,,,
729705463.105944,-10.158696,0.121942,71.900471,-0.049713,-0.184067,0.9552,-1.053031,-0.148583,0.106372,86.392441,44.202682,-146.386475,,,
729705463.109286,-10.463212,0.084007,71.935891,-0.049713,-0.184067,0.9552,-1.053031,-0.148583,0.106372,86.392441,44.202682,-146.386475,,,
729705463.112594,-10.776877,0.049428,71.986066,-0.036896,-0.200989,0.948563,-1.120999,-0.134393,0.204054,86.392441,44.202682,-146.386475,,,
729705463.115925,-10.776877,0.049428,71.986066,-0.036896,-0.200989,0.948563,-1.120999,-0.134393,0.204054,86.384659,46.24823,-145.315231,,,
729705463.119258,-11.103096,0.0274,72.048923,-0.036896,-0.200989,0.948563,-1.120999,-0.134393,0.204054,86.384659,46.24823,-145.315231,,,
729705463.122592,-11.440262,0.024925,72.122103,-0.010483,-0.215912,0.963715,-1.191717,-0.021007,0.270517,86.384659,46.24823,-145.315231,,,
729705463.12597,-11.440262,0.024925,72.122103,-0.010483,-0.215912,0.963715,-1.191717,-0.021007,0.270517,86.384659,46.24823,-145.315231,,,
729705463.129261,-11.785155,0.032372,72.201889,-0.010483,-0.215912,0.963715,-1.191717,-0.021007,0.270517,86.384659,46.24823,-145.315231,,,
729705463.132596,-12.138024,0.038978,72.283161,0.013489,-0.225204,0.929718,-1.249527,-0.032849,0.268596,86.384659,46.24823,-145.315231,,,
729705463.136,-12.138024,0.038978,72.283161,0.013489,-0.225204,0.929718,-1.249527,-0.032849,0.268596,86.384659,46.24823,-145.315231,,,
729705463.139259,-12.496028,0.049956,72.361032,0.013489,-0.225204,0.929718,-1.249527,-0.032849,0.268596,86.384659,46.24823,-145.315231,,,
729705463.142592,-12.851461,0.079146,72.433191,0.03627,-0.245529,0.941483,-1.212838,0.121596,0.224721,86.384659,46.24823,-145.315231,,,
729705463.145935,-12.851461,0.079146,72.433191,0.03627,-0.245529,0.941483,-1.212838,0.121596,0.224721,86.384659,46.24823,-145.315231,,,
729705463.149309,-13.196255,0.136429,72.499017,0.03627,-0.245529,0.941483,-1.212838,0.121596,0.224721,86.384659,46.24823,-145.315231,,,
729705463.152584,-13.525303,0.223094,72.557137,0.014145,-0.238617,1.049774,-1.105646,0.327183,0.16979,86.384659,46.24823,-145.315231,,,
729705463.15592,-13.525303,0.223094,72.557137,0.014145,-0.238617,1.049774,-1.105646,0.327183,0.16979,86.737473,48.588058,-144.446045,,,
729705463.159282,-13.837955,0.331371,72.606485,0.014145,-0.238617,1.049774,-1.105646,0.327183,0.16979,86.737473,48.588058,-144.446045,,,
729705463.16259,-14.135944,0.447468,72.647262,0.008118,-0.229721,1.043137,-1.004379,0.374183,0.10785,86.737473,48.588058,-144.446045,,,
729705463.165941,-14.135944,0.447468,72.647262,0.008118,-0.229721,1.043137,-1.004379,0.374183,0.10785,86.737473,48.588058,-144.446045,,,
729705463.169299,-14.421189,0.561416,72.681426,0.008118,-0.229721,1.043137,-1.004379,0.374183,0.10785,86.737473,48.588058,-144.446045,,,
729705463.172595,-14.696353,0.670251,72.712002,-0.008759,-0.2444,0.986191,-0.937948,0.341712,0.088281,86.737473,48.588058,-144.446045,,,
729705463.175977,-14.696353,0.670251,72.712002,-0.008759,-0.2444,0.986191,-0.937948,0.341712,0.088281,86.737473,48.588058,-144.446045,,,
729705463.179269,-14.96451,0.775119,72.743101,-0.008759,-0.2444,0.986191,-0.937948,0.341712,0.088281,86.737473,48.588058,-144.446045,,,
729705463.18259,-15.229192,0.876432,72.77819,-0.037491,-0.273331,0.973801,-0.923298,0.305631,0.118441,86.737473,48.588058,-144.446045,,,
729705463.186075,-15.229192,0.876432,72.77819,-0.037491,-0.273331,0.973801,-0.923298,0.305631,0.118441,86.737473,48.588058,-144.446045,,,
729705463.189314,-15.493295,0.970696,72.819372,-0.037491,-0.273331,0.973801,-0.923298,0.305631,0.118441,86.737473,48.588058,-144.446045,,,
729705463.192581,-15.758534,1.053693,72.867647,-0.043045,-0.292084,0.951813,-0.933689,0.207588,0.159157,86.737473,48.588058,-144.446045,,,
729705463.195982,-15.758534,1.053693,72.867647,-0.043045,-0.292084,0.951813,-0.933689,0.207588,0.159157,86.737473,48.588058,-144.446045,,,
729705463.199262,-16.025374,1.123183,72.922195,-0.043045,-0.292084,0.951813,-0.933689,0.207588,0.159157,87.386444,50.241028,-143.090088,,,
729705463.202591,-16.293173,1.179609,72.981224,-0.033524,-0.301529,0.933029,-0.940134,0.108422,0.18217,87.386444,50.241028,-143.090088,,,
729705463.205939,-16.293173,1.179609,72.981224,-0.033524,-0.301529,0.933029,-0.940134,0.108422,0.18217,87.386444,50.241028,-143.090088,,,
729705463.209271,-16.562899,1.225155,73.042213,-0.033524,-0.301529,0.933029,-0.940134,0.108422,0.18217,87.386444,50.241028,-143.090088,,,
729705463.212588,-16.835774,1.261461,73.10228,-0.030228,-0.299728,0.942657,-0.963625,0.047034,0.167645,87.386444,50.241028,-143.090088,,,
729705463.215987,-16.835774,1.261461,73.10228,-0.030228,-0.299728,0.942657,-0.963625,0.047034,0.167645,87.386444,50.241028,-143.090088,,,
729705463.219255,-17.111986,1.290018,73.158479,-0.030228,-0.299728,0.942657,-0.963625,0.047034,0.167645,87.386444,50.241028,-143.090088,,,
729705463.222589,-17.391853,1.313304,73.208447,-0.02684,-0.296646,0.941849,-0.987877,0.026908,0.125313,87.386444,50.241028,-143.090088,,,
729705463.225923,-17.391853,1.313304,73.208447,-0.02684,-0.296646,0.941849,-0.987877,0.026908,0.125313,87.386444,50.241028,-143.090088,,,
729705463.229347,-17.675865,1.332565,73.251014,-0.02684,-0.296646,0.941849,-0.987877,0.026908,0.125313,87.386444,50.241028,-143.090088,,,
729705463.232593,-17.96436,1.347939,73.286043,-0.027924,-0.294464,0.945786,-1.018373,0.015779,0.075243,87.386444,50.241028,-143.090088,,,
729705463.235944,-17.96436,1.347939,73.286043,-0.027924,-0.294464,0.945786,-1.018373,0.015779,0.075243,87.386444,50.241028,-143.090088,,,
729705463.239292,-18.258458,1.359385,73.314876,-0.027924,-0.294464,0.945786,-1.018373,0.015779,0.075243,87.817749,51.836731,-141.852386,,,
729705463.242598,-18.559961,1.366533,73.339925,-0.033142,-0.298233,0.926117,-1.07051,-0.009069,0.04738,87.817749,51.836731,-141.852386,,,
729705463.245935,-18.559961,1.366533,73.339925,-0.033142,-0.298233,0.926117,-1.07051,-0.009069,0.04738,87.817749,51.836731,-141.852386,,,
729705463.249278,-18.869352,1.369504,73.362559,-0.033142,-0.298233,0.926117,-1.07051,-0.009069,0.04738,87.817749,51.836731,-141.852386,,,
729705463.252596,-19.186946,1.36988,73.384322,-0.034424,-0.309525,0.910522,-1.129904,-0.026763,0.04643,87.817749,51.836731,-141.852386,,,
729705463.256028,-19.186946,1.36988,73.384322,-0.034424,-0.309525,0.910522,-1.129904,-0.026763,0.04643,87.817749,51.836731,-141.852386,,,
729705463.259269,-19.514049,1.368541,73.407219,-0.034424,-0.309525,0.910522,-1.129904,-0.026763,0.04643,87.817749,51.836731,-141.852386,,,
729705463.262598,-19.850128,1.365843,73.432359,-0.030563,-0.327484,0.904175,-1.193796,-0.037364,0.059053,87.817749,51.836731,-141.852386,,,
729705463.265927,-19.850128,1.365843,73.432359,-0.030563,-0.327484,0.904175,-1.193796,-0.037364,0.059053,87.817749,51.836731,-141.852386,,,
729705463.269338,-20.195054,1.364506,73.459438,-0.030563,-0.327484,0.904175,-1.193796,-0.037364,0.059053,87.817749,51.836731,-141.852386,,,
729705463.272584,-20.548087,1.367921,73.487411,-0.014023,-0.343872,0.902878,-1.252202,-0.000792,0.061629,87.817749,51.836731,-141.852386,,,
729705463.275938,-20.548087,1.367921,73.487411,-0.014023,-0.343872,0.902878,-1.252202,-0.000792,0.061629,87.817749,51.836731,-141.852386,,,
729705463.279298,-20.90797,1.379374,73.516165,-0.014023,-0.343872,0.902878,-1.252202,-0.000792,0.061629,87.786758,53.925705,-140.210541,,,
729705463.282592,-21.274144,1.400471,73.544618,-0.004089,-0.35463,0.91716,-1.290214,0.067004,0.05572,87.786758,53.925705,-140.210541,,,
729705463.285942,-21.274144,1.400471,73.544618,-0.004089,-0.35463,0.91716,-1.290214,0.067004,0.05572,87.786758,53.925705,-140.210541,,,
729705463.289331,-21.645446,1.430732,73.571433,-0.004089,-0.35463,0.91716,-1.290214,0.067004,0.05572,87.786758,53.925705,-140.210541,,,
729705463.292607,-22.019769,1.469606,73.596525,-0.002716,-0.363144,0.916763,-1.305894,0.133431,0.041506,87.786758,53.925705,-140.210541,,,
729705463.296,-22.019769,1.469606,73.596525,-0.002716,-0.363144,0.916763,-1.305894,0.133431,0.041506,87.786758,53.925705,-140.210541,,,
729705463.299271,-22.393586,1.518885,73.619387,-0.002716,-0.363144,0.916763,-1.305894,0.133431,0.041506,87.786758,53.925705,-140.210541,,,
729705463.302596,-22.76333,1.58006,73.639705,-0.001434,-0.376572,0.927841,-1.274401,0.219033,0.023597,87.786758,53.925705,-140.210541,,,
729705463.305949,-22.76333,1.58006,73.639705,-0.001434,-0.376572,0.927841,-1.274401,0.219033,0.023597,87.786758,53.925705,-140.210541,,,
729705463.309353,-23.126567,1.652009,73.658385,-0.001434,-0.376572,0.927841,-1.274401,0.219033,0.023597,87.786758,53.925705,-140.210541,,,
729705463.312604,-23.482495,1.731564,73.676691,-0.010559,-0.392593,0.940689,-1.221841,0.266707,0.020181,87.786758,53.925705,-140.210541,,,
729705463.315939,-23.482495,1.731564,73.676691,-0.010559,-0.392593,0.940689,-1.221841,0.266707,0.020181,87.786758,53.925705,-140.210541,,,
729705463.319266,-23.831103,1.815461,73.696127,-0.010559,-0.392593,0.940689,-1.221841,0.266707,0.020181,88.274323,56.319,-138.794876,,,
729705463.322596,-24.171818,1.902909,73.717855,-0.027542,-0.410095,0.927155,-1.167145,0.27999,0.034377,88.274323,56.319,-138.794876,,,
729705463.325736,-24.171818,1.902909,73.717855,-0.027542,-0.410095,0.927155,-1.167145,0.27999,0.034377,88.274323,56.319,-138.794876,,,
729705463.329298,-24.505393,1.99178,73.741914,-0.027542,-0.410095,0.927155,-1.167145,0.27999,0.034377,88.274323,56.319,-138.794876,,,
729705463.332587,-24.833413,2.07895,73.767562,-0.0354,-0.425079,0.919357,-1.135633,0.260663,0.042063,88.274323,56.319,-138.794876,,,
729705463.336004,-24.833413,2.07895,73.767562,-0.0354,-0.425079,0.919357,-1.135633,0.260663,0.042063,88.274323,56.319,-138.794876,,,
729705463.339283,-25.158213,2.16308,73.794007,-0.0354,-0.425079,0.919357,-1.135633,0.260663,0.042063,88.274323,56.319,-138.794876,,,
729705463.342594,-25.482643,2.243555,73.820569,-0.035172,-0.43573,0.896744,-1.136592,0.238241,0.03557,88.274323,56.319,-138.794876,,,
729705463.345942,-25.482643,2.243555,73.820569,-0.035172,-0.43573,0.896744,-1.136592,0.238241,0.03557,88.274323,56.319,-138.794876,,,
729705463.34933,-25.809764,2.320228,73.84674,-0.035172,-0.43573,0.896744,-1.136592,0.238241,0.03557,88.274323,56.319,-138.794876,,,
729705463.35258,-26.141876,2.393576,73.871912,-0.036636,-0.441589,0.879074,-1.172812,0.215323,0.02489,88.274323,56.319,-138.794876,,,
729705463.355953,-26.141876,2.393576,73.871912,-0.036636,-0.441589,0.879074,-1.172812,0.215323,0.02489,88.274323,56.319,-138.794876,,,
729705463.359261,-26.479832,2.465266,73.895281,-0.036636,-0.441589,0.879074,-1.172812,0.215323,0.02489,88.274323,56.319,-138.794876,,,
729705463.362591,-26.82553,2.535178,73.915269,-0.033539,-0.443375,0.87886,-1.22835,0.206878,-0.003424,88.662994,58.121429,-136.888931,,,
729705463.365947,-26.82553,2.535178,73.915269,-0.033539,-0.443375,0.87886,-1.22835,0.206878,-0.003424,88.662994,58.121429,-136.888931,,,
729705463.369263,-27.181204,2.599203,73.930511,-0.033539,-0.443375,0.87886,-1.22835,0.206878,-0.003424,88.662994,58.121429,-136.888931,,,
729705463.372596,-27.547333,2.655075,73.941,-0.024796,-0.447128,0.8461,-1.299524,0.170591,-0.040877,88.662994,58.121429,-136.888931,,,
729705463.375999,-27.547333,2.655075,73.941,-0.024796,-0.447128,0.8461,-1.299524,0.170591,-0.040877,88.662994,58.121429,-136.888931,,,
729705463.379285,-27.921946,2.706209,73.947008,-0.024796,-0.447128,0.8461,-1.299524,0.170591,-0.040877,88.662994,58.121429,-136.888931,,,
729705463.382596,-28.302393,2.756302,73.947913,-0.024353,-0.461456,0.847412,-1.333846,0.182003,-0.075039,88.662994,58.121429,-136.888931,,,
729705463.385954,-28.302393,2.756302,73.947913,-0.024353,-0.461456,0.847412,-1.333846,0.182003,-0.075039,88.662994,58.121429,-136.888931,,,
729705463.38935,-28.686268,2.806814,73.943425,-0.024353,-0.461456,0.847412,-1.333846,0.182003,-0.075039,88.662994,58.121429,-136.888931,,,
729705463.392589,-29.072883,2.859518,73.933518,-0.022781,-0.475159,0.87709,-1.35079,0.216767,-0.111454,88.662994,58.121429,-136.888931,,,
729705463.39594,-29.072883,2.859518,73.933518,-0.022781,-0.475159,0.87709,-1.35079,0.216767,-0.111454,88.662994,58.121429,-136.888931,,,
729705463.399279,-29.462552,2.913408,73.918075,-0.022781,-0.475159,0.87709,-1.35079,0.216767,-0.111454,88.662994,58.121429,-136.888931,,,
729705463.402593,-29.854244,2.963249,73.897982,-0.020142,-0.4879,0.870377,-1.361565,0.196505,-0.143075,89.013763,59.918304,-134.432861,,,
729705463.405956,-29.854244,2.963249,73.897982,-0.020142,-0.4879,0.870377,-1.361565,0.196505,-0.143075,89.013763,59.918304,-134.432861,,,
729705463.409286,-30.246343,3.004598,73.87404,-0.020142,-0.4879,0.870377,-1.361565,0.196505,-0.143075,89.013763,59.918304,-134.432861,,,
729705463.412599,-30.636726,3.036983,73.846257,-0.026611,-0.500946,0.84491,-1.34172,0.15322,-0.167454,89.013763,59.918304,-134.432861,,,
729705463.416,-30.636726,3.036983,73.846257,-0.026611,-0.500946,0.84491,-1.34172,0.15322,-0.167454,89.013763,59.918304,-134.432861,,,
729705463.419258,-31.022051,3.064595,73.813752,-0.026611,-0.500946,0.84491,-1.34172,0.15322,-0.167454,89.013763,59.918304,-134.432861,,,
729705463.422591,-31.399655,3.093751,73.776223,-0.024796,-0.516296,0.868912,-1.280079,0.193056,-0.19225,89.013763,59.918304,-134.432861,,,
729705463.425993,-31.399655,3.093751,73.776223,-0.024796,-0.516296,0.868912,-1.280079,0.193056,-0.19225,89.013763,59.918304,-134.432861,,,
729705463.429353,-31.767765,3.1291,73.734793,-0.024796,-0.516296,0.868912,-1.280079,0.193056,-0.19225,89.013763,59.918304,-134.432861,,,
729705463.432591,-32.124929,3.171273,73.690643,-0.022141,-0.532898,0.900528,-1.208045,0.25094,-0.205275,89.013763,59.918304,-134.432861,,,
729705463.435924,-32.124929,3.171273,73.690643,-0.022141,-0.532898,0.900528,-1.208045,0.25094,-0.205275,89.013763,59.918304,-134.432861,,,
729705463.439268,-32.472551,3.218927,73.645488,-0.022141,-0.532898,0.900528,-1.208045,0.25094,-0.205275,89.013763,59.918304,-134.432861,,,
729705463.442597,-32.813209,3.270265,73.601929,-0.028336,-0.552856,0.88942,-1.158385,0.26691,-0.184553,89.045822,62.167435,-132.587006,,,
729705463.445948,-32.813209,3.270265,73.601929,-0.028336,-0.552856,0.88942,-1.158385,0.26691,-0.184553,89.045822,62.167435,-132.587006,,,
729705463.449342,-33.146824,3.32388,73.563451,-0.028336,-0.552856,0.88942,-1.158385,0.26691,-0.184553,89.045822,62.167435,-132.587006,,,
729705463.452586,-33.474023,3.380591,73.533057,-0.040466,-0.577682,0.8685,-1.11585,0.255838,-0.135481,89.045822,62.167435,-132.587006,,,
729705463.456005,-33.474023,3.380591,73.533057,-0.040466,-0.577682,0.8685,-1.11585,0.255838,-0.135481,89.045822,62.167435,-132.587006,,,
729705463.459279,-33.796199,3.441832,73.511389,-0.040466,-0.577682,0.8685,-1.11585,0.255838,-0.135481,89.045822,62.167435,-132.587006,,,
729705463.462596,-34.113942,3.508651,73.497407,-0.044998,-0.59462,0.863281,-1.092752,0.271374,-0.09341,89.045822,62.167435,-132.587006,,,
729705463.465938,-34.113942,3.508651,73.497407,-0.044998,-0.59462,0.863281,-1.092752,0.271374,-0.09341,89.045822,62.167435,-132.587006,,,
729705463.469328,-34.429368,3.582441,73.489913,-0.044998,-0.59462,0.863281,-1.092752,0.271374,-0.09341,89.045822,62.167435,-132.587006,,,
729705463.47259,-34.744791,3.663156,73.487084,-0.031525,-0.598633,0.857758,-1.10068,0.302586,-0.073501,89.045822,62.167435,-132.587006,,,
729705463.475937,-34.744791,3.663156,73.487084,-0.031525,-0.598633,0.857758,-1.10068,0.302586,-0.073501,89.045822,62.167435,-132.587006,,,
729705463.479277,-35.062466,3.750129,73.486368,-0.031525,-0.598633,0.857758,-1.10068,0.302586,-0.073501,89.045822,62.167435,-132.587006,,,
729705463.48261,-35.383411,3.841919,73.485648,-0.026077,-0.597198,0.841141,-1.12462,0.339017,-0.080648,89.285538,63.758118,-130.811554,,,
729705463.485946,-35.383411,3.841919,73.485648,-0.026077,-0.597198,0.841141,-1.12462,0.339017,-0.080648,89.285538,63.758118,-130.811554,,,
729705463.489343,-35.708,3.937923,73.483693,-0.026077,-0.597198,0.841141,-1.12462,0.339017,-0.080648,89.285538,63.758118,-130.811554,,,
729705463.492589,-36.036987,4.038483,73.480552,-0.026764,-0.59613,0.827332,-1.154332,0.368541,-0.096995,89.285538,63.758118,-130.811554,,,
729705463.49601,-36.036987,4.038483,73.480552,-0.026764,-0.59613,0.827332,-1.154332,0.368541,-0.096995,89.285538,63.758118,-130.811554,,,
729705463.499271,-36.370138,4.140298,73.47491,-0.026764,-0.59613,0.827332,-1.154332,0.368541,-0.096995,89.285538,63.758118,-130.811554,,,
729705463.502608,-36.707614,4.240218,73.465737,-0.036713,-0.597275,0.8116,-1.18186,0.367168,-0.123621,89.285538,63.758118,-130.811554,,,
729705463.505922,-36.707614,4.240218,73.465737,-0.036713,-0.597275,0.8116,-1.18186,0.367168,-0.123621,89.285538,63.758118,-130.811554,,,
729705463.509891,-37.04927,4.337647,73.453105,-0.036713,-0.597275,0.8116,-1.18186,0.367168,-0.123621,89.285538,63.758118,-130.811554,,,
729705463.512473,-37.393704,4.433013,73.436181,-0.046936,-0.602905,0.800201,-1.195597,0.371046,-0.149331,89.285538,63.758118,-130.811554,,,
729705463.515997,-37.393704,4.433013,73.436181,-0.046936,-0.602905,0.800201,-1.195597,0.371046,-0.149331,89.285538,63.758118,-130.811554,,,
729705463.519255,-37.740488,4.525506,73.41542,-0.046936,-0.602905,0.800201,-1.195597,0.371046,-0.149331,89.285538,63.758118,-130.811554,,,
729705463.522601,-38.091659,4.611893,73.3908,-0.055786,-0.61525,0.78833,-1.229424,0.341759,-0.17734,89.285538,63.758118,-130.811554,,,
729705463.525948,-38.091659,4.611893,73.3908,-0.055786,-0.61525,0.78833,-1.229424,0.341759,-0.17734,89.565201,65.346283,-128.252777,,,
729705463.52928,-38.448611,4.690665,73.362379,-0.055786,-0.61525,0.78833,-1.229424,0.341759,-0.17734,89.565201,65.346283,-128.252777,,,
729705463.532593,-38.810062,4.760596,73.32934,-0.062424,-0.623154,0.756958,-1.253231,0.30368,-0.20754,89.565201,65.346283,-128.252777,,,
729705463.535962,-38.810062,4.760596,73.32934,-0.062424,-0.623154,0.756958,-1.253231,0.30368,-0.20754,89.565201,65.346283,-128.252777,,,
729705463.53929,-39.174906,4.821298,73.29003,-0.062424,-0.623154,0.756958,-1.253231,0.30368,-0.20754,89.565201,65.346283,-128.252777,,,
729705463.542599,-39.543155,4.874499,73.243917,-0.063217,-0.631927,0.75296,-1.272771,0.284147,-0.249478,89.565201,65.346283,-128.252777,,,
729705463.545996,-39.543155,4.874499,73.243917,-0.063217,-0.631927,0.75296,-1.272771,0.284147,-0.249478,89.565201,65.346283,-128.252777,,,
729705463.549282,-39.913552,4.920744,73.190302,-0.063217,-0.631927,0.75296,-1.272771,0.284147,-0.249478,89.565201,65.346283,-128.252777,,,
729705463.552587,-40.286003,4.960359,73.129443,-0.057068,-0.633377,0.75,-1.283704,0.272247,-0.290695,89.565201,65.346283,-128.252777,,,
729705463.555955,-40.286003,4.960359,73.129443,-0.057068,-0.633377,0.75,-1.283704,0.272247,-0.290695,89.565201,65.346283,-128.252777,,,
729705463.559288,-40.660724,4.992611,73.060976,-0.057068,-0.633377,0.75,-1.283704,0.272247,-0.290695,89.565201,65.346283,-128.252777,,,
729705463.562589,-41.037638,5.018175,72.984745,-0.051819,-0.641312,0.735718,-1.293005,0.266558,-0.329209,89.565201,65.346283,-128.252777,,,
729705463.565936,-41.037638,5.018175,72.984745,-0.051819,-0.641312,0.735718,-1.293005,0.266558,-0.329209,89.687317,66.870087,-126.128021,,,
729705463.569267,-41.416025,5.041599,72.903159,-0.051819,-0.641312,0.735718,-1.293005,0.266558,-0.329209,89.687317,66.870087,-126.128021,,,
729705463.572589,-41.794257,5.06771,72.818817,-0.055496,-0.657928,0.734665,-1.290006,0.310841,-0.337541,89.687317,66.870087,-126.128021,,,
729705463.575934,-41.794257,5.06771,72.818817,-0.055496,-0.657928,0.734665,-1.290006,0.310841,-0.337541,89.687317,66.870087,-126.128021,,,
729705463.57927,-42.171025,5.101329,72.734243,-0.055496,-0.657928,0.734665,-1.290006,0.310841,-0.337541,89.687317,66.870087,-126.128021,,,
729705463.582586,-42.544652,5.144614,72.651136,-0.06601,-0.675919,0.750015,-1.266624,0.369193,-0.323554,89.687317,66.870087,-126.128021,,,
729705463.585981,-42.544652,5.144614,72.651136,-0.06601,-0.675919,0.750015,-1.266624,0.369193,-0.323554,89.687317,66.870087,-126.128021,,,
729705463.589279,-42.914522,5.196166,72.570396,-0.06601,-0.675919,0.750015,-1.266624,0.369193,-0.323554,89.687317,66.870087,-126.128021,,,
729705463.592587,-43.280644,5.254455,72.493417,-0.064789,-0.690262,0.74855,-1.245565,0.398234,-0.304409,89.687317,66.870087,-126.128021,,,
729705463.595935,-43.280644,5.254455,72.493417,-0.064789,-0.690262,0.74855,-1.245565,0.398234,-0.304409,89.687317,66.870087,-126.128021,,,
729705463.599256,-43.644787,5.318955,72.421882,-0.064789,-0.690262,0.74855,-1.245565,0.398234,-0.304409,89.687317,66.870087,-126.128021,,,
729705463.602589,-44.009598,5.390601,72.357225,-0.062408,-0.695541,0.724655,-1.254953,0.419207,-0.268943,89.687317,66.870087,-126.128021,,,
729705463.605924,-44.009598,5.390601,72.357225,-0.062408,-0.695541,0.724655,-1.254953,0.419207,-0.268943,89.548248,68.568817,-123.218948,,,
729705463.609256,-44.377457,5.470838,72.300031,-0.062408,-0.695541,0.724655,-1.254953,0.419207,-0.268943,89.548248,68.568817,-123.218948,,,
729705463.612589,-44.749751,5.558607,72.251688,-0.072083,-0.701538,0.704498,-1.294483,0.423025,-0.229807,89.548248,68.568817,-123.218948,,,
729705463.615934,-44.749751,5.558607,72.251688,-0.072083,-0.701538,0.704498,-1.294483,0.423025,-0.229807,89.548248,68.568817,-123.218948,,,
729705463.619267,-45.128308,5.650991,72.212692,-0.072083,-0.701538,0.704498,-1.294483,0.423025,-0.229807,89.548248,68.568817,-123.218948,,,
729705463.622587,-45.513951,5.744877,72.182934,-0.079361,-0.712128,0.672073,-1.349041,0.384627,-0.192195,89.548248,68.568817,-123.218948,,,
729705463.62594,-45.513951,5.744877,72.182934,-0.079361,-0.712128,0.672073,-1.349041,0.384627,-0.192195,89.548248,68.568817,-123.218948,,,
729705463.629285,-45.906618,5.837124,72.162482,-0.079361,-0.712128,0.672073,-1.349041,0.384627,-0.192195,89.548248,68.568817,-123.218948,,,
729705463.632577,-46.306147,5.924583,72.149886,-0.088181,-0.728607,0.648376,-1.396593,0.308019,-0.16697,89.548248,68.568817,-123.218948,,,
729705463.635989,-46.306147,5.924583,72.149886,-0.088181,-0.728607,0.648376,-1.396593,0.308019,-0.16697,89.548248,68.568817,-123.218948,,,
729705463.639256,-46.711223,6.004209,72.142841,-0.088181,-0.728607,0.648376,-1.396593,0.308019,-0.16697,89.548248,68.568817,-123.218948,,,
729705463.642605,-47.120329,6.076733,72.138523,-0.090378,-0.729141,0.635941,-1.420426,0.252474,-0.166721,89.548248,68.568817,-123.218948,,,
729705463.645928,-47.120329,6.076733,72.138523,-0.090378,-0.729141,0.635941,-1.420426,0.252474,-0.166721,89.569687,69.936356,-120.539825,,,
729705463.649253,-47.531943,6.14479,72.131818,-0.090378,-0.729141,0.635941,-1.420426,0.252474,-0.166721,89.569687,69.936356,-120.539825,,,
729705463.652629,-47.945163,6.212467,72.118542,-0.073822,-0.720154,0.66272,-1.430772,0.297806,-0.199309,89.569687,69.936356,-120.539825,,,
729705463.655928,-47.945163,6.212467,72.118542,-0.073822,-0.720154,0.66272,-1.430772,0.297806,-0.199309,89.569687,69.936356,-120.539825,,,
729705463.659256,-48.359395,6.285432,72.098167,-0.073822,-0.720154,0.66272,-1.430772,0.297806,-0.199309,89.569687,69.936356,-120.539825,,,
729705463.662624,-48.774777,6.36682,72.071067,-0.06134,-0.718521,0.680359,-1.431803,0.394861,-0.234522,89.569687,69.936356,-120.539825,,,
729705463.665942,-48.774777,6.36682,72.071067,-0.06134,-0.718521,0.680359,-1.431803,0.394861,-0.234522,89.569687,69.936356,-120.539825,,,
729705463.669282,-49.191644,6.458987,72.039242,-0.06134,-0.718521,0.680359,-1.431803,0.394861,-0.234522,89.569687,69.936356,-120.539825,,,
729705463.672623,-49.610334,6.565359,72.006998,-0.068268,-0.734238,0.666306,-1.442375,0.496109,-0.234354,89.569687,69.936356,-120.539825,,,
729705463.675992,-49.610334,6.565359,72.006998,-0.068268,-0.734238,0.666306,-1.442375,0.496109,-0.234354,89.569687,69.936356,-120.539825,,,
729705463.679287,-50.031247,6.687169,71.979421,-0.068268,-0.734238,0.666306,-1.442375,0.496109,-0.234354,89.569687,69.936356,-120.539825,,,
729705463.682583,-50.454473,6.822931,71.961269,-0.083176,-0.7621,0.637451,-1.467681,0.533928,-0.197791,89.569687,69.936356,-120.539825,,,
729705463.685941,-50.454473,6.822931,71.961269,-0.083176,-0.7621,0.637451,-1.467681,0.533928,-0.197791,89.569687,69.936356,-120.539825,,,
729705463.689336,-50.880553,6.970709,71.956468,-0.083176,-0.7621,0.637451,-1.467681,0.533928,-0.197791,89.658463,71.454269,-117.388138,,,
729705463.692626,-51.311181,7.127437,71.966454,-0.092163,-0.783417,0.601868,-1.505341,0.509114,-0.141733,89.658463,71.454269,-117.388138,,,
729705463.695946,-51.311181,7.127437,71.966454,-0.092163,-0.783417,0.601868,-1.505341,0.509114,-0.141733,89.658463,71.454269,-117.388138,,,
729705463.699267,-51.746715,7.290931,71.991936,-0.092163,-0.783417,0.601868,-1.505341,0.509114,-0.141733,89.658463,71.454269,-117.388138,,,
729705463.702607,-52.187305,7.461045,72.032431,-0.097549,-0.793625,0.577774,-1.549076,0.476812,-0.096389,89.658463,71.454269,-117.388138,,,
729705463.705932,-52.187305,7.461045,72.032431,-0.097549,-0.793625,0.577774,-1.549076,0.476812,-0.096389,89.658463,71.454269,-117.388138,,,
729705463.709274,-52.633575,7.638148,72.08548,-0.097549,-0.793625,0.577774,-1.549076,0.476812,-0.096389,89.658463,71.454269,-117.388138,,,
729705463.71259,-52.633575,7.821829,72.14845,-0.097549,-0.793625,0.577774,-1.588564,0.465665,-0.076702,89.658463,71.454269,-117.388138,,,
729705463.716002,-53.085081,7.821829,72.14845,-0.094223,-0.797775,0.570648,-1.588564,0.465665,-0.076702,89.658463,71.454269,-117.388138,,,
729705463.719253,-53.540766,8.010426,72.218613,-0.094223,-0.797775,0.570648,-1.588564,0.465665,-0.076702,89.658463,71.454269,-117.388138,,,
729705463.722629,-53.540766,8.202644,72.293519,-0.094223,-0.797775,0.570648,-1.615052,0.461924,-0.075211,89.658463,71.454269,-117.388138,,,
729705463.725997,-54.000068,8.202644,72.293519,-0.100204,-0.803284,0.569656,-1.615052,0.461924,-0.075211,89.658463,71.454269,-117.388138,,,
729705463.729302,-54.462684,8.398023,72.372123,-0.100204,-0.803284,0.569656,-1.615052,0.461924,-0.075211,89.874054,72.849503,-113.503418,,,
729705463.732628,-54.462684,8.594483,72.452647,-0.100204,-0.803284,0.569656,-1.630175,0.453391,-0.087343,89.874054,72.849503,-113.503418,,,
729705463.735922,-54.928125,8.594483,72.452647,-0.105759,-0.809662,0.562546,-1.630175,0.453391,-0.087343,89.874054,72.849503,-113.503418,,,
729705463.739252,-55.395584,8.789701,72.534077,-0.105759,-0.809662,0.562546,-1.630175,0.453391,-0.087343,89.874054,72.849503,-113.503418,,,
729705463.74264,-55.864761,8.983553,72.617481,-0.105759,-0.809662,0.562546,-1.645196,0.430095,-0.096431,89.874054,72.849503,-113.503418,,,
729705463.745941,-55.864761,8.983553,72.617481,-0.113571,-0.820496,0.545959,-1.645196,0.430095,-0.096431,89.874054,72.849503,-113.503418,,,
729705463.749258,-56.335568,9.174034,72.702027,-0.113571,-0.820496,0.545959,-1.645196,0.430095,-0.096431,89.874054,72.849503,-113.503418,,,
729705463.75259,-56.335568,9.174034,72.702027,-0.113571,-0.820496,0.545959,-1.646523,0.369187,-0.11447,89.874054,72.849503,-113.503418,,,
729705463.755985,-56.807129,9.356566,72.785776,-0.118164,-0.833313,0.52504,-1.646523,0.369187,-0.11447,89.874054,72.849503,-113.503418,,,
729705463.759251,-57.278095,9.526876,72.868312,-0.118164,-0.833313,0.52504,-1.646523,0.369187,-0.11447,89.874054,72.849503,-113.503418,,,
729705463.762653,-57.278095,9.526876,72.946979,-0.118164,-0.833313,0.52504,-1.646523,0.369187,-0.11447,89.874054,72.849503,-113.503418,,,
729705463.765936,-57.746479,9.680931,72.946979,-0.112503,-0.836365,0.515289,-1.615131,0.275343,-0.138032,89.874054,72.849503,-113.503418,,,
729705463.76926,-58.20827,9.818942,73.02079,-0.112503,-0.836365,0.515289,-1.615131,0.275343,-0.138032,89.874451,73.777664,-110.064224,,,
729705463.772677,-58.20827,9.945013,73.089971,-0.112503,-0.836365,0.515289,-1.615131,0.275343,-0.138032,89.874451,73.777664,-110.064224,,,
729705463.775928,-58.660084,9.945013,73.089971,-0.109467,-0.842041,0.528793,-1.543027,0.224949,-0.152549,89.874451,73.777664,-110.064224,,,
729705463.779256,-59.101827,10.063369,73.154392,-0.109467,-0.842041,0.528793,-1.543027,0.224949,-0.152549,89.874451,73.777664,-110.064224,,,
729705463.782659,-59.101827,10.063369,73.154392,-0.109467,-0.842041,0.528793,-1.543027,0.224949,-0.152549,89.874451,73.777664,-110.064224,,,
729705463.785928,-59.532572,10.176305,73.217079,-0.107742,-0.852188,0.5439,-1.46266,0.1947,-0.152379,89.874451,73.777664,-110.064224,,,
729705463.789286,-59.948795,10.285787,73.279781,-0.107742,-0.852188,0.5439,-1.46266,0.1947,-0.152379,89.874451,73.777664,-110.064224,,,
729705463.792636,-59.948795,10.285787,73.279781,-0.107742,-0.852188,0.5439,-1.46266,0.1947,-0.152379,89.874451,73.777664,-110.064224,,,
729705463.795993,-60.347671,10.393855,73.345923,-0.110367,-0.87027,0.546799,-1.343725,0.158335,-0.123626,89.874451,73.777664,-110.064224,,,
729705463.799259,-60.729094,10.499999,73.420786,-0.110367,-0.87027,0.546799,-1.343725,0.158335,-0.123626,89.874451,73.777664,-110.064224,,,
729705463.802642,-60.729094,10.499999,73.420786,-0.110367,-0.87027,0.546799,-1.343725,0.158335,-0.123626,89.874451,73.777664,-110.064224,,,
729705463.805932,-61.094213,10.604569,73.508769,-0.122879,-0.89241,0.531616,-1.237514,0.065932,-0.062621,89.874451,73.777664,-110.064224,,,
729705463.809266,-61.443493,10.70992,73.612104,-0.122879,-0.89241,0.531616,-1.237514,0.065932,-0.062621,89.649124,74.617935,-107.315353,,,
729705463.81267,-61.443493,10.70992,73.612104,-0.122879,-0.89241,0.531616,-1.237514,0.065932,-0.062621,89.649124,74.617935,-107.315353,,,
729705463.815933,-61.777772,10.817882,73.73014,-0.12912,-0.907364,0.516815,-1.140655,-0.009984,-0.006637,89.649124,74.617935,-107.315353,,,
729705463.819267,-62.095779,10.927224,73.86028,-0.12912,-0.907364,0.516815,-1.140655,-0.009984,-0.006637,89.649124,74.617935,-107.315353,,,
729705463.822654,-62.095779,10.927224,73.86028,-0.12912,-0.907364,0.516815,-1.140655,-0.009984,-0.006637,89.649124,74.617935,-107.315353,,,
729705463.825921,-62.397416,11.037224,73.998345,-0.119919,-0.909439,0.51767,-1.038826,-0.045665,0.026602,89.649124,74.617935,-107.315353,,,
729705463.829263,-62.685443,11.147725,74.138724,-0.119919,-0.909439,0.51767,-1.038826,-0.045665,0.026602,89.649124,74.617935,-107.315353,,,
729705463.832644,-62.685443,11.147725,74.138724,-0.119919,-0.909439,0.51767,-1.038826,-0.045665,0.026602,89.649124,74.617935,-107.315353,,,
729705463.835925,-62.960789,11.257146,74.276584,-0.105179,-0.908875,0.522751,-0.946216,-0.037087,0.02689,89.649124,74.617935,-107.315353,,,
729705463.839292,-63.223027,11.363075,74.407856,-0.105179,-0.908875,0.522751,-0.946216,-0.037087,0.02689,89.649124,74.617935,-107.315353,,,
729705463.842757,-63.223027,11.363075,74.407856,-0.105179,-0.908875,0.522751,-0.946216,-0.037087,0.02689,89.649124,74.617935,-107.315353,,,
729705463.845996,-63.471761,11.463591,74.531001,-0.091141,-0.907761,0.521912,-0.852072,-0.02857,0.012593,89.649124,74.617935,-107.315353,,,
729705463.849281,-63.707791,11.558617,74.647848,-0.091141,-0.907761,0.521912,-0.852072,-0.02857,0.012593,89.649124,74.617935,-107.315353,,,
729705463.852704,-63.707791,11.558617,74.647848,-0.091141,-0.907761,0.521912,-0.852072,-0.02857,0.012593,89.828491,74.941574,-105.11795,,,
729705463.856047,-63.931574,11.649287,74.759818,-0.092255,-0.915268,0.508698,-0.763617,-0.032165,0.011083,89.828491,74.941574,-105.11795,,,
729705463.859252,-64.142452,11.735769,74.868077,-0.092255,-0.915268,0.508698,-0.763617,-0.032165,0.011083,89.828491,74.941574,-105.11795,,,
729705463.862598,-64.142452,11.735769,74.868077,-0.092255,-0.915268,0.508698,-0.763617,-0.032165,0.011083,89.828491,74.941574,-105.11795,,,
729705463.865933,-64.340598,11.817556,74.973448,-0.096436,-0.924072,0.494171,-0.676384,-0.047461,0.016805,89.828491,74.941574,-105.11795,,,
729705463.869361,-64.526486,11.894699,75.07591,-0.096436,-0.924072,0.494171,-0.676384,-0.047461,0.016805,89.828491,74.941574,-105.11795,,,
729705463.872579,-64.526486,11.894699,75.07591,-0.096436,-0.924072,0.494171,-0.676384,-0.047461,0.016805,89.828491,74.941574,-105.11795,,,
729705463.875938,-64.699825,11.966425,75.17329,-0.097672,-0.927368,0.484039,-0.586164,-0.0575,0.015307,89.828491,74.941574,-105.11795,,,
729705463.879252,-64.860627,12.032644,75.264328,-0.097672,-0.927368,0.484039,-0.586164,-0.0575,0.015307,89.828491,74.941574,-105.11795,,,
729705463.882597,-64.860627,12.032644,75.264328,-0.097672,-0.927368,0.484039,-0.586164,-0.0575,0.015307,89.828491,74.941574,-105.11795,,,
729705463.885998,-65.009356,12.092426,75.347308,-0.093384,-0.928619,0.485275,-0.498136,-0.046518,0.002726,89.828491,74.941574,-105.11795,,,
729705463.889246,-65.146926,12.142825,75.418872,-0.093384,-0.928619,0.485275,-0.498136,-0.046518,0.002726,89.828491,74.941574,-105.11795,,,
729705463.892592,-65.146926,12.142825,75.418872,-0.093384,-0.928619,0.485275,-0.498136,-0.046518,0.002726,89.763107,75.092041,-104.048401,,,
729705463.895934,-65.274329,12.180565,75.477113,-0.083755,-0.925369,0.481354,-0.420699,-0.05606,-0.020216,89.763107,75.092041,-104.048401,,,
729705463.899257,-65.391788,12.204195,75.52146,-0.083755,-0.925369,0.481354,-0.420699,-0.05606,-0.020216,89.763107,75.092041,-104.048401,,,
729705463.902597,-65.391788,12.204195,75.52146,-0.083755,-0.925369,0.481354,-0.420699,-0.05606,-0.020216,89.763107,75.092041,-104.048401,,,
729705463.90595,-65.499978,12.213799,75.551981,-0.080078,-0.922043,0.470367,-0.349237,-0.065007,-0.046861,89.763107,75.092041,-104.048401,,,
729705463.909255,-65.599782,12.209865,75.569787,-0.080078,-0.922043,0.470367,-0.349237,-0.065007,-0.046861,89.763107,75.092041,-104.048401,,,
729705463.91269,-65.599782,12.209865,75.569787,-0.080078,-0.922043,0.470367,-0.349237,-0.065007,-0.046861,89.763107,75.092041,-104.048401,,,
729705463.91595,-65.692414,12.193449,75.576989,-0.07695,-0.922165,0.468155,-0.297436,-0.083681,-0.066829,89.763107,75.092041,-104.048401,,,
729705463.91926,-65.778387,12.165171,75.574901,-0.07695,-0.922165,0.468155,-0.297436,-0.083681,-0.066829,89.763107,75.092041,-104.048401,,,
729705463.922404,-65.778387,12.165171,75.574901,-0.07695,-0.922165,0.468155,-0.297436,-0.083681,-0.066829,89.763107,75.092041,-104.048401,,,
729705463.926022,-65.858725,12.126499,75.565354,-0.075089,-0.924698,0.45015,-0.256532,-0.113644,-0.078465,89.763107,75.092041,-104.048401,,,
729705463.929248,-65.935469,12.080115,75.550878,-0.075089,-0.924698,0.45015,-0.256532,-0.113644,-0.078465,89.763107,75.092041,-104.048401,,,
729705463.932592,-65.935469,12.080115,75.550878,-0.075089,-0.924698,0.45015,-0.256532,-0.113644,-0.078465,89.366592,75.377075,-103.498856,,,
729705463.935943,-66.01076,12.027335,75.53179,-0.075745,-0.928635,0.43222,-0.253076,-0.123808,-0.09072,89.366592,75.377075,-103.498856,,,
729705463.939255,-66.087772,11.96839,75.50646,-0.075745,-0.928635,0.43222,-0.253076,-0.123808,-0.09072,89.366592,75.377075,-103.498856,,,
729705463.942598,-66.087772,11.96839,75.50646,-0.075745,-0.928635,0.43222,-0.253076,-0.123808,-0.09072,89.366592,75.377075,-103.498856,,,
729705463.945932,-66.167989,11.901965,75.472037,-0.059692,-0.922668,0.422394,-0.269569,-0.116799,-0.118193,89.366592,75.377075,-103.498856,,,
729705463.949255,-66.252408,11.826554,75.42692,-0.059692,-0.922668,0.422394,-0.269569,-0.116799,-0.118193,89.366592,75.377075,-103.498856,,,
729705463.95266,-66.252408,11.826554,75.42692,-0.059692,-0.922668,0.422394,-0.269569,-0.116799,-0.118193,89.366592,75.377075,-103.498856,,,
729705463.955939,-66.342729,11.741676,75.369828,-0.046463,-0.917374,0.409195,-0.309052,-0.101759,-0.1598,89.366592,75.377075,-103.498856,,,
729705463.959258,-66.440929,11.648673,75.300484,-0.046463,-0.917374,0.409195,-0.309052,-0.101759,-0.1598,89.366592,75.377075,-103.498856,,,
729705463.962597,-66.440929,11.648673,75.300484,-0.046463,-0.917374,0.409195,-0.309052,-0.101759,-0.1598,89.366592,75.377075,-103.498856,,,
729705463.965995,-66.548677,11.547188,75.219613,-0.04007,-0.9142,0.394058,-0.370322,-0.090152,-0.208177,89.366592,75.377075,-103.498856,,,
