Time (sec),Pitch (deg),Roll (deg),Yaw(deg),X-Acceleration (g),Y-Acceleration (g),Z-Acceleration (g),Pitch Rate (deg/sec),Roll Rate (deg/sec),Yaw Rate (deg/sec),Magnetic Field in X direction (uT),Magnetic Field in Y direction (uT),Magnetic Field in Z Direction (uT),Latitude (deg),Longitude (deg),Altitude (m)
729715940.551814,-24.021019,-2.847323,-84.267732,0.05159,-0.402222,0.931915,-0.264862,-0.025163,-0.056158,63.87587,34.5448,-149.509842,,,
729715940.556523,-24.088996,-2.84732,-87.34461,0.05159,-0.402222,0.931915,-0.214914,-0.014766,-0.034424,63.87587,34.5448,-149.509842,,,
729715940.556807,-24.088989,-2.847323,-84.267732,0.05159,-0.402222,0.931915,-0.214914,-0.014766,-0.034424,63.87587,34.5448,-149.509842,,,
729715940.559302,-24.151511,-2.857959,-87.357849,0.043655,-0.419601,0.929367,-0.214914,-0.014766,-0.034424,63.87587,34.5448,-149.509842,,,
729715940.559531,-24.151505,-2.857962,-84.280971,0.043655,-0.419601,0.929367,-0.214914,-0.014766,-0.034424,63.87587,34.5448,-149.509842,,,
729715940.56149,-24.151511,-2.857959,-87.357849,0.043655,-0.419601,0.929367,-0.214914,-0.014766,-0.034424,63.87587,34.5448,-149.509842,,,
729715940.561772,-24.151505,-2.857962,-84.280971,0.043655,-0.419601,0.929367,-0.214914,-0.014766,-0.034424,63.87587,34.5448,-149.509842,,,
729715940.566279,-24.21095,-2.866433,-87.365613,0.043655,-0.419601,0.929367,-0.206058,-0.019425,-0.000262,63.87587,34.5448,-149.509842,,,
729715940.56652,-24.210944,-2.866436,-84.288735,0.043655,-0.419601,0.929367,-0.206058,-0.019425,-0.000262,63.87587,34.5448,-149.509842,,,
729715940.568876,-24.27024,-2.873464,-87.368165,0.045792,-0.417953,0.913635,-0.206058,-0.019425,-0.000262,63.87587,34.5448,-149.509842,,,
729715940.569093,-24.270234,-2.873467,-84.291287,0.045792,-0.417953,0.913635,-0.206058,-0.019425,-0.000262,63.87587,34.5448,-149.509842,,,
729715940.571657,-24.27024,-2.873464,-87.368165,0.045792,-0.417953,0.913635,-0.206058,-0.019425,-0.000262,63.87587,34.5448,-149.509842,,,
729715940.571904,-24.270234,-2.873467,-84.291287,0.045792,-0.417953,0.913635,-0.206058,-0.019425,-0.000262,63.87587,34.5448,-149.509842,,,
729715940.577254,-24.33213,-2.879573,-87.365957,0.045792,-0.417953,0.913635,-0.228146,-0.022934,0.028911,63.87587,34.5448,-149.509842,,,
729715940.577534,-24.398096,-2.884708,-84.283312,0.040421,-0.414932,0.893692,-0.228146,-0.022934,0.028911,63.87587,34.5448,-149.509842,,,
729715940.579238,-24.398102,-2.884705,-87.36019,0.040421,-0.414932,0.893692,-0.228146,-0.022934,0.028911,63.87587,34.5448,-149.509842,,,
729715940.579477,-24.398096,-2.884708,-84.283312,0.040421,-0.414932,0.893692,-0.228146,-0.022934,0.028911,63.87587,34.5448,-149.509842,,,
729715940.581487,-24.398102,-2.884705,-87.36019,0.040421,-0.414932,0.893692,-0.228146,-0.022934,0.028911,63.87587,34.5448,-149.509842,,,
729715940.58171,-24.398096,-2.884708,-84.283312,0.040421,-0.414932,0.893692,-0.228146,-0.022934,0.028911,63.87587,34.5448,-149.509842,,,
729715940.587021,-24.470019,-2.887184,-87.352326,0.040421,-0.414932,0.893692,-0.276082,-0.004385,0.035021,63.763245,35.272858,-149.164124,,,
729715940.587279,-24.549772,-2.886276,-84.267535,0.044128,-0.407745,0.888062,-0.276082,-0.004385,0.035021,63.763245,35.272858,-149.164124,,,
729715940.588589,-24.549779,-2.886273,-87.344413,0.044128,-0.407745,0.888062,-0.276082,-0.004385,0.035021,63.763245,35.272858,-149.164124,,,
729715940.588805,-24.549772,-2.886276,-84.267535,0.044128,-0.407745,0.888062,-0.276082,-0.004385,0.035021,63.763245,35.272858,-149.164124,,,
729715940.591596,-24.549779,-2.886273,-87.344413,0.044128,-0.407745,0.888062,-0.276082,-0.004385,0.035021,63.763245,35.272858,-149.164124,,,
729715940.591785,-24.549772,-2.886276,-84.267535,0.044128,-0.407745,0.888062,-0.276082,-0.004385,0.035021,63.763245,35.272858,-149.164124,,,
729715940.597214,-24.638895,-2.882409,-87.338509,0.044128,-0.407745,0.888062,-0.349765,0.018707,0.026486,63.763245,35.272858,-149.164124,,,
729715940.59748,-24.738995,-2.876322,-84.258436,0.050247,-0.401291,0.883148,-0.349765,0.018707,0.026486,63.763245,35.272858,-149.164124,,,
729715940.599011,-24.739002,-2.876319,-87.335315,0.050247,-0.401291,0.883148,-0.349765,0.018707,0.026486,63.763245,35.272858,-149.164124,,,
729715940.599235,-24.738995,-2.876322,-84.258436,0.050247,-0.401291,0.883148,-0.349765,0.018707,0.026486,63.763245,35.272858,-149.164124,,,
729715940.601542,-24.739002,-2.876319,-87.335315,0.050247,-0.401291,0.883148,-0.349765,0.018707,0.026486,63.763245,35.272858,-149.164124,,,
729715940.601744,-24.738995,-2.876322,-84.258436,0.050247,-0.401291,0.883148,-0.349765,0.018707,0.026486,63.763245,35.272858,-149.164124,,,
729715940.606117,-24.851063,-2.868275,-87.334747,0.050247,-0.401291,0.883148,-0.433022,0.043485,0.015426,63.763245,35.272858,-149.164124,,,
729715940.606376,-24.851057,-2.868278,-84.257868,0.050247,-0.401291,0.883148,-0.433022,0.043485,0.015426,63.763245,35.272858,-149.164124,,,
729715940.609158,-24.975801,-2.858265,-87.337083,0.046631,-0.401123,0.874054,-0.433022,0.043485,0.015426,63.763245,35.272858,-149.164124,,,
729715940.609378,-24.975794,-2.858269,-84.260205,0.046631,-0.401123,0.874054,-0.433022,0.043485,0.015426,63.763245,35.272858,-149.164124,,,
729715940.611415,-24.975801,-2.858265,-87.337083,0.046631,-0.401123,0.874054,-0.433022,0.043485,0.015426,63.763245,35.272858,-149.164124,,,
729715940.611708,-24.975794,-2.858269,-84.260205,0.046631,-0.401123,0.874054,-0.433022,0.043485,0.015426,63.763245,35.272858,-149.164124,,,
729715940.616007,-25.112468,-2.847965,-87.342306,0.046631,-0.401123,0.874054,-0.516781,0.042954,0.00223,63.763245,35.272858,-149.164124,,,
729715940.616231,-25.112461,-2.847968,-84.265428,0.046631,-0.401123,0.874054,-0.516781,0.042954,0.00223,63.763245,35.272858,-149.164124,,,
729715940.619341,-25.260513,-2.839912,-87.349615,0.043961,-0.406586,0.871811,-0.516781,0.042954,0.00223,63.763245,35.272858,-149.164124,,,
729715940.619567,-25.260506,-2.839915,-84.272737,0.043961,-0.406586,0.871811,-0.516781,0.042954,0.00223,63.763245,35.272858,-149.164124,,,
729715940.621465,-25.260513,-2.839912,-87.349615,0.043961,-0.406586,0.871811,-0.516781,0.042954,0.00223,63.763245,35.272858,-149.164124,,,
729715940.621688,-25.260506,-2.839915,-84.272737,0.043961,-0.406586,0.871811,-0.516781,0.042954,0.00223,63.763245,35.272858,-149.164124,,,
729715940.625902,-25.419765,-2.836834,-87.358192,0.043961,-0.406586,0.871811,-0.584873,0.003365,0.001596,63.763245,35.272858,-149.164124,,,
729715940.626183,-25.419758,-2.836837,-84.281314,0.043961,-0.406586,0.871811,-0.584873,0.003365,0.001596,63.763245,35.272858,-149.164124,,,
729715940.629664,-25.586877,-2.839994,-87.3664,0.04097,-0.416977,0.861145,-0.584873,0.003365,0.001596,64.00621,35.972015,-148.967819,,,
729715940.629931,-25.58687,-2.839998,-84.289522,0.04097,-0.416977,0.861145,-0.584873,0.003365,0.001596,64.00621,35.972015,-148.967819,,,
729715940.63147,-25.586877,-2.839994,-87.3664,0.04097,-0.416977,0.861145,-0.584873,0.003365,0.001596,64.00621,35.972015,-148.967819,,,
729715940.631712,-25.58687,-2.839998,-84.289522,0.04097,-0.416977,0.861145,-0.584873,0.003365,0.001596,64.00621,35.972015,-148.967819,,,
729715940.637383,-25.757098,-2.848426,-87.373302,0.04097,-0.416977,0.861145,-0.590595,-0.024804,0.007376,64.00621,35.972015,-148.967819,,,
729715940.637664,-25.925698,-2.859142,-84.302682,0.030151,-0.432739,0.871658,-0.590595,-0.024804,0.007376,64.00621,35.972015,-148.967819,,,
729715940.639432,-25.925705,-2.859138,-87.379561,0.030151,-0.432739,0.871658,-0.590595,-0.024804,0.007376,64.00621,35.972015,-148.967819,,,
729715940.639667,-25.925698,-2.859142,-84.302682,0.030151,-0.432739,0.871658,-0.590595,-0.024804,0.007376,64.00621,35.972015,-148.967819,,,
729715940.641489,-25.925705,-2.859138,-87.379561,0.030151,-0.432739,0.871658,-0.590595,-0.024804,0.007376,64.00621,35.972015,-148.967819,,,
729715940.641708,-25.925698,-2.859142,-84.302682,0.030151,-0.432739,0.871658,-0.590595,-0.024804,0.007376,64.00621,35.972015,-148.967819,,,
729715940.647144,-26.087227,-2.870006,-87.386609,0.030151,-0.432739,0.871658,-0.52666,-0.021122,-0.003693,64.00621,35.972015,-148.967819,,,
729715940.647397,-26.238138,-2.881408,-84.319166,0.042191,-0.445618,0.910828,-0.52666,-0.021122,-0.003693,64.00621,35.972015,-148.967819,,,
729715940.649451,-26.238146,-2.881405,-87.396045,0.042191,-0.445618,0.910828,-0.52666,-0.021122,-0.003693,64.00621,35.972015,-148.967819,,,
729715940.649683,-26.238138,-2.881408,-84.319166,0.042191,-0.445618,0.910828,-0.52666,-0.021122,-0.003693,64.00621,35.972015,-148.967819,,,
729715940.651474,-26.238146,-2.881405,-87.396045,0.042191,-0.445618,0.910828,-0.52666,-0.021122,-0.003693,64.00621,35.972015,-148.967819,,,
729715940.651695,-26.238138,-2.881408,-84.319166,0.042191,-0.445618,0.910828,-0.52666,-0.021122,-0.003693,64.00621,35.972015,-148.967819,,,
729715940.656366,-26.376506,-2.892432,-87.408048,0.042191,-0.445618,0.910828,-0.436268,-0.008829,-0.023233,64.00621,35.972015,-148.967819,,,
729715940.656608,-26.376499,-2.892435,-84.33117,0.042191,-0.445618,0.910828,-0.436268,-0.008829,-0.023233,64.00621,35.972015,-148.967819,,,
729715940.65929,-26.50128,-2.902348,-87.422033,0.050415,-0.448227,0.931625,-0.436268,-0.008829,-0.023233,64.00621,35.972015,-148.967819,,,
729715940.65951,-26.501273,-2.902351,-84.345154,0.050415,-0.448227,0.931625,-0.436268,-0.008829,-0.023233,64.00621,35.972015,-148.967819,,,
729715940.661477,-26.50128,-2.902348,-87.422033,0.050415,-0.448227,0.931625,-0.436268,-0.008829,-0.023233,64.00621,35.972015,-148.967819,,,
729715940.661703,-26.501273,-2.902351,-84.345154,0.050415,-0.448227,0.931625,-0.436268,-0.008829,-0.023233,64.00621,35.972015,-148.967819,,,
729715940.667275,-26.612925,-2.911641,-87.437549,0.050415,-0.448227,0.931625,-0.346788,0.002556,-0.034111,64.00621,35.972015,-148.967819,,,
729715940.667541,-26.712057,-2.919229,-84.37627,0.043228,-0.451889,0.929123,-0.346788,0.002556,-0.034111,63.579758,37.080383,-149.071564,,,
729715940.669692,-26.712064,-2.919226,-87.453148,0.043228,-0.451889,0.929123,-0.346788,0.002556,-0.034111,63.579758,37.080383,-149.071564,,,
729715940.669941,-26.712057,-2.919229,-84.37627,0.043228,-0.451889,0.929123,-0.346788,0.002556,-0.034111,63.579758,37.080383,-149.071564,,,
729715940.671337,-26.712064,-2.919226,-87.453148,0.043228,-0.451889,0.929123,-0.346788,0.002556,-0.034111,63.579758,37.080383,-149.071564,,,
729715940.671679,-26.712057,-2.919229,-84.37627,0.043228,-0.451889,0.929123,-0.346788,0.002556,-0.034111,63.579758,37.080383,-149.071564,,,
729715940.676193,-26.799441,-2.925228,-87.468822,0.043228,-0.451889,0.929123,-0.274728,0.008279,-0.034664,63.579758,37.080383,-149.071564,,,
729715940.676454,-26.799434,-2.925231,-84.391944,0.043228,-0.451889,0.929123,-0.274728,0.008279,-0.034664,63.579758,37.080383,-149.071564,,,
729715940.678868,-26.878096,-2.930591,-87.484229,0.045593,-0.45166,0.929749,-0.274728,0.008279,-0.034664,63.579758,37.080383,-149.071564,,,
729715940.67911,-26.878089,-2.930594,-84.407351,0.045593,-0.45166,0.929749,-0.274728,0.008279,-0.034664,63.579758,37.080383,-149.071564,,,
729715940.681524,-26.878096,-2.930591,-87.484229,0.045593,-0.45166,0.929749,-0.274728,0.008279,-0.034664,63.579758,37.080383,-149.071564,,,
729715940.681744,-26.878089,-2.930594,-84.407351,0.045593,-0.45166,0.929749,-0.274728,0.008279,-0.034664,63.579758,37.080383,-149.071564,,,
729715940.686416,-26.952456,-2.935761,-87.497983,0.045593,-0.45166,0.929749,-0.264134,0.008618,-0.023993,63.579758,37.080383,-149.071564,,,
729715940.686658,-26.952448,-2.935764,-84.421105,0.045593,-0.45166,0.929749,-0.264134,0.008618,-0.023993,63.579758,37.080383,-149.071564,,,
729715940.688814,-27.027534,-2.94024,-87.509948,0.04837,-0.451813,0.907333,-0.264134,0.008618,-0.023993,63.579758,37.080383,-149.071564,,,
729715940.689038,-27.027527,-2.940244,-84.433069,0.04837,-0.451813,0.907333,-0.264134,0.008618,-0.023993,63.579758,37.080383,-149.071564,,,
729715940.691569,-27.027534,-2.94024,-87.509948,0.04837,-0.451813,0.907333,-0.264134,0.008618,-0.023993,63.579758,37.080383,-149.071564,,,
729715940.691757,-27.027527,-2.940244,-84.433069,0.04837,-0.451813,0.907333,-0.264134,0.008618,-0.023993,63.579758,37.080383,-149.071564,,,
729715940.69593,-27.107657,-2.942951,-87.518923,0.04837,-0.451813,0.907333,-0.307683,0.008652,-0.005695,63.579758,37.080383,-149.071564,,,
729715940.696156,-27.10765,-2.942954,-84.442045,0.04837,-0.451813,0.907333,-0.307683,0.008652,-0.005695,63.579758,37.080383,-149.071564,,,
729715940.699286,-27.195669,-2.944018,-87.525133,0.040726,-0.456573,0.880539,-0.307683,0.008652,-0.005695,63.579758,37.080383,-149.071564,,,
729715940.699509,-27.195661,-2.944021,-84.448254,0.040726,-0.456573,0.880539,-0.307683,0.008652,-0.005695,63.579758,37.080383,-149.071564,,,
729715940.701488,-27.195669,-2.944018,-87.525133,0.040726,-0.456573,0.880539,-0.307683,0.008652,-0.005695,63.579758,37.080383,-149.071564,,,
729715940.701702,-27.195661,-2.944021,-84.448254,0.040726,-0.456573,0.880539,-0.307683,0.008652,-0.005695,63.579758,37.080383,-149.071564,,,
729715940.706831,-27.29579,-2.943041,-87.529757,0.040726,-0.456573,0.880539,-0.404258,0.02337,0.00548,63.579758,37.080383,-149.071564,,,
729715940.70712,-27.295782,-2.943044,-84.452878,0.040726,-0.456573,0.880539,-0.404258,0.02337,0.00548,63.579758,37.080383,-149.071564,,,
729715940.709505,-27.411447,-2.938501,-87.53403,0.046097,-0.455109,0.860199,-0.404258,0.02337,0.00548,63.632248,37.807953,-148.742935,,,
729715940.709753,-27.411439,-2.938504,-84.457152,0.046097,-0.455109,0.860199,-0.404258,0.02337,0.00548,63.632248,37.807953,-148.742935,,,
729715940.711452,-27.411447,-2.938501,-87.53403,0.046097,-0.455109,0.860199,-0.404258,0.02337,0.00548,63.632248,37.807953,-148.742935,,,
729715940.711691,-27.411439,-2.938504,-84.457152,0.046097,-0.455109,0.860199,-0.404258,0.02337,0.00548,63.632248,37.807953,-148.742935,,,
729715940.71731,-27.544942,-2.929458,-87.540214,0.046097,-0.455109,0.860199,-0.535249,0.067613,-0.002112,63.632248,37.807953,-148.742935,,,
729715940.717577,-27.697665,-2.915914,-84.472336,0.055969,-0.448807,0.848404,-0.535249,0.067613,-0.002112,63.632248,37.807953,-148.742935,,,
729715940.719397,-27.697673,-2.91591,-87.549215,0.055969,-0.448807,0.848404,-0.535249,0.067613,-0.002112,63.632248,37.807953,-148.742935,,,
729715940.719642,-27.697665,-2.915914,-84.472336,0.055969,-0.448807,0.848404,-0.535249,0.067613,-0.002112,63.632248,37.807953,-148.742935,,,
729715940.721459,-27.697673,-2.91591,-87.549215,0.055969,-0.448807,0.848404,-0.535249,0.067613,-0.002112,63.632248,37.807953,-148.742935,,,
729715940.721689,-27.697665,-2.915914,-84.472336,0.055969,-0.448807,0.848404,-0.535249,0.067613,-0.002112,63.632248,37.807953,-148.742935,,,
729715940.726448,-27.870284,-2.899249,-87.561212,0.055969,-0.448807,0.848404,-0.669116,0.090116,-0.015193,63.632248,37.807953,-148.742935,,,
729715940.726675,-27.870276,-2.899252,-84.484333,0.055969,-0.448807,0.848404,-0.669116,0.090116,-0.015193,63.632248,37.807953,-148.742935,,,
729715940.729302,-28.062353,-2.881355,-87.576106,0.059662,-0.444641,0.839798,-0.669116,0.090116,-0.015193,63.632248,37.807953,-148.742935,,,
729715940.729569,-28.062345,-2.881358,-84.499227,0.059662,-0.444641,0.839798,-0.669116,0.090116,-0.015193,63.632248,37.807953,-148.742935,,,
729715940.731491,-28.062353,-2.881355,-87.576106,0.059662,-0.444641,0.839798,-0.669116,0.090116,-0.015193,63.632248,37.807953,-148.742935,,,
729715940.731702,-28.062345,-2.881358,-84.499227,0.059662,-0.444641,0.839798,-0.669116,0.090116,-0.015193,63.632248,37.807953,-148.742935,,,
729715940.736174,-28.27201,-2.863294,-87.593537,0.059662,-0.444641,0.839798,-0.785671,0.096001,-0.024013,63.632248,37.807953,-148.742935,,,
729715940.736409,-28.272002,-2.863297,-84.516658,0.059662,-0.444641,0.839798,-0.785671,0.096001,-0.024013,63.632248,37.807953,-148.742935,,,
729715940.739391,-28.496563,-2.846643,-87.612591,0.057144,-0.449066,0.832626,-0.785671,0.096001,-0.024013,63.632248,37.807953,-148.742935,,,
729715940.739612,-28.496555,-2.846647,-84.535712,0.057144,-0.449066,0.832626,-0.785671,0.096001,-0.024013,63.632248,37.807953,-148.742935,,,
729715940.741464,-28.496563,-2.846643,-87.612591,0.057144,-0.449066,0.832626,-0.785671,0.096001,-0.024013,63.632248,37.807953,-148.742935,,,
729715940.741689,-28.496555,-2.846647,-84.535712,0.057144,-0.449066,0.832626,-0.785671,0.096001,-0.024013,63.632248,37.807953,-148.742935,,,
729715940.746203,-28.732936,-2.833336,-87.632418,0.057144,-0.449066,0.832626,-0.861355,0.067321,-0.02249,63.632248,37.807953,-148.742935,,,
729715940.746428,-28.732928,-2.833339,-84.555539,0.057144,-0.449066,0.832626,-0.861355,0.067321,-0.02249,63.632248,37.807953,-148.742935,,,
729715940.750173,-28.978403,-2.824915,-87.652704,0.054718,-0.463867,0.840256,-0.861355,0.067321,-0.02249,64.022308,39.457336,-148.013351,,,
729715940.750454,-28.978395,-2.824918,-84.575825,0.054718,-0.463867,0.840256,-0.861355,0.067321,-0.02249,64.022308,39.457336,-148.013351,,,
729715940.751442,-28.978403,-2.824915,-87.652704,0.054718,-0.463867,0.840256,-0.861355,0.067321,-0.02249,64.022308,39.457336,-148.013351,,,
729715940.751688,-28.978395,-2.824918,-84.575825,0.054718,-0.463867,0.840256,-0.861355,0.067321,-0.02249,64.022308,39.457336,-148.013351,,,
729715940.755977,-29.228483,-2.822061,-87.672656,0.054718,-0.463867,0.840256,-0.867939,0.033831,-0.016593,64.022308,39.457336,-148.013351,,,
729715940.756203,-29.228475,-2.822064,-84.595777,0.054718,-0.463867,0.840256,-0.867939,0.033831,-0.016593,64.022308,39.457336,-148.013351,,,
729715940.759095,-29.476169,-2.823049,-87.692365,0.050766,-0.48587,0.846878,-0.867939,0.033831,-0.016593,64.022308,39.457336,-148.013351,,,
729715940.75934,-29.476161,-2.823052,-84.615486,0.050766,-0.48587,0.846878,-0.867939,0.033831,-0.016593,64.022308,39.457336,-148.013351,,,
729715940.761496,-29.476169,-2.823049,-87.692365,0.050766,-0.48587,0.846878,-0.867939,0.033831,-0.016593,64.022308,39.457336,-148.013351,,,
729715940.761705,-29.476161,-2.823052,-84.615486,0.050766,-0.48587,0.846878,-0.867939,0.033831,-0.016593,64.022308,39.457336,-148.013351,,,
729715940.766391,-29.71457,-2.826185,-87.713202,0.050766,-0.48587,0.846878,-0.779444,0.024576,-0.03082,64.022308,39.457336,-148.013351,,,
729715940.766643,-29.714562,-2.826188,-84.636324,0.050766,-0.48587,0.846878,-0.779444,0.024576,-0.03082,64.022308,39.457336,-148.013351,,,
729715940.769225,-29.936646,-2.831695,-87.736165,0.059494,-0.50238,0.889816,-0.779444,0.024576,-0.03082,64.022308,39.457336,-148.013351,,,
729715940.769458,-29.936637,-2.831698,-84.659287,0.059494,-0.50238,0.889816,-0.779444,0.024576,-0.03082,64.022308,39.457336,-148.013351,,,
729715940.771475,-29.936646,-2.831695,-87.736165,0.059494,-0.50238,0.889816,-0.779444,0.024576,-0.03082,64.022308,39.457336,-148.013351,,,
729715940.771684,-29.936637,-2.831698,-84.659287,0.059494,-0.50238,0.889816,-0.779444,0.024576,-0.03082,64.022308,39.457336,-148.013351,,,
729715940.776346,-30.134855,-2.838503,-87.761245,0.059494,-0.50238,0.889816,-0.597139,0.035401,-0.056614,64.022308,39.457336,-148.013351,,,
729715940.776572,-30.134847,-2.838506,-84.684367,0.059494,-0.50238,0.889816,-0.597139,0.035401,-0.056614,64.022308,39.457336,-148.013351,,,
729715940.779111,-30.304996,-2.843576,-87.789159,0.060791,-0.517059,0.932907,-0.597139,0.035401,-0.056614,64.022308,39.457336,-148.013351,,,
729715940.779349,-30.304987,-2.84358,-84.71228,0.060791,-0.517059,0.932907,-0.597139,0.035401,-0.056614,64.022308,39.457336,-148.013351,,,
729715940.781521,-30.304996,-2.843576,-87.789159,0.060791,-0.517059,0.932907,-0.597139,0.035401,-0.056614,64.022308,39.457336,-148.013351,,,
729715940.781731,-30.304987,-2.84358,-84.71228,0.060791,-0.517059,0.932907,-0.597139,0.035401,-0.056614,64.022308,39.457336,-148.013351,,,
729715940.786372,-30.446665,-2.846625,-87.82065,0.060791,-0.517059,0.932907,-0.403304,0.046583,-0.08678,64.022308,39.457336,-148.013351,,,
729715940.78661,-30.446657,-2.846629,-84.743771,0.060791,-0.517059,0.932907,-0.403304,0.046583,-0.08678,64.022308,39.457336,-148.013351,,,
729715940.788801,-30.562779,-2.852216,-87.855018,0.057602,-0.524521,0.961746,-0.403304,0.046583,-0.08678,64.022308,39.457336,-148.013351,,,
729715940.789015,-30.56277,-2.85222,-84.77814,0.057602,-0.524521,0.961746,-0.403304,0.046583,-0.08678,64.022308,39.457336,-148.013351,,,
729715940.792204,-30.562779,-2.852216,-87.855018,0.057602,-0.524521,0.961746,-0.403304,0.046583,-0.08678,64.009613,40.698624,-147.721832,,,
729715940.792444,-30.65771,-2.865005,-84.815657,0.057602,-0.524521,0.961746,-0.403304,0.046583,-0.08678,64.009613,40.698624,-147.721832,,,
729715940.796281,-30.657719,-2.865002,-87.892536,0.057602,-0.524521,0.961746,-0.278279,0.009525,-0.10657,64.009613,40.698624,-147.721832,,,
729715940.796521,-30.65771,-2.865005,-84.815657,0.057602,-0.524521,0.961746,-0.278279,0.009525,-0.10657,64.009613,40.698624,-147.721832,,,
729715940.799497,-30.736776,-2.883471,-87.932283,0.044312,-0.525421,0.932312,-0.278279,0.009525,-0.10657,64.009613,40.698624,-147.721832,,,
729715940.799729,-30.736767,-2.883474,-84.855404,0.044312,-0.525421,0.932312,-0.278279,0.009525,-0.10657,64.009613,40.698624,-147.721832,,,
729715940.801505,-30.736776,-2.883471,-87.932283,0.044312,-0.525421,0.932312,-0.278279,0.009525,-0.10657,64.009613,40.698624,-147.721832,,,
729715940.801709,-30.736767,-2.883474,-84.855404,0.044312,-0.525421,0.932312,-0.278279,0.009525,-0.10657,64.009613,40.698624,-147.721832,,,
729715940.807309,-30.805263,-2.904326,-87.972013,0.044312,-0.525421,0.932312,-0.222442,-0.00811,-0.105549,64.009613,40.698624,-147.721832,,,
729715940.807589,-30.805254,-2.90433,-84.895135,0.031998,-0.521606,0.904938,-0.222442,-0.00811,-0.105549,64.009613,40.698624,-147.721832,,,
729715940.809503,-30.868282,-2.92691,-88.009709,0.031998,-0.521606,0.904938,-0.222442,-0.00811,-0.105549,64.009613,40.698624,-147.721832,,,
729715940.809764,-30.868273,-2.926914,-84.93283,0.031998,-0.521606,0.904938,-0.222442,-0.00811,-0.105549,64.009613,40.698624,-147.721832,,,
729715940.811457,-30.868282,-2.92691,-88.009709,0.031998,-0.521606,0.904938,-0.222442,-0.00811,-0.105549,64.009613,40.698624,-147.721832,,,
729715940.811693,-30.868273,-2.926914,-84.93283,0.031998,-0.521606,0.904938,-0.222442,-0.00811,-0.105549,64.009613,40.698624,-147.721832,,,
729715940.816542,-30.932208,-2.950278,-88.04454,0.031998,-0.521606,0.904938,-0.244828,-0.017895,-0.087227,64.009613,40.698624,-147.721832,,,
729715940.816802,-30.932199,-2.950281,-84.967661,0.031998,-0.521606,0.904938,-0.244828,-0.017895,-0.087227,64.009613,40.698624,-147.721832,,,
729715940.819314,-31.002214,-2.972314,-88.077026,0.035248,-0.518677,0.878281,-0.244828,-0.017895,-0.087227,64.009613,40.698624,-147.721832,,,
729715940.819543,-31.002205,-2.972317,-85.000147,0.035248,-0.518677,0.878281,-0.244828,-0.017895,-0.087227,64.009613,40.698624,-147.721832,,,
729715940.821419,-31.002214,-2.972314,-88.077026,0.035248,-0.518677,0.878281,-0.244828,-0.017895,-0.087227,64.009613,40.698624,-147.721832,,,
729715940.821696,-31.002205,-2.972317,-85.000147,0.035248,-0.518677,0.878281,-0.244828,-0.017895,-0.087227,64.009613,40.698624,-147.721832,,,
729715940.827328,-31.081983,-2.991032,-88.1065,0.035248,-0.518677,0.878281,-0.324725,0.0028,-0.061149,64.009613,40.698624,-147.721832,,,
729715940.827612,-31.081974,-2.991035,-85.029622,0.044388,-0.522278,0.854721,-0.324725,0.0028,-0.061149,64.009613,40.698624,-147.721832,,,
729715940.829167,-31.174848,-3.004276,-88.132499,0.044388,-0.522278,0.854721,-0.324725,0.0028,-0.061149,64.009613,40.698624,-147.721832,,,
729715940.829404,-31.174839,-3.00428,-85.05562,0.044388,-0.522278,0.854721,-0.324725,0.0028,-0.061149,64.009613,40.698624,-147.721832,,,
729715940.832171,-31.174848,-3.004276,-88.132499,0.044388,-0.522278,0.854721,-0.324725,0.0028,-0.061149,64.02449,41.217514,-147.622971,,,
729715940.832447,-31.174839,-3.00428,-85.05562,0.044388,-0.522278,0.854721,-0.324725,0.0028,-0.061149,64.02449,41.217514,-147.622971,,,
729715940.836328,-31.282715,-3.012414,-88.155572,0.044388,-0.522278,0.854721,-0.4355,0.028068,-0.042079,64.02449,41.217514,-147.622971,,,
729715940.836566,-31.282706,-3.012417,-85.078693,0.044388,-0.522278,0.854721,-0.4355,0.028068,-0.042079,64.02449,41.217514,-147.622971,,,
729715940.839334,-31.407043,-3.016575,-88.177096,0.049957,-0.52298,0.843613,-0.4355,0.028068,-0.042079,64.02449,41.217514,-147.622971,,,
729715940.839558,-31.407034,-3.016578,-85.100217,0.049957,-0.52298,0.843613,-0.4355,0.028068,-0.042079,64.02449,41.217514,-147.622971,,,
729715940.841552,-31.407043,-3.016575,-88.177096,0.049957,-0.52298,0.843613,-0.4355,0.028068,-0.042079,64.02449,41.217514,-147.622971,,,
729715940.841749,-31.407034,-3.016578,-85.100217,0.049957,-0.52298,0.843613,-0.4355,0.028068,-0.042079,64.02449,41.217514,-147.622971,,,
729715940.845965,-31.549223,-3.016147,-88.1991,0.049957,-0.52298,0.843613,-0.560458,0.061636,-0.039426,64.02449,41.217514,-147.622971,,,
729715940.846191,-31.549214,-3.01615,-85.122221,0.049957,-0.52298,0.843613,-0.560458,0.061636,-0.039426,64.02449,41.217514,-147.622971,,,
729715940.848984,-31.708947,-3.012279,-88.222517,0.054276,-0.516129,0.835861,-0.560458,0.061636,-0.039426,64.02449,41.217514,-147.622971,,,
729715940.849211,-31.708938,-3.012283,-85.145638,0.054276,-0.516129,0.835861,-0.560458,0.061636,-0.039426,64.02449,41.217514,-147.622971,,,
729715940.851527,-31.708947,-3.012279,-88.222517,0.054276,-0.516129,0.835861,-0.560458,0.061636,-0.039426,64.02449,41.217514,-147.622971,,,
729715940.851747,-31.708938,-3.012283,-85.145638,0.054276,-0.516129,0.835861,-0.560458,0.061636,-0.039426,64.02449,41.217514,-147.622971,,,
729715940.855864,-31.886287,-3.007471,-88.247903,0.054276,-0.516129,0.835861,-0.681682,0.066696,-0.048515,64.02449,41.217514,-147.622971,,,
729715940.856084,-31.886278,-3.007475,-85.171024,0.054276,-0.516129,0.835861,-0.681682,0.066696,-0.048515,64.02449,41.217514,-147.622971,,,
729715940.859412,-32.080841,-3.004644,-88.276281,0.053406,-0.513535,0.82576,-0.681682,0.066696,-0.048515,64.02449,41.217514,-147.622971,,,
729715940.85964,-32.080832,-3.004647,-85.199402,0.053406,-0.513535,0.82576,-0.681682,0.066696,-0.048515,64.02449,41.217514,-147.622971,,,
729715940.861454,-32.080841,-3.004644,-88.276281,0.053406,-0.513535,0.82576,-0.681682,0.066696,-0.048515,64.02449,41.217514,-147.622971,,,
729715940.861693,-32.080832,-3.004647,-85.199402,0.053406,-0.513535,0.82576,-0.681682,0.066696,-0.048515,64.02449,41.217514,-147.622971,,,
729715940.866387,-32.291746,-3.005859,-88.307326,0.053406,-0.513535,0.82576,-0.792156,0.047259,-0.06099,64.02449,41.217514,-147.622971,,,
729715940.866617,-32.291737,-3.005862,-85.230447,0.053406,-0.513535,0.82576,-0.792156,0.047259,-0.06099,64.02449,41.217514,-147.622971,,,
729715940.869224,-32.517343,-3.011489,-88.34077,0.043381,-0.51503,0.810013,-0.792156,0.047259,-0.06099,64.02449,41.217514,-147.622971,,,
729715940.869455,-32.517334,-3.011492,-85.263891,0.043381,-0.51503,0.810013,-0.792156,0.047259,-0.06099,64.02449,41.217514,-147.622971,,,
729715940.871524,-32.517343,-3.011489,-88.34077,0.043381,-0.51503,0.810013,-0.792156,0.047259,-0.06099,64.02449,41.217514,-147.622971,,,
729715940.871721,-32.517334,-3.011492,-85.263891,0.043381,-0.51503,0.810013,-0.792156,0.047259,-0.06099,64.02449,41.217514,-147.622971,,,
729715940.876812,-32.755173,-3.021518,-88.376414,0.043381,-0.51503,0.810013,-0.860467,0.012381,-0.061512,63.874573,42.696182,-146.95076,,,
729715940.877103,-32.755164,-3.021521,-85.299535,0.043381,-0.51503,0.810013,-0.860467,0.012381,-0.061512,63.874573,42.696182,-146.95076,,,
729715940.878987,-33.000366,-3.038441,-88.412471,0.040176,-0.518326,0.805725,-0.860467,0.012381,-0.061512,63.874573,42.696182,-146.95076,,,
729715940.879224,-33.000356,-3.038445,-85.335592,0.040176,-0.518326,0.805725,-0.860467,0.012381,-0.061512,63.874573,42.696182,-146.95076,,,
729715940.881522,-33.000366,-3.038441,-88.412471,0.040176,-0.518326,0.805725,-0.860467,0.012381,-0.061512,63.874573,42.696182,-146.95076,,,
729715940.881744,-33.000356,-3.038445,-85.335592,0.040176,-0.518326,0.805725,-0.860467,0.012381,-0.061512,63.874573,42.696182,-146.95076,,,
729715940.887229,-33.243358,-3.062862,-88.447056,0.040176,-0.518326,0.805725,-0.800619,-0.030801,-0.057141,63.874573,42.696182,-146.95076,,,
729715940.887549,-33.243348,-3.062865,-85.370177,0.040176,-0.518326,0.805725,-0.800619,-0.030801,-0.057141,63.874573,42.696182,-146.95076,,,
729715940.889562,-33.471382,-3.090287,-88.480228,0.033966,-0.548737,0.816269,-0.800619,-0.030801,-0.057141,63.874573,42.696182,-146.95076,,,
729715940.889814,-33.471372,-3.09029,-85.403349,0.033966,-0.548737,0.816269,-0.800619,-0.030801,-0.057141,63.874573,42.696182,-146.95076,,,
729715940.891454,-33.471382,-3.090287,-88.480228,0.033966,-0.548737,0.816269,-0.800619,-0.030801,-0.057141,63.874573,42.696182,-146.95076,,,
729715940.891689,-33.471372,-3.09029,-85.403349,0.033966,-0.548737,0.816269,-0.800619,-0.030801,-0.057141,63.874573,42.696182,-146.95076,,,
729715940.896475,-33.674113,-3.116899,-88.513946,0.033966,-0.548737,0.816269,-0.608633,-0.017619,-0.070808,63.874573,42.696182,-146.95076,,,
729715940.896713,-33.674104,-3.116903,-85.437067,0.033966,-0.548737,0.816269,-0.608633,-0.017619,-0.070808,63.874573,42.696182,-146.95076,,,
729715940.899931,-33.847862,-3.1431,-88.549866,0.037827,-0.56955,0.894684,-0.608633,-0.017619,-0.070808,63.874573,42.696182,-146.95076,,,
729715940.900102,-33.847852,-3.143104,-85.472987,0.037827,-0.56955,0.894684,-0.608633,-0.017619,-0.070808,63.874573,42.696182,-146.95076,,,
729715940.901399,-33.847862,-3.1431,-88.549866,0.037827,-0.56955,0.894684,-0.608633,-0.017619,-0.070808,63.874573,42.696182,-146.95076,,,
729715940.901719,-33.847852,-3.143104,-85.472987,0.037827,-0.56955,0.894684,-0.608633,-0.017619,-0.070808,63.874573,42.696182,-146.95076,,,
729715940.906215,-33.993549,-3.170959,-88.588741,0.037827,-0.56955,0.894684,-0.424128,-0.016615,-0.100224,63.874573,42.696182,-146.95076,,,
729715940.906464,-33.993539,-3.170963,-85.511862,0.037827,-0.56955,0.894684,-0.424128,-0.016615,-0.100224,63.874573,42.696182,-146.95076,,,
729715940.909516,-34.11432,-3.200341,-88.630473,0.052261,-0.556885,0.914413,-0.424128,-0.016615,-0.100224,63.874573,42.696182,-146.95076,,,
729715940.909751,-34.11431,-3.200344,-85.553593,0.052261,-0.556885,0.914413,-0.424128,-0.016615,-0.100224,63.874573,42.696182,-146.95076,,,
729715940.911452,-34.11432,-3.200341,-88.630473,0.052261,-0.556885,0.914413,-0.424128,-0.016615,-0.100224,63.874573,42.696182,-146.95076,,,
729715940.91169,-34.11431,-3.200344,-85.553593,0.052261,-0.556885,0.914413,-0.424128,-0.016615,-0.100224,63.874573,42.696182,-146.95076,,,
729715940.916974,-34.214678,-3.229433,-88.673712,0.052261,-0.556885,0.914413,-0.305724,-0.005671,-0.106389,63.378693,44.095322,-146.894287,,,
729715940.917232,-34.214668,-3.229437,-85.596833,0.052261,-0.556885,0.914413,-0.305724,-0.005671,-0.106389,63.378693,44.095322,-146.894287,,,
729715940.919231,-34.300657,-3.256509,-88.716664,0.040848,-0.555618,0.894989,-0.305724,-0.005671,-0.106389,63.378693,44.095322,-146.894287,,,
729715940.919455,-34.300647,-3.256512,-85.639785,0.040848,-0.555618,0.894989,-0.305724,-0.005671,-0.106389,63.378693,44.095322,-146.894287,,,
729715940.921493,-34.300657,-3.256509,-88.716664,0.040848,-0.555618,0.894989,-0.305724,-0.005671,-0.106389,63.378693,44.095322,-146.894287,,,
729715940.921778,-34.300647,-3.256512,-85.639785,0.040848,-0.555618,0.894989,-0.305724,-0.005671,-0.106389,63.378693,44.095322,-146.894287,,,
729715940.926217,-34.379157,-3.281916,-88.758172,0.040848,-0.555618,0.894989,-0.279464,-0.005323,-0.099623,63.378693,44.095322,-146.894287,,,
729715940.926444,-34.379147,-3.281919,-85.681293,0.040848,-0.555618,0.894989,-0.279464,-0.005323,-0.099623,63.378693,44.095322,-146.894287,,,
729715940.929183,-34.457736,-3.306834,-88.797755,0.038391,-0.564636,0.860184,-0.279464,-0.005323,-0.099623,63.378693,44.095322,-146.894287,,,
729715940.92941,-34.457726,-3.306838,-85.720875,0.038391,-0.564636,0.860184,-0.279464,-0.005323,-0.099623,63.378693,44.095322,-146.894287,,,
729715940.931506,-34.457736,-3.306834,-88.797755,0.038391,-0.564636,0.860184,-0.279464,-0.005323,-0.099623,63.378693,44.095322,-146.894287,,,
729715940.931723,-34.457726,-3.306838,-85.720875,0.038391,-0.564636,0.860184,-0.279464,-0.005323,-0.099623,63.378693,44.095322,-146.894287,,,
729715940.9365,-34.542763,-3.331692,-88.834183,0.038391,-0.564636,0.860184,-0.338455,-0.020057,-0.071764,63.378693,44.095322,-146.894287,,,
729715940.936747,-34.542752,-3.331695,-85.757304,0.038391,-0.564636,0.860184,-0.338455,-0.020057,-0.071764,63.378693,44.095322,-146.894287,,,
729715940.939292,-34.638435,-3.355871,-88.865653,0.044907,-0.568481,0.816467,-0.338455,-0.020057,-0.071764,63.378693,44.095322,-146.894287,,,
729715940.939542,-34.638425,-3.355875,-85.788774,0.044907,-0.568481,0.816467,-0.338455,-0.020057,-0.071764,63.378693,44.095322,-146.894287,,,
729715940.941494,-34.638435,-3.355871,-88.865653,0.044907,-0.568481,0.816467,-0.338455,-0.020057,-0.071764,63.378693,44.095322,-146.894287,,,
729715940.941718,-34.638425,-3.355875,-85.788774,0.044907,-0.568481,0.816467,-0.338455,-0.020057,-0.071764,63.378693,44.095322,-146.894287,,,
729715940.946206,-34.747835,-3.378472,-88.892714,0.044907,-0.568481,0.816467,-0.443799,-0.015394,-0.044674,63.378693,44.095322,-146.894287,,,
729715940.946461,-34.747825,-3.378476,-85.815834,0.044907,-0.568481,0.816467,-0.443799,-0.015394,-0.044674,63.378693,44.095322,-146.894287,,,
729715940.949129,-34.873812,-3.39785,-88.91666,0.04425,-0.570389,0.795929,-0.443799,-0.015394,-0.044674,63.378693,44.095322,-146.894287,,,
729715940.94936,-34.873802,-3.397853,-85.839781,0.04425,-0.570389,0.795929,-0.443799,-0.015394,-0.044674,63.378693,44.095322,-146.894287,,,
729715940.951515,-34.873812,-3.39785,-88.91666,0.04425,-0.570389,0.795929,-0.443799,-0.015394,-0.044674,63.378693,44.095322,-146.894287,,,
729715940.951738,-34.873802,-3.397853,-85.839781,0.04425,-0.570389,0.795929,-0.443799,-0.015394,-0.044674,63.378693,44.095322,-146.894287,,,
729715940.957872,-35.019112,-3.412821,-88.938482,0.04425,-0.570389,0.795929,-0.580136,0.008459,-0.029195,63.187714,44.754227,-146.52919,,,
729715940.958205,-35.184981,-3.424178,-85.883201,0.051941,-0.569672,0.784836,-0.580136,0.008459,-0.029195,63.187714,44.754227,-146.52919,,,
729715940.963215,-35.184992,-3.424175,-88.96008,0.051941,-0.569672,0.784836,-0.731901,0.012644,-0.028435,63.187714,44.754227,-146.52919,,,
729715940.963458,-35.372241,-3.43492,-85.90632,0.051941,-0.569672,0.784836,-0.731901,0.012644,-0.028435,63.187714,44.754227,-146.52919,,,
729715940.965578,-35.372252,-3.434917,-88.983199,0.051941,-0.569672,0.784836,-0.731901,0.012644,-0.028435,63.187714,44.754227,-146.52919,,,
729715940.965799,-35.372241,-3.43492,-85.90632,0.051941,-0.569672,0.784836,-0.731901,0.012644,-0.028435,63.187714,44.754227,-146.52919,,,
729715940.969597,-35.581821,-3.447374,-89.00863,0.058868,-0.564316,0.770035,-0.731901,0.012644,-0.028435,63.187714,44.754227,-146.52919,,,
729715940.969829,-35.581811,-3.447378,-85.931751,0.058868,-0.564316,0.770035,-0.731901,0.012644,-0.028435,63.187714,44.754227,-146.52919,,,
729715940.971435,-35.581821,-3.447374,-89.00863,0.058868,-0.564316,0.770035,-0.731901,0.012644,-0.028435,63.187714,44.754227,-146.52919,,,
729715940.971689,-35.581811,-3.447378,-85.931751,0.058868,-0.564316,0.770035,-0.731901,0.012644,-0.028435,63.187714,44.754227,-146.52919,,,
729715940.976224,-35.813132,-3.461915,-89.036605,0.058868,-0.564316,0.770035,-0.884289,0.00892,-0.032454,63.187714,44.754227,-146.52919,,,
729715940.976486,-35.813121,-3.461919,-85.959726,0.058868,-0.564316,0.770035,-0.884289,0.00892,-0.032454,63.187714,44.754227,-146.52919,,,
729715940.979431,-36.06627,-3.478325,-89.067227,0.052246,-0.563492,0.752121,-0.884289,0.00892,-0.032454,63.187714,44.754227,-146.52919,,,
729715940.979682,-36.066259,-3.478328,-85.990348,0.052246,-0.563492,0.752121,-0.884289,0.00892,-0.032454,63.187714,44.754227,-146.52919,,,
729715940.981483,-36.06627,-3.478325,-89.067227,0.052246,-0.563492,0.752121,-0.884289,0.00892,-0.032454,63.187714,44.754227,-146.52919,,,
729715940.981702,-36.066259,-3.478328,-85.990348,0.052246,-0.563492,0.752121,-0.884289,0.00892,-0.032454,63.187714,44.754227,-146.52919,,,
729715940.986402,-36.340349,-3.496287,-89.100454,0.052246,-0.563492,0.752121,-1.023096,0.003166,-0.035962,63.187714,44.754227,-146.52919,,,
729715940.986651,-36.340338,-3.49629,-86.023575,0.052246,-0.563492,0.752121,-1.023096,0.003166,-0.035962,63.187714,44.754227,-146.52919,,,
729715940.989317,-36.631986,-3.517727,-89.135545,0.047562,-0.567062,0.743973,-1.023096,0.003166,-0.035962,63.187714,44.754227,-146.52919,,,
729715940.989552,-36.631975,-3.517731,-86.058666,0.047562,-0.567062,0.743973,-1.023096,0.003166,-0.035962,63.187714,44.754227,-146.52919,,,
729715940.991491,-36.631986,-3.517727,-89.135545,0.047562,-0.567062,0.743973,-1.023096,0.003166,-0.035962,63.187714,44.754227,-146.52919,,,
729715940.991714,-36.631975,-3.517731,-86.058666,0.047562,-0.567062,0.743973,-1.023096,0.003166,-0.035962,63.187714,44.754227,-146.52919,,,
729715940.997974,-36.934222,-3.544867,-89.170696,0.047562,-0.567062,0.743973,-1.061645,-0.039788,-0.028033,63.741974,46.722275,-145.245743,,,
729715940.998265,-37.236136,-3.576195,-86.126492,0.042007,-0.592682,0.741211,-1.061645,-0.039788,-0.028033,63.741974,46.722275,-145.245743,,,
729715941.003595,-37.236147,-3.576192,-89.203371,0.042007,-0.592682,0.741211,-0.952467,-0.033724,-0.014191,63.741974,46.722275,-145.245743,,,
729715941.003846,-37.52748,-3.607127,-86.155681,0.042007,-0.592682,0.741211,-0.952467,-0.033724,-0.014191,63.741974,46.722275,-145.245743,,,
729715941.005538,-37.527491,-3.607123,-89.232561,0.042007,-0.592682,0.741211,-0.952467,-0.033724,-0.014191,63.741974,46.722275,-145.245743,,,
729715941.005754,-37.52748,-3.607127,-86.155681,0.042007,-0.592682,0.741211,-0.952467,-0.033724,-0.014191,63.741974,46.722275,-145.245743,,,
729715941.009612,-37.79961,-3.633523,-89.258517,0.033539,-0.622406,0.795746,-0.952467,-0.033724,-0.014191,63.741974,46.722275,-145.245743,,,
729715941.009842,-37.799599,-3.633527,-86.181638,0.033539,-0.622406,0.795746,-0.952467,-0.033724,-0.014191,63.741974,46.722275,-145.245743,,,
729715941.01144,-37.79961,-3.633523,-89.258517,0.033539,-0.622406,0.795746,-0.952467,-0.033724,-0.014191,63.741974,46.722275,-145.245743,,,
729715941.01169,-37.799599,-3.633527,-86.181638,0.033539,-0.622406,0.795746,-0.952467,-0.033724,-0.014191,63.741974,46.722275,-145.245743,,,
729715941.016195,-38.047471,-3.654656,-89.282235,0.033539,-0.622406,0.795746,-0.774713,-0.013137,-0.007511,63.741974,46.722275,-145.245743,,,
729715941.01645,-38.047459,-3.65466,-86.205355,0.033539,-0.622406,0.795746,-0.774713,-0.013137,-0.007511,63.741974,46.722275,-145.245743,,,
729715941.019324,-38.270134,-3.671382,-89.302725,0.044418,-0.624451,0.847198,-0.774713,-0.013137,-0.007511,63.741974,46.722275,-145.245743,,,
729715941.019548,-38.270123,-3.671385,-86.225845,0.044418,-0.624451,0.847198,-0.774713,-0.013137,-0.007511,63.741974,46.722275,-145.245743,,,
729715941.021466,-38.270134,-3.671382,-89.302725,0.044418,-0.624451,0.847198,-0.774713,-0.013137,-0.007511,63.741974,46.722275,-145.245743,,,
729715941.021692,-38.270123,-3.671385,-86.225845,0.044418,-0.624451,0.847198,-0.774713,-0.013137,-0.007511,63.741974,46.722275,-145.245743,,,
729715941.027312,-38.46819,-3.683856,-89.317665,0.044418,-0.624451,0.847198,-0.610173,-0.003067,0.014159,63.741974,46.722275,-145.245743,,,
729715941.027582,-38.468178,-3.683859,-86.240785,0.044418,-0.624451,0.847198,-0.610173,-0.003067,0.014159,63.741974,46.722275,-145.245743,,,
729715941.029051,-38.46819,-3.690306,-89.326456,0.047012,-0.619843,0.841705,-0.610173,-0.003067,0.014159,63.741974,46.722275,-145.245743,,,
729715941.029282,-38.644824,-3.690309,-86.249576,0.047012,-0.619843,0.841705,-0.610173,-0.003067,0.014159,63.741974,46.722275,-145.245743,,,
729715941.031884,-38.644835,-3.690306,-89.326456,0.047012,-0.619843,0.841705,-0.610173,-0.003067,0.014159,63.741974,46.722275,-145.245743,,,
729715941.0321,-38.644824,-3.690309,-86.249576,0.047012,-0.619843,0.841705,-0.610173,-0.003067,0.014159,63.741974,46.722275,-145.245743,,,
729715941.037378,-38.804515,-3.689483,-89.328803,0.047012,-0.619843,0.841705,-0.51033,0.020774,0.040237,63.549377,48.012177,-144.596115,,,
729715941.037694,-38.804503,-3.689486,-86.251924,0.047012,-0.619843,0.841705,-0.51033,0.020774,0.040237,63.549377,48.012177,-144.596115,,,
729715941.03797,-38.804515,-3.689483,-89.328803,0.047012,-0.619843,0.841705,-0.51033,0.020774,0.040237,63.549377,48.012177,-144.596115,,,
729715941.038396,-38.952617,-3.68275,-86.248787,0.045013,-0.625443,0.823196,-0.51033,0.020774,0.040237,63.549377,48.012177,-144.596115,,,
729715941.042664,-38.952629,-3.682746,-89.325667,0.045013,-0.625443,0.823196,-0.51033,0.020774,0.040237,63.549377,48.012177,-144.596115,,,
729715941.042929,-38.952617,-3.673,-86.242084,0.045013,-0.625443,0.823196,-0.51033,0.020774,0.040237,63.549377,48.012177,-144.596115,,,
729715941.046049,-39.095381,-3.672997,-89.318964,0.045013,-0.625443,0.823196,-0.494428,0.023192,0.054982,63.549377,48.012177,-144.596115,,,
729715941.046292,-39.095369,-3.673,-86.242084,0.045013,-0.625443,0.823196,-0.494428,0.023192,0.054982,63.549377,48.012177,-144.596115,,,
729715941.049422,-39.238978,-3.661547,-89.309123,0.059311,-0.625381,0.783997,-0.494428,0.023192,0.054982,63.549377,48.012177,-144.596115,,,
729715941.049648,-39.238966,-3.661551,-86.232243,0.059311,-0.625381,0.783997,-0.494428,0.023192,0.054982,63.549377,48.012177,-144.596115,,,
729715941.051455,-39.238978,-3.661547,-89.309123,0.059311,-0.625381,0.783997,-0.494428,0.023192,0.054982,63.549377,48.012177,-144.596115,,,
729715941.051693,-39.238966,-3.661551,-86.232243,0.059311,-0.625381,0.783997,-0.494428,0.023192,0.054982,63.549377,48.012177,-144.596115,,,
729715941.056185,-39.388823,-3.648733,-89.296423,0.059311,-0.625381,0.783997,-0.555133,0.016063,0.075456,63.549377,48.012177,-144.596115,,,
729715941.056412,-39.388811,-3.648737,-86.219543,0.059311,-0.625381,0.783997,-0.555133,0.016063,0.075456,63.549377,48.012177,-144.596115,,,
729715941.059484,-39.549505,-3.635417,-89.2809,0.058121,-0.622589,0.742874,-0.555133,0.016063,0.075456,63.549377,48.012177,-144.596115,,,
729715941.059731,-39.549493,-3.63542,-86.20402,0.058121,-0.622589,0.742874,-0.555133,0.016063,0.075456,63.549377,48.012177,-144.596115,,,
729715941.06146,-39.549505,-3.635417,-89.2809,0.058121,-0.622589,0.742874,-0.555133,0.016063,0.075456,63.549377,48.012177,-144.596115,,,
729715941.061696,-39.549493,-3.63542,-86.20402,0.058121,-0.622589,0.742874,-0.555133,0.016063,0.075456,63.549377,48.012177,-144.596115,,,
729715941.067344,-39.723912,-3.623013,-89.263624,0.058121,-0.622589,0.742874,-0.653574,-0.000833,0.085601,63.549377,48.012177,-144.596115,,,
729715941.067628,-39.7239,-3.623017,-86.186744,0.058121,-0.622589,0.742874,-0.653574,-0.000833,0.085601,63.549377,48.012177,-144.596115,,,
729715941.068011,-39.723912,-3.623013,-89.263624,0.058121,-0.622589,0.742874,-0.653574,-0.000833,0.085601,63.549377,48.012177,-144.596115,,,
729715941.068383,-39.913229,-3.61383,-86.170333,0.049713,-0.620468,0.715195,-0.653574,-0.000833,0.085601,63.549377,48.012177,-144.596115,,,
729715941.072859,-39.913241,-3.613826,-89.247213,0.049713,-0.620468,0.715195,-0.653574,-0.000833,0.085601,63.549377,48.012177,-144.596115,,,
729715941.073102,-40.119431,-3.609297,-86.156673,0.049713,-0.620468,0.715195,-0.777117,-0.017568,0.074871,63.549377,48.012177,-144.596115,,,
729715941.075949,-40.119444,-3.609294,-89.233553,0.049713,-0.620468,0.715195,-0.777117,-0.017568,0.074871,63.549377,48.012177,-144.596115,,,
729715941.076178,-40.119431,-3.609297,-86.156673,0.049713,-0.620468,0.715195,-0.777117,-0.017568,0.074871,63.624908,49.30925,-143.887039,,,
729715941.079674,-40.344024,-3.608697,-89.223771,0.059464,-0.618393,0.702011,-0.777117,-0.017568,0.074871,63.624908,49.30925,-143.887039,,,
729715941.079918,-40.344012,-3.608701,-86.146891,0.059464,-0.618393,0.702011,-0.777117,-0.017568,0.074871,63.624908,49.30925,-143.887039,,,
729715941.081452,-40.344024,-3.608697,-89.223771,0.059464,-0.618393,0.702011,-0.777117,-0.017568,0.074871,63.624908,49.30925,-143.887039,,,
729715941.081692,-40.344012,-3.608701,-86.146891,0.059464,-0.618393,0.702011,-0.777117,-0.017568,0.074871,63.624908,49.30925,-143.887039,,,
729715941.08552,-40.587209,-3.610632,-89.217177,0.059464,-0.618393,0.702011,-0.909486,-0.023695,0.070554,63.624908,49.30925,-143.887039,,,
729715941.085749,-40.587197,-3.610635,-86.140297,0.059464,-0.618393,0.702011,-0.909486,-0.023695,0.070554,63.624908,49.30925,-143.887039,,,
729715941.088844,-40.587209,-3.610632,-89.217177,0.053452,-0.62854,0.69136,-0.909486,-0.023695,0.070554,63.624908,49.30925,-143.887039,,,
729715941.089061,-40.848889,-3.6152,-86.134994,0.053452,-0.62854,0.69136,-0.909486,-0.023695,0.070554,63.624908,49.30925,-143.887039,,,
729715941.092366,-40.848902,-3.615196,-89.211874,0.053452,-0.62854,0.69136,-0.909486,-0.023695,0.070554,63.624908,49.30925,-143.887039,,,
729715941.092579,-40.848889,-3.6152,-86.134994,0.053452,-0.62854,0.69136,-0.909486,-0.023695,0.070554,63.624908,49.30925,-143.887039,,,
729715941.095597,-41.128064,-3.621882,-89.207775,0.053452,-0.62854,0.69136,-1.019132,-0.027988,0.068997,63.624908,49.30925,-143.887039,,,
729715941.095817,-41.128052,-3.621886,-86.130895,0.053452,-0.62854,0.69136,-1.019132,-0.027988,0.068997,63.624908,49.30925,-143.887039,,,
729715941.099494,-41.420735,-3.629914,-89.20602,0.037262,-0.647049,0.68103,-1.019132,-0.027988,0.068997,63.624908,49.30925,-143.887039,,,
729715941.099727,-41.420722,-3.629917,-86.12914,0.037262,-0.647049,0.68103,-1.019132,-0.027988,0.068997,63.624908,49.30925,-143.887039,,,
729715941.101522,-41.420735,-3.629914,-89.20602,0.037262,-0.647049,0.68103,-1.019132,-0.027988,0.068997,63.624908,49.30925,-143.887039,,,
729715941.101743,-41.420722,-3.629917,-86.12914,0.037262,-0.647049,0.68103,-1.019132,-0.027988,0.068997,63.624908,49.30925,-143.887039,,,
729715941.105744,-41.721751,-3.639702,-89.206721,0.037262,-0.647049,0.68103,-1.071011,-0.029955,0.058025,63.624908,49.30925,-143.887039,,,
729715941.105971,-41.721738,-3.639706,-86.129841,0.037262,-0.647049,0.68103,-1.071011,-0.029955,0.058025,63.624908,49.30925,-143.887039,,,
729715941.108868,-41.721751,-3.639702,-89.206721,0.048386,-0.656982,0.702835,-1.071011,-0.029955,0.058025,63.624908,49.30925,-143.887039,,,
729715941.109102,-42.028865,-3.651181,-86.132783,0.048386,-0.656982,0.702835,-1.071011,-0.029955,0.058025,63.624908,49.30925,-143.887039,,,
729715941.112178,-42.028878,-3.651178,-89.209664,0.048386,-0.656982,0.702835,-1.071011,-0.029955,0.058025,63.624908,49.30925,-143.887039,,,
729715941.112408,-42.028865,-3.651181,-86.132783,0.048386,-0.656982,0.702835,-1.071011,-0.029955,0.058025,63.624908,49.30925,-143.887039,,,
729715941.115897,-42.341032,-3.665227,-89.21354,0.048386,-0.656982,0.702835,-1.091137,-0.053487,0.058619,63.624908,49.30925,-143.887039,,,
729715941.116139,-42.341019,-3.665231,-86.136659,0.048386,-0.656982,0.702835,-1.091137,-0.053487,0.058619,63.624908,49.30925,-143.887039,,,
729715941.119212,-42.341032,-3.665227,-89.21354,0.047775,-0.668289,0.70546,-1.091137,-0.053487,0.058619,63.551483,51.212158,-143.098282,,,
729715941.119453,-42.655765,-3.682976,-86.140145,0.047775,-0.668289,0.70546,-1.091137,-0.053487,0.058619,63.551483,51.212158,-143.098282,,,
729715941.122204,-42.655779,-3.682973,-89.217025,0.047775,-0.668289,0.70546,-1.091137,-0.053487,0.058619,63.551483,51.212158,-143.098282,,,
729715941.122445,-42.655765,-3.682976,-86.140145,0.047775,-0.668289,0.70546,-1.091137,-0.053487,0.058619,63.551483,51.212158,-143.098282,,,
729715941.125701,-42.971218,-3.704873,-89.220245,0.047775,-0.668289,0.70546,-1.094096,-0.079724,0.060688,63.551483,51.212158,-143.098282,,,
729715941.125915,-42.971205,-3.704876,-86.143365,0.047775,-0.668289,0.70546,-1.094096,-0.079724,0.060688,63.551483,51.212158,-143.098282,,,
729715941.128926,-42.971218,-3.704873,-89.220245,0.038788,-0.680496,0.7043,-1.094096,-0.079724,0.060688,63.551483,51.212158,-143.098282,,,
729715941.129147,-43.286495,-3.731442,-86.147629,0.038788,-0.680496,0.7043,-1.094096,-0.079724,0.060688,63.551483,51.212158,-143.098282,,,
729715941.132172,-43.286509,-3.731438,-89.224509,0.038788,-0.680496,0.7043,-1.094096,-0.079724,0.060688,63.551483,51.212158,-143.098282,,,
729715941.13239,-43.286495,-3.731442,-86.147629,0.038788,-0.680496,0.7043,-1.094096,-0.079724,0.060688,63.551483,51.212158,-143.098282,,,
729715941.136296,-43.600312,-3.762339,-89.23118,0.038788,-0.680496,0.7043,-1.083593,-0.09462,0.04736,63.551483,51.212158,-143.098282,,,
729715941.136537,-43.600298,-3.762343,-86.1543,0.038788,-0.680496,0.7043,-1.083593,-0.09462,0.04736,63.551483,51.212158,-143.098282,,,
729715941.138071,-43.600312,-3.762339,-89.23118,0.038788,-0.680496,0.7043,-1.083593,-0.09462,0.04736,63.551483,51.212158,-143.098282,,,
729715941.138378,-43.911638,-3.797019,-86.163945,0.044983,-0.684631,0.709961,-1.083593,-0.09462,0.04736,63.551483,51.212158,-143.098282,,,
729715941.142734,-43.911652,-3.797015,-89.240826,0.044983,-0.684631,0.709961,-1.083593,-0.09462,0.04736,63.551483,51.212158,-143.098282,,,
729715941.142993,-43.911638,-3.797019,-86.163945,0.044983,-0.684631,0.709961,-1.083593,-0.09462,0.04736,63.551483,51.212158,-143.098282,,,
729715941.146027,-44.220624,-3.834082,-89.253928,0.044983,-0.684631,0.709961,-1.064967,-0.086336,0.029915,63.551483,51.212158,-143.098282,,,
729715941.146257,-44.22061,-3.834085,-86.177048,0.044983,-0.684631,0.709961,-1.064967,-0.086336,0.029915,63.551483,51.212158,-143.098282,,,
729715941.148163,-44.220624,-3.834082,-89.253928,0.044983,-0.684631,0.709961,-1.064967,-0.086336,0.029915,63.551483,51.212158,-143.098282,,,
729715941.148437,-44.526095,-3.871594,-86.193432,0.049026,-0.690842,0.711121,-1.064967,-0.086336,0.029915,63.551483,51.212158,-143.098282,,,
729715941.152845,-44.526109,-3.87159,-89.270313,0.049026,-0.690842,0.711121,-1.064967,-0.086336,0.029915,63.551483,51.212158,-143.098282,,,
729715941.153123,-44.526095,-3.871594,-86.212262,0.049026,-0.690842,0.711121,-1.064967,-0.086336,0.029915,63.551483,51.212158,-143.098282,,,
729715941.156201,-44.82826,-3.908475,-89.289143,0.049026,-0.690842,0.711121,-1.042733,-0.070574,0.014226,63.551483,51.212158,-143.098282,,,
729715941.156443,-44.828246,-3.908479,-86.212262,0.049026,-0.690842,0.711121,-1.042733,-0.070574,0.014226,63.551483,51.212158,-143.098282,,,
729715941.158766,-44.82826,-3.908475,-89.289143,0.049026,-0.690842,0.711121,-1.042733,-0.070574,0.014226,63.512207,53.383102,-141.0952,,,
729715941.159007,-45.127726,-3.944896,-86.233847,0.051849,-0.699692,0.716721,-1.042733,-0.070574,0.014226,63.512207,53.383102,-141.0952,,,
729715941.162762,-45.127741,-3.944892,-89.310728,0.051849,-0.699692,0.716721,-1.042733,-0.070574,0.014226,63.512207,53.383102,-141.0952,,,
729715941.163031,-45.127726,-3.944896,-86.233847,0.051849,-0.699692,0.716721,-1.042733,-0.070574,0.014226,63.512207,53.383102,-141.0952,,,
729715941.166222,-45.423289,-3.981098,-89.335148,0.051849,-0.699692,0.716721,-1.016248,-0.054091,0.004078,63.512207,53.383102,-141.0952,,,
729715941.166467,-45.423274,-3.981102,-86.258267,0.051849,-0.699692,0.716721,-1.016248,-0.054091,0.004078,63.512207,53.383102,-141.0952,,,
729715941.168211,-45.423289,-3.981098,-89.335148,0.051849,-0.699692,0.716721,-1.016248,-0.054091,0.004078,63.512207,53.383102,-141.0952,,,
729715941.168424,-45.714461,-4.016662,-86.285123,0.060486,-0.704361,0.716309,-1.016248,-0.054091,0.004078,63.512207,53.383102,-141.0952,,,
729715941.172627,-45.714476,-4.016658,-89.362004,0.060486,-0.704361,0.716309,-1.016248,-0.054091,0.004078,63.512207,53.383102,-141.0952,,,
729715941.172857,-45.714461,-4.016662,-86.285123,0.060486,-0.704361,0.716309,-1.016248,-0.054091,0.004078,63.512207,53.383102,-141.0952,,,
729715941.177193,-46.000786,-4.049951,-89.390791,0.060486,-0.704361,0.716309,-0.984032,-0.022854,-0.000101,63.512207,53.383102,-141.0952,,,
729715941.177455,-46.000771,-4.049955,-86.31391,0.060486,-0.704361,0.716309,-0.984032,-0.022854,-0.000101,63.512207,53.383102,-141.0952,,,
729715941.178016,-46.000786,-4.049951,-89.390791,0.060486,-0.704361,0.716309,-0.984032,-0.022854,-0.000101,63.512207,53.383102,-141.0952,,,
729715941.178381,-46.280991,-4.078222,-86.342724,0.064011,-0.713684,0.710068,-0.984032,-0.022854,-0.000101,63.512207,53.383102,-141.0952,,,
729715941.183074,-46.281006,-4.078218,-89.419605,0.064011,-0.713684,0.710068,-0.984032,-0.022854,-0.000101,63.512207,53.383102,-141.0952,,,
729715941.183304,-46.553919,-4.099589,-86.371292,0.064011,-0.713684,0.710068,-0.984032,-0.022854,-0.000101,63.512207,53.383102,-141.0952,,,
729715941.186877,-46.553934,-4.099586,-89.448173,0.064011,-0.713684,0.710068,-0.917884,0.030864,-0.003033,63.512207,53.383102,-141.0952,,,
729715941.18715,-46.553919,-4.099589,-86.371292,0.064011,-0.713684,0.710068,-0.917884,0.030864,-0.003033,63.512207,53.383102,-141.0952,,,
729715941.188081,-46.553934,-4.099586,-89.448173,0.064011,-0.713684,0.710068,-0.917884,0.030864,-0.003033,63.512207,53.383102,-141.0952,,,
729715941.188362,-46.553919,-4.099589,-86.371292,0.064362,-0.728531,0.722595,-0.917884,0.030864,-0.003033,63.512207,53.383102,-141.0952,,,
729715941.19285,-46.817144,-4.11256,-89.476177,0.064362,-0.728531,0.722595,-0.917884,0.030864,-0.003033,63.512207,53.383102,-141.0952,,,
729715941.193115,-46.817129,-4.112564,-86.399295,0.064362,-0.728531,0.722595,-0.917884,0.030864,-0.003033,63.512207,53.383102,-141.0952,,,
729715941.196232,-47.068956,-4.117506,-89.503647,0.064362,-0.728531,0.722595,-0.843542,0.077398,-0.006105,63.512207,53.383102,-141.0952,,,
729715941.196477,-47.068941,-4.117509,-86.426765,0.064362,-0.728531,0.722595,-0.843542,0.077398,-0.006105,63.512207,53.383102,-141.0952,,,
729715941.198166,-47.068956,-4.117506,-89.503647,0.064362,-0.728531,0.722595,-0.843542,0.077398,-0.006105,63.512207,53.383102,-141.0952,,,
729715941.198359,-47.310583,-4.116689,-86.454783,0.066925,-0.737259,0.73262,-0.843542,0.077398,-0.006105,63.512207,53.383102,-141.0952,,,
729715941.203425,-47.310598,-4.116685,-89.531664,0.066925,-0.737259,0.73262,-0.843542,0.077398,-0.006105,63.503555,54.759018,-139.911346,,,
729715941.203673,-47.542807,-4.115338,-86.483671,0.066925,-0.737259,0.73262,-0.770992,0.062579,-0.012641,63.503555,54.759018,-139.911346,,,
729715941.205645,-47.542823,-4.115335,-89.560553,0.066925,-0.737259,0.73262,-0.770992,0.062579,-0.012641,63.503555,54.759018,-139.911346,,,
729715941.205864,-47.542807,-4.115338,-86.483671,0.066925,-0.737259,0.73262,-0.770992,0.062579,-0.012641,63.503555,54.759018,-139.911346,,,
729715941.208216,-47.542823,-4.115335,-89.560553,0.066925,-0.737259,0.73262,-0.770992,0.062579,-0.012641,63.503555,54.759018,-139.911346,,,
729715941.208405,-47.76447,-4.119969,-86.512697,0.063446,-0.741776,0.714935,-0.770992,0.062579,-0.012641,63.503555,54.759018,-139.911346,,,
729715941.2126,-47.764486,-4.119965,-89.589579,0.063446,-0.741776,0.714935,-0.770992,0.062579,-0.012641,63.503555,54.759018,-139.911346,,,
729715941.212831,-47.76447,-4.119969,-86.512697,0.063446,-0.741776,0.714935,-0.770992,0.062579,-0.012641,63.503555,54.759018,-139.911346,,,
729715941.216254,-47.976932,-4.1322,-89.618422,0.063446,-0.741776,0.714935,-0.713711,0.015473,-0.018298,63.503555,54.759018,-139.911346,,,
729715941.216499,-47.976916,-4.132204,-86.54154,0.063446,-0.741776,0.714935,-0.713711,0.015473,-0.018298,63.503555,54.759018,-139.911346,,,
729715941.218222,-47.976932,-4.1322,-89.618422,0.063446,-0.741776,0.714935,-0.713711,0.015473,-0.018298,63.503555,54.759018,-139.911346,,,
729715941.218427,-48.181542,-4.150022,-86.571168,0.047943,-0.747711,0.695374,-0.713711,0.015473,-0.018298,63.503555,54.759018,-139.911346,,,
729715941.222825,-48.181558,-4.150018,-89.64805,0.047943,-0.747711,0.695374,-0.713711,0.015473,-0.018298,63.503555,54.759018,-139.911346,,,
729715941.223056,-48.181542,-4.150022,-86.571168,0.047943,-0.747711,0.695374,-0.713711,0.015473,-0.018298,63.503555,54.759018,-139.911346,,,
729715941.226002,-48.378146,-4.170128,-89.679697,0.047943,-0.747711,0.695374,-0.65812,0.022139,-0.035824,63.503555,54.759018,-139.911346,,,
729715941.226251,-48.37813,-4.170132,-86.602815,0.047943,-0.747711,0.695374,-0.65812,0.022139,-0.035824,63.503555,54.759018,-139.911346,,,
729715941.228178,-48.378146,-4.170128,-89.679697,0.047943,-0.747711,0.695374,-0.65812,0.022139,-0.035824,63.503555,54.759018,-139.911346,,,
729715941.22841,-48.37813,-4.170132,-86.602815,0.050644,-0.74939,0.692123,-0.65812,0.022139,-0.035824,63.503555,54.759018,-139.911346,,,
729715941.232649,-48.566899,-4.19076,-89.714645,0.050644,-0.74939,0.692123,-0.65812,0.022139,-0.035824,63.503555,54.759018,-139.911346,,,
729715941.232866,-48.566882,-4.190763,-86.637763,0.050644,-0.74939,0.692123,-0.65812,0.022139,-0.035824,63.503555,54.759018,-139.911346,,,
729715941.236207,-48.748121,-4.215375,-89.754701,0.050644,-0.74939,0.692123,-0.611427,0.013172,-0.063017,63.503555,54.759018,-139.911346,,,
729715941.236435,-48.748105,-4.215379,-86.677819,0.050644,-0.74939,0.692123,-0.611427,0.013172,-0.063017,63.503555,54.759018,-139.911346,,,
729715941.238148,-48.748121,-4.215375,-89.754701,0.050644,-0.74939,0.692123,-0.611427,0.013172,-0.063017,63.503555,54.759018,-139.911346,,,
729715941.23836,-48.748105,-4.215379,-86.723395,0.050644,-0.74939,0.692123,-0.611427,0.013172,-0.063017,63.503555,54.759018,-139.911346,,,
729715941.243285,-48.922222,-4.246664,-89.800277,0.056717,-0.754288,0.691727,-0.611427,0.013172,-0.063017,63.594955,56.292572,-139.043655,,,
729715941.243521,-49.090796,-4.283086,-86.773992,0.056717,-0.754288,0.691727,-0.579477,0.015799,-0.085754,63.594955,56.292572,-139.043655,,,
729715941.246147,-49.090813,-4.283082,-89.850874,0.056717,-0.754288,0.691727,-0.579477,0.015799,-0.085754,63.594955,56.292572,-139.043655,,,
729715941.246388,-49.090796,-4.283086,-86.773992,0.056717,-0.754288,0.691727,-0.579477,0.015799,-0.085754,63.594955,56.292572,-139.043655,,,
729715941.248161,-49.090813,-4.283082,-89.850874,0.056717,-0.754288,0.691727,-0.579477,0.015799,-0.085754,63.594955,56.292572,-139.043655,,,
729715941.248371,-49.090796,-4.283086,-86.773992,0.058624,-0.75412,0.678268,-0.579477,0.015799,-0.085754,63.594955,56.292572,-139.043655,,,
729715941.252651,-49.255385,-4.32266,-89.907344,0.058624,-0.75412,0.678268,-0.579477,0.015799,-0.085754,63.594955,56.292572,-139.043655,,,
729715941.252866,-49.255368,-4.322663,-86.830462,0.058624,-0.75412,0.678268,-0.579477,0.015799,-0.085754,63.594955,56.292572,-139.043655,,,
729715941.256131,-49.417418,-4.363342,-89.969125,0.058624,-0.75412,0.678268,-0.571195,0.035858,-0.105251,63.594955,56.292572,-139.043655,,,
729715941.256359,-49.417401,-4.363346,-86.892243,0.058624,-0.75412,0.678268,-0.571195,0.035858,-0.105251,63.594955,56.292572,-139.043655,,,
729715941.258279,-49.417418,-4.363342,-89.969125,0.058624,-0.75412,0.678268,-0.571195,0.035858,-0.105251,63.594955,56.292572,-139.043655,,,
729715941.258478,-49.579282,-4.404288,-86.957433,0.057816,-0.759003,0.67215,-0.571195,0.035858,-0.105251,63.594955,56.292572,-139.043655,,,
729715941.26292,-49.579299,-4.404284,-90.034315,0.057816,-0.759003,0.67215,-0.571195,0.035858,-0.105251,63.594955,56.292572,-139.043655,,,
729715941.263191,-49.579282,-4.404288,-86.957433,0.057816,-0.759003,0.67215,-0.571195,0.035858,-0.105251,63.594955,56.292572,-139.043655,,,
729715941.266012,-49.743994,-4.447415,-90.102275,0.057816,-0.759003,0.67215,-0.60034,0.02619,-0.108432,63.594955,56.292572,-139.043655,,,
729715941.266238,-49.743977,-4.447419,-87.025393,0.057816,-0.759003,0.67215,-0.60034,0.02619,-0.108432,63.594955,56.292572,-139.043655,,,
729715941.268137,-49.743994,-4.447415,-90.102275,0.057816,-0.759003,0.67215,-0.60034,0.02619,-0.108432,63.594955,56.292572,-139.043655,,,
729715941.26839,-49.743977,-4.447419,-87.025393,0.057816,-0.759003,0.67215,-0.60034,0.02619,-0.108432,63.594955,56.292572,-139.043655,,,
