Time (sec),Pitch (deg),Roll (deg),Yaw(deg),X-Acceleration (g),Y-Acceleration (g),Z-Acceleration (g),Pitch Rate (deg/sec),Roll Rate (deg/sec),Yaw Rate (deg/sec),Magnetic Field in X direction (uT),Magnetic Field in Y direction (uT),Magnetic Field in Z Direction (uT),Latitude (deg),Longitude (deg),Altitude (m)
729717114.516203,-70.364919,67.318218,158.882545,-0.259872,-0.941833,0.194336,0.50602,-0.095312,-0.361236,101.324799,68.150177,-88.440872,,,
729717114.517055,-70.364876,67.318183,161.959399,-0.259872,-0.941833,0.194336,0.50602,-0.095312,-0.361236,101.324799,68.150177,-88.440872,,,
729717114.517184,-70.364911,67.318208,-162.50427,-0.259872,-0.941833,0.194336,0.50602,-0.095312,-0.361236,101.324799,68.150177,-88.440872,,,
729717114.518873,-70.364919,67.318218,158.882545,-0.259872,-0.941833,0.194336,0.50602,-0.095312,-0.361236,101.324799,68.150177,-88.440872,,,
729717114.519181,-70.364876,67.318183,161.959399,-0.259872,-0.941833,0.194336,0.50602,-0.095312,-0.361236,101.324799,68.150177,-88.440872,,,
729717114.519849,-70.404081,66.781058,-163.041003,-0.2612,-0.940948,0.196854,0.50602,-0.095312,-0.361236,101.324799,68.150177,-88.440872,,,
729717114.523185,-70.404089,66.781068,158.345816,-0.2612,-0.940948,0.196854,0.50602,-0.095312,-0.361236,101.324799,68.150177,-88.440872,,,
729717114.524163,-70.404046,66.781034,161.42267,-0.2612,-0.940948,0.196854,0.50602,-0.095312,-0.361236,101.324799,68.150177,-88.440872,,,
729717114.524354,-70.404081,66.781058,-163.041003,-0.2612,-0.940948,0.196854,0.50602,-0.095312,-0.361236,101.324799,68.150177,-88.440872,,,
729717114.526548,-70.442842,66.199879,157.770082,-0.2612,-0.940948,0.196854,0.580876,-0.144997,-0.404269,101.324799,68.150177,-88.440872,,,
729717114.52826,-70.442799,66.199845,160.846937,-0.2612,-0.940948,0.196854,0.580876,-0.144997,-0.404269,100.386948,68.792816,-89.189957,,,
729717114.528413,-70.442833,66.199869,-163.616719,-0.2612,-0.940948,0.196854,0.580876,-0.144997,-0.404269,100.386948,68.792816,-89.189957,,,
729717114.528997,-70.442842,66.199879,157.770082,-0.2612,-0.940948,0.196854,0.580876,-0.144997,-0.404269,100.386948,68.792816,-89.189957,,,
729717114.529201,-70.442799,66.199845,160.846937,-0.2612,-0.940948,0.196854,0.580876,-0.144997,-0.404269,100.386948,68.792816,-89.189957,,,
729717114.529862,-70.480774,65.574609,-164.228903,-0.265091,-0.940445,0.199097,0.580876,-0.144997,-0.404269,100.386948,68.792816,-89.189957,,,
729717114.5328,-70.480782,65.574619,157.157901,-0.265091,-0.940445,0.199097,0.580876,-0.144997,-0.404269,100.386948,68.792816,-89.189957,,,
729717114.533454,-70.480739,65.574585,160.234755,-0.265091,-0.940445,0.199097,0.580876,-0.144997,-0.404269,100.386948,68.792816,-89.189957,,,
729717114.533565,-70.480774,65.574609,-164.228903,-0.265091,-0.940445,0.199097,0.580876,-0.144997,-0.404269,100.386948,68.792816,-89.189957,,,
729717114.536266,-70.517914,64.90413,156.512853,-0.265091,-0.940445,0.199097,0.640395,-0.243132,-0.443282,100.386948,68.792816,-89.189957,,,
729717114.537156,-70.51787,64.904096,159.589707,-0.265091,-0.940445,0.199097,0.640395,-0.243132,-0.443282,100.386948,68.792816,-89.189957,,,
729717114.537325,-70.517905,64.90412,-164.873952,-0.265091,-0.940445,0.199097,0.640395,-0.243132,-0.443282,100.386948,68.792816,-89.189957,,,
729717114.538894,-70.517914,64.90413,156.512853,-0.265091,-0.940445,0.199097,0.640395,-0.243132,-0.443282,100.386948,68.792816,-89.189957,,,
729717114.539232,-70.51787,64.904096,159.589707,-0.265091,-0.940445,0.199097,0.640395,-0.243132,-0.443282,100.386948,68.792816,-89.189957,,,
729717114.539923,-70.553269,64.19169,-165.545644,-0.274353,-0.940445,0.180008,0.640395,-0.243132,-0.443282,100.386948,68.792816,-89.189957,,,
729717114.543183,-70.553278,64.1917,155.841152,-0.274353,-0.940445,0.180008,0.640395,-0.243132,-0.443282,100.386948,68.792816,-89.189957,,,
729717114.544174,-70.553234,64.191667,158.918006,-0.274353,-0.940445,0.180008,0.640395,-0.243132,-0.443282,100.386948,68.792816,-89.189957,,,
729717114.544312,-70.553269,64.19169,-165.545644,-0.274353,-0.940445,0.180008,0.640395,-0.243132,-0.443282,100.386948,68.792816,-89.189957,,,
729717114.546185,-70.585339,63.443986,155.146748,-0.274353,-0.940445,0.180008,0.683412,-0.338725,-0.460618,100.386948,68.792816,-89.189957,,,
729717114.547028,-70.585296,63.443954,158.2236,-0.274353,-0.940445,0.180008,0.683412,-0.338725,-0.460618,100.386948,68.792816,-89.189957,,,
729717114.547143,-70.585331,63.443977,-166.240061,-0.274353,-0.940445,0.180008,0.683412,-0.338725,-0.460618,100.386948,68.792816,-89.189957,,,
729717114.548913,-70.585339,63.443986,155.146748,-0.274353,-0.940445,0.180008,0.683412,-0.338725,-0.460618,100.386948,68.792816,-89.189957,,,
729717114.549236,-70.585296,63.443954,158.2236,-0.274353,-0.940445,0.180008,0.683412,-0.338725,-0.460618,100.386948,68.792816,-89.189957,,,
729717114.549877,-70.612424,62.668558,-166.956768,-0.284058,-0.941528,0.173233,0.683412,-0.338725,-0.460618,100.386948,68.792816,-89.189957,,,
729717114.553249,-70.612433,62.668568,154.430052,-0.284058,-0.941528,0.173233,0.683412,-0.338725,-0.460618,100.386948,68.792816,-89.189957,,,
729717114.554276,-70.612389,62.668536,157.506904,-0.284058,-0.941528,0.173233,0.683412,-0.338725,-0.460618,100.386948,68.792816,-89.189957,,,
729717114.554399,-70.612424,62.668558,-166.956768,-0.284058,-0.941528,0.173233,0.683412,-0.338725,-0.460618,100.386948,68.792816,-89.189957,,,
729717114.556103,-70.632261,61.870895,153.689301,-0.284058,-0.941528,0.173233,0.741424,-0.334837,-0.459932,100.386948,68.792816,-89.189957,,,
729717114.556904,-70.632218,61.870864,156.766152,-0.284058,-0.941528,0.173233,0.741424,-0.334837,-0.459932,100.386948,68.792816,-89.189957,,,
729717114.557068,-70.632253,61.870886,-167.697513,-0.284058,-0.941528,0.173233,0.741424,-0.334837,-0.459932,100.386948,68.792816,-89.189957,,,
729717114.558933,-70.632261,61.870895,153.689301,-0.284058,-0.941528,0.173233,0.741424,-0.334837,-0.459932,100.386948,68.792816,-89.189957,,,
729717114.559216,-70.632218,61.870864,156.766152,-0.284058,-0.941528,0.173233,0.741424,-0.334837,-0.459932,100.386948,68.792816,-89.189957,,,
729717114.559883,-70.64355,61.054567,-168.463322,-0.298401,-0.946533,0.21405,0.741424,-0.334837,-0.459932,100.386948,68.792816,-89.189957,,,
729717114.563519,-70.643559,61.054577,152.923495,-0.298401,-0.946533,0.21405,0.741424,-0.334837,-0.459932,100.386948,68.792816,-89.189957,,,
729717114.565477,-70.643515,61.054545,156.000346,-0.298401,-0.946533,0.21405,0.810149,-0.292743,-0.451705,100.386948,68.792816,-89.189957,,,
729717114.565676,-70.645293,60.220553,-169.254202,-0.298401,-0.946533,0.21405,0.810149,-0.292743,-0.451705,100.386948,68.792816,-89.189957,,,
729717114.566679,-70.645302,60.220562,152.132601,-0.298401,-0.946533,0.21405,0.810149,-0.292743,-0.451705,100.386948,68.792816,-89.189957,,,
729717114.567288,-70.645258,60.220531,155.209453,-0.298401,-0.946533,0.21405,0.810149,-0.292743,-0.451705,100.386948,68.792816,-89.189957,,,
729717114.567395,-70.645293,60.220553,-169.254202,-0.298401,-0.946533,0.21405,0.810149,-0.292743,-0.451705,100.386948,68.792816,-89.189957,,,
729717114.569341,-70.645302,60.220562,152.132601,-0.298401,-0.946533,0.21405,0.810149,-0.292743,-0.451705,99.897766,69.787842,-91.093674,,,
729717114.570055,-70.645258,60.220531,155.209453,-0.298401,-0.946533,0.21405,0.810149,-0.292743,-0.451705,99.897766,69.787842,-91.093674,,,
729717114.570219,-70.637175,59.372444,-170.065588,-0.290985,-0.948044,0.237061,0.810149,-0.292743,-0.451705,99.897766,69.787842,-91.093674,,,
729717114.573172,-70.637183,59.372453,151.321206,-0.290985,-0.948044,0.237061,0.810149,-0.292743,-0.451705,99.897766,69.787842,-91.093674,,,
729717114.57432,-70.63714,59.372422,154.398058,-0.290985,-0.948044,0.237061,0.810149,-0.292743,-0.451705,99.897766,69.787842,-91.093674,,,
729717114.574507,-70.637175,59.372444,-170.065588,-0.290985,-0.948044,0.237061,0.810149,-0.292743,-0.451705,99.897766,69.787842,-91.093674,,,
729717114.576632,-70.619171,58.514297,150.494314,-0.290985,-0.948044,0.237061,0.86321,-0.261068,-0.435717,99.897766,69.787842,-91.093674,,,
729717114.577884,-70.619127,58.514266,153.571165,-0.290985,-0.948044,0.237061,0.86321,-0.261068,-0.435717,99.897766,69.787842,-91.093674,,,
729717114.577992,-70.619162,58.514287,-170.892482,-0.290985,-0.948044,0.237061,0.86321,-0.261068,-0.435717,99.897766,69.787842,-91.093674,,,
729717114.578733,-70.619171,58.514297,150.494314,-0.290985,-0.948044,0.237061,0.86321,-0.261068,-0.435717,99.897766,69.787842,-91.093674,,,
729717114.5792,-70.619127,58.514266,153.571165,-0.290985,-0.948044,0.237061,0.86321,-0.261068,-0.435717,99.897766,69.787842,-91.093674,,,
729717114.579847,-70.59133,57.650598,-171.73028,-0.281982,-0.956238,0.235809,0.86321,-0.261068,-0.435717,99.897766,69.787842,-91.093674,,,
729717114.583225,-70.591339,57.650607,149.656522,-0.281982,-0.956238,0.235809,0.86321,-0.261068,-0.435717,99.897766,69.787842,-91.093674,,,
729717114.584328,-70.591295,57.650577,152.733372,-0.281982,-0.956238,0.235809,0.86321,-0.261068,-0.435717,99.897766,69.787842,-91.093674,,,
729717114.584512,-70.59133,57.650598,-171.73028,-0.281982,-0.956238,0.235809,0.86321,-0.261068,-0.435717,99.897766,69.787842,-91.093674,,,
729717114.586503,-70.553837,56.789001,148.815359,-0.281982,-0.956238,0.235809,0.895606,-0.225414,-0.411187,99.897766,69.787842,-91.093674,,,
729717114.587749,-70.553794,56.788972,151.892209,-0.281982,-0.956238,0.235809,0.895606,-0.225414,-0.411187,99.897766,69.787842,-91.093674,,,
729717114.587852,-70.553829,56.788992,-172.571447,-0.281982,-0.956238,0.235809,0.895606,-0.225414,-0.411187,99.897766,69.787842,-91.093674,,,
729717114.588819,-70.553837,56.789001,148.815359,-0.281982,-0.956238,0.235809,0.895606,-0.225414,-0.411187,99.897766,69.787842,-91.093674,,,
729717114.589216,-70.553794,56.788972,151.892209,-0.281982,-0.956238,0.235809,0.895606,-0.225414,-0.411187,99.897766,69.787842,-91.093674,,,
729717114.589916,-70.507123,55.940068,-173.405566,-0.279602,-0.964371,0.230759,0.895606,-0.225414,-0.411187,99.897766,69.787842,-91.093674,,,
729717114.593202,-70.507132,55.940077,147.981245,-0.279602,-0.964371,0.230759,0.895606,-0.225414,-0.411187,99.897766,69.787842,-91.093674,,,
729717114.5942,-70.507089,55.940048,151.058094,-0.279602,-0.964371,0.230759,0.895606,-0.225414,-0.411187,99.897766,69.787842,-91.093674,,,
729717114.594352,-70.507123,55.940068,-173.405566,-0.279602,-0.964371,0.230759,0.895606,-0.225414,-0.411187,99.897766,69.787842,-91.093674,,,
729717114.596387,-70.45253,55.107639,147.158099,-0.279602,-0.964371,0.230759,0.897246,-0.184105,-0.380138,99.897766,69.787842,-91.093674,,,
729717114.597488,-70.452487,55.10761,150.234947,-0.279602,-0.964371,0.230759,0.897246,-0.184105,-0.380138,99.897766,69.787842,-91.093674,,,
729717114.597592,-70.452521,55.10763,-174.228717,-0.279602,-0.964371,0.230759,0.897246,-0.184105,-0.380138,99.897766,69.787842,-91.093674,,,
729717114.598809,-70.45253,55.107639,147.158099,-0.279602,-0.964371,0.230759,0.897246,-0.184105,-0.380138,99.897766,69.787842,-91.093674,,,
729717114.599189,-70.452487,55.10761,150.234947,-0.279602,-0.964371,0.230759,0.897246,-0.184105,-0.380138,99.897766,69.787842,-91.093674,,,
729717114.599866,-70.390885,54.295441,-175.036666,-0.275467,-0.96434,0.22583,0.897246,-0.184105,-0.380138,99.897766,69.787842,-91.093674,,,
729717114.602775,-70.390893,54.29545,146.350153,-0.275467,-0.96434,0.22583,0.897246,-0.184105,-0.380138,99.897766,69.787842,-91.093674,,,
729717114.603357,-70.39085,54.295422,149.427,-0.275467,-0.96434,0.22583,0.897246,-0.184105,-0.380138,99.897766,69.787842,-91.093674,,,
729717114.603471,-70.390885,54.295441,-175.036666,-0.275467,-0.96434,0.22583,0.897246,-0.184105,-0.380138,99.897766,69.787842,-91.093674,,,
729717114.606695,-70.3225,53.504429,145.559183,-0.275467,-0.96434,0.22583,0.8862,-0.14984,-0.346926,99.897766,69.787842,-91.093674,,,
729717114.607811,-70.322457,53.504402,148.636032,-0.275467,-0.96434,0.22583,0.8862,-0.14984,-0.346926,99.897766,69.787842,-91.093674,,,
729717114.60792,-70.322491,53.50442,-175.827619,-0.275467,-0.96434,0.22583,0.8862,-0.14984,-0.346926,99.897766,69.787842,-91.093674,,,
729717114.608747,-70.3225,53.504429,145.559183,-0.275467,-0.96434,0.22583,0.8862,-0.14984,-0.346926,99.897766,69.787842,-91.093674,,,
729717114.609277,-70.322457,53.504402,148.636032,-0.275467,-0.96434,0.22583,0.8862,-0.14984,-0.346926,99.897766,69.787842,-91.093674,,,
729717114.609873,-70.246952,52.73132,-176.602598,-0.263611,-0.955444,0.222198,0.8862,-0.14984,-0.346926,99.296326,70.124374,-92.842621,,,
729717114.613738,-70.24696,52.731328,144.784191,-0.263611,-0.955444,0.222198,0.8862,-0.14984,-0.346926,99.296326,70.124374,-92.842621,,,
729717114.615451,-70.246918,52.731301,147.86104,-0.263611,-0.955444,0.222198,0.888166,-0.143982,-0.301001,99.296326,70.124374,-92.842621,,,
729717114.615566,-70.162594,51.975622,-177.360397,-0.263611,-0.955444,0.222198,0.888166,-0.143982,-0.301001,99.296326,70.124374,-92.842621,,,
729717114.616304,-70.162602,51.97563,144.02642,-0.263611,-0.955444,0.222198,0.888166,-0.143982,-0.301001,99.296326,70.124374,-92.842621,,,
729717114.616856,-70.16256,51.975604,147.103266,-0.263611,-0.955444,0.222198,0.888166,-0.143982,-0.301001,99.296326,70.124374,-92.842621,,,
729717114.616961,-70.162594,51.975622,-177.360397,-0.263611,-0.955444,0.222198,0.888166,-0.143982,-0.301001,99.296326,70.124374,-92.842621,,,
729717114.618897,-70.162602,51.97563,144.02642,-0.263611,-0.955444,0.222198,0.888166,-0.143982,-0.301001,99.296326,70.124374,-92.842621,,,
729717114.619178,-70.16256,51.975604,147.103266,-0.263611,-0.955444,0.222198,0.888166,-0.143982,-0.301001,99.296326,70.124374,-92.842621,,,
729717114.619869,-70.068061,51.241393,-178.097527,-0.277893,-0.953552,0.221039,0.888166,-0.143982,-0.301001,99.296326,70.124374,-92.842621,,,
729717114.622998,-70.06807,51.241401,143.289279,-0.277893,-0.953552,0.221039,0.888166,-0.143982,-0.301001,99.296326,70.124374,-92.842621,,,
729717114.623771,-70.068028,51.241375,146.366126,-0.277893,-0.953552,0.221039,0.888166,-0.143982,-0.301001,99.296326,70.124374,-92.842621,,,
729717114.62387,-70.068061,51.241393,-178.097527,-0.277893,-0.953552,0.221039,0.888166,-0.143982,-0.301001,99.296326,70.124374,-92.842621,,,
729717114.626232,-69.961125,50.530465,142.573147,-0.277893,-0.953552,0.221039,0.902761,-0.122168,-0.229672,99.296326,70.124374,-92.842621,,,
729717114.627093,-69.961084,50.53044,145.649993,-0.277893,-0.953552,0.221039,0.902761,-0.122168,-0.229672,99.296326,70.124374,-92.842621,,,
729717114.627208,-69.961117,50.530458,-178.81367,-0.277893,-0.953552,0.221039,0.902761,-0.122168,-0.229672,99.296326,70.124374,-92.842621,,,
729717114.628869,-69.961125,50.530465,142.573147,-0.277893,-0.953552,0.221039,0.902761,-0.122168,-0.229672,99.296326,70.124374,-92.842621,,,
729717114.629207,-69.961084,50.53044,145.649993,-0.277893,-0.953552,0.221039,0.902761,-0.122168,-0.229672,99.296326,70.124374,-92.842621,,,
729717114.629867,-69.840311,49.841835,-179.509997,-0.31076,-0.955154,0.239288,0.902761,-0.122168,-0.229672,99.296326,70.124374,-92.842621,,,
729717114.633354,-69.84032,49.841842,141.876817,-0.31076,-0.955154,0.239288,0.902761,-0.122168,-0.229672,99.296326,70.124374,-92.842621,,,
729717114.634628,-69.840278,49.841818,144.953663,-0.31076,-0.955154,0.239288,0.902761,-0.122168,-0.229672,99.296326,70.124374,-92.842621,,,
729717114.634776,-69.840311,49.841835,-179.509997,-0.31076,-0.955154,0.239288,0.944967,-0.11311,-0.162536,99.296326,70.124374,-92.842621,,,
729717114.636078,-69.705349,49.167023,141.193287,-0.31076,-0.955154,0.239288,0.944967,-0.11311,-0.162536,99.296326,70.124374,-92.842621,,,
729717114.63693,-69.705308,49.166999,144.270134,-0.31076,-0.955154,0.239288,0.944967,-0.11311,-0.162536,99.296326,70.124374,-92.842621,,,
729717114.637065,-69.70534,49.167015,179.806481,-0.31076,-0.955154,0.239288,0.944967,-0.11311,-0.162536,99.296326,70.124374,-92.842621,,,
729717114.638939,-69.705349,49.167023,141.193287,-0.31076,-0.955154,0.239288,0.944967,-0.11311,-0.162536,99.296326,70.124374,-92.842621,,,
729717114.639232,-69.705308,49.166999,144.270134,-0.31076,-0.955154,0.239288,0.944967,-0.11311,-0.162536,99.296326,70.124374,-92.842621,,,
729717114.639945,-69.555662,48.498739,179.129266,-0.311279,-0.951233,0.254211,0.944967,-0.11311,-0.162536,99.296326,70.124374,-92.842621,,,
729717114.643371,-69.55567,48.498746,140.516068,-0.311279,-0.951233,0.254211,0.944967,-0.11311,-0.162536,99.296326,70.124374,-92.842621,,,
729717114.64451,-69.555629,48.498723,143.592915,-0.311279,-0.951233,0.254211,0.944967,-0.11311,-0.162536,99.296326,70.124374,-92.842621,,,
729717114.644698,-69.555662,48.498739,179.129266,-0.311279,-0.951233,0.254211,0.944967,-0.11311,-0.162536,99.296326,70.124374,-92.842621,,,
729717114.646101,-69.392319,47.835999,139.842048,-0.311279,-0.951233,0.254211,1.007844,-0.099746,-0.116514,99.296326,70.124374,-92.842621,,,
729717114.646941,-69.392279,47.835976,142.918894,-0.311279,-0.951233,0.254211,1.007844,-0.099746,-0.116514,99.296326,70.124374,-92.842621,,,
729717114.647057,-69.392311,47.835991,178.455247,-0.311279,-0.951233,0.254211,1.007844,-0.099746,-0.116514,99.296326,70.124374,-92.842621,,,
729717114.648904,-69.392319,47.835999,139.842048,-0.311279,-0.951233,0.254211,1.007844,-0.099746,-0.116514,99.296326,70.124374,-92.842621,,,
729717114.64918,-69.392279,47.835976,142.918894,-0.311279,-0.951233,0.254211,1.007844,-0.099746,-0.116514,99.296326,70.124374,-92.842621,,,
729717114.649932,-69.215492,47.181628,177.783481,-0.299271,-0.947556,0.274796,1.007844,-0.099746,-0.116514,99.296326,70.124374,-92.842621,,,
729717114.653795,-69.2155,47.181635,139.170285,-0.299271,-0.947556,0.274796,1.007844,-0.099746,-0.116514,99.152237,70.396851,-94.964355,,,
729717114.655458,-69.21546,47.181613,142.247132,-0.299271,-0.947556,0.274796,1.088539,-0.033208,-0.066475,99.152237,70.396851,-94.964355,,,
729717114.655585,-69.022784,46.538617,177.112863,-0.299271,-0.947556,0.274796,1.088539,-0.033208,-0.066475,99.152237,70.396851,-94.964355,,,
729717114.656447,-69.022792,46.538624,138.499665,-0.299271,-0.947556,0.274796,1.088539,-0.033208,-0.066475,99.152237,70.396851,-94.964355,,,
729717114.657005,-69.022753,46.538602,141.576511,-0.299271,-0.947556,0.274796,1.088539,-0.033208,-0.066475,99.152237,70.396851,-94.964355,,,
729717114.657099,-69.022784,46.538617,177.112863,-0.299271,-0.947556,0.274796,1.088539,-0.033208,-0.066475,99.152237,70.396851,-94.964355,,,
729717114.658873,-69.022792,46.538624,138.499665,-0.299271,-0.947556,0.274796,1.088539,-0.033208,-0.066475,99.152237,70.396851,-94.964355,,,
729717114.659182,-69.022753,46.538602,141.576511,-0.299271,-0.947556,0.274796,1.088539,-0.033208,-0.066475,99.152237,70.396851,-94.964355,,,
729717114.659891,-68.812134,45.912992,176.445875,-0.312744,-0.950668,0.30719,1.088539,-0.033208,-0.066475,99.152237,70.396851,-94.964355,,,
729717114.662962,-68.812142,45.912999,137.832673,-0.312744,-0.950668,0.30719,1.088539,-0.033208,-0.066475,99.152237,70.396851,-94.964355,,,
729717114.663753,-68.812103,45.912978,140.909519,-0.312744,-0.950668,0.30719,1.088539,-0.033208,-0.066475,99.152237,70.396851,-94.964355,,,
729717114.663856,-68.812134,45.912992,176.445875,-0.312744,-0.950668,0.30719,1.088539,-0.033208,-0.066475,99.152237,70.396851,-94.964355,,,
729717114.667393,-68.582311,45.30579,137.170951,-0.312744,-0.950668,0.30719,1.182139,0.05467,0.003045,99.152237,70.396851,-94.964355,,,
729717114.669118,-68.582273,45.30577,140.247798,-0.312744,-0.950668,0.30719,1.182139,0.05467,0.003045,99.152237,70.396851,-94.964355,,,
729717114.669248,-68.582303,45.305784,175.784155,-0.312744,-0.950668,0.30719,1.182139,0.05467,0.003045,99.152237,70.396851,-94.964355,,,
729717114.66939,-68.582311,45.30579,137.170951,-0.312744,-0.950668,0.30719,1.182139,0.05467,0.003045,99.152237,70.396851,-94.964355,,,
729717114.669919,-68.333611,44.718394,175.130676,-0.322128,-0.954102,0.321976,1.182139,0.05467,0.003045,99.152237,70.396851,-94.964355,,,
729717114.672983,-68.333619,44.7184,136.517468,-0.322128,-0.954102,0.321976,1.182139,0.05467,0.003045,99.152237,70.396851,-94.964355,,,
729717114.673787,-68.333581,44.71838,139.594315,-0.322128,-0.954102,0.321976,1.182139,0.05467,0.003045,99.152237,70.396851,-94.964355,,,
729717114.673897,-68.333611,44.718394,175.130676,-0.322128,-0.954102,0.321976,1.182139,0.05467,0.003045,99.152237,70.396851,-94.964355,,,
729717114.676223,-68.066627,44.149248,135.87236,-0.322128,-0.954102,0.321976,1.271484,0.120261,0.070151,99.152237,70.396851,-94.964355,,,
729717114.677087,-68.066589,44.149229,138.949207,-0.322128,-0.954102,0.321976,1.271484,0.120261,0.070151,99.152237,70.396851,-94.964355,,,
729717114.677204,-68.066619,44.149242,174.485567,-0.322128,-0.954102,0.321976,1.271484,0.120261,0.070151,99.152237,70.396851,-94.964355,,,
729717114.678873,-68.066627,44.149248,135.87236,-0.322128,-0.954102,0.321976,1.271484,0.120261,0.070151,99.152237,70.396851,-94.964355,,,
729717114.679182,-68.066589,44.149229,138.949207,-0.322128,-0.954102,0.321976,1.271484,0.120261,0.070151,99.152237,70.396851,-94.964355,,,
729717114.679848,-68.066619,44.149242,174.485567,-0.322128,-0.954102,0.321976,1.271484,0.120261,0.070151,99.152237,70.396851,-94.964355,,,
729717114.68281,-67.78153,43.597756,135.236657,-0.31015,-0.950226,0.323776,1.271484,0.120261,0.070151,99.152237,70.396851,-94.964355,,,
729717114.683464,-67.781493,43.597738,138.313503,-0.31015,-0.950226,0.323776,1.271484,0.120261,0.070151,99.152237,70.396851,-94.964355,,,
729717114.683576,-67.781523,43.59775,173.849861,-0.31015,-0.950226,0.323776,1.271484,0.120261,0.070151,99.152237,70.396851,-94.964355,,,
729717114.686253,-67.478968,43.062879,134.609893,-0.31015,-0.950226,0.323776,1.358982,0.170105,0.131249,99.152237,70.396851,-94.964355,,,
729717114.687108,-67.478931,43.062861,137.686739,-0.31015,-0.950226,0.323776,1.358982,0.170105,0.131249,99.152237,70.396851,-94.964355,,,
729717114.687223,-67.47896,43.062874,173.223094,-0.31015,-0.950226,0.323776,1.358982,0.170105,0.131249,99.152237,70.396851,-94.964355,,,
729717114.688896,-67.478968,43.062879,134.609893,-0.31015,-0.950226,0.323776,1.358982,0.170105,0.131249,99.152237,70.396851,-94.964355,,,
729717114.689205,-67.478931,43.062861,137.686739,-0.31015,-0.950226,0.323776,1.358982,0.170105,0.131249,99.152237,70.396851,-94.964355,,,
729717114.689896,-67.47896,42.542947,172.606166,-0.29837,-0.946732,0.335419,1.358982,0.170105,0.131249,99.152237,70.396851,-94.964355,,,
729717114.693791,-67.158914,42.542953,133.992966,-0.29837,-0.946732,0.335419,1.358982,0.170105,0.131249,99.28714,70.63829,-97.379898,,,
729717114.695851,-67.158878,42.542935,137.069812,-0.29837,-0.946732,0.335419,1.445692,0.179854,0.198275,99.28714,70.63829,-97.379898,,,
729717114.695983,-66.820952,42.03694,172.00136,-0.29837,-0.946732,0.335419,1.445692,0.179854,0.198275,99.28714,70.63829,-97.379898,,,
729717114.696831,-66.820959,42.036945,133.388177,-0.29837,-0.946732,0.335419,1.445692,0.179854,0.198275,99.28714,70.63829,-97.379898,,,
729717114.696947,-66.820952,42.03694,172.00136,-0.29837,-0.946732,0.335419,1.445692,0.179854,0.198275,99.28714,70.63829,-97.379898,,,
729717114.698906,-66.820959,42.036945,133.388177,-0.29837,-0.946732,0.335419,1.445692,0.179854,0.198275,99.28714,70.63829,-97.379898,,,
729717114.699584,-66.820924,42.036928,136.465021,-0.29837,-0.946732,0.335419,1.445692,0.179854,0.198275,99.28714,70.63829,-97.379898,,,
729717114.699889,-66.820952,41.546226,171.412969,-0.300995,-0.946365,0.334015,1.445692,0.179854,0.198275,99.28714,70.63829,-97.379898,,,
729717114.703191,-66.466147,41.546231,132.799777,-0.300995,-0.946365,0.334015,1.445692,0.179854,0.198275,99.28714,70.63829,-97.379898,,,
729717114.704225,-66.466112,41.546215,135.876623,-0.300995,-0.946365,0.334015,1.445692,0.179854,0.198275,99.28714,70.63829,-97.379898,,,
729717114.704374,-66.46614,41.546226,171.412969,-0.300995,-0.946365,0.334015,1.445692,0.179854,0.198275,99.28714,70.63829,-97.379898,,,
729717114.706525,-66.096748,41.073227,132.233419,-0.300995,-0.946365,0.334015,1.500335,0.152652,0.269618,99.28714,70.63829,-97.379898,,,
729717114.707779,-66.096714,41.073211,135.310265,-0.300995,-0.946365,0.334015,1.500335,0.152652,0.269618,99.28714,70.63829,-97.379898,,,
729717114.707891,-66.096741,41.073222,170.846613,-0.300995,-0.946365,0.334015,1.500335,0.152652,0.269618,99.28714,70.63829,-97.379898,,,
729717114.708736,-66.096748,41.073227,132.233419,-0.300995,-0.946365,0.334015,1.500335,0.152652,0.269618,99.28714,70.63829,-97.379898,,,
729717114.709195,-66.096714,41.073211,135.310265,-0.300995,-0.946365,0.334015,1.500335,0.152652,0.269618,99.28714,70.63829,-97.379898,,,
729717114.709873,-66.096741,41.073222,170.308825,-0.300995,-0.946365,0.334015,1.500335,0.152652,0.269618,99.28714,70.63829,-97.379898,,,
729717114.713393,-65.717124,40.620698,131.695622,-0.31163,-0.942017,0.320847,1.500335,0.152652,0.269618,99.28714,70.63829,-97.379898,,,
729717114.714656,-65.717091,40.620683,134.772469,-0.31163,-0.942017,0.320847,1.500335,0.152652,0.269618,99.28714,70.63829,-97.379898,,,
729717114.714832,-65.717117,40.620693,170.308825,-0.31163,-0.942017,0.320847,1.500335,0.152652,0.269618,99.28714,70.63829,-97.379898,,,
729717114.716316,-65.330603,40.188069,131.189597,-0.31163,-0.942017,0.320847,1.495891,0.079861,0.330181,99.28714,70.63829,-97.379898,,,
729717114.717412,-65.33057,40.188054,134.266443,-0.31163,-0.942017,0.320847,1.495891,0.079861,0.330181,99.28714,70.63829,-97.379898,,,
729717114.717554,-65.330596,40.188064,169.8028,-0.31163,-0.942017,0.320847,1.495891,0.079861,0.330181,99.28714,70.63829,-97.379898,,,
729717114.718808,-65.330603,40.188069,131.189597,-0.31163,-0.942017,0.320847,1.495891,0.079861,0.330181,99.28714,70.63829,-97.379898,,,
729717114.719188,-65.33057,40.188054,134.266443,-0.31163,-0.942017,0.320847,1.495891,0.079861,0.330181,99.28714,70.63829,-97.379898,,,
729717114.719865,-65.330596,40.188064,169.8028,-0.31163,-0.942017,0.320847,1.495891,0.079861,0.330181,99.28714,70.63829,-97.379898,,,
729717114.722995,-64.938422,39.773203,130.714257,-0.314896,-0.930069,0.300842,1.495891,0.079861,0.330181,99.28714,70.63829,-97.379898,,,
729717114.723773,-64.93839,39.773189,133.791104,-0.314896,-0.930069,0.300842,1.495891,0.079861,0.330181,99.28714,70.63829,-97.379898,,,
729717114.723874,-64.938415,39.773199,169.327461,-0.314896,-0.930069,0.300842,1.495891,0.079861,0.330181,99.28714,70.63829,-97.379898,,,
729717114.726595,-64.541006,39.376025,130.266908,-0.314896,-0.930069,0.300842,1.487556,0.017358,0.380442,99.28714,70.63829,-97.379898,,,
729717114.72784,-64.540974,39.376011,133.343754,-0.314896,-0.930069,0.300842,1.487556,0.017358,0.380442,99.28714,70.63829,-97.379898,,,
729717114.728,-64.540999,39.37602,168.88011,-0.314896,-0.930069,0.300842,1.487556,0.017358,0.380442,99.28714,70.63829,-97.379898,,,
729717114.728728,-64.541006,39.376025,130.266908,-0.314896,-0.930069,0.300842,1.487556,0.017358,0.380442,99.28714,70.63829,-97.379898,,,
729717114.729222,-64.540974,39.376011,133.343754,-0.314896,-0.930069,0.300842,1.487556,0.017358,0.380442,99.28714,70.63829,-97.379898,,,
729717114.729845,-64.540999,39.37602,168.88011,-0.314896,-0.930069,0.300842,1.487556,0.017358,0.380442,99.28714,70.63829,-97.379898,,,
729717114.733164,-64.139307,38.995034,129.843717,-0.314835,-0.919495,0.312134,1.487556,0.017358,0.380442,99.869125,69.995514,-100.317245,,,
729717114.734207,-64.139276,38.99502,132.920564,-0.314835,-0.919495,0.312134,1.487556,0.017358,0.380442,99.869125,69.995514,-100.317245,,,
729717114.734323,-64.1393,38.995029,168.456924,-0.314835,-0.919495,0.312134,1.487556,0.017358,0.380442,99.869125,69.995514,-100.317245,,,
729717114.736654,-63.733376,38.625822,129.438478,-0.314835,-0.919495,0.312134,1.49278,-0.021694,0.407995,99.869125,69.995514,-100.317245,,,
729717114.737913,-63.733346,38.625809,132.515325,-0.314835,-0.919495,0.312134,1.49278,-0.021694,0.407995,99.869125,69.995514,-100.317245,,,
729717114.738025,-63.73337,38.625818,168.051675,-0.314835,-0.919495,0.312134,1.49278,-0.021694,0.407995,99.869125,69.995514,-100.317245,,,
729717114.73873,-63.733376,38.625822,129.438478,-0.314835,-0.919495,0.312134,1.49278,-0.021694,0.407995,99.869125,69.995514,-100.317245,,,
729717114.7392,-63.733346,38.625809,132.515325,-0.314835,-0.919495,0.312134,1.49278,-0.021694,0.407995,99.869125,69.995514,-100.317245,,,
729717114.739905,-63.73337,38.625818,168.051675,-0.314835,-0.919495,0.312134,1.49278,-0.021694,0.407995,99.869125,69.995514,-100.317245,,,
729717114.743031,-63.326577,38.274225,129.05407,-0.30954,-0.910141,0.326111,1.49278,-0.021694,0.407995,99.869125,69.995514,-100.317245,,,
729717114.743824,-63.326547,38.274212,132.130917,-0.30954,-0.910141,0.326111,1.49278,-0.021694,0.407995,99.869125,69.995514,-100.317245,,,
729717114.743924,-63.326571,38.274221,167.667267,-0.30954,-0.910141,0.326111,1.49278,-0.021694,0.407995,99.869125,69.995514,-100.317245,,,
729717114.746201,-62.92341,37.945137,128.694444,-0.30954,-0.910141,0.326111,1.439175,-0.027069,0.422998,99.869125,69.995514,-100.317245,,,
729717114.747061,-62.92338,37.945124,131.77129,-0.30954,-0.910141,0.326111,1.439175,-0.027069,0.422998,99.869125,69.995514,-100.317245,,,
729717114.747176,-62.923403,37.945133,167.307638,-0.30954,-0.910141,0.326111,1.439175,-0.027069,0.422998,99.869125,69.995514,-100.317245,,,
729717114.74887,-62.92341,37.945137,128.694444,-0.30954,-0.910141,0.326111,1.439175,-0.027069,0.422998,99.869125,69.995514,-100.317245,,,
729717114.74918,-62.92338,37.945124,131.77129,-0.30954,-0.910141,0.326111,1.439175,-0.027069,0.422998,99.869125,69.995514,-100.317245,,,
729717114.749882,-62.923403,37.945133,167.307638,-0.30954,-0.910141,0.326111,1.439175,-0.027069,0.422998,99.869125,69.995514,-100.317245,,,
729717114.752798,-62.522841,37.635475,128.353975,-0.308014,-0.904343,0.331512,1.439175,-0.027069,0.422998,99.869125,69.995514,-100.317245,,,
729717114.753456,-62.522812,37.635463,131.430822,-0.308014,-0.904343,0.331512,1.439175,-0.027069,0.422998,99.869125,69.995514,-100.317245,,,
729717114.753568,-62.522835,37.635471,166.967169,-0.308014,-0.904343,0.331512,1.439175,-0.027069,0.422998,99.869125,69.995514,-100.317245,,,
729717114.757014,-62.123267,37.342188,128.025954,-0.308014,-0.904343,0.331512,1.421097,0.002896,0.423941,99.869125,69.995514,-100.317245,,,
729717114.758435,-62.123238,37.342176,131.1028,-0.308014,-0.904343,0.331512,1.421097,0.002896,0.423941,99.869125,69.995514,-100.317245,,,
729717114.758547,-62.123261,37.342184,166.639143,-0.308014,-0.904343,0.331512,1.421097,0.002896,0.423941,99.869125,69.995514,-100.317245,,,
729717114.758824,-62.123267,37.342188,128.025954,-0.308014,-0.904343,0.331512,1.421097,0.002896,0.423941,99.869125,69.995514,-100.317245,,,
729717114.759198,-62.123238,37.342176,131.1028,-0.308014,-0.904343,0.331512,1.421097,0.002896,0.423941,99.869125,69.995514,-100.317245,,,
729717114.759847,-62.123261,37.342184,166.639143,-0.308014,-0.904343,0.331512,1.421097,0.002896,0.423941,99.869125,69.995514,-100.317245,,,
729717114.762835,-61.726557,37.065231,127.709116,-0.308228,-0.895981,0.344986,1.421097,0.002896,0.423941,99.869125,69.995514,-100.317245,,,
729717114.7635,-61.726529,37.065219,130.785962,-0.308228,-0.895981,0.344986,1.421097,0.002896,0.423941,99.869125,69.995514,-100.317245,,,
729717114.763612,-61.726551,37.065227,166.322305,-0.308228,-0.895981,0.344986,1.421097,0.002896,0.423941,99.869125,69.995514,-100.317245,,,
729717114.766537,-61.333457,36.801544,127.39934,-0.308228,-0.895981,0.344986,1.398631,0.045203,0.403782,99.869125,69.995514,-100.317245,,,
729717114.767698,-61.333429,36.801533,130.476187,-0.308228,-0.895981,0.344986,1.398631,0.045203,0.403782,99.869125,69.995514,-100.317245,,,
729717114.767799,-61.333451,36.801541,166.012531,-0.308228,-0.895981,0.344986,1.398631,0.045203,0.403782,99.869125,69.995514,-100.317245,,,
729717114.768782,-61.333457,36.801544,127.39934,-0.308228,-0.895981,0.344986,1.398631,0.045203,0.403782,99.869125,69.995514,-100.317245,,,
729717114.769192,-61.333429,36.801533,130.476187,-0.308228,-0.895981,0.344986,1.398631,0.045203,0.403782,99.869125,69.995514,-100.317245,,,
729717114.769844,-61.333451,36.801541,166.012531,-0.308228,-0.895981,0.344986,1.398631,0.045203,0.403782,99.869125,69.995514,-100.317245,,,
729717114.773366,-60.943817,36.548322,127.093655,-0.305206,-0.884064,0.363647,1.398631,0.045203,0.403782,100.546463,69.521179,-102.946274,,,
729717114.774616,-60.94379,36.548311,130.170501,-0.305206,-0.884064,0.363647,1.398631,0.045203,0.403782,100.546463,69.521179,-102.946274,,,
729717114.774732,-60.943811,36.548319,165.706845,-0.305206,-0.884064,0.363647,1.398631,0.045203,0.403782,100.546463,69.521179,-102.946274,,,
729717114.776118,-60.556531,36.302072,126.789604,-0.305206,-0.884064,0.363647,1.392188,0.077135,0.376283,100.546463,69.521179,-102.946274,,,
729717114.776983,-60.556504,36.302062,129.866451,-0.305206,-0.884064,0.363647,1.392188,0.077135,0.376283,100.546463,69.521179,-102.946274,,,
729717114.7771,-60.556525,36.302069,165.402796,-0.305206,-0.884064,0.363647,1.392188,0.077135,0.376283,100.546463,69.521179,-102.946274,,,
729717114.778886,-60.556531,36.302072,126.789604,-0.305206,-0.884064,0.363647,1.392188,0.077135,0.376283,100.546463,69.521179,-102.946274,,,
729717114.779179,-60.556504,36.302062,129.866451,-0.305206,-0.884064,0.363647,1.392188,0.077135,0.376283,100.546463,69.521179,-102.946274,,,
729717114.779846,-60.556525,36.302069,165.402796,-0.305206,-0.884064,0.363647,1.392188,0.077135,0.376283,100.546463,69.521179,-102.946274,,,
729717114.782905,-60.171922,36.059825,126.483306,-0.313171,-0.87207,0.385803,1.392188,0.077135,0.376283,100.546463,69.521179,-102.946274,,,
729717114.783657,-60.171895,36.059814,129.560153,-0.313171,-0.87207,0.385803,1.392188,0.077135,0.376283,100.546463,69.521179,-102.946274,,,
729717114.78377,-60.171916,36.059821,165.096504,-0.313171,-0.87207,0.385803,1.392188,0.077135,0.376283,100.546463,69.521179,-102.946274,,,
729717114.786246,-59.790824,35.817117,126.169876,-0.313171,-0.87207,0.385803,1.396023,0.110161,0.319951,100.546463,69.521179,-102.946274,,,
729717114.787101,-59.790798,35.817107,129.246723,-0.313171,-0.87207,0.385803,1.396023,0.110161,0.319951,100.546463,69.521179,-102.946274,,,
729717114.787215,-59.790818,35.817114,164.783069,-0.313171,-0.87207,0.385803,1.396023,0.110161,0.319951,100.546463,69.521179,-102.946274,,,
729717114.788896,-59.790824,35.817117,126.169876,-0.313171,-0.87207,0.385803,1.396023,0.110161,0.319951,100.546463,69.521179,-102.946274,,,
729717114.789179,-59.790798,35.817107,129.246723,-0.313171,-0.87207,0.385803,1.396023,0.110161,0.319951,100.546463,69.521179,-102.946274,,,
729717114.789899,-59.790818,35.817114,164.783069,-0.313171,-0.87207,0.385803,1.396023,0.110161,0.319951,100.546463,69.521179,-102.946274,,,
729717114.79326,-59.414954,35.570497,125.846184,-0.312927,-0.859467,0.409775,1.396023,0.110161,0.319951,100.546463,69.521179,-102.946274,,,
729717114.794372,-59.414928,35.570487,128.923032,-0.312927,-0.859467,0.409775,1.396023,0.110161,0.319951,100.546463,69.521179,-102.946274,,,
729717114.794525,-59.414948,35.570494,164.459376,-0.312927,-0.859467,0.409775,1.396023,0.110161,0.319951,100.546463,69.521179,-102.946274,,,
729717114.796391,-59.045349,35.316478,125.509833,-0.312927,-0.859467,0.409775,1.396139,0.127266,0.235519,100.546463,69.521179,-102.946274,,,
729717114.797504,-59.045324,35.316468,128.586681,-0.312927,-0.859467,0.409775,1.396139,0.127266,0.235519,100.546463,69.521179,-102.946274,,,
729717114.79765,-59.045344,35.316474,164.123036,-0.312927,-0.859467,0.409775,1.396139,0.127266,0.235519,100.546463,69.521179,-102.946274,,,
729717114.79883,-59.045349,35.316478,125.509833,-0.312927,-0.859467,0.409775,1.396139,0.127266,0.235519,100.546463,69.521179,-102.946274,,,
729717114.79924,-59.045324,35.316468,128.586681,-0.312927,-0.859467,0.409775,1.396139,0.127266,0.235519,100.546463,69.521179,-102.946274,,,
729717114.799872,-59.045344,35.316474,164.123036,-0.312927,-0.859467,0.409775,1.396139,0.127266,0.235519,100.546463,69.521179,-102.946274,,,
729717114.803352,-58.682393,35.053609,125.161888,-0.302277,-0.840118,0.419342,1.396139,0.127266,0.235519,100.546463,69.521179,-102.946274,,,
729717114.804616,-58.682368,35.053599,128.238736,-0.302277,-0.840118,0.419342,1.396139,0.127266,0.235519,100.546463,69.521179,-102.946274,,,
729717114.804764,-58.682388,35.053606,163.775093,-0.302277,-0.840118,0.419342,1.396139,0.127266,0.235519,100.546463,69.521179,-102.946274,,,
729717114.806473,-58.32664,34.781017,124.805969,-0.302277,-0.840118,0.419342,1.380251,0.099307,0.159391,100.546463,69.521179,-102.946274,,,
729717114.807728,-58.326615,34.781007,127.882818,-0.302277,-0.840118,0.419342,1.380251,0.099307,0.159391,100.546463,69.521179,-102.946274,,,
729717114.807879,-58.326635,34.781014,163.419173,-0.302277,-0.840118,0.419342,1.380251,0.099307,0.159391,100.546463,69.521179,-102.946274,,,
729717114.808776,-58.32664,34.781017,124.805969,-0.302277,-0.840118,0.419342,1.380251,0.099307,0.159391,100.546463,69.521179,-102.946274,,,
729717114.809245,-58.326615,34.781007,127.882818,-0.302277,-0.840118,0.419342,1.380251,0.099307,0.159391,100.546463,69.521179,-102.946274,,,
729717114.80987,-58.326635,34.781014,163.419173,-0.302277,-0.840118,0.419342,1.380251,0.099307,0.159391,100.546463,69.521179,-102.946274,,,
729717114.813384,-57.979142,34.499794,124.448889,-0.305801,-0.827377,0.40686,1.380251,0.099307,0.159391,100.546463,69.521179,-102.946274,,,
729717114.815156,-57.979118,34.499784,127.525737,-0.305801,-0.827377,0.40686,1.380251,0.099307,0.159391,101.251129,68.801559,-105.605164,,,
729717114.815332,-57.639756,34.210291,162.710747,-0.305801,-0.827377,0.40686,1.32879,0.000203,0.12095,101.251129,68.801559,-105.605164,,,
729717114.816917,-57.639761,34.210295,124.097545,-0.305801,-0.827377,0.40686,1.32879,0.000203,0.12095,101.251129,68.801559,-105.605164,,,
729717114.817768,-57.639737,34.210286,127.174394,-0.305801,-0.827377,0.40686,1.32879,0.000203,0.12095,101.251129,68.801559,-105.605164,,,
729717114.817867,-57.639756,34.210291,162.710747,-0.305801,-0.827377,0.40686,1.32879,0.000203,0.12095,101.251129,68.801559,-105.605164,,,
729717114.818749,-57.639761,34.210295,124.097545,-0.305801,-0.827377,0.40686,1.32879,0.000203,0.12095,101.251129,68.801559,-105.605164,,,
729717114.819196,-57.639737,34.210286,127.174394,-0.305801,-0.827377,0.40686,1.32879,0.000203,0.12095,101.251129,68.801559,-105.605164,,,
729717114.819842,-57.639756,34.210291,162.710747,-0.305801,-0.827377,0.40686,1.32879,0.000203,0.12095,101.251129,68.801559,-105.605164,,,
729717114.82298,-57.309277,33.91391,123.75952,-0.328415,-0.827728,0.377594,1.32879,0.000203,0.12095,101.251129,68.801559,-105.605164,,,
729717114.823754,-57.309253,33.913901,126.836368,-0.328415,-0.827728,0.377594,1.32879,0.000203,0.12095,101.251129,68.801559,-105.605164,,,
729717114.823856,-57.309272,33.913907,162.372723,-0.328415,-0.827728,0.377594,1.32879,0.000203,0.12095,101.251129,68.801559,-105.605164,,,
729717114.827295,-56.987947,33.613224,123.440436,-0.328415,-0.827728,0.377594,1.243239,-0.147587,0.122072,101.251129,68.801559,-105.605164,,,
729717114.828957,-56.987923,33.613216,126.517285,-0.328415,-0.827728,0.377594,1.243239,-0.147587,0.122072,101.251129,68.801559,-105.605164,,,
729717114.829072,-56.987941,33.613221,162.05364,-0.328415,-0.827728,0.377594,1.243239,-0.147587,0.122072,101.251129,68.801559,-105.605164,,,
729717114.829212,-56.987947,33.613224,123.440436,-0.328415,-0.827728,0.377594,1.243239,-0.147587,0.122072,101.251129,68.801559,-105.605164,,,
729717114.82933,-56.987923,33.613216,126.517285,-0.328415,-0.827728,0.377594,1.243239,-0.147587,0.122072,101.251129,68.801559,-105.605164,,,
729717114.829818,-56.987941,33.613221,162.05364,-0.328415,-0.827728,0.377594,1.243239,-0.147587,0.122072,101.251129,68.801559,-105.605164,,,
729717114.832917,-56.675568,33.311035,123.143256,-0.346207,-0.832886,0.358932,1.243239,-0.147587,0.122072,101.251129,68.801559,-105.605164,,,
729717114.833677,-56.675544,33.311027,126.220104,-0.346207,-0.832886,0.358932,1.243239,-0.147587,0.122072,101.251129,68.801559,-105.605164,,,
729717114.833789,-56.675562,33.311032,161.756461,-0.346207,-0.832886,0.358932,1.243239,-0.147587,0.122072,101.251129,68.801559,-105.605164,,,
729717114.836216,-56.372137,33.009444,122.868805,-0.346207,-0.832886,0.358932,1.149084,-0.281365,0.140431,101.251129,68.801559,-105.605164,,,
729717114.837092,-56.372114,33.009436,125.945653,-0.346207,-0.832886,0.358932,1.149084,-0.281365,0.140431,101.251129,68.801559,-105.605164,,,
729717114.837209,-56.372131,33.009441,161.482009,-0.346207,-0.832886,0.358932,1.149084,-0.281365,0.140431,101.251129,68.801559,-105.605164,,,
729717114.838912,-56.372137,33.009444,122.868805,-0.346207,-0.832886,0.358932,1.149084,-0.281365,0.140431,101.251129,68.801559,-105.605164,,,
729717114.839228,-56.372114,33.009436,125.945653,-0.346207,-0.832886,0.358932,1.149084,-0.281365,0.140431,101.251129,68.801559,-105.605164,,,
729717114.839938,-56.372131,33.009441,161.482009,-0.346207,-0.832886,0.358932,1.149084,-0.281365,0.140431,101.251129,68.801559,-105.605164,,,
729717114.843322,-56.079221,32.712099,122.617399,-0.347214,-0.828217,0.368423,1.149084,-0.281365,0.140431,101.251129,68.801559,-105.605164,,,
729717114.844316,-56.079198,32.712091,125.694248,-0.347214,-0.828217,0.368423,1.149084,-0.281365,0.140431,101.251129,68.801559,-105.605164,,,
729717114.844415,-56.079216,32.712096,161.230602,-0.347214,-0.828217,0.368423,1.149084,-0.281365,0.140431,101.251129,68.801559,-105.605164,,,
729717114.846142,-55.797394,32.420652,122.385629,-0.347214,-0.828217,0.368423,1.047064,-0.35814,0.145657,101.251129,68.801559,-105.605164,,,
729717114.846997,-55.797372,32.420644,125.462477,-0.347214,-0.828217,0.368423,1.047064,-0.35814,0.145657,101.251129,68.801559,-105.605164,,,
729717114.847111,-55.797389,32.420649,160.998829,-0.347214,-0.828217,0.368423,1.047064,-0.35814,0.145657,101.251129,68.801559,-105.605164,,,
729717114.848924,-55.797394,32.420652,122.385629,-0.347214,-0.828217,0.368423,1.047064,-0.35814,0.145657,101.251129,68.801559,-105.605164,,,
729717114.849191,-55.797372,32.420644,125.462477,-0.347214,-0.828217,0.368423,1.047064,-0.35814,0.145657,101.251129,68.801559,-105.605164,,,
729717114.849853,-55.797389,32.420649,160.998829,-0.347214,-0.828217,0.368423,1.047064,-0.35814,0.145657,101.251129,68.801559,-105.605164,,,
729717114.853527,-55.527514,32.13817,122.169293,-0.32547,-0.8181,0.39212,1.047064,-0.35814,0.145657,101.251129,68.801559,-105.605164,,,
729717114.855137,-55.527491,32.138162,125.246141,-0.32547,-0.8181,0.39212,1.047064,-0.35814,0.145657,101.227829,68.199783,-108.111572,,,
729717114.855262,-55.527509,32.138167,160.782492,-0.32547,-0.8181,0.39212,0.961585,-0.341838,0.124944,101.227829,68.199783,-108.111572,,,
729717114.856553,-55.269,31.867405,121.963674,-0.32547,-0.8181,0.39212,0.961585,-0.341838,0.124944,101.227829,68.199783,-108.111572,,,
729717114.857446,-55.268978,31.867397,125.040523,-0.32547,-0.8181,0.39212,0.961585,-0.341838,0.124944,101.227829,68.199783,-108.111572,,,
729717114.857549,-55.268995,31.867402,160.576875,-0.32547,-0.8181,0.39212,0.961585,-0.341838,0.124944,101.227829,68.199783,-108.111572,,,
729717114.858816,-55.269,31.867405,121.963674,-0.32547,-0.8181,0.39212,0.961585,-0.341838,0.124944,101.227829,68.199783,-108.111572,,,
729717114.859189,-55.268978,31.867397,125.040523,-0.32547,-0.8181,0.39212,0.961585,-0.341838,0.124944,101.227829,68.199783,-108.111572,,,
729717114.859844,-55.268995,31.867402,160.576875,-0.32547,-0.8181,0.39212,0.961585,-0.341838,0.124944,101.227829,68.199783,-108.111572,,,
729717114.863031,-55.020279,31.608754,121.76363,-0.297913,-0.800674,0.433823,0.961585,-0.341838,0.124944,101.227829,68.199783,-108.111572,,,
729717114.863898,-55.020257,31.608747,124.840478,-0.297913,-0.800674,0.433823,0.961585,-0.341838,0.124944,101.227829,68.199783,-108.111572,,,
729717114.864,-55.020274,31.608752,160.376835,-0.297913,-0.800674,0.433823,0.961585,-0.341838,0.124944,101.227829,68.199783,-108.111572,,,
729717114.866191,-54.7805,31.361935,121.564845,-0.297913,-0.800674,0.433823,0.908882,-0.269828,0.084176,101.227829,68.199783,-108.111572,,,
729717114.867046,-54.780479,31.361928,124.641694,-0.297913,-0.800674,0.433823,0.908882,-0.269828,0.084176,101.227829,68.199783,-108.111572,,,
729717114.867167,-54.780495,31.361932,160.178054,-0.297913,-0.800674,0.433823,0.908882,-0.269828,0.084176,101.227829,68.199783,-108.111572,,,
729717114.868881,-54.7805,31.361935,121.564845,-0.297913,-0.800674,0.433823,0.908882,-0.269828,0.084176,101.227829,68.199783,-108.111572,,,
729717114.86918,-54.780479,31.361928,124.641694,-0.297913,-0.800674,0.433823,0.908882,-0.269828,0.084176,101.227829,68.199783,-108.111572,,,
729717114.869844,-54.780495,31.361932,160.178054,-0.297913,-0.800674,0.433823,0.908882,-0.269828,0.084176,101.227829,68.199783,-108.111572,,,
729717114.872994,-54.547522,31.124376,121.362957,-0.276855,-0.784958,0.474136,0.908882,-0.269828,0.084176,101.227829,68.199783,-108.111572,,,
729717114.874273,-54.5475,31.124369,124.439806,-0.276855,-0.784958,0.474136,0.908882,-0.269828,0.084176,101.227829,68.199783,-108.111572,,,
729717114.874397,-54.547517,31.124374,159.976155,-0.276855,-0.784958,0.474136,0.908882,-0.269828,0.084176,101.227829,68.199783,-108.111572,,,
729717114.876227,-54.317935,30.892895,121.155145,-0.276855,-0.784958,0.474136,0.902982,-0.196927,0.039952,101.227829,68.199783,-108.111572,,,
729717114.877113,-54.317913,30.892888,124.231993,-0.276855,-0.784958,0.474136,0.902982,-0.196927,0.039952,101.227829,68.199783,-108.111572,,,
729717114.877228,-54.31793,30.892892,159.76834,-0.276855,-0.784958,0.474136,0.902982,-0.196927,0.039952,101.227829,68.199783,-108.111572,,,
729717114.878872,-54.317935,30.892895,121.155145,-0.276855,-0.784958,0.474136,0.902982,-0.196927,0.039952,101.227829,68.199783,-108.111572,,,
729717114.879181,-54.317913,30.892888,124.231993,-0.276855,-0.784958,0.474136,0.902982,-0.196927,0.039952,101.227829,68.199783,-108.111572,,,
729717114.879881,-54.31793,30.892892,159.76834,-0.276855,-0.784958,0.474136,0.902982,-0.196927,0.039952,101.227829,68.199783,-108.111572,,,
729717114.883222,-54.08937,30.669065,120.942234,-0.266144,-0.778732,0.504166,0.902982,-0.196927,0.039952,101.227829,68.199783,-108.111572,,,
729717114.884277,-54.089349,30.669058,124.019082,-0.266144,-0.778732,0.504166,0.902982,-0.196927,0.039952,101.227829,68.199783,-108.111572,,,
729717114.884378,-54.089365,30.669062,159.55543,-0.266144,-0.778732,0.504166,0.902982,-0.196927,0.039952,101.227829,68.199783,-108.111572,,,
729717114.886137,-53.85907,30.452476,120.723389,-0.266144,-0.778732,0.504166,0.928352,-0.116384,0.014004,101.227829,68.199783,-108.111572,,,
729717114.886994,-53.859049,30.452469,123.800237,-0.266144,-0.778732,0.504166,0.928352,-0.116384,0.014004,101.227829,68.199783,-108.111572,,,
729717114.887109,-53.859065,30.452474,159.336583,-0.266144,-0.778732,0.504166,0.928352,-0.116384,0.014004,101.227829,68.199783,-108.111572,,,
729717114.88889,-53.85907,30.452476,120.723389,-0.266144,-0.778732,0.504166,0.928352,-0.116384,0.014004,101.227829,68.199783,-108.111572,,,
729717114.88923,-53.859049,30.452469,123.800237,-0.266144,-0.778732,0.504166,0.928352,-0.116384,0.014004,101.227829,68.199783,-108.111572,,,
729717114.889886,-53.859065,30.452474,159.336583,-0.266144,-0.778732,0.504166,0.928352,-0.116384,0.014004,101.227829,68.199783,-108.111572,,,
729717114.893137,-53.623356,30.239002,120.497043,-0.273834,-0.778534,0.53154,0.928352,-0.116384,0.014004,101.227829,68.199783,-108.111572,,,
729717114.894105,-53.623336,30.238996,123.573892,-0.273834,-0.778534,0.53154,0.928352,-0.116384,0.014004,101.227829,68.199783,-108.111572,,,
729717114.894257,-53.623352,30.239,159.110239,-0.273834,-0.778534,0.53154,0.928352,-0.116384,0.014004,101.227829,68.199783,-108.111572,,,
729717114.896796,-53.623356,30.024707,120.262828,-0.273834,-0.778534,0.53154,0.997419,-0.081769,0.003487,101.164825,67.797867,-110.055389,,,
729717114.898297,-53.379237,30.024701,123.339677,-0.273834,-0.778534,0.53154,0.997419,-0.081769,0.003487,101.164825,67.797867,-110.055389,,,
729717114.898409,-53.379253,30.024705,158.876028,-0.273834,-0.778534,0.53154,0.997419,-0.081769,0.003487,101.164825,67.797867,-110.055389,,,
729717114.898833,-53.379258,30.024707,120.262828,-0.273834,-0.778534,0.53154,0.997419,-0.081769,0.003487,101.164825,67.797867,-110.055389,,,
729717114.899205,-53.379237,30.024701,123.339677,-0.273834,-0.778534,0.53154,0.997419,-0.081769,0.003487,101.164825,67.797867,-110.055389,,,
729717114.899841,-53.379253,30.024705,158.876028,-0.273834,-0.778534,0.53154,0.997419,-0.081769,0.003487,101.164825,67.797867,-110.055389,,,
729717114.90289,-53.125668,29.805969,120.020898,-0.281006,-0.781891,0.545181,0.997419,-0.081769,0.003487,101.164825,67.797867,-110.055389,,,
729717114.903647,-53.125648,29.805963,123.097746,-0.281006,-0.781891,0.545181,0.997419,-0.081769,0.003487,101.164825,67.797867,-110.055389,,,
729717114.903812,-53.125664,29.805967,158.634097,-0.281006,-0.781891,0.545181,0.997419,-0.081769,0.003487,101.164825,67.797867,-110.055389,,,
729717114.907204,-52.861267,29.57909,119.770271,-0.281006,-0.781891,0.545181,1.08298,-0.094455,-0.004115,101.164825,67.797867,-110.055389,,,
729717114.909111,-52.861247,29.579084,122.84712,-0.281006,-0.781891,0.545181,1.08298,-0.094455,-0.004115,101.164825,67.797867,-110.055389,,,
729717114.909244,-52.861262,29.579088,158.383473,-0.281006,-0.781891,0.545181,1.08298,-0.094455,-0.004115,101.164825,67.797867,-110.055389,,,
729717114.909546,-52.861267,29.57909,119.770271,-0.281006,-0.781891,0.545181,1.08298,-0.094455,-0.004115,101.164825,67.797867,-110.055389,,,
729717114.90982,-52.861262,29.579088,158.383473,-0.281006,-0.781891,0.545181,1.08298,-0.094455,-0.004115,101.164825,67.797867,-110.055389,,,
729717114.91279,-52.585834,29.341645,119.51115,-0.282211,-0.783569,0.551025,1.08298,-0.094455,-0.004115,101.164825,67.797867,-110.055389,,,
729717114.913385,-52.585814,29.341639,122.587999,-0.282211,-0.783569,0.551025,1.08298,-0.094455,-0.004115,101.164825,67.797867,-110.055389,,,
729717114.913496,-52.58583,29.341643,158.124354,-0.282211,-0.783569,0.551025,1.08298,-0.094455,-0.004115,101.164825,67.797867,-110.055389,,,
729717114.916204,-52.29806,29.092085,119.245094,-0.282211,-0.783569,0.551025,1.175679,-0.145812,-0.003367,101.164825,67.797867,-110.055389,,,
729717114.916973,-52.29804,29.09208,122.321943,-0.282211,-0.783569,0.551025,1.175679,-0.145812,-0.003367,101.164825,67.797867,-110.055389,,,
729717114.917087,-52.298055,29.092083,157.858302,-0.282211,-0.783569,0.551025,1.175679,-0.145812,-0.003367,101.164825,67.797867,-110.055389,,,
729717114.918884,-52.29806,29.092085,119.245094,-0.282211,-0.783569,0.551025,1.175679,-0.145812,-0.003367,101.164825,67.797867,-110.055389,,,
729717114.919176,-52.29804,29.09208,122.321943,-0.282211,-0.783569,0.551025,1.175679,-0.145812,-0.003367,101.164825,67.797867,-110.055389,,,
729717114.919847,-52.298055,29.092083,157.858302,-0.282211,-0.783569,0.551025,1.175679,-0.145812,-0.003367,101.164825,67.797867,-110.055389,,,
729717114.923082,-51.996591,28.830387,118.973491,-0.288361,-0.786896,0.55925,1.175679,-0.145812,-0.003367,101.164825,67.797867,-110.055389,,,
729717114.923979,-51.996571,28.830381,122.05034,-0.288361,-0.786896,0.55925,1.175679,-0.145812,-0.003367,101.164825,67.797867,-110.055389,,,
729717114.924087,-51.996586,28.830384,157.586695,-0.288361,-0.786896,0.55925,1.175679,-0.145812,-0.003367,101.164825,67.797867,-110.055389,,,
729717114.926391,-51.996591,28.830387,118.973491,-0.288361,-0.786896,0.55925,1.268212,-0.214242,0.008886,101.164825,67.797867,-110.055389,,,
729717114.928075,-51.681754,28.55678,121.774985,-0.288361,-0.786896,0.55925,1.268212,-0.214242,0.008886,101.164825,67.797867,-110.055389,,,
729717114.928203,-51.681768,28.556784,157.311342,-0.288361,-0.786896,0.55925,1.268212,-0.214242,0.008886,101.164825,67.797867,-110.055389,,,
729717114.929158,-51.681773,28.556786,118.698136,-0.288361,-0.786896,0.55925,1.268212,-0.214242,0.008886,101.164825,67.797867,-110.055389,,,
729717114.929312,-51.681754,28.55678,121.774985,-0.288361,-0.786896,0.55925,1.268212,-0.214242,0.008886,101.164825,67.797867,-110.055389,,,
729717114.929834,-51.681768,28.556784,157.311342,-0.288361,-0.786896,0.55925,1.268212,-0.214242,0.008886,101.164825,67.797867,-110.055389,,,
729717114.932819,-51.355824,28.271863,118.421753,-0.301453,-0.791382,0.56221,1.268212,-0.214242,0.008886,101.164825,67.797867,-110.055389,,,
729717114.933483,-51.355805,28.271858,121.498602,-0.301453,-0.791382,0.56221,1.268212,-0.214242,0.008886,101.164825,67.797867,-110.055389,,,
729717114.933594,-51.35582,28.271861,157.034961,-0.301453,-0.791382,0.56221,1.268212,-0.214242,0.008886,101.164825,67.797867,-110.055389,,,
729717114.937125,-51.02086,27.976707,118.146887,-0.301453,-0.791382,0.56221,1.32374,-0.300371,0.023661,101.147079,67.262314,-112.303497,,,
729717114.938302,-51.020841,27.976702,121.223736,-0.301453,-0.791382,0.56221,1.32374,-0.300371,0.023661,101.147079,67.262314,-112.303497,,,
729717114.938412,-51.020856,27.976705,156.760086,-0.301453,-0.791382,0.56221,1.32374,-0.300371,0.023661,101.147079,67.262314,-112.303497,,,
729717114.938675,-51.02086,27.976707,118.146887,-0.301453,-0.791382,0.56221,1.32374,-0.300371,0.023661,101.147079,67.262314,-112.303497,,,
729717114.939203,-51.020841,27.976702,121.223736,-0.301453,-0.791382,0.56221,1.32374,-0.300371,0.023661,101.147079,67.262314,-112.303497,,,
729717114.939878,-51.020856,27.976705,156.760086,-0.301453,-0.791382,0.56221,1.32374,-0.300371,0.023661,101.147079,67.262314,-112.303497,,,
729717114.942914,-50.678903,27.670849,117.87608,-0.300888,-0.788452,0.554794,1.32374,-0.300371,0.023661,101.147079,67.262314,-112.303497,,,
729717114.943603,-50.678884,27.670844,120.952929,-0.300888,-0.788452,0.554794,1.32374,-0.300371,0.023661,101.147079,67.262314,-112.303497,,,
729717114.943715,-50.678898,27.670847,156.48928,-0.300888,-0.788452,0.554794,1.32374,-0.300371,0.023661,101.147079,67.262314,-112.303497,,,
729717114.946234,-50.331061,27.353265,117.610824,-0.300888,-0.788452,0.554794,1.353063,-0.419051,0.042151,101.147079,67.262314,-112.303497,,,
729717114.94709,-50.331043,27.35326,120.687674,-0.300888,-0.788452,0.554794,1.353063,-0.419051,0.042151,101.147079,67.262314,-112.303497,,,
729717114.947205,-50.331057,27.353263,156.224025,-0.300888,-0.788452,0.554794,1.353063,-0.419051,0.042151,101.147079,67.262314,-112.303497,,,
729717114.948865,-50.331061,27.353265,117.610824,-0.300888,-0.788452,0.554794,1.353063,-0.419051,0.042151,101.147079,67.262314,-112.303497,,,
729717114.949178,-50.331043,27.35326,120.687674,-0.300888,-0.788452,0.554794,1.353063,-0.419051,0.042151,101.147079,67.262314,-112.303497,,,
729717114.949888,-50.331057,27.353263,156.224025,-0.300888,-0.788452,0.554794,1.353063,-0.419051,0.042151,101.147079,67.262314,-112.303497,,,
729717114.953076,-49.976812,27.02646,117.352154,-0.303299,-0.784866,0.545486,1.353063,-0.419051,0.042151,101.147079,67.262314,-112.303497,,,
729717114.954045,-49.976794,27.026455,120.429003,-0.303299,-0.784866,0.545486,1.353063,-0.419051,0.042151,101.147079,67.262314,-112.303497,,,
729717114.954186,-49.976808,27.026458,155.965352,-0.303299,-0.784866,0.545486,1.353063,-0.419051,0.042151,101.147079,67.262314,-112.303497,,,
729717114.956052,-49.976812,27.02646,117.352154,-0.303299,-0.784866,0.545486,1.383399,-0.497609,0.076233,101.147079,67.262314,-112.303497,,,
729717114.957313,-49.615437,26.696052,120.179064,-0.303299,-0.784866,0.545486,1.383399,-0.497609,0.076233,101.147079,67.262314,-112.303497,,,
729717114.957494,-49.615451,26.696055,155.715412,-0.303299,-0.784866,0.545486,1.383399,-0.497609,0.076233,101.147079,67.262314,-112.303497,,,
729717114.95949,-49.615455,26.696057,117.102215,-0.303299,-0.784866,0.545486,1.383399,-0.497609,0.076233,101.147079,67.262314,-112.303497,,,
729717114.959706,-49.615437,26.696052,120.179064,-0.303299,-0.784866,0.545486,1.383399,-0.497609,0.076233,101.147079,67.262314,-112.303497,,,
729717114.959871,-49.615451,26.696055,155.715412,-0.303299,-0.784866,0.545486,1.383399,-0.497609,0.076233,101.147079,67.262314,-112.303497,,,
729717114.963366,-49.247721,26.369694,116.863194,-0.30864,-0.786377,0.56279,1.383399,-0.497609,0.076233,101.147079,67.262314,-112.303497,,,
729717114.96462,-49.247704,26.369689,119.940043,-0.30864,-0.786377,0.56279,1.383399,-0.497609,0.076233,101.147079,67.262314,-112.303497,,,
729717114.964771,-49.247717,26.369692,155.476389,-0.30864,-0.786377,0.56279,1.383399,-0.497609,0.076233,101.147079,67.262314,-112.303497,,,
729717114.96547,-49.247721,26.369694,116.863194,-0.30864,-0.786377,0.56279,1.383399,-0.497609,0.076233,101.147079,67.262314,-112.303497,,,
729717114.966947,-48.873153,26.052297,119.711542,-0.30864,-0.786377,0.56279,1.408129,-0.497186,0.117359,101.147079,67.262314,-112.303497,,,
729717114.967132,-48.873166,26.0523,155.247898,-0.30864,-0.786377,0.56279,1.408129,-0.497186,0.117359,101.147079,67.262314,-112.303497,,,
729717114.969833,-48.87317,26.052301,116.634692,-0.30864,-0.786377,0.56279,1.408129,-0.497186,0.117359,101.147079,67.262314,-112.303497,,,
729717114.970063,-48.873153,26.052297,119.711542,-0.30864,-0.786377,0.56279,1.408129,-0.497186,0.117359,101.147079,67.262314,-112.303497,,,
729717114.970195,-48.873166,26.0523,155.247898,-0.30864,-0.786377,0.56279,1.408129,-0.497186,0.117359,101.147079,67.262314,-112.303497,,,
729717114.973195,-48.491109,25.747738,116.416883,-0.298447,-0.785049,0.597443,1.408129,-0.497186,0.117359,101.147079,67.262314,-112.303497,,,
729717114.974379,-48.491092,25.747733,119.493732,-0.298447,-0.785049,0.597443,1.408129,-0.497186,0.117359,101.147079,67.262314,-112.303497,,,
729717114.974533,-48.491105,25.747736,155.030089,-0.298447,-0.785049,0.597443,1.408129,-0.497186,0.117359,101.147079,67.262314,-112.303497,,,
729717114.975391,-48.491109,25.747738,116.416883,-0.298447,-0.785049,0.597443,1.408129,-0.497186,0.117359,101.147079,67.262314,-112.303497,,,
729717114.976599,-48.10058,25.45732,119.285452,-0.298447,-0.785049,0.597443,1.446849,-0.454922,0.161035,101.147079,67.262314,-112.303497,,,
729717114.97672,-48.100593,25.457322,154.821804,-0.298447,-0.785049,0.597443,1.446849,-0.454922,0.161035,101.147079,67.262314,-112.303497,,,
729717114.979891,-48.100597,25.457324,116.208602,-0.298447,-0.785049,0.597443,1.446849,-0.454922,0.161035,101.151764,66.116882,-114.904144,,,
729717114.98027,-48.10058,25.45732,119.285452,-0.298447,-0.785049,0.597443,1.446849,-0.454922,0.161035,101.151764,66.116882,-114.904144,,,
729717114.980403,-48.100593,25.457322,154.821804,-0.298447,-0.785049,0.597443,1.446849,-0.454922,0.161035,101.151764,66.116882,-114.904144,,,
729717114.982931,-47.701881,25.183407,116.009121,-0.278564,-0.776154,0.62146,1.446849,-0.454922,0.161035,101.151764,66.116882,-114.904144,,,
729717114.983805,-47.701864,25.183403,119.08597,-0.278564,-0.776154,0.62146,1.446849,-0.454922,0.161035,101.151764,66.116882,-114.904144,,,
729717114.983919,-47.701877,25.183405,154.622323,-0.278564,-0.776154,0.62146,1.446849,-0.454922,0.161035,101.151764,66.116882,-114.904144,,,
729717114.986335,-47.29605,24.930269,115.818949,-0.278564,-0.776154,0.62146,1.477294,-0.364369,0.201806,101.151764,66.116882,-114.904144,,,
729717114.987197,-47.296034,24.930265,118.895798,-0.278564,-0.776154,0.62146,1.477294,-0.364369,0.201806,101.151764,66.116882,-114.904144,,,
729717114.987299,-47.296046,24.930267,154.432149,-0.278564,-0.776154,0.62146,1.477294,-0.364369,0.201806,101.151764,66.116882,-114.904144,,,
729717114.988939,-47.29605,24.930269,115.818949,-0.278564,-0.776154,0.62146,1.477294,-0.364369,0.201806,101.151764,66.116882,-114.904144,,,
729717114.989179,-47.296034,24.930265,118.895798,-0.278564,-0.776154,0.62146,1.477294,-0.364369,0.201806,101.151764,66.116882,-114.904144,,,
729717114.989884,-47.296046,24.930267,154.432149,-0.278564,-0.776154,0.62146,1.477294,-0.364369,0.201806,101.151764,66.116882,-114.904144,,,
